{"data": {"bikes": [{"fusion_lat": 0.0, "type": "electric_scooter", "name": "e7a8f43b73c73b19de942f2227419e2a", "fusion_lon": 0.0, "bike_id": "e7a8f43b73c73b19de942f2227419e2a", "is_reserved": 0, "rental_uris": {"android": "https://dc.lft.to/lastmile_qr_scan", "ios": "https://dc.lft.to/lastmile_qr_scan"}, "lat": 38.9082585, "is_disabled": 0, "lon": -77.03960966666666}, {"fusion_lat": 0.0, "type": "electric_scooter", "name": "2fc1f34905f6b9dbb47b21119eef30ee", "fusion_lon": 0.0, "bike_id": "2fc1f34905f6b9dbb47b21119eef30ee", "is_reserved": 0, "rental_uris": {"android": "https://dc.lft.to/lastmile_qr_scan", "ios": "https://dc.lft.to/lastmile_qr_scan"}, "lat": 38.92487, "is_disabled": 0, "lon": -77.02212216666666}, {"fusion_lat": 0.0, "type": "electric_scooter", "name": "2b9505903c9e2a2e09712f298709e0db", "fusion_lon": 0.0, "bike_id": "2b9505903c9e2a2e09712f298709e0db", "is_reserved": 0, "rental_uris": {"android": "https://dc.lft.to/lastmile_qr_scan", "ios": "https://dc.lft.to/lastmile_qr_scan"}, "lat": 38.914949166666666, "is_disabled": 0, "lon": -77.04399883333333}, {"fusion_lat": 0.0, "type": "electric_scooter", "name": "29878ae994cd42c0144111d42f5a6bcf", "fusion_lon": 0.0, "bike_id": "29878ae994cd42c0144111d42f5a6bcf", "is_reserved": 0, "rental_uris": {"android": "https://dc.lft.to/lastmile_qr_scan", "ios": "https://dc.lft.to/lastmile_qr_scan"}, "lat": 38.91955183333334, "is_disabled": 0, "lon": -76.98082333333333}, {"fusion_lat": 0.0, "type": "electric_scooter", "name": "9e3247f4b403d32e5edf4417bb75c1b0", "fusion_lon": 0.0, "bike_id": "9e3247f4b403d32e5edf4417bb75c1b0", "is_reserved": 0, "rental_uris": {"android": "https://dc.lft.to/lastmile_qr_scan", "ios": "https://dc.lft.to/lastmile_qr_scan"}, "lat": 38.93520016666667, "is_disabled": 0, "lon": -77.07279466666667}, {"fusion_lat": 0.0, "type": "electric_scooter", "name": "b5bf6b5d889d4c731bbfcc3af64b6b82", "fusion_lon": 0.0, "bike_id": "b5bf6b5d889d4c731bbfcc3af64b6b82", "is_reserved": 0, "rental_uris": {"android": "https://dc.lft.to/lastmile_qr_scan", "ios": "https://dc.lft.to/lastmile_qr_scan"}, "lat": 38.905644333333335, "is_disabled": 0, "lon": -77.04699716666667}, {"fusion_lat": 0.0, "type": "electric_scooter", "name": "e7027095386e8d81aea2a23e6eb26585", "fusion_lon": 0.0, "bike_id": "e7027095386e8d81aea2a23e6eb26585", "is_reserved": 0, "rental_uris": {"android": "https://dc.lft.to/lastmile_qr_scan", "ios": "https://dc.lft.to/lastmile_qr_scan"}, "lat": 38.90856566666667, "is_disabled": 0, "lon": -77.04307516666667}, {"fusion_lat": 0.0, "type": "electric_bike", "name": "0613811beee3ebd169f0e319b6ef40a2", "fusion_lon": 0.0, "bike_id": "0613811beee3ebd169f0e319b6ef40a2", "is_reserved": 0, "rental_uris": {"android": "https://dc.lft.to/lastmile_qr_scan", "ios": "https://dc.lft.to/lastmile_qr_scan"}, "lat": 38.8966645, "is_disabled": 0, "lon": -76.93013483333333}, {"fusion_lat": 0.0, "type": "electric_scooter", "name": "7f366b86c485df79ef8aea2b2ce8670f", "fusion_lon": 0.0, "bike_id": "7f366b86c485df79ef8aea2b2ce8670f", "is_reserved": 0, "rental_uris": {"android": "https://dc.lft.to/lastmile_qr_scan", "ios": "https://dc.lft.to/lastmile_qr_scan"}, "lat": 38.88607616666667, "is_disabled": 0, "lon": -76.99511983333333}, {"fusion_lat": 0.0, "type": "electric_scooter", "name": "d03dc348ba582858b131d2d51e0e47bc", "fusion_lon": 0.0, "bike_id": "d03dc348ba582858b131d2d51e0e47bc", "is_reserved": 0, "rental_uris": {"android": "https://dc.lft.to/lastmile_qr_scan", "ios": "https://dc.lft.to/lastmile_qr_scan"}, "lat": 38.92441316666667, "is_disabled": 0, "lon": -77.03994416666667}, {"fusion_lat": 0.0, "type": "electric_scooter", "name": "c36e9d63fa07058145b8f241008576db", "fusion_lon": 0.0, "bike_id": "c36e9d63fa07058145b8f241008576db", "is_reserved": 0, "rental_uris": {"android": "https://dc.lft.to/lastmile_qr_scan", "ios": "https://dc.lft.to/lastmile_qr_scan"}, "lat": 38.94103666666667, "is_disabled": 0, "lon": -77.0211625}, {"fusion_lat": 0.0, "type": "electric_scooter", "name": "c805430f82cd17f4874d97c50b10257c", "fusion_lon": 0.0, "bike_id": "c805430f82cd17f4874d97c50b10257c", "is_reserved": 0, "rental_uris": {"android": "https://dc.lft.to/lastmile_qr_scan", "ios": "https://dc.lft.to/lastmile_qr_scan"}, "lat": 38.92429216666667, "is_disabled": 0, "lon": -77.051787}, {"fusion_lat": 0.0, "type": "electric_bike", "name": "d7a50e1e6c9ae99f5a594ed5881c251a", "fusion_lon": 0.0, "bike_id": "d7a50e1e6c9ae99f5a594ed5881c251a", "is_reserved": 0, "rental_uris": {"android": "https://dc.lft.to/lastmile_qr_scan", "ios": "https://dc.lft.to/lastmile_qr_scan"}, "lat": 38.87481533333333, "is_disabled": 0, "lon": -76.96530066666666}, {"fusion_lat": 0.0, "type": "electric_scooter", "name": "6338b07e9ff7acc657cf1f1699c181dc", "fusion_lon": 0.0, "bike_id": "6338b07e9ff7acc657cf1f1699c181dc", "is_reserved": 0, "rental_uris": {"android": "https://dc.lft.to/lastmile_qr_scan", "ios": "https://dc.lft.to/lastmile_qr_scan"}, "lat": 38.887478333333334, "is_disabled": 0, "lon": -77.031645}, {"fusion_lat": 0.0, "type": "electric_scooter", "name": "bd129384ce0a21c3b8001ac5aff1e3f8", "fusion_lon": 0.0, "bike_id": "bd129384ce0a21c3b8001ac5aff1e3f8", "is_reserved": 0, "rental_uris": {"android": "https://dc.lft.to/lastmile_qr_scan", "ios": "https://dc.lft.to/lastmile_qr_scan"}, "lat": 38.90263483333333, "is_disabled": 0, "lon": -77.02995116666666}, {"fusion_lat": 0.0, "type": "electric_scooter", "name": "267ca5f71bea76c0e96b73e5ad654ed5", "fusion_lon": 0.0, "bike_id": "267ca5f71bea76c0e96b73e5ad654ed5", "is_reserved": 0, "rental_uris": {"android": "https://dc.lft.to/lastmile_qr_scan", "ios": "https://dc.lft.to/lastmile_qr_scan"}, "lat": 38.912798, "is_disabled": 0, "lon": -77.022484}, {"fusion_lat": 0.0, "type": "electric_bike", "name": "582a9cf24532f9b53f8a6df5c93657c9", "fusion_lon": 0.0, "bike_id": "582a9cf24532f9b53f8a6df5c93657c9", "is_reserved": 0, "rental_uris": {"android": "https://dc.lft.to/lastmile_qr_scan", "ios": "https://dc.lft.to/lastmile_qr_scan"}, "lat": 38.9690585, "is_disabled": 0, "lon": -76.99495316666666}, {"fusion_lat": 0.0, "type": "electric_bike", "name": "d40bac80a0807e4275c37d792bc2681c", "fusion_lon": 0.0, "bike_id": "d40bac80a0807e4275c37d792bc2681c", "is_reserved": 0, "rental_uris": {"android": "https://dc.lft.to/lastmile_qr_scan", "ios": "https://dc.lft.to/lastmile_qr_scan"}, "lat": 38.96323433333333, "is_disabled": 0, "lon": -76.973617}, {"fusion_lat": 0.0, "type": "electric_scooter", "name": "d67468940970fa9176d122e860fe4130", "fusion_lon": 0.0, "bike_id": "d67468940970fa9176d122e860fe4130", "is_reserved": 0, "rental_uris": {"android": "https://dc.lft.to/lastmile_qr_scan", "ios": "https://dc.lft.to/lastmile_qr_scan"}, "lat": 38.917116, "is_disabled": 0, "lon": -77.03416666666666}, {"fusion_lat": 0.0, "type": "electric_scooter", "name": "e7fd333eadedfdc6e7a4493a95bdbdc4", "fusion_lon": 0.0, "bike_id": "e7fd333eadedfdc6e7a4493a95bdbdc4", "is_reserved": 0, "rental_uris": {"android": "https://dc.lft.to/lastmile_qr_scan", "ios": "https://dc.lft.to/lastmile_qr_scan"}, "lat": 38.90765316666667, "is_disabled": 0, "lon": -77.0357945}, {"fusion_lat": 0.0, "type": "electric_scooter", "name": "bb0cef112f757e168c0b2a838185ef2d", "fusion_lon": 0.0, "bike_id": "bb0cef112f757e168c0b2a838185ef2d", "is_reserved": 0, "rental_uris": {"android": "https://dc.lft.to/lastmile_qr_scan", "ios": "https://dc.lft.to/lastmile_qr_scan"}, "lat": 38.907464166666664, "is_disabled": 0, "lon": -77.04149583333333}, {"fusion_lat": 0.0, "type": "electric_scooter", "name": "843ff4e96262747c6f4929a246d12eea", "fusion_lon": 0.0, "bike_id": "843ff4e96262747c6f4929a246d12eea", "is_reserved": 0, "rental_uris": {"android": "https://dc.lft.to/lastmile_qr_scan", "ios": "https://dc.lft.to/lastmile_qr_scan"}, "lat": 38.90864233333333, "is_disabled": 0, "lon": -77.01356116666666}, {"fusion_lat": 0.0, "type": "electric_scooter", "name": "9829e80c61387922ef18f85025918abe", "fusion_lon": 0.0, "bike_id": "9829e80c61387922ef18f85025918abe", "is_reserved": 0, "rental_uris": {"android": "https://dc.lft.to/lastmile_qr_scan", "ios": "https://dc.lft.to/lastmile_qr_scan"}, "lat": 38.908669833333335, "is_disabled": 0, "lon": -77.085905}, {"fusion_lat": 0.0, "type": "electric_scooter", "name": "5e87f57e1bb3af3d23037af8ce10d2a9", "fusion_lon": 0.0, "bike_id": "5e87f57e1bb3af3d23037af8ce10d2a9", "is_reserved": 0, "rental_uris": {"android": "https://dc.lft.to/lastmile_qr_scan", "ios": "https://dc.lft.to/lastmile_qr_scan"}, "lat": 38.879661666666664, "is_disabled": 0, "lon": -76.98745483333333}, {"fusion_lat": 0.0, "type": "electric_scooter", "name": "90eeb2c2c71813abf05f62efd1bec397", "fusion_lon": 0.0, "bike_id": "90eeb2c2c71813abf05f62efd1bec397", "is_reserved": 0, "rental_uris": {"android": "https://dc.lft.to/lastmile_qr_scan", "ios": "https://dc.lft.to/lastmile_qr_scan"}, "lat": 38.92153016666666, "is_disabled": 0, "lon": -77.033514}, {"fusion_lat": 0.0, "type": "electric_scooter", "name": "d289fe3945b8c500b02d9aa264ef8299", "fusion_lon": 0.0, "bike_id": "d289fe3945b8c500b02d9aa264ef8299", "is_reserved": 0, "rental_uris": {"android": "https://dc.lft.to/lastmile_qr_scan", "ios": "https://dc.lft.to/lastmile_qr_scan"}, "lat": 38.904831, "is_disabled": 0, "lon": -77.00211166666666}, {"fusion_lat": 0.0, "type": "electric_bike", "name": "14ff007a3cbc41425005e13bf3db2827", "fusion_lon": 0.0, "bike_id": "14ff007a3cbc41425005e13bf3db2827", "is_reserved": 0, "rental_uris": {"android": "https://dc.lft.to/lastmile_qr_scan", "ios": "https://dc.lft.to/lastmile_qr_scan"}, "lat": 39.034333333333336, "is_disabled": 0, "lon": -77.04092883333334}, {"fusion_lat": 0.0, "type": "electric_scooter", "name": "ab212d69bd710fade4f4b8caad0a7a12", "fusion_lon": 0.0, "bike_id": "ab212d69bd710fade4f4b8caad0a7a12", "is_reserved": 0, "rental_uris": {"android": "https://dc.lft.to/lastmile_qr_scan", "ios": "https://dc.lft.to/lastmile_qr_scan"}, "lat": 38.92057416666667, "is_disabled": 0, "lon": -77.01683683333333}, {"fusion_lat": 0.0, "type": "electric_bike", "name": "4636801835eca1a69b183732cbfee5b3", "fusion_lon": 0.0, "bike_id": "4636801835eca1a69b183732cbfee5b3", "is_reserved": 0, "rental_uris": {"android": "https://dc.lft.to/lastmile_qr_scan", "ios": "https://dc.lft.to/lastmile_qr_scan"}, "lat": 39.054985333333335, "is_disabled": 0, "lon": -77.1178675}, {"fusion_lat": 0.0, "type": "electric_scooter", "name": "117d0c78f3a1998d9104f0f83a5936d2", "fusion_lon": 0.0, "bike_id": "117d0c78f3a1998d9104f0f83a5936d2", "is_reserved": 0, "rental_uris": {"android": "https://dc.lft.to/lastmile_qr_scan", "ios": "https://dc.lft.to/lastmile_qr_scan"}, "lat": 38.922992, "is_disabled": 0, "lon": -77.0427105}, {"fusion_lat": 0.0, "type": "electric_scooter", "name": "4ca2a164b79e8854bdbc64e66a10b94e", "fusion_lon": 0.0, "bike_id": "4ca2a164b79e8854bdbc64e66a10b94e", "is_reserved": 0, "rental_uris": {"android": "https://dc.lft.to/lastmile_qr_scan", "ios": "https://dc.lft.to/lastmile_qr_scan"}, "lat": 38.91438316666667, "is_disabled": 0, "lon": -77.01727466666667}, {"fusion_lat": 0.0, "type": "electric_bike", "name": "15de76a1cde37e861cca909e7b8b22d3", "fusion_lon": 0.0, "bike_id": "15de76a1cde37e861cca909e7b8b22d3", "is_reserved": 0, "rental_uris": {"android": "https://dc.lft.to/lastmile_qr_scan", "ios": "https://dc.lft.to/lastmile_qr_scan"}, "lat": 38.9630865, "is_disabled": 0, "lon": -77.0111235}, {"fusion_lat": 0.0, "type": "electric_bike", "name": "36990bba890442ea72c91da96e41b68a", "fusion_lon": 0.0, "bike_id": "36990bba890442ea72c91da96e41b68a", "is_reserved": 0, "rental_uris": {"android": "https://dc.lft.to/lastmile_qr_scan", "ios": "https://dc.lft.to/lastmile_qr_scan"}, "lat": 38.883337166666664, "is_disabled": 0, "lon": -77.06563833333334}, {"fusion_lat": 0.0, "type": "electric_scooter", "name": "7bcb79ee9d972fabad022e52d887ec68", "fusion_lon": 0.0, "bike_id": "7bcb79ee9d972fabad022e52d887ec68", "is_reserved": 0, "rental_uris": {"android": "https://dc.lft.to/lastmile_qr_scan", "ios": "https://dc.lft.to/lastmile_qr_scan"}, "lat": 38.9072095, "is_disabled": 0, "lon": -77.041775}, {"fusion_lat": 0.0, "type": "electric_bike", "name": "64c6be6db97f369d71500955eba2c786", "fusion_lon": 0.0, "bike_id": "64c6be6db97f369d71500955eba2c786", "is_reserved": 0, "rental_uris": {"android": "https://dc.lft.to/lastmile_qr_scan", "ios": "https://dc.lft.to/lastmile_qr_scan"}, "lat": 38.831568, "is_disabled": 0, "lon": -76.99543766666666}, {"fusion_lat": 0.0, "type": "electric_bike", "name": "467783c997249780d30d2808c98d1eb9", "fusion_lon": 0.0, "bike_id": "467783c997249780d30d2808c98d1eb9", "is_reserved": 0, "rental_uris": {"android": "https://dc.lft.to/lastmile_qr_scan", "ios": "https://dc.lft.to/lastmile_qr_scan"}, "lat": 38.9387145, "is_disabled": 0, "lon": -76.94293216666667}, {"fusion_lat": 0.0, "type": "electric_bike", "name": "ed6b5be940ca2aad44a1735984bd5895", "fusion_lon": 0.0, "bike_id": "ed6b5be940ca2aad44a1735984bd5895", "is_reserved": 0, "rental_uris": {"android": "https://dc.lft.to/lastmile_qr_scan", "ios": "https://dc.lft.to/lastmile_qr_scan"}, "lat": 38.96224383333333, "is_disabled": 0, "lon": -77.02626833333333}, {"fusion_lat": 0.0, "type": "electric_scooter", "name": "6b4747f2d913eeaeb8185a158ca24958", "fusion_lon": 0.0, "bike_id": "6b4747f2d913eeaeb8185a158ca24958", "is_reserved": 0, "rental_uris": {"android": "https://dc.lft.to/lastmile_qr_scan", "ios": "https://dc.lft.to/lastmile_qr_scan"}, "lat": 38.923646166666664, "is_disabled": 0, "lon": -77.05053266666667}, {"fusion_lat": 0.0, "type": "electric_scooter", "name": "92da1ed85058efc9c62f714c0b3118a9", "fusion_lon": 0.0, "bike_id": "92da1ed85058efc9c62f714c0b3118a9", "is_reserved": 0, "rental_uris": {"android": "https://dc.lft.to/lastmile_qr_scan", "ios": "https://dc.lft.to/lastmile_qr_scan"}, "lat": 38.92342583333333, "is_disabled": 0, "lon": -77.021198}, {"fusion_lat": 0.0, "type": "electric_scooter", "name": "f73febf9b431f8f65a3f3530e57fce09", "fusion_lon": 0.0, "bike_id": "f73febf9b431f8f65a3f3530e57fce09", "is_reserved": 0, "rental_uris": {"android": "https://dc.lft.to/lastmile_qr_scan", "ios": "https://dc.lft.to/lastmile_qr_scan"}, "lat": 38.878141, "is_disabled": 0, "lon": -76.994569}, {"fusion_lat": 0.0, "type": "electric_scooter", "name": "9de73811f7dc67ed22270d162b308bac", "fusion_lon": 0.0, "bike_id": "9de73811f7dc67ed22270d162b308bac", "is_reserved": 0, "rental_uris": {"android": "https://dc.lft.to/lastmile_qr_scan", "ios": "https://dc.lft.to/lastmile_qr_scan"}, "lat": 38.92138833333333, "is_disabled": 0, "lon": -77.0287415}, {"fusion_lat": 0.0, "type": "electric_scooter", "name": "d3376fa999a0d7b607d10ee1493e21a3", "fusion_lon": 0.0, "bike_id": "d3376fa999a0d7b607d10ee1493e21a3", "is_reserved": 0, "rental_uris": {"android": "https://dc.lft.to/lastmile_qr_scan", "ios": "https://dc.lft.to/lastmile_qr_scan"}, "lat": 38.93348233333333, "is_disabled": 0, "lon": -77.04112983333333}, {"fusion_lat": 0.0, "type": "electric_scooter", "name": "4026ecbc6bafee0691a63ffafff854ed", "fusion_lon": 0.0, "bike_id": "4026ecbc6bafee0691a63ffafff854ed", "is_reserved": 0, "rental_uris": {"android": "https://dc.lft.to/lastmile_qr_scan", "ios": "https://dc.lft.to/lastmile_qr_scan"}, "lat": 38.91556216666667, "is_disabled": 0, "lon": -77.0316915}, {"fusion_lat": 0.0, "type": "electric_bike", "name": "95e38a4c49cc7a26969d29c858df6b83", "fusion_lon": 0.0, "bike_id": "95e38a4c49cc7a26969d29c858df6b83", "is_reserved": 0, "rental_uris": {"android": "https://dc.lft.to/lastmile_qr_scan", "ios": "https://dc.lft.to/lastmile_qr_scan"}, "lat": 38.95958433333333, "is_disabled": 0, "lon": -77.10093366666666}, {"fusion_lat": 0.0, "type": "electric_scooter", "name": "5ad332f2f6e87a104d600589febbd47b", "fusion_lon": 0.0, "bike_id": "5ad332f2f6e87a104d600589febbd47b", "is_reserved": 0, "rental_uris": {"android": "https://dc.lft.to/lastmile_qr_scan", "ios": "https://dc.lft.to/lastmile_qr_scan"}, "lat": 38.88459133333333, "is_disabled": 0, "lon": -76.92619383333333}, {"fusion_lat": 0.0, "type": "electric_scooter", "name": "bc307d61b2f76b6ed3872c11f3938953", "fusion_lon": 0.0, "bike_id": "bc307d61b2f76b6ed3872c11f3938953", "is_reserved": 0, "rental_uris": {"android": "https://dc.lft.to/lastmile_qr_scan", "ios": "https://dc.lft.to/lastmile_qr_scan"}, "lat": 38.886085, "is_disabled": 0, "lon": -76.99508533333334}, {"fusion_lat": 0.0, "type": "electric_bike", "name": "2725687d9afea488fdd7d05661ed7acc", "fusion_lon": 0.0, "bike_id": "2725687d9afea488fdd7d05661ed7acc", "is_reserved": 0, "rental_uris": {"android": "https://dc.lft.to/lastmile_qr_scan", "ios": "https://dc.lft.to/lastmile_qr_scan"}, "lat": 38.812049333333334, "is_disabled": 0, "lon": -77.10832416666666}, {"fusion_lat": 0.0, "type": "electric_scooter", "name": "4b90365006945f9eb8f9cdf9bce8ba7b", "fusion_lon": 0.0, "bike_id": "4b90365006945f9eb8f9cdf9bce8ba7b", "is_reserved": 0, "rental_uris": {"android": "https://dc.lft.to/lastmile_qr_scan", "ios": "https://dc.lft.to/lastmile_qr_scan"}, "lat": 38.934606333333335, "is_disabled": 0, "lon": -77.02219166666667}, {"fusion_lat": 0.0, "type": "electric_scooter", "name": "aa5bfb151ae38a825d28d03b17594df9", "fusion_lon": 0.0, "bike_id": "aa5bfb151ae38a825d28d03b17594df9", "is_reserved": 0, "rental_uris": {"android": "https://dc.lft.to/lastmile_qr_scan", "ios": "https://dc.lft.to/lastmile_qr_scan"}, "lat": 38.902292833333334, "is_disabled": 0, "lon": -77.03358633333333}, {"fusion_lat": 0.0, "type": "electric_scooter", "name": "f795b48d47f3110329605dc4da332321", "fusion_lon": 0.0, "bike_id": "f795b48d47f3110329605dc4da332321", "is_reserved": 0, "rental_uris": {"android": "https://dc.lft.to/lastmile_qr_scan", "ios": "https://dc.lft.to/lastmile_qr_scan"}, "lat": 38.8996525, "is_disabled": 0, "lon": -77.0157305}, {"fusion_lat": 0.0, "type": "electric_scooter", "name": "66696304f3d987cf7b3d32f2d36f1c70", "fusion_lon": 0.0, "bike_id": "66696304f3d987cf7b3d32f2d36f1c70", "is_reserved": 0, "rental_uris": {"android": "https://dc.lft.to/lastmile_qr_scan", "ios": "https://dc.lft.to/lastmile_qr_scan"}, "lat": 38.90353316666667, "is_disabled": 0, "lon": -77.02068283333334}, {"fusion_lat": 0.0, "type": "electric_scooter", "name": "0ed22459f7bc31cda05b335f9593a24b", "fusion_lon": 0.0, "bike_id": "0ed22459f7bc31cda05b335f9593a24b", "is_reserved": 0, "rental_uris": {"android": "https://dc.lft.to/lastmile_qr_scan", "ios": "https://dc.lft.to/lastmile_qr_scan"}, "lat": 38.90269583333333, "is_disabled": 0, "lon": -77.03946766666667}, {"fusion_lat": 0.0, "type": "electric_bike", "name": "b3ab5c3f8579a1a1c92bb4dd8d404db2", "fusion_lon": 0.0, "bike_id": "b3ab5c3f8579a1a1c92bb4dd8d404db2", "is_reserved": 0, "rental_uris": {"android": "https://dc.lft.to/lastmile_qr_scan", "ios": "https://dc.lft.to/lastmile_qr_scan"}, "lat": 38.945535, "is_disabled": 0, "lon": -76.89540766666667}, {"fusion_lat": 0.0, "type": "electric_scooter", "name": "eee336f61777d182fac920c9c6d72f11", "fusion_lon": 0.0, "bike_id": "eee336f61777d182fac920c9c6d72f11", "is_reserved": 0, "rental_uris": {"android": "https://dc.lft.to/lastmile_qr_scan", "ios": "https://dc.lft.to/lastmile_qr_scan"}, "lat": 38.921499833333336, "is_disabled": 0, "lon": -77.0207035}, {"fusion_lat": 0.0, "type": "electric_scooter", "name": "ad9d632c1b78a459a2876c854201a128", "fusion_lon": 0.0, "bike_id": "ad9d632c1b78a459a2876c854201a128", "is_reserved": 0, "rental_uris": {"android": "https://dc.lft.to/lastmile_qr_scan", "ios": "https://dc.lft.to/lastmile_qr_scan"}, "lat": 38.90605266666667, "is_disabled": 0, "lon": -77.0434715}, {"fusion_lat": 0.0, "type": "electric_scooter", "name": "7598f2b961db8f95f719b27c0f50c1ae", "fusion_lon": 0.0, "bike_id": "7598f2b961db8f95f719b27c0f50c1ae", "is_reserved": 0, "rental_uris": {"android": "https://dc.lft.to/lastmile_qr_scan", "ios": "https://dc.lft.to/lastmile_qr_scan"}, "lat": 38.929685666666664, "is_disabled": 0, "lon": -77.055018}, {"fusion_lat": 0.0, "type": "electric_scooter", "name": "24a01b459c1bd4437fb2692f49455d2c", "fusion_lon": 0.0, "bike_id": "24a01b459c1bd4437fb2692f49455d2c", "is_reserved": 0, "rental_uris": {"android": "https://dc.lft.to/lastmile_qr_scan", "ios": "https://dc.lft.to/lastmile_qr_scan"}, "lat": 38.91486333333334, "is_disabled": 0, "lon": -77.025662}, {"fusion_lat": 0.0, "type": "electric_bike", "name": "929557f7e8bed0389a3026a39f29187b", "fusion_lon": 0.0, "bike_id": "929557f7e8bed0389a3026a39f29187b", "is_reserved": 0, "rental_uris": {"android": "https://dc.lft.to/lastmile_qr_scan", "ios": "https://dc.lft.to/lastmile_qr_scan"}, "lat": 38.905308, "is_disabled": 0, "lon": -77.04503433333333}, {"fusion_lat": 0.0, "type": "electric_scooter", "name": "afd895ba137452db38639c6ff2cb162a", "fusion_lon": 0.0, "bike_id": "afd895ba137452db38639c6ff2cb162a", "is_reserved": 0, "rental_uris": {"android": "https://dc.lft.to/lastmile_qr_scan", "ios": "https://dc.lft.to/lastmile_qr_scan"}, "lat": 38.942672333333334, "is_disabled": 0, "lon": -77.02842833333334}, {"fusion_lat": 0.0, "type": "electric_scooter", "name": "e0b617589097d89d9cc9655c2d3a9f70", "fusion_lon": 0.0, "bike_id": "e0b617589097d89d9cc9655c2d3a9f70", "is_reserved": 0, "rental_uris": {"android": "https://dc.lft.to/lastmile_qr_scan", "ios": "https://dc.lft.to/lastmile_qr_scan"}, "lat": 38.914227833333335, "is_disabled": 0, "lon": -77.01741583333333}, {"fusion_lat": 0.0, "type": "electric_scooter", "name": "ee45b0cb5b427ebbd7aaaa0b0444effe", "fusion_lon": 0.0, "bike_id": "ee45b0cb5b427ebbd7aaaa0b0444effe", "is_reserved": 0, "rental_uris": {"android": "https://dc.lft.to/lastmile_qr_scan", "ios": "https://dc.lft.to/lastmile_qr_scan"}, "lat": 38.9293305, "is_disabled": 0, "lon": -77.03757383333334}, {"fusion_lat": 0.0, "type": "electric_bike", "name": "3938700e1084c491c690e59631a8be8f", "fusion_lon": 0.0, "bike_id": "3938700e1084c491c690e59631a8be8f", "is_reserved": 0, "rental_uris": {"android": "https://dc.lft.to/lastmile_qr_scan", "ios": "https://dc.lft.to/lastmile_qr_scan"}, "lat": 38.94976783333333, "is_disabled": 0, "lon": -77.073877}, {"fusion_lat": 0.0, "type": "electric_scooter", "name": "dc7010197d45cad9d07d7e55a7cfd4a5", "fusion_lon": 0.0, "bike_id": "dc7010197d45cad9d07d7e55a7cfd4a5", "is_reserved": 0, "rental_uris": {"android": "https://dc.lft.to/lastmile_qr_scan", "ios": "https://dc.lft.to/lastmile_qr_scan"}, "lat": 38.92511, "is_disabled": 0, "lon": -77.0228755}, {"fusion_lat": 0.0, "type": "electric_scooter", "name": "3f328945404e9f778cbdc709c7f32f4e", "fusion_lon": 0.0, "bike_id": "3f328945404e9f778cbdc709c7f32f4e", "is_reserved": 0, "rental_uris": {"android": "https://dc.lft.to/lastmile_qr_scan", "ios": "https://dc.lft.to/lastmile_qr_scan"}, "lat": 38.90972166666667, "is_disabled": 0, "lon": -77.0411465}, {"fusion_lat": 0.0, "type": "electric_scooter", "name": "cbbcb2f8f0047c9cc64996506fac37fa", "fusion_lon": 0.0, "bike_id": "cbbcb2f8f0047c9cc64996506fac37fa", "is_reserved": 0, "rental_uris": {"android": "https://dc.lft.to/lastmile_qr_scan", "ios": "https://dc.lft.to/lastmile_qr_scan"}, "lat": 38.89963566666667, "is_disabled": 0, "lon": -77.01631816666666}, {"fusion_lat": 0.0, "type": "electric_scooter", "name": "ca507710e796a7c1b3a12acd80c64097", "fusion_lon": 0.0, "bike_id": "ca507710e796a7c1b3a12acd80c64097", "is_reserved": 0, "rental_uris": {"android": "https://dc.lft.to/lastmile_qr_scan", "ios": "https://dc.lft.to/lastmile_qr_scan"}, "lat": 38.917055, "is_disabled": 0, "lon": -77.04257966666667}, {"fusion_lat": 0.0, "type": "electric_scooter", "name": "15188ab0aca6a3c1303d7211d8623f19", "fusion_lon": 0.0, "bike_id": "15188ab0aca6a3c1303d7211d8623f19", "is_reserved": 0, "rental_uris": {"android": "https://dc.lft.to/lastmile_qr_scan", "ios": "https://dc.lft.to/lastmile_qr_scan"}, "lat": 38.88612583333333, "is_disabled": 0, "lon": -76.99656583333334}, {"fusion_lat": 0.0, "type": "electric_scooter", "name": "31ba6faef050fffa534b8aa9a19bdfc4", "fusion_lon": 0.0, "bike_id": "31ba6faef050fffa534b8aa9a19bdfc4", "is_reserved": 0, "rental_uris": {"android": "https://dc.lft.to/lastmile_qr_scan", "ios": "https://dc.lft.to/lastmile_qr_scan"}, "lat": 38.89756716666667, "is_disabled": 0, "lon": -77.04003433333334}, {"fusion_lat": 0.0, "type": "electric_scooter", "name": "5b2ea73a55b8a49558c17d31d5754389", "fusion_lon": 0.0, "bike_id": "5b2ea73a55b8a49558c17d31d5754389", "is_reserved": 0, "rental_uris": {"android": "https://dc.lft.to/lastmile_qr_scan", "ios": "https://dc.lft.to/lastmile_qr_scan"}, "lat": 38.9555735, "is_disabled": 0, "lon": -77.07003516666667}, {"fusion_lat": 0.0, "type": "electric_scooter", "name": "f08ae3dd6b4f092293647ca8130d8bd8", "fusion_lon": 0.0, "bike_id": "f08ae3dd6b4f092293647ca8130d8bd8", "is_reserved": 0, "rental_uris": {"android": "https://dc.lft.to/lastmile_qr_scan", "ios": "https://dc.lft.to/lastmile_qr_scan"}, "lat": 38.916345666666665, "is_disabled": 0, "lon": -77.01074683333333}, {"fusion_lat": 0.0, "type": "electric_scooter", "name": "fdeaf1a48c572fa1c4f9177623fcb0ad", "fusion_lon": 0.0, "bike_id": "fdeaf1a48c572fa1c4f9177623fcb0ad", "is_reserved": 0, "rental_uris": {"android": "https://dc.lft.to/lastmile_qr_scan", "ios": "https://dc.lft.to/lastmile_qr_scan"}, "lat": 38.91695083333333, "is_disabled": 0, "lon": -77.0377245}, {"fusion_lat": 0.0, "type": "electric_scooter", "name": "b5f7c9c02920296af67d72097a54db58", "fusion_lon": 0.0, "bike_id": "b5f7c9c02920296af67d72097a54db58", "is_reserved": 0, "rental_uris": {"android": "https://dc.lft.to/lastmile_qr_scan", "ios": "https://dc.lft.to/lastmile_qr_scan"}, "lat": 38.871592666666665, "is_disabled": 0, "lon": -76.97744433333334}, {"fusion_lat": 0.0, "type": "electric_scooter", "name": "6a49977e6048b84054e36ca9c2c276e2", "fusion_lon": 0.0, "bike_id": "6a49977e6048b84054e36ca9c2c276e2", "is_reserved": 0, "rental_uris": {"android": "https://dc.lft.to/lastmile_qr_scan", "ios": "https://dc.lft.to/lastmile_qr_scan"}, "lat": 38.906436166666666, "is_disabled": 0, "lon": -77.0059705}, {"fusion_lat": 0.0, "type": "electric_scooter", "name": "1e6fe8fc8a88f588d391a65448491439", "fusion_lon": 0.0, "bike_id": "1e6fe8fc8a88f588d391a65448491439", "is_reserved": 0, "rental_uris": {"android": "https://dc.lft.to/lastmile_qr_scan", "ios": "https://dc.lft.to/lastmile_qr_scan"}, "lat": 38.913909, "is_disabled": 0, "lon": -77.0332805}, {"fusion_lat": 0.0, "type": "electric_scooter", "name": "5002aa42ddfc503a6c69c4595697437d", "fusion_lon": 0.0, "bike_id": "5002aa42ddfc503a6c69c4595697437d", "is_reserved": 0, "rental_uris": {"android": "https://dc.lft.to/lastmile_qr_scan", "ios": "https://dc.lft.to/lastmile_qr_scan"}, "lat": 38.936724166666664, "is_disabled": 0, "lon": -77.03417366666666}, {"fusion_lat": 0.0, "type": "electric_scooter", "name": "1a4988782ea67853110c959eac07ff0e", "fusion_lon": 0.0, "bike_id": "1a4988782ea67853110c959eac07ff0e", "is_reserved": 0, "rental_uris": {"android": "https://dc.lft.to/lastmile_qr_scan", "ios": "https://dc.lft.to/lastmile_qr_scan"}, "lat": 38.901484833333335, "is_disabled": 0, "lon": -77.015091}, {"fusion_lat": 0.0, "type": "electric_scooter", "name": "2699f9cca43f6e3687890549f398b6f6", "fusion_lon": 0.0, "bike_id": "2699f9cca43f6e3687890549f398b6f6", "is_reserved": 0, "rental_uris": {"android": "https://dc.lft.to/lastmile_qr_scan", "ios": "https://dc.lft.to/lastmile_qr_scan"}, "lat": 38.90013166666667, "is_disabled": 0, "lon": -77.03153316666666}, {"fusion_lat": 0.0, "type": "electric_scooter", "name": "6e98029676a023d1e438452a500671ac", "fusion_lon": 0.0, "bike_id": "6e98029676a023d1e438452a500671ac", "is_reserved": 0, "rental_uris": {"android": "https://dc.lft.to/lastmile_qr_scan", "ios": "https://dc.lft.to/lastmile_qr_scan"}, "lat": 38.862678833333334, "is_disabled": 0, "lon": -76.99469016666667}, {"fusion_lat": 0.0, "type": "electric_scooter", "name": "8a45c25c05291a6dd13ea0f9d627ab36", "fusion_lon": 0.0, "bike_id": "8a45c25c05291a6dd13ea0f9d627ab36", "is_reserved": 0, "rental_uris": {"android": "https://dc.lft.to/lastmile_qr_scan", "ios": "https://dc.lft.to/lastmile_qr_scan"}, "lat": 38.89334383333333, "is_disabled": 0, "lon": -77.0120265}, {"fusion_lat": 0.0, "type": "electric_scooter", "name": "75f8763e206bf9ac0dce734f84dc5f3f", "fusion_lon": 0.0, "bike_id": "75f8763e206bf9ac0dce734f84dc5f3f", "is_reserved": 0, "rental_uris": {"android": "https://dc.lft.to/lastmile_qr_scan", "ios": "https://dc.lft.to/lastmile_qr_scan"}, "lat": 38.8923975, "is_disabled": 0, "lon": -77.03182933333333}, {"fusion_lat": 0.0, "type": "electric_scooter", "name": "710be3e09865040e0e83afe8573eb2e2", "fusion_lon": 0.0, "bike_id": "710be3e09865040e0e83afe8573eb2e2", "is_reserved": 0, "rental_uris": {"android": "https://dc.lft.to/lastmile_qr_scan", "ios": "https://dc.lft.to/lastmile_qr_scan"}, "lat": 38.897533833333334, "is_disabled": 0, "lon": -77.02648833333333}, {"fusion_lat": 0.0, "type": "electric_scooter", "name": "b04feb99769e72cfe29f2cc87efd47ba", "fusion_lon": 0.0, "bike_id": "b04feb99769e72cfe29f2cc87efd47ba", "is_reserved": 0, "rental_uris": {"android": "https://dc.lft.to/lastmile_qr_scan", "ios": "https://dc.lft.to/lastmile_qr_scan"}, "lat": 38.919791333333336, "is_disabled": 0, "lon": -77.02178816666667}, {"fusion_lat": 0.0, "type": "electric_scooter", "name": "a854136407298efbd763a27c8fc1e07a", "fusion_lon": 0.0, "bike_id": "a854136407298efbd763a27c8fc1e07a", "is_reserved": 0, "rental_uris": {"android": "https://dc.lft.to/lastmile_qr_scan", "ios": "https://dc.lft.to/lastmile_qr_scan"}, "lat": 38.917081, "is_disabled": 0, "lon": -77.03514683333333}, {"fusion_lat": 0.0, "type": "electric_scooter", "name": "145807d1b688b8849131cd7ff08df98a", "fusion_lon": 0.0, "bike_id": "145807d1b688b8849131cd7ff08df98a", "is_reserved": 0, "rental_uris": {"android": "https://dc.lft.to/lastmile_qr_scan", "ios": "https://dc.lft.to/lastmile_qr_scan"}, "lat": 38.887345833333335, "is_disabled": 0, "lon": -77.02829416666667}, {"fusion_lat": 0.0, "type": "electric_scooter", "name": "9fa20ddc2e2dd76823bb638c47d1750e", "fusion_lon": 0.0, "bike_id": "9fa20ddc2e2dd76823bb638c47d1750e", "is_reserved": 0, "rental_uris": {"android": "https://dc.lft.to/lastmile_qr_scan", "ios": "https://dc.lft.to/lastmile_qr_scan"}, "lat": 38.902724166666665, "is_disabled": 0, "lon": -77.02818916666666}, {"fusion_lat": 0.0, "type": "electric_scooter", "name": "3637a6084e31fc75a78c0370667091cb", "fusion_lon": 0.0, "bike_id": "3637a6084e31fc75a78c0370667091cb", "is_reserved": 0, "rental_uris": {"android": "https://dc.lft.to/lastmile_qr_scan", "ios": "https://dc.lft.to/lastmile_qr_scan"}, "lat": 38.90290066666667, "is_disabled": 0, "lon": -77.02208683333333}, {"fusion_lat": 0.0, "type": "electric_scooter", "name": "a859d4293546720bf981fc689cb8caaa", "fusion_lon": 0.0, "bike_id": "a859d4293546720bf981fc689cb8caaa", "is_reserved": 0, "rental_uris": {"android": "https://dc.lft.to/lastmile_qr_scan", "ios": "https://dc.lft.to/lastmile_qr_scan"}, "lat": 38.90971916666667, "is_disabled": 0, "lon": -77.02417566666666}, {"fusion_lat": 0.0, "type": "electric_scooter", "name": "3955b87061d33ef3959d7f30d777ceb7", "fusion_lon": 0.0, "bike_id": "3955b87061d33ef3959d7f30d777ceb7", "is_reserved": 0, "rental_uris": {"android": "https://dc.lft.to/lastmile_qr_scan", "ios": "https://dc.lft.to/lastmile_qr_scan"}, "lat": 38.916928666666664, "is_disabled": 0, "lon": -77.0259885}, {"fusion_lat": 0.0, "type": "electric_scooter", "name": "bbb9f3cbbf395218976590f37513e18b", "fusion_lon": 0.0, "bike_id": "bbb9f3cbbf395218976590f37513e18b", "is_reserved": 0, "rental_uris": {"android": "https://dc.lft.to/lastmile_qr_scan", "ios": "https://dc.lft.to/lastmile_qr_scan"}, "lat": 38.8731695, "is_disabled": 0, "lon": -77.005914}, {"fusion_lat": 0.0, "type": "electric_scooter", "name": "02b02ecfe17b342b8fee2bb0bb3b053a", "fusion_lon": 0.0, "bike_id": "02b02ecfe17b342b8fee2bb0bb3b053a", "is_reserved": 0, "rental_uris": {"android": "https://dc.lft.to/lastmile_qr_scan", "ios": "https://dc.lft.to/lastmile_qr_scan"}, "lat": 38.88817733333333, "is_disabled": 0, "lon": -76.933412}, {"fusion_lat": 0.0, "type": "electric_scooter", "name": "fa91d25b256579fe7feb1ee599c48225", "fusion_lon": 0.0, "bike_id": "fa91d25b256579fe7feb1ee599c48225", "is_reserved": 0, "rental_uris": {"android": "https://dc.lft.to/lastmile_qr_scan", "ios": "https://dc.lft.to/lastmile_qr_scan"}, "lat": 38.912735166666664, "is_disabled": 0, "lon": -77.028817}, {"fusion_lat": 0.0, "type": "electric_scooter", "name": "c4947928d13e0d471d0ba1532c557261", "fusion_lon": 0.0, "bike_id": "c4947928d13e0d471d0ba1532c557261", "is_reserved": 0, "rental_uris": {"android": "https://dc.lft.to/lastmile_qr_scan", "ios": "https://dc.lft.to/lastmile_qr_scan"}, "lat": 38.905012166666666, "is_disabled": 0, "lon": -77.038682}, {"fusion_lat": 0.0, "type": "electric_scooter", "name": "0547b2c830bb3e5807db43aebc3a0d6e", "fusion_lon": 0.0, "bike_id": "0547b2c830bb3e5807db43aebc3a0d6e", "is_reserved": 0, "rental_uris": {"android": "https://dc.lft.to/lastmile_qr_scan", "ios": "https://dc.lft.to/lastmile_qr_scan"}, "lat": 38.91977216666667, "is_disabled": 0, "lon": -77.018564}, {"fusion_lat": 0.0, "type": "electric_scooter", "name": "87d9243f1b4e3bf4c1328f787ed8bcb9", "fusion_lon": 0.0, "bike_id": "87d9243f1b4e3bf4c1328f787ed8bcb9", "is_reserved": 0, "rental_uris": {"android": "https://dc.lft.to/lastmile_qr_scan", "ios": "https://dc.lft.to/lastmile_qr_scan"}, "lat": 38.896092833333334, "is_disabled": 0, "lon": -77.044655}, {"fusion_lat": 0.0, "type": "electric_scooter", "name": "3a46a006403b1e1cea7a07e67f756e1f", "fusion_lon": 0.0, "bike_id": "3a46a006403b1e1cea7a07e67f756e1f", "is_reserved": 0, "rental_uris": {"android": "https://dc.lft.to/lastmile_qr_scan", "ios": "https://dc.lft.to/lastmile_qr_scan"}, "lat": 38.900009, "is_disabled": 0, "lon": -77.03070066666666}, {"fusion_lat": 0.0, "type": "electric_bike", "name": "444f7ec921e51d0f4815cfd0ef064a26", "fusion_lon": 0.0, "bike_id": "444f7ec921e51d0f4815cfd0ef064a26", "is_reserved": 0, "rental_uris": {"android": "https://dc.lft.to/lastmile_qr_scan", "ios": "https://dc.lft.to/lastmile_qr_scan"}, "lat": 38.94897433333333, "is_disabled": 0, "lon": -76.9637785}, {"fusion_lat": 0.0, "type": "electric_scooter", "name": "d11823610ba96668557fa2b50b03b908", "fusion_lon": 0.0, "bike_id": "d11823610ba96668557fa2b50b03b908", "is_reserved": 0, "rental_uris": {"android": "https://dc.lft.to/lastmile_qr_scan", "ios": "https://dc.lft.to/lastmile_qr_scan"}, "lat": 38.9014135, "is_disabled": 0, "lon": -77.00009383333334}, {"fusion_lat": 0.0, "type": "electric_scooter", "name": "7e9e3b127d934a8051112c6ccdfe8165", "fusion_lon": 0.0, "bike_id": "7e9e3b127d934a8051112c6ccdfe8165", "is_reserved": 0, "rental_uris": {"android": "https://dc.lft.to/lastmile_qr_scan", "ios": "https://dc.lft.to/lastmile_qr_scan"}, "lat": 38.899162833333335, "is_disabled": 0, "lon": -76.93369366666667}, {"fusion_lat": 0.0, "type": "electric_bike", "name": "20be58e8d344371a9adf79b71f426f6f", "fusion_lon": 0.0, "bike_id": "20be58e8d344371a9adf79b71f426f6f", "is_reserved": 0, "rental_uris": {"android": "https://dc.lft.to/lastmile_qr_scan", "ios": "https://dc.lft.to/lastmile_qr_scan"}, "lat": 38.91917933333333, "is_disabled": 0, "lon": -77.07027783333334}, {"fusion_lat": 0.0, "type": "electric_scooter", "name": "64b6819db29ae665a1157bb2aa9c52cf", "fusion_lon": 0.0, "bike_id": "64b6819db29ae665a1157bb2aa9c52cf", "is_reserved": 0, "rental_uris": {"android": "https://dc.lft.to/lastmile_qr_scan", "ios": "https://dc.lft.to/lastmile_qr_scan"}, "lat": 38.922377833333336, "is_disabled": 0, "lon": -77.03430516666667}, {"fusion_lat": 0.0, "type": "electric_scooter", "name": "45d3939a0b85a5e743719f86310407f5", "fusion_lon": 0.0, "bike_id": "45d3939a0b85a5e743719f86310407f5", "is_reserved": 0, "rental_uris": {"android": "https://dc.lft.to/lastmile_qr_scan", "ios": "https://dc.lft.to/lastmile_qr_scan"}, "lat": 38.93682666666667, "is_disabled": 0, "lon": -77.02469616666667}, {"fusion_lat": 0.0, "type": "electric_bike", "name": "d6c0d4ef9ccc56c3f66424d551587d83", "fusion_lon": 0.0, "bike_id": "d6c0d4ef9ccc56c3f66424d551587d83", "is_reserved": 0, "rental_uris": {"android": "https://dc.lft.to/lastmile_qr_scan", "ios": "https://dc.lft.to/lastmile_qr_scan"}, "lat": 38.8577085, "is_disabled": 0, "lon": -76.98768516666667}, {"fusion_lat": 0.0, "type": "electric_bike", "name": "bccd87c0094719e8a9b765e75107480c", "fusion_lon": 0.0, "bike_id": "bccd87c0094719e8a9b765e75107480c", "is_reserved": 0, "rental_uris": {"android": "https://dc.lft.to/lastmile_qr_scan", "ios": "https://dc.lft.to/lastmile_qr_scan"}, "lat": 38.854443833333335, "is_disabled": 0, "lon": -77.08326766666667}, {"fusion_lat": 0.0, "type": "electric_scooter", "name": "206a39bfa0fbff3530f0c9149ea768e5", "fusion_lon": 0.0, "bike_id": "206a39bfa0fbff3530f0c9149ea768e5", "is_reserved": 0, "rental_uris": {"android": "https://dc.lft.to/lastmile_qr_scan", "ios": "https://dc.lft.to/lastmile_qr_scan"}, "lat": 38.89253466666667, "is_disabled": 0, "lon": -77.04659383333333}, {"fusion_lat": 0.0, "type": "electric_scooter", "name": "9a806663202d5713f03df0c7ca85430d", "fusion_lon": 0.0, "bike_id": "9a806663202d5713f03df0c7ca85430d", "is_reserved": 0, "rental_uris": {"android": "https://dc.lft.to/lastmile_qr_scan", "ios": "https://dc.lft.to/lastmile_qr_scan"}, "lat": 38.918898, "is_disabled": 0, "lon": -77.048235}, {"fusion_lat": 0.0, "type": "electric_scooter", "name": "410c949eb81f9bd617d996cd0f4c9215", "fusion_lon": 0.0, "bike_id": "410c949eb81f9bd617d996cd0f4c9215", "is_reserved": 0, "rental_uris": {"android": "https://dc.lft.to/lastmile_qr_scan", "ios": "https://dc.lft.to/lastmile_qr_scan"}, "lat": 38.921539, "is_disabled": 0, "lon": -77.03382}, {"fusion_lat": 0.0, "type": "electric_scooter", "name": "d10dc067dbbc490182538aacae846dd0", "fusion_lon": 0.0, "bike_id": "d10dc067dbbc490182538aacae846dd0", "is_reserved": 0, "rental_uris": {"android": "https://dc.lft.to/lastmile_qr_scan", "ios": "https://dc.lft.to/lastmile_qr_scan"}, "lat": 38.88742716666667, "is_disabled": 0, "lon": -77.02381166666666}, {"fusion_lat": 0.0, "type": "electric_scooter", "name": "1bae6b83c959177cb053b3c79d15ce19", "fusion_lon": 0.0, "bike_id": "1bae6b83c959177cb053b3c79d15ce19", "is_reserved": 0, "rental_uris": {"android": "https://dc.lft.to/lastmile_qr_scan", "ios": "https://dc.lft.to/lastmile_qr_scan"}, "lat": 38.8754635, "is_disabled": 0, "lon": -77.005942}, {"fusion_lat": 0.0, "type": "electric_scooter", "name": "70edfb5f67d33b5f37d2387a23d0f155", "fusion_lon": 0.0, "bike_id": "70edfb5f67d33b5f37d2387a23d0f155", "is_reserved": 0, "rental_uris": {"android": "https://dc.lft.to/lastmile_qr_scan", "ios": "https://dc.lft.to/lastmile_qr_scan"}, "lat": 38.90580216666667, "is_disabled": 0, "lon": -77.02593716666667}, {"fusion_lat": 0.0, "type": "electric_scooter", "name": "fe79e1027bcd98f593bc05bc27208b27", "fusion_lon": 0.0, "bike_id": "fe79e1027bcd98f593bc05bc27208b27", "is_reserved": 0, "rental_uris": {"android": "https://dc.lft.to/lastmile_qr_scan", "ios": "https://dc.lft.to/lastmile_qr_scan"}, "lat": 38.926421166666664, "is_disabled": 0, "lon": -77.03471283333333}, {"fusion_lat": 0.0, "type": "electric_scooter", "name": "cf67bbe3faf61ee283219f07337c1c9a", "fusion_lon": 0.0, "bike_id": "cf67bbe3faf61ee283219f07337c1c9a", "is_reserved": 0, "rental_uris": {"android": "https://dc.lft.to/lastmile_qr_scan", "ios": "https://dc.lft.to/lastmile_qr_scan"}, "lat": 38.9387715, "is_disabled": 0, "lon": -77.02381966666667}, {"fusion_lat": 0.0, "type": "electric_scooter", "name": "e16352e7c3acd39b6c728df1a8740c47", "fusion_lon": 0.0, "bike_id": "e16352e7c3acd39b6c728df1a8740c47", "is_reserved": 0, "rental_uris": {"android": "https://dc.lft.to/lastmile_qr_scan", "ios": "https://dc.lft.to/lastmile_qr_scan"}, "lat": 38.927947, "is_disabled": 0, "lon": -77.0212085}, {"fusion_lat": 0.0, "type": "electric_scooter", "name": "d9266eadcfaace5bc748c78939bc9e85", "fusion_lon": 0.0, "bike_id": "d9266eadcfaace5bc748c78939bc9e85", "is_reserved": 0, "rental_uris": {"android": "https://dc.lft.to/lastmile_qr_scan", "ios": "https://dc.lft.to/lastmile_qr_scan"}, "lat": 38.966196333333336, "is_disabled": 0, "lon": -77.03504516666666}, {"fusion_lat": 0.0, "type": "electric_scooter", "name": "ef2277b7a0d4eae7f3ba5b16ad24c6ae", "fusion_lon": 0.0, "bike_id": "ef2277b7a0d4eae7f3ba5b16ad24c6ae", "is_reserved": 0, "rental_uris": {"android": "https://dc.lft.to/lastmile_qr_scan", "ios": "https://dc.lft.to/lastmile_qr_scan"}, "lat": 38.93437566666667, "is_disabled": 0, "lon": -76.99884233333333}, {"fusion_lat": 0.0, "type": "electric_scooter", "name": "a51050fce2cc8274678436e0d6012e78", "fusion_lon": 0.0, "bike_id": "a51050fce2cc8274678436e0d6012e78", "is_reserved": 0, "rental_uris": {"android": "https://dc.lft.to/lastmile_qr_scan", "ios": "https://dc.lft.to/lastmile_qr_scan"}, "lat": 38.9445285, "is_disabled": 0, "lon": -77.0279925}, {"fusion_lat": 0.0, "type": "electric_scooter", "name": "85479d9354cf40fd87af17d094898282", "fusion_lon": 0.0, "bike_id": "85479d9354cf40fd87af17d094898282", "is_reserved": 0, "rental_uris": {"android": "https://dc.lft.to/lastmile_qr_scan", "ios": "https://dc.lft.to/lastmile_qr_scan"}, "lat": 38.8922295, "is_disabled": 0, "lon": -77.02627833333334}, {"fusion_lat": 0.0, "type": "electric_scooter", "name": "637885f62610cc31f654d7bf650ba5c8", "fusion_lon": 0.0, "bike_id": "637885f62610cc31f654d7bf650ba5c8", "is_reserved": 0, "rental_uris": {"android": "https://dc.lft.to/lastmile_qr_scan", "ios": "https://dc.lft.to/lastmile_qr_scan"}, "lat": 38.910235666666665, "is_disabled": 0, "lon": -77.03438933333334}, {"fusion_lat": 0.0, "type": "electric_scooter", "name": "99e999e6a5412ecd79e497652926438b", "fusion_lon": 0.0, "bike_id": "99e999e6a5412ecd79e497652926438b", "is_reserved": 0, "rental_uris": {"android": "https://dc.lft.to/lastmile_qr_scan", "ios": "https://dc.lft.to/lastmile_qr_scan"}, "lat": 38.91471283333333, "is_disabled": 0, "lon": -77.069428}, {"fusion_lat": 0.0, "type": "electric_scooter", "name": "83c82a6254cf5e6146fec850e69a60fe", "fusion_lon": 0.0, "bike_id": "83c82a6254cf5e6146fec850e69a60fe", "is_reserved": 0, "rental_uris": {"android": "https://dc.lft.to/lastmile_qr_scan", "ios": "https://dc.lft.to/lastmile_qr_scan"}, "lat": 38.911456666666666, "is_disabled": 0, "lon": -77.03663416666667}, {"fusion_lat": 0.0, "type": "electric_scooter", "name": "f9573ad9cdb276fe1c8fbe12f1367116", "fusion_lon": 0.0, "bike_id": "f9573ad9cdb276fe1c8fbe12f1367116", "is_reserved": 0, "rental_uris": {"android": "https://dc.lft.to/lastmile_qr_scan", "ios": "https://dc.lft.to/lastmile_qr_scan"}, "lat": 38.90077566666667, "is_disabled": 0, "lon": -77.04872883333333}, {"fusion_lat": 0.0, "type": "electric_scooter", "name": "458f458a3c5a66f9fc783903fb88ade7", "fusion_lon": 0.0, "bike_id": "458f458a3c5a66f9fc783903fb88ade7", "is_reserved": 0, "rental_uris": {"android": "https://dc.lft.to/lastmile_qr_scan", "ios": "https://dc.lft.to/lastmile_qr_scan"}, "lat": 38.86236933333333, "is_disabled": 0, "lon": -76.99484883333334}, {"fusion_lat": 0.0, "type": "electric_scooter", "name": "91a86bab433670937b1ede5c5980f9e4", "fusion_lon": 0.0, "bike_id": "91a86bab433670937b1ede5c5980f9e4", "is_reserved": 0, "rental_uris": {"android": "https://dc.lft.to/lastmile_qr_scan", "ios": "https://dc.lft.to/lastmile_qr_scan"}, "lat": 38.9209445, "is_disabled": 0, "lon": -77.0438125}, {"fusion_lat": 0.0, "type": "electric_scooter", "name": "e3595b64a5d45ee97a8e37d9618bc3de", "fusion_lon": 0.0, "bike_id": "e3595b64a5d45ee97a8e37d9618bc3de", "is_reserved": 0, "rental_uris": {"android": "https://dc.lft.to/lastmile_qr_scan", "ios": "https://dc.lft.to/lastmile_qr_scan"}, "lat": 38.834947166666666, "is_disabled": 0, "lon": -77.00679316666667}, {"fusion_lat": 0.0, "type": "electric_scooter", "name": "7a51884eb8893b0715f90654048e545d", "fusion_lon": 0.0, "bike_id": "7a51884eb8893b0715f90654048e545d", "is_reserved": 0, "rental_uris": {"android": "https://dc.lft.to/lastmile_qr_scan", "ios": "https://dc.lft.to/lastmile_qr_scan"}, "lat": 38.8901575, "is_disabled": 0, "lon": -76.93734133333334}, {"fusion_lat": 0.0, "type": "electric_scooter", "name": "5d6b533d29e1cecf5862612860a92437", "fusion_lon": 0.0, "bike_id": "5d6b533d29e1cecf5862612860a92437", "is_reserved": 0, "rental_uris": {"android": "https://dc.lft.to/lastmile_qr_scan", "ios": "https://dc.lft.to/lastmile_qr_scan"}, "lat": 38.895024166666666, "is_disabled": 0, "lon": -77.01101666666666}, {"fusion_lat": 0.0, "type": "electric_scooter", "name": "c4b90614ae3992628a36d0f9ce6d2675", "fusion_lon": 0.0, "bike_id": "c4b90614ae3992628a36d0f9ce6d2675", "is_reserved": 0, "rental_uris": {"android": "https://dc.lft.to/lastmile_qr_scan", "ios": "https://dc.lft.to/lastmile_qr_scan"}, "lat": 38.88731333333333, "is_disabled": 0, "lon": -77.02834733333333}, {"fusion_lat": 0.0, "type": "electric_scooter", "name": "c094a954c5f179486ba81570a356fab5", "fusion_lon": 0.0, "bike_id": "c094a954c5f179486ba81570a356fab5", "is_reserved": 0, "rental_uris": {"android": "https://dc.lft.to/lastmile_qr_scan", "ios": "https://dc.lft.to/lastmile_qr_scan"}, "lat": 38.881473666666665, "is_disabled": 0, "lon": -76.99487883333333}, {"fusion_lat": 0.0, "type": "electric_scooter", "name": "b0d971fbf49ac73041e563eab9fd5a55", "fusion_lon": 0.0, "bike_id": "b0d971fbf49ac73041e563eab9fd5a55", "is_reserved": 0, "rental_uris": {"android": "https://dc.lft.to/lastmile_qr_scan", "ios": "https://dc.lft.to/lastmile_qr_scan"}, "lat": 38.917029666666664, "is_disabled": 0, "lon": -77.0417285}, {"fusion_lat": 0.0, "type": "electric_scooter", "name": "0a2eef7936fbac74a48f724eb83a515b", "fusion_lon": 0.0, "bike_id": "0a2eef7936fbac74a48f724eb83a515b", "is_reserved": 0, "rental_uris": {"android": "https://dc.lft.to/lastmile_qr_scan", "ios": "https://dc.lft.to/lastmile_qr_scan"}, "lat": 38.931875833333336, "is_disabled": 0, "lon": -77.03658766666666}, {"fusion_lat": 0.0, "type": "electric_scooter", "name": "7564c7ea8e2aa77132e77a0b945e4f23", "fusion_lon": 0.0, "bike_id": "7564c7ea8e2aa77132e77a0b945e4f23", "is_reserved": 0, "rental_uris": {"android": "https://dc.lft.to/lastmile_qr_scan", "ios": "https://dc.lft.to/lastmile_qr_scan"}, "lat": 38.89746433333333, "is_disabled": 0, "lon": -77.03067433333334}, {"fusion_lat": 0.0, "type": "electric_bike", "name": "44ce26faa67a65897446404c82b7cb51", "fusion_lon": 0.0, "bike_id": "44ce26faa67a65897446404c82b7cb51", "is_reserved": 0, "rental_uris": {"android": "https://dc.lft.to/lastmile_qr_scan", "ios": "https://dc.lft.to/lastmile_qr_scan"}, "lat": 38.83788233333333, "is_disabled": 0, "lon": -76.9975875}, {"fusion_lat": 0.0, "type": "electric_scooter", "name": "3f3116cacf9ca2337cc979a136cdb713", "fusion_lon": 0.0, "bike_id": "3f3116cacf9ca2337cc979a136cdb713", "is_reserved": 0, "rental_uris": {"android": "https://dc.lft.to/lastmile_qr_scan", "ios": "https://dc.lft.to/lastmile_qr_scan"}, "lat": 38.9285215, "is_disabled": 0, "lon": -77.032752}, {"fusion_lat": 0.0, "type": "electric_scooter", "name": "4ed17cdced9eb298a08e3b8822d820d8", "fusion_lon": 0.0, "bike_id": "4ed17cdced9eb298a08e3b8822d820d8", "is_reserved": 0, "rental_uris": {"android": "https://dc.lft.to/lastmile_qr_scan", "ios": "https://dc.lft.to/lastmile_qr_scan"}, "lat": 38.892290333333335, "is_disabled": 0, "lon": -77.02629066666667}, {"fusion_lat": 0.0, "type": "electric_scooter", "name": "647079412a1c90b043851fcbb9900769", "fusion_lon": 0.0, "bike_id": "647079412a1c90b043851fcbb9900769", "is_reserved": 0, "rental_uris": {"android": "https://dc.lft.to/lastmile_qr_scan", "ios": "https://dc.lft.to/lastmile_qr_scan"}, "lat": 38.9024325, "is_disabled": 0, "lon": -76.99887533333333}, {"fusion_lat": 0.0, "type": "electric_bike", "name": "1185270fce2c52f77091b4bf672f3ed9", "fusion_lon": 0.0, "bike_id": "1185270fce2c52f77091b4bf672f3ed9", "is_reserved": 0, "rental_uris": {"android": "https://dc.lft.to/lastmile_qr_scan", "ios": "https://dc.lft.to/lastmile_qr_scan"}, "lat": 38.96742316666667, "is_disabled": 0, "lon": -76.98195233333334}, {"fusion_lat": 0.0, "type": "electric_scooter", "name": "b172fa347f0426aef86283541738a611", "fusion_lon": 0.0, "bike_id": "b172fa347f0426aef86283541738a611", "is_reserved": 0, "rental_uris": {"android": "https://dc.lft.to/lastmile_qr_scan", "ios": "https://dc.lft.to/lastmile_qr_scan"}, "lat": 38.92467633333333, "is_disabled": 0, "lon": -77.02209016666667}, {"fusion_lat": 0.0, "type": "electric_scooter", "name": "85847269ff84b93bdb97de227d429e46", "fusion_lon": 0.0, "bike_id": "85847269ff84b93bdb97de227d429e46", "is_reserved": 0, "rental_uris": {"android": "https://dc.lft.to/lastmile_qr_scan", "ios": "https://dc.lft.to/lastmile_qr_scan"}, "lat": 38.891963, "is_disabled": 0, "lon": -77.02770083333333}, {"fusion_lat": 0.0, "type": "electric_scooter", "name": "e3393458c12bee6981e75cbbcbd7fd68", "fusion_lon": 0.0, "bike_id": "e3393458c12bee6981e75cbbcbd7fd68", "is_reserved": 0, "rental_uris": {"android": "https://dc.lft.to/lastmile_qr_scan", "ios": "https://dc.lft.to/lastmile_qr_scan"}, "lat": 38.90304583333333, "is_disabled": 0, "lon": -77.04363966666666}, {"fusion_lat": 0.0, "type": "electric_bike", "name": "eb99c190cd16fd06297e56eac67e780b", "fusion_lon": 0.0, "bike_id": "eb99c190cd16fd06297e56eac67e780b", "is_reserved": 0, "rental_uris": {"android": "https://dc.lft.to/lastmile_qr_scan", "ios": "https://dc.lft.to/lastmile_qr_scan"}, "lat": 39.014795666666664, "is_disabled": 0, "lon": -77.05494916666666}, {"fusion_lat": 0.0, "type": "electric_scooter", "name": "cbf226d4f4e0edf017f52b6b31313241", "fusion_lon": 0.0, "bike_id": "cbf226d4f4e0edf017f52b6b31313241", "is_reserved": 0, "rental_uris": {"android": "https://dc.lft.to/lastmile_qr_scan", "ios": "https://dc.lft.to/lastmile_qr_scan"}, "lat": 38.915555499999996, "is_disabled": 0, "lon": -77.031732}, {"fusion_lat": 0.0, "type": "electric_scooter", "name": "ef028ebe2a7f7b036a9ecc1aa4f050e9", "fusion_lon": 0.0, "bike_id": "ef028ebe2a7f7b036a9ecc1aa4f050e9", "is_reserved": 0, "rental_uris": {"android": "https://dc.lft.to/lastmile_qr_scan", "ios": "https://dc.lft.to/lastmile_qr_scan"}, "lat": 38.94317, "is_disabled": 0, "lon": -77.01726566666666}, {"fusion_lat": 0.0, "type": "electric_scooter", "name": "9d34d05e4fadfb54db92bf94a0fe091f", "fusion_lon": 0.0, "bike_id": "9d34d05e4fadfb54db92bf94a0fe091f", "is_reserved": 0, "rental_uris": {"android": "https://dc.lft.to/lastmile_qr_scan", "ios": "https://dc.lft.to/lastmile_qr_scan"}, "lat": 38.920638833333335, "is_disabled": 0, "lon": -77.03656333333333}, {"fusion_lat": 0.0, "type": "electric_scooter", "name": "a9b93ff8811b58545151f37fcb995673", "fusion_lon": 0.0, "bike_id": "a9b93ff8811b58545151f37fcb995673", "is_reserved": 0, "rental_uris": {"android": "https://dc.lft.to/lastmile_qr_scan", "ios": "https://dc.lft.to/lastmile_qr_scan"}, "lat": 38.900647666666664, "is_disabled": 0, "lon": -77.04535833333334}, {"fusion_lat": 0.0, "type": "electric_scooter", "name": "965e7f1c86d668c8fb3ebf16f1db4790", "fusion_lon": 0.0, "bike_id": "965e7f1c86d668c8fb3ebf16f1db4790", "is_reserved": 0, "rental_uris": {"android": "https://dc.lft.to/lastmile_qr_scan", "ios": "https://dc.lft.to/lastmile_qr_scan"}, "lat": 38.904340833333336, "is_disabled": 0, "lon": -77.04364633333333}, {"fusion_lat": 0.0, "type": "electric_scooter", "name": "52eb69fcfce1a5352c140b68d28d7726", "fusion_lon": 0.0, "bike_id": "52eb69fcfce1a5352c140b68d28d7726", "is_reserved": 0, "rental_uris": {"android": "https://dc.lft.to/lastmile_qr_scan", "ios": "https://dc.lft.to/lastmile_qr_scan"}, "lat": 38.8850435, "is_disabled": 0, "lon": -76.99754716666666}, {"fusion_lat": 0.0, "type": "electric_scooter", "name": "a664a894f7801a90d0d52d08181ead39", "fusion_lon": 0.0, "bike_id": "a664a894f7801a90d0d52d08181ead39", "is_reserved": 0, "rental_uris": {"android": "https://dc.lft.to/lastmile_qr_scan", "ios": "https://dc.lft.to/lastmile_qr_scan"}, "lat": 38.90634983333333, "is_disabled": 0, "lon": -77.06920816666667}, {"fusion_lat": 0.0, "type": "electric_scooter", "name": "da6a28583317f11390e2718127f6c1d7", "fusion_lon": 0.0, "bike_id": "da6a28583317f11390e2718127f6c1d7", "is_reserved": 0, "rental_uris": {"android": "https://dc.lft.to/lastmile_qr_scan", "ios": "https://dc.lft.to/lastmile_qr_scan"}, "lat": 38.89943933333333, "is_disabled": 0, "lon": -77.01454033333333}, {"fusion_lat": 0.0, "type": "electric_scooter", "name": "10d7615c89a792818adaecf2f05ed66d", "fusion_lon": 0.0, "bike_id": "10d7615c89a792818adaecf2f05ed66d", "is_reserved": 0, "rental_uris": {"android": "https://dc.lft.to/lastmile_qr_scan", "ios": "https://dc.lft.to/lastmile_qr_scan"}, "lat": 38.90497083333333, "is_disabled": 0, "lon": -77.05731216666666}, {"fusion_lat": 0.0, "type": "electric_scooter", "name": "66763260459d319f67d6fc0ff457c692", "fusion_lon": 0.0, "bike_id": "66763260459d319f67d6fc0ff457c692", "is_reserved": 0, "rental_uris": {"android": "https://dc.lft.to/lastmile_qr_scan", "ios": "https://dc.lft.to/lastmile_qr_scan"}, "lat": 38.93423933333333, "is_disabled": 0, "lon": -77.04399916666667}, {"fusion_lat": 0.0, "type": "electric_scooter", "name": "41a260d73fa4b92c0b687d26655aaf0d", "fusion_lon": 0.0, "bike_id": "41a260d73fa4b92c0b687d26655aaf0d", "is_reserved": 0, "rental_uris": {"android": "https://dc.lft.to/lastmile_qr_scan", "ios": "https://dc.lft.to/lastmile_qr_scan"}, "lat": 38.911887, "is_disabled": 0, "lon": -77.03814466666667}, {"fusion_lat": 0.0, "type": "electric_scooter", "name": "9bf74509330efcdb83ebac05d794b845", "fusion_lon": 0.0, "bike_id": "9bf74509330efcdb83ebac05d794b845", "is_reserved": 0, "rental_uris": {"android": "https://dc.lft.to/lastmile_qr_scan", "ios": "https://dc.lft.to/lastmile_qr_scan"}, "lat": 38.922543, "is_disabled": 0, "lon": -77.0195035}, {"fusion_lat": 0.0, "type": "electric_scooter", "name": "5a7a75043d8d8e0a1dfacbfe1abcc64b", "fusion_lon": 0.0, "bike_id": "5a7a75043d8d8e0a1dfacbfe1abcc64b", "is_reserved": 0, "rental_uris": {"android": "https://dc.lft.to/lastmile_qr_scan", "ios": "https://dc.lft.to/lastmile_qr_scan"}, "lat": 38.92108433333333, "is_disabled": 0, "lon": -77.0325165}, {"fusion_lat": 0.0, "type": "electric_bike", "name": "de0efe619100dedc568ef80360110f92", "fusion_lon": 0.0, "bike_id": "de0efe619100dedc568ef80360110f92", "is_reserved": 0, "rental_uris": {"android": "https://dc.lft.to/lastmile_qr_scan", "ios": "https://dc.lft.to/lastmile_qr_scan"}, "lat": 39.02434133333333, "is_disabled": 0, "lon": -77.13100666666666}, {"fusion_lat": 0.0, "type": "electric_scooter", "name": "d9a83ce1fc6eb086fdf6e79b68a15159", "fusion_lon": 0.0, "bike_id": "d9a83ce1fc6eb086fdf6e79b68a15159", "is_reserved": 0, "rental_uris": {"android": "https://dc.lft.to/lastmile_qr_scan", "ios": "https://dc.lft.to/lastmile_qr_scan"}, "lat": 38.887109333333335, "is_disabled": 0, "lon": -77.013666}, {"fusion_lat": 0.0, "type": "electric_scooter", "name": "df2432085f6705b1be0c0cb6f8730198", "fusion_lon": 0.0, "bike_id": "df2432085f6705b1be0c0cb6f8730198", "is_reserved": 0, "rental_uris": {"android": "https://dc.lft.to/lastmile_qr_scan", "ios": "https://dc.lft.to/lastmile_qr_scan"}, "lat": 38.903795833333334, "is_disabled": 0, "lon": -77.04485916666667}, {"fusion_lat": 0.0, "type": "electric_scooter", "name": "85095dc4e5e2b1d863ff4670ba2eb3a1", "fusion_lon": 0.0, "bike_id": "85095dc4e5e2b1d863ff4670ba2eb3a1", "is_reserved": 0, "rental_uris": {"android": "https://dc.lft.to/lastmile_qr_scan", "ios": "https://dc.lft.to/lastmile_qr_scan"}, "lat": 38.8623315, "is_disabled": 0, "lon": -76.9949005}, {"fusion_lat": 0.0, "type": "electric_scooter", "name": "36ec966f9737161fc9641ef6cfc8ca6c", "fusion_lon": 0.0, "bike_id": "36ec966f9737161fc9641ef6cfc8ca6c", "is_reserved": 0, "rental_uris": {"android": "https://dc.lft.to/lastmile_qr_scan", "ios": "https://dc.lft.to/lastmile_qr_scan"}, "lat": 38.86423333333333, "is_disabled": 0, "lon": -76.97433116666667}, {"fusion_lat": 0.0, "type": "electric_scooter", "name": "d36c915e36f8026b16a0df2fde384cd2", "fusion_lon": 0.0, "bike_id": "d36c915e36f8026b16a0df2fde384cd2", "is_reserved": 0, "rental_uris": {"android": "https://dc.lft.to/lastmile_qr_scan", "ios": "https://dc.lft.to/lastmile_qr_scan"}, "lat": 38.8832575, "is_disabled": 0, "lon": -77.0174475}, {"fusion_lat": 0.0, "type": "electric_bike", "name": "b0a165e8bc5ccc8f21d021d3c27ce8a2", "fusion_lon": 0.0, "bike_id": "b0a165e8bc5ccc8f21d021d3c27ce8a2", "is_reserved": 0, "rental_uris": {"android": "https://dc.lft.to/lastmile_qr_scan", "ios": "https://dc.lft.to/lastmile_qr_scan"}, "lat": 38.947863, "is_disabled": 0, "lon": -76.97209116666667}, {"fusion_lat": 0.0, "type": "electric_scooter", "name": "cb68a6d137832a4767d1876dd96aa3e6", "fusion_lon": 0.0, "bike_id": "cb68a6d137832a4767d1876dd96aa3e6", "is_reserved": 0, "rental_uris": {"android": "https://dc.lft.to/lastmile_qr_scan", "ios": "https://dc.lft.to/lastmile_qr_scan"}, "lat": 38.91264283333334, "is_disabled": 0, "lon": -77.030698}, {"fusion_lat": 0.0, "type": "electric_scooter", "name": "abf7e8a502d02e529569e7db607caa85", "fusion_lon": 0.0, "bike_id": "abf7e8a502d02e529569e7db607caa85", "is_reserved": 0, "rental_uris": {"android": "https://dc.lft.to/lastmile_qr_scan", "ios": "https://dc.lft.to/lastmile_qr_scan"}, "lat": 38.925581666666666, "is_disabled": 0, "lon": -77.07762616666666}, {"fusion_lat": 0.0, "type": "electric_scooter", "name": "24aa4f4200767fd0a1a4592fec385f04", "fusion_lon": 0.0, "bike_id": "24aa4f4200767fd0a1a4592fec385f04", "is_reserved": 0, "rental_uris": {"android": "https://dc.lft.to/lastmile_qr_scan", "ios": "https://dc.lft.to/lastmile_qr_scan"}, "lat": 38.949036, "is_disabled": 0, "lon": -77.020726}, {"fusion_lat": 0.0, "type": "electric_scooter", "name": "6d375b2ba590428965df839a17b9413b", "fusion_lon": 0.0, "bike_id": "6d375b2ba590428965df839a17b9413b", "is_reserved": 0, "rental_uris": {"android": "https://dc.lft.to/lastmile_qr_scan", "ios": "https://dc.lft.to/lastmile_qr_scan"}, "lat": 38.88123216666666, "is_disabled": 0, "lon": -77.01658483333334}, {"fusion_lat": 0.0, "type": "electric_scooter", "name": "0a6686bf4f97f73b940953b618da46df", "fusion_lon": 0.0, "bike_id": "0a6686bf4f97f73b940953b618da46df", "is_reserved": 0, "rental_uris": {"android": "https://dc.lft.to/lastmile_qr_scan", "ios": "https://dc.lft.to/lastmile_qr_scan"}, "lat": 38.892266666666664, "is_disabled": 0, "lon": -77.03104716666667}, {"fusion_lat": 0.0, "type": "electric_scooter", "name": "f793869096acc35e9df7a5c69f740edc", "fusion_lon": 0.0, "bike_id": "f793869096acc35e9df7a5c69f740edc", "is_reserved": 0, "rental_uris": {"android": "https://dc.lft.to/lastmile_qr_scan", "ios": "https://dc.lft.to/lastmile_qr_scan"}, "lat": 38.900494, "is_disabled": 0, "lon": -76.998489}, {"fusion_lat": 0.0, "type": "electric_scooter", "name": "59040017180edbff5edbbd63b4919361", "fusion_lon": 0.0, "bike_id": "59040017180edbff5edbbd63b4919361", "is_reserved": 0, "rental_uris": {"android": "https://dc.lft.to/lastmile_qr_scan", "ios": "https://dc.lft.to/lastmile_qr_scan"}, "lat": 38.90872566666667, "is_disabled": 0, "lon": -77.03760816666667}, {"fusion_lat": 0.0, "type": "electric_scooter", "name": "a938415cb58b631fd9fa6fd250140fa7", "fusion_lon": 0.0, "bike_id": "a938415cb58b631fd9fa6fd250140fa7", "is_reserved": 0, "rental_uris": {"android": "https://dc.lft.to/lastmile_qr_scan", "ios": "https://dc.lft.to/lastmile_qr_scan"}, "lat": 38.922229, "is_disabled": 0, "lon": -77.04242633333334}, {"fusion_lat": 0.0, "type": "electric_scooter", "name": "4227654761e1c5b04907686de6a5a4d2", "fusion_lon": 0.0, "bike_id": "4227654761e1c5b04907686de6a5a4d2", "is_reserved": 0, "rental_uris": {"android": "https://dc.lft.to/lastmile_qr_scan", "ios": "https://dc.lft.to/lastmile_qr_scan"}, "lat": 38.9119075, "is_disabled": 0, "lon": -77.00438483333333}, {"fusion_lat": 0.0, "type": "electric_scooter", "name": "ffd39f62fe3f61f0263b96cff98dc427", "fusion_lon": 0.0, "bike_id": "ffd39f62fe3f61f0263b96cff98dc427", "is_reserved": 0, "rental_uris": {"android": "https://dc.lft.to/lastmile_qr_scan", "ios": "https://dc.lft.to/lastmile_qr_scan"}, "lat": 38.871897833333335, "is_disabled": 0, "lon": -77.005875}, {"fusion_lat": 0.0, "type": "electric_scooter", "name": "ce895b0579c15bfc71e9d6862eac4e2e", "fusion_lon": 0.0, "bike_id": "ce895b0579c15bfc71e9d6862eac4e2e", "is_reserved": 0, "rental_uris": {"android": "https://dc.lft.to/lastmile_qr_scan", "ios": "https://dc.lft.to/lastmile_qr_scan"}, "lat": 38.912583166666664, "is_disabled": 0, "lon": -77.026876}, {"fusion_lat": 0.0, "type": "electric_scooter", "name": "03c081c0a73efac8ed56fd5b4842c38a", "fusion_lon": 0.0, "bike_id": "03c081c0a73efac8ed56fd5b4842c38a", "is_reserved": 0, "rental_uris": {"android": "https://dc.lft.to/lastmile_qr_scan", "ios": "https://dc.lft.to/lastmile_qr_scan"}, "lat": 38.892501833333334, "is_disabled": 0, "lon": -77.04661833333333}, {"fusion_lat": 0.0, "type": "electric_scooter", "name": "1bc10a76ea51682be2fb20fc6a87c96f", "fusion_lon": 0.0, "bike_id": "1bc10a76ea51682be2fb20fc6a87c96f", "is_reserved": 0, "rental_uris": {"android": "https://dc.lft.to/lastmile_qr_scan", "ios": "https://dc.lft.to/lastmile_qr_scan"}, "lat": 38.88567833333333, "is_disabled": 0, "lon": -77.02009666666666}, {"fusion_lat": 0.0, "type": "electric_scooter", "name": "0c538891fa6df572044642b9e5c0fd58", "fusion_lon": 0.0, "bike_id": "0c538891fa6df572044642b9e5c0fd58", "is_reserved": 0, "rental_uris": {"android": "https://dc.lft.to/lastmile_qr_scan", "ios": "https://dc.lft.to/lastmile_qr_scan"}, "lat": 38.916830833333336, "is_disabled": 0, "lon": -77.02972783333334}, {"fusion_lat": 0.0, "type": "electric_scooter", "name": "c57ab4e69f9afc2ccb0016bdc88b5da7", "fusion_lon": 0.0, "bike_id": "c57ab4e69f9afc2ccb0016bdc88b5da7", "is_reserved": 0, "rental_uris": {"android": "https://dc.lft.to/lastmile_qr_scan", "ios": "https://dc.lft.to/lastmile_qr_scan"}, "lat": 38.90463066666667, "is_disabled": 0, "lon": -77.04870983333333}, {"fusion_lat": 0.0, "type": "electric_scooter", "name": "a8091cbe2de42b661a491791f28073e9", "fusion_lon": 0.0, "bike_id": "a8091cbe2de42b661a491791f28073e9", "is_reserved": 0, "rental_uris": {"android": "https://dc.lft.to/lastmile_qr_scan", "ios": "https://dc.lft.to/lastmile_qr_scan"}, "lat": 38.8997195, "is_disabled": 0, "lon": -77.033587}, {"fusion_lat": 0.0, "type": "electric_scooter", "name": "b5075578ad82289df5f7504636319643", "fusion_lon": 0.0, "bike_id": "b5075578ad82289df5f7504636319643", "is_reserved": 0, "rental_uris": {"android": "https://dc.lft.to/lastmile_qr_scan", "ios": "https://dc.lft.to/lastmile_qr_scan"}, "lat": 38.892243, "is_disabled": 0, "lon": -77.04308183333333}, {"fusion_lat": 0.0, "type": "electric_scooter", "name": "31c1c8e75720890b01987ddeac6c4ac9", "fusion_lon": 0.0, "bike_id": "31c1c8e75720890b01987ddeac6c4ac9", "is_reserved": 0, "rental_uris": {"android": "https://dc.lft.to/lastmile_qr_scan", "ios": "https://dc.lft.to/lastmile_qr_scan"}, "lat": 38.9003585, "is_disabled": 0, "lon": -77.00212266666666}, {"fusion_lat": 0.0, "type": "electric_scooter", "name": "a00a50757fb73eefb2832fe2becbc255", "fusion_lon": 0.0, "bike_id": "a00a50757fb73eefb2832fe2becbc255", "is_reserved": 0, "rental_uris": {"android": "https://dc.lft.to/lastmile_qr_scan", "ios": "https://dc.lft.to/lastmile_qr_scan"}, "lat": 38.90808083333334, "is_disabled": 0, "lon": -77.04159433333334}, {"fusion_lat": 0.0, "type": "electric_scooter", "name": "c815d4767659dc19556dcefe60a5e5e2", "fusion_lon": 0.0, "bike_id": "c815d4767659dc19556dcefe60a5e5e2", "is_reserved": 0, "rental_uris": {"android": "https://dc.lft.to/lastmile_qr_scan", "ios": "https://dc.lft.to/lastmile_qr_scan"}, "lat": 38.90539016666666, "is_disabled": 0, "lon": -77.04995483333333}, {"fusion_lat": 0.0, "type": "electric_scooter", "name": "89561a703b17fa55ccee4ff5d5d2c665", "fusion_lon": 0.0, "bike_id": "89561a703b17fa55ccee4ff5d5d2c665", "is_reserved": 0, "rental_uris": {"android": "https://dc.lft.to/lastmile_qr_scan", "ios": "https://dc.lft.to/lastmile_qr_scan"}, "lat": 38.892228, "is_disabled": 0, "lon": -77.0234785}, {"fusion_lat": 0.0, "type": "electric_scooter", "name": "6922eacfec78167a6fb20554a508bbc8", "fusion_lon": 0.0, "bike_id": "6922eacfec78167a6fb20554a508bbc8", "is_reserved": 0, "rental_uris": {"android": "https://dc.lft.to/lastmile_qr_scan", "ios": "https://dc.lft.to/lastmile_qr_scan"}, "lat": 38.892888166666665, "is_disabled": 0, "lon": -77.0321845}, {"fusion_lat": 0.0, "type": "electric_bike", "name": "f2fdfef528ffa28536e5f364d64fe34f", "fusion_lon": 0.0, "bike_id": "f2fdfef528ffa28536e5f364d64fe34f", "is_reserved": 0, "rental_uris": {"android": "https://dc.lft.to/lastmile_qr_scan", "ios": "https://dc.lft.to/lastmile_qr_scan"}, "lat": 38.86938883333333, "is_disabled": 0, "lon": -77.09468216666667}, {"fusion_lat": 0.0, "type": "electric_scooter", "name": "ddced97945687bd84a3c59c9c75491d4", "fusion_lon": 0.0, "bike_id": "ddced97945687bd84a3c59c9c75491d4", "is_reserved": 0, "rental_uris": {"android": "https://dc.lft.to/lastmile_qr_scan", "ios": "https://dc.lft.to/lastmile_qr_scan"}, "lat": 38.901384166666666, "is_disabled": 0, "lon": -77.0444385}, {"fusion_lat": 0.0, "type": "electric_scooter", "name": "f6ebdbe096c8a621aa132e6ae912f5ad", "fusion_lon": 0.0, "bike_id": "f6ebdbe096c8a621aa132e6ae912f5ad", "is_reserved": 0, "rental_uris": {"android": "https://dc.lft.to/lastmile_qr_scan", "ios": "https://dc.lft.to/lastmile_qr_scan"}, "lat": 38.88850933333333, "is_disabled": 0, "lon": -76.92679433333333}, {"fusion_lat": 0.0, "type": "electric_scooter", "name": "657a6c7540bfe4e63d513f88fbad7e5c", "fusion_lon": 0.0, "bike_id": "657a6c7540bfe4e63d513f88fbad7e5c", "is_reserved": 0, "rental_uris": {"android": "https://dc.lft.to/lastmile_qr_scan", "ios": "https://dc.lft.to/lastmile_qr_scan"}, "lat": 38.905232166666664, "is_disabled": 0, "lon": -77.0685645}, {"fusion_lat": 0.0, "type": "electric_scooter", "name": "200af3cf0ea3d9c578d720c3e8a2be03", "fusion_lon": 0.0, "bike_id": "200af3cf0ea3d9c578d720c3e8a2be03", "is_reserved": 0, "rental_uris": {"android": "https://dc.lft.to/lastmile_qr_scan", "ios": "https://dc.lft.to/lastmile_qr_scan"}, "lat": 38.9037215, "is_disabled": 0, "lon": -77.00730466666667}, {"fusion_lat": 0.0, "type": "electric_scooter", "name": "a7106d840030b4406d153be218b1b420", "fusion_lon": 0.0, "bike_id": "a7106d840030b4406d153be218b1b420", "is_reserved": 0, "rental_uris": {"android": "https://dc.lft.to/lastmile_qr_scan", "ios": "https://dc.lft.to/lastmile_qr_scan"}, "lat": 38.871994, "is_disabled": 0, "lon": -77.00571933333333}, {"fusion_lat": 0.0, "type": "electric_scooter", "name": "83dd2605bab6a1648fb25f5b6845db99", "fusion_lon": 0.0, "bike_id": "83dd2605bab6a1648fb25f5b6845db99", "is_reserved": 0, "rental_uris": {"android": "https://dc.lft.to/lastmile_qr_scan", "ios": "https://dc.lft.to/lastmile_qr_scan"}, "lat": 38.89982416666667, "is_disabled": 0, "lon": -77.02569016666666}, {"fusion_lat": 0.0, "type": "electric_bike", "name": "63f41c9c7b36a11a99395563c13a5fbc", "fusion_lon": 0.0, "bike_id": "63f41c9c7b36a11a99395563c13a5fbc", "is_reserved": 0, "rental_uris": {"android": "https://dc.lft.to/lastmile_qr_scan", "ios": "https://dc.lft.to/lastmile_qr_scan"}, "lat": 38.99677533333333, "is_disabled": 0, "lon": -77.03800116666666}, {"fusion_lat": 0.0, "type": "electric_scooter", "name": "5d04e2add59f45235abe61ca9714d52c", "fusion_lon": 0.0, "bike_id": "5d04e2add59f45235abe61ca9714d52c", "is_reserved": 0, "rental_uris": {"android": "https://dc.lft.to/lastmile_qr_scan", "ios": "https://dc.lft.to/lastmile_qr_scan"}, "lat": 38.914194333333334, "is_disabled": 0, "lon": -77.031747}, {"fusion_lat": 0.0, "type": "electric_scooter", "name": "4bc853606b2c38c98869fece77d9a63b", "fusion_lon": 0.0, "bike_id": "4bc853606b2c38c98869fece77d9a63b", "is_reserved": 0, "rental_uris": {"android": "https://dc.lft.to/lastmile_qr_scan", "ios": "https://dc.lft.to/lastmile_qr_scan"}, "lat": 38.92438766666667, "is_disabled": 0, "lon": -77.02136833333333}, {"fusion_lat": 0.0, "type": "electric_bike", "name": "0672a21989e082bb245ae8ec90c99e1e", "fusion_lon": 0.0, "bike_id": "0672a21989e082bb245ae8ec90c99e1e", "is_reserved": 0, "rental_uris": {"android": "https://dc.lft.to/lastmile_qr_scan", "ios": "https://dc.lft.to/lastmile_qr_scan"}, "lat": 38.9854385, "is_disabled": 0, "lon": -77.0040205}, {"fusion_lat": 0.0, "type": "electric_scooter", "name": "b67a8baa5b7ff052a8246c92a8659fda", "fusion_lon": 0.0, "bike_id": "b67a8baa5b7ff052a8246c92a8659fda", "is_reserved": 0, "rental_uris": {"android": "https://dc.lft.to/lastmile_qr_scan", "ios": "https://dc.lft.to/lastmile_qr_scan"}, "lat": 38.90730416666667, "is_disabled": 0, "lon": -77.04347683333333}, {"fusion_lat": 0.0, "type": "electric_scooter", "name": "caf667032acb8ad9698015be60145275", "fusion_lon": 0.0, "bike_id": "caf667032acb8ad9698015be60145275", "is_reserved": 0, "rental_uris": {"android": "https://dc.lft.to/lastmile_qr_scan", "ios": "https://dc.lft.to/lastmile_qr_scan"}, "lat": 38.90288416666667, "is_disabled": 0, "lon": -77.03861266666667}, {"fusion_lat": 0.0, "type": "electric_scooter", "name": "aef530b8f463a74b1dfdda16e26bc9bf", "fusion_lon": 0.0, "bike_id": "aef530b8f463a74b1dfdda16e26bc9bf", "is_reserved": 0, "rental_uris": {"android": "https://dc.lft.to/lastmile_qr_scan", "ios": "https://dc.lft.to/lastmile_qr_scan"}, "lat": 38.9051545, "is_disabled": 0, "lon": -77.04829983333333}, {"fusion_lat": 0.0, "type": "electric_scooter", "name": "3cf489671e2cd7a7109b8483c5e058a2", "fusion_lon": 0.0, "bike_id": "3cf489671e2cd7a7109b8483c5e058a2", "is_reserved": 0, "rental_uris": {"android": "https://dc.lft.to/lastmile_qr_scan", "ios": "https://dc.lft.to/lastmile_qr_scan"}, "lat": 38.92876433333333, "is_disabled": 0, "lon": -77.013542}, {"fusion_lat": 0.0, "type": "electric_scooter", "name": "fa9807af59f9915f91909eaa9a7b26a6", "fusion_lon": 0.0, "bike_id": "fa9807af59f9915f91909eaa9a7b26a6", "is_reserved": 0, "rental_uris": {"android": "https://dc.lft.to/lastmile_qr_scan", "ios": "https://dc.lft.to/lastmile_qr_scan"}, "lat": 38.9065275, "is_disabled": 0, "lon": -77.048791}, {"fusion_lat": 0.0, "type": "electric_scooter", "name": "466cea1034ff8fd5b4d3cbf7be8427c1", "fusion_lon": 0.0, "bike_id": "466cea1034ff8fd5b4d3cbf7be8427c1", "is_reserved": 0, "rental_uris": {"android": "https://dc.lft.to/lastmile_qr_scan", "ios": "https://dc.lft.to/lastmile_qr_scan"}, "lat": 38.8806195, "is_disabled": 0, "lon": -76.932135}, {"fusion_lat": 0.0, "type": "electric_scooter", "name": "ed46eaef35a9c965b6d69ea374373757", "fusion_lon": 0.0, "bike_id": "ed46eaef35a9c965b6d69ea374373757", "is_reserved": 0, "rental_uris": {"android": "https://dc.lft.to/lastmile_qr_scan", "ios": "https://dc.lft.to/lastmile_qr_scan"}, "lat": 38.86259866666666, "is_disabled": 0, "lon": -76.9960855}, {"fusion_lat": 0.0, "type": "electric_scooter", "name": "5ea2d440eba0b3c23e68547ed6a12df2", "fusion_lon": 0.0, "bike_id": "5ea2d440eba0b3c23e68547ed6a12df2", "is_reserved": 0, "rental_uris": {"android": "https://dc.lft.to/lastmile_qr_scan", "ios": "https://dc.lft.to/lastmile_qr_scan"}, "lat": 38.911309833333334, "is_disabled": 0, "lon": -77.02692516666667}, {"fusion_lat": 0.0, "type": "electric_scooter", "name": "ac76fd2d6e1d431a7aa7d3389b8abc52", "fusion_lon": 0.0, "bike_id": "ac76fd2d6e1d431a7aa7d3389b8abc52", "is_reserved": 0, "rental_uris": {"android": "https://dc.lft.to/lastmile_qr_scan", "ios": "https://dc.lft.to/lastmile_qr_scan"}, "lat": 38.8972925, "is_disabled": 0, "lon": -77.02716266666667}, {"fusion_lat": 0.0, "type": "electric_scooter", "name": "d133b7f19bca0441422c3ff5af3008cd", "fusion_lon": 0.0, "bike_id": "d133b7f19bca0441422c3ff5af3008cd", "is_reserved": 0, "rental_uris": {"android": "https://dc.lft.to/lastmile_qr_scan", "ios": "https://dc.lft.to/lastmile_qr_scan"}, "lat": 38.89470383333333, "is_disabled": 0, "lon": -77.01729016666667}, {"fusion_lat": 0.0, "type": "electric_scooter", "name": "137476fc8bf46b2a207eab6b7af3f007", "fusion_lon": 0.0, "bike_id": "137476fc8bf46b2a207eab6b7af3f007", "is_reserved": 0, "rental_uris": {"android": "https://dc.lft.to/lastmile_qr_scan", "ios": "https://dc.lft.to/lastmile_qr_scan"}, "lat": 38.908694, "is_disabled": 0, "lon": -77.07098066666667}, {"fusion_lat": 0.0, "type": "electric_scooter", "name": "681f34310515abf536ad91748b13734f", "fusion_lon": 0.0, "bike_id": "681f34310515abf536ad91748b13734f", "is_reserved": 0, "rental_uris": {"android": "https://dc.lft.to/lastmile_qr_scan", "ios": "https://dc.lft.to/lastmile_qr_scan"}, "lat": 38.90674533333333, "is_disabled": 0, "lon": -77.03767733333333}, {"fusion_lat": 0.0, "type": "electric_scooter", "name": "7a137021fb10d811c44fb79f9ebfd32b", "fusion_lon": 0.0, "bike_id": "7a137021fb10d811c44fb79f9ebfd32b", "is_reserved": 0, "rental_uris": {"android": "https://dc.lft.to/lastmile_qr_scan", "ios": "https://dc.lft.to/lastmile_qr_scan"}, "lat": 38.89224983333333, "is_disabled": 0, "lon": -77.04377866666667}, {"fusion_lat": 0.0, "type": "electric_scooter", "name": "524a6743558863b78956951b3b165c1e", "fusion_lon": 0.0, "bike_id": "524a6743558863b78956951b3b165c1e", "is_reserved": 0, "rental_uris": {"android": "https://dc.lft.to/lastmile_qr_scan", "ios": "https://dc.lft.to/lastmile_qr_scan"}, "lat": 38.866575833333336, "is_disabled": 0, "lon": -76.98521883333333}, {"fusion_lat": 0.0, "type": "electric_scooter", "name": "74927e62e4cc77a2cb7a7bdacd1c17ec", "fusion_lon": 0.0, "bike_id": "74927e62e4cc77a2cb7a7bdacd1c17ec", "is_reserved": 0, "rental_uris": {"android": "https://dc.lft.to/lastmile_qr_scan", "ios": "https://dc.lft.to/lastmile_qr_scan"}, "lat": 38.921004, "is_disabled": 0, "lon": -77.0332535}, {"fusion_lat": 0.0, "type": "electric_scooter", "name": "62a033b0dfde844fe9b20633291ae792", "fusion_lon": 0.0, "bike_id": "62a033b0dfde844fe9b20633291ae792", "is_reserved": 0, "rental_uris": {"android": "https://dc.lft.to/lastmile_qr_scan", "ios": "https://dc.lft.to/lastmile_qr_scan"}, "lat": 38.93002883333333, "is_disabled": 0, "lon": -77.0130035}, {"fusion_lat": 0.0, "type": "electric_scooter", "name": "af25d6f86f8257fc12f1c217a4ab3720", "fusion_lon": 0.0, "bike_id": "af25d6f86f8257fc12f1c217a4ab3720", "is_reserved": 0, "rental_uris": {"android": "https://dc.lft.to/lastmile_qr_scan", "ios": "https://dc.lft.to/lastmile_qr_scan"}, "lat": 38.93402666666667, "is_disabled": 0, "lon": -77.02212083333333}, {"fusion_lat": 0.0, "type": "electric_scooter", "name": "83c23ccc5696bf4654bc37cb17577ec4", "fusion_lon": 0.0, "bike_id": "83c23ccc5696bf4654bc37cb17577ec4", "is_reserved": 0, "rental_uris": {"android": "https://dc.lft.to/lastmile_qr_scan", "ios": "https://dc.lft.to/lastmile_qr_scan"}, "lat": 38.874611333333334, "is_disabled": 0, "lon": -77.00541316666667}, {"fusion_lat": 0.0, "type": "electric_scooter", "name": "5c8bd25762f0f1b1c09f18f0f35cf17e", "fusion_lon": 0.0, "bike_id": "5c8bd25762f0f1b1c09f18f0f35cf17e", "is_reserved": 0, "rental_uris": {"android": "https://dc.lft.to/lastmile_qr_scan", "ios": "https://dc.lft.to/lastmile_qr_scan"}, "lat": 38.91424133333334, "is_disabled": 0, "lon": -77.04482616666667}, {"fusion_lat": 0.0, "type": "electric_scooter", "name": "c839acad41421e5ffefa501490cfcbed", "fusion_lon": 0.0, "bike_id": "c839acad41421e5ffefa501490cfcbed", "is_reserved": 0, "rental_uris": {"android": "https://dc.lft.to/lastmile_qr_scan", "ios": "https://dc.lft.to/lastmile_qr_scan"}, "lat": 38.911173833333336, "is_disabled": 0, "lon": -77.0108435}, {"fusion_lat": 0.0, "type": "electric_scooter", "name": "18abdb2b1b25f0ead97095cd7368bf23", "fusion_lon": 0.0, "bike_id": "18abdb2b1b25f0ead97095cd7368bf23", "is_reserved": 0, "rental_uris": {"android": "https://dc.lft.to/lastmile_qr_scan", "ios": "https://dc.lft.to/lastmile_qr_scan"}, "lat": 38.9081075, "is_disabled": 0, "lon": -77.03855666666666}, {"fusion_lat": 0.0, "type": "electric_scooter", "name": "a360f4ebb79277d2ce9f5eb166101e9b", "fusion_lon": 0.0, "bike_id": "a360f4ebb79277d2ce9f5eb166101e9b", "is_reserved": 0, "rental_uris": {"android": "https://dc.lft.to/lastmile_qr_scan", "ios": "https://dc.lft.to/lastmile_qr_scan"}, "lat": 38.8929435, "is_disabled": 0, "lon": -77.01229183333334}, {"fusion_lat": 0.0, "type": "electric_scooter", "name": "4afc12a94a03142556453e7bceb1d3bc", "fusion_lon": 0.0, "bike_id": "4afc12a94a03142556453e7bceb1d3bc", "is_reserved": 0, "rental_uris": {"android": "https://dc.lft.to/lastmile_qr_scan", "ios": "https://dc.lft.to/lastmile_qr_scan"}, "lat": 38.924884, "is_disabled": 0, "lon": -77.0576125}, {"fusion_lat": 0.0, "type": "electric_scooter", "name": "058196fd8b0e13b17f5b8470b6a359cc", "fusion_lon": 0.0, "bike_id": "058196fd8b0e13b17f5b8470b6a359cc", "is_reserved": 0, "rental_uris": {"android": "https://dc.lft.to/lastmile_qr_scan", "ios": "https://dc.lft.to/lastmile_qr_scan"}, "lat": 38.863755833333336, "is_disabled": 0, "lon": -76.99059733333333}, {"fusion_lat": 0.0, "type": "electric_scooter", "name": "945e0934344658bde99241cd6ecd9846", "fusion_lon": 0.0, "bike_id": "945e0934344658bde99241cd6ecd9846", "is_reserved": 0, "rental_uris": {"android": "https://dc.lft.to/lastmile_qr_scan", "ios": "https://dc.lft.to/lastmile_qr_scan"}, "lat": 38.918174666666665, "is_disabled": 0, "lon": -77.03438983333334}, {"fusion_lat": 0.0, "type": "electric_scooter", "name": "569439b8dc3e89c3ee642fcf101033dd", "fusion_lon": 0.0, "bike_id": "569439b8dc3e89c3ee642fcf101033dd", "is_reserved": 0, "rental_uris": {"android": "https://dc.lft.to/lastmile_qr_scan", "ios": "https://dc.lft.to/lastmile_qr_scan"}, "lat": 38.937403, "is_disabled": 0, "lon": -77.03620083333334}, {"fusion_lat": 0.0, "type": "electric_scooter", "name": "17c3bbe90b290866552d03c2439d30b8", "fusion_lon": 0.0, "bike_id": "17c3bbe90b290866552d03c2439d30b8", "is_reserved": 0, "rental_uris": {"android": "https://dc.lft.to/lastmile_qr_scan", "ios": "https://dc.lft.to/lastmile_qr_scan"}, "lat": 38.89358133333333, "is_disabled": 0, "lon": -77.003291}, {"fusion_lat": 0.0, "type": "electric_scooter", "name": "d30f4979422aa57b575857f3bfa299c0", "fusion_lon": 0.0, "bike_id": "d30f4979422aa57b575857f3bfa299c0", "is_reserved": 0, "rental_uris": {"android": "https://dc.lft.to/lastmile_qr_scan", "ios": "https://dc.lft.to/lastmile_qr_scan"}, "lat": 38.906445, "is_disabled": 0, "lon": -77.04808916666667}, {"fusion_lat": 0.0, "type": "electric_scooter", "name": "7eaa832601bdbe72b866a2315ae2ad82", "fusion_lon": 0.0, "bike_id": "7eaa832601bdbe72b866a2315ae2ad82", "is_reserved": 0, "rental_uris": {"android": "https://dc.lft.to/lastmile_qr_scan", "ios": "https://dc.lft.to/lastmile_qr_scan"}, "lat": 38.90029166666667, "is_disabled": 0, "lon": -76.9992785}, {"fusion_lat": 0.0, "type": "electric_scooter", "name": "e83a2a6f05b975fe7bfb110239b4d7de", "fusion_lon": 0.0, "bike_id": "e83a2a6f05b975fe7bfb110239b4d7de", "is_reserved": 0, "rental_uris": {"android": "https://dc.lft.to/lastmile_qr_scan", "ios": "https://dc.lft.to/lastmile_qr_scan"}, "lat": 38.9084875, "is_disabled": 0, "lon": -77.0021335}, {"fusion_lat": 0.0, "type": "electric_scooter", "name": "a77eacab336c0df38f93e9ae38540160", "fusion_lon": 0.0, "bike_id": "a77eacab336c0df38f93e9ae38540160", "is_reserved": 0, "rental_uris": {"android": "https://dc.lft.to/lastmile_qr_scan", "ios": "https://dc.lft.to/lastmile_qr_scan"}, "lat": 38.94176566666667, "is_disabled": 0, "lon": -77.0274545}, {"fusion_lat": 0.0, "type": "electric_scooter", "name": "ff61498f01501326e77ee08a73c5001a", "fusion_lon": 0.0, "bike_id": "ff61498f01501326e77ee08a73c5001a", "is_reserved": 0, "rental_uris": {"android": "https://dc.lft.to/lastmile_qr_scan", "ios": "https://dc.lft.to/lastmile_qr_scan"}, "lat": 38.89170933333333, "is_disabled": 0, "lon": -77.015489}, {"fusion_lat": 0.0, "type": "electric_scooter", "name": "2859fcd6f7d20f077da97d408b3ef272", "fusion_lon": 0.0, "bike_id": "2859fcd6f7d20f077da97d408b3ef272", "is_reserved": 0, "rental_uris": {"android": "https://dc.lft.to/lastmile_qr_scan", "ios": "https://dc.lft.to/lastmile_qr_scan"}, "lat": 38.94431933333333, "is_disabled": 0, "lon": -77.02603116666667}, {"fusion_lat": 0.0, "type": "electric_scooter", "name": "e2bd43c5492b9a3a810b0b1ff948fccf", "fusion_lon": 0.0, "bike_id": "e2bd43c5492b9a3a810b0b1ff948fccf", "is_reserved": 0, "rental_uris": {"android": "https://dc.lft.to/lastmile_qr_scan", "ios": "https://dc.lft.to/lastmile_qr_scan"}, "lat": 38.9024665, "is_disabled": 0, "lon": -77.00199416666666}, {"fusion_lat": 0.0, "type": "electric_scooter", "name": "d3d00d4cd6d9029e350c113fccf8a305", "fusion_lon": 0.0, "bike_id": "d3d00d4cd6d9029e350c113fccf8a305", "is_reserved": 0, "rental_uris": {"android": "https://dc.lft.to/lastmile_qr_scan", "ios": "https://dc.lft.to/lastmile_qr_scan"}, "lat": 38.8927595, "is_disabled": 0, "lon": -77.04876333333333}, {"fusion_lat": 0.0, "type": "electric_scooter", "name": "56fff1d02e17149bfb1a31a4c680437c", "fusion_lon": 0.0, "bike_id": "56fff1d02e17149bfb1a31a4c680437c", "is_reserved": 0, "rental_uris": {"android": "https://dc.lft.to/lastmile_qr_scan", "ios": "https://dc.lft.to/lastmile_qr_scan"}, "lat": 38.914316, "is_disabled": 0, "lon": -77.03212183333333}, {"fusion_lat": 0.0, "type": "electric_scooter", "name": "b954b964f6594b47aae0ffa691a184cd", "fusion_lon": 0.0, "bike_id": "b954b964f6594b47aae0ffa691a184cd", "is_reserved": 0, "rental_uris": {"android": "https://dc.lft.to/lastmile_qr_scan", "ios": "https://dc.lft.to/lastmile_qr_scan"}, "lat": 38.89231083333333, "is_disabled": 0, "lon": -77.03183716666666}, {"fusion_lat": 0.0, "type": "electric_scooter", "name": "a9567eabfb97316444824da8ede6903c", "fusion_lon": 0.0, "bike_id": "a9567eabfb97316444824da8ede6903c", "is_reserved": 0, "rental_uris": {"android": "https://dc.lft.to/lastmile_qr_scan", "ios": "https://dc.lft.to/lastmile_qr_scan"}, "lat": 38.85538233333333, "is_disabled": 0, "lon": -76.98418}, {"fusion_lat": 0.0, "type": "electric_bike", "name": "94b48b246f1b6f25b7f22c1ee4386bbe", "fusion_lon": 0.0, "bike_id": "94b48b246f1b6f25b7f22c1ee4386bbe", "is_reserved": 0, "rental_uris": {"android": "https://dc.lft.to/lastmile_qr_scan", "ios": "https://dc.lft.to/lastmile_qr_scan"}, "lat": 38.92045916666667, "is_disabled": 0, "lon": -76.99907383333333}, {"fusion_lat": 0.0, "type": "electric_scooter", "name": "5c5417565df64896e0d68332f3a9aee7", "fusion_lon": 0.0, "bike_id": "5c5417565df64896e0d68332f3a9aee7", "is_reserved": 0, "rental_uris": {"android": "https://dc.lft.to/lastmile_qr_scan", "ios": "https://dc.lft.to/lastmile_qr_scan"}, "lat": 38.90083533333333, "is_disabled": 0, "lon": -76.93021816666666}, {"fusion_lat": 0.0, "type": "electric_scooter", "name": "7b841c1be58be303b9a967b4b5a21211", "fusion_lon": 0.0, "bike_id": "7b841c1be58be303b9a967b4b5a21211", "is_reserved": 0, "rental_uris": {"android": "https://dc.lft.to/lastmile_qr_scan", "ios": "https://dc.lft.to/lastmile_qr_scan"}, "lat": 38.89198916666667, "is_disabled": 0, "lon": -77.026258}, {"fusion_lat": 0.0, "type": "electric_scooter", "name": "dbd2398417c832c3cc2e7d369f818768", "fusion_lon": 0.0, "bike_id": "dbd2398417c832c3cc2e7d369f818768", "is_reserved": 0, "rental_uris": {"android": "https://dc.lft.to/lastmile_qr_scan", "ios": "https://dc.lft.to/lastmile_qr_scan"}, "lat": 38.9024205, "is_disabled": 0, "lon": -77.02616216666667}, {"fusion_lat": 0.0, "type": "electric_scooter", "name": "3a7fff2c3bbbcb04194820bf1e283b98", "fusion_lon": 0.0, "bike_id": "3a7fff2c3bbbcb04194820bf1e283b98", "is_reserved": 0, "rental_uris": {"android": "https://dc.lft.to/lastmile_qr_scan", "ios": "https://dc.lft.to/lastmile_qr_scan"}, "lat": 38.87211466666667, "is_disabled": 0, "lon": -76.97837866666667}, {"fusion_lat": 0.0, "type": "electric_scooter", "name": "11d9d8e9ec0e83e239aff1dcb4924d85", "fusion_lon": 0.0, "bike_id": "11d9d8e9ec0e83e239aff1dcb4924d85", "is_reserved": 0, "rental_uris": {"android": "https://dc.lft.to/lastmile_qr_scan", "ios": "https://dc.lft.to/lastmile_qr_scan"}, "lat": 38.884888, "is_disabled": 0, "lon": -76.92624116666667}, {"fusion_lat": 0.0, "type": "electric_scooter", "name": "9753e4be8e4f9aef58a4b7fecde0ef6c", "fusion_lon": 0.0, "bike_id": "9753e4be8e4f9aef58a4b7fecde0ef6c", "is_reserved": 0, "rental_uris": {"android": "https://dc.lft.to/lastmile_qr_scan", "ios": "https://dc.lft.to/lastmile_qr_scan"}, "lat": 38.89735816666666, "is_disabled": 0, "lon": -77.02713866666667}, {"fusion_lat": 0.0, "type": "electric_scooter", "name": "8649d6b55b25971fec6807fefe582828", "fusion_lon": 0.0, "bike_id": "8649d6b55b25971fec6807fefe582828", "is_reserved": 0, "rental_uris": {"android": "https://dc.lft.to/lastmile_qr_scan", "ios": "https://dc.lft.to/lastmile_qr_scan"}, "lat": 38.950682, "is_disabled": 0, "lon": -77.08013516666666}, {"fusion_lat": 0.0, "type": "electric_scooter", "name": "d3a946f64b2c088f7c8fa0d6c3de3612", "fusion_lon": 0.0, "bike_id": "d3a946f64b2c088f7c8fa0d6c3de3612", "is_reserved": 0, "rental_uris": {"android": "https://dc.lft.to/lastmile_qr_scan", "ios": "https://dc.lft.to/lastmile_qr_scan"}, "lat": 38.9573425, "is_disabled": 0, "lon": -77.02407483333333}, {"fusion_lat": 0.0, "type": "electric_scooter", "name": "da19510dd95da04e63be62b56de2e36e", "fusion_lon": 0.0, "bike_id": "da19510dd95da04e63be62b56de2e36e", "is_reserved": 0, "rental_uris": {"android": "https://dc.lft.to/lastmile_qr_scan", "ios": "https://dc.lft.to/lastmile_qr_scan"}, "lat": 38.91124083333333, "is_disabled": 0, "lon": -77.02081366666667}, {"fusion_lat": 0.0, "type": "electric_scooter", "name": "4e451242bd2213283b84b63366d73e23", "fusion_lon": 0.0, "bike_id": "4e451242bd2213283b84b63366d73e23", "is_reserved": 0, "rental_uris": {"android": "https://dc.lft.to/lastmile_qr_scan", "ios": "https://dc.lft.to/lastmile_qr_scan"}, "lat": 38.903445833333336, "is_disabled": 0, "lon": -76.98276333333334}, {"fusion_lat": 0.0, "type": "electric_scooter", "name": "7ff3f1a205ec6df0651347273c1c13d3", "fusion_lon": 0.0, "bike_id": "7ff3f1a205ec6df0651347273c1c13d3", "is_reserved": 0, "rental_uris": {"android": "https://dc.lft.to/lastmile_qr_scan", "ios": "https://dc.lft.to/lastmile_qr_scan"}, "lat": 38.8927855, "is_disabled": 0, "lon": -77.04873966666666}, {"fusion_lat": 0.0, "type": "electric_scooter", "name": "e9a86a3112b65e69ceed9afbd6d42cb3", "fusion_lon": 0.0, "bike_id": "e9a86a3112b65e69ceed9afbd6d42cb3", "is_reserved": 0, "rental_uris": {"android": "https://dc.lft.to/lastmile_qr_scan", "ios": "https://dc.lft.to/lastmile_qr_scan"}, "lat": 38.926205, "is_disabled": 0, "lon": -77.04331483333333}, {"fusion_lat": 0.0, "type": "electric_scooter", "name": "3717c545c6e486f2684282aa7123ef94", "fusion_lon": 0.0, "bike_id": "3717c545c6e486f2684282aa7123ef94", "is_reserved": 0, "rental_uris": {"android": "https://dc.lft.to/lastmile_qr_scan", "ios": "https://dc.lft.to/lastmile_qr_scan"}, "lat": 38.91558333333333, "is_disabled": 0, "lon": -77.02428233333333}, {"fusion_lat": 0.0, "type": "electric_scooter", "name": "50b49b5b641e8b09e26013c18ff1dc9a", "fusion_lon": 0.0, "bike_id": "50b49b5b641e8b09e26013c18ff1dc9a", "is_reserved": 0, "rental_uris": {"android": "https://dc.lft.to/lastmile_qr_scan", "ios": "https://dc.lft.to/lastmile_qr_scan"}, "lat": 38.90202683333333, "is_disabled": 0, "lon": -77.031793}, {"fusion_lat": 0.0, "type": "electric_scooter", "name": "047b2151845f79dd77443f75e83fcdcd", "fusion_lon": 0.0, "bike_id": "047b2151845f79dd77443f75e83fcdcd", "is_reserved": 0, "rental_uris": {"android": "https://dc.lft.to/lastmile_qr_scan", "ios": "https://dc.lft.to/lastmile_qr_scan"}, "lat": 38.900402, "is_disabled": 0, "lon": -77.048974}, {"fusion_lat": 0.0, "type": "electric_scooter", "name": "3d5f49b9b58dd38488add3a3f8d3e314", "fusion_lon": 0.0, "bike_id": "3d5f49b9b58dd38488add3a3f8d3e314", "is_reserved": 0, "rental_uris": {"android": "https://dc.lft.to/lastmile_qr_scan", "ios": "https://dc.lft.to/lastmile_qr_scan"}, "lat": 38.90719566666667, "is_disabled": 0, "lon": -77.07436183333333}, {"fusion_lat": 0.0, "type": "electric_scooter", "name": "141fe169d44ac2ffff8201b5a74fe777", "fusion_lon": 0.0, "bike_id": "141fe169d44ac2ffff8201b5a74fe777", "is_reserved": 0, "rental_uris": {"android": "https://dc.lft.to/lastmile_qr_scan", "ios": "https://dc.lft.to/lastmile_qr_scan"}, "lat": 38.905862666666664, "is_disabled": 0, "lon": -77.00261516666667}, {"fusion_lat": 0.0, "type": "electric_scooter", "name": "022be24bd9089753b0cd4c20d3b4c2cd", "fusion_lon": 0.0, "bike_id": "022be24bd9089753b0cd4c20d3b4c2cd", "is_reserved": 0, "rental_uris": {"android": "https://dc.lft.to/lastmile_qr_scan", "ios": "https://dc.lft.to/lastmile_qr_scan"}, "lat": 38.885332166666664, "is_disabled": 0, "lon": -77.00587266666666}, {"fusion_lat": 0.0, "type": "electric_scooter", "name": "fdc0c9591cd04c048ee7843cef5f7f96", "fusion_lon": 0.0, "bike_id": "fdc0c9591cd04c048ee7843cef5f7f96", "is_reserved": 0, "rental_uris": {"android": "https://dc.lft.to/lastmile_qr_scan", "ios": "https://dc.lft.to/lastmile_qr_scan"}, "lat": 38.8995955, "is_disabled": 0, "lon": -77.04528716666667}, {"fusion_lat": 0.0, "type": "electric_scooter", "name": "df8735d79d19baf0ad85ca2693922808", "fusion_lon": 0.0, "bike_id": "df8735d79d19baf0ad85ca2693922808", "is_reserved": 0, "rental_uris": {"android": "https://dc.lft.to/lastmile_qr_scan", "ios": "https://dc.lft.to/lastmile_qr_scan"}, "lat": 38.90451783333334, "is_disabled": 0, "lon": -77.038248}, {"fusion_lat": 0.0, "type": "electric_bike", "name": "aeac7a83768fa6850b18e5c26f7b8c43", "fusion_lon": 0.0, "bike_id": "aeac7a83768fa6850b18e5c26f7b8c43", "is_reserved": 0, "rental_uris": {"android": "https://dc.lft.to/lastmile_qr_scan", "ios": "https://dc.lft.to/lastmile_qr_scan"}, "lat": 38.93693016666667, "is_disabled": 0, "lon": -76.99061766666667}, {"fusion_lat": 0.0, "type": "electric_scooter", "name": "bd4d432d4e51b95f14af0e479a48fb05", "fusion_lon": 0.0, "bike_id": "bd4d432d4e51b95f14af0e479a48fb05", "is_reserved": 0, "rental_uris": {"android": "https://dc.lft.to/lastmile_qr_scan", "ios": "https://dc.lft.to/lastmile_qr_scan"}, "lat": 38.924202333333334, "is_disabled": 0, "lon": -77.01937716666667}, {"fusion_lat": 0.0, "type": "electric_scooter", "name": "205399d8f84be5f7cb00a8b89a032618", "fusion_lon": 0.0, "bike_id": "205399d8f84be5f7cb00a8b89a032618", "is_reserved": 0, "rental_uris": {"android": "https://dc.lft.to/lastmile_qr_scan", "ios": "https://dc.lft.to/lastmile_qr_scan"}, "lat": 38.896877, "is_disabled": 0, "lon": -77.0240415}, {"fusion_lat": 0.0, "type": "electric_scooter", "name": "f3c3f2d3e4061616c6e167cddc364718", "fusion_lon": 0.0, "bike_id": "f3c3f2d3e4061616c6e167cddc364718", "is_reserved": 0, "rental_uris": {"android": "https://dc.lft.to/lastmile_qr_scan", "ios": "https://dc.lft.to/lastmile_qr_scan"}, "lat": 38.91799366666667, "is_disabled": 0, "lon": -77.02711566666666}, {"fusion_lat": 0.0, "type": "electric_scooter", "name": "2e58b6f845ea8cff986e6b92c3b204d3", "fusion_lon": 0.0, "bike_id": "2e58b6f845ea8cff986e6b92c3b204d3", "is_reserved": 0, "rental_uris": {"android": "https://dc.lft.to/lastmile_qr_scan", "ios": "https://dc.lft.to/lastmile_qr_scan"}, "lat": 38.938658, "is_disabled": 0, "lon": -77.0265015}, {"fusion_lat": 0.0, "type": "electric_scooter", "name": "db24ae74d96d467d3637f9a73fe48d67", "fusion_lon": 0.0, "bike_id": "db24ae74d96d467d3637f9a73fe48d67", "is_reserved": 0, "rental_uris": {"android": "https://dc.lft.to/lastmile_qr_scan", "ios": "https://dc.lft.to/lastmile_qr_scan"}, "lat": 38.88679583333333, "is_disabled": 0, "lon": -76.9901025}, {"fusion_lat": 0.0, "type": "electric_bike", "name": "42a0d4fc042f482d6770d8b5b526afbd", "fusion_lon": 0.0, "bike_id": "42a0d4fc042f482d6770d8b5b526afbd", "is_reserved": 0, "rental_uris": {"android": "https://dc.lft.to/lastmile_qr_scan", "ios": "https://dc.lft.to/lastmile_qr_scan"}, "lat": 38.845061666666666, "is_disabled": 0, "lon": -76.9935545}, {"fusion_lat": 0.0, "type": "electric_scooter", "name": "83bf7c07eee804ac3372b7d1486a85c6", "fusion_lon": 0.0, "bike_id": "83bf7c07eee804ac3372b7d1486a85c6", "is_reserved": 0, "rental_uris": {"android": "https://dc.lft.to/lastmile_qr_scan", "ios": "https://dc.lft.to/lastmile_qr_scan"}, "lat": 38.93270733333333, "is_disabled": 0, "lon": -77.02833916666667}, {"fusion_lat": 0.0, "type": "electric_scooter", "name": "3fceb5eb24ffc389bbab37677b980a85", "fusion_lon": 0.0, "bike_id": "3fceb5eb24ffc389bbab37677b980a85", "is_reserved": 0, "rental_uris": {"android": "https://dc.lft.to/lastmile_qr_scan", "ios": "https://dc.lft.to/lastmile_qr_scan"}, "lat": 38.86661483333334, "is_disabled": 0, "lon": -76.98883483333333}, {"fusion_lat": 0.0, "type": "electric_scooter", "name": "ed2ad6e71358c09a9b86f8212728b8e1", "fusion_lon": 0.0, "bike_id": "ed2ad6e71358c09a9b86f8212728b8e1", "is_reserved": 0, "rental_uris": {"android": "https://dc.lft.to/lastmile_qr_scan", "ios": "https://dc.lft.to/lastmile_qr_scan"}, "lat": 38.886798666666664, "is_disabled": 0, "lon": -76.95466533333334}, {"fusion_lat": 0.0, "type": "electric_scooter", "name": "58b006f17f10c0829627c8ada24ef45c", "fusion_lon": 0.0, "bike_id": "58b006f17f10c0829627c8ada24ef45c", "is_reserved": 0, "rental_uris": {"android": "https://dc.lft.to/lastmile_qr_scan", "ios": "https://dc.lft.to/lastmile_qr_scan"}, "lat": 38.89232883333333, "is_disabled": 0, "lon": -77.03139566666667}, {"fusion_lat": 0.0, "type": "electric_scooter", "name": "5b1d8537feb11ca1a7453a2085bb33ff", "fusion_lon": 0.0, "bike_id": "5b1d8537feb11ca1a7453a2085bb33ff", "is_reserved": 0, "rental_uris": {"android": "https://dc.lft.to/lastmile_qr_scan", "ios": "https://dc.lft.to/lastmile_qr_scan"}, "lat": 38.907309, "is_disabled": 0, "lon": -77.04234766666667}, {"fusion_lat": 0.0, "type": "electric_scooter", "name": "7c212ebaad137e34fd205fc23a7fb644", "fusion_lon": 0.0, "bike_id": "7c212ebaad137e34fd205fc23a7fb644", "is_reserved": 0, "rental_uris": {"android": "https://dc.lft.to/lastmile_qr_scan", "ios": "https://dc.lft.to/lastmile_qr_scan"}, "lat": 38.88742833333333, "is_disabled": 0, "lon": -77.02731983333334}, {"fusion_lat": 0.0, "type": "electric_scooter", "name": "8f6851bf698f5545f96e96cc4654d147", "fusion_lon": 0.0, "bike_id": "8f6851bf698f5545f96e96cc4654d147", "is_reserved": 0, "rental_uris": {"android": "https://dc.lft.to/lastmile_qr_scan", "ios": "https://dc.lft.to/lastmile_qr_scan"}, "lat": 38.920611666666666, "is_disabled": 0, "lon": -77.023629}, {"fusion_lat": 0.0, "type": "electric_scooter", "name": "039207206e295f1f472a8427ae37a3ad", "fusion_lon": 0.0, "bike_id": "039207206e295f1f472a8427ae37a3ad", "is_reserved": 0, "rental_uris": {"android": "https://dc.lft.to/lastmile_qr_scan", "ios": "https://dc.lft.to/lastmile_qr_scan"}, "lat": 38.902742333333336, "is_disabled": 0, "lon": -77.059188}, {"fusion_lat": 0.0, "type": "electric_scooter", "name": "9f4720f575d6d9a90ba4fc79907f0a62", "fusion_lon": 0.0, "bike_id": "9f4720f575d6d9a90ba4fc79907f0a62", "is_reserved": 0, "rental_uris": {"android": "https://dc.lft.to/lastmile_qr_scan", "ios": "https://dc.lft.to/lastmile_qr_scan"}, "lat": 38.92579333333333, "is_disabled": 0, "lon": -77.0261625}, {"fusion_lat": 0.0, "type": "electric_scooter", "name": "dfa8426a18daf02bf6ccef8e0c2eb090", "fusion_lon": 0.0, "bike_id": "dfa8426a18daf02bf6ccef8e0c2eb090", "is_reserved": 0, "rental_uris": {"android": "https://dc.lft.to/lastmile_qr_scan", "ios": "https://dc.lft.to/lastmile_qr_scan"}, "lat": 38.90860466666667, "is_disabled": 0, "lon": -77.0436585}, {"fusion_lat": 0.0, "type": "electric_scooter", "name": "74b06c8bc45baf396fcbb78ee1fca4e5", "fusion_lon": 0.0, "bike_id": "74b06c8bc45baf396fcbb78ee1fca4e5", "is_reserved": 0, "rental_uris": {"android": "https://dc.lft.to/lastmile_qr_scan", "ios": "https://dc.lft.to/lastmile_qr_scan"}, "lat": 38.86509566666667, "is_disabled": 0, "lon": -76.99001766666666}, {"fusion_lat": 0.0, "type": "electric_scooter", "name": "f1e79fca211a8b747731fd4530a71384", "fusion_lon": 0.0, "bike_id": "f1e79fca211a8b747731fd4530a71384", "is_reserved": 0, "rental_uris": {"android": "https://dc.lft.to/lastmile_qr_scan", "ios": "https://dc.lft.to/lastmile_qr_scan"}, "lat": 38.92981966666667, "is_disabled": 0, "lon": -77.03661116666666}, {"fusion_lat": 0.0, "type": "electric_scooter", "name": "e2b075824ef872d9902878206372901b", "fusion_lon": 0.0, "bike_id": "e2b075824ef872d9902878206372901b", "is_reserved": 0, "rental_uris": {"android": "https://dc.lft.to/lastmile_qr_scan", "ios": "https://dc.lft.to/lastmile_qr_scan"}, "lat": 38.9088495, "is_disabled": 0, "lon": -76.98540983333334}, {"fusion_lat": 0.0, "type": "electric_scooter", "name": "837abb04f504a67758d2d5bcd03cfd81", "fusion_lon": 0.0, "bike_id": "837abb04f504a67758d2d5bcd03cfd81", "is_reserved": 0, "rental_uris": {"android": "https://dc.lft.to/lastmile_qr_scan", "ios": "https://dc.lft.to/lastmile_qr_scan"}, "lat": 38.89228466666667, "is_disabled": 0, "lon": -77.04898033333333}, {"fusion_lat": 0.0, "type": "electric_scooter", "name": "84d340cb3677824a58afb153d5dd41f2", "fusion_lon": 0.0, "bike_id": "84d340cb3677824a58afb153d5dd41f2", "is_reserved": 0, "rental_uris": {"android": "https://dc.lft.to/lastmile_qr_scan", "ios": "https://dc.lft.to/lastmile_qr_scan"}, "lat": 38.91310083333333, "is_disabled": 0, "lon": -77.03856866666666}, {"fusion_lat": 0.0, "type": "electric_scooter", "name": "4f4f46190c12e278b6bc97b0924e3524", "fusion_lon": 0.0, "bike_id": "4f4f46190c12e278b6bc97b0924e3524", "is_reserved": 0, "rental_uris": {"android": "https://dc.lft.to/lastmile_qr_scan", "ios": "https://dc.lft.to/lastmile_qr_scan"}, "lat": 38.901778, "is_disabled": 0, "lon": -76.92864316666666}, {"fusion_lat": 0.0, "type": "electric_scooter", "name": "af4d55fc864d1045bb5a68fbc69e9007", "fusion_lon": 0.0, "bike_id": "af4d55fc864d1045bb5a68fbc69e9007", "is_reserved": 0, "rental_uris": {"android": "https://dc.lft.to/lastmile_qr_scan", "ios": "https://dc.lft.to/lastmile_qr_scan"}, "lat": 38.90890266666667, "is_disabled": 0, "lon": -76.99861116666666}, {"fusion_lat": 0.0, "type": "electric_scooter", "name": "4214ce67a6d787a96632d4190ec3c21f", "fusion_lon": 0.0, "bike_id": "4214ce67a6d787a96632d4190ec3c21f", "is_reserved": 0, "rental_uris": {"android": "https://dc.lft.to/lastmile_qr_scan", "ios": "https://dc.lft.to/lastmile_qr_scan"}, "lat": 38.866880333333334, "is_disabled": 0, "lon": -76.98599033333333}, {"fusion_lat": 0.0, "type": "electric_scooter", "name": "bd52cd52392d1b905e8635b694c19c37", "fusion_lon": 0.0, "bike_id": "bd52cd52392d1b905e8635b694c19c37", "is_reserved": 0, "rental_uris": {"android": "https://dc.lft.to/lastmile_qr_scan", "ios": "https://dc.lft.to/lastmile_qr_scan"}, "lat": 38.909659, "is_disabled": 0, "lon": -77.0321995}, {"fusion_lat": 0.0, "type": "electric_scooter", "name": "e02322ab3007d05bb0ac50a103755451", "fusion_lon": 0.0, "bike_id": "e02322ab3007d05bb0ac50a103755451", "is_reserved": 0, "rental_uris": {"android": "https://dc.lft.to/lastmile_qr_scan", "ios": "https://dc.lft.to/lastmile_qr_scan"}, "lat": 38.9027645, "is_disabled": 0, "lon": -77.0397115}, {"fusion_lat": 0.0, "type": "electric_scooter", "name": "d80c4c16d4ea4757b085c977876c0992", "fusion_lon": 0.0, "bike_id": "d80c4c16d4ea4757b085c977876c0992", "is_reserved": 0, "rental_uris": {"android": "https://dc.lft.to/lastmile_qr_scan", "ios": "https://dc.lft.to/lastmile_qr_scan"}, "lat": 38.92378933333333, "is_disabled": 0, "lon": -77.021048}, {"fusion_lat": 0.0, "type": "electric_scooter", "name": "37043ab5af3dc9891ad2ceb7f4e4c10e", "fusion_lon": 0.0, "bike_id": "37043ab5af3dc9891ad2ceb7f4e4c10e", "is_reserved": 0, "rental_uris": {"android": "https://dc.lft.to/lastmile_qr_scan", "ios": "https://dc.lft.to/lastmile_qr_scan"}, "lat": 38.9055975, "is_disabled": 0, "lon": -77.04697783333333}, {"fusion_lat": 0.0, "type": "electric_scooter", "name": "280d5e75de7bce6a4f4047526e106217", "fusion_lon": 0.0, "bike_id": "280d5e75de7bce6a4f4047526e106217", "is_reserved": 0, "rental_uris": {"android": "https://dc.lft.to/lastmile_qr_scan", "ios": "https://dc.lft.to/lastmile_qr_scan"}, "lat": 38.91187766666667, "is_disabled": 0, "lon": -77.03527833333334}, {"fusion_lat": 0.0, "type": "electric_scooter", "name": "776a6d04623306331936842d8744db58", "fusion_lon": 0.0, "bike_id": "776a6d04623306331936842d8744db58", "is_reserved": 0, "rental_uris": {"android": "https://dc.lft.to/lastmile_qr_scan", "ios": "https://dc.lft.to/lastmile_qr_scan"}, "lat": 38.93169233333333, "is_disabled": 0, "lon": -77.0325445},