{"data": {"bikes": [{"rental_uris": {"ios": "https://dc.lft.to/lastmile_qr_scan", "android": "https://dc.lft.to/lastmile_qr_scan"}, "lat": 38.88132, "lon": -77.01693216666666, "fusion_lat": 0.0, "name": "72e33c5a3fb02f32e923c2d36ec9f07a", "is_disabled": 0, "is_reserved": 0, "bike_id": "72e33c5a3fb02f32e923c2d36ec9f07a", "fusion_lon": 0.0, "type": "electric_bike"}, {"rental_uris": {"ios": "https://dc.lft.to/lastmile_qr_scan", "android": "https://dc.lft.to/lastmile_qr_scan"}, "lat": 38.91415933333333, "lon": -77.02676983333333, "fusion_lat": 0.0, "name": "77493b7eb6278c2b74221c5d38afe1c8", "is_disabled": 0, "is_reserved": 0, "bike_id": "77493b7eb6278c2b74221c5d38afe1c8", "fusion_lon": 0.0, "type": "electric_scooter"}, {"rental_uris": {"ios": "https://dc.lft.to/lastmile_qr_scan", "android": "https://dc.lft.to/lastmile_qr_scan"}, "lat": 38.907115, "lon": -77.04506016666667, "fusion_lat": 0.0, "name": "1e5d2af680ea496872b6d718af1eb175", "is_disabled": 0, "is_reserved": 0, "bike_id": "1e5d2af680ea496872b6d718af1eb175", "fusion_lon": 0.0, "type": "electric_scooter"}, {"rental_uris": {"ios": "https://dc.lft.to/lastmile_qr_scan", "android": "https://dc.lft.to/lastmile_qr_scan"}, "lat": 38.965521333333335, "lon": -77.0362865, "fusion_lat": 0.0, "name": "0d26560e0c7050003ffb7b2e2bb651f5", "is_disabled": 0, "is_reserved": 0, "bike_id": "0d26560e0c7050003ffb7b2e2bb651f5", "fusion_lon": 0.0, "type": "electric_scooter"}, {"rental_uris": {"ios": "https://dc.lft.to/lastmile_qr_scan", "android": "https://dc.lft.to/lastmile_qr_scan"}, "lat": 38.92858416666667, "lon": -77.030042, "fusion_lat": 0.0, "name": "ad181d3b22dbf45615d5fd90cbcf7037", "is_disabled": 0, "is_reserved": 0, "bike_id": "ad181d3b22dbf45615d5fd90cbcf7037", "fusion_lon": 0.0, "type": "electric_scooter"}, {"rental_uris": {"ios": "https://dc.lft.to/lastmile_qr_scan", "android": "https://dc.lft.to/lastmile_qr_scan"}, "lat": 38.90829983333333, "lon": -77.0344985, "fusion_lat": 0.0, "name": "ba898860ce49644ad1f591864bfa800c", "is_disabled": 0, "is_reserved": 0, "bike_id": "ba898860ce49644ad1f591864bfa800c", "fusion_lon": 0.0, "type": "electric_scooter"}, {"rental_uris": {"ios": "https://dc.lft.to/lastmile_qr_scan", "android": "https://dc.lft.to/lastmile_qr_scan"}, "lat": 38.88594466666667, "lon": -76.9955945, "fusion_lat": 0.0, "name": "c6ab8c0e3c22a8ca619d12d1e8d7fe8f", "is_disabled": 0, "is_reserved": 0, "bike_id": "c6ab8c0e3c22a8ca619d12d1e8d7fe8f", "fusion_lon": 0.0, "type": "electric_scooter"}, {"rental_uris": {"ios": "https://dc.lft.to/lastmile_qr_scan", "android": "https://dc.lft.to/lastmile_qr_scan"}, "lat": 38.920008333333335, "lon": -77.02170916666667, "fusion_lat": 0.0, "name": "3ace775767818fb4f305b631adf31b52", "is_disabled": 0, "is_reserved": 0, "bike_id": "3ace775767818fb4f305b631adf31b52", "fusion_lon": 0.0, "type": "electric_scooter"}, {"rental_uris": {"ios": "https://dc.lft.to/lastmile_qr_scan", "android": "https://dc.lft.to/lastmile_qr_scan"}, "lat": 38.90526066666666, "lon": -77.0630715, "fusion_lat": 0.0, "name": "91906131836d8ae5eea3bf18c234d6a0", "is_disabled": 0, "is_reserved": 0, "bike_id": "91906131836d8ae5eea3bf18c234d6a0", "fusion_lon": 0.0, "type": "electric_scooter"}, {"rental_uris": {"ios": "https://dc.lft.to/lastmile_qr_scan", "android": "https://dc.lft.to/lastmile_qr_scan"}, "lat": 38.83807316666667, "lon": -77.09519833333333, "fusion_lat": 0.0, "name": "de6700daebb449c807f53bd54aea8310", "is_disabled": 0, "is_reserved": 0, "bike_id": "de6700daebb449c807f53bd54aea8310", "fusion_lon": 0.0, "type": "electric_bike"}, {"rental_uris": {"ios": "https://dc.lft.to/lastmile_qr_scan", "android": "https://dc.lft.to/lastmile_qr_scan"}, "lat": 38.88519683333333, "lon": -76.99088716666667, "fusion_lat": 0.0, "name": "ff0406bf36eb50e2a7f208c096935ea3", "is_disabled": 0, "is_reserved": 0, "bike_id": "ff0406bf36eb50e2a7f208c096935ea3", "fusion_lon": 0.0, "type": "electric_scooter"}, {"rental_uris": {"ios": "https://dc.lft.to/lastmile_qr_scan", "android": "https://dc.lft.to/lastmile_qr_scan"}, "lat": 38.9027815, "lon": -77.039655, "fusion_lat": 0.0, "name": "eee48b5c5a49e5650f26a4ebcaf0a40e", "is_disabled": 0, "is_reserved": 0, "bike_id": "eee48b5c5a49e5650f26a4ebcaf0a40e", "fusion_lon": 0.0, "type": "electric_scooter"}, {"rental_uris": {"ios": "https://dc.lft.to/lastmile_qr_scan", "android": "https://dc.lft.to/lastmile_qr_scan"}, "lat": 38.9352865, "lon": -77.02351066666667, "fusion_lat": 0.0, "name": "321094a0d53f3ecb273b02758c3b228c", "is_disabled": 0, "is_reserved": 0, "bike_id": "321094a0d53f3ecb273b02758c3b228c", "fusion_lon": 0.0, "type": "electric_scooter"}, {"rental_uris": {"ios": "https://dc.lft.to/lastmile_qr_scan", "android": "https://dc.lft.to/lastmile_qr_scan"}, "lat": 38.88491833333333, "lon": -77.007248, "fusion_lat": 0.0, "name": "9cab664e37e10b49e533d53df8237d92", "is_disabled": 0, "is_reserved": 0, "bike_id": "9cab664e37e10b49e533d53df8237d92", "fusion_lon": 0.0, "type": "electric_scooter"}, {"rental_uris": {"ios": "https://dc.lft.to/lastmile_qr_scan", "android": "https://dc.lft.to/lastmile_qr_scan"}, "lat": 38.923278333333336, "lon": -77.008851, "fusion_lat": 0.0, "name": "2566b6f5717a62dd8c642ebe33b52488", "is_disabled": 0, "is_reserved": 0, "bike_id": "2566b6f5717a62dd8c642ebe33b52488", "fusion_lon": 0.0, "type": "electric_scooter"}, {"rental_uris": {"ios": "https://dc.lft.to/lastmile_qr_scan", "android": "https://dc.lft.to/lastmile_qr_scan"}, "lat": 38.916535833333334, "lon": -76.97915483333334, "fusion_lat": 0.0, "name": "279b5c7d292210ad28b46ceef892d327", "is_disabled": 0, "is_reserved": 0, "bike_id": "279b5c7d292210ad28b46ceef892d327", "fusion_lon": 0.0, "type": "electric_scooter"}, {"rental_uris": {"ios": "https://dc.lft.to/lastmile_qr_scan", "android": "https://dc.lft.to/lastmile_qr_scan"}, "lat": 38.987671, "lon": -77.14052649999999, "fusion_lat": 0.0, "name": "bdcab7a227b6a41e9352079623dfbdee", "is_disabled": 0, "is_reserved": 0, "bike_id": "bdcab7a227b6a41e9352079623dfbdee", "fusion_lon": 0.0, "type": "electric_bike"}, {"rental_uris": {"ios": "https://dc.lft.to/lastmile_qr_scan", "android": "https://dc.lft.to/lastmile_qr_scan"}, "lat": 38.91815966666667, "lon": -77.03192183333333, "fusion_lat": 0.0, "name": "58e8420fcb88ed3772552d3076c97e93", "is_disabled": 0, "is_reserved": 0, "bike_id": "58e8420fcb88ed3772552d3076c97e93", "fusion_lon": 0.0, "type": "electric_scooter"}, {"rental_uris": {"ios": "https://dc.lft.to/lastmile_qr_scan", "android": "https://dc.lft.to/lastmile_qr_scan"}, "lat": 38.92037666666667, "lon": -77.00304233333334, "fusion_lat": 0.0, "name": "ebb4ef1d10ae513319cdb3208b0503e0", "is_disabled": 0, "is_reserved": 0, "bike_id": "ebb4ef1d10ae513319cdb3208b0503e0", "fusion_lon": 0.0, "type": "electric_scooter"}, {"rental_uris": {"ios": "https://dc.lft.to/lastmile_qr_scan", "android": "https://dc.lft.to/lastmile_qr_scan"}, "lat": 38.92907183333333, "lon": -77.02160633333334, "fusion_lat": 0.0, "name": "20c10d39289ff9d32654e3ac315e582c", "is_disabled": 0, "is_reserved": 0, "bike_id": "20c10d39289ff9d32654e3ac315e582c", "fusion_lon": 0.0, "type": "electric_scooter"}, {"rental_uris": {"ios": "https://dc.lft.to/lastmile_qr_scan", "android": "https://dc.lft.to/lastmile_qr_scan"}, "lat": 38.89222816666667, "lon": -77.01595783333333, "fusion_lat": 0.0, "name": "316eecd7258b27ee2ea58dbaa98fcb38", "is_disabled": 0, "is_reserved": 0, "bike_id": "316eecd7258b27ee2ea58dbaa98fcb38", "fusion_lon": 0.0, "type": "electric_scooter"}, {"rental_uris": {"ios": "https://dc.lft.to/lastmile_qr_scan", "android": "https://dc.lft.to/lastmile_qr_scan"}, "lat": 38.914708, "lon": -77.02193933333334, "fusion_lat": 0.0, "name": "73db0d78da381280c1dd58dcdd81f3be", "is_disabled": 0, "is_reserved": 0, "bike_id": "73db0d78da381280c1dd58dcdd81f3be", "fusion_lon": 0.0, "type": "electric_scooter"}, {"rental_uris": {"ios": "https://dc.lft.to/lastmile_qr_scan", "android": "https://dc.lft.to/lastmile_qr_scan"}, "lat": 38.901312833333336, "lon": -77.02942833333333, "fusion_lat": 0.0, "name": "5bffed4bf230cfe218e6b23ce0e32ee3", "is_disabled": 0, "is_reserved": 0, "bike_id": "5bffed4bf230cfe218e6b23ce0e32ee3", "fusion_lon": 0.0, "type": "electric_scooter"}, {"rental_uris": {"ios": "https://dc.lft.to/lastmile_qr_scan", "android": "https://dc.lft.to/lastmile_qr_scan"}, "lat": 38.918291333333336, "lon": -77.039343, "fusion_lat": 0.0, "name": "d2ef81eb5190fb83df70dbabd845491d", "is_disabled": 0, "is_reserved": 0, "bike_id": "d2ef81eb5190fb83df70dbabd845491d", "fusion_lon": 0.0, "type": "electric_scooter"}, {"rental_uris": {"ios": "https://dc.lft.to/lastmile_qr_scan", "android": "https://dc.lft.to/lastmile_qr_scan"}, "lat": 38.89357583333334, "lon": -76.949305, "fusion_lat": 0.0, "name": "905c08bfdb8ff94f1c8cd10f4faeac94", "is_disabled": 0, "is_reserved": 0, "bike_id": "905c08bfdb8ff94f1c8cd10f4faeac94", "fusion_lon": 0.0, "type": "electric_scooter"}, {"rental_uris": {"ios": "https://dc.lft.to/lastmile_qr_scan", "android": "https://dc.lft.to/lastmile_qr_scan"}, "lat": 38.920379, "lon": -77.02370616666667, "fusion_lat": 0.0, "name": "6e5494f4fabeda354d673b4e2c824322", "is_disabled": 0, "is_reserved": 0, "bike_id": "6e5494f4fabeda354d673b4e2c824322", "fusion_lon": 0.0, "type": "electric_scooter"}, {"rental_uris": {"ios": "https://dc.lft.to/lastmile_qr_scan", "android": "https://dc.lft.to/lastmile_qr_scan"}, "lat": 38.91702766666667, "lon": -77.03471866666666, "fusion_lat": 0.0, "name": "c5ff817e98646dbfaf5782dc7e5d55de", "is_disabled": 0, "is_reserved": 0, "bike_id": "c5ff817e98646dbfaf5782dc7e5d55de", "fusion_lon": 0.0, "type": "electric_scooter"}, {"rental_uris": {"ios": "https://dc.lft.to/lastmile_qr_scan", "android": "https://dc.lft.to/lastmile_qr_scan"}, "lat": 38.82173616666667, "lon": -76.99501483333333, "fusion_lat": 0.0, "name": "5c26109a50aff10d508be98e7e979f08", "is_disabled": 0, "is_reserved": 0, "bike_id": "5c26109a50aff10d508be98e7e979f08", "fusion_lon": 0.0, "type": "electric_bike"}, {"rental_uris": {"ios": "https://dc.lft.to/lastmile_qr_scan", "android": "https://dc.lft.to/lastmile_qr_scan"}, "lat": 38.877412, "lon": -76.99753366666667, "fusion_lat": 0.0, "name": "0e756ffc16f5f1fc3c19af240327b7a0", "is_disabled": 0, "is_reserved": 0, "bike_id": "0e756ffc16f5f1fc3c19af240327b7a0", "fusion_lon": 0.0, "type": "electric_scooter"}, {"rental_uris": {"ios": "https://dc.lft.to/lastmile_qr_scan", "android": "https://dc.lft.to/lastmile_qr_scan"}, "lat": 38.92068533333333, "lon": -77.02315183333333, "fusion_lat": 0.0, "name": "1f12c1e5f240c3b8d548c2ecf961c8df", "is_disabled": 0, "is_reserved": 0, "bike_id": "1f12c1e5f240c3b8d548c2ecf961c8df", "fusion_lon": 0.0, "type": "electric_scooter"}, {"rental_uris": {"ios": "https://dc.lft.to/lastmile_qr_scan", "android": "https://dc.lft.to/lastmile_qr_scan"}, "lat": 38.87842283333333, "lon": -77.02276416666666, "fusion_lat": 0.0, "name": "17c094213f8fb0b32d86037820412d89", "is_disabled": 0, "is_reserved": 0, "bike_id": "17c094213f8fb0b32d86037820412d89", "fusion_lon": 0.0, "type": "electric_scooter"}, {"rental_uris": {"ios": "https://dc.lft.to/lastmile_qr_scan", "android": "https://dc.lft.to/lastmile_qr_scan"}, "lat": 38.901059833333335, "lon": -77.05131916666667, "fusion_lat": 0.0, "name": "928f36fa068155c50c1742d70ec1a4fc", "is_disabled": 0, "is_reserved": 0, "bike_id": "928f36fa068155c50c1742d70ec1a4fc", "fusion_lon": 0.0, "type": "electric_scooter"}, {"rental_uris": {"ios": "https://dc.lft.to/lastmile_qr_scan", "android": "https://dc.lft.to/lastmile_qr_scan"}, "lat": 38.908884, "lon": -76.99769733333333, "fusion_lat": 0.0, "name": "34dafd819af86d678c8027be0bd6b453", "is_disabled": 0, "is_reserved": 0, "bike_id": "34dafd819af86d678c8027be0bd6b453", "fusion_lon": 0.0, "type": "electric_scooter"}, {"rental_uris": {"ios": "https://dc.lft.to/lastmile_qr_scan", "android": "https://dc.lft.to/lastmile_qr_scan"}, "lat": 38.9064775, "lon": -77.02204066666667, "fusion_lat": 0.0, "name": "7256fc266523c564b9ccdde35afc3438", "is_disabled": 0, "is_reserved": 0, "bike_id": "7256fc266523c564b9ccdde35afc3438", "fusion_lon": 0.0, "type": "electric_scooter"}, {"rental_uris": {"ios": "https://dc.lft.to/lastmile_qr_scan", "android": "https://dc.lft.to/lastmile_qr_scan"}, "lat": 38.84640783333333, "lon": -76.991304, "fusion_lat": 0.0, "name": "c851a605e596f2154906b9269d5e4101", "is_disabled": 0, "is_reserved": 0, "bike_id": "c851a605e596f2154906b9269d5e4101", "fusion_lon": 0.0, "type": "electric_scooter"}, {"rental_uris": {"ios": "https://dc.lft.to/lastmile_qr_scan", "android": "https://dc.lft.to/lastmile_qr_scan"}, "lat": 38.914102, "lon": -77.0211535, "fusion_lat": 0.0, "name": "78aa13880d486d9287d7438124557bda", "is_disabled": 0, "is_reserved": 0, "bike_id": "78aa13880d486d9287d7438124557bda", "fusion_lon": 0.0, "type": "electric_scooter"}, {"rental_uris": {"ios": "https://dc.lft.to/lastmile_qr_scan", "android": "https://dc.lft.to/lastmile_qr_scan"}, "lat": 38.916730333333334, "lon": -77.02950716666666, "fusion_lat": 0.0, "name": "9870b07da5141b2dac1e04ccce05fa11", "is_disabled": 0, "is_reserved": 0, "bike_id": "9870b07da5141b2dac1e04ccce05fa11", "fusion_lon": 0.0, "type": "electric_scooter"}, {"rental_uris": {"ios": "https://dc.lft.to/lastmile_qr_scan", "android": "https://dc.lft.to/lastmile_qr_scan"}, "lat": 38.84594583333333, "lon": -77.10857266666666, "fusion_lat": 0.0, "name": "a4c74f86a1043f7a58f221eb47f45bdc", "is_disabled": 0, "is_reserved": 0, "bike_id": "a4c74f86a1043f7a58f221eb47f45bdc", "fusion_lon": 0.0, "type": "electric_bike"}, {"rental_uris": {"ios": "https://dc.lft.to/lastmile_qr_scan", "android": "https://dc.lft.to/lastmile_qr_scan"}, "lat": 38.8717025, "lon": -77.0067885, "fusion_lat": 0.0, "name": "910cc06e145a89892e49c47083a63717", "is_disabled": 0, "is_reserved": 0, "bike_id": "910cc06e145a89892e49c47083a63717", "fusion_lon": 0.0, "type": "electric_scooter"}, {"rental_uris": {"ios": "https://dc.lft.to/lastmile_qr_scan", "android": "https://dc.lft.to/lastmile_qr_scan"}, "lat": 38.93526166666667, "lon": -77.0235165, "fusion_lat": 0.0, "name": "97fb25d62f447af7762375fd54d8c6b7", "is_disabled": 0, "is_reserved": 0, "bike_id": "97fb25d62f447af7762375fd54d8c6b7", "fusion_lon": 0.0, "type": "electric_scooter"}, {"rental_uris": {"ios": "https://dc.lft.to/lastmile_qr_scan", "android": "https://dc.lft.to/lastmile_qr_scan"}, "lat": 38.9185485, "lon": -76.96105283333333, "fusion_lat": 0.0, "name": "01648b0058d9229cf55d74d89383d7e3", "is_disabled": 0, "is_reserved": 0, "bike_id": "01648b0058d9229cf55d74d89383d7e3", "fusion_lon": 0.0, "type": "electric_scooter"}, {"rental_uris": {"ios": "https://dc.lft.to/lastmile_qr_scan", "android": "https://dc.lft.to/lastmile_qr_scan"}, "lat": 38.92250816666667, "lon": -77.01946266666667, "fusion_lat": 0.0, "name": "e03227771a0d5e1417a25c511000ad40", "is_disabled": 0, "is_reserved": 0, "bike_id": "e03227771a0d5e1417a25c511000ad40", "fusion_lon": 0.0, "type": "electric_scooter"}, {"rental_uris": {"ios": "https://dc.lft.to/lastmile_qr_scan", "android": "https://dc.lft.to/lastmile_qr_scan"}, "lat": 38.912553833333334, "lon": -77.03864516666667, "fusion_lat": 0.0, "name": "759c9b92ee4d46f1e98952e61645297e", "is_disabled": 0, "is_reserved": 0, "bike_id": "759c9b92ee4d46f1e98952e61645297e", "fusion_lon": 0.0, "type": "electric_scooter"}, {"rental_uris": {"ios": "https://dc.lft.to/lastmile_qr_scan", "android": "https://dc.lft.to/lastmile_qr_scan"}, "lat": 38.93321816666667, "lon": -77.08555416666667, "fusion_lat": 0.0, "name": "2d4d11ce84065ff39e1d30e1ac0bd87a", "is_disabled": 0, "is_reserved": 0, "bike_id": "2d4d11ce84065ff39e1d30e1ac0bd87a", "fusion_lon": 0.0, "type": "electric_scooter"}, {"rental_uris": {"ios": "https://dc.lft.to/lastmile_qr_scan", "android": "https://dc.lft.to/lastmile_qr_scan"}, "lat": 38.92047483333333, "lon": -77.04229266666667, "fusion_lat": 0.0, "name": "4ff37b73657cfbb2c68ba582eb734800", "is_disabled": 0, "is_reserved": 0, "bike_id": "4ff37b73657cfbb2c68ba582eb734800", "fusion_lon": 0.0, "type": "electric_scooter"}, {"rental_uris": {"ios": "https://dc.lft.to/lastmile_qr_scan", "android": "https://dc.lft.to/lastmile_qr_scan"}, "lat": 38.895457, "lon": -77.003823, "fusion_lat": 0.0, "name": "2f643f45c77debaffae06d3e6103dd8b", "is_disabled": 0, "is_reserved": 0, "bike_id": "2f643f45c77debaffae06d3e6103dd8b", "fusion_lon": 0.0, "type": "electric_scooter"}, {"rental_uris": {"ios": "https://dc.lft.to/lastmile_qr_scan", "android": "https://dc.lft.to/lastmile_qr_scan"}, "lat": 38.911798166666664, "lon": -77.04482, "fusion_lat": 0.0, "name": "898d0a78dfbc696ae12c8f470a10b4ca", "is_disabled": 0, "is_reserved": 0, "bike_id": "898d0a78dfbc696ae12c8f470a10b4ca", "fusion_lon": 0.0, "type": "electric_scooter"}, {"rental_uris": {"ios": "https://dc.lft.to/lastmile_qr_scan", "android": "https://dc.lft.to/lastmile_qr_scan"}, "lat": 38.908890666666665, "lon": -77.02816233333333, "fusion_lat": 0.0, "name": "affab74e38b68c2cb2ad8c69ead6c0ae", "is_disabled": 0, "is_reserved": 0, "bike_id": "affab74e38b68c2cb2ad8c69ead6c0ae", "fusion_lon": 0.0, "type": "electric_scooter"}, {"rental_uris": {"ios": "https://dc.lft.to/lastmile_qr_scan", "android": "https://dc.lft.to/lastmile_qr_scan"}, "lat": 38.9149415, "lon": -76.9836015, "fusion_lat": 0.0, "name": "21d55dc82046c4e2b7e493299dcaeb9f", "is_disabled": 0, "is_reserved": 0, "bike_id": "21d55dc82046c4e2b7e493299dcaeb9f", "fusion_lon": 0.0, "type": "electric_scooter"}, {"rental_uris": {"ios": "https://dc.lft.to/lastmile_qr_scan", "android": "https://dc.lft.to/lastmile_qr_scan"}, "lat": 38.89488383333333, "lon": -77.02307916666666, "fusion_lat": 0.0, "name": "a31c8884a265ea95cf15e35dbf11cff3", "is_disabled": 0, "is_reserved": 0, "bike_id": "a31c8884a265ea95cf15e35dbf11cff3", "fusion_lon": 0.0, "type": "electric_scooter"}, {"rental_uris": {"ios": "https://dc.lft.to/lastmile_qr_scan", "android": "https://dc.lft.to/lastmile_qr_scan"}, "lat": 38.913965, "lon": -77.0240595, "fusion_lat": 0.0, "name": "3c7b2511f129fd3a323655233d9a9ecc", "is_disabled": 0, "is_reserved": 0, "bike_id": "3c7b2511f129fd3a323655233d9a9ecc", "fusion_lon": 0.0, "type": "electric_scooter"}, {"rental_uris": {"ios": "https://dc.lft.to/lastmile_qr_scan", "android": "https://dc.lft.to/lastmile_qr_scan"}, "lat": 38.939854, "lon": -77.018888, "fusion_lat": 0.0, "name": "ecedb8267db61a52c76e4d5348a11a12", "is_disabled": 0, "is_reserved": 0, "bike_id": "ecedb8267db61a52c76e4d5348a11a12", "fusion_lon": 0.0, "type": "electric_scooter"}, {"rental_uris": {"ios": "https://dc.lft.to/lastmile_qr_scan", "android": "https://dc.lft.to/lastmile_qr_scan"}, "lat": 38.87644383333333, "lon": -77.0157445, "fusion_lat": 0.0, "name": "8d76e5841e41cbdb5584dfb48b8687a8", "is_disabled": 0, "is_reserved": 0, "bike_id": "8d76e5841e41cbdb5584dfb48b8687a8", "fusion_lon": 0.0, "type": "electric_scooter"}, {"rental_uris": {"ios": "https://dc.lft.to/lastmile_qr_scan", "android": "https://dc.lft.to/lastmile_qr_scan"}, "lat": 38.906469666666666, "lon": -77.04282833333333, "fusion_lat": 0.0, "name": "e9b29d37f2a667d73e1c5eaa9fe3b9ac", "is_disabled": 0, "is_reserved": 0, "bike_id": "e9b29d37f2a667d73e1c5eaa9fe3b9ac", "fusion_lon": 0.0, "type": "electric_scooter"}, {"rental_uris": {"ios": "https://dc.lft.to/lastmile_qr_scan", "android": "https://dc.lft.to/lastmile_qr_scan"}, "lat": 38.9136495, "lon": -77.04558233333333, "fusion_lat": 0.0, "name": "36685adbd9dcd8482430122032d3d025", "is_disabled": 0, "is_reserved": 0, "bike_id": "36685adbd9dcd8482430122032d3d025", "fusion_lon": 0.0, "type": "electric_scooter"}, {"rental_uris": {"ios": "https://dc.lft.to/lastmile_qr_scan", "android": "https://dc.lft.to/lastmile_qr_scan"}, "lat": 38.91140566666667, "lon": -77.02397566666667, "fusion_lat": 0.0, "name": "1a476fa629fe61b2ff83307a70f8141c", "is_disabled": 0, "is_reserved": 0, "bike_id": "1a476fa629fe61b2ff83307a70f8141c", "fusion_lon": 0.0, "type": "electric_scooter"}, {"rental_uris": {"ios": "https://dc.lft.to/lastmile_qr_scan", "android": "https://dc.lft.to/lastmile_qr_scan"}, "lat": 38.89131666666667, "lon": -76.951857, "fusion_lat": 0.0, "name": "0eac986665cd9d54ce4e6bfb299d7e74", "is_disabled": 0, "is_reserved": 0, "bike_id": "0eac986665cd9d54ce4e6bfb299d7e74", "fusion_lon": 0.0, "type": "electric_scooter"}, {"rental_uris": {"ios": "https://dc.lft.to/lastmile_qr_scan", "android": "https://dc.lft.to/lastmile_qr_scan"}, "lat": 38.903423, "lon": -77.0074215, "fusion_lat": 0.0, "name": "313b79f6e37675567c1528c54b7fe06d", "is_disabled": 0, "is_reserved": 0, "bike_id": "313b79f6e37675567c1528c54b7fe06d", "fusion_lon": 0.0, "type": "electric_scooter"}, {"rental_uris": {"ios": "https://dc.lft.to/lastmile_qr_scan", "android": "https://dc.lft.to/lastmile_qr_scan"}, "lat": 38.92244083333333, "lon": -77.0401485, "fusion_lat": 0.0, "name": "3ed65a11640f3e199002cee7e11d5a01", "is_disabled": 0, "is_reserved": 0, "bike_id": "3ed65a11640f3e199002cee7e11d5a01", "fusion_lon": 0.0, "type": "electric_scooter"}, {"rental_uris": {"ios": "https://dc.lft.to/lastmile_qr_scan", "android": "https://dc.lft.to/lastmile_qr_scan"}, "lat": 38.908885833333336, "lon": -76.98232383333334, "fusion_lat": 0.0, "name": "9beb4ee622ebce45f969018f897fa622", "is_disabled": 0, "is_reserved": 0, "bike_id": "9beb4ee622ebce45f969018f897fa622", "fusion_lon": 0.0, "type": "electric_scooter"}, {"rental_uris": {"ios": "https://dc.lft.to/lastmile_qr_scan", "android": "https://dc.lft.to/lastmile_qr_scan"}, "lat": 38.91972633333334, "lon": -77.04223433333334, "fusion_lat": 0.0, "name": "24f86dbbb160d6e435b0c3b2f5315ecb", "is_disabled": 0, "is_reserved": 0, "bike_id": "24f86dbbb160d6e435b0c3b2f5315ecb", "fusion_lon": 0.0, "type": "electric_scooter"}, {"rental_uris": {"ios": "https://dc.lft.to/lastmile_qr_scan", "android": "https://dc.lft.to/lastmile_qr_scan"}, "lat": 38.92762233333333, "lon": -77.0563885, "fusion_lat": 0.0, "name": "983bb139c221c0e00e926a84527bbfde", "is_disabled": 0, "is_reserved": 0, "bike_id": "983bb139c221c0e00e926a84527bbfde", "fusion_lon": 0.0, "type": "electric_scooter"}, {"rental_uris": {"ios": "https://dc.lft.to/lastmile_qr_scan", "android": "https://dc.lft.to/lastmile_qr_scan"}, "lat": 38.912267166666666, "lon": -77.01240216666666, "fusion_lat": 0.0, "name": "6631f3067f953739c93cc494ff9c2258", "is_disabled": 0, "is_reserved": 0, "bike_id": "6631f3067f953739c93cc494ff9c2258", "fusion_lon": 0.0, "type": "electric_scooter"}, {"rental_uris": {"ios": "https://dc.lft.to/lastmile_qr_scan", "android": "https://dc.lft.to/lastmile_qr_scan"}, "lat": 38.897337666666665, "lon": -77.044495, "fusion_lat": 0.0, "name": "1342fa19d05cb3f2445000bcf92be0cd", "is_disabled": 0, "is_reserved": 0, "bike_id": "1342fa19d05cb3f2445000bcf92be0cd", "fusion_lon": 0.0, "type": "electric_scooter"}, {"rental_uris": {"ios": "https://dc.lft.to/lastmile_qr_scan", "android": "https://dc.lft.to/lastmile_qr_scan"}, "lat": 38.92048833333333, "lon": -77.043851, "fusion_lat": 0.0, "name": "13ff46b2b734fdbcbda47a12ca20c30c", "is_disabled": 0, "is_reserved": 0, "bike_id": "13ff46b2b734fdbcbda47a12ca20c30c", "fusion_lon": 0.0, "type": "electric_scooter"}, {"rental_uris": {"ios": "https://dc.lft.to/lastmile_qr_scan", "android": "https://dc.lft.to/lastmile_qr_scan"}, "lat": 38.9002965, "lon": -76.99849383333333, "fusion_lat": 0.0, "name": "b2a88622c7b376ec43a76889a9251280", "is_disabled": 0, "is_reserved": 0, "bike_id": "b2a88622c7b376ec43a76889a9251280", "fusion_lon": 0.0, "type": "electric_scooter"}, {"rental_uris": {"ios": "https://dc.lft.to/lastmile_qr_scan", "android": "https://dc.lft.to/lastmile_qr_scan"}, "lat": 38.9057765, "lon": -77.03013933333334, "fusion_lat": 0.0, "name": "b48199bfbf29229c0eaa6435e9059c5a", "is_disabled": 0, "is_reserved": 0, "bike_id": "b48199bfbf29229c0eaa6435e9059c5a", "fusion_lon": 0.0, "type": "electric_scooter"}, {"rental_uris": {"ios": "https://dc.lft.to/lastmile_qr_scan", "android": "https://dc.lft.to/lastmile_qr_scan"}, "lat": 38.93619066666667, "lon": -76.97968883333333, "fusion_lat": 0.0, "name": "44997b5f963be3c0fa3ee0c8527e4cd2", "is_disabled": 0, "is_reserved": 0, "bike_id": "44997b5f963be3c0fa3ee0c8527e4cd2", "fusion_lon": 0.0, "type": "electric_scooter"}, {"rental_uris": {"ios": "https://dc.lft.to/lastmile_qr_scan", "android": "https://dc.lft.to/lastmile_qr_scan"}, "lat": 38.9215555, "lon": -77.03387533333333, "fusion_lat": 0.0, "name": "d61947c6a533a1d7578f758d2eafbc64", "is_disabled": 0, "is_reserved": 0, "bike_id": "d61947c6a533a1d7578f758d2eafbc64", "fusion_lon": 0.0, "type": "electric_scooter"}, {"rental_uris": {"ios": "https://dc.lft.to/lastmile_qr_scan", "android": "https://dc.lft.to/lastmile_qr_scan"}, "lat": 38.87172233333333, "lon": -77.006211, "fusion_lat": 0.0, "name": "1e5a4ed976585d1cbe363fc3eca13313", "is_disabled": 0, "is_reserved": 0, "bike_id": "1e5a4ed976585d1cbe363fc3eca13313", "fusion_lon": 0.0, "type": "electric_scooter"}, {"rental_uris": {"ios": "https://dc.lft.to/lastmile_qr_scan", "android": "https://dc.lft.to/lastmile_qr_scan"}, "lat": 38.9231125, "lon": -77.0461875, "fusion_lat": 0.0, "name": "70f1ef8a5a0d6ab89ea808d853547b53", "is_disabled": 0, "is_reserved": 0, "bike_id": "70f1ef8a5a0d6ab89ea808d853547b53", "fusion_lon": 0.0, "type": "electric_scooter"}, {"rental_uris": {"ios": "https://dc.lft.to/lastmile_qr_scan", "android": "https://dc.lft.to/lastmile_qr_scan"}, "lat": 38.90514616666667, "lon": -77.0317545, "fusion_lat": 0.0, "name": "40859355b2ba0087abca9243363a9f74", "is_disabled": 0, "is_reserved": 0, "bike_id": "40859355b2ba0087abca9243363a9f74", "fusion_lon": 0.0, "type": "electric_scooter"}, {"rental_uris": {"ios": "https://dc.lft.to/lastmile_qr_scan", "android": "https://dc.lft.to/lastmile_qr_scan"}, "lat": 38.901887333333335, "lon": -77.01291116666667, "fusion_lat": 0.0, "name": "a35799b8c05ae982c43d370ba3b363e0", "is_disabled": 0, "is_reserved": 0, "bike_id": "a35799b8c05ae982c43d370ba3b363e0", "fusion_lon": 0.0, "type": "electric_scooter"}, {"rental_uris": {"ios": "https://dc.lft.to/lastmile_qr_scan", "android": "https://dc.lft.to/lastmile_qr_scan"}, "lat": 38.907016166666665, "lon": -77.02389633333334, "fusion_lat": 0.0, "name": "d414a5a53bcbab69f617d7ff1f7ab7c3", "is_disabled": 0, "is_reserved": 0, "bike_id": "d414a5a53bcbab69f617d7ff1f7ab7c3", "fusion_lon": 0.0, "type": "electric_scooter"}, {"rental_uris": {"ios": "https://dc.lft.to/lastmile_qr_scan", "android": "https://dc.lft.to/lastmile_qr_scan"}, "lat": 38.93668066666667, "lon": -76.95207683333334, "fusion_lat": 0.0, "name": "b0a60b906f65ba2cd02d72b3ea2339f2", "is_disabled": 0, "is_reserved": 0, "bike_id": "b0a60b906f65ba2cd02d72b3ea2339f2", "fusion_lon": 0.0, "type": "electric_bike"}, {"rental_uris": {"ios": "https://dc.lft.to/lastmile_qr_scan", "android": "https://dc.lft.to/lastmile_qr_scan"}, "lat": 38.924411666666664, "lon": -77.22550633333333, "fusion_lat": 0.0, "name": "f7d8b5ace1e14cd5446239cf3c7b49d6", "is_disabled": 0, "is_reserved": 0, "bike_id": "f7d8b5ace1e14cd5446239cf3c7b49d6", "fusion_lon": 0.0, "type": "electric_bike"}, {"rental_uris": {"ios": "https://dc.lft.to/lastmile_qr_scan", "android": "https://dc.lft.to/lastmile_qr_scan"}, "lat": 38.90202016666667, "lon": -76.97407483333333, "fusion_lat": 0.0, "name": "607c1f3b410098cd02d16fa450c83116", "is_disabled": 0, "is_reserved": 0, "bike_id": "607c1f3b410098cd02d16fa450c83116", "fusion_lon": 0.0, "type": "electric_bike"}, {"rental_uris": {"ios": "https://dc.lft.to/lastmile_qr_scan", "android": "https://dc.lft.to/lastmile_qr_scan"}, "lat": 38.91471533333333, "lon": -77.043483, "fusion_lat": 0.0, "name": "955556db05c832717d2bb8fb40decb35", "is_disabled": 0, "is_reserved": 0, "bike_id": "955556db05c832717d2bb8fb40decb35", "fusion_lon": 0.0, "type": "electric_scooter"}, {"rental_uris": {"ios": "https://dc.lft.to/lastmile_qr_scan", "android": "https://dc.lft.to/lastmile_qr_scan"}, "lat": 38.91681483333333, "lon": -77.029563, "fusion_lat": 0.0, "name": "b6eceebf5b1a8010c338654fd553aad6", "is_disabled": 0, "is_reserved": 0, "bike_id": "b6eceebf5b1a8010c338654fd553aad6", "fusion_lon": 0.0, "type": "electric_scooter"}, {"rental_uris": {"ios": "https://dc.lft.to/lastmile_qr_scan", "android": "https://dc.lft.to/lastmile_qr_scan"}, "lat": 38.905156, "lon": -77.04172016666666, "fusion_lat": 0.0, "name": "b2d8e6d06fac66a9d2d0459c12996d29", "is_disabled": 0, "is_reserved": 0, "bike_id": "b2d8e6d06fac66a9d2d0459c12996d29", "fusion_lon": 0.0, "type": "electric_scooter"}, {"rental_uris": {"ios": "https://dc.lft.to/lastmile_qr_scan", "android": "https://dc.lft.to/lastmile_qr_scan"}, "lat": 38.9576085, "lon": -77.01145316666667, "fusion_lat": 0.0, "name": "bb04274009cf706d4eaa017595e65002", "is_disabled": 0, "is_reserved": 0, "bike_id": "bb04274009cf706d4eaa017595e65002", "fusion_lon": 0.0, "type": "electric_scooter"}, {"rental_uris": {"ios": "https://dc.lft.to/lastmile_qr_scan", "android": "https://dc.lft.to/lastmile_qr_scan"}, "lat": 38.9272745, "lon": -77.00559733333333, "fusion_lat": 0.0, "name": "d52baa2244359521783d817d2b6dc406", "is_disabled": 0, "is_reserved": 0, "bike_id": "d52baa2244359521783d817d2b6dc406", "fusion_lon": 0.0, "type": "electric_scooter"}, {"rental_uris": {"ios": "https://dc.lft.to/lastmile_qr_scan", "android": "https://dc.lft.to/lastmile_qr_scan"}, "lat": 38.994675666666666, "lon": -77.0288005, "fusion_lat": 0.0, "name": "3cf255ba8a03cdf1f430c0bd4745c20a", "is_disabled": 0, "is_reserved": 0, "bike_id": "3cf255ba8a03cdf1f430c0bd4745c20a", "fusion_lon": 0.0, "type": "electric_bike"}, {"rental_uris": {"ios": "https://dc.lft.to/lastmile_qr_scan", "android": "https://dc.lft.to/lastmile_qr_scan"}, "lat": 38.926405, "lon": -76.98421183333333, "fusion_lat": 0.0, "name": "b42dba0647dd9cba8b6297a0643ffb84", "is_disabled": 0, "is_reserved": 0, "bike_id": "b42dba0647dd9cba8b6297a0643ffb84", "fusion_lon": 0.0, "type": "electric_bike"}, {"rental_uris": {"ios": "https://dc.lft.to/lastmile_qr_scan", "android": "https://dc.lft.to/lastmile_qr_scan"}, "lat": 38.92854533333333, "lon": -77.01408683333334, "fusion_lat": 0.0, "name": "f6914d7edafea24433d0ef033f2c4bad", "is_disabled": 0, "is_reserved": 0, "bike_id": "f6914d7edafea24433d0ef033f2c4bad", "fusion_lon": 0.0, "type": "electric_scooter"}, {"rental_uris": {"ios": "https://dc.lft.to/lastmile_qr_scan", "android": "https://dc.lft.to/lastmile_qr_scan"}, "lat": 38.911692333333335, "lon": -77.004461, "fusion_lat": 0.0, "name": "50dd7c0a493434e75a43539f7e4ba321", "is_disabled": 0, "is_reserved": 0, "bike_id": "50dd7c0a493434e75a43539f7e4ba321", "fusion_lon": 0.0, "type": "electric_scooter"}, {"rental_uris": {"ios": "https://dc.lft.to/lastmile_qr_scan", "android": "https://dc.lft.to/lastmile_qr_scan"}, "lat": 38.89775316666667, "lon": -77.01230416666667, "fusion_lat": 0.0, "name": "da218ddc96f6c0fcb1bf27633427cf0b", "is_disabled": 0, "is_reserved": 0, "bike_id": "da218ddc96f6c0fcb1bf27633427cf0b", "fusion_lon": 0.0, "type": "electric_scooter"}, {"rental_uris": {"ios": "https://dc.lft.to/lastmile_qr_scan", "android": "https://dc.lft.to/lastmile_qr_scan"}, "lat": 38.931765, "lon": -77.02348433333333, "fusion_lat": 0.0, "name": "0c7132e399237e124f0482f5680c52b3", "is_disabled": 0, "is_reserved": 0, "bike_id": "0c7132e399237e124f0482f5680c52b3", "fusion_lon": 0.0, "type": "electric_scooter"}, {"rental_uris": {"ios": "https://dc.lft.to/lastmile_qr_scan", "android": "https://dc.lft.to/lastmile_qr_scan"}, "lat": 38.9132125, "lon": -77.04543483333333, "fusion_lat": 0.0, "name": "720de705eae7ee727f368f9a81a2fcc2", "is_disabled": 0, "is_reserved": 0, "bike_id": "720de705eae7ee727f368f9a81a2fcc2", "fusion_lon": 0.0, "type": "electric_scooter"}, {"rental_uris": {"ios": "https://dc.lft.to/lastmile_qr_scan", "android": "https://dc.lft.to/lastmile_qr_scan"}, "lat": 38.9155125, "lon": -77.02394666666666, "fusion_lat": 0.0, "name": "5ffbf5a4008107c9f6e621e337738f61", "is_disabled": 0, "is_reserved": 0, "bike_id": "5ffbf5a4008107c9f6e621e337738f61", "fusion_lon": 0.0, "type": "electric_scooter"}, {"rental_uris": {"ios": "https://dc.lft.to/lastmile_qr_scan", "android": "https://dc.lft.to/lastmile_qr_scan"}, "lat": 38.91914883333333, "lon": -77.00282233333333, "fusion_lat": 0.0, "name": "d91f85d4e1a7d840c486e7e2993e3ecf", "is_disabled": 0, "is_reserved": 0, "bike_id": "d91f85d4e1a7d840c486e7e2993e3ecf", "fusion_lon": 0.0, "type": "electric_scooter"}, {"rental_uris": {"ios": "https://dc.lft.to/lastmile_qr_scan", "android": "https://dc.lft.to/lastmile_qr_scan"}, "lat": 38.866261, "lon": -76.987167, "fusion_lat": 0.0, "name": "be07cbdb389bb376e6adfb190d127931", "is_disabled": 0, "is_reserved": 0, "bike_id": "be07cbdb389bb376e6adfb190d127931", "fusion_lon": 0.0, "type": "electric_scooter"}, {"rental_uris": {"ios": "https://dc.lft.to/lastmile_qr_scan", "android": "https://dc.lft.to/lastmile_qr_scan"}, "lat": 38.905175166666666, "lon": -77.05674616666667, "fusion_lat": 0.0, "name": "3157151f4114d8bcf5b8b1948b587a27", "is_disabled": 0, "is_reserved": 0, "bike_id": "3157151f4114d8bcf5b8b1948b587a27", "fusion_lon": 0.0, "type": "electric_scooter"}, {"rental_uris": {"ios": "https://dc.lft.to/lastmile_qr_scan", "android": "https://dc.lft.to/lastmile_qr_scan"}, "lat": 38.91667533333333, "lon": -77.02707233333334, "fusion_lat": 0.0, "name": "d8b149d55bf7b068f5d3f13a404f2dde", "is_disabled": 0, "is_reserved": 0, "bike_id": "d8b149d55bf7b068f5d3f13a404f2dde", "fusion_lon": 0.0, "type": "electric_scooter"}, {"rental_uris": {"ios": "https://dc.lft.to/lastmile_qr_scan", "android": "https://dc.lft.to/lastmile_qr_scan"}, "lat": 38.88711083333333, "lon": -77.02180933333334, "fusion_lat": 0.0, "name": "c1c32b048a7147d6664bfcdc21b9d0ab", "is_disabled": 0, "is_reserved": 0, "bike_id": "c1c32b048a7147d6664bfcdc21b9d0ab", "fusion_lon": 0.0, "type": "electric_scooter"}, {"rental_uris": {"ios": "https://dc.lft.to/lastmile_qr_scan", "android": "https://dc.lft.to/lastmile_qr_scan"}, "lat": 38.971995, "lon": -77.0265095, "fusion_lat": 0.0, "name": "8376e1707ae53f2e4c5d13bc304cb67e", "is_disabled": 0, "is_reserved": 0, "bike_id": "8376e1707ae53f2e4c5d13bc304cb67e", "fusion_lon": 0.0, "type": "electric_scooter"}, {"rental_uris": {"ios": "https://dc.lft.to/lastmile_qr_scan", "android": "https://dc.lft.to/lastmile_qr_scan"}, "lat": 38.90237666666667, "lon": -77.03797633333333, "fusion_lat": 0.0, "name": "06ede115b0d23fce3b99583516b813aa", "is_disabled": 0, "is_reserved": 0, "bike_id": "06ede115b0d23fce3b99583516b813aa", "fusion_lon": 0.0, "type": "electric_scooter"}, {"rental_uris": {"ios": "https://dc.lft.to/lastmile_qr_scan", "android": "https://dc.lft.to/lastmile_qr_scan"}, "lat": 38.9508805, "lon": -76.997914, "fusion_lat": 0.0, "name": "55fbe47fedd2b9039f7c132e6fedd03e", "is_disabled": 0, "is_reserved": 0, "bike_id": "55fbe47fedd2b9039f7c132e6fedd03e", "fusion_lon": 0.0, "type": "electric_bike"}, {"rental_uris": {"ios": "https://dc.lft.to/lastmile_qr_scan", "android": "https://dc.lft.to/lastmile_qr_scan"}, "lat": 38.89816366666667, "lon": -77.05134816666667, "fusion_lat": 0.0, "name": "fa6b62fb6564d2c8ac2ee755b7b224bd", "is_disabled": 0, "is_reserved": 0, "bike_id": "fa6b62fb6564d2c8ac2ee755b7b224bd", "fusion_lon": 0.0, "type": "electric_scooter"}, {"rental_uris": {"ios": "https://dc.lft.to/lastmile_qr_scan", "android": "https://dc.lft.to/lastmile_qr_scan"}, "lat": 38.91687816666666, "lon": -77.03234733333333, "fusion_lat": 0.0, "name": "22da3cd1712bcd58f88022bfbcd2587f", "is_disabled": 0, "is_reserved": 0, "bike_id": "22da3cd1712bcd58f88022bfbcd2587f", "fusion_lon": 0.0, "type": "electric_scooter"}, {"rental_uris": {"ios": "https://dc.lft.to/lastmile_qr_scan", "android": "https://dc.lft.to/lastmile_qr_scan"}, "lat": 38.93052466666666, "lon": -77.03182583333333, "fusion_lat": 0.0, "name": "0f70b356cf7f5819a92e58dbd6ea4835", "is_disabled": 0, "is_reserved": 0, "bike_id": "0f70b356cf7f5819a92e58dbd6ea4835", "fusion_lon": 0.0, "type": "electric_scooter"}, {"rental_uris": {"ios": "https://dc.lft.to/lastmile_qr_scan", "android": "https://dc.lft.to/lastmile_qr_scan"}, "lat": 38.911153166666665, "lon": -77.03233516666667, "fusion_lat": 0.0, "name": "cc6db67ae21ea05acfa7b93983ebce8d", "is_disabled": 0, "is_reserved": 0, "bike_id": "cc6db67ae21ea05acfa7b93983ebce8d", "fusion_lon": 0.0, "type": "electric_scooter"}, {"rental_uris": {"ios": "https://dc.lft.to/lastmile_qr_scan", "android": "https://dc.lft.to/lastmile_qr_scan"}, "lat": 38.90971116666667, "lon": -77.03856483333334, "fusion_lat": 0.0, "name": "e8f1b4ca49ce8b7b0ef9e35a9c269c0c", "is_disabled": 0, "is_reserved": 0, "bike_id": "e8f1b4ca49ce8b7b0ef9e35a9c269c0c", "fusion_lon": 0.0, "type": "electric_scooter"}, {"rental_uris": {"ios": "https://dc.lft.to/lastmile_qr_scan", "android": "https://dc.lft.to/lastmile_qr_scan"}, "lat": 38.80013016666667, "lon": -77.0548405, "fusion_lat": 0.0, "name": "220c64d25591a25555784063ae15f778", "is_disabled": 0, "is_reserved": 0, "bike_id": "220c64d25591a25555784063ae15f778", "fusion_lon": 0.0, "type": "electric_bike"}, {"rental_uris": {"ios": "https://dc.lft.to/lastmile_qr_scan", "android": "https://dc.lft.to/lastmile_qr_scan"}, "lat": 38.839322833333334, "lon": -77.07886366666666, "fusion_lat": 0.0, "name": "ed58ee554b4a5a47936982d80b3e7204", "is_disabled": 0, "is_reserved": 0, "bike_id": "ed58ee554b4a5a47936982d80b3e7204", "fusion_lon": 0.0, "type": "electric_bike"}, {"rental_uris": {"ios": "https://dc.lft.to/lastmile_qr_scan", "android": "https://dc.lft.to/lastmile_qr_scan"}, "lat": 38.90519483333333, "lon": -77.0488155, "fusion_lat": 0.0, "name": "f24e5f195be6c553d689973e146bc235", "is_disabled": 0, "is_reserved": 0, "bike_id": "f24e5f195be6c553d689973e146bc235", "fusion_lon": 0.0, "type": "electric_scooter"}, {"rental_uris": {"ios": "https://dc.lft.to/lastmile_qr_scan", "android": "https://dc.lft.to/lastmile_qr_scan"}, "lat": 38.9193405, "lon": -77.02423083333333, "fusion_lat": 0.0, "name": "7aada3d2956b3226bf20781481ac1b83", "is_disabled": 0, "is_reserved": 0, "bike_id": "7aada3d2956b3226bf20781481ac1b83", "fusion_lon": 0.0, "type": "electric_scooter"}, {"rental_uris": {"ios": "https://dc.lft.to/lastmile_qr_scan", "android": "https://dc.lft.to/lastmile_qr_scan"}, "lat": 38.936486333333335, "lon": -77.0263415, "fusion_lat": 0.0, "name": "f0b54d9c77fd5fd7a49c300aec37d414", "is_disabled": 0, "is_reserved": 0, "bike_id": "f0b54d9c77fd5fd7a49c300aec37d414", "fusion_lon": 0.0, "type": "electric_scooter"}, {"rental_uris": {"ios": "https://dc.lft.to/lastmile_qr_scan", "android": "https://dc.lft.to/lastmile_qr_scan"}, "lat": 38.930315666666665, "lon": -77.03289233333334, "fusion_lat": 0.0, "name": "ce3e2275a5af5557ecc71f33908e51fb", "is_disabled": 0, "is_reserved": 0, "bike_id": "ce3e2275a5af5557ecc71f33908e51fb", "fusion_lon": 0.0, "type": "electric_scooter"}, {"rental_uris": {"ios": "https://dc.lft.to/lastmile_qr_scan", "android": "https://dc.lft.to/lastmile_qr_scan"}, "lat": 38.933805666666665, "lon": -77.03219233333333, "fusion_lat": 0.0, "name": "35eb469e17080e72dbbe2bb7b0f8bef1", "is_disabled": 0, "is_reserved": 0, "bike_id": "35eb469e17080e72dbbe2bb7b0f8bef1", "fusion_lon": 0.0, "type": "electric_scooter"}, {"rental_uris": {"ios": "https://dc.lft.to/lastmile_qr_scan", "android": "https://dc.lft.to/lastmile_qr_scan"}, "lat": 38.88428716666667, "lon": -76.95749866666667, "fusion_lat": 0.0, "name": "308d393d7f0aa4a6ad69481b9b1e9530", "is_disabled": 0, "is_reserved": 0, "bike_id": "308d393d7f0aa4a6ad69481b9b1e9530", "fusion_lon": 0.0, "type": "electric_scooter"}, {"rental_uris": {"ios": "https://dc.lft.to/lastmile_qr_scan", "android": "https://dc.lft.to/lastmile_qr_scan"}, "lat": 38.89990516666667, "lon": -77.02443933333333, "fusion_lat": 0.0, "name": "982deb4789ffcab5d41c4e2bd70b698f", "is_disabled": 0, "is_reserved": 0, "bike_id": "982deb4789ffcab5d41c4e2bd70b698f", "fusion_lon": 0.0, "type": "electric_scooter"}, {"rental_uris": {"ios": "https://dc.lft.to/lastmile_qr_scan", "android": "https://dc.lft.to/lastmile_qr_scan"}, "lat": 38.895078166666664, "lon": -77.0033855, "fusion_lat": 0.0, "name": "050a00e5ded6cf53387e925dc4b58418", "is_disabled": 0, "is_reserved": 0, "bike_id": "050a00e5ded6cf53387e925dc4b58418", "fusion_lon": 0.0, "type": "electric_scooter"}, {"rental_uris": {"ios": "https://dc.lft.to/lastmile_qr_scan", "android": "https://dc.lft.to/lastmile_qr_scan"}, "lat": 38.80443983333333, "lon": -77.05390316666667, "fusion_lat": 0.0, "name": "538221433ffea117cac8b8a9ce47c9fd", "is_disabled": 0, "is_reserved": 0, "bike_id": "538221433ffea117cac8b8a9ce47c9fd", "fusion_lon": 0.0, "type": "electric_bike"}, {"rental_uris": {"ios": "https://dc.lft.to/lastmile_qr_scan", "android": "https://dc.lft.to/lastmile_qr_scan"}, "lat": 38.925065000000004, "lon": -77.008827, "fusion_lat": 0.0, "name": "0a0350195e230fa3388bdc2d003ebdb0", "is_disabled": 0, "is_reserved": 0, "bike_id": "0a0350195e230fa3388bdc2d003ebdb0", "fusion_lon": 0.0, "type": "electric_scooter"}, {"rental_uris": {"ios": "https://dc.lft.to/lastmile_qr_scan", "android": "https://dc.lft.to/lastmile_qr_scan"}, "lat": 38.932080166666665, "lon": -77.03259666666666, "fusion_lat": 0.0, "name": "007d250ce7b35fba35893f6662c88914", "is_disabled": 0, "is_reserved": 0, "bike_id": "007d250ce7b35fba35893f6662c88914", "fusion_lon": 0.0, "type": "electric_scooter"}, {"rental_uris": {"ios": "https://dc.lft.to/lastmile_qr_scan", "android": "https://dc.lft.to/lastmile_qr_scan"}, "lat": 38.89945483333333, "lon": -77.07175133333334, "fusion_lat": 0.0, "name": "3f0db3b7cbabd81d73134597e4d34bdb", "is_disabled": 0, "is_reserved": 0, "bike_id": "3f0db3b7cbabd81d73134597e4d34bdb", "fusion_lon": 0.0, "type": "electric_scooter"}, {"rental_uris": {"ios": "https://dc.lft.to/lastmile_qr_scan", "android": "https://dc.lft.to/lastmile_qr_scan"}, "lat": 38.8922, "lon": -77.04368983333333, "fusion_lat": 0.0, "name": "b09dc15ae2e0d6f0c2dbc6879d42bb9c", "is_disabled": 0, "is_reserved": 0, "bike_id": "b09dc15ae2e0d6f0c2dbc6879d42bb9c", "fusion_lon": 0.0, "type": "electric_scooter"}, {"rental_uris": {"ios": "https://dc.lft.to/lastmile_qr_scan", "android": "https://dc.lft.to/lastmile_qr_scan"}, "lat": 38.898623666666666, "lon": -76.94633833333333, "fusion_lat": 0.0, "name": "84c811140e25ca1e35c5f270be24e27b", "is_disabled": 0, "is_reserved": 0, "bike_id": "84c811140e25ca1e35c5f270be24e27b", "fusion_lon": 0.0, "type": "electric_scooter"}, {"rental_uris": {"ios": "https://dc.lft.to/lastmile_qr_scan", "android": "https://dc.lft.to/lastmile_qr_scan"}, "lat": 38.89003733333333, "lon": -77.0331765, "fusion_lat": 0.0, "name": "3b134bb69fc4e8ae56a7cc21647b7bfa", "is_disabled": 0, "is_reserved": 0, "bike_id": "3b134bb69fc4e8ae56a7cc21647b7bfa", "fusion_lon": 0.0, "type": "electric_scooter"}, {"rental_uris": {"ios": "https://dc.lft.to/lastmile_qr_scan", "android": "https://dc.lft.to/lastmile_qr_scan"}, "lat": 38.878412833333336, "lon": -77.00810033333333, "fusion_lat": 0.0, "name": "59821193cda226c64c193ea183e39b7a", "is_disabled": 0, "is_reserved": 0, "bike_id": "59821193cda226c64c193ea183e39b7a", "fusion_lon": 0.0, "type": "electric_scooter"}, {"rental_uris": {"ios": "https://dc.lft.to/lastmile_qr_scan", "android": "https://dc.lft.to/lastmile_qr_scan"}, "lat": 38.91987683333333, "lon": -77.02164983333333, "fusion_lat": 0.0, "name": "bbce8bf1c260f74b265af4e8d6f0cff3", "is_disabled": 0, "is_reserved": 0, "bike_id": "bbce8bf1c260f74b265af4e8d6f0cff3", "fusion_lon": 0.0, "type": "electric_scooter"}, {"rental_uris": {"ios": "https://dc.lft.to/lastmile_qr_scan", "android": "https://dc.lft.to/lastmile_qr_scan"}, "lat": 38.89242083333333, "lon": -77.05026616666666, "fusion_lat": 0.0, "name": "7713c86d9f4f5c4e3af546e5043e4868", "is_disabled": 0, "is_reserved": 0, "bike_id": "7713c86d9f4f5c4e3af546e5043e4868", "fusion_lon": 0.0, "type": "electric_scooter"}, {"rental_uris": {"ios": "https://dc.lft.to/lastmile_qr_scan", "android": "https://dc.lft.to/lastmile_qr_scan"}, "lat": 38.89475866666667, "lon": -76.94860583333333, "fusion_lat": 0.0, "name": "31ec3ac141b9f182aac010ef1b5bfca7", "is_disabled": 0, "is_reserved": 0, "bike_id": "31ec3ac141b9f182aac010ef1b5bfca7", "fusion_lon": 0.0, "type": "electric_scooter"}, {"rental_uris": {"ios": "https://dc.lft.to/lastmile_qr_scan", "android": "https://dc.lft.to/lastmile_qr_scan"}, "lat": 38.90615866666667, "lon": -77.0488365, "fusion_lat": 0.0, "name": "a791c03d58986cb94377c6af99357df0", "is_disabled": 0, "is_reserved": 0, "bike_id": "a791c03d58986cb94377c6af99357df0", "fusion_lon": 0.0, "type": "electric_scooter"}, {"rental_uris": {"ios": "https://dc.lft.to/lastmile_qr_scan", "android": "https://dc.lft.to/lastmile_qr_scan"}, "lat": 38.91599216666667, "lon": -77.0227085, "fusion_lat": 0.0, "name": "54eda87cb0033f5f104abd64e44255e0", "is_disabled": 0, "is_reserved": 0, "bike_id": "54eda87cb0033f5f104abd64e44255e0", "fusion_lon": 0.0, "type": "electric_scooter"}, {"rental_uris": {"ios": "https://dc.lft.to/lastmile_qr_scan", "android": "https://dc.lft.to/lastmile_qr_scan"}, "lat": 38.90427583333334, "lon": -76.97909166666666, "fusion_lat": 0.0, "name": "0e3082fef9cedcba5d81b0ee074bad42", "is_disabled": 0, "is_reserved": 0, "bike_id": "0e3082fef9cedcba5d81b0ee074bad42", "fusion_lon": 0.0, "type": "electric_scooter"}, {"rental_uris": {"ios": "https://dc.lft.to/lastmile_qr_scan", "android": "https://dc.lft.to/lastmile_qr_scan"}, "lat": 38.907209333333334, "lon": -77.02316983333333, "fusion_lat": 0.0, "name": "4126c559e32d2a3ee3329d90cf7161d1", "is_disabled": 0, "is_reserved": 0, "bike_id": "4126c559e32d2a3ee3329d90cf7161d1", "fusion_lon": 0.0, "type": "electric_scooter"}, {"rental_uris": {"ios": "https://dc.lft.to/lastmile_qr_scan", "android": "https://dc.lft.to/lastmile_qr_scan"}, "lat": 38.928779666666664, "lon": -77.03346983333333, "fusion_lat": 0.0, "name": "9ede15431eaa1e7205f417f975cdb171", "is_disabled": 0, "is_reserved": 0, "bike_id": "9ede15431eaa1e7205f417f975cdb171", "fusion_lon": 0.0, "type": "electric_scooter"}, {"rental_uris": {"ios": "https://dc.lft.to/lastmile_qr_scan", "android": "https://dc.lft.to/lastmile_qr_scan"}, "lat": 38.9527885, "lon": -77.01791233333333, "fusion_lat": 0.0, "name": "089cd03500aaea9f1894b39805f10ee5", "is_disabled": 0, "is_reserved": 0, "bike_id": "089cd03500aaea9f1894b39805f10ee5", "fusion_lon": 0.0, "type": "electric_scooter"}, {"rental_uris": {"ios": "https://dc.lft.to/lastmile_qr_scan", "android": "https://dc.lft.to/lastmile_qr_scan"}, "lat": 38.907613, "lon": -77.01695216666667, "fusion_lat": 0.0, "name": "1d6e1583b9970357583644ea6eb3083e", "is_disabled": 0, "is_reserved": 0, "bike_id": "1d6e1583b9970357583644ea6eb3083e", "fusion_lon": 0.0, "type": "electric_scooter"}, {"rental_uris": {"ios": "https://dc.lft.to/lastmile_qr_scan", "android": "https://dc.lft.to/lastmile_qr_scan"}, "lat": 38.901096, "lon": -77.04240833333333, "fusion_lat": 0.0, "name": "15968baa1cbd4336fe81fa87db3085f4", "is_disabled": 0, "is_reserved": 0, "bike_id": "15968baa1cbd4336fe81fa87db3085f4", "fusion_lon": 0.0, "type": "electric_scooter"}, {"rental_uris": {"ios": "https://dc.lft.to/lastmile_qr_scan", "android": "https://dc.lft.to/lastmile_qr_scan"}, "lat": 38.874773166666664, "lon": -76.96526016666667, "fusion_lat": 0.0, "name": "a2c41d77240cf9e3eaedfc72ce2d359a", "is_disabled": 0, "is_reserved": 0, "bike_id": "a2c41d77240cf9e3eaedfc72ce2d359a", "fusion_lon": 0.0, "type": "electric_bike"}, {"rental_uris": {"ios": "https://dc.lft.to/lastmile_qr_scan", "android": "https://dc.lft.to/lastmile_qr_scan"}, "lat": 38.909552, "lon": -77.033451, "fusion_lat": 0.0, "name": "4d64c38a0c876ddf2f64eef4fee39926", "is_disabled": 0, "is_reserved": 0, "bike_id": "4d64c38a0c876ddf2f64eef4fee39926", "fusion_lon": 0.0, "type": "electric_scooter"}, {"rental_uris": {"ios": "https://dc.lft.to/lastmile_qr_scan", "android": "https://dc.lft.to/lastmile_qr_scan"}, "lat": 38.928783, "lon": -77.04033916666667, "fusion_lat": 0.0, "name": "8f6e5ba2994cea60cdee003dbead582e", "is_disabled": 0, "is_reserved": 0, "bike_id": "8f6e5ba2994cea60cdee003dbead582e", "fusion_lon": 0.0, "type": "electric_scooter"}, {"rental_uris": {"ios": "https://dc.lft.to/lastmile_qr_scan", "android": "https://dc.lft.to/lastmile_qr_scan"}, "lat": 38.887773, "lon": -77.0893105, "fusion_lat": 0.0, "name": "126208b40e31e44aca82033f064bfe30", "is_disabled": 0, "is_reserved": 0, "bike_id": "126208b40e31e44aca82033f064bfe30", "fusion_lon": 0.0, "type": "electric_bike"}, {"rental_uris": {"ios": "https://dc.lft.to/lastmile_qr_scan", "android": "https://dc.lft.to/lastmile_qr_scan"}, "lat": 38.887730833333336, "lon": -76.95527666666666, "fusion_lat": 0.0, "name": "55b2860b82571b6e63279420b0277881", "is_disabled": 0, "is_reserved": 0, "bike_id": "55b2860b82571b6e63279420b0277881", "fusion_lon": 0.0, "type": "electric_scooter"}, {"rental_uris": {"ios": "https://dc.lft.to/lastmile_qr_scan", "android": "https://dc.lft.to/lastmile_qr_scan"}, "lat": 38.902748, "lon": -77.01880333333334, "fusion_lat": 0.0, "name": "d93b09c4f7505f0e4d7405c6728665b2", "is_disabled": 0, "is_reserved": 0, "bike_id": "d93b09c4f7505f0e4d7405c6728665b2", "fusion_lon": 0.0, "type": "electric_scooter"}, {"rental_uris": {"ios": "https://dc.lft.to/lastmile_qr_scan", "android": "https://dc.lft.to/lastmile_qr_scan"}, "lat": 38.923737833333334, "lon": -77.03128916666667, "fusion_lat": 0.0, "name": "f4dcec9a7f46247ab9b3837b27ea9c03", "is_disabled": 0, "is_reserved": 0, "bike_id": "f4dcec9a7f46247ab9b3837b27ea9c03", "fusion_lon": 0.0, "type": "electric_scooter"}, {"rental_uris": {"ios": "https://dc.lft.to/lastmile_qr_scan", "android": "https://dc.lft.to/lastmile_qr_scan"}, "lat": 38.997059666666665, "lon": -77.0255305, "fusion_lat": 0.0, "name": "dfaa1471af4155118ceb16b24cffbd74", "is_disabled": 0, "is_reserved": 0, "bike_id": "dfaa1471af4155118ceb16b24cffbd74", "fusion_lon": 0.0, "type": "electric_bike"}, {"rental_uris": {"ios": "https://dc.lft.to/lastmile_qr_scan", "android": "https://dc.lft.to/lastmile_qr_scan"}, "lat": 38.86625266666667, "lon": -76.987094, "fusion_lat": 0.0, "name": "2f696ab325900aed48f43c2c0f16d4c9", "is_disabled": 0, "is_reserved": 0, "bike_id": "2f696ab325900aed48f43c2c0f16d4c9", "fusion_lon": 0.0, "type": "electric_scooter"}, {"rental_uris": {"ios": "https://dc.lft.to/lastmile_qr_scan", "android": "https://dc.lft.to/lastmile_qr_scan"}, "lat": 38.89473433333333, "lon": -77.02301766666666, "fusion_lat": 0.0, "name": "6939cc69c9002403c533b949f0844241", "is_disabled": 0, "is_reserved": 0, "bike_id": "6939cc69c9002403c533b949f0844241", "fusion_lon": 0.0, "type": "electric_bike"}, {"rental_uris": {"ios": "https://dc.lft.to/lastmile_qr_scan", "android": "https://dc.lft.to/lastmile_qr_scan"}, "lat": 38.9287555, "lon": -77.03917916666667, "fusion_lat": 0.0, "name": "4cbd415c3cb29c549b10375fe9949051", "is_disabled": 0, "is_reserved": 0, "bike_id": "4cbd415c3cb29c549b10375fe9949051", "fusion_lon": 0.0, "type": "electric_scooter"}, {"rental_uris": {"ios": "https://dc.lft.to/lastmile_qr_scan", "android": "https://dc.lft.to/lastmile_qr_scan"}, "lat": 38.90804083333333, "lon": -77.00061833333334, "fusion_lat": 0.0, "name": "35d628107a9f57a897685d187e4c78ee", "is_disabled": 0, "is_reserved": 0, "bike_id": "35d628107a9f57a897685d187e4c78ee", "fusion_lon": 0.0, "type": "electric_scooter"}, {"rental_uris": {"ios": "https://dc.lft.to/lastmile_qr_scan", "android": "https://dc.lft.to/lastmile_qr_scan"}, "lat": 38.921965666666665, "lon": -77.01830866666667, "fusion_lat": 0.0, "name": "555623d354809189a33276f3678ca40c", "is_disabled": 0, "is_reserved": 0, "bike_id": "555623d354809189a33276f3678ca40c", "fusion_lon": 0.0, "type": "electric_scooter"}, {"rental_uris": {"ios": "https://dc.lft.to/lastmile_qr_scan", "android": "https://dc.lft.to/lastmile_qr_scan"}, "lat": 38.89639116666667, "lon": -77.070972, "fusion_lat": 0.0, "name": "af47e1c1c539d264b47462b4fc653fb7", "is_disabled": 0, "is_reserved": 0, "bike_id": "af47e1c1c539d264b47462b4fc653fb7", "fusion_lon": 0.0, "type": "electric_scooter"}, {"rental_uris": {"ios": "https://dc.lft.to/lastmile_qr_scan", "android": "https://dc.lft.to/lastmile_qr_scan"}, "lat": 38.909556333333335, "lon": -77.0273845, "fusion_lat": 0.0, "name": "2063ff7fc3811772b57fcfe9db35c760", "is_disabled": 0, "is_reserved": 0, "bike_id": "2063ff7fc3811772b57fcfe9db35c760", "fusion_lon": 0.0, "type": "electric_scooter"}, {"rental_uris": {"ios": "https://dc.lft.to/lastmile_qr_scan", "android": "https://dc.lft.to/lastmile_qr_scan"}, "lat": 38.8971325, "lon": -77.027079, "fusion_lat": 0.0, "name": "8f85da1f144f8b9827f0b8478f476e5d", "is_disabled": 0, "is_reserved": 0, "bike_id": "8f85da1f144f8b9827f0b8478f476e5d", "fusion_lon": 0.0, "type": "electric_scooter"}, {"rental_uris": {"ios": "https://dc.lft.to/lastmile_qr_scan", "android": "https://dc.lft.to/lastmile_qr_scan"}, "lat": 38.8988385, "lon": -76.93174516666667, "fusion_lat": 0.0, "name": "a81b41473f0b2c7c9f6a52eee562cfa2", "is_disabled": 0, "is_reserved": 0, "bike_id": "a81b41473f0b2c7c9f6a52eee562cfa2", "fusion_lon": 0.0, "type": "electric_scooter"}, {"rental_uris": {"ios": "https://dc.lft.to/lastmile_qr_scan", "android": "https://dc.lft.to/lastmile_qr_scan"}, "lat": 38.92114983333333, "lon": -77.017452, "fusion_lat": 0.0, "name": "b96d2a6f5f0115fc2ba7d831ed306b84", "is_disabled": 0, "is_reserved": 0, "bike_id": "b96d2a6f5f0115fc2ba7d831ed306b84", "fusion_lon": 0.0, "type": "electric_scooter"}, {"rental_uris": {"ios": "https://dc.lft.to/lastmile_qr_scan", "android": "https://dc.lft.to/lastmile_qr_scan"}, "lat": 38.90291, "lon": -77.033541, "fusion_lat": 0.0, "name": "fa33d51979560276238f4f3618c93c0c", "is_disabled": 0, "is_reserved": 0, "bike_id": "fa33d51979560276238f4f3618c93c0c", "fusion_lon": 0.0, "type": "electric_scooter"}, {"rental_uris": {"ios": "https://dc.lft.to/lastmile_qr_scan", "android": "https://dc.lft.to/lastmile_qr_scan"}, "lat": 38.874664, "lon": -77.00558033333333, "fusion_lat": 0.0, "name": "409bdae22e946541efb1d923d4a6829c", "is_disabled": 0, "is_reserved": 0, "bike_id": "409bdae22e946541efb1d923d4a6829c", "fusion_lon": 0.0, "type": "electric_scooter"}, {"rental_uris": {"ios": "https://dc.lft.to/lastmile_qr_scan", "android": "https://dc.lft.to/lastmile_qr_scan"}, "lat": 38.8967825, "lon": -77.005156, "fusion_lat": 0.0, "name": "b7740d76f8e8e9daeba38d94e69d9098", "is_disabled": 0, "is_reserved": 0, "bike_id": "b7740d76f8e8e9daeba38d94e69d9098", "fusion_lon": 0.0, "type": "electric_scooter"}, {"rental_uris": {"ios": "https://dc.lft.to/lastmile_qr_scan", "android": "https://dc.lft.to/lastmile_qr_scan"}, "lat": 38.8973745, "lon": -76.92046883333333, "fusion_lat": 0.0, "name": "f2bb028551748b04c5b0f19f629fc64f", "is_disabled": 0, "is_reserved": 0, "bike_id": "f2bb028551748b04c5b0f19f629fc64f", "fusion_lon": 0.0, "type": "electric_bike"}, {"rental_uris": {"ios": "https://dc.lft.to/lastmile_qr_scan", "android": "https://dc.lft.to/lastmile_qr_scan"}, "lat": 38.91813333333333, "lon": -77.04941583333333, "fusion_lat": 0.0, "name": "3c5ef791b3bccd4b2f5ae7fbf293d456", "is_disabled": 0, "is_reserved": 0, "bike_id": "3c5ef791b3bccd4b2f5ae7fbf293d456", "fusion_lon": 0.0, "type": "electric_scooter"}, {"rental_uris": {"ios": "https://dc.lft.to/lastmile_qr_scan", "android": "https://dc.lft.to/lastmile_qr_scan"}, "lat": 38.9170955, "lon": -77.0401815, "fusion_lat": 0.0, "name": "3679627bb7ed66a39cacd1fe44067ce5", "is_disabled": 0, "is_reserved": 0, "bike_id": "3679627bb7ed66a39cacd1fe44067ce5", "fusion_lon": 0.0, "type": "electric_scooter"}, {"rental_uris": {"ios": "https://dc.lft.to/lastmile_qr_scan", "android": "https://dc.lft.to/lastmile_qr_scan"}, "lat": 38.90231, "lon": -77.06087716666667, "fusion_lat": 0.0, "name": "164014522604364a9cd7f57dfd3130d7", "is_disabled": 0, "is_reserved": 0, "bike_id": "164014522604364a9cd7f57dfd3130d7", "fusion_lon": 0.0, "type": "electric_scooter"}, {"rental_uris": {"ios": "https://dc.lft.to/lastmile_qr_scan", "android": "https://dc.lft.to/lastmile_qr_scan"}, "lat": 38.916356, "lon": -77.08860683333333, "fusion_lat": 0.0, "name": "b9738a08b3844168ae2da7330b477f1e", "is_disabled": 0, "is_reserved": 0, "bike_id": "b9738a08b3844168ae2da7330b477f1e", "fusion_lon": 0.0, "type": "electric_scooter"}, {"rental_uris": {"ios": "https://dc.lft.to/lastmile_qr_scan", "android": "https://dc.lft.to/lastmile_qr_scan"}, "lat": 38.91669233333333, "lon": -77.02401783333333, "fusion_lat": 0.0, "name": "5297074754c8986074395139f23ff6e9", "is_disabled": 0, "is_reserved": 0, "bike_id": "5297074754c8986074395139f23ff6e9", "fusion_lon": 0.0, "type": "electric_scooter"}, {"rental_uris": {"ios": "https://dc.lft.to/lastmile_qr_scan", "android": "https://dc.lft.to/lastmile_qr_scan"}, "lat": 38.88740516666667, "lon": -77.01723283333334, "fusion_lat": 0.0, "name": "a2f77db5dea46f4160bb2bbda0ef1358", "is_disabled": 0, "is_reserved": 0, "bike_id": "a2f77db5dea46f4160bb2bbda0ef1358", "fusion_lon": 0.0, "type": "electric_scooter"}, {"rental_uris": {"ios": "https://dc.lft.to/lastmile_qr_scan", "android": "https://dc.lft.to/lastmile_qr_scan"}, "lat": 38.9394925, "lon": -77.07247316666667, "fusion_lat": 0.0, "name": "c1137975fba73c0dc43c682c82fb9329", "is_disabled": 0, "is_reserved": 0, "bike_id": "c1137975fba73c0dc43c682c82fb9329", "fusion_lon": 0.0, "type": "electric_scooter"}, {"rental_uris": {"ios": "https://dc.lft.to/lastmile_qr_scan", "android": "https://dc.lft.to/lastmile_qr_scan"}, "lat": 38.8923955, "lon": -77.033449, "fusion_lat": 0.0, "name": "b953a00d6cdcc1045a675f6a22bcb6ce", "is_disabled": 0, "is_reserved": 0, "bike_id": "b953a00d6cdcc1045a675f6a22bcb6ce", "fusion_lon": 0.0, "type": "electric_scooter"}, {"rental_uris": {"ios": "https://dc.lft.to/lastmile_qr_scan", "android": "https://dc.lft.to/lastmile_qr_scan"}, "lat": 38.92466433333333, "lon": -77.03730116666667, "fusion_lat": 0.0, "name": "0969a694c262430df87c212e150e8b1c", "is_disabled": 0, "is_reserved": 0, "bike_id": "0969a694c262430df87c212e150e8b1c", "fusion_lon": 0.0, "type": "electric_scooter"}, {"rental_uris": {"ios": "https://dc.lft.to/lastmile_qr_scan", "android": "https://dc.lft.to/lastmile_qr_scan"}, "lat": 38.91696916666667, "lon": -77.03337266666666, "fusion_lat": 0.0, "name": "9be488539a2c83ac9678a44260bbbb14", "is_disabled": 0, "is_reserved": 0, "bike_id": "9be488539a2c83ac9678a44260bbbb14", "fusion_lon": 0.0, "type": "electric_scooter"}, {"rental_uris": {"ios": "https://dc.lft.to/lastmile_qr_scan", "android": "https://dc.lft.to/lastmile_qr_scan"}, "lat": 38.9147875, "lon": -77.02196016666667, "fusion_lat": 0.0, "name": "127ff8b0d10d83a62a6903bf620ec900", "is_disabled": 0, "is_reserved": 0, "bike_id": "127ff8b0d10d83a62a6903bf620ec900", "fusion_lon": 0.0, "type": "electric_scooter"}, {"rental_uris": {"ios": "https://dc.lft.to/lastmile_qr_scan", "android": "https://dc.lft.to/lastmile_qr_scan"}, "lat": 38.916667, "lon": -77.022803, "fusion_lat": 0.0, "name": "c77470b7d074428156ca15e87ad6734f", "is_disabled": 0, "is_reserved": 0, "bike_id": "c77470b7d074428156ca15e87ad6734f", "fusion_lon": 0.0, "type": "electric_scooter"}, {"rental_uris": {"ios": "https://dc.lft.to/lastmile_qr_scan", "android": "https://dc.lft.to/lastmile_qr_scan"}, "lat": 38.90231516666667, "lon": -77.0609235, "fusion_lat": 0.0, "name": "f098fc159d2a1f938eb5e46702de9acd", "is_disabled": 0, "is_reserved": 0, "bike_id": "f098fc159d2a1f938eb5e46702de9acd", "fusion_lon": 0.0, "type": "electric_scooter"}, {"rental_uris": {"ios": "https://dc.lft.to/lastmile_qr_scan", "android": "https://dc.lft.to/lastmile_qr_scan"}, "lat": 38.8870955, "lon": -77.01771283333333, "fusion_lat": 0.0, "name": "bbe6a23f8cee640e372b74807024f66c", "is_disabled": 0, "is_reserved": 0, "bike_id": "bbe6a23f8cee640e372b74807024f66c", "fusion_lon": 0.0, "type": "electric_scooter"}, {"rental_uris": {"ios": "https://dc.lft.to/lastmile_qr_scan", "android": "https://dc.lft.to/lastmile_qr_scan"}, "lat": 38.908246166666665, "lon": -77.03367233333333, "fusion_lat": 0.0, "name": "cd62625fe55685a9ccacab424d34337b", "is_disabled": 0, "is_reserved": 0, "bike_id": "cd62625fe55685a9ccacab424d34337b", "fusion_lon": 0.0, "type": "electric_scooter"}, {"rental_uris": {"ios": "https://dc.lft.to/lastmile_qr_scan", "android": "https://dc.lft.to/lastmile_qr_scan"}, "lat": 38.8995195, "lon": -77.03208166666667, "fusion_lat": 0.0, "name": "bdbccd16c65447bc1e0560bc3d736ccf", "is_disabled": 0, "is_reserved": 0, "bike_id": "bdbccd16c65447bc1e0560bc3d736ccf", "fusion_lon": 0.0, "type": "electric_scooter"}, {"rental_uris": {"ios": "https://dc.lft.to/lastmile_qr_scan", "android": "https://dc.lft.to/lastmile_qr_scan"}, "lat": 38.915603833333336, "lon": -77.03766116666667, "fusion_lat": 0.0, "name": "7d3e798a170c4585dccf9c4de5525cbc", "is_disabled": 0, "is_reserved": 0, "bike_id": "7d3e798a170c4585dccf9c4de5525cbc", "fusion_lon": 0.0, "type": "electric_scooter"}, {"rental_uris": {"ios": "https://dc.lft.to/lastmile_qr_scan", "android": "https://dc.lft.to/lastmile_qr_scan"}, "lat": 38.921709666666665, "lon": -77.03838333333333, "fusion_lat": 0.0, "name": "e91d9eb6510720f40d7c1a9d5edef7fc", "is_disabled": 0, "is_reserved": 0, "bike_id": "e91d9eb6510720f40d7c1a9d5edef7fc", "fusion_lon": 0.0, "type": "electric_scooter"}, {"rental_uris": {"ios": "https://dc.lft.to/lastmile_qr_scan", "android": "https://dc.lft.to/lastmile_qr_scan"}, "lat": 38.93875233333333, "lon": -77.02828433333333, "fusion_lat": 0.0, "name": "4e1d3eabf89504e5117066da8257410b", "is_disabled": 0, "is_reserved": 0, "bike_id": "4e1d3eabf89504e5117066da8257410b", "fusion_lon": 0.0, "type": "electric_scooter"}, {"rental_uris": {"ios": "https://dc.lft.to/lastmile_qr_scan", "android": "https://dc.lft.to/lastmile_qr_scan"}, "lat": 38.87378316666667, "lon": -77.00042366666666, "fusion_lat": 0.0, "name": "f4ea50cffe959e4d4d2818d06a95db4f", "is_disabled": 0, "is_reserved": 0, "bike_id": "f4ea50cffe959e4d4d2818d06a95db4f", "fusion_lon": 0.0, "type": "electric_scooter"}, {"rental_uris": {"ios": "https://dc.lft.to/lastmile_qr_scan", "android": "https://dc.lft.to/lastmile_qr_scan"}, "lat": 38.919081166666665, "lon": -77.0250295, "fusion_lat": 0.0, "name": "de37b52068b50e9a13d8d1e28c1f8132", "is_disabled": 0, "is_reserved": 0, "bike_id": "de37b52068b50e9a13d8d1e28c1f8132", "fusion_lon": 0.0, "type": "electric_scooter"}, {"rental_uris": {"ios": "https://dc.lft.to/lastmile_qr_scan", "android": "https://dc.lft.to/lastmile_qr_scan"}, "lat": 38.9103785, "lon": -77.03258716666667, "fusion_lat": 0.0, "name": "f07cb91bb19748738ab9d2ded65d07a7", "is_disabled": 0, "is_reserved": 0, "bike_id": "f07cb91bb19748738ab9d2ded65d07a7", "fusion_lon": 0.0, "type": "electric_scooter"}, {"rental_uris": {"ios": "https://dc.lft.to/lastmile_qr_scan", "android": "https://dc.lft.to/lastmile_qr_scan"}, "lat": 38.90667283333333, "lon": -77.02704383333334, "fusion_lat": 0.0, "name": "bc414046af63ed9ffa6d07a9a983cd46", "is_disabled": 0, "is_reserved": 0, "bike_id": "bc414046af63ed9ffa6d07a9a983cd46", "fusion_lon": 0.0, "type": "electric_scooter"}, {"rental_uris": {"ios": "https://dc.lft.to/lastmile_qr_scan", "android": "https://dc.lft.to/lastmile_qr_scan"}, "lat": 38.88183266666667, "lon": -77.02080566666666, "fusion_lat": 0.0, "name": "9016b6f8e951f5ac67bdc245d6378e7b", "is_disabled": 0, "is_reserved": 0, "bike_id": "9016b6f8e951f5ac67bdc245d6378e7b", "fusion_lon": 0.0, "type": "electric_scooter"}, {"rental_uris": {"ios": "https://dc.lft.to/lastmile_qr_scan", "android": "https://dc.lft.to/lastmile_qr_scan"}, "lat": 38.8983125, "lon": -77.007581, "fusion_lat": 0.0, "name": "a72ad5ed5e8de29f3475a534e33ff0c8", "is_disabled": 0, "is_reserved": 0, "bike_id": "a72ad5ed5e8de29f3475a534e33ff0c8", "fusion_lon": 0.0, "type": "electric_scooter"}, {"rental_uris": {"ios": "https://dc.lft.to/lastmile_qr_scan", "android": "https://dc.lft.to/lastmile_qr_scan"}, "lat": 38.905954, "lon": -77.005596, "fusion_lat": 0.0, "name": "7c841383bad5b5df285d60aa9b1c46d9", "is_disabled": 0, "is_reserved": 0, "bike_id": "7c841383bad5b5df285d60aa9b1c46d9", "fusion_lon": 0.0, "type": "electric_scooter"}, {"rental_uris": {"ios": "https://dc.lft.to/lastmile_qr_scan", "android": "https://dc.lft.to/lastmile_qr_scan"}, "lat": 38.90169816666667, "lon": -76.92653666666666, "fusion_lat": 0.0, "name": "b052602f1248fbb7e1bedb1426e28d7d", "is_disabled": 0, "is_reserved": 0, "bike_id": "b052602f1248fbb7e1bedb1426e28d7d", "fusion_lon": 0.0, "type": "electric_scooter"}, {"rental_uris": {"ios": "https://dc.lft.to/lastmile_qr_scan", "android": "https://dc.lft.to/lastmile_qr_scan"}, "lat": 38.897377166666665, "lon": -77.02969183333333, "fusion_lat": 0.0, "name": "d5e35c57bababe95f2274d4d4a13cf1c", "is_disabled": 0, "is_reserved": 0, "bike_id": "d5e35c57bababe95f2274d4d4a13cf1c", "fusion_lon": 0.0, "type": "electric_scooter"}, {"rental_uris": {"ios": "https://dc.lft.to/lastmile_qr_scan", "android": "https://dc.lft.to/lastmile_qr_scan"}, "lat": 38.91525016666667, "lon": -77.0196975, "fusion_lat": 0.0, "name": "c151f54f0ebee296d97a7ffff33f5729", "is_disabled": 0, "is_reserved": 0, "bike_id": "c151f54f0ebee296d97a7ffff33f5729", "fusion_lon": 0.0, "type": "electric_scooter"}, {"rental_uris": {"ios": "https://dc.lft.to/lastmile_qr_scan", "android": "https://dc.lft.to/lastmile_qr_scan"}, "lat": 38.90225566666667, "lon": -77.029359, "fusion_lat": 0.0, "name": "d33f0ba99ba2de71ec198ad2dc60317a", "is_disabled": 0, "is_reserved": 0, "bike_id": "d33f0ba99ba2de71ec198ad2dc60317a", "fusion_lon": 0.0, "type": "electric_scooter"}, {"rental_uris": {"ios": "https://dc.lft.to/lastmile_qr_scan", "android": "https://dc.lft.to/lastmile_qr_scan"}, "lat": 38.9015635, "lon": -77.02371416666666, "fusion_lat": 0.0, "name": "bd02d847342700465b13bcea0b981a6a", "is_disabled": 0, "is_reserved": 0, "bike_id": "bd02d847342700465b13bcea0b981a6a", "fusion_lon": 0.0, "type": "electric_scooter"}, {"rental_uris": {"ios": "https://dc.lft.to/lastmile_qr_scan", "android": "https://dc.lft.to/lastmile_qr_scan"}, "lat": 38.9324495, "lon": -76.99513416666667, "fusion_lat": 0.0, "name": "92c11e8d02b24b4c75770d91a1e1ff85", "is_disabled": 0, "is_reserved": 0, "bike_id": "92c11e8d02b24b4c75770d91a1e1ff85", "fusion_lon": 0.0, "type": "electric_scooter"}, {"rental_uris": {"ios": "https://dc.lft.to/lastmile_qr_scan", "android": "https://dc.lft.to/lastmile_qr_scan"}, "lat": 38.9170475, "lon": -77.0319255, "fusion_lat": 0.0, "name": "45a61898a00e801952e1b3ddbe0953e7", "is_disabled": 0, "is_reserved": 0, "bike_id": "45a61898a00e801952e1b3ddbe0953e7", "fusion_lon": 0.0, "type": "electric_scooter"}, {"rental_uris": {"ios": "https://dc.lft.to/lastmile_qr_scan", "android": "https://dc.lft.to/lastmile_qr_scan"}, "lat": 38.912539, "lon": -77.03398816666666, "fusion_lat": 0.0, "name": "71b32bbe54bb6651b38fd9f1b1b0ba00", "is_disabled": 0, "is_reserved": 0, "bike_id": "71b32bbe54bb6651b38fd9f1b1b0ba00", "fusion_lon": 0.0, "type": "electric_scooter"}, {"rental_uris": {"ios": "https://dc.lft.to/lastmile_qr_scan", "android": "https://dc.lft.to/lastmile_qr_scan"}, "lat": 38.905688833333336, "lon": -77.06259816666666, "fusion_lat": 0.0, "name": "9d4b3e49f0eca8225c5ae3cf83525e95", "is_disabled": 0, "is_reserved": 0, "bike_id": "9d4b3e49f0eca8225c5ae3cf83525e95", "fusion_lon": 0.0, "type": "electric_scooter"}, {"rental_uris": {"ios": "https://dc.lft.to/lastmile_qr_scan", "android": "https://dc.lft.to/lastmile_qr_scan"}, "lat": 38.87887333333333, "lon": -77.02245516666666, "fusion_lat": 0.0, "name": "b0ae738bdd0290ac48b57a6173565d38", "is_disabled": 0, "is_reserved": 0, "bike_id": "b0ae738bdd0290ac48b57a6173565d38", "fusion_lon": 0.0, "type": "electric_scooter"}, {"rental_uris": {"ios": "https://dc.lft.to/lastmile_qr_scan", "android": "https://dc.lft.to/lastmile_qr_scan"}, "lat": 38.941906333333336, "lon": -77.03838916666666, "fusion_lat": 0.0, "name": "4eed28d0ea6c2523b2841e842d16ab06", "is_disabled": 0, "is_reserved": 0, "bike_id": "4eed28d0ea6c2523b2841e842d16ab06", "fusion_lon": 0.0, "type": "electric_scooter"}, {"rental_uris": {"ios": "https://dc.lft.to/lastmile_qr_scan", "android": "https://dc.lft.to/lastmile_qr_scan"}, "lat": 38.90705066666666, "lon": -77.03225683333334, "fusion_lat": 0.0, "name": "721cd5d988af59deaea13d411f9361e9", "is_disabled": 0, "is_reserved": 0, "bike_id": "721cd5d988af59deaea13d411f9361e9", "fusion_lon": 0.0, "type": "electric_scooter"}, {"rental_uris": {"ios": "https://dc.lft.to/lastmile_qr_scan", "android": "https://dc.lft.to/lastmile_qr_scan"}, "lat": 38.9065555, "lon": -77.00968016666667, "fusion_lat": 0.0, "name": "ed2ff40683a72cfa3db43739439bdafd", "is_disabled": 0, "is_reserved": 0, "bike_id": "ed2ff40683a72cfa3db43739439bdafd", "fusion_lon": 0.0, "type": "electric_scooter"}, {"rental_uris": {"ios": "https://dc.lft.to/lastmile_qr_scan", "android": "https://dc.lft.to/lastmile_qr_scan"}, "lat": 38.897335166666664, "lon": -77.02558933333333, "fusion_lat": 0.0, "name": "6f7381f85af5bdbd0eebe262d3fbb478", "is_disabled": 0, "is_reserved": 0, "bike_id": "6f7381f85af5bdbd0eebe262d3fbb478", "fusion_lon": 0.0, "type": "electric_scooter"}, {"rental_uris": {"ios": "https://dc.lft.to/lastmile_qr_scan", "android": "https://dc.lft.to/lastmile_qr_scan"}, "lat": 38.886536666666665, "lon": -77.0282835, "fusion_lat": 0.0, "name": "7b628bf9f4de1e0d85dd082f9fa6a819", "is_disabled": 0, "is_reserved": 0, "bike_id": "7b628bf9f4de1e0d85dd082f9fa6a819", "fusion_lon": 0.0, "type": "electric_scooter"}, {"rental_uris": {"ios": "https://dc.lft.to/lastmile_qr_scan", "android": "https://dc.lft.to/lastmile_qr_scan"}, "lat": 38.910131, "lon": -77.02855133333334, "fusion_lat": 0.0, "name": "8c7f0eb0ac0d9da298e890658f40c398", "is_disabled": 0, "is_reserved": 0, "bike_id": "8c7f0eb0ac0d9da298e890658f40c398", "fusion_lon": 0.0, "type": "electric_scooter"}, {"rental_uris": {"ios": "https://dc.lft.to/lastmile_qr_scan", "android": "https://dc.lft.to/lastmile_qr_scan"}, "lat": 38.92776216666667, "lon": -77.052582, "fusion_lat": 0.0, "name": "3203f9bafe2a4f0baa0809a2cc6dd376", "is_disabled": 0, "is_reserved": 0, "bike_id": "3203f9bafe2a4f0baa0809a2cc6dd376", "fusion_lon": 0.0, "type": "electric_scooter"}, {"rental_uris": {"ios": "https://dc.lft.to/lastmile_qr_scan", "android": "https://dc.lft.to/lastmile_qr_scan"}, "lat": 38.901405, "lon": -76.99158266666667, "fusion_lat": 0.0, "name": "d331643e34f32a6f6d00d9e1fea57424", "is_disabled": 0, "is_reserved": 0, "bike_id": "d331643e34f32a6f6d00d9e1fea57424", "fusion_lon": 0.0, "type": "electric_scooter"}, {"rental_uris": {"ios": "https://dc.lft.to/lastmile_qr_scan", "android": "https://dc.lft.to/lastmile_qr_scan"}, "lat": 38.928318, "lon": -77.01413233333334, "fusion_lat": 0.0, "name": "fe25b273cf9df8e72ed0317677f71115", "is_disabled": 0, "is_reserved": 0, "bike_id": "fe25b273cf9df8e72ed0317677f71115", "fusion_lon": 0.0, "type": "electric_scooter"}, {"rental_uris": {"ios": "https://dc.lft.to/lastmile_qr_scan", "android": "https://dc.lft.to/lastmile_qr_scan"}, "lat": 38.91580783333333, "lon": -77.0331395, "fusion_lat": 0.0, "name": "83009614c94726dc614d3f7bbaf1ddaa", "is_disabled": 0, "is_reserved": 0, "bike_id": "83009614c94726dc614d3f7bbaf1ddaa", "fusion_lon": 0.0, "type": "electric_scooter"}, {"rental_uris": {"ios": "https://dc.lft.to/lastmile_qr_scan", "android": "https://dc.lft.to/lastmile_qr_scan"}, "lat": 38.876445, "lon": -76.96505733333333, "fusion_lat": 0.0, "name": "d5a34d37f4660b491e5f59e33778acfe", "is_disabled": 0, "is_reserved": 0, "bike_id": "d5a34d37f4660b491e5f59e33778acfe", "fusion_lon": 0.0, "type": "electric_scooter"}, {"rental_uris": {"ios": "https://dc.lft.to/lastmile_qr_scan", "android": "https://dc.lft.to/lastmile_qr_scan"}, "lat": 38.908637666666664, "lon": -76.9913135, "fusion_lat": 0.0, "name": "be6fb745823c0ce15e33b7b14ec1e308", "is_disabled": 0, "is_reserved": 0, "bike_id": "be6fb745823c0ce15e33b7b14ec1e308", "fusion_lon": 0.0, "type": "electric_bike"}, {"rental_uris": {"ios": "https://dc.lft.to/lastmile_qr_scan", "android": "https://dc.lft.to/lastmile_qr_scan"}, "lat": 38.927241333333335, "lon": -77.03432283333333, "fusion_lat": 0.0, "name": "325a2aca92c0e599d7a687887674b262", "is_disabled": 0, "is_reserved": 0, "bike_id": "325a2aca92c0e599d7a687887674b262", "fusion_lon": 0.0, "type": "electric_scooter"}, {"rental_uris": {"ios": "https://dc.lft.to/lastmile_qr_scan", "android": "https://dc.lft.to/lastmile_qr_scan"}, "lat": 38.901187, "lon": -77.04982, "fusion_lat": 0.0, "name": "8fdd79126289bb46778b9d1aa7f1b1dc", "is_disabled": 0, "is_reserved": 0, "bike_id": "8fdd79126289bb46778b9d1aa7f1b1dc", "fusion_lon": 0.0, "type": "electric_scooter"}, {"rental_uris": {"ios": "https://dc.lft.to/lastmile_qr_scan", "android": "https://dc.lft.to/lastmile_qr_scan"}, "lat": 38.91009716666667, "lon": -76.9986525, "fusion_lat": 0.0, "name": "5f98a0625a0dc016c61cf5582ea8ff80", "is_disabled": 0, "is_reserved": 0, "bike_id": "5f98a0625a0dc016c61cf5582ea8ff80", "fusion_lon": 0.0, "type": "electric_scooter"}, {"rental_uris": {"ios": "https://dc.lft.to/lastmile_qr_scan", "android": "https://dc.lft.to/lastmile_qr_scan"}, "lat": 38.918049333333336, "lon": -77.031649, "fusion_lat": 0.0, "name": "c155ddf4fe907fef3f00dc671d7f2ba4", "is_disabled": 0, "is_reserved": 0, "bike_id": "c155ddf4fe907fef3f00dc671d7f2ba4", "fusion_lon": 0.0, "type": "electric_scooter"}, {"rental_uris": {"ios": "https://dc.lft.to/lastmile_qr_scan", "android": "https://dc.lft.to/lastmile_qr_scan"}, "lat": 38.90982533333333, "lon": -77.03385733333333, "fusion_lat": 0.0, "name": "549bea821f41c16b2af85ec6b58dfae0", "is_disabled": 0, "is_reserved": 0, "bike_id": "549bea821f41c16b2af85ec6b58dfae0", "fusion_lon": 0.0, "type": "electric_scooter"}, {"rental_uris": {"ios": "https://dc.lft.to/lastmile_qr_scan", "android": "https://dc.lft.to/lastmile_qr_scan"}, "lat": 38.912919333333335, "lon": -77.02386933333334, "fusion_lat": 0.0, "name": "652387f77f3a1d3b440577157b09fb3c", "is_disabled": 0, "is_reserved": 0, "bike_id": "652387f77f3a1d3b440577157b09fb3c", "fusion_lon": 0.0, "type": "electric_scooter"}, {"rental_uris": {"ios": "https://dc.lft.to/lastmile_qr_scan", "android": "https://dc.lft.to/lastmile_qr_scan"}, "lat": 38.9073295, "lon": -77.0756735, "fusion_lat": 0.0, "name": "761a5208083f7a60340ffca7e19f1b08", "is_disabled": 0, "is_reserved": 0, "bike_id": "761a5208083f7a60340ffca7e19f1b08", "fusion_lon": 0.0, "type": "electric_scooter"}, {"rental_uris": {"ios": "https://dc.lft.to/lastmile_qr_scan", "android": "https://dc.lft.to/lastmile_qr_scan"}, "lat": 38.897216666666665, "lon": -77.03038983333333, "fusion_lat": 0.0, "name": "721e58300a19144f14ec12528ca0bec0", "is_disabled": 0, "is_reserved": 0, "bike_id": "721e58300a19144f14ec12528ca0bec0", "fusion_lon": 0.0, "type": "electric_scooter"}, {"rental_uris": {"ios": "https://dc.lft.to/lastmile_qr_scan", "android": "https://dc.lft.to/lastmile_qr_scan"}, "lat": 38.84521316666667, "lon": -76.97392566666667, "fusion_lat": 0.0, "name": "8f17f343ba3c56779bdcbaa3a58a63bf", "is_disabled": 0, "is_reserved": 0, "bike_id": "8f17f343ba3c56779bdcbaa3a58a63bf", "fusion_lon": 0.0, "type": "electric_bike"}, {"rental_uris": {"ios": "https://dc.lft.to/lastmile_qr_scan", "android": "https://dc.lft.to/lastmile_qr_scan"}, "lat": 38.89424916666667, "lon": -77.03158316666666, "fusion_lat": 0.0, "name": "982dcba94f382dd50def901ca821ec65", "is_disabled": 0, "is_reserved": 0, "bike_id": "982dcba94f382dd50def901ca821ec65", "fusion_lon": 0.0, "type": "electric_scooter"}, {"rental_uris": {"ios": "https://dc.lft.to/lastmile_qr_scan", "android": "https://dc.lft.to/lastmile_qr_scan"}, "lat": 38.93760833333333, "lon": -77.032513, "fusion_lat": 0.0, "name": "a50fa7089553a5f299bc1411baf9a0eb", "is_disabled": 0, "is_reserved": 0, "bike_id": "a50fa7089553a5f299bc1411baf9a0eb", "fusion_lon": 0.0, "type": "electric_scooter"}, {"rental_uris": {"ios": "https://dc.lft.to/lastmile_qr_scan", "android": "https://dc.lft.to/lastmile_qr_scan"}, "lat": 38.90046066666667, "lon": -76.99852983333334, "fusion_lat": 0.0, "name": "b424a2d4da1f94a61c6e623cde9e367b", "is_disabled": 0, "is_reserved": 0, "bike_id": "b424a2d4da1f94a61c6e623cde9e367b", "fusion_lon": 0.0, "type": "electric_scooter"}, {"rental_uris": {"ios": "https://dc.lft.to/lastmile_qr_scan", "android": "https://dc.lft.to/lastmile_qr_scan"}, "lat": 38.927275333333334, "lon": -77.0342385, "fusion_lat": 0.0, "name": "bfc67a6f1206a61bc766af1005eb009a", "is_disabled": 0, "is_reserved": 0, "bike_id": "bfc67a6f1206a61bc766af1005eb009a", "fusion_lon": 0.0, "type": "electric_scooter"}, {"rental_uris": {"ios": "https://dc.lft.to/lastmile_qr_scan", "android": "https://dc.lft.to/lastmile_qr_scan"}, "lat": 38.899484666666666, "lon": -77.0448265, "fusion_lat": 0.0, "name": "0ac831c0a31a71712339efcce8e87660", "is_disabled": 0, "is_reserved": 0, "bike_id": "0ac831c0a31a71712339efcce8e87660", "fusion_lon": 0.0, "type": "electric_scooter"}, {"rental_uris": {"ios": "https://dc.lft.to/lastmile_qr_scan", "android": "https://dc.lft.to/lastmile_qr_scan"}, "lat": 38.8625135, "lon": -76.99492783333334, "fusion_lat": 0.0, "name": "bfc2dd6f4f27ad009f0f154b95544462", "is_disabled": 0, "is_reserved": 0, "bike_id": "bfc2dd6f4f27ad009f0f154b95544462", "fusion_lon": 0.0, "type": "electric_scooter"}, {"rental_uris": {"ios": "https://dc.lft.to/lastmile_qr_scan", "android": "https://dc.lft.to/lastmile_qr_scan"}, "lat": 38.912818333333334, "lon": -77.06113683333334, "fusion_lat": 0.0, "name": "cd6dd5f0a23e60778eeb9b1c39d0d077", "is_disabled": 0, "is_reserved": 0, "bike_id": "cd6dd5f0a23e60778eeb9b1c39d0d077", "fusion_lon": 0.0, "type": "electric_scooter"}, {"rental_uris": {"ios": "https://dc.lft.to/lastmile_qr_scan", "android": "https://dc.lft.to/lastmile_qr_scan"}, "lat": 38.831604666666664, "lon": -77.00797733333333, "fusion_lat": 0.0, "name": "a0f1e71888045a8401a18033ededa215", "is_disabled": 0, "is_reserved": 0, "bike_id": "a0f1e71888045a8401a18033ededa215", "fusion_lon": 0.0, "type": "electric_scooter"}, {"rental_uris": {"ios": "https://dc.lft.to/lastmile_qr_scan", "android": "https://dc.lft.to/lastmile_qr_scan"}, "lat": 38.90969316666666, "lon": -77.02173216666667, "fusion_lat": 0.0, "name": "92c112cb49bc582874598981f99262d1", "is_disabled": 0, "is_reserved": 0, "bike_id": "92c112cb49bc582874598981f99262d1", "fusion_lon": 0.0, "type": "electric_scooter"}, {"rental_uris": {"ios": "https://dc.lft.to/lastmile_qr_scan", "android": "https://dc.lft.to/lastmile_qr_scan"}, "lat": 38.89605783333333, "lon": -77.02352366666666, "fusion_lat": 0.0, "name": "fe416cf14bbfd5a22cd9cd39867b093b", "is_disabled": 0, "is_reserved": 0, "bike_id": "fe416cf14bbfd5a22cd9cd39867b093b", "fusion_lon": 0.0, "type": "electric_scooter"}, {"rental_uris": {"ios": "https://dc.lft.to/lastmile_qr_scan", "android": "https://dc.lft.to/lastmile_qr_scan"}, "lat": 38.88349216666667, "lon": -76.99487133333334, "fusion_lat": 0.0, "name": "e66f93cbbc15e195f6035d2d7debe495", "is_disabled": 0, "is_reserved": 0, "bike_id": "e66f93cbbc15e195f6035d2d7debe495", "fusion_lon": 0.0, "type": "electric_bike"}, {"rental_uris": {"ios": "https://dc.lft.to/lastmile_qr_scan", "android": "https://dc.lft.to/lastmile_qr_scan"}, "lat": 38.91659583333333, "lon": -77.04386883333333, "fusion_lat": 0.0, "name": "1b6d935cc19809d65e44f87909a01f4f", "is_disabled": 0, "is_reserved": 0, "bike_id": "1b6d935cc19809d65e44f87909a01f4f", "fusion_lon": 0.0, "type": "electric_scooter"}, {"rental_uris": {"ios": "https://dc.lft.to/lastmile_qr_scan", "android": "https://dc.lft.to/lastmile_qr_scan"}, "lat": 38.914165, "lon": -77.031731, "fusion_lat": 0.0, "name": "216b0c94e7635432dccc94760519739f", "is_disabled": 0, "is_reserved": 0, "bike_id": "216b0c94e7635432dccc94760519739f", "fusion_lon": 0.0, "type": "electric_scooter"}, {"rental_uris": {"ios": "https://dc.lft.to/lastmile_qr_scan", "android": "https://dc.lft.to/lastmile_qr_scan"}, "lat": 38.911045333333334, "lon": -77.03831883333334, "fusion_lat": 0.0, "name": "0e512295bd71754ce5649221af96aa96", "is_disabled": 0, "is_reserved": 0, "bike_id": "0e512295bd71754ce5649221af96aa96", "fusion_lon": 0.0, "type": "electric_scooter"}, {"rental_uris": {"ios": "https://dc.lft.to/lastmile_qr_scan", "android": "https://dc.lft.to/lastmile_qr_scan"}, "lat": 38.919573666666665, "lon": -77.01892516666666, "fusion_lat": 0.0, "name": "76d854ac7adc3711af586c669228eda4", "is_disabled": 0, "is_reserved": 0, "bike_id": "76d854ac7adc3711af586c669228eda4", "fusion_lon": 0.0, "type": "electric_scooter"}, {"rental_uris": {"ios": "https://dc.lft.to/lastmile_qr_scan", "android": "https://dc.lft.to/lastmile_qr_scan"}, "lat": 38.89745383333333, "lon": -76.94183016666666, "fusion_lat": 0.0, "name": "aec29cc1b0f1a20dd3c116df3348d9df", "is_disabled": 0, "is_reserved": 0, "bike_id": "aec29cc1b0f1a20dd3c116df3348d9df", "fusion_lon": 0.0, "type": "electric_scooter"}, {"rental_uris": {"ios": "https://dc.lft.to/lastmile_qr_scan", "android": "https://dc.lft.to/lastmile_qr_scan"}, "lat": 38.906538833333336, "lon": -77.04168866666667, "fusion_lat": 0.0, "name": "73554c508c1daf5ee6be118e904c5e7f", "is_disabled": 0, "is_reserved": 0, "bike_id": "73554c508c1daf5ee6be118e904c5e7f", "fusion_lon": 0.0, "type": "electric_scooter"}, {"rental_uris": {"ios": "https://dc.lft.to/lastmile_qr_scan", "android": "https://dc.lft.to/lastmile_qr_scan"}, "lat": 38.9147965, "lon": -77.02578533333333, "fusion_lat": 0.0, "name": "fd8edbd22b2583b11814e9696c60cfcf", "is_disabled": 0, "is_reserved": 0, "bike_id": "fd8edbd22b2583b11814e9696c60cfcf", "fusion_lon": 0.0, "type": "electric_scooter"}, {"rental_uris": {"ios": "https://dc.lft.to/lastmile_qr_scan", "android": "https://dc.lft.to/lastmile_qr_scan"}, "lat": 38.9154725, "lon": -77.03610216666667, "fusion_lat": 0.0, "name": "f7ee6aa2195c8b828dfce4e872bc88b4", "is_disabled": 0, "is_reserved": 0, "bike_id": "f7ee6aa2195c8b828dfce4e872bc88b4", "fusion_lon": 0.0, "type": "electric_scooter"}, {"rental_uris": {"ios": "https://dc.lft.to/lastmile_qr_scan", "android": "https://dc.lft.to/lastmile_qr_scan"}, "lat": 38.90536983333333, "lon": -77.0611655, "fusion_lat": 0.0, "name": "3c5567fddc88d01187212ad7947fabac", "is_disabled": 0, "is_reserved": 0, "bike_id": "3c5567fddc88d01187212ad7947fabac", "fusion_lon": 0.0, "type": "electric_scooter"}, {"rental_uris": {"ios": "https://dc.lft.to/lastmile_qr_scan", "android": "https://dc.lft.to/lastmile_qr_scan"}, "lat": 38.920695, "lon": -76.89073216666667, "fusion_lat": 0.0, "name": "34a3192c39ec97f6404a961f1cfc2e65", "is_disabled": 0, "is_reserved": 0, "bike_id": "34a3192c39ec97f6404a961f1cfc2e65", "fusion_lon": 0.0, "type": "electric_bike"}, {"rental_uris": {"ios": "https://dc.lft.to/lastmile_qr_scan", "android": "https://dc.lft.to/lastmile_qr_scan"}, "lat": 38.9141625, "lon": -77.018055, "fusion_lat": 0.0, "name": "6c2a50156b863527efc7928d06a9f219", "is_disabled": 0, "is_reserved": 0, "bike_id": "6c2a50156b863527efc7928d06a9f219", "fusion_lon": 0.0, "type": "electric_scooter"}, {"rental_uris": {"ios": "https://dc.lft.to/lastmile_qr_scan", "android": "https://dc.lft.to/lastmile_qr_scan"}, "lat": 38.8674305, "lon": -76.97860833333333, "fusion_lat": 0.0, "name": "3be1a0098ae586303f82ae0bbde58143", "is_disabled": 0, "is_reserved": 0, "bike_id": "3be1a0098ae586303f82ae0bbde58143", "fusion_lon": 0.0, "type": "electric_scooter"}, {"rental_uris": {"ios": "https://dc.lft.to/lastmile_qr_scan", "android": "https://dc.lft.to/lastmile_qr_scan"}, "lat": 38.9167485, "lon": -77.03190733333334, "fusion_lat": 0.0, "name": "beabf6307ae1138cb56c3766f8ff0758", "is_disabled": 0, "is_reserved": 0, "bike_id": "beabf6307ae1138cb56c3766f8ff0758", "fusion_lon": 0.0, "type": "electric_scooter"}, {"rental_uris": {"ios": "https://dc.lft.to/lastmile_qr_scan", "android": "https://dc.lft.to/lastmile_qr_scan"}, "lat": 38.92233783333333, "lon": -77.03521166666667, "fusion_lat": 0.0, "name": "28627faf2a12476c6b968b4a514b251a", "is_disabled": 0, "is_reserved": 0, "bike_id": "28627faf2a12476c6b968b4a514b251a", "fusion_lon": 0.0, "type": "electric_scooter"}, {"rental_uris": {"ios": "https://dc.lft.to/lastmile_qr_scan", "android": "https://dc.lft.to/lastmile_qr_scan"}, "lat": 38.910288666666666, "lon": -77.04339966666667, "fusion_lat": 0.0, "name": "efd7028f35360211c87661ac2a018562", "is_disabled": 0, "is_reserved": 0, "bike_id": "efd7028f35360211c87661ac2a018562", "fusion_lon": 0.0, "type": "electric_scooter"}, {"rental_uris": {"ios": "https://dc.lft.to/lastmile_qr_scan", "android": "https://dc.lft.to/lastmile_qr_scan"}, "lat": 38.873689, "lon": -77.0011025, "fusion_lat": 0.0, "name": "7ad4b9e31920e8f8ca79b8a1cb9b4aff", "is_disabled": 0, "is_reserved": 0, "bike_id": "7ad4b9e31920e8f8ca79b8a1cb9b4aff", "fusion_lon": 0.0, "type": "electric_scooter"}, {"rental_uris": {"ios": "https://dc.lft.to/lastmile_qr_scan", "android": "https://dc.lft.to/lastmile_qr_scan"}, "lat": 38.936910833333336, "lon": -77.02389233333334, "fusion_lat": 0.0, "name": "756653f2e32978e42a2bae27eca19c78", "is_disabled": 0, "is_reserved": 0, "bike_id": "756653f2e32978e42a2bae27eca19c78", "fusion_lon": 0.0, "type": "electric_scooter"}, {"rental_uris": {"ios": "https://dc.lft.to/lastmile_qr_scan", "android": "https://dc.lft.to/lastmile_qr_scan"}, "lat": 38.92598666666667, "lon": -77.02383966666666, "fusion_lat": 0.0, "name": "50e89adb0a1b28e417f3f192f13f4cbe", "is_disabled": 0, "is_reserved": 0, "bike_id": "50e89adb0a1b28e417f3f192f13f4cbe", "fusion_lon": 0.0, "type": "electric_scooter"}, {"rental_uris": {"ios": "https://dc.lft.to/lastmile_qr_scan", "android": "https://dc.lft.to/lastmile_qr_scan"}, "lat": 38.9215835, "lon": -77.03325333333333, "fusion_lat": 0.0, "name": "4dedc61780703116b5d11f4eacd74f79", "is_disabled": 0, "is_reserved": 0, "bike_id": "4dedc61780703116b5d11f4eacd74f79", "fusion_lon": 0.0, "type": "electric_scooter"}, {"rental_uris": {"ios": "https://dc.lft.to/lastmile_qr_scan", "android": "https://dc.lft.to/lastmile_qr_scan"}, "lat": 38.915643, "lon": -77.02204016666667, "fusion_lat": 0.0, "name": "229dcedad6c35e408ecbc5b51c0060c4", "is_disabled": 0, "is_reserved": 0, "bike_id": "229dcedad6c35e408ecbc5b51c0060c4", "fusion_lon": 0.0, "type": "electric_scooter"}, {"rental_uris": {"ios": "https://dc.lft.to/lastmile_qr_scan", "android": "https://dc.lft.to/lastmile_qr_scan"}, "lat": 38.923991, "lon": -77.0122025, "fusion_lat": 0.0, "name": "0c9f00e53a2cca898554840467afbbf9", "is_disabled": 0, "is_reserved": 0, "bike_id": "0c9f00e53a2cca898554840467afbbf9", "fusion_lon": 0.0, "type": "electric_scooter"}, {"rental_uris": {"ios": "https://dc.lft.to/lastmile_qr_scan", "android": "https://dc.lft.to/lastmile_qr_scan"}, "lat": 38.89699566666667, "lon": -77.02813016666667, "fusion_lat": 0.0, "name": "07aaba84ec641f56878b124a1306f2a7", "is_disabled": 0, "is_reserved": 0, "bike_id": "07aaba84ec641f56878b124a1306f2a7", "fusion_lon": 0.0, "type": "electric_scooter"}, {"rental_uris": {"ios": "https://dc.lft.to/lastmile_qr_scan", "android": "https://dc.lft.to/lastmile_qr_scan"}, "lat": 38.89650816666666, "lon": -77.0502145, "fusion_lat": 0.0, "name": "e776304becb2c9e56a79b2e1fd48552e", "is_disabled": 0, "is_reserved": 0, "bike_id": "e776304becb2c9e56a79b2e1fd48552e", "fusion_lon": 0.0, "type": "electric_scooter"}, {"rental_uris": {"ios": "https://dc.lft.to/lastmile_qr_scan", "android": "https://dc.lft.to/lastmile_qr_scan"}, "lat": 38.90600516666667, "lon": -77.04854266666666, "fusion_lat": 0.0, "name": "8780179f172455519e18a9e5a0809931", "is_disabled": 0, "is_reserved": 0, "bike_id": "8780179f172455519e18a9e5a0809931", "fusion_lon": 0.0, "type": "electric_scooter"}, {"rental_uris": {"ios": "https://dc.lft.to/lastmile_qr_scan", "android": "https://dc.lft.to/lastmile_qr_scan"}, "lat": 38.912239666666665, "lon": -77.02793383333334, "fusion_lat": 0.0, "name": "fd144dddaed9b68c9fa9bde751af7652", "is_disabled": 0, "is_reserved": 0, "bike_id": "fd144dddaed9b68c9fa9bde751af7652", "fusion_lon": 0.0, "type": "electric_scooter"}, {"rental_uris": {"ios": "https://dc.lft.to/lastmile_qr_scan", "android": "https://dc.lft.to/lastmile_qr_scan"}, "lat": 38.92228766666667, "lon": -77.04373483333333, "fusion_lat": 0.0, "name": "20426019cdcfb7dd027d410ea40dd0c1", "is_disabled": 0, "is_reserved": 0, "bike_id": "20426019cdcfb7dd027d410ea40dd0c1", "fusion_lon": 0.0, "type": "electric_scooter"}, {"rental_uris": {"ios": "https://dc.lft.to/lastmile_qr_scan", "android": "https://dc.lft.to/lastmile_qr_scan"}, "lat": 38.926383333333334, "lon": -77.0413415, "fusion_lat": 0.0, "name": "1c834b94fbd887f31af304f5afafa07f", "is_disabled": 0, "is_reserved": 0, "bike_id": "1c834b94fbd887f31af304f5afafa07f", "fusion_lon": 0.0, "type": "electric_scooter"}, {"rental_uris": {"ios": "https://dc.lft.to/lastmile_qr_scan", "android": "https://dc.lft.to/lastmile_qr_scan"}, "lat": 38.884596333333334, "lon": -77.00051733333333, "fusion_lat": 0.0, "name": "a0170a7297c9eab31e96dde514ca78d1", "is_disabled": 0, "is_reserved": 0, "bike_id": "a0170a7297c9eab31e96dde514ca78d1", "fusion_lon": 0.0, "type": "electric_scooter"}, {"rental_uris": {"ios": "https://dc.lft.to/lastmile_qr_scan", "android": "https://dc.lft.to/lastmile_qr_scan"}, "lat": 38.90000366666666, "lon": -77.02716133333334, "fusion_lat": 0.0, "name": "b9bfb59f7dc4d91c99847511cc66638d", "is_disabled": 0, "is_reserved": 0, "bike_id": "b9bfb59f7dc4d91c99847511cc66638d", "fusion_lon": 0.0, "type": "electric_scooter"}, {"rental_uris": {"ios": "https://dc.lft.to/lastmile_qr_scan", "android": "https://dc.lft.to/lastmile_qr_scan"}, "lat": 38.90302466666667, "lon": -77.0469315, "fusion_lat": 0.0, "name": "87679d6567486fac0251c8af70c435d1", "is_disabled": 0, "is_reserved": 0, "bike_id": "87679d6567486fac0251c8af70c435d1", "fusion_lon": 0.0, "type": "electric_scooter"}, {"rental_uris": {"ios": "https://dc.lft.to/lastmile_qr_scan", "android": "https://dc.lft.to/lastmile_qr_scan"}, "lat": 38.8986605, "lon": -77.01243133333334, "fusion_lat": 0.0, "name": "6130af5521031d8f8ff1f9628cbba1f3", "is_disabled": 0, "is_reserved": 0, "bike_id": "6130af5521031d8f8ff1f9628cbba1f3", "fusion_lon": 0.0, "type": "electric_scooter"}, {"rental_uris": {"ios": "https://dc.lft.to/lastmile_qr_scan", "android": "https://dc.lft.to/lastmile_qr_scan"}, "lat": 38.90110083333333, "lon": -77.008793, "fusion_lat": 0.0, "name": "fe82e941112c0914a4a4e180f5303d65", "is_disabled": 0, "is_reserved": 0, "bike_id": "fe82e941112c0914a4a4e180f5303d65", "fusion_lon": 0.0, "type": "electric_scooter"}, {"rental_uris": {"ios": "https://dc.lft.to/lastmile_qr_scan", "android": "https://dc.lft.to/lastmile_qr_scan"}, "lat": 38.90087466666667, "lon": -77.01221516666666, "fusion_lat": 0.0, "name": "8c23de3971de4075537eae0834eafeed", "is_disabled": 0, "is_reserved": 0, "bike_id": "8c23de3971de4075537eae0834eafeed", "fusion_lon": 0.0, "type": "electric_scooter"}, {"rental_uris": {"ios": "https://dc.lft.to/lastmile_qr_scan", "android": "https://dc.lft.to/lastmile_qr_scan"}, "lat": 38.929348833333336, "lon": -77.0164665, "fusion_lat": 0.0, "name": "cba206907932f4643d5887cba4bb55b4", "is_disabled": 0, "is_reserved": 0, "bike_id": "cba206907932f4643d5887cba4bb55b4", "fusion_lon": 0.0, "type": "electric_scooter"}, {"rental_uris": {"ios": "https://dc.lft.to/lastmile_qr_scan", "android": "https://dc.lft.to/lastmile_qr_scan"}, "lat": 38.8920335, "lon": -76.9771025, "fusion_lat": 0.0, "name": "e6f2c5d9bc3eeae6e8ce174d32b88951", "is_disabled": 0, "is_reserved": 0, "bike_id": "e6f2c5d9bc3eeae6e8ce174d32b88951", "fusion_lon": 0.0, "type": "electric_bike"}, {"rental_uris": {"ios": "https://dc.lft.to/lastmile_qr_scan", "android": "https://dc.lft.to/lastmile_qr_scan"}, "lat": 38.900102833333335, "lon": -77.0068475, "fusion_lat": 0.0, "name": "e8f6c09645bb948b7e9e1b87f20b3737", "is_disabled": 0, "is_reserved": 0, "bike_id": "e8f6c09645bb948b7e9e1b87f20b3737", "fusion_lon": 0.0, "type": "electric_scooter"}, {"rental_uris": {"ios": "https://dc.lft.to/lastmile_qr_scan", "android": "https://dc.lft.to/lastmile_qr_scan"}, "lat": 38.918752833333336, "lon": -77.024665, "fusion_lat": 0.0, "name": "2744b0fee0b23f9177629472eb01c9e3", "is_disabled": 0, "is_reserved": 0, "bike_id": "2744b0fee0b23f9177629472eb01c9e3", "fusion_lon": 0.0, "type": "electric_scooter"}, {"rental_uris": {"ios": "https://dc.lft.to/lastmile_qr_scan", "android": "https://dc.lft.to/lastmile_qr_scan"}, "lat": 38.89665883333333, "lon": -77.02805166666667, "fusion_lat": 0.0, "name": "b34f92ecab5b170a7b03306317830fab", "is_disabled": 0, "is_reserved": 0, "bike_id": "b34f92ecab5b170a7b03306317830fab", "fusion_lon": 0.0, "type": "electric_scooter"}, {"rental_uris": {"ios": "https://dc.lft.to/lastmile_qr_scan", "android": "https://dc.lft.to/lastmile_qr_scan"}, "lat": 38.880282333333334, "lon": -77.024991, "fusion_lat": 0.0, "name": "bcb1964e4afc05d31a8d55eab98856f5", "is_disabled": 0, "is_reserved": 0, "bike_id": "bcb1964e4afc05d31a8d55eab98856f5", "fusion_lon": 0.0, "type": "electric_scooter"}, {"rental_uris": {"ios": "https://dc.lft.to/lastmile_qr_scan", "android": "https://dc.lft.to/lastmile_qr_scan"}, "lat": 38.924660333333335, "lon": -77.03777883333333, "fusion_lat": 0.0, "name": "5faf5a8bee0994bb528d25d698f06289", "is_disabled": 0, "is_reserved": 0, "bike_id": "5faf5a8bee0994bb528d25d698f06289", "fusion_lon": 0.0, "type": "electric_scooter"}, {"rental_uris": {"ios": "https://dc.lft.to/lastmile_qr_scan", "android": "https://dc.lft.to/lastmile_qr_scan"}, "lat": 38.901303166666665, "lon": -77.0463445, "fusion_lat": 0.0, "name": "09bf7ebbce7081c1d5f4e911fbf8fbac", "is_disabled": 0, "is_reserved": 0, "bike_id": "09bf7ebbce7081c1d5f4e911fbf8fbac", "fusion_lon": 0.0, "type": "electric_scooter"}, {"rental_uris": {"ios": "https://dc.lft.to/lastmile_qr_scan", "android": "https://dc.lft.to/lastmile_qr_scan"}, "lat": 38.9285795, "lon": -77.037045, "fusion_lat": 0.0, "name": "665562527285da0aabce95969787c73b", "is_disabled": 0, "is_reserved": 0, "bike_id": "665562527285da0aabce95969787c73b", "fusion_lon": 0.0, "type": "electric_scooter"}, {"rental_uris": {"ios": "https://dc.lft.to/lastmile_qr_scan", "android": "https://dc.lft.to/lastmile_qr_scan"}, "lat": 38.900662833333335, "lon": -77.0506905, "fusion_lat": 0.0, "name": "21ef36a673417404799b962a86414fcb", "is_disabled": 0, "is_reserved": 0, "bike_id": "21ef36a673417404799b962a86414fcb", "fusion_lon": 0.0, "type": "electric_scooter"}, {"rental_uris": {"ios": "https://dc.lft.to/lastmile_qr_scan", "android": "https://dc.lft.to/lastmile_qr_scan"}, "lat": 38.87483433333333, "lon": -77.00252066666667, "fusion_lat": 0.0, "name": "f07bbb8f15fa4d649d0004aa2bd5b6fa", "is_disabled": 0, "is_reserved": 0, "bike_id": "f07bbb8f15fa4d649d0004aa2bd5b6fa", "fusion_lon": 0.0, "type": "electric_scooter"}, {"rental_uris": {"ios": "https://dc.lft.to/lastmile_qr_scan", "android": "https://dc.lft.to/lastmile_qr_scan"}, "lat": 38.906402166666666, "lon": -77.017924, "fusion_lat": 0.0, "name": "ce859588d3a1dc1329550013001a58aa", "is_disabled": 0, "is_reserved": 0, "bike_id": "ce859588d3a1dc1329550013001a58aa", "fusion_lon": 0.0, "type": "electric_scooter"}, {"rental_uris": {"ios": "https://dc.lft.to/lastmile_qr_scan", "android": "https://dc.lft.to/lastmile_qr_scan"}, "lat": 38.9282235, "lon": -77.02618333333334, "fusion_lat": 0.0, "name": "fd3f9dc9a6c72323bdfaf017cde5c1e4", "is_disabled": 0, "is_reserved": 0, "bike_id": "fd3f9dc9a6c72323bdfaf017cde5c1e4", "fusion_lon": 0.0, "type": "electric_scooter"}, {"rental_uris": {"ios": "https://dc.lft.to/lastmile_qr_scan", "android": "https://dc.lft.to/lastmile_qr_scan"}, "lat": 38.8839545, "lon": -76.9605325, "fusion_lat": 0.0, "name": "92b5d52e20a29bd8812dc4e2452e4cc2", "is_disabled": 0, "is_reserved": 0, "bike_id": "92b5d52e20a29bd8812dc4e2452e4cc2", "fusion_lon": 0.0, "type": "electric_bike"}, {"rental_uris": {"ios": "https://dc.lft.to/lastmile_qr_scan", "android": "https://dc.lft.to/lastmile_qr_scan"}, "lat": 38.911047833333335, "lon": -77.04470033333334, "fusion_lat": 0.0, "name": "72263a72794f883eaaebf7c3f4c191a4", "is_disabled": 0, "is_reserved": 0, "bike_id": "72263a72794f883eaaebf7c3f4c191a4", "fusion_lon": 0.0, "type": "electric_scooter"}, {"rental_uris": {"ios": "https://dc.lft.to/lastmile_qr_scan", "android": "https://dc.lft.to/lastmile_qr_scan"}, "lat": 38.85833616666667, "lon": -76.991632, "fusion_lat": 0.0, "name": "8f7298a97e256fbe3a2c7fe7d577ec53", "is_disabled": 0, "is_reserved": 0, "bike_id": "8f7298a97e256fbe3a2c7fe7d577ec53", "fusion_lon": 0.0, "type": "electric_scooter"}, {"rental_uris": {"ios": "https://dc.lft.to/lastmile_qr_scan", "android": "https://dc.lft.to/lastmile_qr_scan"}, "lat": 38.90187933333333, "lon": -77.05039016666667, "fusion_lat": 0.0, "name": "3928d714ec288f44ecc10a67a852dfed", "is_disabled": 0, "is_reserved": 0, "bike_id": "3928d714ec288f44ecc10a67a852dfed", "fusion_lon": 0.0, "type": "electric_scooter"}, {"rental_uris": {"ios": "https://dc.lft.to/lastmile_qr_scan", "android": "https://dc.lft.to/lastmile_qr_scan"}, "lat": 38.8899075, "lon": -77.04908383333333, "fusion_lat": 0.0, "name": "b63d86d3be72280ab8bcf84008bc91a0", "is_disabled": 0, "is_reserved": 0, "bike_id": "b63d86d3be72280ab8bcf84008bc91a0", "fusion_lon": 0.0, "type": "electric_scooter"}, {"rental_uris": {"ios": "https://dc.lft.to/lastmile_qr_scan", "android": "https://dc.lft.to/lastmile_qr_scan"}, "lat": 38.819671666666665, "lon": -76.99807516666667, "fusion_lat": 0.0, "name": "34bd96fe7fb3b1f6ac85b358ad5dc9cd", "is_disabled": 0, "is_reserved": 0, "bike_id": "34bd96fe7fb3b1f6ac85b358ad5dc9cd", "fusion_lon": 0.0, "type": "electric_bike"}, {"rental_uris": {"ios": "https://dc.lft.to/lastmile_qr_scan", "android": "https://dc.lft.to/lastmile_qr_scan"}, "lat": 38.918173, "lon": -77.0246735, "fusion_lat": 0.0, "name": "906f054174a1a6cda9e1df46f9c48edc", "is_disabled": 0, "is_reserved": 0, "bike_id": "906f054174a1a6cda9e1df46f9c48edc", "fusion_lon": 0.0, "type": "electric_scooter"}, {"rental_uris": {"ios": "https://dc.lft.to/lastmile_qr_scan", "android": "https://dc.lft.to/lastmile_qr_scan"}, "lat": 38.91415583333333, "lon": -77.02206033333333, "fusion_lat": 0.0, "name": "62818fab3ab20f304b84ae28846985e1", "is_disabled": 0, "is_reserved": 0, "bike_id": "62818fab3ab20f304b84ae28846985e1", "fusion_lon": 0.0, "type": "electric_scooter"}, {"rental_uris": {"ios": "https://dc.lft.to/lastmile_qr_scan", "android": "https://dc.lft.to/lastmile_qr_scan"}, "lat": 39.05777883333333, "lon": -77.15015616666666, "fusion_lat": 0.0, "name": "19185de2e91f46bd77cf29286567eecf", "is_disabled": 0, "is_reserved": 0, "bike_id": "19185de2e91f46bd77cf29286567eecf", "fusion_lon": 0.0, "type": "electric_bike"}, {"rental_uris": {"ios": "https://dc.lft.to/lastmile_qr_scan", "android": "https://dc.lft.to/lastmile_qr_scan"}, "lat": 38.926696, "lon": -77.01524466666666, "fusion_lat": 0.0, "name": "18b489fab1f4868c00f8ddce4203461a", "is_disabled": 0, "is_reserved": 0, "bike_id": "18b489fab1f4868c00f8ddce4203461a", "fusion_lon": 0.0, "type": "electric_scooter"}, {"rental_uris": {"ios": "https://dc.lft.to/lastmile_qr_scan", "android": "https://dc.lft.to/lastmile_qr_scan"}, "lat": 38.90805433333333, "lon": -76.98566983333333, "fusion_lat": 0.0, "name": "884e4d7bd899c110d80e942013352b75", "is_disabled": 0, "is_reserved": 0, "bike_id": "884e4d7bd899c110d80e942013352b75", "fusion_lon": 0.0, "type": "electric_scooter"}, {"rental_uris": {"ios": "https://dc.lft.to/lastmile_qr_scan", "android": "https://dc.lft.to/lastmile_qr_scan"}, "lat": 38.8948405, "lon": -76.9494985, "fusion_lat": 0.0, "name": "bebe2477fea100263e43f4a061ae1bfa", "is_disabled": 0, "is_reserved": 0, "bike_id": "bebe2477fea100263e43f4a061ae1bfa", "fusion_lon": 0.0, "type": "electric_scooter"}, {"rental_uris": {"ios": "https://dc.lft.to/lastmile_qr_scan", "android": "https://dc.lft.to/lastmile_qr_scan"}, "lat": 38.920653333333334, "lon": -77.03210316666667, "fusion_lat": 0.0, "name": "76e6b838712a7aac7d2b6c11c8bf50b8", "is_disabled": 0, "is_reserved": 0, "bike_id": "76e6b838712a7aac7d2b6c11c8bf50b8", "fusion_lon": 0.0, "type": "electric_scooter"}, {"rental_uris": {"ios": "https://dc.lft.to/lastmile_qr_scan", "android": "https://dc.lft.to/lastmile_qr_scan"}, "lat": 38.9209295, "lon": -77.03642016666667, "fusion_lat": 0.0, "name": "181a2f0697c0095552a1ce0971a3d951", "is_disabled": 0, "is_reserved": 0, "bike_id": "181a2f0697c0095552a1ce0971a3d951", "fusion_lon": 0.0, "type": "electric_bike"}, {"rental_uris": {"ios": "https://dc.lft.to/lastmile_qr_scan", "android": "https://dc.lft.to/lastmile_qr_scan"},