{"data": {"bikes": [{"is_disabled": 0, "fusion_lon": 0.0, "fusion_lat": 0.0, "lat": 38.9353555, "type": "electric_scooter", "lon": -77.02069716666666, "bike_id": "2e8f36737840b7336aefd59a7b6434d9", "rental_uris": {"android": "https://dc.lft.to/lastmile_qr_scan", "ios": "https://dc.lft.to/lastmile_qr_scan"}, "name": "2e8f36737840b7336aefd59a7b6434d9", "is_reserved": 0}, {"is_disabled": 0, "fusion_lon": 0.0, "fusion_lat": 0.0, "lat": 38.892557, "type": "electric_scooter", "lon": -77.04892883333333, "bike_id": "9f5e66a5aa892c8df62119be7401fe73", "rental_uris": {"android": "https://dc.lft.to/lastmile_qr_scan", "ios": "https://dc.lft.to/lastmile_qr_scan"}, "name": "9f5e66a5aa892c8df62119be7401fe73", "is_reserved": 0}, {"is_disabled": 0, "fusion_lon": 0.0, "fusion_lat": 0.0, "lat": 38.933273166666666, "type": "electric_scooter", "lon": -77.02934333333333, "bike_id": "f82ffa9de1f2efc9be23a7aa01f19064", "rental_uris": {"android": "https://dc.lft.to/lastmile_qr_scan", "ios": "https://dc.lft.to/lastmile_qr_scan"}, "name": "f82ffa9de1f2efc9be23a7aa01f19064", "is_reserved": 0}, {"is_disabled": 0, "fusion_lon": 0.0, "fusion_lat": 0.0, "lat": 38.942048666666665, "type": "electric_scooter", "lon": -77.02578233333334, "bike_id": "68deb95d8bd178fc12cd7277bf80019f", "rental_uris": {"android": "https://dc.lft.to/lastmile_qr_scan", "ios": "https://dc.lft.to/lastmile_qr_scan"}, "name": "68deb95d8bd178fc12cd7277bf80019f", "is_reserved": 0}, {"is_disabled": 0, "fusion_lon": 0.0, "fusion_lat": 0.0, "lat": 38.909945666666665, "type": "electric_scooter", "lon": -77.03215183333333, "bike_id": "8a66e60e424c4c4d640730301f71af23", "rental_uris": {"android": "https://dc.lft.to/lastmile_qr_scan", "ios": "https://dc.lft.to/lastmile_qr_scan"}, "name": "8a66e60e424c4c4d640730301f71af23", "is_reserved": 0}, {"is_disabled": 0, "fusion_lon": 0.0, "fusion_lat": 0.0, "lat": 38.90968616666667, "type": "electric_scooter", "lon": -77.0445555, "bike_id": "36764c8bb863d46bd0398da0b6eb427d", "rental_uris": {"android": "https://dc.lft.to/lastmile_qr_scan", "ios": "https://dc.lft.to/lastmile_qr_scan"}, "name": "36764c8bb863d46bd0398da0b6eb427d", "is_reserved": 0}, {"is_disabled": 0, "fusion_lon": 0.0, "fusion_lat": 0.0, "lat": 38.95216083333333, "type": "electric_scooter", "lon": -77.00343433333333, "bike_id": "f75ea11147702772cb572626d11d21a7", "rental_uris": {"android": "https://dc.lft.to/lastmile_qr_scan", "ios": "https://dc.lft.to/lastmile_qr_scan"}, "name": "f75ea11147702772cb572626d11d21a7", "is_reserved": 0}, {"is_disabled": 0, "fusion_lon": 0.0, "fusion_lat": 0.0, "lat": 38.96837033333333, "type": "electric_scooter", "lon": -77.01518416666667, "bike_id": "6ab7f735f54f6857ba41c78d8c5dae67", "rental_uris": {"android": "https://dc.lft.to/lastmile_qr_scan", "ios": "https://dc.lft.to/lastmile_qr_scan"}, "name": "6ab7f735f54f6857ba41c78d8c5dae67", "is_reserved": 0}, {"is_disabled": 0, "fusion_lon": 0.0, "fusion_lat": 0.0, "lat": 38.92896016666667, "type": "electric_scooter", "lon": -77.03263766666667, "bike_id": "0a24873b8f2deee1552ff122e690cdf7", "rental_uris": {"android": "https://dc.lft.to/lastmile_qr_scan", "ios": "https://dc.lft.to/lastmile_qr_scan"}, "name": "0a24873b8f2deee1552ff122e690cdf7", "is_reserved": 0}, {"is_disabled": 0, "fusion_lon": 0.0, "fusion_lat": 0.0, "lat": 38.914622333333334, "type": "electric_scooter", "lon": -76.9844525, "bike_id": "800c773e7eb763e4e1d9d717071bf3df", "rental_uris": {"android": "https://dc.lft.to/lastmile_qr_scan", "ios": "https://dc.lft.to/lastmile_qr_scan"}, "name": "800c773e7eb763e4e1d9d717071bf3df", "is_reserved": 0}, {"is_disabled": 0, "fusion_lon": 0.0, "fusion_lat": 0.0, "lat": 38.918049333333336, "type": "electric_scooter", "lon": -77.03437866666667, "bike_id": "dd24316bb0da37a26dde8d079aed9edd", "rental_uris": {"android": "https://dc.lft.to/lastmile_qr_scan", "ios": "https://dc.lft.to/lastmile_qr_scan"}, "name": "dd24316bb0da37a26dde8d079aed9edd", "is_reserved": 0}, {"is_disabled": 0, "fusion_lon": 0.0, "fusion_lat": 0.0, "lat": 38.92298533333334, "type": "electric_scooter", "lon": -77.04146283333333, "bike_id": "f2070278477dbc33a74b71a096c72f73", "rental_uris": {"android": "https://dc.lft.to/lastmile_qr_scan", "ios": "https://dc.lft.to/lastmile_qr_scan"}, "name": "f2070278477dbc33a74b71a096c72f73", "is_reserved": 0}, {"is_disabled": 0, "fusion_lon": 0.0, "fusion_lat": 0.0, "lat": 38.887557, "type": "electric_scooter", "lon": -77.00227866666667, "bike_id": "5d33473022ede0a2775b655292d52813", "rental_uris": {"android": "https://dc.lft.to/lastmile_qr_scan", "ios": "https://dc.lft.to/lastmile_qr_scan"}, "name": "5d33473022ede0a2775b655292d52813", "is_reserved": 0}, {"is_disabled": 0, "fusion_lon": 0.0, "fusion_lat": 0.0, "lat": 38.91734916666667, "type": "electric_scooter", "lon": -76.99180016666666, "bike_id": "82793122411d376e2a0de7f32aacc6a3", "rental_uris": {"android": "https://dc.lft.to/lastmile_qr_scan", "ios": "https://dc.lft.to/lastmile_qr_scan"}, "name": "82793122411d376e2a0de7f32aacc6a3", "is_reserved": 0}, {"is_disabled": 0, "fusion_lon": 0.0, "fusion_lat": 0.0, "lat": 38.92616666666667, "type": "electric_scooter", "lon": -76.98202033333334, "bike_id": "5517469f1ed2c68b22a182a1c4f761d5", "rental_uris": {"android": "https://dc.lft.to/lastmile_qr_scan", "ios": "https://dc.lft.to/lastmile_qr_scan"}, "name": "5517469f1ed2c68b22a182a1c4f761d5", "is_reserved": 0}, {"is_disabled": 0, "fusion_lon": 0.0, "fusion_lat": 0.0, "lat": 38.923462666666666, "type": "electric_scooter", "lon": -77.04020433333334, "bike_id": "832cc9ad17a1349ae5c6bb55008ddabf", "rental_uris": {"android": "https://dc.lft.to/lastmile_qr_scan", "ios": "https://dc.lft.to/lastmile_qr_scan"}, "name": "832cc9ad17a1349ae5c6bb55008ddabf", "is_reserved": 0}, {"is_disabled": 0, "fusion_lon": 0.0, "fusion_lat": 0.0, "lat": 38.875477833333335, "type": "electric_scooter", "lon": -77.004677, "bike_id": "3c4fbca0f66238fa9dc1d454c28ef878", "rental_uris": {"android": "https://dc.lft.to/lastmile_qr_scan", "ios": "https://dc.lft.to/lastmile_qr_scan"}, "name": "3c4fbca0f66238fa9dc1d454c28ef878", "is_reserved": 0}, {"is_disabled": 0, "fusion_lon": 0.0, "fusion_lat": 0.0, "lat": 38.970565666666666, "type": "electric_bike", "lon": -76.960572, "bike_id": "a06555943a7a4be2365db338972edb34", "rental_uris": {"android": "https://dc.lft.to/lastmile_qr_scan", "ios": "https://dc.lft.to/lastmile_qr_scan"}, "name": "a06555943a7a4be2365db338972edb34", "is_reserved": 0}, {"is_disabled": 0, "fusion_lon": 0.0, "fusion_lat": 0.0, "lat": 38.91121166666667, "type": "electric_scooter", "lon": -77.04362583333334, "bike_id": "70903c5b95c3a9b103433f6392b7f8ca", "rental_uris": {"android": "https://dc.lft.to/lastmile_qr_scan", "ios": "https://dc.lft.to/lastmile_qr_scan"}, "name": "70903c5b95c3a9b103433f6392b7f8ca", "is_reserved": 0}, {"is_disabled": 0, "fusion_lon": 0.0, "fusion_lat": 0.0, "lat": 38.90552383333333, "type": "electric_scooter", "lon": -77.04342266666667, "bike_id": "0958b88d5cea84ddc2c171002eb2c095", "rental_uris": {"android": "https://dc.lft.to/lastmile_qr_scan", "ios": "https://dc.lft.to/lastmile_qr_scan"}, "name": "0958b88d5cea84ddc2c171002eb2c095", "is_reserved": 0}, {"is_disabled": 0, "fusion_lon": 0.0, "fusion_lat": 0.0, "lat": 38.956651, "type": "electric_bike", "lon": -77.00232566666666, "bike_id": "0e9641d59e66943d4d7c8b392c3e5b9d", "rental_uris": {"android": "https://dc.lft.to/lastmile_qr_scan", "ios": "https://dc.lft.to/lastmile_qr_scan"}, "name": "0e9641d59e66943d4d7c8b392c3e5b9d", "is_reserved": 0}, {"is_disabled": 0, "fusion_lon": 0.0, "fusion_lat": 0.0, "lat": 38.90035, "type": "electric_scooter", "lon": -77.00212566666667, "bike_id": "93d1a922025f53a61c11f946ec03197f", "rental_uris": {"android": "https://dc.lft.to/lastmile_qr_scan", "ios": "https://dc.lft.to/lastmile_qr_scan"}, "name": "93d1a922025f53a61c11f946ec03197f", "is_reserved": 0}, {"is_disabled": 0, "fusion_lon": 0.0, "fusion_lat": 0.0, "lat": 38.89925483333333, "type": "electric_scooter", "lon": -76.991638, "bike_id": "324a70e3456f38bc3380d0fa2eaa9894", "rental_uris": {"android": "https://dc.lft.to/lastmile_qr_scan", "ios": "https://dc.lft.to/lastmile_qr_scan"}, "name": "324a70e3456f38bc3380d0fa2eaa9894", "is_reserved": 0}, {"is_disabled": 0, "fusion_lon": 0.0, "fusion_lat": 0.0, "lat": 38.918364333333336, "type": "electric_scooter", "lon": -77.03941366666666, "bike_id": "9a0ce1fd079b9b93cdece4840560819a", "rental_uris": {"android": "https://dc.lft.to/lastmile_qr_scan", "ios": "https://dc.lft.to/lastmile_qr_scan"}, "name": "9a0ce1fd079b9b93cdece4840560819a", "is_reserved": 0}, {"is_disabled": 0, "fusion_lon": 0.0, "fusion_lat": 0.0, "lat": 38.93669283333333, "type": "electric_bike", "lon": -76.9520855, "bike_id": "a55506ddf4e9f7dfac522fe745845ebf", "rental_uris": {"android": "https://dc.lft.to/lastmile_qr_scan", "ios": "https://dc.lft.to/lastmile_qr_scan"}, "name": "a55506ddf4e9f7dfac522fe745845ebf", "is_reserved": 0}, {"is_disabled": 0, "fusion_lon": 0.0, "fusion_lat": 0.0, "lat": 38.909688333333335, "type": "electric_scooter", "lon": -77.0462375, "bike_id": "ec4fb301726705ce5b4d9271fc852954", "rental_uris": {"android": "https://dc.lft.to/lastmile_qr_scan", "ios": "https://dc.lft.to/lastmile_qr_scan"}, "name": "ec4fb301726705ce5b4d9271fc852954", "is_reserved": 0}, {"is_disabled": 0, "fusion_lon": 0.0, "fusion_lat": 0.0, "lat": 38.958409833333334, "type": "electric_scooter", "lon": -77.07168116666666, "bike_id": "514519d84aee5221b7fc661c65ddc487", "rental_uris": {"android": "https://dc.lft.to/lastmile_qr_scan", "ios": "https://dc.lft.to/lastmile_qr_scan"}, "name": "514519d84aee5221b7fc661c65ddc487", "is_reserved": 0}, {"is_disabled": 0, "fusion_lon": 0.0, "fusion_lat": 0.0, "lat": 38.885272666666665, "type": "electric_scooter", "lon": -77.01724283333333, "bike_id": "6e94309d0e6a281efea0efade557858d", "rental_uris": {"android": "https://dc.lft.to/lastmile_qr_scan", "ios": "https://dc.lft.to/lastmile_qr_scan"}, "name": "6e94309d0e6a281efea0efade557858d", "is_reserved": 0}, {"is_disabled": 0, "fusion_lon": 0.0, "fusion_lat": 0.0, "lat": 38.93481933333333, "type": "electric_scooter", "lon": -77.0727325, "bike_id": "f80e8c206040d9502b384187cb7c0636", "rental_uris": {"android": "https://dc.lft.to/lastmile_qr_scan", "ios": "https://dc.lft.to/lastmile_qr_scan"}, "name": "f80e8c206040d9502b384187cb7c0636", "is_reserved": 0}, {"is_disabled": 0, "fusion_lon": 0.0, "fusion_lat": 0.0, "lat": 38.917807333333336, "type": "electric_scooter", "lon": -77.04333966666667, "bike_id": "864f36dd28817be47c553ec1207cae30", "rental_uris": {"android": "https://dc.lft.to/lastmile_qr_scan", "ios": "https://dc.lft.to/lastmile_qr_scan"}, "name": "864f36dd28817be47c553ec1207cae30", "is_reserved": 0}, {"is_disabled": 0, "fusion_lon": 0.0, "fusion_lat": 0.0, "lat": 38.917084333333335, "type": "electric_scooter", "lon": -77.051299, "bike_id": "8ad9f299c9925dfafbf48f7ff6bb39e7", "rental_uris": {"android": "https://dc.lft.to/lastmile_qr_scan", "ios": "https://dc.lft.to/lastmile_qr_scan"}, "name": "8ad9f299c9925dfafbf48f7ff6bb39e7", "is_reserved": 0}, {"is_disabled": 0, "fusion_lon": 0.0, "fusion_lat": 0.0, "lat": 38.90646916666667, "type": "electric_scooter", "lon": -77.00590683333333, "bike_id": "036104f99f39dcb3199dab49aa6a36ae", "rental_uris": {"android": "https://dc.lft.to/lastmile_qr_scan", "ios": "https://dc.lft.to/lastmile_qr_scan"}, "name": "036104f99f39dcb3199dab49aa6a36ae", "is_reserved": 0}, {"is_disabled": 0, "fusion_lon": 0.0, "fusion_lat": 0.0, "lat": 39.03884083333333, "type": "electric_bike", "lon": -77.10912516666667, "bike_id": "3e11ec656601f6fb8453fb9f8d495111", "rental_uris": {"android": "https://dc.lft.to/lastmile_qr_scan", "ios": "https://dc.lft.to/lastmile_qr_scan"}, "name": "3e11ec656601f6fb8453fb9f8d495111", "is_reserved": 0}, {"is_disabled": 0, "fusion_lon": 0.0, "fusion_lat": 0.0, "lat": 38.9198615, "type": "electric_scooter", "lon": -77.03274066666667, "bike_id": "b332055363b4f3c68d155254879c8611", "rental_uris": {"android": "https://dc.lft.to/lastmile_qr_scan", "ios": "https://dc.lft.to/lastmile_qr_scan"}, "name": "b332055363b4f3c68d155254879c8611", "is_reserved": 0}, {"is_disabled": 0, "fusion_lon": 0.0, "fusion_lat": 0.0, "lat": 38.885822, "type": "electric_scooter", "lon": -76.91908083333334, "bike_id": "31794324098c61613d4a8df4e6b4de3c", "rental_uris": {"android": "https://dc.lft.to/lastmile_qr_scan", "ios": "https://dc.lft.to/lastmile_qr_scan"}, "name": "31794324098c61613d4a8df4e6b4de3c", "is_reserved": 0}, {"is_disabled": 0, "fusion_lon": 0.0, "fusion_lat": 0.0, "lat": 38.992693, "type": "electric_scooter", "lon": -77.03613116666666, "bike_id": "a424480c3a45a981a09fe263052ca772", "rental_uris": {"android": "https://dc.lft.to/lastmile_qr_scan", "ios": "https://dc.lft.to/lastmile_qr_scan"}, "name": "a424480c3a45a981a09fe263052ca772", "is_reserved": 0}, {"is_disabled": 0, "fusion_lon": 0.0, "fusion_lat": 0.0, "lat": 38.9037715, "type": "electric_scooter", "lon": -77.03982783333333, "bike_id": "5e952b4725a2ef142e8b2fa4bbb16663", "rental_uris": {"android": "https://dc.lft.to/lastmile_qr_scan", "ios": "https://dc.lft.to/lastmile_qr_scan"}, "name": "5e952b4725a2ef142e8b2fa4bbb16663", "is_reserved": 0}, {"is_disabled": 0, "fusion_lon": 0.0, "fusion_lat": 0.0, "lat": 38.92002466666667, "type": "electric_scooter", "lon": -77.03223366666667, "bike_id": "52aa8fe6df850c1a62c5068fa96576ed", "rental_uris": {"android": "https://dc.lft.to/lastmile_qr_scan", "ios": "https://dc.lft.to/lastmile_qr_scan"}, "name": "52aa8fe6df850c1a62c5068fa96576ed", "is_reserved": 0}, {"is_disabled": 0, "fusion_lon": 0.0, "fusion_lat": 0.0, "lat": 38.90724733333333, "type": "electric_scooter", "lon": -77.00249766666667, "bike_id": "de71b24ca7c87bf63572fb8f41d9d111", "rental_uris": {"android": "https://dc.lft.to/lastmile_qr_scan", "ios": "https://dc.lft.to/lastmile_qr_scan"}, "name": "de71b24ca7c87bf63572fb8f41d9d111", "is_reserved": 0}, {"is_disabled": 0, "fusion_lon": 0.0, "fusion_lat": 0.0, "lat": 38.904423, "type": "electric_scooter", "lon": -77.06119066666666, "bike_id": "f652837db0875a1cdc40731d4c3e44d4", "rental_uris": {"android": "https://dc.lft.to/lastmile_qr_scan", "ios": "https://dc.lft.to/lastmile_qr_scan"}, "name": "f652837db0875a1cdc40731d4c3e44d4", "is_reserved": 0}, {"is_disabled": 0, "fusion_lon": 0.0, "fusion_lat": 0.0, "lat": 38.9325185, "type": "electric_scooter", "lon": -77.04016816666666, "bike_id": "49ee761ddf9160e196ec28ba694b91b7", "rental_uris": {"android": "https://dc.lft.to/lastmile_qr_scan", "ios": "https://dc.lft.to/lastmile_qr_scan"}, "name": "49ee761ddf9160e196ec28ba694b91b7", "is_reserved": 0}, {"is_disabled": 0, "fusion_lon": 0.0, "fusion_lat": 0.0, "lat": 38.92307366666667, "type": "electric_scooter", "lon": -77.03111683333333, "bike_id": "f3751fafd975c8cecb08f238d71ec42c", "rental_uris": {"android": "https://dc.lft.to/lastmile_qr_scan", "ios": "https://dc.lft.to/lastmile_qr_scan"}, "name": "f3751fafd975c8cecb08f238d71ec42c", "is_reserved": 0}, {"is_disabled": 0, "fusion_lon": 0.0, "fusion_lat": 0.0, "lat": 38.96563316666666, "type": "electric_bike", "lon": -77.02306333333334, "bike_id": "11204fc2d4f3fb3c09cb92e0ac980afb", "rental_uris": {"android": "https://dc.lft.to/lastmile_qr_scan", "ios": "https://dc.lft.to/lastmile_qr_scan"}, "name": "11204fc2d4f3fb3c09cb92e0ac980afb", "is_reserved": 0}, {"is_disabled": 0, "fusion_lon": 0.0, "fusion_lat": 0.0, "lat": 38.905295833333334, "type": "electric_scooter", "lon": -77.038746, "bike_id": "e7b1aab9c769a2cade4a6e3c961d4335", "rental_uris": {"android": "https://dc.lft.to/lastmile_qr_scan", "ios": "https://dc.lft.to/lastmile_qr_scan"}, "name": "e7b1aab9c769a2cade4a6e3c961d4335", "is_reserved": 0}, {"is_disabled": 0, "fusion_lon": 0.0, "fusion_lat": 0.0, "lat": 38.91548983333333, "type": "electric_scooter", "lon": -77.03883066666667, "bike_id": "f502e14b5d18f3b88de59b648053a1be", "rental_uris": {"android": "https://dc.lft.to/lastmile_qr_scan", "ios": "https://dc.lft.to/lastmile_qr_scan"}, "name": "f502e14b5d18f3b88de59b648053a1be", "is_reserved": 0}, {"is_disabled": 0, "fusion_lon": 0.0, "fusion_lat": 0.0, "lat": 38.907311666666665, "type": "electric_scooter", "lon": -77.04152183333333, "bike_id": "33053320da1ba7351eaeb65d477c544e", "rental_uris": {"android": "https://dc.lft.to/lastmile_qr_scan", "ios": "https://dc.lft.to/lastmile_qr_scan"}, "name": "33053320da1ba7351eaeb65d477c544e", "is_reserved": 0}, {"is_disabled": 0, "fusion_lon": 0.0, "fusion_lat": 0.0, "lat": 38.9231675, "type": "electric_scooter", "lon": -77.041285, "bike_id": "f766775dfe89d9fdd12a5d5d7a72b7d7", "rental_uris": {"android": "https://dc.lft.to/lastmile_qr_scan", "ios": "https://dc.lft.to/lastmile_qr_scan"}, "name": "f766775dfe89d9fdd12a5d5d7a72b7d7", "is_reserved": 0}, {"is_disabled": 0, "fusion_lon": 0.0, "fusion_lat": 0.0, "lat": 38.920483, "type": "electric_scooter", "lon": -77.0257505, "bike_id": "3ed8cab830a6a549996921ca53da043b", "rental_uris": {"android": "https://dc.lft.to/lastmile_qr_scan", "ios": "https://dc.lft.to/lastmile_qr_scan"}, "name": "3ed8cab830a6a549996921ca53da043b", "is_reserved": 0}, {"is_disabled": 0, "fusion_lon": 0.0, "fusion_lat": 0.0, "lat": 38.9237235, "type": "electric_scooter", "lon": -77.05025483333333, "bike_id": "292f4d788461773e7c0fc7b7bbd0a0fa", "rental_uris": {"android": "https://dc.lft.to/lastmile_qr_scan", "ios": "https://dc.lft.to/lastmile_qr_scan"}, "name": "292f4d788461773e7c0fc7b7bbd0a0fa", "is_reserved": 0}, {"is_disabled": 0, "fusion_lon": 0.0, "fusion_lat": 0.0, "lat": 38.918967333333335, "type": "electric_scooter", "lon": -77.044661, "bike_id": "101842874ff556a3aad1323c9594f82e", "rental_uris": {"android": "https://dc.lft.to/lastmile_qr_scan", "ios": "https://dc.lft.to/lastmile_qr_scan"}, "name": "101842874ff556a3aad1323c9594f82e", "is_reserved": 0}, {"is_disabled": 0, "fusion_lon": 0.0, "fusion_lat": 0.0, "lat": 38.929693666666665, "type": "electric_scooter", "lon": -77.03658533333333, "bike_id": "4d9ddf47cc9b8e38485226e0b12053c8", "rental_uris": {"android": "https://dc.lft.to/lastmile_qr_scan", "ios": "https://dc.lft.to/lastmile_qr_scan"}, "name": "4d9ddf47cc9b8e38485226e0b12053c8", "is_reserved": 0}, {"is_disabled": 0, "fusion_lon": 0.0, "fusion_lat": 0.0, "lat": 38.90091416666667, "type": "electric_scooter", "lon": -77.0477865, "bike_id": "ae2bef122f07093d3b0ada12fad54606", "rental_uris": {"android": "https://dc.lft.to/lastmile_qr_scan", "ios": "https://dc.lft.to/lastmile_qr_scan"}, "name": "ae2bef122f07093d3b0ada12fad54606", "is_reserved": 0}, {"is_disabled": 0, "fusion_lon": 0.0, "fusion_lat": 0.0, "lat": 38.875011666666666, "type": "electric_scooter", "lon": -77.0017305, "bike_id": "dbb96a4ec76256c20f2ac00760654d15", "rental_uris": {"android": "https://dc.lft.to/lastmile_qr_scan", "ios": "https://dc.lft.to/lastmile_qr_scan"}, "name": "dbb96a4ec76256c20f2ac00760654d15", "is_reserved": 0}, {"is_disabled": 0, "fusion_lon": 0.0, "fusion_lat": 0.0, "lat": 38.894788, "type": "electric_scooter", "lon": -76.93305566666666, "bike_id": "9546b821895963e72aeedeb9d49fd11b", "rental_uris": {"android": "https://dc.lft.to/lastmile_qr_scan", "ios": "https://dc.lft.to/lastmile_qr_scan"}, "name": "9546b821895963e72aeedeb9d49fd11b", "is_reserved": 0}, {"is_disabled": 0, "fusion_lon": 0.0, "fusion_lat": 0.0, "lat": 38.884236666666666, "type": "electric_scooter", "lon": -77.01981033333334, "bike_id": "666f0e0640d6976425e4153de1c05e2f", "rental_uris": {"android": "https://dc.lft.to/lastmile_qr_scan", "ios": "https://dc.lft.to/lastmile_qr_scan"}, "name": "666f0e0640d6976425e4153de1c05e2f", "is_reserved": 0}, {"is_disabled": 0, "fusion_lon": 0.0, "fusion_lat": 0.0, "lat": 38.900257833333335, "type": "electric_scooter", "lon": -77.00705, "bike_id": "baadd599649bed8c5bd66e5e6a176b79", "rental_uris": {"android": "https://dc.lft.to/lastmile_qr_scan", "ios": "https://dc.lft.to/lastmile_qr_scan"}, "name": "baadd599649bed8c5bd66e5e6a176b79", "is_reserved": 0}, {"is_disabled": 0, "fusion_lon": 0.0, "fusion_lat": 0.0, "lat": 38.89795383333333, "type": "electric_scooter", "lon": -77.0121485, "bike_id": "0439811c0146b626d924b4883a4875e2", "rental_uris": {"android": "https://dc.lft.to/lastmile_qr_scan", "ios": "https://dc.lft.to/lastmile_qr_scan"}, "name": "0439811c0146b626d924b4883a4875e2", "is_reserved": 0}, {"is_disabled": 0, "fusion_lon": 0.0, "fusion_lat": 0.0, "lat": 38.912806, "type": "electric_scooter", "lon": -77.04174, "bike_id": "21bc8b24e82f91ccaa0c745456d57b97", "rental_uris": {"android": "https://dc.lft.to/lastmile_qr_scan", "ios": "https://dc.lft.to/lastmile_qr_scan"}, "name": "21bc8b24e82f91ccaa0c745456d57b97", "is_reserved": 0}, {"is_disabled": 0, "fusion_lon": 0.0, "fusion_lat": 0.0, "lat": 38.8789945, "type": "electric_scooter", "lon": -76.935266, "bike_id": "2e794f79451bcb763d885f67caff7612", "rental_uris": {"android": "https://dc.lft.to/lastmile_qr_scan", "ios": "https://dc.lft.to/lastmile_qr_scan"}, "name": "2e794f79451bcb763d885f67caff7612", "is_reserved": 0}, {"is_disabled": 0, "fusion_lon": 0.0, "fusion_lat": 0.0, "lat": 38.80791716666667, "type": "electric_bike", "lon": -77.13838333333334, "bike_id": "401e9a8954c084410543bb93a76f8441", "rental_uris": {"android": "https://dc.lft.to/lastmile_qr_scan", "ios": "https://dc.lft.to/lastmile_qr_scan"}, "name": "401e9a8954c084410543bb93a76f8441", "is_reserved": 0}, {"is_disabled": 0, "fusion_lon": 0.0, "fusion_lat": 0.0, "lat": 38.94306533333334, "type": "electric_scooter", "lon": -77.02528316666667, "bike_id": "ac889a4d03cd65ef89e7bf30adbb279c", "rental_uris": {"android": "https://dc.lft.to/lastmile_qr_scan", "ios": "https://dc.lft.to/lastmile_qr_scan"}, "name": "ac889a4d03cd65ef89e7bf30adbb279c", "is_reserved": 0}, {"is_disabled": 0, "fusion_lon": 0.0, "fusion_lat": 0.0, "lat": 38.902217666666665, "type": "electric_scooter", "lon": -77.02850866666667, "bike_id": "33dc65a6e1157a323f29cc183f6e6a76", "rental_uris": {"android": "https://dc.lft.to/lastmile_qr_scan", "ios": "https://dc.lft.to/lastmile_qr_scan"}, "name": "33dc65a6e1157a323f29cc183f6e6a76", "is_reserved": 0}, {"is_disabled": 0, "fusion_lon": 0.0, "fusion_lat": 0.0, "lat": 38.9053065, "type": "electric_scooter", "lon": -77.05765666666667, "bike_id": "89329ac21298a1c78e1ce7686027f1b2", "rental_uris": {"android": "https://dc.lft.to/lastmile_qr_scan", "ios": "https://dc.lft.to/lastmile_qr_scan"}, "name": "89329ac21298a1c78e1ce7686027f1b2", "is_reserved": 0}, {"is_disabled": 0, "fusion_lon": 0.0, "fusion_lat": 0.0, "lat": 38.9003685, "type": "electric_scooter", "lon": -77.00205283333334, "bike_id": "bdbf3ad886129d550492a8d8fed4656b", "rental_uris": {"android": "https://dc.lft.to/lastmile_qr_scan", "ios": "https://dc.lft.to/lastmile_qr_scan"}, "name": "bdbf3ad886129d550492a8d8fed4656b", "is_reserved": 0}, {"is_disabled": 0, "fusion_lon": 0.0, "fusion_lat": 0.0, "lat": 38.94470883333334, "type": "electric_bike", "lon": -77.043395, "bike_id": "33feeb01cb819735ce64234406506b2e", "rental_uris": {"android": "https://dc.lft.to/lastmile_qr_scan", "ios": "https://dc.lft.to/lastmile_qr_scan"}, "name": "33feeb01cb819735ce64234406506b2e", "is_reserved": 0}, {"is_disabled": 0, "fusion_lon": 0.0, "fusion_lat": 0.0, "lat": 38.89684466666667, "type": "electric_scooter", "lon": -77.00495916666667, "bike_id": "3046c26f73cf1d1046d4430b200b0eff", "rental_uris": {"android": "https://dc.lft.to/lastmile_qr_scan", "ios": "https://dc.lft.to/lastmile_qr_scan"}, "name": "3046c26f73cf1d1046d4430b200b0eff", "is_reserved": 0}, {"is_disabled": 0, "fusion_lon": 0.0, "fusion_lat": 0.0, "lat": 38.9351015, "type": "electric_bike", "lon": -76.94955216666666, "bike_id": "7cc9c3c9247b958e987176dfe3a480d6", "rental_uris": {"android": "https://dc.lft.to/lastmile_qr_scan", "ios": "https://dc.lft.to/lastmile_qr_scan"}, "name": "7cc9c3c9247b958e987176dfe3a480d6", "is_reserved": 0}, {"is_disabled": 0, "fusion_lon": 0.0, "fusion_lat": 0.0, "lat": 38.966236333333335, "type": "electric_bike", "lon": -77.03436333333333, "bike_id": "237654c3bc40e0b2e56ff1b7e46b1812", "rental_uris": {"android": "https://dc.lft.to/lastmile_qr_scan", "ios": "https://dc.lft.to/lastmile_qr_scan"}, "name": "237654c3bc40e0b2e56ff1b7e46b1812", "is_reserved": 0}, {"is_disabled": 0, "fusion_lon": 0.0, "fusion_lat": 0.0, "lat": 38.900592833333334, "type": "electric_bike", "lon": -76.98822133333333, "bike_id": "25b21ec26ab5f9e44a03bc4ebacda3bf", "rental_uris": {"android": "https://dc.lft.to/lastmile_qr_scan", "ios": "https://dc.lft.to/lastmile_qr_scan"}, "name": "25b21ec26ab5f9e44a03bc4ebacda3bf", "is_reserved": 0}, {"is_disabled": 0, "fusion_lon": 0.0, "fusion_lat": 0.0, "lat": 38.90509266666667, "type": "electric_scooter", "lon": -77.05031333333334, "bike_id": "7424c3726fc7bddbe037bea124ef8515", "rental_uris": {"android": "https://dc.lft.to/lastmile_qr_scan", "ios": "https://dc.lft.to/lastmile_qr_scan"}, "name": "7424c3726fc7bddbe037bea124ef8515", "is_reserved": 0}, {"is_disabled": 0, "fusion_lon": 0.0, "fusion_lat": 0.0, "lat": 39.099484833333335, "type": "electric_bike", "lon": -77.18792383333333, "bike_id": "5a2b961d2bacbfddfbb96e1c9e77d583", "rental_uris": {"android": "https://dc.lft.to/lastmile_qr_scan", "ios": "https://dc.lft.to/lastmile_qr_scan"}, "name": "5a2b961d2bacbfddfbb96e1c9e77d583", "is_reserved": 0}, {"is_disabled": 0, "fusion_lon": 0.0, "fusion_lat": 0.0, "lat": 38.90800633333333, "type": "electric_scooter", "lon": -77.0498265, "bike_id": "261a7030b87a0d274ce34a0b1c60778c", "rental_uris": {"android": "https://dc.lft.to/lastmile_qr_scan", "ios": "https://dc.lft.to/lastmile_qr_scan"}, "name": "261a7030b87a0d274ce34a0b1c60778c", "is_reserved": 0}, {"is_disabled": 0, "fusion_lon": 0.0, "fusion_lat": 0.0, "lat": 38.91759366666667, "type": "electric_scooter", "lon": -77.02590016666667, "bike_id": "7fee82a86446d69700dbac6abe4660b2", "rental_uris": {"android": "https://dc.lft.to/lastmile_qr_scan", "ios": "https://dc.lft.to/lastmile_qr_scan"}, "name": "7fee82a86446d69700dbac6abe4660b2", "is_reserved": 0}, {"is_disabled": 0, "fusion_lon": 0.0, "fusion_lat": 0.0, "lat": 38.8381555, "type": "electric_scooter", "lon": -77.004336, "bike_id": "40ba55d58f7593e28afa84a2edbe4e0f", "rental_uris": {"android": "https://dc.lft.to/lastmile_qr_scan", "ios": "https://dc.lft.to/lastmile_qr_scan"}, "name": "40ba55d58f7593e28afa84a2edbe4e0f", "is_reserved": 0}, {"is_disabled": 0, "fusion_lon": 0.0, "fusion_lat": 0.0, "lat": 38.92807833333333, "type": "electric_scooter", "lon": -77.05429883333333, "bike_id": "26adead8eb141c3697649b93d37437f0", "rental_uris": {"android": "https://dc.lft.to/lastmile_qr_scan", "ios": "https://dc.lft.to/lastmile_qr_scan"}, "name": "26adead8eb141c3697649b93d37437f0", "is_reserved": 0}, {"is_disabled": 0, "fusion_lon": 0.0, "fusion_lat": 0.0, "lat": 38.924853, "type": "electric_scooter", "lon": -77.03487433333333, "bike_id": "649e6abf166eae9619d5e3519f715b2b", "rental_uris": {"android": "https://dc.lft.to/lastmile_qr_scan", "ios": "https://dc.lft.to/lastmile_qr_scan"}, "name": "649e6abf166eae9619d5e3519f715b2b", "is_reserved": 0}, {"is_disabled": 0, "fusion_lon": 0.0, "fusion_lat": 0.0, "lat": 38.895276333333335, "type": "electric_scooter", "lon": -77.003365, "bike_id": "af7229d85253f27809765d45834bd95c", "rental_uris": {"android": "https://dc.lft.to/lastmile_qr_scan", "ios": "https://dc.lft.to/lastmile_qr_scan"}, "name": "af7229d85253f27809765d45834bd95c", "is_reserved": 0}, {"is_disabled": 0, "fusion_lon": 0.0, "fusion_lat": 0.0, "lat": 38.897166666666664, "type": "electric_scooter", "lon": -77.02159933333333, "bike_id": "a17d88b14389b91dcbb48486abcf31e2", "rental_uris": {"android": "https://dc.lft.to/lastmile_qr_scan", "ios": "https://dc.lft.to/lastmile_qr_scan"}, "name": "a17d88b14389b91dcbb48486abcf31e2", "is_reserved": 0}, {"is_disabled": 0, "fusion_lon": 0.0, "fusion_lat": 0.0, "lat": 38.8737755, "type": "electric_scooter", "lon": -77.00096116666667, "bike_id": "23c2933cac4ae70d40fad7c19cf66dfe", "rental_uris": {"android": "https://dc.lft.to/lastmile_qr_scan", "ios": "https://dc.lft.to/lastmile_qr_scan"}, "name": "23c2933cac4ae70d40fad7c19cf66dfe", "is_reserved": 0}, {"is_disabled": 0, "fusion_lon": 0.0, "fusion_lat": 0.0, "lat": 38.9107245, "type": "electric_scooter", "lon": -77.04380466666667, "bike_id": "72b8cb4fde772b6b809dac7acf0aae6c", "rental_uris": {"android": "https://dc.lft.to/lastmile_qr_scan", "ios": "https://dc.lft.to/lastmile_qr_scan"}, "name": "72b8cb4fde772b6b809dac7acf0aae6c", "is_reserved": 0}, {"is_disabled": 0, "fusion_lon": 0.0, "fusion_lat": 0.0, "lat": 38.9029375, "type": "electric_scooter", "lon": -77.036772, "bike_id": "4dca954a1a620040e6783d23aaf7689b", "rental_uris": {"android": "https://dc.lft.to/lastmile_qr_scan", "ios": "https://dc.lft.to/lastmile_qr_scan"}, "name": "4dca954a1a620040e6783d23aaf7689b", "is_reserved": 0}, {"is_disabled": 0, "fusion_lon": 0.0, "fusion_lat": 0.0, "lat": 38.9097245, "type": "electric_scooter", "lon": -77.0313675, "bike_id": "5866f6c4369f18a2c6c5dbb791a2839f", "rental_uris": {"android": "https://dc.lft.to/lastmile_qr_scan", "ios": "https://dc.lft.to/lastmile_qr_scan"}, "name": "5866f6c4369f18a2c6c5dbb791a2839f", "is_reserved": 0}, {"is_disabled": 0, "fusion_lon": 0.0, "fusion_lat": 0.0, "lat": 38.89547533333333, "type": "electric_scooter", "lon": -76.94934883333333, "bike_id": "19b3c879910bff1d6b0176ae059efbed", "rental_uris": {"android": "https://dc.lft.to/lastmile_qr_scan", "ios": "https://dc.lft.to/lastmile_qr_scan"}, "name": "19b3c879910bff1d6b0176ae059efbed", "is_reserved": 0}, {"is_disabled": 0, "fusion_lon": 0.0, "fusion_lat": 0.0, "lat": 38.910652666666664, "type": "electric_scooter", "lon": -77.0426305, "bike_id": "87998f685417574da8890ecc60052bdb", "rental_uris": {"android": "https://dc.lft.to/lastmile_qr_scan", "ios": "https://dc.lft.to/lastmile_qr_scan"}, "name": "87998f685417574da8890ecc60052bdb", "is_reserved": 0}, {"is_disabled": 0, "fusion_lon": 0.0, "fusion_lat": 0.0, "lat": 38.936415833333335, "type": "electric_scooter", "lon": -77.02700616666667, "bike_id": "be2121bb5e6e47bedb4d7200a5e9ba49", "rental_uris": {"android": "https://dc.lft.to/lastmile_qr_scan", "ios": "https://dc.lft.to/lastmile_qr_scan"}, "name": "be2121bb5e6e47bedb4d7200a5e9ba49", "is_reserved": 0}, {"is_disabled": 0, "fusion_lon": 0.0, "fusion_lat": 0.0, "lat": 38.90754366666667, "type": "electric_scooter", "lon": -77.041514, "bike_id": "e9a1a9dadce4f8dcc71891d13a313c02", "rental_uris": {"android": "https://dc.lft.to/lastmile_qr_scan", "ios": "https://dc.lft.to/lastmile_qr_scan"}, "name": "e9a1a9dadce4f8dcc71891d13a313c02", "is_reserved": 0}, {"is_disabled": 0, "fusion_lon": 0.0, "fusion_lat": 0.0, "lat": 38.906498166666665, "type": "electric_scooter", "lon": -77.02948966666666, "bike_id": "9c9f8a0455d69d60d7bf35c8b4ddb6eb", "rental_uris": {"android": "https://dc.lft.to/lastmile_qr_scan", "ios": "https://dc.lft.to/lastmile_qr_scan"}, "name": "9c9f8a0455d69d60d7bf35c8b4ddb6eb", "is_reserved": 0}, {"is_disabled": 0, "fusion_lon": 0.0, "fusion_lat": 0.0, "lat": 38.924606, "type": "electric_bike", "lon": -76.99950833333334, "bike_id": "2fd5b6280d737d04470c4646bcedbd72", "rental_uris": {"android": "https://dc.lft.to/lastmile_qr_scan", "ios": "https://dc.lft.to/lastmile_qr_scan"}, "name": "2fd5b6280d737d04470c4646bcedbd72", "is_reserved": 0}, {"is_disabled": 0, "fusion_lon": 0.0, "fusion_lat": 0.0, "lat": 38.901900833333336, "type": "electric_scooter", "lon": -77.05269933333334, "bike_id": "0419077c987d9790cadd92cb0d59051c", "rental_uris": {"android": "https://dc.lft.to/lastmile_qr_scan", "ios": "https://dc.lft.to/lastmile_qr_scan"}, "name": "0419077c987d9790cadd92cb0d59051c", "is_reserved": 0}, {"is_disabled": 0, "fusion_lon": 0.0, "fusion_lat": 0.0, "lat": 38.90533516666667, "type": "electric_scooter", "lon": -77.02135916666667, "bike_id": "13b68398812aea73b82f1d2c9c9c37b7", "rental_uris": {"android": "https://dc.lft.to/lastmile_qr_scan", "ios": "https://dc.lft.to/lastmile_qr_scan"}, "name": "13b68398812aea73b82f1d2c9c9c37b7", "is_reserved": 0}, {"is_disabled": 0, "fusion_lon": 0.0, "fusion_lat": 0.0, "lat": 38.905700833333334, "type": "electric_scooter", "lon": -77.04347733333333, "bike_id": "53cbbf7f54c05b5bea06120733389b6c", "rental_uris": {"android": "https://dc.lft.to/lastmile_qr_scan", "ios": "https://dc.lft.to/lastmile_qr_scan"}, "name": "53cbbf7f54c05b5bea06120733389b6c", "is_reserved": 0}, {"is_disabled": 0, "fusion_lon": 0.0, "fusion_lat": 0.0, "lat": 38.914797666666665, "type": "electric_scooter", "lon": -77.042919, "bike_id": "d4c0b5c6fbbf4ba900e598b5c10ba4a9", "rental_uris": {"android": "https://dc.lft.to/lastmile_qr_scan", "ios": "https://dc.lft.to/lastmile_qr_scan"}, "name": "d4c0b5c6fbbf4ba900e598b5c10ba4a9", "is_reserved": 0}, {"is_disabled": 0, "fusion_lon": 0.0, "fusion_lat": 0.0, "lat": 38.922336333333334, "type": "electric_scooter", "lon": -77.02334616666667, "bike_id": "751acf6bd76c63d052ea1e32427e5b4a", "rental_uris": {"android": "https://dc.lft.to/lastmile_qr_scan", "ios": "https://dc.lft.to/lastmile_qr_scan"}, "name": "751acf6bd76c63d052ea1e32427e5b4a", "is_reserved": 0}, {"is_disabled": 0, "fusion_lon": 0.0, "fusion_lat": 0.0, "lat": 38.952323, "type": "electric_scooter", "lon": -77.02763666666667, "bike_id": "34c6a3459531503ad3e4b7d1abbdeca0", "rental_uris": {"android": "https://dc.lft.to/lastmile_qr_scan", "ios": "https://dc.lft.to/lastmile_qr_scan"}, "name": "34c6a3459531503ad3e4b7d1abbdeca0", "is_reserved": 0}, {"is_disabled": 0, "fusion_lon": 0.0, "fusion_lat": 0.0, "lat": 38.89772033333333, "type": "electric_scooter", "lon": -76.99268033333334, "bike_id": "9ddcc8cf32fc4a53a7712bc1ba982281", "rental_uris": {"android": "https://dc.lft.to/lastmile_qr_scan", "ios": "https://dc.lft.to/lastmile_qr_scan"}, "name": "9ddcc8cf32fc4a53a7712bc1ba982281", "is_reserved": 0}, {"is_disabled": 0, "fusion_lon": 0.0, "fusion_lat": 0.0, "lat": 38.91909583333333, "type": "electric_scooter", "lon": -77.01901116666667, "bike_id": "fe6a115271078926f1c6e975c660c6fd", "rental_uris": {"android": "https://dc.lft.to/lastmile_qr_scan", "ios": "https://dc.lft.to/lastmile_qr_scan"}, "name": "fe6a115271078926f1c6e975c660c6fd", "is_reserved": 0}, {"is_disabled": 0, "fusion_lon": 0.0, "fusion_lat": 0.0, "lat": 38.91332966666667, "type": "electric_scooter", "lon": -77.01500016666667, "bike_id": "89bc6f2d5ddae0b63bac85d09de7b1b2", "rental_uris": {"android": "https://dc.lft.to/lastmile_qr_scan", "ios": "https://dc.lft.to/lastmile_qr_scan"}, "name": "89bc6f2d5ddae0b63bac85d09de7b1b2", "is_reserved": 0}, {"is_disabled": 0, "fusion_lon": 0.0, "fusion_lat": 0.0, "lat": 38.91432533333333, "type": "electric_scooter", "lon": -77.0281435, "bike_id": "d4bc42137c083071370ec49c1ea5d744", "rental_uris": {"android": "https://dc.lft.to/lastmile_qr_scan", "ios": "https://dc.lft.to/lastmile_qr_scan"}, "name": "d4bc42137c083071370ec49c1ea5d744", "is_reserved": 0}, {"is_disabled": 0, "fusion_lon": 0.0, "fusion_lat": 0.0, "lat": 38.908856, "type": "electric_scooter", "lon": -77.04449433333333, "bike_id": "960d8ec79d7e4d81c4ee9922b0b00ef9", "rental_uris": {"android": "https://dc.lft.to/lastmile_qr_scan", "ios": "https://dc.lft.to/lastmile_qr_scan"}, "name": "960d8ec79d7e4d81c4ee9922b0b00ef9", "is_reserved": 0}, {"is_disabled": 0, "fusion_lon": 0.0, "fusion_lat": 0.0, "lat": 38.933550333333336, "type": "electric_scooter", "lon": -77.07378266666667, "bike_id": "730ee22c4f9efee0c457eb3955f133db", "rental_uris": {"android": "https://dc.lft.to/lastmile_qr_scan", "ios": "https://dc.lft.to/lastmile_qr_scan"}, "name": "730ee22c4f9efee0c457eb3955f133db", "is_reserved": 0}, {"is_disabled": 0, "fusion_lon": 0.0, "fusion_lat": 0.0, "lat": 38.90778916666667, "type": "electric_scooter", "lon": -76.941291, "bike_id": "60e7bd6008695b899109ca8ba1ad962d", "rental_uris": {"android": "https://dc.lft.to/lastmile_qr_scan", "ios": "https://dc.lft.to/lastmile_qr_scan"}, "name": "60e7bd6008695b899109ca8ba1ad962d", "is_reserved": 0}, {"is_disabled": 0, "fusion_lon": 0.0, "fusion_lat": 0.0, "lat": 38.919556, "type": "electric_scooter", "lon": -77.00053733333333, "bike_id": "e859797b7375970635569de8ea90ae32", "rental_uris": {"android": "https://dc.lft.to/lastmile_qr_scan", "ios": "https://dc.lft.to/lastmile_qr_scan"}, "name": "e859797b7375970635569de8ea90ae32", "is_reserved": 0}, {"is_disabled": 0, "fusion_lon": 0.0, "fusion_lat": 0.0, "lat": 38.83381983333334, "type": "electric_scooter", "lon": -76.99307733333333, "bike_id": "b38330503a509c2c57ab42cee5d2bd51", "rental_uris": {"android": "https://dc.lft.to/lastmile_qr_scan", "ios": "https://dc.lft.to/lastmile_qr_scan"}, "name": "b38330503a509c2c57ab42cee5d2bd51", "is_reserved": 0}, {"is_disabled": 0, "fusion_lon": 0.0, "fusion_lat": 0.0, "lat": 38.914186, "type": "electric_scooter", "lon": -77.02212833333333, "bike_id": "86c2cdc10ec93ec4518da4e1e0fd07e0", "rental_uris": {"android": "https://dc.lft.to/lastmile_qr_scan", "ios": "https://dc.lft.to/lastmile_qr_scan"}, "name": "86c2cdc10ec93ec4518da4e1e0fd07e0", "is_reserved": 0}, {"is_disabled": 0, "fusion_lon": 0.0, "fusion_lat": 0.0, "lat": 38.89629133333333, "type": "electric_scooter", "lon": -77.03379383333333, "bike_id": "bcb1d4e29d53c3536b7f4ddd3a3d234f", "rental_uris": {"android": "https://dc.lft.to/lastmile_qr_scan", "ios": "https://dc.lft.to/lastmile_qr_scan"}, "name": "bcb1d4e29d53c3536b7f4ddd3a3d234f", "is_reserved": 0}, {"is_disabled": 0, "fusion_lon": 0.0, "fusion_lat": 0.0, "lat": 38.9026035, "type": "electric_scooter", "lon": -77.02735616666666, "bike_id": "f85a68fda3bf90048ee3984e71cf4d71", "rental_uris": {"android": "https://dc.lft.to/lastmile_qr_scan", "ios": "https://dc.lft.to/lastmile_qr_scan"}, "name": "f85a68fda3bf90048ee3984e71cf4d71", "is_reserved": 0}, {"is_disabled": 0, "fusion_lon": 0.0, "fusion_lat": 0.0, "lat": 38.9010265, "type": "electric_scooter", "lon": -76.98840733333333, "bike_id": "eeb24685561a93cdaa271176c0da2a8e", "rental_uris": {"android": "https://dc.lft.to/lastmile_qr_scan", "ios": "https://dc.lft.to/lastmile_qr_scan"}, "name": "eeb24685561a93cdaa271176c0da2a8e", "is_reserved": 0}, {"is_disabled": 0, "fusion_lon": 0.0, "fusion_lat": 0.0, "lat": 38.918294, "type": "electric_scooter", "lon": -77.0121355, "bike_id": "32edcbab34e25c5f42b8fbe75c5e85a8", "rental_uris": {"android": "https://dc.lft.to/lastmile_qr_scan", "ios": "https://dc.lft.to/lastmile_qr_scan"}, "name": "32edcbab34e25c5f42b8fbe75c5e85a8", "is_reserved": 0}, {"is_disabled": 0, "fusion_lon": 0.0, "fusion_lat": 0.0, "lat": 38.92159, "type": "electric_scooter", "lon": -77.033798, "bike_id": "f515f728ae07abc3561b3c4b69dae334", "rental_uris": {"android": "https://dc.lft.to/lastmile_qr_scan", "ios": "https://dc.lft.to/lastmile_qr_scan"}, "name": "f515f728ae07abc3561b3c4b69dae334", "is_reserved": 0}, {"is_disabled": 0, "fusion_lon": 0.0, "fusion_lat": 0.0, "lat": 38.88759566666667, "type": "electric_scooter", "lon": -77.03360366666666, "bike_id": "d3bea67d206e927ba2cac62abf71af01", "rental_uris": {"android": "https://dc.lft.to/lastmile_qr_scan", "ios": "https://dc.lft.to/lastmile_qr_scan"}, "name": "d3bea67d206e927ba2cac62abf71af01", "is_reserved": 0}, {"is_disabled": 0, "fusion_lon": 0.0, "fusion_lat": 0.0, "lat": 38.91958916666667, "type": "electric_scooter", "lon": -77.02819233333334, "bike_id": "c777425970c7a4d2faf4f7feb3ce712d", "rental_uris": {"android": "https://dc.lft.to/lastmile_qr_scan", "ios": "https://dc.lft.to/lastmile_qr_scan"}, "name": "c777425970c7a4d2faf4f7feb3ce712d", "is_reserved": 0}, {"is_disabled": 0, "fusion_lon": 0.0, "fusion_lat": 0.0, "lat": 38.90728166666667, "type": "electric_scooter", "lon": -77.03532083333333, "bike_id": "a9423259e496543dc7cea2103f7f3537", "rental_uris": {"android": "https://dc.lft.to/lastmile_qr_scan", "ios": "https://dc.lft.to/lastmile_qr_scan"}, "name": "a9423259e496543dc7cea2103f7f3537", "is_reserved": 0}, {"is_disabled": 0, "fusion_lon": 0.0, "fusion_lat": 0.0, "lat": 38.912858666666665, "type": "electric_scooter", "lon": -77.02302516666667, "bike_id": "ddf32e370ec00190dd573f5b9c330c42", "rental_uris": {"android": "https://dc.lft.to/lastmile_qr_scan", "ios": "https://dc.lft.to/lastmile_qr_scan"}, "name": "ddf32e370ec00190dd573f5b9c330c42", "is_reserved": 0}, {"is_disabled": 0, "fusion_lon": 0.0, "fusion_lat": 0.0, "lat": 38.91332383333334, "type": "electric_scooter", "lon": -77.0325205, "bike_id": "bf2868528535c313c49ab88841b58748", "rental_uris": {"android": "https://dc.lft.to/lastmile_qr_scan", "ios": "https://dc.lft.to/lastmile_qr_scan"}, "name": "bf2868528535c313c49ab88841b58748", "is_reserved": 0}, {"is_disabled": 0, "fusion_lon": 0.0, "fusion_lat": 0.0, "lat": 38.916303666666664, "type": "electric_scooter", "lon": -77.04097, "bike_id": "3342131f95eb98bdfc1f82681ea232d1", "rental_uris": {"android": "https://dc.lft.to/lastmile_qr_scan", "ios": "https://dc.lft.to/lastmile_qr_scan"}, "name": "3342131f95eb98bdfc1f82681ea232d1", "is_reserved": 0}, {"is_disabled": 0, "fusion_lon": 0.0, "fusion_lat": 0.0, "lat": 38.892529333333336, "type": "electric_scooter", "lon": -76.988441, "bike_id": "f3d91ca1c33ea93131744d1dde0981db", "rental_uris": {"android": "https://dc.lft.to/lastmile_qr_scan", "ios": "https://dc.lft.to/lastmile_qr_scan"}, "name": "f3d91ca1c33ea93131744d1dde0981db", "is_reserved": 0}, {"is_disabled": 0, "fusion_lon": 0.0, "fusion_lat": 0.0, "lat": 38.908961, "type": "electric_scooter", "lon": -76.998576, "bike_id": "b9fd258e84938c7b2449ab0e4cd36cfc", "rental_uris": {"android": "https://dc.lft.to/lastmile_qr_scan", "ios": "https://dc.lft.to/lastmile_qr_scan"}, "name": "b9fd258e84938c7b2449ab0e4cd36cfc", "is_reserved": 0}, {"is_disabled": 0, "fusion_lon": 0.0, "fusion_lat": 0.0, "lat": 38.988295, "type": "electric_bike", "lon": -76.98756516666667, "bike_id": "605348493700a3287df87bb9117fc694", "rental_uris": {"android": "https://dc.lft.to/lastmile_qr_scan", "ios": "https://dc.lft.to/lastmile_qr_scan"}, "name": "605348493700a3287df87bb9117fc694", "is_reserved": 0}, {"is_disabled": 0, "fusion_lon": 0.0, "fusion_lat": 0.0, "lat": 38.925832166666666, "type": "electric_scooter", "lon": -77.03208183333334, "bike_id": "71afe023c84f553c833791aaf701b44a", "rental_uris": {"android": "https://dc.lft.to/lastmile_qr_scan", "ios": "https://dc.lft.to/lastmile_qr_scan"}, "name": "71afe023c84f553c833791aaf701b44a", "is_reserved": 0}, {"is_disabled": 0, "fusion_lon": 0.0, "fusion_lat": 0.0, "lat": 38.90176483333333, "type": "electric_scooter", "lon": -77.05308466666666, "bike_id": "972cf30395f02113fb6afe6ba26faf25", "rental_uris": {"android": "https://dc.lft.to/lastmile_qr_scan", "ios": "https://dc.lft.to/lastmile_qr_scan"}, "name": "972cf30395f02113fb6afe6ba26faf25", "is_reserved": 0}, {"is_disabled": 0, "fusion_lon": 0.0, "fusion_lat": 0.0, "lat": 38.927552166666665, "type": "electric_scooter", "lon": -77.03355183333333, "bike_id": "4a6ef3e7b60e92c85251281e413987b4", "rental_uris": {"android": "https://dc.lft.to/lastmile_qr_scan", "ios": "https://dc.lft.to/lastmile_qr_scan"}, "name": "4a6ef3e7b60e92c85251281e413987b4", "is_reserved": 0}, {"is_disabled": 0, "fusion_lon": 0.0, "fusion_lat": 0.0, "lat": 38.9169255, "type": "electric_scooter", "lon": -77.02436516666667, "bike_id": "fa1c5750d0dbdf9cc4766b69d357cc17", "rental_uris": {"android": "https://dc.lft.to/lastmile_qr_scan", "ios": "https://dc.lft.to/lastmile_qr_scan"}, "name": "fa1c5750d0dbdf9cc4766b69d357cc17", "is_reserved": 0}, {"is_disabled": 0, "fusion_lon": 0.0, "fusion_lat": 0.0, "lat": 38.882836166666664, "type": "electric_scooter", "lon": -76.98778766666666, "bike_id": "9a12a58c743ae8e193e5308b1b7020a2", "rental_uris": {"android": "https://dc.lft.to/lastmile_qr_scan", "ios": "https://dc.lft.to/lastmile_qr_scan"}, "name": "9a12a58c743ae8e193e5308b1b7020a2", "is_reserved": 0}, {"is_disabled": 0, "fusion_lon": 0.0, "fusion_lat": 0.0, "lat": 38.92585583333333, "type": "electric_scooter", "lon": -76.9949855, "bike_id": "8ab59c773a6a6fec22b8956967e9aa86", "rental_uris": {"android": "https://dc.lft.to/lastmile_qr_scan", "ios": "https://dc.lft.to/lastmile_qr_scan"}, "name": "8ab59c773a6a6fec22b8956967e9aa86", "is_reserved": 0}, {"is_disabled": 0, "fusion_lon": 0.0, "fusion_lat": 0.0, "lat": 38.900112166666666, "type": "electric_scooter", "lon": -76.9976245, "bike_id": "dfc0706679c3f05d8616904e7970d8fc", "rental_uris": {"android": "https://dc.lft.to/lastmile_qr_scan", "ios": "https://dc.lft.to/lastmile_qr_scan"}, "name": "dfc0706679c3f05d8616904e7970d8fc", "is_reserved": 0}, {"is_disabled": 0, "fusion_lon": 0.0, "fusion_lat": 0.0, "lat": 38.941994333333334, "type": "electric_scooter", "lon": -77.02579366666667, "bike_id": "145f89dae5fd67627027db2f4ab6396a", "rental_uris": {"android": "https://dc.lft.to/lastmile_qr_scan", "ios": "https://dc.lft.to/lastmile_qr_scan"}, "name": "145f89dae5fd67627027db2f4ab6396a", "is_reserved": 0}, {"is_disabled": 0, "fusion_lon": 0.0, "fusion_lat": 0.0, "lat": 38.91935866666667, "type": "electric_scooter", "lon": -77.0259525, "bike_id": "f8f649eabed012f54bdaff753abe97a9", "rental_uris": {"android": "https://dc.lft.to/lastmile_qr_scan", "ios": "https://dc.lft.to/lastmile_qr_scan"}, "name": "f8f649eabed012f54bdaff753abe97a9", "is_reserved": 0}, {"is_disabled": 0, "fusion_lon": 0.0, "fusion_lat": 0.0, "lat": 38.892335, "type": "electric_scooter", "lon": -77.02204533333334, "bike_id": "3332d180ba3f6e6181be65a5c1c051c6", "rental_uris": {"android": "https://dc.lft.to/lastmile_qr_scan", "ios": "https://dc.lft.to/lastmile_qr_scan"}, "name": "3332d180ba3f6e6181be65a5c1c051c6", "is_reserved": 0}, {"is_disabled": 0, "fusion_lon": 0.0, "fusion_lat": 0.0, "lat": 38.92087466666667, "type": "electric_scooter", "lon": -77.018157, "bike_id": "b77aea35e74f4b258f1db12c7d67b078", "rental_uris": {"android": "https://dc.lft.to/lastmile_qr_scan", "ios": "https://dc.lft.to/lastmile_qr_scan"}, "name": "b77aea35e74f4b258f1db12c7d67b078", "is_reserved": 0}, {"is_disabled": 0, "fusion_lon": 0.0, "fusion_lat": 0.0, "lat": 38.9183525, "type": "electric_scooter", "lon": -77.039406, "bike_id": "80111841db493de4c65680d29ed5138d", "rental_uris": {"android": "https://dc.lft.to/lastmile_qr_scan", "ios": "https://dc.lft.to/lastmile_qr_scan"}, "name": "80111841db493de4c65680d29ed5138d", "is_reserved": 0}, {"is_disabled": 0, "fusion_lon": 0.0, "fusion_lat": 0.0, "lat": 38.8897735, "type": "electric_scooter", "lon": -76.98744916666666, "bike_id": "779db93c0ec60fe5dccd14141c7fa822", "rental_uris": {"android": "https://dc.lft.to/lastmile_qr_scan", "ios": "https://dc.lft.to/lastmile_qr_scan"}, "name": "779db93c0ec60fe5dccd14141c7fa822", "is_reserved": 0}, {"is_disabled": 0, "fusion_lon": 0.0, "fusion_lat": 0.0, "lat": 38.90129116666667, "type": "electric_scooter", "lon": -77.0175145, "bike_id": "502d8daddf8c41ce0876f038b70ec67b", "rental_uris": {"android": "https://dc.lft.to/lastmile_qr_scan", "ios": "https://dc.lft.to/lastmile_qr_scan"}, "name": "502d8daddf8c41ce0876f038b70ec67b", "is_reserved": 0}, {"is_disabled": 0, "fusion_lon": 0.0, "fusion_lat": 0.0, "lat": 38.902282666666665, "type": "electric_bike", "lon": -77.02268566666666, "bike_id": "7bda391ada3c747795dbaa01559f20fd", "rental_uris": {"android": "https://dc.lft.to/lastmile_qr_scan", "ios": "https://dc.lft.to/lastmile_qr_scan"}, "name": "7bda391ada3c747795dbaa01559f20fd", "is_reserved": 0}, {"is_disabled": 0, "fusion_lon": 0.0, "fusion_lat": 0.0, "lat": 38.897316333333336, "type": "electric_scooter", "lon": -77.03352783333334, "bike_id": "aaad66f70137aee0086e455078dd4321", "rental_uris": {"android": "https://dc.lft.to/lastmile_qr_scan", "ios": "https://dc.lft.to/lastmile_qr_scan"}, "name": "aaad66f70137aee0086e455078dd4321", "is_reserved": 0}, {"is_disabled": 0, "fusion_lon": 0.0, "fusion_lat": 0.0, "lat": 38.918688333333336, "type": "electric_bike", "lon": -76.9617875, "bike_id": "d41b57824c7af9548d15fc0be72ca9c6", "rental_uris": {"android": "https://dc.lft.to/lastmile_qr_scan", "ios": "https://dc.lft.to/lastmile_qr_scan"}, "name": "d41b57824c7af9548d15fc0be72ca9c6", "is_reserved": 0}, {"is_disabled": 0, "fusion_lon": 0.0, "fusion_lat": 0.0, "lat": 38.90119416666667, "type": "electric_scooter", "lon": -77.04345416666666, "bike_id": "c931591192af76bc1511d4002830d25c", "rental_uris": {"android": "https://dc.lft.to/lastmile_qr_scan", "ios": "https://dc.lft.to/lastmile_qr_scan"}, "name": "c931591192af76bc1511d4002830d25c", "is_reserved": 0}, {"is_disabled": 0, "fusion_lon": 0.0, "fusion_lat": 0.0, "lat": 38.895674666666665, "type": "electric_bike", "lon": -76.97619916666666, "bike_id": "1f2df72378e72adcfe6838c75658237d", "rental_uris": {"android": "https://dc.lft.to/lastmile_qr_scan", "ios": "https://dc.lft.to/lastmile_qr_scan"}, "name": "1f2df72378e72adcfe6838c75658237d", "is_reserved": 0}, {"is_disabled": 0, "fusion_lon": 0.0, "fusion_lat": 0.0, "lat": 38.898810833333336, "type": "electric_scooter", "lon": -76.9316195, "bike_id": "75229bd9919e60a888e723a4f8bcb676", "rental_uris": {"android": "https://dc.lft.to/lastmile_qr_scan", "ios": "https://dc.lft.to/lastmile_qr_scan"}, "name": "75229bd9919e60a888e723a4f8bcb676", "is_reserved": 0}, {"is_disabled": 0, "fusion_lon": 0.0, "fusion_lat": 0.0, "lat": 38.865809666666664, "type": "electric_scooter", "lon": -76.99042916666667, "bike_id": "69b502245041b94a8360927dc5457507", "rental_uris": {"android": "https://dc.lft.to/lastmile_qr_scan", "ios": "https://dc.lft.to/lastmile_qr_scan"}, "name": "69b502245041b94a8360927dc5457507", "is_reserved": 0}, {"is_disabled": 0, "fusion_lon": 0.0, "fusion_lat": 0.0, "lat": 38.874667333333335, "type": "electric_scooter", "lon": -77.0159155, "bike_id": "4967da207c3e6175c05e7195b0b7201e", "rental_uris": {"android": "https://dc.lft.to/lastmile_qr_scan", "ios": "https://dc.lft.to/lastmile_qr_scan"}, "name": "4967da207c3e6175c05e7195b0b7201e", "is_reserved": 0}, {"is_disabled": 0, "fusion_lon": 0.0, "fusion_lat": 0.0, "lat": 38.89021266666666, "type": "electric_scooter", "lon": -76.93735066666666, "bike_id": "3fad14b8ca8262dd2c0e4f48b6d7086a", "rental_uris": {"android": "https://dc.lft.to/lastmile_qr_scan", "ios": "https://dc.lft.to/lastmile_qr_scan"}, "name": "3fad14b8ca8262dd2c0e4f48b6d7086a", "is_reserved": 0}, {"is_disabled": 0, "fusion_lon": 0.0, "fusion_lat": 0.0, "lat": 38.91899083333333, "type": "electric_scooter", "lon": -77.04474766666667, "bike_id": "50eb21c2bebe7e68ac5f5b03d4a8f167", "rental_uris": {"android": "https://dc.lft.to/lastmile_qr_scan", "ios": "https://dc.lft.to/lastmile_qr_scan"}, "name": "50eb21c2bebe7e68ac5f5b03d4a8f167", "is_reserved": 0}, {"is_disabled": 0, "fusion_lon": 0.0, "fusion_lat": 0.0, "lat": 38.91931816666666, "type": "electric_scooter", "lon": -77.03161916666667, "bike_id": "d76fd117639a623a3f5fe4ef31c22145", "rental_uris": {"android": "https://dc.lft.to/lastmile_qr_scan", "ios": "https://dc.lft.to/lastmile_qr_scan"}, "name": "d76fd117639a623a3f5fe4ef31c22145", "is_reserved": 0}, {"is_disabled": 0, "fusion_lon": 0.0, "fusion_lat": 0.0, "lat": 38.92955966666667, "type": "electric_scooter", "lon": -77.0346525, "bike_id": "a15ea5cb3a62552a6cd9c9e2bddbfeb5", "rental_uris": {"android": "https://dc.lft.to/lastmile_qr_scan", "ios": "https://dc.lft.to/lastmile_qr_scan"}, "name": "a15ea5cb3a62552a6cd9c9e2bddbfeb5", "is_reserved": 0}, {"is_disabled": 0, "fusion_lon": 0.0, "fusion_lat": 0.0, "lat": 38.927007833333334, "type": "electric_bike", "lon": -77.06125683333333, "bike_id": "42836f5ca49c8e8b4e496bbf9d6ff810", "rental_uris": {"android": "https://dc.lft.to/lastmile_qr_scan", "ios": "https://dc.lft.to/lastmile_qr_scan"}, "name": "42836f5ca49c8e8b4e496bbf9d6ff810", "is_reserved": 0}, {"is_disabled": 0, "fusion_lon": 0.0, "fusion_lat": 0.0, "lat": 38.9187985, "type": "electric_scooter", "lon": -77.043164, "bike_id": "9bc616bf7c0cf0822649094f1b2911f4", "rental_uris": {"android": "https://dc.lft.to/lastmile_qr_scan", "ios": "https://dc.lft.to/lastmile_qr_scan"}, "name": "9bc616bf7c0cf0822649094f1b2911f4", "is_reserved": 0}, {"is_disabled": 0, "fusion_lon": 0.0, "fusion_lat": 0.0, "lat": 38.92284033333333, "type": "electric_scooter", "lon": -77.0730545, "bike_id": "08e839bfe52a451c648e0341fdf43215", "rental_uris": {"android": "https://dc.lft.to/lastmile_qr_scan", "ios": "https://dc.lft.to/lastmile_qr_scan"}, "name": "08e839bfe52a451c648e0341fdf43215", "is_reserved": 0}, {"is_disabled": 0, "fusion_lon": 0.0, "fusion_lat": 0.0, "lat": 38.944969, "type": "electric_bike", "lon": -76.98662716666666, "bike_id": "bde6f8334c367138d3a34e18f5af4c39", "rental_uris": {"android": "https://dc.lft.to/lastmile_qr_scan", "ios": "https://dc.lft.to/lastmile_qr_scan"}, "name": "bde6f8334c367138d3a34e18f5af4c39", "is_reserved": 0}, {"is_disabled": 0, "fusion_lon": 0.0, "fusion_lat": 0.0, "lat": 38.92325, "type": "electric_scooter", "lon": -77.04513516666667, "bike_id": "d50251066fa21de8a106799881709f32", "rental_uris": {"android": "https://dc.lft.to/lastmile_qr_scan", "ios": "https://dc.lft.to/lastmile_qr_scan"}, "name": "d50251066fa21de8a106799881709f32", "is_reserved": 0}, {"is_disabled": 0, "fusion_lon": 0.0, "fusion_lat": 0.0, "lat": 38.903781333333335, "type": "electric_scooter", "lon": -77.028211, "bike_id": "348ea7696108c0026cc9443952a0bf1b", "rental_uris": {"android": "https://dc.lft.to/lastmile_qr_scan", "ios": "https://dc.lft.to/lastmile_qr_scan"}, "name": "348ea7696108c0026cc9443952a0bf1b", "is_reserved": 0}, {"is_disabled": 0, "fusion_lon": 0.0, "fusion_lat": 0.0, "lat": 38.92998883333333, "type": "electric_scooter", "lon": -77.02405816666666, "bike_id": "12580bb7ecfd988390c36fa853f5fc42", "rental_uris": {"android": "https://dc.lft.to/lastmile_qr_scan", "ios": "https://dc.lft.to/lastmile_qr_scan"}, "name": "12580bb7ecfd988390c36fa853f5fc42", "is_reserved": 0}, {"is_disabled": 0, "fusion_lon": 0.0, "fusion_lat": 0.0, "lat": 38.91209383333333, "type": "electric_scooter", "lon": -77.0384475, "bike_id": "8b701eaab2ccb74bc9c71cf53d28c40f", "rental_uris": {"android": "https://dc.lft.to/lastmile_qr_scan", "ios": "https://dc.lft.to/lastmile_qr_scan"}, "name": "8b701eaab2ccb74bc9c71cf53d28c40f", "is_reserved": 0}, {"is_disabled": 0, "fusion_lon": 0.0, "fusion_lat": 0.0, "lat": 38.93099083333333, "type": "electric_scooter", "lon": -77.02466866666667, "bike_id": "181ec7ab890ef089ad26a9145c551c73", "rental_uris": {"android": "https://dc.lft.to/lastmile_qr_scan", "ios": "https://dc.lft.to/lastmile_qr_scan"}, "name": "181ec7ab890ef089ad26a9145c551c73", "is_reserved": 0}, {"is_disabled": 0, "fusion_lon": 0.0, "fusion_lat": 0.0, "lat": 38.91272633333333, "type": "electric_scooter", "lon": -77.030312, "bike_id": "c08ba5cb935070705ffd8fb317f78b1e", "rental_uris": {"android": "https://dc.lft.to/lastmile_qr_scan", "ios": "https://dc.lft.to/lastmile_qr_scan"}, "name": "c08ba5cb935070705ffd8fb317f78b1e", "is_reserved": 0}, {"is_disabled": 0, "fusion_lon": 0.0, "fusion_lat": 0.0, "lat": 38.84607283333333, "type": "electric_bike", "lon": -76.9689255, "bike_id": "8c6aa4bcad3a33e7589568d60e610f3f", "rental_uris": {"android": "https://dc.lft.to/lastmile_qr_scan", "ios": "https://dc.lft.to/lastmile_qr_scan"}, "name": "8c6aa4bcad3a33e7589568d60e610f3f", "is_reserved": 0}, {"is_disabled": 0, "fusion_lon": 0.0, "fusion_lat": 0.0, "lat": 38.89500483333333, "type": "electric_scooter", "lon": -77.00957633333333, "bike_id": "f95e958203df1042495ae5772f0f53a0", "rental_uris": {"android": "https://dc.lft.to/lastmile_qr_scan", "ios": "https://dc.lft.to/lastmile_qr_scan"}, "name": "f95e958203df1042495ae5772f0f53a0", "is_reserved": 0}, {"is_disabled": 0, "fusion_lon": 0.0, "fusion_lat": 0.0, "lat": 38.91252216666667, "type": "electric_scooter", "lon": -77.00650866666666, "bike_id": "761133548829e60df9805ed2e90aaab2", "rental_uris": {"android": "https://dc.lft.to/lastmile_qr_scan", "ios": "https://dc.lft.to/lastmile_qr_scan"}, "name": "761133548829e60df9805ed2e90aaab2", "is_reserved": 0}, {"is_disabled": 0, "fusion_lon": 0.0, "fusion_lat": 0.0, "lat": 38.90056633333333, "type": "electric_scooter", "lon": -76.9833545, "bike_id": "acc8f221c176d78f86558227a4436fcd", "rental_uris": {"android": "https://dc.lft.to/lastmile_qr_scan", "ios": "https://dc.lft.to/lastmile_qr_scan"}, "name": "acc8f221c176d78f86558227a4436fcd", "is_reserved": 0}, {"is_disabled": 0, "fusion_lon": 0.0, "fusion_lat": 0.0, "lat": 38.884350833333336, "type": "electric_scooter", "lon": -76.99602183333333, "bike_id": "aa2d6619a7ee27a078df7c1834625955", "rental_uris": {"android": "https://dc.lft.to/lastmile_qr_scan", "ios": "https://dc.lft.to/lastmile_qr_scan"}, "name": "aa2d6619a7ee27a078df7c1834625955", "is_reserved": 0}, {"is_disabled": 0, "fusion_lon": 0.0, "fusion_lat": 0.0, "lat": 38.93535516666667, "type": "electric_scooter", "lon": -77.02384216666667, "bike_id": "157506a3f6aa8d6938b350aa7b67e2a2", "rental_uris": {"android": "https://dc.lft.to/lastmile_qr_scan", "ios": "https://dc.lft.to/lastmile_qr_scan"}, "name": "157506a3f6aa8d6938b350aa7b67e2a2", "is_reserved": 0}, {"is_disabled": 0, "fusion_lon": 0.0, "fusion_lat": 0.0, "lat": 38.89246116666666, "type": "electric_scooter", "lon": -77.0283925, "bike_id": "022582758bf10f947d70063e55a35058", "rental_uris": {"android": "https://dc.lft.to/lastmile_qr_scan", "ios": "https://dc.lft.to/lastmile_qr_scan"}, "name": "022582758bf10f947d70063e55a35058", "is_reserved": 0}, {"is_disabled": 0, "fusion_lon": 0.0, "fusion_lat": 0.0, "lat": 38.902242, "type": "electric_scooter", "lon": -77.04575966666667, "bike_id": "4f29c0e47c43f5604f890a5ce15cd962", "rental_uris": {"android": "https://dc.lft.to/lastmile_qr_scan", "ios": "https://dc.lft.to/lastmile_qr_scan"}, "name": "4f29c0e47c43f5604f890a5ce15cd962", "is_reserved": 0}, {"is_disabled": 0, "fusion_lon": 0.0, "fusion_lat": 0.0, "lat": 38.909875666666665, "type": "electric_scooter", "lon": -77.02193083333333, "bike_id": "b10b0e3c23ba6219acb2d3a3f231e902", "rental_uris": {"android": "https://dc.lft.to/lastmile_qr_scan", "ios": "https://dc.lft.to/lastmile_qr_scan"}, "name": "b10b0e3c23ba6219acb2d3a3f231e902", "is_reserved": 0}, {"is_disabled": 0, "fusion_lon": 0.0, "fusion_lat": 0.0, "lat": 38.8937305, "type": "electric_scooter", "lon": -76.9499785, "bike_id": "9588bdd91225e6db2f4bdc9652d52e17", "rental_uris": {"android": "https://dc.lft.to/lastmile_qr_scan", "ios": "https://dc.lft.to/lastmile_qr_scan"}, "name": "9588bdd91225e6db2f4bdc9652d52e17", "is_reserved": 0}, {"is_disabled": 0, "fusion_lon": 0.0, "fusion_lat": 0.0, "lat": 38.91769683333333, "type": "electric_scooter", "lon": -77.01508716666666, "bike_id": "825f1eebe5f97f3a680cbe93cf7102fb", "rental_uris": {"android": "https://dc.lft.to/lastmile_qr_scan", "ios": "https://dc.lft.to/lastmile_qr_scan"}, "name": "825f1eebe5f97f3a680cbe93cf7102fb", "is_reserved": 0}, {"is_disabled": 0, "fusion_lon": 0.0, "fusion_lat": 0.0, "lat": 38.934587666666665, "type": "electric_scooter", "lon": -77.07234333333334, "bike_id": "b5db48ff5bbf36e5bcb3000fc6dd5689", "rental_uris": {"android": "https://dc.lft.to/lastmile_qr_scan", "ios": "https://dc.lft.to/lastmile_qr_scan"}, "name": "b5db48ff5bbf36e5bcb3000fc6dd5689", "is_reserved": 0}, {"is_disabled": 0, "fusion_lon": 0.0, "fusion_lat": 0.0, "lat": 38.92831016666667, "type": "electric_scooter", "lon": -77.01408583333334, "bike_id": "81bb7810b51d3cc4924e43fd2af1f740", "rental_uris": {"android": "https://dc.lft.to/lastmile_qr_scan", "ios": "https://dc.lft.to/lastmile_qr_scan"}, "name": "81bb7810b51d3cc4924e43fd2af1f740", "is_reserved": 0}, {"is_disabled": 0, "fusion_lon": 0.0, "fusion_lat": 0.0, "lat": 38.928510333333335, "type": "electric_scooter", "lon": -77.032605, "bike_id": "a3b5a7ca728834093c23b112e428b77f", "rental_uris": {"android": "https://dc.lft.to/lastmile_qr_scan", "ios": "https://dc.lft.to/lastmile_qr_scan"}, "name": "a3b5a7ca728834093c23b112e428b77f", "is_reserved": 0}, {"is_disabled": 0, "fusion_lon": 0.0, "fusion_lat": 0.0, "lat": 38.900492, "type": "electric_scooter", "lon": -76.92272966666667, "bike_id": "47232a0adc1d04b93b0ab5b29ec7850f", "rental_uris": {"android": "https://dc.lft.to/lastmile_qr_scan", "ios": "https://dc.lft.to/lastmile_qr_scan"}, "name": "47232a0adc1d04b93b0ab5b29ec7850f", "is_reserved": 0}, {"is_disabled": 0, "fusion_lon": 0.0, "fusion_lat": 0.0, "lat": 38.89565733333333, "type": "electric_scooter", "lon": -77.04676433333333, "bike_id": "bc3ede0602a0f79f44b365d1cde081c4", "rental_uris": {"android": "https://dc.lft.to/lastmile_qr_scan", "ios": "https://dc.lft.to/lastmile_qr_scan"}, "name": "bc3ede0602a0f79f44b365d1cde081c4", "is_reserved": 0}, {"is_disabled": 0, "fusion_lon": 0.0, "fusion_lat": 0.0, "lat": 38.89578766666666, "type": "electric_scooter", "lon": -77.00898966666666, "bike_id": "0e8e80951e25a822cf97db33d881e063", "rental_uris": {"android": "https://dc.lft.to/lastmile_qr_scan", "ios": "https://dc.lft.to/lastmile_qr_scan"}, "name": "0e8e80951e25a822cf97db33d881e063", "is_reserved": 0}, {"is_disabled": 0, "fusion_lon": 0.0, "fusion_lat": 0.0, "lat": 38.9243425, "type": "electric_scooter", "lon": -77.04258316666666, "bike_id": "4070c527a2a0908433a93e3691f0ae65", "rental_uris": {"android": "https://dc.lft.to/lastmile_qr_scan", "ios": "https://dc.lft.to/lastmile_qr_scan"}, "name": "4070c527a2a0908433a93e3691f0ae65", "is_reserved": 0}, {"is_disabled": 0, "fusion_lon": 0.0, "fusion_lat": 0.0, "lat": 38.94321383333333, "type": "electric_scooter", "lon": -77.0858045, "bike_id": "95b51d04babcfcbddb7c66e56149d357", "rental_uris": {"android": "https://dc.lft.to/lastmile_qr_scan", "ios": "https://dc.lft.to/lastmile_qr_scan"}, "name": "95b51d04babcfcbddb7c66e56149d357", "is_reserved": 0}, {"is_disabled": 0, "fusion_lon": 0.0, "fusion_lat": 0.0, "lat": 38.87294833333333, "type": "electric_scooter", "lon": -77.0098955, "bike_id": "067c3a35fd6e5350ba59a7c11b798e65", "rental_uris": {"android": "https://dc.lft.to/lastmile_qr_scan", "ios": "https://dc.lft.to/lastmile_qr_scan"}, "name": "067c3a35fd6e5350ba59a7c11b798e65", "is_reserved": 0}, {"is_disabled": 0, "fusion_lon": 0.0, "fusion_lat": 0.0, "lat": 38.898431333333335, "type": "electric_scooter", "lon": -77.03326783333333, "bike_id": "6f87fcf9d9cbe69d746b81910acd2e2f", "rental_uris": {"android": "https://dc.lft.to/lastmile_qr_scan", "ios": "https://dc.lft.to/lastmile_qr_scan"}, "name": "6f87fcf9d9cbe69d746b81910acd2e2f", "is_reserved": 0}, {"is_disabled": 0, "fusion_lon": 0.0, "fusion_lat": 0.0, "lat": 38.89273433333334, "type": "electric_scooter", "lon": -76.93721683333334, "bike_id": "6d5e512ddd45d178270831bc49ccb406", "rental_uris": {"android": "https://dc.lft.to/lastmile_qr_scan", "ios": "https://dc.lft.to/lastmile_qr_scan"}, "name": "6d5e512ddd45d178270831bc49ccb406", "is_reserved": 0}, {"is_disabled": 0, "fusion_lon": 0.0, "fusion_lat": 0.0, "lat": 38.91250266666667, "type": "electric_scooter", "lon": -77.04162483333333, "bike_id": "a0ca8312e7accbaa501cfec5cb325748", "rental_uris": {"android": "https://dc.lft.to/lastmile_qr_scan", "ios": "https://dc.lft.to/lastmile_qr_scan"}, "name": "a0ca8312e7accbaa501cfec5cb325748", "is_reserved": 0}, {"is_disabled": 0, "fusion_lon": 0.0, "fusion_lat": 0.0, "lat": 38.910915333333335, "type": "electric_scooter", "lon": -77.02411483333333, "bike_id": "de74eba3d78639393680b6211ed1a192", "rental_uris": {"android": "https://dc.lft.to/lastmile_qr_scan", "ios": "https://dc.lft.to/lastmile_qr_scan"}, "name": "de74eba3d78639393680b6211ed1a192", "is_reserved": 0}, {"is_disabled": 0, "fusion_lon": 0.0, "fusion_lat": 0.0, "lat": 38.916662, "type": "electric_scooter", "lon": -77.0271325, "bike_id": "f27b717e25d4f0b4f2f4bb07df2c2c30", "rental_uris": {"android": "https://dc.lft.to/lastmile_qr_scan", "ios": "https://dc.lft.to/lastmile_qr_scan"}, "name": "f27b717e25d4f0b4f2f4bb07df2c2c30", "is_reserved": 0}, {"is_disabled": 0, "fusion_lon": 0.0, "fusion_lat": 0.0, "lat": 38.910007666666665, "type": "electric_scooter", "lon": -77.0373135, "bike_id": "be39172de3395eb599b6d5760c1e5ece", "rental_uris": {"android": "https://dc.lft.to/lastmile_qr_scan", "ios": "https://dc.lft.to/lastmile_qr_scan"}, "name": "be39172de3395eb599b6d5760c1e5ece", "is_reserved": 0}, {"is_disabled": 0, "fusion_lon": 0.0, "fusion_lat": 0.0, "lat": 38.914112333333335, "type": "electric_scooter", "lon": -77.02677316666667, "bike_id": "f24bfa8867972df71110897381f71073", "rental_uris": {"android": "https://dc.lft.to/lastmile_qr_scan", "ios": "https://dc.lft.to/lastmile_qr_scan"}, "name": "f24bfa8867972df71110897381f71073", "is_reserved": 0}, {"is_disabled": 0, "fusion_lon": 0.0, "fusion_lat": 0.0, "lat": 38.887984833333334, "type": "electric_bike", "lon": -76.92999033333334, "bike_id": "7bef1395982dfc7a5387af3e45e77e08", "rental_uris": {"android": "https://dc.lft.to/lastmile_qr_scan", "ios": "https://dc.lft.to/lastmile_qr_scan"}, "name": "7bef1395982dfc7a5387af3e45e77e08", "is_reserved": 0}, {"is_disabled": 0, "fusion_lon": 0.0, "fusion_lat": 0.0, "lat": 38.82744233333333, "type": "electric_bike", "lon": -77.00857933333333, "bike_id": "2e0d2893614c3f267fb680a930f1b016", "rental_uris": {"android": "https://dc.lft.to/lastmile_qr_scan", "ios": "https://dc.lft.to/lastmile_qr_scan"}, "name": "2e0d2893614c3f267fb680a930f1b016", "is_reserved": 0}, {"is_disabled": 0, "fusion_lon": 0.0, "fusion_lat": 0.0, "lat": 38.90275833333333, "type": "electric_scooter", "lon": -77.0249455, "bike_id": "39e74cda6f432bc88dd7e001cd8ce0cf", "rental_uris": {"android": "https://dc.lft.to/lastmile_qr_scan", "ios": "https://dc.lft.to/lastmile_qr_scan"}, "name": "39e74cda6f432bc88dd7e001cd8ce0cf", "is_reserved": 0}, {"is_disabled": 0, "fusion_lon": 0.0, "fusion_lat": 0.0, "lat": 38.898316, "type": "electric_scooter", "lon": -76.980508, "bike_id": "95d9713236a2fbc9c4012b047a5d92c1", "rental_uris": {"android": "https://dc.lft.to/lastmile_qr_scan", "ios": "https://dc.lft.to/lastmile_qr_scan"}, "name": "95d9713236a2fbc9c4012b047a5d92c1", "is_reserved": 0}, {"is_disabled": 0, "fusion_lon": 0.0, "fusion_lat": 0.0, "lat": 39.008744, "type": "electric_bike", "lon": -77.07909666666667, "bike_id": "113d63f80ce27ce2b2400d88d93fcc42", "rental_uris": {"android": "https://dc.lft.to/lastmile_qr_scan", "ios": "https://dc.lft.to/lastmile_qr_scan"}, "name": "113d63f80ce27ce2b2400d88d93fcc42", "is_reserved": 0}, {"is_disabled": 0, "fusion_lon": 0.0, "fusion_lat": 0.0, "lat": 38.940781, "type": "electric_bike", "lon": -77.05292083333333, "bike_id": "a0bce83907c50aac5bdf42fb9b821bf4", "rental_uris": {"android": "https://dc.lft.to/lastmile_qr_scan", "ios": "https://dc.lft.to/lastmile_qr_scan"}, "name": "a0bce83907c50aac5bdf42fb9b821bf4", "is_reserved": 0}, {"is_disabled": 0, "fusion_lon": 0.0, "fusion_lat": 0.0, "lat": 38.944766333333334, "type": "electric_scooter", "lon": -77.06378183333334, "bike_id": "2c0cdd309556e9ab308d9f81a172eb2e", "rental_uris": {"android": "https://dc.lft.to/lastmile_qr_scan", "ios": "https://dc.lft.to/lastmile_qr_scan"}, "name": "2c0cdd309556e9ab308d9f81a172eb2e", "is_reserved": 0}, {"is_disabled": 0, "fusion_lon": 0.0, "fusion_lat": 0.0, "lat": 38.91037633333333, "type": "electric_scooter", "lon": -77.04801766666667, "bike_id": "823eabad3a55a39462d35165de5bf1b8", "rental_uris": {"android": "https://dc.lft.to/lastmile_qr_scan", "ios": "https://dc.lft.to/lastmile_qr_scan"}, "name": "823eabad3a55a39462d35165de5bf1b8", "is_reserved": 0}, {"is_disabled": 0, "fusion_lon": 0.0, "fusion_lat": 0.0, "lat": 38.94044, "type": "electric_scooter", "lon": -77.02897166666666, "bike_id": "8eca4a7f6ff0a9e08cb7ef34145b6976", "rental_uris": {"android": "https://dc.lft.to/lastmile_qr_scan", "ios": "https://dc.lft.to/lastmile_qr_scan"}, "name": "8eca4a7f6ff0a9e08cb7ef34145b6976", "is_reserved": 0}, {"is_disabled": 0, "fusion_lon": 0.0, "fusion_lat": 0.0, "lat": 38.89371833333333, "type": "electric_scooter", "lon": -76.94998016666666, "bike_id": "5b3002008b9a023fa5bded3c022a0d99", "rental_uris": {"android": "https://dc.lft.to/lastmile_qr_scan", "ios": "https://dc.lft.to/lastmile_qr_scan"}, "name": "5b3002008b9a023fa5bded3c022a0d99", "is_reserved": 0}, {"is_disabled": 0, "fusion_lon": 0.0, "fusion_lat": 0.0, "lat": 38.929900333333336, "type": "electric_scooter", "lon": -77.034735, "bike_id": "b2b9bb5cebc556d92bb5d51146399a34", "rental_uris": {"android": "https://dc.lft.to/lastmile_qr_scan", "ios": "https://dc.lft.to/lastmile_qr_scan"}, "name": "b2b9bb5cebc556d92bb5d51146399a34", "is_reserved": 0}, {"is_disabled": 0, "fusion_lon": 0.0, "fusion_lat": 0.0, "lat": 38.90302883333333, "type": "electric_scooter", "lon": -77.03651233333333, "bike_id": "43586874de4b3796b6123856e5b7c09d", "rental_uris": {"android": "https://dc.lft.to/lastmile_qr_scan", "ios": "https://dc.lft.to/lastmile_qr_scan"}, "name": "43586874de4b3796b6123856e5b7c09d", "is_reserved": 0}, {"is_disabled": 0, "fusion_lon": 0.0, "fusion_lat": 0.0, "lat": 38.86702733333333, "type": "electric_scooter", "lon": -76.98718533333333, "bike_id": "bf5fe0c5f60e383d428f0e396524a438", "rental_uris": {"android": "https://dc.lft.to/lastmile_qr_scan", "ios": "https://dc.lft.to/lastmile_qr_scan"}, "name": "bf5fe0c5f60e383d428f0e396524a438", "is_reserved": 0}, {"is_disabled": 0, "fusion_lon": 0.0, "fusion_lat": 0.0, "lat": 38.905557, "type": "electric_scooter", "lon": -77.04353233333333, "bike_id": "8a25fbd94d26f184f352e95bb92c2064", "rental_uris": {"android": "https://dc.lft.to/lastmile_qr_scan", "ios": "https://dc.lft.to/lastmile_qr_scan"}, "name": "8a25fbd94d26f184f352e95bb92c2064", "is_reserved": 0}, {"is_disabled": 0, "fusion_lon": 0.0, "fusion_lat": 0.0, "lat": 38.944476333333334, "type": "electric_scooter", "lon": -77.06390216666667, "bike_id": "3ce6ebba3b0a1b6ca9c5dd45997e129e", "rental_uris": {"android": "https://dc.lft.to/lastmile_qr_scan", "ios": "https://dc.lft.to/lastmile_qr_scan"}, "name": "3ce6ebba3b0a1b6ca9c5dd45997e129e", "is_reserved": 0}, {"is_disabled": 0, "fusion_lon": 0.0, "fusion_lat": 0.0, "lat": 38.897781, "type": "electric_scooter", "lon": -77.024922, "bike_id": "e43a3c2061f47082ab245318288a547c", "rental_uris": {"android": "https://dc.lft.to/lastmile_qr_scan", "ios": "https://dc.lft.to/lastmile_qr_scan"}, "name": "e43a3c2061f47082ab245318288a547c", "is_reserved": 0}, {"is_disabled": 0, "fusion_lon": 0.0, "fusion_lat": 0.0, "lat": 38.92914483333333, "type": "electric_scooter", "lon": -77.03191183333334, "bike_id": "e610c11ea75bda0e4bcbc6de5a242004", "rental_uris": {"android": "https://dc.lft.to/lastmile_qr_scan", "ios": "https://dc.lft.to/lastmile_qr_scan"}, "name": "e610c11ea75bda0e4bcbc6de5a242004", "is_reserved": 0}, {"is_disabled": 0, "fusion_lon": 0.0, "fusion_lat": 0.0, "lat": 38.89462533333333, "type": "electric_scooter", "lon": -77.0219135, "bike_id": "74f91dda84e1cc23b680c257e5d58aef", "rental_uris": {"android": "https://dc.lft.to/lastmile_qr_scan", "ios": "https://dc.lft.to/lastmile_qr_scan"}, "name": "74f91dda84e1cc23b680c257e5d58aef", "is_reserved": 0}, {"is_disabled": 0, "fusion_lon": 0.0, "fusion_lat": 0.0, "lat": 38.9296765, "type": "electric_scooter", "lon": -77.03196366666667, "bike_id": "e22fdd67079a54296dc4a6e772f88efe", "rental_uris": {"android": "https://dc.lft.to/lastmile_qr_scan", "ios": "https://dc.lft.to/lastmile_qr_scan"}, "name": "e22fdd67079a54296dc4a6e772f88efe", "is_reserved": 0}, {"is_disabled": 0, "fusion_lon": 0.0, "fusion_lat": 0.0, "lat": 38.94545266666667, "type": "electric_scooter", "lon": -77.02533533333333, "bike_id": "1a850ead4d7c11422b32705c83faa543", "rental_uris": {"android": "https://dc.lft.to/lastmile_qr_scan", "ios": "https://dc.lft.to/lastmile_qr_scan"}, "name": "1a850ead4d7c11422b32705c83faa543", "is_reserved": 0}, {"is_disabled": 0, "fusion_lon": 0.0, "fusion_lat": 0.0, "lat": 38.912073, "type": "electric_scooter", "lon": -77.04164633333333, "bike_id": "3f322dd0f0a5014cbde8e7637be38b6a", "rental_uris": {"android": "https://dc.lft.to/lastmile_qr_scan", "ios": "https://dc.lft.to/lastmile_qr_scan"}, "name": "3f322dd0f0a5014cbde8e7637be38b6a", "is_reserved": 0}, {"is_disabled": 0, "fusion_lon": 0.0, "fusion_lat": 0.0, "lat": 38.93616516666667, "type": "electric_scooter", "lon": -77.03725333333334, "bike_id": "9f5f4902c62759766d6bbe6adc2fafe5", "rental_uris": {"android": "https://dc.lft.to/lastmile_qr_scan", "ios": "https://dc.lft.to/lastmile_qr_scan"}, "name": "9f5f4902c62759766d6bbe6adc2fafe5", "is_reserved": 0}, {"is_disabled": 0, "fusion_lon": 0.0, "fusion_lat": 0.0, "lat": 38.892849166666664, "type": "electric_scooter", "lon": -77.0504755, "bike_id": "a30bb4b9cdb2f163546cf7ffe300d534", "rental_uris": {"android": "https://dc.lft.to/lastmile_qr_scan", "ios": "https://dc.lft.to/lastmile_qr_scan"}, "name": "a30bb4b9cdb2f163546cf7ffe300d534", "is_reserved": 0}, {"is_disabled": 0, "fusion_lon": 0.0, "fusion_lat": 0.0, "lat": 38.932834666666665, "type": "electric_scooter", "lon": -77.03984733333333, "bike_id": "3a820fad0941fefb747da17c1a4c0705", "rental_uris": {"android": "https://dc.lft.to/lastmile_qr_scan", "ios": "https://dc.lft.to/lastmile_qr_scan"}, "name": "3a820fad0941fefb747da17c1a4c0705", "is_reserved": 0}, {"is_disabled": 0, "fusion_lon": 0.0, "fusion_lat": 0.0, "lat": 38.9083955, "type": "electric_scooter", "lon": -77.02957633333334, "bike_id": "5d418d32cfe888c4e95e22638a2b02c2", "rental_uris": {"android": "https://dc.lft.to/lastmile_qr_scan", "ios": "https://dc.lft.to/lastmile_qr_scan"}, "name": "5d418d32cfe888c4e95e22638a2b02c2", "is_reserved": 0}, {"is_disabled": 0, "fusion_lon": 0.0, "fusion_lat": 0.0, "lat": 38.92651083333333, "type": "electric_scooter", "lon": -77.037184, "bike_id": "a30de90119a686b6079fb4348fa52682", "rental_uris": {"android": "https://dc.lft.to/lastmile_qr_scan", "ios": "https://dc.lft.to/lastmile_qr_scan"}, "name": "a30de90119a686b6079fb4348fa52682", "is_reserved": 0}, {"is_disabled": 0, "fusion_lon": 0.0, "fusion_lat": 0.0, "lat": 38.935521666666666, "type": "electric_scooter", "lon": -77.02219466666666, "bike_id": "83f44b73abef773d1da4f2cba63aa565", "rental_uris": {"android": "https://dc.lft.to/lastmile_qr_scan", "ios": "https://dc.lft.to/lastmile_qr_scan"}, "name": "83f44b73abef773d1da4f2cba63aa565", "is_reserved": 0}, {"is_disabled": 0, "fusion_lon": 0.0, "fusion_lat": 0.0, "lat": 38.9418395, "type": "electric_scooter", "lon": -77.03316983333333, "bike_id": "5d08256245b3b951c923036cc93faae8", "rental_uris": {"android": "https://dc.lft.to/lastmile_qr_scan", "ios": "https://dc.lft.to/lastmile_qr_scan"}, "name": "5d08256245b3b951c923036cc93faae8", "is_reserved": 0}, {"is_disabled": 0, "fusion_lon": 0.0, "fusion_lat": 0.0, "lat": 38.90785016666667, "type": "electric_scooter", "lon": -77.03474033333333, "bike_id": "e3aa46fe7e41d319986fd7bd6711fd74", "rental_uris": {"android": "https://dc.lft.to/lastmile_qr_scan", "ios": "https://dc.lft.to/lastmile_qr_scan"}, "name": "e3aa46fe7e41d319986fd7bd6711fd74", "is_reserved": 0}, {"is_disabled": 0, "fusion_lon": 0.0, "fusion_lat": 0.0, "lat": 38.9072315, "type": "electric_scooter", "lon": -77.04595116666667, "bike_id": "669151e976048f9e1b8dc50caa3eaead", "rental_uris": {"android": "https://dc.lft.to/lastmile_qr_scan", "ios": "https://dc.lft.to/lastmile_qr_scan"}, "name": "669151e976048f9e1b8dc50caa3eaead", "is_reserved": 0}, {"is_disabled": 0, "fusion_lon": 0.0, "fusion_lat": 0.0, "lat": 38.91276633333333, "type": "electric_scooter", "lon": -77.02248466666667, "bike_id": "ecbf9b45511d52f272b4212c56073ca4", "rental_uris": {"android": "https://dc.lft.to/lastmile_qr_scan", "ios": "https://dc.lft.to/lastmile_qr_scan"}, "name": "ecbf9b45511d52f272b4212c56073ca4", "is_reserved": 0}, {"is_disabled": 0, "fusion_lon": 0.0, "fusion_lat": 0.0, "lat": 38.90252066666667, "type": "electric_scooter", "lon": -77.02158966666667, "bike_id": "09c0efbd74d41da529dfdf795178abf5", "rental_uris": {"android": "https://dc.lft.to/lastmile_qr_scan", "ios": "https://dc.lft.to/lastmile_qr_scan"}, "name": "09c0efbd74d41da529dfdf795178abf5", "is_reserved": 0}, {"is_disabled": 0, "fusion_lon": 0.0, "fusion_lat": 0.0, "lat": 38.955606833333334, "type": "electric_bike", "lon": -76.93541033333334, "bike_id": "3f99ed6c37eaba3a40bc2ea80f7708f9", "rental_uris": {"android": "https://dc.lft.to/lastmile_qr_scan", "ios": "https://dc.lft.to/lastmile_qr_scan"}, "name": "3f99ed6c37eaba3a40bc2ea80f7708f9", "is_reserved": 0}, {"is_disabled": 0, "fusion_lon": 0.0, "fusion_lat": 0.0, "lat": 38.909402, "type": "electric_scooter", "lon": -77.05363116666666, "bike_id": "afdf5196c1661e056da5efac5e62ef11", "rental_uris": {"android": "https://dc.lft.to/lastmile_qr_scan", "ios": "https://dc.lft.to/lastmile_qr_scan"}, "name": "afdf5196c1661e056da5efac5e62ef11", "is_reserved": 0}, {"is_disabled": 0, "fusion_lon": 0.0, "fusion_lat": 0.0, "lat": 38.898541333333334, "type": "electric_scooter", "lon": -76.99037283333334, "bike_id": "08b0b0ede94ac8fb7e38022e4ad4e4da", "rental_uris": {"android": "https://dc.lft.to/lastmile_qr_scan", "ios": "https://dc.lft.to/lastmile_qr_scan"}, "name": "08b0b0ede94ac8fb7e38022e4ad4e4da", "is_reserved": 0}, {"is_disabled": 0, "fusion_lon": 0.0, "fusion_lat": 0.0, "lat": 38.82879533333333, "type": "electric_bike", "lon": -77.11221316666666, "bike_id": "8b921dba57794470b1f03bc7d2bb15fa", "rental_uris": {"android": "https://dc.lft.to/lastmile_qr_scan", "ios": "https://dc.lft.to/lastmile_qr_scan"}, "name": "8b921dba57794470b1f03bc7d2bb15fa", "is_reserved": 0}, {"is_disabled": 0, "fusion_lon": 0.0, "fusion_lat": 0.0, "lat": 38.886826, "type": "electric_scooter", "lon": -77.00175116666666, "bike_id": "db33e28aa69527d02281932dce623150", "rental_uris": {"android": "https://dc.lft.to/lastmile_qr_scan", "ios": "https://dc.lft.to/lastmile_qr_scan"}, "name": "db33e28aa69527d02281932dce623150", "is_reserved": 0}, {"is_disabled": 0, "fusion_lon": 0.0, "fusion_lat": 0.0, "lat": 38.91658483333333, "type": "electric_scooter", "lon": -77.03207833333333, "bike_id": "da6863998b27ed8e9a9bf91c40e09508", "rental_uris": {"android": "https://dc.lft.to/lastmile_qr_scan", "ios": "https://dc.lft.to/lastmile_qr_scan"}, "name": "da6863998b27ed8e9a9bf91c40e09508", "is_reserved": 0}, {"is_disabled": 0, "fusion_lon": 0.0, "fusion_lat": 0.0, "lat": 38.90694283333333, "type": "electric_scooter", "lon": -77.05795483333333, "bike_id": "d050de48dcabae8eed187440db83e805", "rental_uris": {"android": "https://dc.lft.to/lastmile_qr_scan", "ios": "https://dc.lft.to/lastmile_qr_scan"}, "name": "d050de48dcabae8eed187440db83e805", "is_reserved": 0}, {"is_disabled": 0, "fusion_lon": 0.0, "fusion_lat": 0.0, "lat": 38.8963435, "type": "electric_scooter", "lon": -77.0408285, "bike_id": "4b1535b0646b3dbf1bcb2a5523d2f016", "rental_uris": {"android": "https://dc.lft.to/lastmile_qr_scan", "ios": "https://dc.lft.to/lastmile_qr_scan"}, "name": "4b1535b0646b3dbf1bcb2a5523d2f016", "is_reserved": 0}, {"is_disabled": 0, "fusion_lon": 0.0, "fusion_lat": 0.0, "lat": 38.932816, "type": "electric_scooter", "lon": -77.03975933333334, "bike_id": "0769d16a1d107d999512dd3e86b5aa65", "rental_uris": {"android": "https://dc.lft.to/lastmile_qr_scan", "ios": "https://dc.lft.to/lastmile_qr_scan"}, "name": "0769d16a1d107d999512dd3e86b5aa65", "is_reserved": 0}, {"is_disabled": 0, "fusion_lon": 0.0, "fusion_lat": 0.0, "lat": 38.912986833333335, "type": "electric_scooter", "lon": -77.0320225, "bike_id": "7d78baadbf0976d0f6709ba90ade2134", "rental_uris": {"android": "https://dc.lft.to/lastmile_qr_scan", "ios": "https://dc.lft.to/lastmile_qr_scan"}, "name": "7d78baadbf0976d0f6709ba90ade2134", "is_reserved": 0}, {"is_disabled": 0, "fusion_lon": 0.0, "fusion_lat": 0.0, "lat": 38.8908105, "type": "electric_scooter", "lon": -76.93877716666667, "bike_id": "dd6c2743aca566b3e0002d02c874dd9d", "rental_uris": {"android": "https://dc.lft.to/lastmile_qr_scan", "ios": "https://dc.lft.to/lastmile_qr_scan"}, "name": "dd6c2743aca566b3e0002d02c874dd9d", "is_reserved": 0}, {"is_disabled": 0, "fusion_lon": 0.0, "fusion_lat": 0.0, "lat": 38.909335666666664, "type": "electric_scooter", "lon": -77.03517783333334, "bike_id": "64af70e8f14dd1217d0948f09eda1d55", "rental_uris": {"android": "https://dc.lft.to/lastmile_qr_scan", "ios": "https://dc.lft.to/lastmile_qr_scan"}, "name": "64af70e8f14dd1217d0948f09eda1d55", "is_reserved": 0}, {"is_disabled": 0, "fusion_lon": 0.0, "fusion_lat": 0.0, "lat": 38.90781883333333, "type": "electric_scooter", "lon": -77.03861183333333, "bike_id": "483e2c12ecf7e7b291b0212822dce30c", "rental_uris": {"android": "https://dc.lft.to/lastmile_qr_scan", "ios": "https://dc.lft.to/lastmile_qr_scan"}, "name": "483e2c12ecf7e7b291b0212822dce30c", "is_reserved": 0}, {"is_disabled": 0, "fusion_lon": 0.0, "fusion_lat": 0.0, "lat": 38.89221916666666, "type": "electric_scooter", "lon": -77.04709433333333, "bike_id": "264cab265cc3ef0da5477a9707533685", "rental_uris": {"android": "https://dc.lft.to/lastmile_qr_scan", "ios": "https://dc.lft.to/lastmile_qr_scan"}, "name": "264cab265cc3ef0da5477a9707533685", "is_reserved": 0}, {"is_disabled": 0, "fusion_lon": 0.0, "fusion_lat": 0.0, "lat": 38.8922595, "type": "electric_scooter", "lon": -77.0479215, "bike_id": "b258a40ca36f4881489ece82d11be6e5", "rental_uris": {"android": "https://dc.lft.to/lastmile_qr_scan", "ios": "https://dc.lft.to/lastmile_qr_scan"}, "name": "b258a40ca36f4881489ece82d11be6e5", "is_reserved": 0}, {"is_disabled": 0, "fusion_lon": 0.0, "fusion_lat": 0.0, "lat": 38.95019533333333, "type": "electric_bike", "lon": -77.05466033333333, "bike_id": "7289221e8f6bc26193bbbf46555daa37", "rental_uris": {"android": "https://dc.lft.to/lastmile_qr_scan", "ios": "https://dc.lft.to/lastmile_qr_scan"}, "name": "7289221e8f6bc26193bbbf46555daa37", "is_reserved": 0}, {"is_disabled": 0, "fusion_lon": 0.0, "fusion_lat": 0.0, "lat": 38.8903955, "type": "electric_scooter", "lon": -77.02980583333333, "bike_id": "941e2607d4a544c80f6d1a87401da0c2", "rental_uris": {"android": "https://dc.lft.to/lastmile_qr_scan", "ios": "https://dc.lft.to/lastmile_qr_scan"}, "name": "941e2607d4a544c80f6d1a87401da0c2", "is_reserved": 0}, {"is_disabled": 0, "fusion_lon": 0.0, "fusion_lat": 0.0, "lat": 38.92655116666667, "type": "electric_scooter", "lon": -77.03720066666666, "bike_id": "3229390529e6df6d2372863a831f1ed2", "rental_uris": {"android": "https://dc.lft.to/lastmile_qr_scan", "ios": "https://dc.lft.to/lastmile_qr_scan"}, "name": "3229390529e6df6d2372863a831f1ed2", "is_reserved": 0}, {"is_disabled": 0, "fusion_lon": 0.0, "fusion_lat": 0.0, "lat": 38.94797283333333, "type": "electric_scooter", "lon": -77.03286266666667, "bike_id": "09bcaeea446d4c80d848922ab5aa7bd1", "rental_uris": {"android": "https://dc.lft.to/lastmile_qr_scan", "ios": "https://dc.lft.to/lastmile_qr_scan"}, "name": "09bcaeea446d4c80d848922ab5aa7bd1", "is_reserved": 0}, {"is_disabled": 0, "fusion_lon": 0.0, "fusion_lat": 0.0, "lat": 38.90222333333333, "type": "electric_scooter", "lon": -77.02441766666666, "bike_id": "b8c6ecf0521aec369f26ee3ccd0a87b1", "rental_uris": {"android": "https://dc.lft.to/lastmile_qr_scan", "ios": "https://dc.lft.to/lastmile_qr_scan"}, "name": "b8c6ecf0521aec369f26ee3ccd0a87b1", "is_reserved": 0}, {"is_disabled": 0, "fusion_lon": 0.0, "fusion_lat": 0.0, "lat": 38.91112, "type": "electric_scooter", "lon": -77.0504005, "bike_id": "f84a6ca3754724bdbc76facaf3a06224", "rental_uris": {"android": "https://dc.lft.to/lastmile_qr_scan", "ios": "https://dc.lft.to/lastmile_qr_scan"}, "name": "f84a6ca3754724bdbc76facaf3a06224", "is_reserved": 0}, {"is_disabled": 0, "fusion_lon": 0.0, "fusion_lat": 0.0, "lat": 38.92971516666667, "type": "electric_scooter", "lon": -77.02819616666666, "bike_id": "8cc5b385e2fd1740af1a1a7d7bf7aff4", "rental_uris": {"android": "https://dc.lft.to/lastmile_qr_scan", "ios": "https://dc.lft.to/lastmile_qr_scan"}, "name": "8cc5b385e2fd1740af1a1a7d7bf7aff4", "is_reserved": 0}, {"is_disabled": 0, "fusion_lon": 0.0, "fusion_lat": 0.0, "lat": 38.91708933333334, "type": "electric_scooter", "lon": -77.02791316666666, "bike_id": "791c105ed93d1c116eff2907150bd0c4", "rental_uris": {"android": "https://dc.lft.to/lastmile_qr_scan", "ios": "https://dc.lft.to/lastmile_qr_scan"}, "name": "791c105ed93d1c116eff2907150bd0c4", "is_reserved": 0}, {"is_disabled": 0, "fusion_lon": 0.0, "fusion_lat": 0.0, "lat": 39.041298, "type": "electric_bike", "lon": -76.98913783333333, "bike_id": "2a7b74d507f94e443ad12672db451838", "rental_uris": {"android": "https://dc.lft.to/lastmile_qr_scan", "ios": "https://dc.lft.to/lastmile_qr_scan"}, "name": "2a7b74d507f94e443ad12672db451838", "is_reserved": 0}, {"is_disabled": 0, "fusion_lon": 0.0, "fusion_lat": 0.0, "lat": 38.877203333333334, "type": "electric_scooter", "lon": -77.01754783333334, "bike_id": "379d97270d1a9d08003df296a49d9802", "rental_uris": {"android": "https://dc.lft.to/lastmile_qr_scan", "ios": "https://dc.lft.to/lastmile_qr_scan"}, "name": "379d97270d1a9d08003df296a49d9802", "is_reserved": 0}, {"is_disabled": 0, "fusion_lon": 0.0, "fusion_lat": 0.0, "lat": 38.87725, "type": "electric_scooter", "lon": -77.01762933333333, "bike_id": "d1036a79035ccb02268521eeb1e9aa4b", "rental_uris": {"android": "https://dc.lft.to/lastmile_qr_scan", "ios": "https://dc.lft.to/lastmile_qr_scan"}, "name": "d1036a79035ccb02268521eeb1e9aa4b", "is_reserved": 0}, {"is_disabled": 0, "fusion_lon": 0.0, "fusion_lat": 0.0, "lat": 38.907476, "type": "electric_scooter", "lon": -77.021781, "bike_id": "936850dd381a7b59312471b795b50500", "rental_uris": {"android": "https://dc.lft.to/lastmile_qr_scan", "ios": "https://dc.lft.to/lastmile_qr_scan"}, "name": "936850dd381a7b59312471b795b50500", "is_reserved": 0}, {"is_disabled": 0, "fusion_lon": 0.0, "fusion_lat": 0.0, "lat": 38.923689333333336, "type": "electric_scooter", "lon": -77.05032716666666, "bike_id": "fa1e9aeedb1a49fba455cca4aa53debc", "rental_uris": {"android": "https://dc.lft.to/lastmile_qr_scan", "ios": "https://dc.lft.to/lastmile_qr_scan"}, "name": "fa1e9aeedb1a49fba455cca4aa53debc", "is_reserved": 0}, {"is_disabled": 0, "fusion_lon": 0.0, "fusion_lat": 0.0, "lat": 38.93268416666667, "type": "electric_bike", "lon": -76.98632883333333, "bike_id": "dafdd64a79cc9a0e204b0a826ffb9c89", "rental_uris": {"android": "https://dc.lft.to/lastmile_qr_scan", "ios": "https://dc.lft.to/lastmile_qr_scan"}, "name": "dafdd64a79cc9a0e204b0a826ffb9c89", "is_reserved": 0}, {"is_disabled": 0, "fusion_lon": 0.0, "fusion_lat": 0.0, "lat": 38.919030666666664, "type": "electric_scooter", "lon": -77.02759283333333, "bike_id": "850942acd50d1eb7561caa1626c323d9", "rental_uris": {"android": "https://dc.lft.to/lastmile_qr_scan", "ios": "https://dc.lft.to/lastmile_qr_scan"}, "name": "850942acd50d1eb7561caa1626c323d9", "is_reserved": 0}, {"is_disabled": 0, "fusion_lon": 0.0, "fusion_lat": 0.0, "lat": 38.926210833333336, "type": "electric_scooter", "lon": -77.04331983333333, "bike_id": "36a3724badbbd0ad33b5cadd45857444", "rental_uris": {"android": "https://dc.lft.to/lastmile_qr_scan", "ios": "https://dc.lft.to/lastmile_qr_scan"}, "name": "36a3724badbbd0ad33b5cadd45857444", "is_reserved": 0}, {"is_disabled": 0, "fusion_lon": 0.0, "fusion_lat": 0.0, "lat": 38.900135, "type": "electric_scooter", "lon": -77.00688766666667, "bike_id": "a1d225799d0a716e5826c9d15605add1", "rental_uris": {"android": "https://dc.lft.to/lastmile_qr_scan", "ios": "https://dc.lft.to/lastmile_qr_scan"}, "name": "a1d225799d0a716e5826c9d15605add1", "is_reserved": 0}, {"is_disabled": 0, "fusion_lon": 0.0, "fusion_lat": 0.0, "lat": 38.889677, "type": "electric_scooter", "lon": -76.92737833333334, "bike_id": "ca961db7b75573e25050a6d1d1c7cb21", "rental_uris": {"android": "https://dc.lft.to/lastmile_qr_scan", "ios": "https://dc.lft.to/lastmile_qr_scan"}, "name": "ca961db7b75573e25050a6d1d1c7cb21", "is_reserved": 0}, {"is_disabled": 0, "fusion_lon": 0.0, "fusion_lat": 0.0, "lat": 38.90959483333334, "type": "electric_scooter", "lon": -77.059255, "bike_id": "ff40bde3a0a3628a71ce0f17b3f7d5a5", "rental_uris": {"android": "https://dc.lft.to/lastmile_qr_scan", "ios": "https://dc.lft.to/lastmile_qr_scan"}, "name": "ff40bde3a0a3628a71ce0f17b3f7d5a5", "is_reserved": 0}, {"is_disabled": 0, "fusion_lon": 0.0, "fusion_lat": 0.0, "lat": 38.885066333333334, "type": "electric_scooter", "lon": -77.00327266666666, "bike_id": "4514d37395ea108760e346e97e3aef26", "rental_uris": {"android": "https://dc.lft.to/lastmile_qr_scan", "ios": "https://dc.lft.to/lastmile_qr_scan"}, "name": "4514d37395ea108760e346e97e3aef26", "is_reserved": 0}, {"is_disabled": 0, "fusion_lon": 0.0, "fusion_lat": 0.0, "lat": 38.89555216666667, "type": "electric_scooter", "lon": -77.02931133333334, "bike_id": "6c05eb3ab0cd4a88cec0c517f0ed1189", "rental_uris": {"android": "https://dc.lft.to/lastmile_qr_scan", "ios": "https://dc.lft.to/lastmile_qr_scan"}, "name": "6c05eb3ab0cd4a88cec0c517f0ed1189", "is_reserved": 0}, {"is_disabled": 0, "fusion_lon": 0.0, "fusion_lat": 0.0, "lat": 38.9594915, "type": "electric_scooter", "lon": -77.07227116666667, "bike_id": "f07fd8fbf2eb7b903a4d2cf5ae9a6acc", "rental_uris": {"android": "https://dc.lft.to/lastmile_qr_scan", "ios": "https://dc.lft.to/lastmile_qr_scan"}, "name": "f07fd8fbf2eb7b903a4d2cf5ae9a6acc", "is_reserved": 0}, {"is_disabled": 0, "fusion_lon": 0.0, "fusion_lat": 0.0, "lat": 38.898437, "type": "electric_scooter", "lon": -76.94633116666667, "bike_id": "97cf58287924f4fd28cf68d9adfc44e2", "rental_uris": {"android": "https://dc.lft.to/lastmile_qr_scan", "ios": "https://dc.lft.to/lastmile_qr_scan"}, "name": "97cf58287924f4fd28cf68d9adfc44e2", "is_reserved": 0}, {"is_disabled": 0, "fusion_lon": 0.0, "fusion_lat": 0.0, "lat": 38.90074166666667, "type": "electric_scooter", "lon": -77.0130885, "bike_id": "5819c722f4c11882518e72a4a9c80843", "rental_uris": {"android": "https://dc.lft.to/lastmile_qr_scan", "ios": "https://dc.lft.to/lastmile_qr_scan"}, "name": "5819c722f4c11882518e72a4a9c80843", "is_reserved": 0}, {"is_disabled": 0, "fusion_lon": 0.0, "fusion_lat": 0.0, "lat": 38.8462085, "type": "electric_scooter", "lon": -76.996303, "bike_id": "9212074fe07e04687110376eeb56b993", "rental_uris": {"android": "https://dc.lft.to/lastmile_qr_scan", "ios": "https://dc.lft.to/lastmile_qr_scan"}, "name": "9212074fe07e04687110376eeb56b993", "is_reserved": 0}, {"is_disabled": 0, "fusion_lon": 0.0, "fusion_lat": 0.0, "lat": 38.865312833333334, "type": "electric_scooter", "lon": -76.98972033333334, "bike_id": "9b6d1d375a02d27d65ab3218943d2a0e", "rental_uris": {"android": "https://dc.lft.to/lastmile_qr_scan", "ios": "https://dc.lft.to/lastmile_qr_scan"}, "name": "9b6d1d375a02d27d65ab3218943d2a0e", "is_reserved": 0}, {"is_disabled": 0, "fusion_lon": 0.0, "fusion_lat": 0.0, "lat": 38.91271966666667, "type": "electric_scooter", "lon": -77.02239266666666, "bike_id": "ab9812c73d4242bff8faf4a265980811", "rental_uris": {"android": "https://dc.lft.to/lastmile_qr_scan", "ios": "https://dc.lft.to/lastmile_qr_scan"}, "name": "ab9812c73d4242bff8faf4a265980811", "is_reserved": 0}, {"is_disabled": 0, "fusion_lon": 0.0, "fusion_lat": 0.0, "lat": 38.903320666666666, "type": "electric_scooter", "lon": -76.98014883333333, "bike_id": "b0e1c3addc0aa585a4a987ee4314c3a4", "rental_uris": {"android": "https://dc.lft.to/lastmile_qr_scan", "ios": "https://dc.lft.to/lastmile_qr_scan"}, "name": "b0e1c3addc0aa585a4a987ee4314c3a4", "is_reserved": 0}, {"is_disabled": 0, "fusion_lon": 0.0, "fusion_lat": 0.0, "lat": 38.912691, "type": "electric_scooter", "lon": -77.02233983333333, "bike_id": "bcf5800ae188daccde13268086afbd79", "rental_uris": {"android": "https://dc.lft.to/lastmile_qr_scan", "ios": "https://dc.lft.to/lastmile_qr_scan"}, "name": "bcf5800ae188daccde13268086afbd79", "is_reserved": 0}, {"is_disabled": 0, "fusion_lon": 0.0, "fusion_lat": 0.0, "lat": 38.905056333333334, "type": "electric_scooter", "lon": -77.05026216666667, "bike_id": "33a2cef8a12727d4a390e8fa9da743fd", "rental_uris": {"android": "https://dc.lft.to/lastmile_qr_scan", "ios": "https://dc.lft.to/lastmile_qr_scan"}, "name": "33a2cef8a12727d4a390e8fa9da743fd", "is_reserved": 0}, {"is_disabled": 0, "fusion_lon": 0.0, "fusion_lat": 0.0, "lat": 38.9622085, "type": "electric_scooter", "lon": -77.02801616666666, "bike_id": "556c142ee6a05d7b87d9d709bc85c68f", "rental_uris": {"android": "https://dc.lft.to/lastmile_qr_scan", "ios": "https://dc.lft.to/lastmile_qr_scan"}, "name": "556c142ee6a05d7b87d9d709bc85c68f", "is_reserved": 0}, {"is_disabled": 0, "fusion_lon": 0.0, "fusion_lat": 0.0, "lat": 38.901533666666666, "type": "electric_scooter", "lon": -77.05925716666667, "bike_id": "d20a1c6351755c42d169b3f3e995363f", "rental_uris": {"android": "https://dc.lft.to/lastmile_qr_scan", "ios": "https://dc.lft.to/lastmile_qr_scan"}, "name": "d20a1c6351755c42d169b3f3e995363f", "is_reserved": 0}, {"is_disabled": 0, "fusion_lon": 0.0, "fusion_lat": 0.0, "lat": 38.917617, "type": "electric_scooter", "lon": -77.004975, "bike_id": "177141305a22af93d13df0648e42e5be", "rental_uris": {"android": "https://dc.lft.to/lastmile_qr_scan", "ios": "https://dc.lft.to/lastmile_qr_scan"}, "name": "177141305a22af93d13df0648e42e5be", "is_reserved": 0}, {"is_disabled": 0, "fusion_lon": 0.0, "fusion_lat": 0.0, "lat": 38.9163025, "type": "electric_scooter", "lon": -77.025612, "bike_id": "4a4ee43277f348be34f4ff2e344538d6", "rental_uris": {"android": "https://dc.lft.to/lastmile_qr_scan", "ios": "https://dc.lft.to/lastmile_qr_scan"}, "name": "4a4ee43277f348be34f4ff2e344538d6", "is_reserved": 0}, {"is_disabled": 0, "fusion_lon": 0.0, "fusion_lat": 0.0, "lat": 38.949240333333336, "type": "electric_scooter", "lon": -77.01857666666666, "bike_id": "e2157d1999d6a982ed30914677868e65", "rental_uris": {"android": "https://dc.lft.to/lastmile_qr_scan", "ios": "https://dc.lft.to/lastmile_qr_scan"}, "name": "e2157d1999d6a982ed30914677868e65", "is_reserved": 0}, {"is_disabled": 0, "fusion_lon": 0.0, "fusion_lat": 0.0, "lat": 38.89353466666667, "type": "electric_scooter", "lon": -76.94946783333333, "bike_id": "ad55c7eead53a85bb4da59d05e96b9c0", "rental_uris": {"android": "https://dc.lft.to/lastmile_qr_scan", "ios": "https://dc.lft.to/lastmile_qr_scan"}, "name": "ad55c7eead53a85bb4da59d05e96b9c0", "is_reserved": 0}, {"is_disabled": 0, "fusion_lon": 0.0, "fusion_lat": 0.0, "lat": 38.92172333333333, "type": "electric_scooter", "lon": -77.05529816666666, "bike_id": "fcb77ac7deedeb89500b88f01f590e2b", "rental_uris": {"android": "https://dc.lft.to/lastmile_qr_scan", "ios": "https://dc.lft.to/lastmile_qr_scan"}, "name": "fcb77ac7deedeb89500b88f01f590e2b", "is_reserved": 0}, {"is_disabled": 0, "fusion_lon": 0.0, "fusion_lat": 0.0, "lat": 38.93552783333333, "type": "electric_scooter", "lon": -77.02860166666666, "bike_id": "3d71b79a21ec74979974d57d00629964", "rental_uris": {"android": "https://dc.lft.to/lastmile_qr_scan", "ios": "https://dc.lft.to/lastmile_qr_scan"}, "name": "3d71b79a21ec74979974d57d00629964", "is_reserved": 0}, {"is_disabled": 0, "fusion_lon": 0.0, "fusion_lat": 0.0, "lat": 38.9001855, "type": "electric_scooter", "lon": -77.04376983333333, "bike_id": "f2ad73eef8449d9566f10eae5b9f7558", "rental_uris": {"android": "https://dc.lft.to/lastmile_qr_scan", "ios": "https://dc.lft.to/lastmile_qr_scan"}, "name": "f2ad73eef8449d9566f10eae5b9f7558", "is_reserved": 0}, {"is_disabled": 0, "fusion_lon": 0.0, "fusion_lat": 0.0, "lat": 38.914835, "type": "electric_scooter", "lon": -77.03293433333333, "bike_id": "c81f6750a62fed8341136b2672f33a8b", "rental_uris": {"android": "https://dc.lft.to/lastmile_qr_scan", "ios": "https://dc.lft.to/lastmile_qr_scan"}, "name": "c81f6750a62fed8341136b2672f33a8b", "is_reserved": 0}, {"is_disabled": 0, "fusion_lon": 0.0, "fusion_lat": 0.0, "lat": 38.90623883333333, "type": "electric_scooter", "lon": -77.032114, "bike_id": "bbf248db349401bd23cee005e07483ca", "rental_uris": {"android": "https://dc.lft.to/lastmile_qr_scan", "ios": "https://dc.lft.to/lastmile_qr_scan"}, "name": "bbf248db349401bd23cee005e07483ca", "is_reserved": 0}, {"is_disabled": 0, "fusion_lon": 0.0, "fusion_lat": 0.0, "lat": 38.90560583333333, "type": "electric_scooter", "lon": -77.0660585, "bike_id": "cfddc4458e094baabd60801c24a7acde", "rental_uris": {"android": "https://dc.lft.to/lastmile_qr_scan", "ios": "https://dc.lft.to/lastmile_qr_scan"}, "name": "cfddc4458e094baabd60801c24a7acde", "is_reserved": 0}, {"is_disabled": 0, "fusion_lon": 0.0, "fusion_lat": 0.0, "lat": 38.9028325, "type": "electric_scooter", "lon": -76.97404883333333, "bike_id": "d8f236f22e3f0346b508e37b510ecdcd", "rental_uris": {"android": "https://dc.lft.to/lastmile_qr_scan", "ios": "https://dc.lft.to/lastmile_qr_scan"}, "name": "d8f236f22e3f0346b508e37b510ecdcd", "is_reserved": 0}, {"is_disabled": 0, "fusion_lon": 0.0, "fusion_lat": 0.0, "lat": 38.926174, "type": "electric_scooter", "lon": -77.021646, "bike_id": "f72d4d6bccf50965c78e312f3b82c303", "rental_uris": {"android": "https://dc.lft.to/lastmile_qr_scan", "ios": "https://dc.lft.to/lastmile_qr_scan"}, "name": "f72d4d6bccf50965c78e312f3b82c303", "is_reserved": 0}, {"is_disabled": 0, "fusion_lon": 0.0, "fusion_lat": 0.0, "lat": 38.900889666666664, "type": "electric_scooter", "lon": -77.04427183333334, "bike_id": "9e8236ac90d09fbbcc4bcf7e30628206", "rental_uris": {"android": "https://dc.lft.to/lastmile_qr_scan", "ios": "https://dc.lft.to/lastmile_qr_scan"}, "name": "9e8236ac90d09fbbcc4bcf7e30628206", "is_reserved": 0}, {"is_disabled": 0, "fusion_lon": 0.0, "fusion_lat": 0.0, "lat": 38.92756033333333, "type": "electric_scooter", "lon": -77.033562, "bike_id": "337265b5fee9d7fa641dd70755be43db", "rental_uris": {"android": "https://dc.lft.to/lastmile_qr_scan", "ios": "https://dc.lft.to/lastmile_qr_scan"}, "name": "337265b5fee9d7fa641dd70755be43db", "is_reserved": 0}, {"is_disabled": 0, "fusion_lon": 0.0, "fusion_lat": 0.0, "lat": 38.940955, "type": "electric_scooter", "lon": -77.017841, "bike_id": "b65dfd651cf61276c8d795912378b732", "rental_uris": {"android": "https://dc.lft.to/lastmile_qr_scan", "ios": "https://dc.lft.to/lastmile_qr_scan"}, "name": "b65dfd651cf61276c8d795912378b732", "is_reserved": 0}, {"is_disabled": 0, "fusion_lon": 0.0, "fusion_lat": 0.0, "lat": 38.98478, "type": "electric_scooter", "lon": -77.02650083333333, "bike_id": "e8c95f1ffdd01a0b09f59490e59fff55", "rental_uris": {"android": "https://dc.lft.to/lastmile_qr_scan", "ios": "https://dc.lft.to/lastmile_qr_scan"}, "name": "e8c95f1ffdd01a0b09f59490e59fff55", "is_reserved": 0}, {"is_disabled": 0, "fusion_lon": 0.0, "fusion_lat": 0.0, "lat": 38.88464066666667, "type": "electric_scooter", "lon": -76.95407, "bike_id": "651edc86bc7898f17b65dc05f4df7260", "rental_uris": {"android": "https://dc.lft.to/lastmile_qr_scan", "ios": "https://dc.lft.to/lastmile_qr_scan"}, "name": "651edc86bc7898f17b65dc05f4df7260", "is_reserved": 0}, {"is_disabled": 0, "fusion_lon": 0.0, "fusion_lat": 0.0, "lat": 38.896698666666666, "type": "electric_scooter", "lon": -77.0231135, "bike_id": "68561328e06c103b7317f82b887d665a", "rental_uris": {"android": "https://dc.lft.to/lastmile_qr_scan", "ios": "https://dc.lft.to/lastmile_qr_scan"}, "name": "68561328e06c103b7317f82b887d665a", "is_reserved": 0}, {"is_disabled": 0, "fusion_lon": 0.0, "fusion_lat": 0.0, "lat": 38.91345366666667, "type": "electric_scooter", "lon": -77.052174, "bike_id": "9ff5ec080fce8e54a84542413e0536bb", "rental_uris": {"android": "https://dc.lft.to/lastmile_qr_scan", "ios": "https://dc.lft.to/lastmile_qr_scan"}, "name": "9ff5ec080fce8e54a84542413e0536bb", "is_reserved": 0}, {"is_disabled": 0, "fusion_lon": 0.0, "fusion_lat": 0.0, "lat": 38.932944, "type": "electric_scooter", "lon": -77.0245145, "bike_id": "28f7430f0cc8f7c16d0b013c26f18936", "rental_uris": {"android": "https://dc.lft.to/lastmile_qr_scan", "ios": "https://dc.lft.to/lastmile_qr_scan"}, "name": "28f7430f0cc8f7c16d0b013c26f18936", "is_reserved": 0}, {"is_disabled": 0, "fusion_lon": 0.0, "fusion_lat": 0.0, "lat": 38.867129166666665, "type": "electric_scooter", "lon": -76.97903983333333, "bike_id": "33d5375791d8c02b103b129676cffe55", "rental_uris": {"android": "https://dc.lft.to/lastmile_qr_scan", "ios": "https://dc.lft.to/lastmile_qr_scan"}, "name": "33d5375791d8c02b103b129676cffe55", "is_reserved": 0}, {"is_disabled": 0, "fusion_lon": 0.0, "fusion_lat": 0.0, "lat": 38.92938216666667, "type": "electric_scooter", "lon": -77.01645516666666, "bike_id": "da943a70a7b24df62a25a9801288d1c7", "rental_uris": {"android": "https://dc.lft.to/lastmile_qr_scan", "ios": "https://dc.lft.to/lastmile_qr_scan"}, "name": "da943a70a7b24df62a25a9801288d1c7", "is_reserved": 0},