{"data": {"bikes": [{"bike_id": "71517244a41f1320514c8f1db50e95ce", "is_reserved": 0, "fusion_lon": 0.0, "lat": 38.90967966666667, "is_disabled": 0, "name": "71517244a41f1320514c8f1db50e95ce", "fusion_lat": 0.0, "rental_uris": {"ios": "https://dc.lft.to/lastmile_qr_scan", "android": "https://dc.lft.to/lastmile_qr_scan"}, "lon": -77.02722916666667, "type": "electric_scooter"}, {"bike_id": "ca00eb6c1272b525d62fcbb4ffd17c8d", "is_reserved": 0, "fusion_lon": 0.0, "lat": 38.898214333333335, "is_disabled": 0, "name": "ca00eb6c1272b525d62fcbb4ffd17c8d", "fusion_lat": 0.0, "rental_uris": {"ios": "https://dc.lft.to/lastmile_qr_scan", "android": "https://dc.lft.to/lastmile_qr_scan"}, "lon": -77.006019, "type": "electric_bike"}, {"bike_id": "70f20b48fdc60431d928abc007c67725", "is_reserved": 0, "fusion_lon": 0.0, "lat": 38.9023935, "is_disabled": 0, "name": "70f20b48fdc60431d928abc007c67725", "fusion_lat": 0.0, "rental_uris": {"ios": "https://dc.lft.to/lastmile_qr_scan", "android": "https://dc.lft.to/lastmile_qr_scan"}, "lon": -76.97415633333334, "type": "electric_scooter"}, {"bike_id": "8f0659e3599d22ae7c00c937a11f53b4", "is_reserved": 0, "fusion_lon": 0.0, "lat": 38.9418085, "is_disabled": 0, "name": "8f0659e3599d22ae7c00c937a11f53b4", "fusion_lat": 0.0, "rental_uris": {"ios": "https://dc.lft.to/lastmile_qr_scan", "android": "https://dc.lft.to/lastmile_qr_scan"}, "lon": -77.0169815, "type": "electric_scooter"}, {"bike_id": "510f6f4756ef97cc40b7b44812200415", "is_reserved": 0, "fusion_lon": 0.0, "lat": 38.91597216666667, "is_disabled": 0, "name": "510f6f4756ef97cc40b7b44812200415", "fusion_lat": 0.0, "rental_uris": {"ios": "https://dc.lft.to/lastmile_qr_scan", "android": "https://dc.lft.to/lastmile_qr_scan"}, "lon": -77.04174183333333, "type": "electric_scooter"}, {"bike_id": "df979a44e2765252fdedfba5531aa685", "is_reserved": 0, "fusion_lon": 0.0, "lat": 38.967593, "is_disabled": 0, "name": "df979a44e2765252fdedfba5531aa685", "fusion_lat": 0.0, "rental_uris": {"ios": "https://dc.lft.to/lastmile_qr_scan", "android": "https://dc.lft.to/lastmile_qr_scan"}, "lon": -77.09160916666667, "type": "electric_bike"}, {"bike_id": "39fe8f7f310ce75aabcfb290a1ca8015", "is_reserved": 0, "fusion_lon": 0.0, "lat": 38.900297333333334, "is_disabled": 0, "name": "39fe8f7f310ce75aabcfb290a1ca8015", "fusion_lat": 0.0, "rental_uris": {"ios": "https://dc.lft.to/lastmile_qr_scan", "android": "https://dc.lft.to/lastmile_qr_scan"}, "lon": -77.04391516666666, "type": "electric_scooter"}, {"bike_id": "f5dead3d23b91a47338479c06a8cb8d2", "is_reserved": 0, "fusion_lon": 0.0, "lat": 38.905749166666666, "is_disabled": 0, "name": "f5dead3d23b91a47338479c06a8cb8d2", "fusion_lat": 0.0, "rental_uris": {"ios": "https://dc.lft.to/lastmile_qr_scan", "android": "https://dc.lft.to/lastmile_qr_scan"}, "lon": -77.015099, "type": "electric_scooter"}, {"bike_id": "1e002d580ca663a6e1e31acbe47e2a8b", "is_reserved": 0, "fusion_lon": 0.0, "lat": 38.91723666666667, "is_disabled": 0, "name": "1e002d580ca663a6e1e31acbe47e2a8b", "fusion_lat": 0.0, "rental_uris": {"ios": "https://dc.lft.to/lastmile_qr_scan", "android": "https://dc.lft.to/lastmile_qr_scan"}, "lon": -77.03655983333333, "type": "electric_scooter"}, {"bike_id": "54e1bf278bbddfa16702a1f60a165b8b", "is_reserved": 0, "fusion_lon": 0.0, "lat": 38.90758116666667, "is_disabled": 0, "name": "54e1bf278bbddfa16702a1f60a165b8b", "fusion_lat": 0.0, "rental_uris": {"ios": "https://dc.lft.to/lastmile_qr_scan", "android": "https://dc.lft.to/lastmile_qr_scan"}, "lon": -77.0360465, "type": "electric_scooter"}, {"bike_id": "e2270183bc157298c5d728b8711a3d9d", "is_reserved": 0, "fusion_lon": 0.0, "lat": 38.861594, "is_disabled": 0, "name": "e2270183bc157298c5d728b8711a3d9d", "fusion_lat": 0.0, "rental_uris": {"ios": "https://dc.lft.to/lastmile_qr_scan", "android": "https://dc.lft.to/lastmile_qr_scan"}, "lon": -77.1309105, "type": "electric_bike"}, {"bike_id": "60f92ef359b9a8d97ef8670348b6ada5", "is_reserved": 0, "fusion_lon": 0.0, "lat": 38.909533333333336, "is_disabled": 0, "name": "60f92ef359b9a8d97ef8670348b6ada5", "fusion_lat": 0.0, "rental_uris": {"ios": "https://dc.lft.to/lastmile_qr_scan", "android": "https://dc.lft.to/lastmile_qr_scan"}, "lon": -76.98482133333333, "type": "electric_scooter"}, {"bike_id": "3faa19f84091b5ed1abf21d016fd8825", "is_reserved": 0, "fusion_lon": 0.0, "lat": 38.891848, "is_disabled": 0, "name": "3faa19f84091b5ed1abf21d016fd8825", "fusion_lat": 0.0, "rental_uris": {"ios": "https://dc.lft.to/lastmile_qr_scan", "android": "https://dc.lft.to/lastmile_qr_scan"}, "lon": -77.0153175, "type": "electric_scooter"}, {"bike_id": "23db4fb2a150ab09d9eaff3b6597795c", "is_reserved": 0, "fusion_lon": 0.0, "lat": 38.90862166666667, "is_disabled": 0, "name": "23db4fb2a150ab09d9eaff3b6597795c", "fusion_lat": 0.0, "rental_uris": {"ios": "https://dc.lft.to/lastmile_qr_scan", "android": "https://dc.lft.to/lastmile_qr_scan"}, "lon": -77.02732283333333, "type": "electric_scooter"}, {"bike_id": "42e4797c67d8e6e4d9d3187abeadd609", "is_reserved": 0, "fusion_lon": 0.0, "lat": 38.909196666666666, "is_disabled": 0, "name": "42e4797c67d8e6e4d9d3187abeadd609", "fusion_lat": 0.0, "rental_uris": {"ios": "https://dc.lft.to/lastmile_qr_scan", "android": "https://dc.lft.to/lastmile_qr_scan"}, "lon": -77.0091855, "type": "electric_scooter"}, {"bike_id": "937b824eb128fa438731ec332c55f875", "is_reserved": 0, "fusion_lon": 0.0, "lat": 38.91193166666667, "is_disabled": 0, "name": "937b824eb128fa438731ec332c55f875", "fusion_lat": 0.0, "rental_uris": {"ios": "https://dc.lft.to/lastmile_qr_scan", "android": "https://dc.lft.to/lastmile_qr_scan"}, "lon": -77.03264783333333, "type": "electric_scooter"}, {"bike_id": "a135e4c958604f54e8635a7e3293266e", "is_reserved": 0, "fusion_lon": 0.0, "lat": 38.902471166666665, "is_disabled": 0, "name": "a135e4c958604f54e8635a7e3293266e", "fusion_lat": 0.0, "rental_uris": {"ios": "https://dc.lft.to/lastmile_qr_scan", "android": "https://dc.lft.to/lastmile_qr_scan"}, "lon": -77.01629633333333, "type": "electric_scooter"}, {"bike_id": "1cb1bbe267311c4be98131a1c23dd0a5", "is_reserved": 0, "fusion_lon": 0.0, "lat": 38.8921755, "is_disabled": 0, "name": "1cb1bbe267311c4be98131a1c23dd0a5", "fusion_lat": 0.0, "rental_uris": {"ios": "https://dc.lft.to/lastmile_qr_scan", "android": "https://dc.lft.to/lastmile_qr_scan"}, "lon": -77.10778483333333, "type": "electric_bike"}, {"bike_id": "28044b989027f83029191f90a4f1e6ca", "is_reserved": 0, "fusion_lon": 0.0, "lat": 38.93295283333333, "is_disabled": 0, "name": "28044b989027f83029191f90a4f1e6ca", "fusion_lat": 0.0, "rental_uris": {"ios": "https://dc.lft.to/lastmile_qr_scan", "android": "https://dc.lft.to/lastmile_qr_scan"}, "lon": -77.02843033333333, "type": "electric_scooter"}, {"bike_id": "ac2dc4f05d9d2c00828b5d5c20b4f2de", "is_reserved": 0, "fusion_lon": 0.0, "lat": 38.93113966666667, "is_disabled": 0, "name": "ac2dc4f05d9d2c00828b5d5c20b4f2de", "fusion_lat": 0.0, "rental_uris": {"ios": "https://dc.lft.to/lastmile_qr_scan", "android": "https://dc.lft.to/lastmile_qr_scan"}, "lon": -77.03815816666666, "type": "electric_scooter"}, {"bike_id": "d5481bfb2822786a514c49ec920cb121", "is_reserved": 0, "fusion_lon": 0.0, "lat": 38.905026666666664, "is_disabled": 0, "name": "d5481bfb2822786a514c49ec920cb121", "fusion_lat": 0.0, "rental_uris": {"ios": "https://dc.lft.to/lastmile_qr_scan", "android": "https://dc.lft.to/lastmile_qr_scan"}, "lon": -77.06752366666667, "type": "electric_scooter"}, {"bike_id": "79450c63d5dd5499dc140de47f4450d9", "is_reserved": 0, "fusion_lon": 0.0, "lat": 38.942903, "is_disabled": 0, "name": "79450c63d5dd5499dc140de47f4450d9", "fusion_lat": 0.0, "rental_uris": {"ios": "https://dc.lft.to/lastmile_qr_scan", "android": "https://dc.lft.to/lastmile_qr_scan"}, "lon": -77.02172666666667, "type": "electric_scooter"}, {"bike_id": "21d9f66834a209cdc8f22511a9d049fd", "is_reserved": 0, "fusion_lon": 0.0, "lat": 38.933922333333335, "is_disabled": 0, "name": "21d9f66834a209cdc8f22511a9d049fd", "fusion_lat": 0.0, "rental_uris": {"ios": "https://dc.lft.to/lastmile_qr_scan", "android": "https://dc.lft.to/lastmile_qr_scan"}, "lon": -77.03582033333333, "type": "electric_scooter"}, {"bike_id": "feaf6814ede509255b29e1c3e8a0f8e9", "is_reserved": 0, "fusion_lon": 0.0, "lat": 38.93240616666667, "is_disabled": 0, "name": "feaf6814ede509255b29e1c3e8a0f8e9", "fusion_lat": 0.0, "rental_uris": {"ios": "https://dc.lft.to/lastmile_qr_scan", "android": "https://dc.lft.to/lastmile_qr_scan"}, "lon": -77.03263916666667, "type": "electric_scooter"}, {"bike_id": "c37194130c06b32a9bd562aa4eb0487c", "is_reserved": 0, "fusion_lon": 0.0, "lat": 38.8972685, "is_disabled": 0, "name": "c37194130c06b32a9bd562aa4eb0487c", "fusion_lat": 0.0, "rental_uris": {"ios": "https://dc.lft.to/lastmile_qr_scan", "android": "https://dc.lft.to/lastmile_qr_scan"}, "lon": -77.05473033333334, "type": "electric_scooter"}, {"bike_id": "a50eff30821e77ae83909d0e2dafcb34", "is_reserved": 0, "fusion_lon": 0.0, "lat": 38.900983833333335, "is_disabled": 0, "name": "a50eff30821e77ae83909d0e2dafcb34", "fusion_lat": 0.0, "rental_uris": {"ios": "https://dc.lft.to/lastmile_qr_scan", "android": "https://dc.lft.to/lastmile_qr_scan"}, "lon": -77.0499205, "type": "electric_scooter"}, {"bike_id": "81cf49237a791255b5a6c24e9a91f04f", "is_reserved": 0, "fusion_lon": 0.0, "lat": 38.905961, "is_disabled": 0, "name": "81cf49237a791255b5a6c24e9a91f04f", "fusion_lat": 0.0, "rental_uris": {"ios": "https://dc.lft.to/lastmile_qr_scan", "android": "https://dc.lft.to/lastmile_qr_scan"}, "lon": -77.03996866666667, "type": "electric_scooter"}, {"bike_id": "2a359b033adfc27cc8fde97b1b2179e2", "is_reserved": 0, "fusion_lon": 0.0, "lat": 39.015913, "is_disabled": 0, "name": "2a359b033adfc27cc8fde97b1b2179e2", "fusion_lat": 0.0, "rental_uris": {"ios": "https://dc.lft.to/lastmile_qr_scan", "android": "https://dc.lft.to/lastmile_qr_scan"}, "lon": -77.044278, "type": "electric_bike"}, {"bike_id": "dbffa2cba8fad07d5343080f287d2170", "is_reserved": 0, "fusion_lon": 0.0, "lat": 38.90297433333333, "is_disabled": 0, "name": "dbffa2cba8fad07d5343080f287d2170", "fusion_lat": 0.0, "rental_uris": {"ios": "https://dc.lft.to/lastmile_qr_scan", "android": "https://dc.lft.to/lastmile_qr_scan"}, "lon": -76.9444, "type": "electric_bike"}, {"bike_id": "d7856254e52378142475fc1deca9f5f8", "is_reserved": 0, "fusion_lon": 0.0, "lat": 38.837985833333335, "is_disabled": 0, "name": "d7856254e52378142475fc1deca9f5f8", "fusion_lat": 0.0, "rental_uris": {"ios": "https://dc.lft.to/lastmile_qr_scan", "android": "https://dc.lft.to/lastmile_qr_scan"}, "lon": -76.99838316666667, "type": "electric_bike"}, {"bike_id": "3b51098b49d7ae1d0e5bd8d7aa3b7a38", "is_reserved": 0, "fusion_lon": 0.0, "lat": 38.901553166666666, "is_disabled": 0, "name": "3b51098b49d7ae1d0e5bd8d7aa3b7a38", "fusion_lat": 0.0, "rental_uris": {"ios": "https://dc.lft.to/lastmile_qr_scan", "android": "https://dc.lft.to/lastmile_qr_scan"}, "lon": -76.97518833333334, "type": "electric_scooter"}, {"bike_id": "df270a74e2e2c69954e9a00f6a7f9cd6", "is_reserved": 0, "fusion_lon": 0.0, "lat": 38.900897, "is_disabled": 0, "name": "df270a74e2e2c69954e9a00f6a7f9cd6", "fusion_lat": 0.0, "rental_uris": {"ios": "https://dc.lft.to/lastmile_qr_scan", "android": "https://dc.lft.to/lastmile_qr_scan"}, "lon": -77.04764183333333, "type": "electric_scooter"}, {"bike_id": "46d95db4ab94b14b412c4945c6364e45", "is_reserved": 0, "fusion_lon": 0.0, "lat": 38.928655, "is_disabled": 0, "name": "46d95db4ab94b14b412c4945c6364e45", "fusion_lat": 0.0, "rental_uris": {"ios": "https://dc.lft.to/lastmile_qr_scan", "android": "https://dc.lft.to/lastmile_qr_scan"}, "lon": -77.034344, "type": "electric_scooter"}, {"bike_id": "9e3903a718741b82522a03b523577e06", "is_reserved": 0, "fusion_lon": 0.0, "lat": 38.9233235, "is_disabled": 0, "name": "9e3903a718741b82522a03b523577e06", "fusion_lat": 0.0, "rental_uris": {"ios": "https://dc.lft.to/lastmile_qr_scan", "android": "https://dc.lft.to/lastmile_qr_scan"}, "lon": -77.03891966666667, "type": "electric_scooter"}, {"bike_id": "cc183bdae33384703631dfdf4f048ba7", "is_reserved": 0, "fusion_lon": 0.0, "lat": 38.9218715, "is_disabled": 0, "name": "cc183bdae33384703631dfdf4f048ba7", "fusion_lat": 0.0, "rental_uris": {"ios": "https://dc.lft.to/lastmile_qr_scan", "android": "https://dc.lft.to/lastmile_qr_scan"}, "lon": -77.04129783333333, "type": "electric_scooter"}, {"bike_id": "c48bc6ebea944ae62fbd14112b48c9dc", "is_reserved": 0, "fusion_lon": 0.0, "lat": 38.92489316666666, "is_disabled": 0, "name": "c48bc6ebea944ae62fbd14112b48c9dc", "fusion_lat": 0.0, "rental_uris": {"ios": "https://dc.lft.to/lastmile_qr_scan", "android": "https://dc.lft.to/lastmile_qr_scan"}, "lon": -77.02715516666666, "type": "electric_scooter"}, {"bike_id": "4ee51c8c174671961181c8bf9b413831", "is_reserved": 0, "fusion_lon": 0.0, "lat": 38.9049815, "is_disabled": 0, "name": "4ee51c8c174671961181c8bf9b413831", "fusion_lat": 0.0, "rental_uris": {"ios": "https://dc.lft.to/lastmile_qr_scan", "android": "https://dc.lft.to/lastmile_qr_scan"}, "lon": -77.06864416666667, "type": "electric_scooter"}, {"bike_id": "597bd99d57eba6c6a5d01386aee0d036", "is_reserved": 0, "fusion_lon": 0.0, "lat": 38.90293283333333, "is_disabled": 0, "name": "597bd99d57eba6c6a5d01386aee0d036", "fusion_lat": 0.0, "rental_uris": {"ios": "https://dc.lft.to/lastmile_qr_scan", "android": "https://dc.lft.to/lastmile_qr_scan"}, "lon": -77.0433, "type": "electric_scooter"}, {"bike_id": "bfe19cb88f3a1a14ed6bc960670d6241", "is_reserved": 0, "fusion_lon": 0.0, "lat": 38.901396, "is_disabled": 0, "name": "bfe19cb88f3a1a14ed6bc960670d6241", "fusion_lat": 0.0, "rental_uris": {"ios": "https://dc.lft.to/lastmile_qr_scan", "android": "https://dc.lft.to/lastmile_qr_scan"}, "lon": -77.0447725, "type": "electric_scooter"}, {"bike_id": "134d149a8c16ba98a2045b2b94fecd38", "is_reserved": 0, "fusion_lon": 0.0, "lat": 38.9008285, "is_disabled": 0, "name": "134d149a8c16ba98a2045b2b94fecd38", "fusion_lat": 0.0, "rental_uris": {"ios": "https://dc.lft.to/lastmile_qr_scan", "android": "https://dc.lft.to/lastmile_qr_scan"}, "lon": -77.04916033333333, "type": "electric_scooter"}, {"bike_id": "f120baacc5698c000ba9cbe2f55884fc", "is_reserved": 0, "fusion_lon": 0.0, "lat": 38.92333983333333, "is_disabled": 0, "name": "f120baacc5698c000ba9cbe2f55884fc", "fusion_lat": 0.0, "rental_uris": {"ios": "https://dc.lft.to/lastmile_qr_scan", "android": "https://dc.lft.to/lastmile_qr_scan"}, "lon": -77.04483766666667, "type": "electric_scooter"}, {"bike_id": "fdf8fc28936fdf2bbb33f1cd67a876e4", "is_reserved": 0, "fusion_lon": 0.0, "lat": 38.892389333333334, "is_disabled": 0, "name": "fdf8fc28936fdf2bbb33f1cd67a876e4", "fusion_lat": 0.0, "rental_uris": {"ios": "https://dc.lft.to/lastmile_qr_scan", "android": "https://dc.lft.to/lastmile_qr_scan"}, "lon": -77.03210816666666, "type": "electric_scooter"}, {"bike_id": "824f84024880e9166c083256085dc70f", "is_reserved": 0, "fusion_lon": 0.0, "lat": 38.91802, "is_disabled": 0, "name": "824f84024880e9166c083256085dc70f", "fusion_lat": 0.0, "rental_uris": {"ios": "https://dc.lft.to/lastmile_qr_scan", "android": "https://dc.lft.to/lastmile_qr_scan"}, "lon": -77.03186433333333, "type": "electric_scooter"}, {"bike_id": "1e5860f2082cca5aa789c9d2505c4237", "is_reserved": 0, "fusion_lon": 0.0, "lat": 38.92903666666667, "is_disabled": 0, "name": "1e5860f2082cca5aa789c9d2505c4237", "fusion_lat": 0.0, "rental_uris": {"ios": "https://dc.lft.to/lastmile_qr_scan", "android": "https://dc.lft.to/lastmile_qr_scan"}, "lon": -77.03185316666666, "type": "electric_scooter"}, {"bike_id": "fa1f9a80a54e8d881952b92eaa482c18", "is_reserved": 0, "fusion_lon": 0.0, "lat": 38.9167985, "is_disabled": 0, "name": "fa1f9a80a54e8d881952b92eaa482c18", "fusion_lat": 0.0, "rental_uris": {"ios": "https://dc.lft.to/lastmile_qr_scan", "android": "https://dc.lft.to/lastmile_qr_scan"}, "lon": -77.02971033333333, "type": "electric_scooter"}, {"bike_id": "c956f445640e4f454aec9cc96ed44f06", "is_reserved": 0, "fusion_lon": 0.0, "lat": 38.896493166666666, "is_disabled": 0, "name": "c956f445640e4f454aec9cc96ed44f06", "fusion_lat": 0.0, "rental_uris": {"ios": "https://dc.lft.to/lastmile_qr_scan", "android": "https://dc.lft.to/lastmile_qr_scan"}, "lon": -77.028509, "type": "electric_scooter"}, {"bike_id": "49851912b988da9dd82f68f8a0c2d406", "is_reserved": 0, "fusion_lon": 0.0, "lat": 38.92250283333333, "is_disabled": 0, "name": "49851912b988da9dd82f68f8a0c2d406", "fusion_lat": 0.0, "rental_uris": {"ios": "https://dc.lft.to/lastmile_qr_scan", "android": "https://dc.lft.to/lastmile_qr_scan"}, "lon": -77.03076416666667, "type": "electric_scooter"}, {"bike_id": "2f54e617bd3bf0cc61689e10a85f6ca8", "is_reserved": 0, "fusion_lon": 0.0, "lat": 38.896233, "is_disabled": 0, "name": "2f54e617bd3bf0cc61689e10a85f6ca8", "fusion_lat": 0.0, "rental_uris": {"ios": "https://dc.lft.to/lastmile_qr_scan", "android": "https://dc.lft.to/lastmile_qr_scan"}, "lon": -76.99843383333334, "type": "electric_scooter"}, {"bike_id": "3845536769e8f46d40c0bbd82e8f77fb", "is_reserved": 0, "fusion_lon": 0.0, "lat": 38.90659183333333, "is_disabled": 0, "name": "3845536769e8f46d40c0bbd82e8f77fb", "fusion_lat": 0.0, "rental_uris": {"ios": "https://dc.lft.to/lastmile_qr_scan", "android": "https://dc.lft.to/lastmile_qr_scan"}, "lon": -77.03849833333334, "type": "electric_scooter"}, {"bike_id": "906504bb63857c76d193f6a761b9f532", "is_reserved": 0, "fusion_lon": 0.0, "lat": 38.902827333333335, "is_disabled": 0, "name": "906504bb63857c76d193f6a761b9f532", "fusion_lat": 0.0, "rental_uris": {"ios": "https://dc.lft.to/lastmile_qr_scan", "android": "https://dc.lft.to/lastmile_qr_scan"}, "lon": -77.059253, "type": "electric_scooter"}, {"bike_id": "82240db96b41729ce935e0c54c247e77", "is_reserved": 0, "fusion_lon": 0.0, "lat": 38.92646283333333, "is_disabled": 0, "name": "82240db96b41729ce935e0c54c247e77", "fusion_lat": 0.0, "rental_uris": {"ios": "https://dc.lft.to/lastmile_qr_scan", "android": "https://dc.lft.to/lastmile_qr_scan"}, "lon": -77.03844733333334, "type": "electric_scooter"}, {"bike_id": "95db93f247a934dc4ede2d0cf1969b56", "is_reserved": 0, "fusion_lon": 0.0, "lat": 38.90729283333334, "is_disabled": 0, "name": "95db93f247a934dc4ede2d0cf1969b56", "fusion_lat": 0.0, "rental_uris": {"ios": "https://dc.lft.to/lastmile_qr_scan", "android": "https://dc.lft.to/lastmile_qr_scan"}, "lon": -77.00367833333334, "type": "electric_scooter"}, {"bike_id": "162df552e276ea3e310607407ff88e0b", "is_reserved": 0, "fusion_lon": 0.0, "lat": 38.891926166666664, "is_disabled": 0, "name": "162df552e276ea3e310607407ff88e0b", "fusion_lat": 0.0, "rental_uris": {"ios": "https://dc.lft.to/lastmile_qr_scan", "android": "https://dc.lft.to/lastmile_qr_scan"}, "lon": -77.02980516666666, "type": "electric_scooter"}, {"bike_id": "deafa4f92cc5e1d7bf9a61f97ab3424e", "is_reserved": 0, "fusion_lon": 0.0, "lat": 38.8689945, "is_disabled": 0, "name": "deafa4f92cc5e1d7bf9a61f97ab3424e", "fusion_lat": 0.0, "rental_uris": {"ios": "https://dc.lft.to/lastmile_qr_scan", "android": "https://dc.lft.to/lastmile_qr_scan"}, "lon": -77.131783, "type": "electric_bike"}, {"bike_id": "e576535e852f8f6e73cb1c0ca0d1b5a1", "is_reserved": 0, "fusion_lon": 0.0, "lat": 38.908573, "is_disabled": 0, "name": "e576535e852f8f6e73cb1c0ca0d1b5a1", "fusion_lat": 0.0, "rental_uris": {"ios": "https://dc.lft.to/lastmile_qr_scan", "android": "https://dc.lft.to/lastmile_qr_scan"}, "lon": -77.044346, "type": "electric_scooter"}, {"bike_id": "73f9946fec6e4fd1337ed0de9a78c5ce", "is_reserved": 0, "fusion_lon": 0.0, "lat": 38.898298833333335, "is_disabled": 0, "name": "73f9946fec6e4fd1337ed0de9a78c5ce", "fusion_lat": 0.0, "rental_uris": {"ios": "https://dc.lft.to/lastmile_qr_scan", "android": "https://dc.lft.to/lastmile_qr_scan"}, "lon": -77.03325533333333, "type": "electric_scooter"}, {"bike_id": "27b55eeaad851063d1dda78eb8b685d9", "is_reserved": 0, "fusion_lon": 0.0, "lat": 38.89387816666667, "is_disabled": 0, "name": "27b55eeaad851063d1dda78eb8b685d9", "fusion_lat": 0.0, "rental_uris": {"ios": "https://dc.lft.to/lastmile_qr_scan", "android": "https://dc.lft.to/lastmile_qr_scan"}, "lon": -77.0225335, "type": "electric_bike"}, {"bike_id": "7752501db507430c6e874dc908c9f49d", "is_reserved": 0, "fusion_lon": 0.0, "lat": 38.890042333333334, "is_disabled": 0, "name": "7752501db507430c6e874dc908c9f49d", "fusion_lat": 0.0, "rental_uris": {"ios": "https://dc.lft.to/lastmile_qr_scan", "android": "https://dc.lft.to/lastmile_qr_scan"}, "lon": -77.04899266666666, "type": "electric_scooter"}, {"bike_id": "6790afbd1f08d92fab5c5430750686b9", "is_reserved": 0, "fusion_lon": 0.0, "lat": 38.93249483333334, "is_disabled": 0, "name": "6790afbd1f08d92fab5c5430750686b9", "fusion_lat": 0.0, "rental_uris": {"ios": "https://dc.lft.to/lastmile_qr_scan", "android": "https://dc.lft.to/lastmile_qr_scan"}, "lon": -77.03281366666667, "type": "electric_scooter"}, {"bike_id": "3c30d1661e534defd4f8de632e1cf470", "is_reserved": 0, "fusion_lon": 0.0, "lat": 38.9068895, "is_disabled": 0, "name": "3c30d1661e534defd4f8de632e1cf470", "fusion_lat": 0.0, "rental_uris": {"ios": "https://dc.lft.to/lastmile_qr_scan", "android": "https://dc.lft.to/lastmile_qr_scan"}, "lon": -77.013405, "type": "electric_scooter"}, {"bike_id": "1c749942c568a622b24f0d1709d4a672", "is_reserved": 0, "fusion_lon": 0.0, "lat": 38.907084166666664, "is_disabled": 0, "name": "1c749942c568a622b24f0d1709d4a672", "fusion_lat": 0.0, "rental_uris": {"ios": "https://dc.lft.to/lastmile_qr_scan", "android": "https://dc.lft.to/lastmile_qr_scan"}, "lon": -77.043594, "type": "electric_scooter"}, {"bike_id": "895e90f4e487eace7789e535957ea638", "is_reserved": 0, "fusion_lon": 0.0, "lat": 38.9224345, "is_disabled": 0, "name": "895e90f4e487eace7789e535957ea638", "fusion_lat": 0.0, "rental_uris": {"ios": "https://dc.lft.to/lastmile_qr_scan", "android": "https://dc.lft.to/lastmile_qr_scan"}, "lon": -77.010009, "type": "electric_scooter"}, {"bike_id": "02939c193addc76318449e4be43eda9d", "is_reserved": 0, "fusion_lon": 0.0, "lat": 38.9334765, "is_disabled": 0, "name": "02939c193addc76318449e4be43eda9d", "fusion_lat": 0.0, "rental_uris": {"ios": "https://dc.lft.to/lastmile_qr_scan", "android": "https://dc.lft.to/lastmile_qr_scan"}, "lon": -77.05711716666667, "type": "electric_scooter"}, {"bike_id": "32bdb7cef1ea691ce69d9023b820de2d", "is_reserved": 0, "fusion_lon": 0.0, "lat": 38.90832066666667, "is_disabled": 0, "name": "32bdb7cef1ea691ce69d9023b820de2d", "fusion_lat": 0.0, "rental_uris": {"ios": "https://dc.lft.to/lastmile_qr_scan", "android": "https://dc.lft.to/lastmile_qr_scan"}, "lon": -76.99695983333334, "type": "electric_scooter"}, {"bike_id": "762e31c46beb8e8ea19313ff7f837a1f", "is_reserved": 0, "fusion_lon": 0.0, "lat": 38.89710516666667, "is_disabled": 0, "name": "762e31c46beb8e8ea19313ff7f837a1f", "fusion_lat": 0.0, "rental_uris": {"ios": "https://dc.lft.to/lastmile_qr_scan", "android": "https://dc.lft.to/lastmile_qr_scan"}, "lon": -77.02709983333334, "type": "electric_scooter"}, {"bike_id": "18311422e19713f802e7b3444811aab8", "is_reserved": 0, "fusion_lon": 0.0, "lat": 38.8842705, "is_disabled": 0, "name": "18311422e19713f802e7b3444811aab8", "fusion_lat": 0.0, "rental_uris": {"ios": "https://dc.lft.to/lastmile_qr_scan", "android": "https://dc.lft.to/lastmile_qr_scan"}, "lon": -76.99592366666667, "type": "electric_scooter"}, {"bike_id": "7340d17f5e84dfc065dbc76dada72ee3", "is_reserved": 0, "fusion_lon": 0.0, "lat": 38.891978, "is_disabled": 0, "name": "7340d17f5e84dfc065dbc76dada72ee3", "fusion_lat": 0.0, "rental_uris": {"ios": "https://dc.lft.to/lastmile_qr_scan", "android": "https://dc.lft.to/lastmile_qr_scan"}, "lon": -77.01548433333333, "type": "electric_scooter"}, {"bike_id": "dd6e6ea152cb018c4ff7285d5aa83381", "is_reserved": 0, "fusion_lon": 0.0, "lat": 39.030468, "is_disabled": 0, "name": "dd6e6ea152cb018c4ff7285d5aa83381", "fusion_lat": 0.0, "rental_uris": {"ios": "https://dc.lft.to/lastmile_qr_scan", "android": "https://dc.lft.to/lastmile_qr_scan"}, "lon": -77.0947985, "type": "electric_bike"}, {"bike_id": "68c52255892e5621a88396eb787856c5", "is_reserved": 0, "fusion_lon": 0.0, "lat": 38.907668, "is_disabled": 0, "name": "68c52255892e5621a88396eb787856c5", "fusion_lat": 0.0, "rental_uris": {"ios": "https://dc.lft.to/lastmile_qr_scan", "android": "https://dc.lft.to/lastmile_qr_scan"}, "lon": -77.03207633333334, "type": "electric_scooter"}, {"bike_id": "fd52bdcfc2002bc44a1482cd803a5ce9", "is_reserved": 0, "fusion_lon": 0.0, "lat": 38.920503833333335, "is_disabled": 0, "name": "fd52bdcfc2002bc44a1482cd803a5ce9", "fusion_lat": 0.0, "rental_uris": {"ios": "https://dc.lft.to/lastmile_qr_scan", "android": "https://dc.lft.to/lastmile_qr_scan"}, "lon": -77.0418585, "type": "electric_scooter"}, {"bike_id": "c4a4c8fc841dda269111ea9a329a9e84", "is_reserved": 0, "fusion_lon": 0.0, "lat": 38.895495333333336, "is_disabled": 0, "name": "c4a4c8fc841dda269111ea9a329a9e84", "fusion_lat": 0.0, "rental_uris": {"ios": "https://dc.lft.to/lastmile_qr_scan", "android": "https://dc.lft.to/lastmile_qr_scan"}, "lon": -77.025624, "type": "electric_scooter"}, {"bike_id": "8f88c4123d0d25a0ff27fa9c0a9907fe", "is_reserved": 0, "fusion_lon": 0.0, "lat": 38.8799695, "is_disabled": 0, "name": "8f88c4123d0d25a0ff27fa9c0a9907fe", "fusion_lat": 0.0, "rental_uris": {"ios": "https://dc.lft.to/lastmile_qr_scan", "android": "https://dc.lft.to/lastmile_qr_scan"}, "lon": -76.98539066666666, "type": "electric_scooter"}, {"bike_id": "d55f04b1319154f515bc00823a8c6241", "is_reserved": 0, "fusion_lon": 0.0, "lat": 38.89829916666667, "is_disabled": 0, "name": "d55f04b1319154f515bc00823a8c6241", "fusion_lat": 0.0, "rental_uris": {"ios": "https://dc.lft.to/lastmile_qr_scan", "android": "https://dc.lft.to/lastmile_qr_scan"}, "lon": -76.980311, "type": "electric_scooter"}, {"bike_id": "c57ef778c8f95570d103c47f2d35835c", "is_reserved": 0, "fusion_lon": 0.0, "lat": 38.931649, "is_disabled": 0, "name": "c57ef778c8f95570d103c47f2d35835c", "fusion_lat": 0.0, "rental_uris": {"ios": "https://dc.lft.to/lastmile_qr_scan", "android": "https://dc.lft.to/lastmile_qr_scan"}, "lon": -76.99622733333334, "type": "electric_scooter"}, {"bike_id": "23b8754e6cb3e349a86002c3e30f36a3", "is_reserved": 0, "fusion_lon": 0.0, "lat": 38.902758166666665, "is_disabled": 0, "name": "23b8754e6cb3e349a86002c3e30f36a3", "fusion_lat": 0.0, "rental_uris": {"ios": "https://dc.lft.to/lastmile_qr_scan", "android": "https://dc.lft.to/lastmile_qr_scan"}, "lon": -77.0333025, "type": "electric_scooter"}, {"bike_id": "40d06e8e6f7428117e4a393dfcd5c92a", "is_reserved": 0, "fusion_lon": 0.0, "lat": 38.919457666666666, "is_disabled": 0, "name": "40d06e8e6f7428117e4a393dfcd5c92a", "fusion_lat": 0.0, "rental_uris": {"ios": "https://dc.lft.to/lastmile_qr_scan", "android": "https://dc.lft.to/lastmile_qr_scan"}, "lon": -77.01347433333333, "type": "electric_scooter"}, {"bike_id": "1e2d24103921aaa801ed50c6971e9058", "is_reserved": 0, "fusion_lon": 0.0, "lat": 38.9369325, "is_disabled": 0, "name": "1e2d24103921aaa801ed50c6971e9058", "fusion_lat": 0.0, "rental_uris": {"ios": "https://dc.lft.to/lastmile_qr_scan", "android": "https://dc.lft.to/lastmile_qr_scan"}, "lon": -77.06026216666666, "type": "electric_scooter"}, {"bike_id": "189e8860c3b13abbc0289e70bcce535f", "is_reserved": 0, "fusion_lon": 0.0, "lat": 38.91277983333333, "is_disabled": 0, "name": "189e8860c3b13abbc0289e70bcce535f", "fusion_lat": 0.0, "rental_uris": {"ios": "https://dc.lft.to/lastmile_qr_scan", "android": "https://dc.lft.to/lastmile_qr_scan"}, "lon": -77.038454, "type": "electric_scooter"}, {"bike_id": "93e973ff7c0e7dc148095f4e4e0f2afc", "is_reserved": 0, "fusion_lon": 0.0, "lat": 38.8553335, "is_disabled": 0, "name": "93e973ff7c0e7dc148095f4e4e0f2afc", "fusion_lat": 0.0, "rental_uris": {"ios": "https://dc.lft.to/lastmile_qr_scan", "android": "https://dc.lft.to/lastmile_qr_scan"}, "lon": -77.1132715, "type": "electric_bike"}, {"bike_id": "1cfdc604764066420df3c8ea1ee81fd6", "is_reserved": 0, "fusion_lon": 0.0, "lat": 38.925818166666666, "is_disabled": 0, "name": "1cfdc604764066420df3c8ea1ee81fd6", "fusion_lat": 0.0, "rental_uris": {"ios": "https://dc.lft.to/lastmile_qr_scan", "android": "https://dc.lft.to/lastmile_qr_scan"}, "lon": -77.03913366666667, "type": "electric_scooter"}, {"bike_id": "b8b6977373870208524f39fb41eb717f", "is_reserved": 0, "fusion_lon": 0.0, "lat": 38.9100795, "is_disabled": 0, "name": "b8b6977373870208524f39fb41eb717f", "fusion_lat": 0.0, "rental_uris": {"ios": "https://dc.lft.to/lastmile_qr_scan", "android": "https://dc.lft.to/lastmile_qr_scan"}, "lon": -76.99395816666667, "type": "electric_scooter"}, {"bike_id": "83ec6e45de56fec2cb044bb3f4d8a49e", "is_reserved": 0, "fusion_lon": 0.0, "lat": 38.91725133333333, "is_disabled": 0, "name": "83ec6e45de56fec2cb044bb3f4d8a49e", "fusion_lat": 0.0, "rental_uris": {"ios": "https://dc.lft.to/lastmile_qr_scan", "android": "https://dc.lft.to/lastmile_qr_scan"}, "lon": -77.03097233333334, "type": "electric_scooter"}, {"bike_id": "e846cdb1d688582da5e4629a056d8610", "is_reserved": 0, "fusion_lon": 0.0, "lat": 38.901320166666665, "is_disabled": 0, "name": "e846cdb1d688582da5e4629a056d8610", "fusion_lat": 0.0, "rental_uris": {"ios": "https://dc.lft.to/lastmile_qr_scan", "android": "https://dc.lft.to/lastmile_qr_scan"}, "lon": -77.01633083333333, "type": "electric_scooter"}, {"bike_id": "66b3ab619b37a04e2e4631ac0818bb59", "is_reserved": 0, "fusion_lon": 0.0, "lat": 38.88314, "is_disabled": 0, "name": "66b3ab619b37a04e2e4631ac0818bb59", "fusion_lat": 0.0, "rental_uris": {"ios": "https://dc.lft.to/lastmile_qr_scan", "android": "https://dc.lft.to/lastmile_qr_scan"}, "lon": -77.01769933333334, "type": "electric_scooter"}, {"bike_id": "ea4566f350b2b25849a380f0e1700a35", "is_reserved": 0, "fusion_lon": 0.0, "lat": 38.8964955, "is_disabled": 0, "name": "ea4566f350b2b25849a380f0e1700a35", "fusion_lat": 0.0, "rental_uris": {"ios": "https://dc.lft.to/lastmile_qr_scan", "android": "https://dc.lft.to/lastmile_qr_scan"}, "lon": -77.02959183333333, "type": "electric_scooter"}, {"bike_id": "b508b23abf8e731e24e36fb8ab6fa041", "is_reserved": 0, "fusion_lon": 0.0, "lat": 38.925805, "is_disabled": 0, "name": "b508b23abf8e731e24e36fb8ab6fa041", "fusion_lat": 0.0, "rental_uris": {"ios": "https://dc.lft.to/lastmile_qr_scan", "android": "https://dc.lft.to/lastmile_qr_scan"}, "lon": -77.03933766666667, "type": "electric_scooter"}, {"bike_id": "f0393c8f97f708fabb101d0be7050040", "is_reserved": 0, "fusion_lon": 0.0, "lat": 38.915940166666665, "is_disabled": 0, "name": "f0393c8f97f708fabb101d0be7050040", "fusion_lat": 0.0, "rental_uris": {"ios": "https://dc.lft.to/lastmile_qr_scan", "android": "https://dc.lft.to/lastmile_qr_scan"}, "lon": -76.98372833333333, "type": "electric_scooter"}, {"bike_id": "2c48f8d81b08a95f97f5cbac6ee2179a", "is_reserved": 0, "fusion_lon": 0.0, "lat": 38.91690216666667, "is_disabled": 0, "name": "2c48f8d81b08a95f97f5cbac6ee2179a", "fusion_lat": 0.0, "rental_uris": {"ios": "https://dc.lft.to/lastmile_qr_scan", "android": "https://dc.lft.to/lastmile_qr_scan"}, "lon": -77.02909133333333, "type": "electric_scooter"}, {"bike_id": "b2dff05c17e229d73224b2b210c31e56", "is_reserved": 0, "fusion_lon": 0.0, "lat": 38.8981135, "is_disabled": 0, "name": "b2dff05c17e229d73224b2b210c31e56", "fusion_lat": 0.0, "rental_uris": {"ios": "https://dc.lft.to/lastmile_qr_scan", "android": "https://dc.lft.to/lastmile_qr_scan"}, "lon": -77.02944383333333, "type": "electric_scooter"}, {"bike_id": "908f77fff6ec9519fd88239b173f187b", "is_reserved": 0, "fusion_lon": 0.0, "lat": 38.87084733333333, "is_disabled": 0, "name": "908f77fff6ec9519fd88239b173f187b", "fusion_lat": 0.0, "rental_uris": {"ios": "https://dc.lft.to/lastmile_qr_scan", "android": "https://dc.lft.to/lastmile_qr_scan"}, "lon": -77.01211616666667, "type": "electric_bike"}, {"bike_id": "48bda3e00814beb97b20ed7e14179a09", "is_reserved": 0, "fusion_lon": 0.0, "lat": 38.86211316666667, "is_disabled": 0, "name": "48bda3e00814beb97b20ed7e14179a09", "fusion_lat": 0.0, "rental_uris": {"ios": "https://dc.lft.to/lastmile_qr_scan", "android": "https://dc.lft.to/lastmile_qr_scan"}, "lon": -76.9947155, "type": "electric_scooter"}, {"bike_id": "7c40676111aeb7c9524d607157833b62", "is_reserved": 0, "fusion_lon": 0.0, "lat": 38.879054833333335, "is_disabled": 0, "name": "7c40676111aeb7c9524d607157833b62", "fusion_lat": 0.0, "rental_uris": {"ios": "https://dc.lft.to/lastmile_qr_scan", "android": "https://dc.lft.to/lastmile_qr_scan"}, "lon": -77.02256883333334, "type": "electric_scooter"}, {"bike_id": "1a5c4bae685e0d37b4bda79cc3929182", "is_reserved": 0, "fusion_lon": 0.0, "lat": 38.891060333333336, "is_disabled": 0, "name": "1a5c4bae685e0d37b4bda79cc3929182", "fusion_lat": 0.0, "rental_uris": {"ios": "https://dc.lft.to/lastmile_qr_scan", "android": "https://dc.lft.to/lastmile_qr_scan"}, "lon": -76.98705433333333, "type": "electric_scooter"}, {"bike_id": "a5e53a5f9cb5b08c70b7576cf43504d7", "is_reserved": 0, "fusion_lon": 0.0, "lat": 38.918059, "is_disabled": 0, "name": "a5e53a5f9cb5b08c70b7576cf43504d7", "fusion_lat": 0.0, "rental_uris": {"ios": "https://dc.lft.to/lastmile_qr_scan", "android": "https://dc.lft.to/lastmile_qr_scan"}, "lon": -77.035654, "type": "electric_scooter"}, {"bike_id": "223ef8ebf1b0ec173568ad1e7ff43720", "is_reserved": 0, "fusion_lon": 0.0, "lat": 38.880821833333336, "is_disabled": 0, "name": "223ef8ebf1b0ec173568ad1e7ff43720", "fusion_lat": 0.0, "rental_uris": {"ios": "https://dc.lft.to/lastmile_qr_scan", "android": "https://dc.lft.to/lastmile_qr_scan"}, "lon": -77.02577433333333, "type": "electric_scooter"}, {"bike_id": "79f488ba116dd4f2f38570f2d736c622", "is_reserved": 0, "fusion_lon": 0.0, "lat": 38.89683383333333, "is_disabled": 0, "name": "79f488ba116dd4f2f38570f2d736c622", "fusion_lat": 0.0, "rental_uris": {"ios": "https://dc.lft.to/lastmile_qr_scan", "android": "https://dc.lft.to/lastmile_qr_scan"}, "lon": -76.996241, "type": "electric_scooter"}, {"bike_id": "1c9f018ec29f1f8f2a11f8cc33955a03", "is_reserved": 0, "fusion_lon": 0.0, "lat": 38.90276733333334, "is_disabled": 0, "name": "1c9f018ec29f1f8f2a11f8cc33955a03", "fusion_lat": 0.0, "rental_uris": {"ios": "https://dc.lft.to/lastmile_qr_scan", "android": "https://dc.lft.to/lastmile_qr_scan"}, "lon": -77.0367655, "type": "electric_scooter"}, {"bike_id": "f82c2b5c45ae752bc3c75b5e1c7f21a2", "is_reserved": 0, "fusion_lon": 0.0, "lat": 38.90032216666667, "is_disabled": 0, "name": "f82c2b5c45ae752bc3c75b5e1c7f21a2", "fusion_lat": 0.0, "rental_uris": {"ios": "https://dc.lft.to/lastmile_qr_scan", "android": "https://dc.lft.to/lastmile_qr_scan"}, "lon": -76.98753983333333, "type": "electric_scooter"}, {"bike_id": "61d65f6f550d7da609c3edfc899c4554", "is_reserved": 0, "fusion_lon": 0.0, "lat": 38.91329666666667, "is_disabled": 0, "name": "61d65f6f550d7da609c3edfc899c4554", "fusion_lat": 0.0, "rental_uris": {"ios": "https://dc.lft.to/lastmile_qr_scan", "android": "https://dc.lft.to/lastmile_qr_scan"}, "lon": -77.0326275, "type": "electric_scooter"}, {"bike_id": "25c97adc67e8af54e0fb6bfff005161a", "is_reserved": 0, "fusion_lon": 0.0, "lat": 38.902582833333334, "is_disabled": 0, "name": "25c97adc67e8af54e0fb6bfff005161a", "fusion_lat": 0.0, "rental_uris": {"ios": "https://dc.lft.to/lastmile_qr_scan", "android": "https://dc.lft.to/lastmile_qr_scan"}, "lon": -77.03344133333333, "type": "electric_scooter"}, {"bike_id": "b3f637f02266dfdc05c8eda049756e1e", "is_reserved": 0, "fusion_lon": 0.0, "lat": 38.89554416666667, "is_disabled": 0, "name": "b3f637f02266dfdc05c8eda049756e1e", "fusion_lat": 0.0, "rental_uris": {"ios": "https://dc.lft.to/lastmile_qr_scan", "android": "https://dc.lft.to/lastmile_qr_scan"}, "lon": -76.950307, "type": "electric_scooter"}, {"bike_id": "be2adf6925adbdfd2d3640a8c5014809", "is_reserved": 0, "fusion_lon": 0.0, "lat": 38.925469, "is_disabled": 0, "name": "be2adf6925adbdfd2d3640a8c5014809", "fusion_lat": 0.0, "rental_uris": {"ios": "https://dc.lft.to/lastmile_qr_scan", "android": "https://dc.lft.to/lastmile_qr_scan"}, "lon": -77.022626, "type": "electric_scooter"}, {"bike_id": "c138bef7016240a5f17118cedb03a4b4", "is_reserved": 0, "fusion_lon": 0.0, "lat": 38.93981333333333, "is_disabled": 0, "name": "c138bef7016240a5f17118cedb03a4b4", "fusion_lat": 0.0, "rental_uris": {"ios": "https://dc.lft.to/lastmile_qr_scan", "android": "https://dc.lft.to/lastmile_qr_scan"}, "lon": -77.0289505, "type": "electric_scooter"}, {"bike_id": "d18c328bdb7dfe3d65698d146c3a42cb", "is_reserved": 0, "fusion_lon": 0.0, "lat": 38.90777583333333, "is_disabled": 0, "name": "d18c328bdb7dfe3d65698d146c3a42cb", "fusion_lat": 0.0, "rental_uris": {"ios": "https://dc.lft.to/lastmile_qr_scan", "android": "https://dc.lft.to/lastmile_qr_scan"}, "lon": -77.0426305, "type": "electric_scooter"}, {"bike_id": "f94d4005d2b206faa6d56b005476c4a9", "is_reserved": 0, "fusion_lon": 0.0, "lat": 38.93665283333333, "is_disabled": 0, "name": "f94d4005d2b206faa6d56b005476c4a9", "fusion_lat": 0.0, "rental_uris": {"ios": "https://dc.lft.to/lastmile_qr_scan", "android": "https://dc.lft.to/lastmile_qr_scan"}, "lon": -77.0592885, "type": "electric_scooter"}, {"bike_id": "e1d1ccde1bff29c2bcd142f2bdcd898c", "is_reserved": 0, "fusion_lon": 0.0, "lat": 38.929244, "is_disabled": 0, "name": "e1d1ccde1bff29c2bcd142f2bdcd898c", "fusion_lat": 0.0, "rental_uris": {"ios": "https://dc.lft.to/lastmile_qr_scan", "android": "https://dc.lft.to/lastmile_qr_scan"}, "lon": -77.02007033333334, "type": "electric_scooter"}, {"bike_id": "afc633a760924b5a15571f58349e1cb8", "is_reserved": 0, "fusion_lon": 0.0, "lat": 38.813080166666666, "is_disabled": 0, "name": "afc633a760924b5a15571f58349e1cb8", "fusion_lat": 0.0, "rental_uris": {"ios": "https://dc.lft.to/lastmile_qr_scan", "android": "https://dc.lft.to/lastmile_qr_scan"}, "lon": -77.05091383333334, "type": "electric_bike"}, {"bike_id": "9e258ae1d5a5b7699c1d696bd83aa2b3", "is_reserved": 0, "fusion_lon": 0.0, "lat": 38.879720166666665, "is_disabled": 0, "name": "9e258ae1d5a5b7699c1d696bd83aa2b3", "fusion_lat": 0.0, "rental_uris": {"ios": "https://dc.lft.to/lastmile_qr_scan", "android": "https://dc.lft.to/lastmile_qr_scan"}, "lon": -77.02402366666666, "type": "electric_scooter"}, {"bike_id": "80777c1145d29570a6276bc53a88e52f", "is_reserved": 0, "fusion_lon": 0.0, "lat": 38.918154666666666, "is_disabled": 0, "name": "80777c1145d29570a6276bc53a88e52f", "fusion_lat": 0.0, "rental_uris": {"ios": "https://dc.lft.to/lastmile_qr_scan", "android": "https://dc.lft.to/lastmile_qr_scan"}, "lon": -77.0330315, "type": "electric_scooter"}, {"bike_id": "fe03beb4f3b40746801406ecad51f116", "is_reserved": 0, "fusion_lon": 0.0, "lat": 38.862136666666665, "is_disabled": 0, "name": "fe03beb4f3b40746801406ecad51f116", "fusion_lat": 0.0, "rental_uris": {"ios": "https://dc.lft.to/lastmile_qr_scan", "android": "https://dc.lft.to/lastmile_qr_scan"}, "lon": -76.9946885, "type": "electric_scooter"}, {"bike_id": "cc8a37e61972181b2ff7a6b174f699f3", "is_reserved": 0, "fusion_lon": 0.0, "lat": 38.892419333333336, "is_disabled": 0, "name": "cc8a37e61972181b2ff7a6b174f699f3", "fusion_lat": 0.0, "rental_uris": {"ios": "https://dc.lft.to/lastmile_qr_scan", "android": "https://dc.lft.to/lastmile_qr_scan"}, "lon": -77.03206683333333, "type": "electric_scooter"}, {"bike_id": "15ce2a7554033b2e8c1156e28f053376", "is_reserved": 0, "fusion_lon": 0.0, "lat": 38.90367766666667, "is_disabled": 0, "name": "15ce2a7554033b2e8c1156e28f053376", "fusion_lat": 0.0, "rental_uris": {"ios": "https://dc.lft.to/lastmile_qr_scan", "android": "https://dc.lft.to/lastmile_qr_scan"}, "lon": -77.03942166666667, "type": "electric_scooter"}, {"bike_id": "b42a6c26b55931c823722b37cc1ae6b3", "is_reserved": 0, "fusion_lon": 0.0, "lat": 38.90668483333334, "is_disabled": 0, "name": "b42a6c26b55931c823722b37cc1ae6b3", "fusion_lat": 0.0, "rental_uris": {"ios": "https://dc.lft.to/lastmile_qr_scan", "android": "https://dc.lft.to/lastmile_qr_scan"}, "lon": -76.99960366666667, "type": "electric_bike"}, {"bike_id": "d8379df555b2bb37a5c8fa1611361f03", "is_reserved": 0, "fusion_lon": 0.0, "lat": 38.82446383333333, "is_disabled": 0, "name": "d8379df555b2bb37a5c8fa1611361f03", "fusion_lat": 0.0, "rental_uris": {"ios": "https://dc.lft.to/lastmile_qr_scan", "android": "https://dc.lft.to/lastmile_qr_scan"}, "lon": -77.07046466666667, "type": "electric_bike"}, {"bike_id": "cc2a8ba099af32e90431dd249437191b", "is_reserved": 0, "fusion_lon": 0.0, "lat": 38.9028085, "is_disabled": 0, "name": "cc2a8ba099af32e90431dd249437191b", "fusion_lat": 0.0, "rental_uris": {"ios": "https://dc.lft.to/lastmile_qr_scan", "android": "https://dc.lft.to/lastmile_qr_scan"}, "lon": -77.036604, "type": "electric_scooter"}, {"bike_id": "046768da07bbfd5c00b6391462729ca6", "is_reserved": 0, "fusion_lon": 0.0, "lat": 38.8800595, "is_disabled": 0, "name": "046768da07bbfd5c00b6391462729ca6", "fusion_lat": 0.0, "rental_uris": {"ios": "https://dc.lft.to/lastmile_qr_scan", "android": "https://dc.lft.to/lastmile_qr_scan"}, "lon": -76.91597216666666, "type": "electric_bike"}, {"bike_id": "4eb91342d3f183496ca7f94f4755608a", "is_reserved": 0, "fusion_lon": 0.0, "lat": 38.955498166666665, "is_disabled": 0, "name": "4eb91342d3f183496ca7f94f4755608a", "fusion_lat": 0.0, "rental_uris": {"ios": "https://dc.lft.to/lastmile_qr_scan", "android": "https://dc.lft.to/lastmile_qr_scan"}, "lon": -76.940119, "type": "electric_bike"}, {"bike_id": "4812cef14fb1226681a22013c3806084", "is_reserved": 0, "fusion_lon": 0.0, "lat": 38.9333405, "is_disabled": 0, "name": "4812cef14fb1226681a22013c3806084", "fusion_lat": 0.0, "rental_uris": {"ios": "https://dc.lft.to/lastmile_qr_scan", "android": "https://dc.lft.to/lastmile_qr_scan"}, "lon": -77.04200916666667, "type": "electric_bike"}, {"bike_id": "ebcb7838effbc674d9644521fca3fbc3", "is_reserved": 0, "fusion_lon": 0.0, "lat": 38.92233066666667, "is_disabled": 0, "name": "ebcb7838effbc674d9644521fca3fbc3", "fusion_lat": 0.0, "rental_uris": {"ios": "https://dc.lft.to/lastmile_qr_scan", "android": "https://dc.lft.to/lastmile_qr_scan"}, "lon": -77.04136866666667, "type": "electric_scooter"}, {"bike_id": "2b200d6944b5056970c4ea3cf180c9a4", "is_reserved": 0, "fusion_lon": 0.0, "lat": 38.89784083333333, "is_disabled": 0, "name": "2b200d6944b5056970c4ea3cf180c9a4", "fusion_lat": 0.0, "rental_uris": {"ios": "https://dc.lft.to/lastmile_qr_scan", "android": "https://dc.lft.to/lastmile_qr_scan"}, "lon": -77.00740666666667, "type": "electric_bike"}, {"bike_id": "3e9ddcabbcdd2132b4bada1930eb247f", "is_reserved": 0, "fusion_lon": 0.0, "lat": 38.90857916666667, "is_disabled": 0, "name": "3e9ddcabbcdd2132b4bada1930eb247f", "fusion_lat": 0.0, "rental_uris": {"ios": "https://dc.lft.to/lastmile_qr_scan", "android": "https://dc.lft.to/lastmile_qr_scan"}, "lon": -77.02730683333333, "type": "electric_scooter"}, {"bike_id": "c3353040ffbd742a90d5a2a14b494fd3", "is_reserved": 0, "fusion_lon": 0.0, "lat": 38.91984766666667, "is_disabled": 0, "name": "c3353040ffbd742a90d5a2a14b494fd3", "fusion_lat": 0.0, "rental_uris": {"ios": "https://dc.lft.to/lastmile_qr_scan", "android": "https://dc.lft.to/lastmile_qr_scan"}, "lon": -77.04180916666667, "type": "electric_scooter"}, {"bike_id": "9a84e8ed6facbdde00812fdf9ce7536b", "is_reserved": 0, "fusion_lon": 0.0, "lat": 38.90898766666667, "is_disabled": 0, "name": "9a84e8ed6facbdde00812fdf9ce7536b", "fusion_lat": 0.0, "rental_uris": {"ios": "https://dc.lft.to/lastmile_qr_scan", "android": "https://dc.lft.to/lastmile_qr_scan"}, "lon": -77.086163, "type": "electric_scooter"}, {"bike_id": "9bbc6a9e848630c78cf92271e5496f45", "is_reserved": 0, "fusion_lon": 0.0, "lat": 38.91854266666667, "is_disabled": 0, "name": "9bbc6a9e848630c78cf92271e5496f45", "fusion_lat": 0.0, "rental_uris": {"ios": "https://dc.lft.to/lastmile_qr_scan", "android": "https://dc.lft.to/lastmile_qr_scan"}, "lon": -76.96091833333334, "type": "electric_bike"}, {"bike_id": "1198961da9fab6a0fed24165e411d5e1", "is_reserved": 0, "fusion_lon": 0.0, "lat": 38.890232166666664, "is_disabled": 0, "name": "1198961da9fab6a0fed24165e411d5e1", "fusion_lat": 0.0, "rental_uris": {"ios": "https://dc.lft.to/lastmile_qr_scan", "android": "https://dc.lft.to/lastmile_qr_scan"}, "lon": -76.93685633333334, "type": "electric_scooter"}, {"bike_id": "1f36ceafc2c34ee6748fca0183ec1793", "is_reserved": 0, "fusion_lon": 0.0, "lat": 38.9527925, "is_disabled": 0, "name": "1f36ceafc2c34ee6748fca0183ec1793", "fusion_lat": 0.0, "rental_uris": {"ios": "https://dc.lft.to/lastmile_qr_scan", "android": "https://dc.lft.to/lastmile_qr_scan"}, "lon": -77.00789416666667, "type": "electric_scooter"}, {"bike_id": "7a8e54f219515eff045f8dd20352a92a", "is_reserved": 0, "fusion_lon": 0.0, "lat": 38.94049183333333, "is_disabled": 0, "name": "7a8e54f219515eff045f8dd20352a92a", "fusion_lat": 0.0, "rental_uris": {"ios": "https://dc.lft.to/lastmile_qr_scan", "android": "https://dc.lft.to/lastmile_qr_scan"}, "lon": -77.0297565, "type": "electric_scooter"}, {"bike_id": "e4cf62ff2fd912c53f1cc48ec2175df4", "is_reserved": 0, "fusion_lon": 0.0, "lat": 38.9226605, "is_disabled": 0, "name": "e4cf62ff2fd912c53f1cc48ec2175df4", "fusion_lat": 0.0, "rental_uris": {"ios": "https://dc.lft.to/lastmile_qr_scan", "android": "https://dc.lft.to/lastmile_qr_scan"}, "lon": -77.04131566666666, "type": "electric_scooter"}, {"bike_id": "431fb5618af75afccec1e35b4fb941b6", "is_reserved": 0, "fusion_lon": 0.0, "lat": 38.920858333333335, "is_disabled": 0, "name": "431fb5618af75afccec1e35b4fb941b6", "fusion_lat": 0.0, "rental_uris": {"ios": "https://dc.lft.to/lastmile_qr_scan", "android": "https://dc.lft.to/lastmile_qr_scan"}, "lon": -76.99907166666667, "type": "electric_scooter"}, {"bike_id": "a271e65ced7ad17b06b787e7e6bc491b", "is_reserved": 0, "fusion_lon": 0.0, "lat": 38.900236666666665, "is_disabled": 0, "name": "a271e65ced7ad17b06b787e7e6bc491b", "fusion_lat": 0.0, "rental_uris": {"ios": "https://dc.lft.to/lastmile_qr_scan", "android": "https://dc.lft.to/lastmile_qr_scan"}, "lon": -76.99796433333333, "type": "electric_scooter"}, {"bike_id": "1f33c4d19cf126b2ae55bc1fbb7ec8bd", "is_reserved": 0, "fusion_lon": 0.0, "lat": 38.91874933333333, "is_disabled": 0, "name": "1f33c4d19cf126b2ae55bc1fbb7ec8bd", "fusion_lat": 0.0, "rental_uris": {"ios": "https://dc.lft.to/lastmile_qr_scan", "android": "https://dc.lft.to/lastmile_qr_scan"}, "lon": -77.03504466666666, "type": "electric_scooter"}, {"bike_id": "0ebc251a6ef52c602aa787978a8ef2a6", "is_reserved": 0, "fusion_lon": 0.0, "lat": 38.908415833333336, "is_disabled": 0, "name": "0ebc251a6ef52c602aa787978a8ef2a6", "fusion_lat": 0.0, "rental_uris": {"ios": "https://dc.lft.to/lastmile_qr_scan", "android": "https://dc.lft.to/lastmile_qr_scan"}, "lon": -77.03850716666666, "type": "electric_scooter"}, {"bike_id": "c696c3e9375cc34ecf6915c19718a95d", "is_reserved": 0, "fusion_lon": 0.0, "lat": 38.9180705, "is_disabled": 0, "name": "c696c3e9375cc34ecf6915c19718a95d", "fusion_lat": 0.0, "rental_uris": {"ios": "https://dc.lft.to/lastmile_qr_scan", "android": "https://dc.lft.to/lastmile_qr_scan"}, "lon": -77.034385, "type": "electric_scooter"}, {"bike_id": "0894751332b8f0ee09ffc4a8fa9f9deb", "is_reserved": 0, "fusion_lon": 0.0, "lat": 38.889895, "is_disabled": 0, "name": "0894751332b8f0ee09ffc4a8fa9f9deb", "fusion_lat": 0.0, "rental_uris": {"ios": "https://dc.lft.to/lastmile_qr_scan", "android": "https://dc.lft.to/lastmile_qr_scan"}, "lon": -77.00333216666667, "type": "electric_scooter"}, {"bike_id": "fdf9d35ee7eb3f33c2e3caa38689fcf6", "is_reserved": 0, "fusion_lon": 0.0, "lat": 38.87235166666667, "is_disabled": 0, "name": "fdf9d35ee7eb3f33c2e3caa38689fcf6", "fusion_lat": 0.0, "rental_uris": {"ios": "https://dc.lft.to/lastmile_qr_scan", "android": "https://dc.lft.to/lastmile_qr_scan"}, "lon": -77.0116915, "type": "electric_bike"}, {"bike_id": "f5d78940d6f1de3c28ff53acb8c223a0", "is_reserved": 0, "fusion_lon": 0.0, "lat": 38.873059833333336, "is_disabled": 0, "name": "f5d78940d6f1de3c28ff53acb8c223a0", "fusion_lat": 0.0, "rental_uris": {"ios": "https://dc.lft.to/lastmile_qr_scan", "android": "https://dc.lft.to/lastmile_qr_scan"}, "lon": -77.010972, "type": "electric_bike"}, {"bike_id": "52ed8effcad5c8fc4fc36510cd895b35", "is_reserved": 0, "fusion_lon": 0.0, "lat": 38.93950366666667, "is_disabled": 0, "name": "52ed8effcad5c8fc4fc36510cd895b35", "fusion_lat": 0.0, "rental_uris": {"ios": "https://dc.lft.to/lastmile_qr_scan", "android": "https://dc.lft.to/lastmile_qr_scan"}, "lon": -77.03263316666667, "type": "electric_scooter"}, {"bike_id": "f7e1bd25edc889f66bdda2e408bed988", "is_reserved": 0, "fusion_lon": 0.0, "lat": 38.92047566666667, "is_disabled": 0, "name": "f7e1bd25edc889f66bdda2e408bed988", "fusion_lat": 0.0, "rental_uris": {"ios": "https://dc.lft.to/lastmile_qr_scan", "android": "https://dc.lft.to/lastmile_qr_scan"}, "lon": -76.99817083333333, "type": "electric_scooter"}, {"bike_id": "79f8e2ba9e6f2857b1339c835a5a61c8", "is_reserved": 0, "fusion_lon": 0.0, "lat": 38.9294805, "is_disabled": 0, "name": "79f8e2ba9e6f2857b1339c835a5a61c8", "fusion_lat": 0.0, "rental_uris": {"ios": "https://dc.lft.to/lastmile_qr_scan", "android": "https://dc.lft.to/lastmile_qr_scan"}, "lon": -77.034657, "type": "electric_scooter"}, {"bike_id": "428bbd05aef0756f173903500031378a", "is_reserved": 0, "fusion_lon": 0.0, "lat": 38.990642333333334, "is_disabled": 0, "name": "428bbd05aef0756f173903500031378a", "fusion_lat": 0.0, "rental_uris": {"ios": "https://dc.lft.to/lastmile_qr_scan", "android": "https://dc.lft.to/lastmile_qr_scan"}, "lon": -77.10028483333333, "type": "electric_bike"}, {"bike_id": "dac0ef66b8c9120dee5f98b4e01c55a4", "is_reserved": 0, "fusion_lon": 0.0, "lat": 38.8948575, "is_disabled": 0, "name": "dac0ef66b8c9120dee5f98b4e01c55a4", "fusion_lat": 0.0, "rental_uris": {"ios": "https://dc.lft.to/lastmile_qr_scan", "android": "https://dc.lft.to/lastmile_qr_scan"}, "lon": -77.01229016666667, "type": "electric_scooter"}, {"bike_id": "b3156b66609298d890814b95922bc663", "is_reserved": 0, "fusion_lon": 0.0, "lat": 38.933276, "is_disabled": 0, "name": "b3156b66609298d890814b95922bc663", "fusion_lat": 0.0, "rental_uris": {"ios": "https://dc.lft.to/lastmile_qr_scan", "android": "https://dc.lft.to/lastmile_qr_scan"}, "lon": -77.0327225, "type": "electric_scooter"}, {"bike_id": "9254b4871fa7078952b89bd37cd6e883", "is_reserved": 0, "fusion_lon": 0.0, "lat": 38.88393283333333, "is_disabled": 0, "name": "9254b4871fa7078952b89bd37cd6e883", "fusion_lat": 0.0, "rental_uris": {"ios": "https://dc.lft.to/lastmile_qr_scan", "android": "https://dc.lft.to/lastmile_qr_scan"}, "lon": -76.93051516666667, "type": "electric_scooter"}, {"bike_id": "4c582fb30edb4a286b1e68af76297103", "is_reserved": 0, "fusion_lon": 0.0, "lat": 38.907475166666664, "is_disabled": 0, "name": "4c582fb30edb4a286b1e68af76297103", "fusion_lat": 0.0, "rental_uris": {"ios": "https://dc.lft.to/lastmile_qr_scan", "android": "https://dc.lft.to/lastmile_qr_scan"}, "lon": -77.034743, "type": "electric_scooter"}, {"bike_id": "4fa67a0bbddaf8150af0828387563bd8", "is_reserved": 0, "fusion_lon": 0.0, "lat": 38.916990166666665, "is_disabled": 0, "name": "4fa67a0bbddaf8150af0828387563bd8", "fusion_lat": 0.0, "rental_uris": {"ios": "https://dc.lft.to/lastmile_qr_scan", "android": "https://dc.lft.to/lastmile_qr_scan"}, "lon": -77.02248416666667, "type": "electric_scooter"}, {"bike_id": "62757f578e13ff0a07e6cca99df6ebb9", "is_reserved": 0, "fusion_lon": 0.0, "lat": 38.8983225, "is_disabled": 0, "name": "62757f578e13ff0a07e6cca99df6ebb9", "fusion_lat": 0.0, "rental_uris": {"ios": "https://dc.lft.to/lastmile_qr_scan", "android": "https://dc.lft.to/lastmile_qr_scan"}, "lon": -76.94635783333334, "type": "electric_scooter"}, {"bike_id": "47f9c3efb9a524f77b3b074f7bf89259", "is_reserved": 0, "fusion_lon": 0.0, "lat": 38.90125483333333, "is_disabled": 0, "name": "47f9c3efb9a524f77b3b074f7bf89259", "fusion_lat": 0.0, "rental_uris": {"ios": "https://dc.lft.to/lastmile_qr_scan", "android": "https://dc.lft.to/lastmile_qr_scan"}, "lon": -77.01966816666666, "type": "electric_scooter"}, {"bike_id": "263d2dde6600e3d5e176c31fd4b04c02", "is_reserved": 0, "fusion_lon": 0.0, "lat": 38.86407483333333, "is_disabled": 0, "name": "263d2dde6600e3d5e176c31fd4b04c02", "fusion_lat": 0.0, "rental_uris": {"ios": "https://dc.lft.to/lastmile_qr_scan", "android": "https://dc.lft.to/lastmile_qr_scan"}, "lon": -76.97452316666667, "type": "electric_scooter"}, {"bike_id": "e174f05e0f0e5ef0974e7ab639a573c4", "is_reserved": 0, "fusion_lon": 0.0, "lat": 38.91549533333333, "is_disabled": 0, "name": "e174f05e0f0e5ef0974e7ab639a573c4", "fusion_lat": 0.0, "rental_uris": {"ios": "https://dc.lft.to/lastmile_qr_scan", "android": "https://dc.lft.to/lastmile_qr_scan"}, "lon": -77.031752, "type": "electric_scooter"}, {"bike_id": "785a5dda62007558ae172db4f798f2fb", "is_reserved": 0, "fusion_lon": 0.0, "lat": 38.973263833333334, "is_disabled": 0, "name": "785a5dda62007558ae172db4f798f2fb", "fusion_lat": 0.0, "rental_uris": {"ios": "https://dc.lft.to/lastmile_qr_scan", "android": "https://dc.lft.to/lastmile_qr_scan"}, "lon": -77.02151666666667, "type": "electric_bike"}, {"bike_id": "a34995515099b4aed3516bb95c07bc2f", "is_reserved": 0, "fusion_lon": 0.0, "lat": 38.91057933333333, "is_disabled": 0, "name": "a34995515099b4aed3516bb95c07bc2f", "fusion_lat": 0.0, "rental_uris": {"ios": "https://dc.lft.to/lastmile_qr_scan", "android": "https://dc.lft.to/lastmile_qr_scan"}, "lon": -77.02971616666666, "type": "electric_scooter"}, {"bike_id": "f64c868452afadc02611116f607413ed", "is_reserved": 0, "fusion_lon": 0.0, "lat": 38.900125, "is_disabled": 0, "name": "f64c868452afadc02611116f607413ed", "fusion_lat": 0.0, "rental_uris": {"ios": "https://dc.lft.to/lastmile_qr_scan", "android": "https://dc.lft.to/lastmile_qr_scan"}, "lon": -77.046496, "type": "electric_scooter"}, {"bike_id": "97322385688bfe8a587ea166823bbb73", "is_reserved": 0, "fusion_lon": 0.0, "lat": 38.9455165, "is_disabled": 0, "name": "97322385688bfe8a587ea166823bbb73", "fusion_lat": 0.0, "rental_uris": {"ios": "https://dc.lft.to/lastmile_qr_scan", "android": "https://dc.lft.to/lastmile_qr_scan"}, "lon": -76.89537366666667, "type": "electric_bike"}, {"bike_id": "b195c76bf052e035902c38458603797e", "is_reserved": 0, "fusion_lon": 0.0, "lat": 38.92822366666667, "is_disabled": 0, "name": "b195c76bf052e035902c38458603797e", "fusion_lat": 0.0, "rental_uris": {"ios": "https://dc.lft.to/lastmile_qr_scan", "android": "https://dc.lft.to/lastmile_qr_scan"}, "lon": -77.014055, "type": "electric_scooter"}, {"bike_id": "077eec279f7dc1e0b51d28d3f0d7e096", "is_reserved": 0, "fusion_lon": 0.0, "lat": 38.8442965, "is_disabled": 0, "name": "077eec279f7dc1e0b51d28d3f0d7e096", "fusion_lat": 0.0, "rental_uris": {"ios": "https://dc.lft.to/lastmile_qr_scan", "android": "https://dc.lft.to/lastmile_qr_scan"}, "lon": -76.99776033333333, "type": "electric_scooter"}, {"bike_id": "cda88e9797452faa850a176dc27eca6a", "is_reserved": 0, "fusion_lon": 0.0, "lat": 38.91012883333333, "is_disabled": 0, "name": "cda88e9797452faa850a176dc27eca6a", "fusion_lat": 0.0, "rental_uris": {"ios": "https://dc.lft.to/lastmile_qr_scan", "android": "https://dc.lft.to/lastmile_qr_scan"}, "lon": -76.9938825, "type": "electric_scooter"}, {"bike_id": "eab31330462cdf1482e3619ac355ebe1", "is_reserved": 0, "fusion_lon": 0.0, "lat": 38.9334005, "is_disabled": 0, "name": "eab31330462cdf1482e3619ac355ebe1", "fusion_lat": 0.0, "rental_uris": {"ios": "https://dc.lft.to/lastmile_qr_scan", "android": "https://dc.lft.to/lastmile_qr_scan"}, "lon": -77.03284933333333, "type": "electric_scooter"}, {"bike_id": "337957e8e541c53dc0ac2f0051268286", "is_reserved": 0, "fusion_lon": 0.0, "lat": 38.900884166666664, "is_disabled": 0, "name": "337957e8e541c53dc0ac2f0051268286", "fusion_lat": 0.0, "rental_uris": {"ios": "https://dc.lft.to/lastmile_qr_scan", "android": "https://dc.lft.to/lastmile_qr_scan"}, "lon": -77.04995583333333, "type": "electric_scooter"}, {"bike_id": "94476b15d77d277acc35a37fcdca2cf4", "is_reserved": 0, "fusion_lon": 0.0, "lat": 38.873635, "is_disabled": 0, "name": "94476b15d77d277acc35a37fcdca2cf4", "fusion_lat": 0.0, "rental_uris": {"ios": "https://dc.lft.to/lastmile_qr_scan", "android": "https://dc.lft.to/lastmile_qr_scan"}, "lon": -76.97169083333333, "type": "electric_scooter"}, {"bike_id": "206cdec5b8d2b6d2a2988128e06f7557", "is_reserved": 0, "fusion_lon": 0.0, "lat": 38.90385933333334, "is_disabled": 0, "name": "206cdec5b8d2b6d2a2988128e06f7557", "fusion_lat": 0.0, "rental_uris": {"ios": "https://dc.lft.to/lastmile_qr_scan", "android": "https://dc.lft.to/lastmile_qr_scan"}, "lon": -77.04484966666666, "type": "electric_scooter"}, {"bike_id": "92ff730ba7e614a6ae0f183471d59516", "is_reserved": 0, "fusion_lon": 0.0, "lat": 38.96381383333333, "is_disabled": 0, "name": "92ff730ba7e614a6ae0f183471d59516", "fusion_lat": 0.0, "rental_uris": {"ios": "https://dc.lft.to/lastmile_qr_scan", "android": "https://dc.lft.to/lastmile_qr_scan"}, "lon": -77.035029, "type": "electric_scooter"}, {"bike_id": "422d26869b0d86e5543ca75addf3208d", "is_reserved": 0, "fusion_lon": 0.0, "lat": 38.91481016666667, "is_disabled": 0, "name": "422d26869b0d86e5543ca75addf3208d", "fusion_lat": 0.0, "rental_uris": {"ios": "https://dc.lft.to/lastmile_qr_scan", "android": "https://dc.lft.to/lastmile_qr_scan"}, "lon": -77.02185616666667, "type": "electric_scooter"}, {"bike_id": "ed7c44e8c5c6d1a7e585a231e2af10fd", "is_reserved": 0, "fusion_lon": 0.0, "lat": 38.920009666666665, "is_disabled": 0, "name": "ed7c44e8c5c6d1a7e585a231e2af10fd", "fusion_lat": 0.0, "rental_uris": {"ios": "https://dc.lft.to/lastmile_qr_scan", "android": "https://dc.lft.to/lastmile_qr_scan"}, "lon": -76.958122, "type": "electric_scooter"}, {"bike_id": "956ee803f598f6d26c59b646a1096950", "is_reserved": 0, "fusion_lon": 0.0, "lat": 38.9068905, "is_disabled": 0, "name": "956ee803f598f6d26c59b646a1096950", "fusion_lat": 0.0, "rental_uris": {"ios": "https://dc.lft.to/lastmile_qr_scan", "android": "https://dc.lft.to/lastmile_qr_scan"}, "lon": -76.99970766666667, "type": "electric_scooter"}, {"bike_id": "9abfd8c0740f46745181b8ca12f2cd52", "is_reserved": 0, "fusion_lon": 0.0, "lat": 38.949760833333336, "is_disabled": 0, "name": "9abfd8c0740f46745181b8ca12f2cd52", "fusion_lat": 0.0, "rental_uris": {"ios": "https://dc.lft.to/lastmile_qr_scan", "android": "https://dc.lft.to/lastmile_qr_scan"}, "lon": -77.07900816666667, "type": "electric_scooter"}, {"bike_id": "723d2abb118923f8983a6b2c47c864e4", "is_reserved": 0, "fusion_lon": 0.0, "lat": 38.89495566666667, "is_disabled": 0, "name": "723d2abb118923f8983a6b2c47c864e4", "fusion_lat": 0.0, "rental_uris": {"ios": "https://dc.lft.to/lastmile_qr_scan", "android": "https://dc.lft.to/lastmile_qr_scan"}, "lon": -76.94915416666667, "type": "electric_scooter"}, {"bike_id": "1fa5ae46f2f5d40539dccd59c5bb9fa6", "is_reserved": 0, "fusion_lon": 0.0, "lat": 38.898314, "is_disabled": 0, "name": "1fa5ae46f2f5d40539dccd59c5bb9fa6", "fusion_lat": 0.0, "rental_uris": {"ios": "https://dc.lft.to/lastmile_qr_scan", "android": "https://dc.lft.to/lastmile_qr_scan"}, "lon": -76.94634, "type": "electric_scooter"}, {"bike_id": "c4b8954b7407bd0d721242e8b06b2ab0", "is_reserved": 0, "fusion_lon": 0.0, "lat": 38.92168233333334, "is_disabled": 0, "name": "c4b8954b7407bd0d721242e8b06b2ab0", "fusion_lat": 0.0, "rental_uris": {"ios": "https://dc.lft.to/lastmile_qr_scan", "android": "https://dc.lft.to/lastmile_qr_scan"}, "lon": -77.04218333333333, "type": "electric_scooter"}, {"bike_id": "c2f6b2bfcc59e5b416feb2e7f7da4024", "is_reserved": 0, "fusion_lon": 0.0, "lat": 38.923706, "is_disabled": 0, "name": "c2f6b2bfcc59e5b416feb2e7f7da4024", "fusion_lat": 0.0, "rental_uris": {"ios": "https://dc.lft.to/lastmile_qr_scan", "android": "https://dc.lft.to/lastmile_qr_scan"}, "lon": -77.05174966666667, "type": "electric_scooter"}, {"bike_id": "7b26305b1bfcd16f4edc3f12dc06a9da", "is_reserved": 0, "fusion_lon": 0.0, "lat": 38.918094333333336, "is_disabled": 0, "name": "7b26305b1bfcd16f4edc3f12dc06a9da", "fusion_lat": 0.0, "rental_uris": {"ios": "https://dc.lft.to/lastmile_qr_scan", "android": "https://dc.lft.to/lastmile_qr_scan"}, "lon": -77.03112416666667, "type": "electric_scooter"}, {"bike_id": "86bb1a7d7a0cbad55b5c501ff12c0aa1", "is_reserved": 0, "fusion_lon": 0.0, "lat": 38.87748833333333, "is_disabled": 0, "name": "86bb1a7d7a0cbad55b5c501ff12c0aa1", "fusion_lat": 0.0, "rental_uris": {"ios": "https://dc.lft.to/lastmile_qr_scan", "android": "https://dc.lft.to/lastmile_qr_scan"}, "lon": -77.00819333333334, "type": "electric_scooter"}, {"bike_id": "2de7d18a83e9d12f3efd6c07cda15e18", "is_reserved": 0, "fusion_lon": 0.0, "lat": 38.91911833333333, "is_disabled": 0, "name": "2de7d18a83e9d12f3efd6c07cda15e18", "fusion_lat": 0.0, "rental_uris": {"ios": "https://dc.lft.to/lastmile_qr_scan", "android": "https://dc.lft.to/lastmile_qr_scan"}, "lon": -77.026188, "type": "electric_scooter"}, {"bike_id": "1afb0deb65835d645db381349476be1d", "is_reserved": 0, "fusion_lon": 0.0, "lat": 38.906574, "is_disabled": 0, "name": "1afb0deb65835d645db381349476be1d", "fusion_lat": 0.0, "rental_uris": {"ios": "https://dc.lft.to/lastmile_qr_scan", "android": "https://dc.lft.to/lastmile_qr_scan"}, "lon": -77.03826733333334, "type": "electric_scooter"}, {"bike_id": "e2bb130b1d858a7edd4673f788df626b", "is_reserved": 0, "fusion_lon": 0.0, "lat": 38.89401516666667, "is_disabled": 0, "name": "e2bb130b1d858a7edd4673f788df626b", "fusion_lat": 0.0, "rental_uris": {"ios": "https://dc.lft.to/lastmile_qr_scan", "android": "https://dc.lft.to/lastmile_qr_scan"}, "lon": -76.94803133333333, "type": "electric_scooter"}, {"bike_id": "72650c755551dbfd16a78ac19eacda05", "is_reserved": 0, "fusion_lon": 0.0, "lat": 38.90792233333333, "is_disabled": 0, "name": "72650c755551dbfd16a78ac19eacda05", "fusion_lat": 0.0, "rental_uris": {"ios": "https://dc.lft.to/lastmile_qr_scan", "android": "https://dc.lft.to/lastmile_qr_scan"}, "lon": -77.048745, "type": "electric_scooter"}, {"bike_id": "2ee6778c1532c38588120ea66e86d777", "is_reserved": 0, "fusion_lon": 0.0, "lat": 38.89996416666666, "is_disabled": 0, "name": "2ee6778c1532c38588120ea66e86d777", "fusion_lat": 0.0, "rental_uris": {"ios": "https://dc.lft.to/lastmile_qr_scan", "android": "https://dc.lft.to/lastmile_qr_scan"}, "lon": -76.99488966666667, "type": "electric_scooter"}, {"bike_id": "530e3c07de1197186b8224e268cbb24c", "is_reserved": 0, "fusion_lon": 0.0, "lat": 38.91946933333333, "is_disabled": 0, "name": "530e3c07de1197186b8224e268cbb24c", "fusion_lat": 0.0, "rental_uris": {"ios": "https://dc.lft.to/lastmile_qr_scan", "android": "https://dc.lft.to/lastmile_qr_scan"}, "lon": -77.0320705, "type": "electric_scooter"}, {"bike_id": "ad65420f524c5c53d380b2c93369d496", "is_reserved": 0, "fusion_lon": 0.0, "lat": 38.93199966666667, "is_disabled": 0, "name": "ad65420f524c5c53d380b2c93369d496", "fusion_lat": 0.0, "rental_uris": {"ios": "https://dc.lft.to/lastmile_qr_scan", "android": "https://dc.lft.to/lastmile_qr_scan"}, "lon": -77.0385605, "type": "electric_scooter"}, {"bike_id": "8c3fa76688a42c106517d73775b6218b", "is_reserved": 0, "fusion_lon": 0.0, "lat": 38.91409016666667, "is_disabled": 0, "name": "8c3fa76688a42c106517d73775b6218b", "fusion_lat": 0.0, "rental_uris": {"ios": "https://dc.lft.to/lastmile_qr_scan", "android": "https://dc.lft.to/lastmile_qr_scan"}, "lon": -77.04569783333334, "type": "electric_scooter"}, {"bike_id": "3a41c3da538a7d340eafec222d90f78c", "is_reserved": 0, "fusion_lon": 0.0, "lat": 38.89960716666667, "is_disabled": 0, "name": "3a41c3da538a7d340eafec222d90f78c", "fusion_lat": 0.0, "rental_uris": {"ios": "https://dc.lft.to/lastmile_qr_scan", "android": "https://dc.lft.to/lastmile_qr_scan"}, "lon": -76.98675083333333, "type": "electric_bike"}, {"bike_id": "1831368ceb054cb31ea223ece386fea1", "is_reserved": 0, "fusion_lon": 0.0, "lat": 38.8953295, "is_disabled": 0, "name": "1831368ceb054cb31ea223ece386fea1", "fusion_lat": 0.0, "rental_uris": {"ios": "https://dc.lft.to/lastmile_qr_scan", "android": "https://dc.lft.to/lastmile_qr_scan"}, "lon": -77.03349783333333, "type": "electric_scooter"}, {"bike_id": "f37392bc38eae61feff3a5bd8a0e0c85", "is_reserved": 0, "fusion_lon": 0.0, "lat": 38.92453916666667, "is_disabled": 0, "name": "f37392bc38eae61feff3a5bd8a0e0c85", "fusion_lat": 0.0, "rental_uris": {"ios": "https://dc.lft.to/lastmile_qr_scan", "android": "https://dc.lft.to/lastmile_qr_scan"}, "lon": -77.02029216666666, "type": "electric_scooter"}, {"bike_id": "ed780bd37b28e713df5381dcd55536bb", "is_reserved": 0, "fusion_lon": 0.0, "lat": 38.940977333333336, "is_disabled": 0, "name": "ed780bd37b28e713df5381dcd55536bb", "fusion_lat": 0.0, "rental_uris": {"ios": "https://dc.lft.to/lastmile_qr_scan", "android": "https://dc.lft.to/lastmile_qr_scan"}, "lon": -77.032811, "type": "electric_scooter"}, {"bike_id": "40d7c3271b604016c862d8013f778f77", "is_reserved": 0, "fusion_lon": 0.0, "lat": 38.924473166666665, "is_disabled": 0, "name": "40d7c3271b604016c862d8013f778f77", "fusion_lat": 0.0, "rental_uris": {"ios": "https://dc.lft.to/lastmile_qr_scan", "android": "https://dc.lft.to/lastmile_qr_scan"}, "lon": -77.03375183333333, "type": "electric_scooter"}, {"bike_id": "27ca7cd1f8299ec1f7c31525494035dd", "is_reserved": 0, "fusion_lon": 0.0, "lat": 38.91860666666667, "is_disabled": 0, "name": "27ca7cd1f8299ec1f7c31525494035dd", "fusion_lat": 0.0, "rental_uris": {"ios": "https://dc.lft.to/lastmile_qr_scan", "android": "https://dc.lft.to/lastmile_qr_scan"}, "lon": -77.036639, "type": "electric_scooter"}, {"bike_id": "73662b20d6f7d71c58fad413928501d1", "is_reserved": 0, "fusion_lon": 0.0, "lat": 38.972362833333335, "is_disabled": 0, "name": "73662b20d6f7d71c58fad413928501d1", "fusion_lat": 0.0, "rental_uris": {"ios": "https://dc.lft.to/lastmile_qr_scan", "android": "https://dc.lft.to/lastmile_qr_scan"}, "lon": -77.027148, "type": "electric_scooter"}, {"bike_id": "f95759fdd6a3aa0230afba8d6d9097ee", "is_reserved": 0, "fusion_lon": 0.0, "lat": 38.864179, "is_disabled": 0, "name": "f95759fdd6a3aa0230afba8d6d9097ee", "fusion_lat": 0.0, "rental_uris": {"ios": "https://dc.lft.to/lastmile_qr_scan", "android": "https://dc.lft.to/lastmile_qr_scan"}, "lon": -76.97421833333334, "type": "electric_scooter"}, {"bike_id": "2097899fa75c382a2fd5fc0b01454a92", "is_reserved": 0, "fusion_lon": 0.0, "lat": 38.912732, "is_disabled": 0, "name": "2097899fa75c382a2fd5fc0b01454a92", "fusion_lat": 0.0, "rental_uris": {"ios": "https://dc.lft.to/lastmile_qr_scan", "android": "https://dc.lft.to/lastmile_qr_scan"}, "lon": -77.02210966666667, "type": "electric_scooter"}, {"bike_id": "8368c7bdefc289fd8f6a14c0b96dddee", "is_reserved": 0, "fusion_lon": 0.0, "lat": 38.887385, "is_disabled": 0, "name": "8368c7bdefc289fd8f6a14c0b96dddee", "fusion_lat": 0.0, "rental_uris": {"ios": "https://dc.lft.to/lastmile_qr_scan", "android": "https://dc.lft.to/lastmile_qr_scan"}, "lon": -77.01529466666666, "type": "electric_scooter"}, {"bike_id": "d7176e838d5e6f10aa6c4b9242ad67ad", "is_reserved": 0, "fusion_lon": 0.0, "lat": 38.89982583333333, "is_disabled": 0, "name": "d7176e838d5e6f10aa6c4b9242ad67ad", "fusion_lat": 0.0, "rental_uris": {"ios": "https://dc.lft.to/lastmile_qr_scan", "android": "https://dc.lft.to/lastmile_qr_scan"}, "lon": -77.031299, "type": "electric_scooter"}, {"bike_id": "2fff64f1e5a997ec5869e6b6c1cb43ba", "is_reserved": 0, "fusion_lon": 0.0, "lat": 38.922577833333335, "is_disabled": 0, "name": "2fff64f1e5a997ec5869e6b6c1cb43ba", "fusion_lat": 0.0, "rental_uris": {"ios": "https://dc.lft.to/lastmile_qr_scan", "android": "https://dc.lft.to/lastmile_qr_scan"}, "lon": -77.03661533333333, "type": "electric_scooter"}, {"bike_id": "5fb08610ad039f85a0e7d2d99f5da9da", "is_reserved": 0, "fusion_lon": 0.0, "lat": 38.92885733333333, "is_disabled": 0, "name": "5fb08610ad039f85a0e7d2d99f5da9da", "fusion_lat": 0.0, "rental_uris": {"ios": "https://dc.lft.to/lastmile_qr_scan", "android": "https://dc.lft.to/lastmile_qr_scan"}, "lon": -77.03755133333334, "type": "electric_scooter"}, {"bike_id": "04715c625e0ad42f3882d173d1209a35", "is_reserved": 0, "fusion_lon": 0.0, "lat": 38.903705, "is_disabled": 0, "name": "04715c625e0ad42f3882d173d1209a35", "fusion_lat": 0.0, "rental_uris": {"ios": "https://dc.lft.to/lastmile_qr_scan", "android": "https://dc.lft.to/lastmile_qr_scan"}, "lon": -77.03979416666667, "type": "electric_scooter"}, {"bike_id": "e1f40d27d3fd5ee6787e7d659d27826a", "is_reserved": 0, "fusion_lon": 0.0, "lat": 38.87458816666667, "is_disabled": 0, "name": "e1f40d27d3fd5ee6787e7d659d27826a", "fusion_lat": 0.0, "rental_uris": {"ios": "https://dc.lft.to/lastmile_qr_scan", "android": "https://dc.lft.to/lastmile_qr_scan"}, "lon": -77.0054745, "type": "electric_scooter"}, {"bike_id": "c1a8a3a168df356734276dc9d017ce42", "is_reserved": 0, "fusion_lon": 0.0, "lat": 38.885048833333336, "is_disabled": 0, "name": "c1a8a3a168df356734276dc9d017ce42", "fusion_lat": 0.0, "rental_uris": {"ios": "https://dc.lft.to/lastmile_qr_scan", "android": "https://dc.lft.to/lastmile_qr_scan"}, "lon": -77.00575783333333, "type": "electric_scooter"}, {"bike_id": "e1f98e73bfb42492b21205d802698434", "is_reserved": 0, "fusion_lon": 0.0, "lat": 38.938931, "is_disabled": 0, "name": "e1f98e73bfb42492b21205d802698434", "fusion_lat": 0.0, "rental_uris": {"ios": "https://dc.lft.to/lastmile_qr_scan", "android": "https://dc.lft.to/lastmile_qr_scan"}, "lon": -77.03334466666666, "type": "electric_scooter"}, {"bike_id": "a9eb786d3c1a80f0f2293acb133c043a", "is_reserved": 0, "fusion_lon": 0.0, "lat": 38.92149033333333, "is_disabled": 0, "name": "a9eb786d3c1a80f0f2293acb133c043a", "fusion_lat": 0.0, "rental_uris": {"ios": "https://dc.lft.to/lastmile_qr_scan", "android": "https://dc.lft.to/lastmile_qr_scan"}, "lon": -77.035281, "type": "electric_scooter"}, {"bike_id": "8bf78d81715c5516a050d8e178de8d91", "is_reserved": 0, "fusion_lon": 0.0, "lat": 38.903353, "is_disabled": 0, "name": "8bf78d81715c5516a050d8e178de8d91", "fusion_lat": 0.0, "rental_uris": {"ios": "https://dc.lft.to/lastmile_qr_scan", "android": "https://dc.lft.to/lastmile_qr_scan"}, "lon": -77.03773133333333, "type": "electric_scooter"}, {"bike_id": "72cd898cdc63d1e243b20ac3a3bd7a9b", "is_reserved": 0, "fusion_lon": 0.0, "lat": 38.936674333333336, "is_disabled": 0, "name": "72cd898cdc63d1e243b20ac3a3bd7a9b", "fusion_lat": 0.0, "rental_uris": {"ios": "https://dc.lft.to/lastmile_qr_scan", "android": "https://dc.lft.to/lastmile_qr_scan"}, "lon": -77.0363795, "type": "electric_scooter"}, {"bike_id": "743fe11c2e17b0814bb2a9baf6c05355", "is_reserved": 0, "fusion_lon": 0.0, "lat": 38.959121333333336, "is_disabled": 0, "name": "743fe11c2e17b0814bb2a9baf6c05355", "fusion_lat": 0.0, "rental_uris": {"ios": "https://dc.lft.to/lastmile_qr_scan", "android": "https://dc.lft.to/lastmile_qr_scan"}, "lon": -77.00152716666666, "type": "electric_bike"}, {"bike_id": "e50ea775063d544d6bea5f9a4e78b0b4", "is_reserved": 0, "fusion_lon": 0.0, "lat": 38.918809833333334, "is_disabled": 0, "name": "e50ea775063d544d6bea5f9a4e78b0b4", "fusion_lat": 0.0, "rental_uris": {"ios": "https://dc.lft.to/lastmile_qr_scan", "android": "https://dc.lft.to/lastmile_qr_scan"}, "lon": -77.04347383333334, "type": "electric_scooter"}, {"bike_id": "fd6e2952620f8e086bc82054d28866ac", "is_reserved": 0, "fusion_lon": 0.0, "lat": 38.91103716666667, "is_disabled": 0, "name": "fd6e2952620f8e086bc82054d28866ac", "fusion_lat": 0.0, "rental_uris": {"ios": "https://dc.lft.to/lastmile_qr_scan", "android": "https://dc.lft.to/lastmile_qr_scan"}, "lon": -77.0272055, "type": "electric_scooter"}, {"bike_id": "ec3fa616fc6facb39b4a515168a2aac0", "is_reserved": 0, "fusion_lon": 0.0, "lat": 38.906189499999996, "is_disabled": 0, "name": "ec3fa616fc6facb39b4a515168a2aac0", "fusion_lat": 0.0, "rental_uris": {"ios": "https://dc.lft.to/lastmile_qr_scan", "android": "https://dc.lft.to/lastmile_qr_scan"}, "lon": -77.03964766666667, "type": "electric_scooter"}, {"bike_id": "e5071107aeadb3f063077ce74e7213c0", "is_reserved": 0, "fusion_lon": 0.0, "lat": 38.913593666666664, "is_disabled": 0, "name": "e5071107aeadb3f063077ce74e7213c0", "fusion_lat": 0.0, "rental_uris": {"ios": "https://dc.lft.to/lastmile_qr_scan", "android": "https://dc.lft.to/lastmile_qr_scan"}, "lon": -77.0465025, "type": "electric_scooter"}, {"bike_id": "dc75f8ce26500e8f927d6bcdb0495208", "is_reserved": 0, "fusion_lon": 0.0, "lat": 38.959566833333334, "is_disabled": 0, "name": "dc75f8ce26500e8f927d6bcdb0495208", "fusion_lat": 0.0, "rental_uris": {"ios": "https://dc.lft.to/lastmile_qr_scan", "android": "https://dc.lft.to/lastmile_qr_scan"}, "lon": -77.10089533333333, "type": "electric_bike"}, {"bike_id": "e5c39c9f69c356e043604976d2b7daf7", "is_reserved": 0, "fusion_lon": 0.0, "lat": 38.932084333333336, "is_disabled": 0, "name": "e5c39c9f69c356e043604976d2b7daf7", "fusion_lat": 0.0, "rental_uris": {"ios": "https://dc.lft.to/lastmile_qr_scan", "android": "https://dc.lft.to/lastmile_qr_scan"}, "lon": -77.0273535, "type": "electric_scooter"}, {"bike_id": "7289e1a8f496b67a526007c57415f2e0", "is_reserved": 0, "fusion_lon": 0.0, "lat": 38.881409166666664, "is_disabled": 0, "name": "7289e1a8f496b67a526007c57415f2e0", "fusion_lat": 0.0, "rental_uris": {"ios": "https://dc.lft.to/lastmile_qr_scan", "android": "https://dc.lft.to/lastmile_qr_scan"}, "lon": -76.9962255, "type": "electric_scooter"}, {"bike_id": "5083c7578c7b3adabc4263a480416828", "is_reserved": 0, "fusion_lon": 0.0, "lat": 38.91201816666667, "is_disabled": 0, "name": "5083c7578c7b3adabc4263a480416828", "fusion_lat": 0.0, "rental_uris": {"ios": "https://dc.lft.to/lastmile_qr_scan", "android": "https://dc.lft.to/lastmile_qr_scan"}, "lon": -77.073178, "type": "electric_scooter"}, {"bike_id": "58dbc71252d83f794fc7cd3dbe9038ae", "is_reserved": 0, "fusion_lon": 0.0, "lat": 38.928270166666664, "is_disabled": 0, "name": "58dbc71252d83f794fc7cd3dbe9038ae", "fusion_lat": 0.0, "rental_uris": {"ios": "https://dc.lft.to/lastmile_qr_scan", "android": "https://dc.lft.to/lastmile_qr_scan"}, "lon": -77.02258066666667, "type": "electric_scooter"}, {"bike_id": "a3e9809074d4839c7499a1d654b87f89", "is_reserved": 0, "fusion_lon": 0.0, "lat": 38.91193083333334, "is_disabled": 0, "name": "a3e9809074d4839c7499a1d654b87f89", "fusion_lat": 0.0, "rental_uris": {"ios": "https://dc.lft.to/lastmile_qr_scan", "android": "https://dc.lft.to/lastmile_qr_scan"}, "lon": -77.06092516666666, "type": "electric_scooter"}, {"bike_id": "c2964748a7f2c382423a3e6769f5d49c", "is_reserved": 0, "fusion_lon": 0.0, "lat": 38.90399516666667, "is_disabled": 0, "name": "c2964748a7f2c382423a3e6769f5d49c", "fusion_lat": 0.0, "rental_uris": {"ios": "https://dc.lft.to/lastmile_qr_scan", "android": "https://dc.lft.to/lastmile_qr_scan"}, "lon": -77.0421335, "type": "electric_scooter"}, {"bike_id": "17496702a04b38f454a4dd69a705ff6d", "is_reserved": 0, "fusion_lon": 0.0, "lat": 38.89725133333334, "is_disabled": 0, "name": "17496702a04b38f454a4dd69a705ff6d", "fusion_lat": 0.0, "rental_uris": {"ios": "https://dc.lft.to/lastmile_qr_scan", "android": "https://dc.lft.to/lastmile_qr_scan"}, "lon": -77.027356, "type": "electric_scooter"}, {"bike_id": "5ca4de1f668f4caf7603576c119176ce", "is_reserved": 0, "fusion_lon": 0.0, "lat": 38.918403, "is_disabled": 0, "name": "5ca4de1f668f4caf7603576c119176ce", "fusion_lat": 0.0, "rental_uris": {"ios": "https://dc.lft.to/lastmile_qr_scan", "android": "https://dc.lft.to/lastmile_qr_scan"}, "lon": -77.0231075, "type": "electric_scooter"}, {"bike_id": "343e47a2f6a98e1be334545438657fe0", "is_reserved": 0, "fusion_lon": 0.0, "lat": 38.88495, "is_disabled": 0, "name": "343e47a2f6a98e1be334545438657fe0", "fusion_lat": 0.0, "rental_uris": {"ios": "https://dc.lft.to/lastmile_qr_scan", "android": "https://dc.lft.to/lastmile_qr_scan"}, "lon": -77.00726066666667, "type": "electric_scooter"}, {"bike_id": "e4072dd68f251d691e9658d317fb151e", "is_reserved": 0, "fusion_lon": 0.0, "lat": 38.9170125, "is_disabled": 0, "name": "e4072dd68f251d691e9658d317fb151e", "fusion_lat": 0.0, "rental_uris": {"ios": "https://dc.lft.to/lastmile_qr_scan", "android": "https://dc.lft.to/lastmile_qr_scan"}, "lon": -77.02656216666666, "type": "electric_scooter"}, {"bike_id": "4a787656bca673d67f049c39a4b1ae58", "is_reserved": 0, "fusion_lon": 0.0, "lat": 38.9026535, "is_disabled": 0, "name": "4a787656bca673d67f049c39a4b1ae58", "fusion_lat": 0.0, "rental_uris": {"ios": "https://dc.lft.to/lastmile_qr_scan", "android": "https://dc.lft.to/lastmile_qr_scan"}, "lon": -77.02999766666667, "type": "electric_scooter"}, {"bike_id": "128d1c42b74c6ddee8ee6809ffe56c0d", "is_reserved": 0, "fusion_lon": 0.0, "lat": 38.9056935, "is_disabled": 0, "name": "128d1c42b74c6ddee8ee6809ffe56c0d", "fusion_lat": 0.0, "rental_uris": {"ios": "https://dc.lft.to/lastmile_qr_scan", "android": "https://dc.lft.to/lastmile_qr_scan"}, "lon": -77.03636016666667, "type": "electric_scooter"}, {"bike_id": "9272fe0f672dc5780eb8b2af591eccca", "is_reserved": 0, "fusion_lon": 0.0, "lat": 38.906635666666666, "is_disabled": 0, "name": "9272fe0f672dc5780eb8b2af591eccca", "fusion_lat": 0.0, "rental_uris": {"ios": "https://dc.lft.to/lastmile_qr_scan", "android": "https://dc.lft.to/lastmile_qr_scan"}, "lon": -77.00885616666666, "type": "electric_scooter"}, {"bike_id": "df516d495720708d4656f34bed577289", "is_reserved": 0, "fusion_lon": 0.0, "lat": 38.89299716666667, "is_disabled": 0, "name": "df516d495720708d4656f34bed577289", "fusion_lat": 0.0, "rental_uris": {"ios": "https://dc.lft.to/lastmile_qr_scan", "android": "https://dc.lft.to/lastmile_qr_scan"}, "lon": -77.012342, "type": "electric_scooter"}, {"bike_id": "06519b13ac94f429da179c9ef6d248ec", "is_reserved": 0, "fusion_lon": 0.0, "lat": 38.92564016666667, "is_disabled": 0, "name": "06519b13ac94f429da179c9ef6d248ec", "fusion_lat": 0.0, "rental_uris": {"ios": "https://dc.lft.to/lastmile_qr_scan", "android": "https://dc.lft.to/lastmile_qr_scan"}, "lon": -77.05274566666667, "type": "electric_scooter"}, {"bike_id": "30be8ccda50f4189cb558e781032b1bd", "is_reserved": 0, "fusion_lon": 0.0, "lat": 38.9052235, "is_disabled": 0, "name": "30be8ccda50f4189cb558e781032b1bd", "fusion_lat": 0.0, "rental_uris": {"ios": "https://dc.lft.to/lastmile_qr_scan", "android": "https://dc.lft.to/lastmile_qr_scan"}, "lon": -77.0486935, "type": "electric_scooter"}, {"bike_id": "ffb6244f81d0b0475b47d9ad52eb66f2", "is_reserved": 0, "fusion_lon": 0.0, "lat": 38.89601483333333, "is_disabled": 0, "name": "ffb6244f81d0b0475b47d9ad52eb66f2", "fusion_lat": 0.0, "rental_uris": {"ios": "https://dc.lft.to/lastmile_qr_scan", "android": "https://dc.lft.to/lastmile_qr_scan"}, "lon": -77.04506783333333, "type": "electric_scooter"}, {"bike_id": "c88b8651b2b59c970175ede6dfa6be7c", "is_reserved": 0, "fusion_lon": 0.0, "lat": 38.92298866666667, "is_disabled": 0, "name": "c88b8651b2b59c970175ede6dfa6be7c", "fusion_lat": 0.0, "rental_uris": {"ios": "https://dc.lft.to/lastmile_qr_scan", "android": "https://dc.lft.to/lastmile_qr_scan"}, "lon": -77.04145233333334, "type": "electric_scooter"}, {"bike_id": "03e58ebe0c917d6c4b110a7d2dad0ecd", "is_reserved": 0, "fusion_lon": 0.0, "lat": 38.879850833333336, "is_disabled": 0, "name": "03e58ebe0c917d6c4b110a7d2dad0ecd", "fusion_lat": 0.0, "rental_uris": {"ios": "https://dc.lft.to/lastmile_qr_scan", "android": "https://dc.lft.to/lastmile_qr_scan"}, "lon": -77.0243165, "type": "electric_scooter"}, {"bike_id": "b0ad828146845dc19f156fe59bbbabe7", "is_reserved": 0, "fusion_lon": 0.0, "lat": 38.89626666666667, "is_disabled": 0, "name": "b0ad828146845dc19f156fe59bbbabe7", "fusion_lat": 0.0, "rental_uris": {"ios": "https://dc.lft.to/lastmile_qr_scan", "android": "https://dc.lft.to/lastmile_qr_scan"}, "lon": -77.0322905, "type": "electric_scooter"}, {"bike_id": "a75caa9b281a7d2ffbc7b617ab71ae64", "is_reserved": 0, "fusion_lon": 0.0, "lat": 38.9682115, "is_disabled": 0, "name": "a75caa9b281a7d2ffbc7b617ab71ae64", "fusion_lat": 0.0, "rental_uris": {"ios": "https://dc.lft.to/lastmile_qr_scan", "android": "https://dc.lft.to/lastmile_qr_scan"}, "lon": -77.01784116666667, "type": "electric_scooter"}, {"bike_id": "1ffa4ebdaefada33368e39c1b43d633a", "is_reserved": 0, "fusion_lon": 0.0, "lat": 38.90459533333333, "is_disabled": 0, "name": "1ffa4ebdaefada33368e39c1b43d633a", "fusion_lat": 0.0, "rental_uris": {"ios": "https://dc.lft.to/lastmile_qr_scan", "android": "https://dc.lft.to/lastmile_qr_scan"}, "lon": -76.99504133333333, "type": "electric_scooter"}, {"bike_id": "790dc2a0ba21929cb6625c298058fe37", "is_reserved": 0, "fusion_lon": 0.0, "lat": 38.903266333333335, "is_disabled": 0, "name": "790dc2a0ba21929cb6625c298058fe37", "fusion_lat": 0.0, "rental_uris": {"ios": "https://dc.lft.to/lastmile_qr_scan", "android": "https://dc.lft.to/lastmile_qr_scan"}, "lon": -77.0382495, "type": "electric_scooter"}, {"bike_id": "0fb2453a012a8a4ae4abb8c16e4c7770", "is_reserved": 0, "fusion_lon": 0.0, "lat": 38.905277, "is_disabled": 0, "name": "0fb2453a012a8a4ae4abb8c16e4c7770", "fusion_lat": 0.0, "rental_uris": {"ios": "https://dc.lft.to/lastmile_qr_scan", "android": "https://dc.lft.to/lastmile_qr_scan"}, "lon": -77.026972, "type": "electric_scooter"}, {"bike_id": "f3f66436e08e4fddadddd6c3532c5a82", "is_reserved": 0, "fusion_lon": 0.0, "lat": 38.91565716666667, "is_disabled": 0, "name": "f3f66436e08e4fddadddd6c3532c5a82", "fusion_lat": 0.0, "rental_uris": {"ios": "https://dc.lft.to/lastmile_qr_scan", "android": "https://dc.lft.to/lastmile_qr_scan"}, "lon": -77.02128866666666, "type": "electric_scooter"}, {"bike_id": "7c0416b5fc0f9a029e7ccc192b12cfbb", "is_reserved": 0, "fusion_lon": 0.0, "lat": 38.9592275, "is_disabled": 0, "name": "7c0416b5fc0f9a029e7ccc192b12cfbb", "fusion_lat": 0.0, "rental_uris": {"ios": "https://dc.lft.to/lastmile_qr_scan", "android": "https://dc.lft.to/lastmile_qr_scan"}, "lon": -77.0332345, "type": "electric_scooter"}, {"bike_id": "6b2e8d4f057709ab3a4aae74b8e0fa8d", "is_reserved": 0, "fusion_lon": 0.0, "lat": 38.90252783333333, "is_disabled": 0, "name": "6b2e8d4f057709ab3a4aae74b8e0fa8d", "fusion_lat": 0.0, "rental_uris": {"ios": "https://dc.lft.to/lastmile_qr_scan", "android": "https://dc.lft.to/lastmile_qr_scan"}, "lon": -77.04350083333334, "type": "electric_scooter"}, {"bike_id": "133cdf5efdb732e3e4b3395a1a88e2e2", "is_reserved": 0, "fusion_lon": 0.0, "lat": 38.91258466666667, "is_disabled": 0, "name": "133cdf5efdb732e3e4b3395a1a88e2e2", "fusion_lat": 0.0, "rental_uris": {"ios": "https://dc.lft.to/lastmile_qr_scan", "android": "https://dc.lft.to/lastmile_qr_scan"}, "lon": -77.04442166666666, "type": "electric_scooter"}, {"bike_id": "c50c87d691cfb4b7cdfbebdc991e040b", "is_reserved": 0, "fusion_lon": 0.0, "lat": 38.9166035, "is_disabled": 0, "name": "c50c87d691cfb4b7cdfbebdc991e040b", "fusion_lat": 0.0, "rental_uris": {"ios": "https://dc.lft.to/lastmile_qr_scan", "android": "https://dc.lft.to/lastmile_qr_scan"}, "lon": -77.00509116666667, "type": "electric_scooter"}, {"bike_id": "937dc4c22da194befe9f06c999859cc8", "is_reserved": 0, "fusion_lon": 0.0, "lat": 38.9097045, "is_disabled": 0, "name": "937dc4c22da194befe9f06c999859cc8", "fusion_lat": 0.0, "rental_uris": {"ios": "https://dc.lft.to/lastmile_qr_scan", "android": "https://dc.lft.to/lastmile_qr_scan"}, "lon": -77.0348385, "type": "electric_scooter"}, {"bike_id": "bbdeacc817232cd6ac398024f9228482", "is_reserved": 0, "fusion_lon": 0.0, "lat": 38.903640833333334, "is_disabled": 0, "name": "bbdeacc817232cd6ac398024f9228482", "fusion_lat": 0.0, "rental_uris": {"ios": "https://dc.lft.to/lastmile_qr_scan", "android": "https://dc.lft.to/lastmile_qr_scan"}, "lon": -77.02993383333333, "type": "electric_scooter"}, {"bike_id": "07335346e14569f761e42a88a295fb4e", "is_reserved": 0, "fusion_lon": 0.0, "lat": 38.91630383333333, "is_disabled": 0, "name": "07335346e14569f761e42a88a295fb4e", "fusion_lat": 0.0, "rental_uris": {"ios": "https://dc.lft.to/lastmile_qr_scan", "android": "https://dc.lft.to/lastmile_qr_scan"}, "lon": -77.03199566666666, "type": "electric_scooter"}, {"bike_id": "4cce49d630739b16343df6b0dce326eb", "is_reserved": 0, "fusion_lon": 0.0, "lat": 38.904755333333334, "is_disabled": 0, "name": "4cce49d630739b16343df6b0dce326eb", "fusion_lat": 0.0, "rental_uris": {"ios": "https://dc.lft.to/lastmile_qr_scan", "android": "https://dc.lft.to/lastmile_qr_scan"}, "lon": -77.0600475, "type": "electric_scooter"}, {"bike_id": "c38b994780b7c0501bdde0f2267fbac1", "is_reserved": 0, "fusion_lon": 0.0, "lat": 38.901378333333334, "is_disabled": 0, "name": "c38b994780b7c0501bdde0f2267fbac1", "fusion_lat": 0.0, "rental_uris": {"ios": "https://dc.lft.to/lastmile_qr_scan", "android": "https://dc.lft.to/lastmile_qr_scan"}, "lon": -76.99800333333333, "type": "electric_scooter"}, {"bike_id": "35dec2d1c819a7aa00f4833db03e7803", "is_reserved": 0, "fusion_lon": 0.0, "lat": 38.900266333333335, "is_disabled": 0, "name": "35dec2d1c819a7aa00f4833db03e7803", "fusion_lat": 0.0, "rental_uris": {"ios": "https://dc.lft.to/lastmile_qr_scan", "android": "https://dc.lft.to/lastmile_qr_scan"}, "lon": -76.987574, "type": "electric_scooter"}, {"bike_id": "82ae3bf55bb85f224fb2d787aaf977a2", "is_reserved": 0, "fusion_lon": 0.0, "lat": 38.92105033333333, "is_disabled": 0, "name": "82ae3bf55bb85f224fb2d787aaf977a2", "fusion_lat": 0.0, "rental_uris": {"ios": "https://dc.lft.to/lastmile_qr_scan", "android": "https://dc.lft.to/lastmile_qr_scan"}, "lon": -77.042212, "type": "electric_scooter"}, {"bike_id": "c7e9c57402e7cc066427c2d975775cd4", "is_reserved": 0, "fusion_lon": 0.0, "lat": 39.030412, "is_disabled": 0, "name": "c7e9c57402e7cc066427c2d975775cd4", "fusion_lat": 0.0, "rental_uris": {"ios": "https://dc.lft.to/lastmile_qr_scan", "android": "https://dc.lft.to/lastmile_qr_scan"}, "lon": -77.09478716666666, "type": "electric_bike"}, {"bike_id": "e54cca3e342cb44e2ac3df7704c0c129", "is_reserved": 0, "fusion_lon": 0.0, "lat": 38.931110833333335, "is_disabled": 0, "name": "e54cca3e342cb44e2ac3df7704c0c129", "fusion_lat": 0.0, "rental_uris": {"ios": "https://dc.lft.to/lastmile_qr_scan", "android": "https://dc.lft.to/lastmile_qr_scan"}, "lon": -77.03844633333334, "type": "electric_scooter"}, {"bike_id": "6982477deca835feaec2e2a276cbcf58", "is_reserved": 0, "fusion_lon": 0.0, "lat": 38.970573, "is_disabled": 0, "name": "6982477deca835feaec2e2a276cbcf58", "fusion_lat": 0.0, "rental_uris": {"ios": "https://dc.lft.to/lastmile_qr_scan", "android": "https://dc.lft.to/lastmile_qr_scan"}, "lon": -76.93609216666667, "type": "electric_bike"}, {"bike_id": "ac77a08195e992ea14ef06cbdb2529ca", "is_reserved": 0, "fusion_lon": 0.0, "lat": 38.9164675, "is_disabled": 0, "name": "ac77a08195e992ea14ef06cbdb2529ca", "fusion_lat": 0.0, "rental_uris": {"ios": "https://dc.lft.to/lastmile_qr_scan", "android": "https://dc.lft.to/lastmile_qr_scan"}, "lon": -77.0320395, "type": "electric_scooter"}, {"bike_id": "da0ad5689d1f5f72d0f1959ec2da8cc4", "is_reserved": 0, "fusion_lon": 0.0, "lat": 38.844261333333336, "is_disabled": 0, "name": "da0ad5689d1f5f72d0f1959ec2da8cc4", "fusion_lat": 0.0, "rental_uris": {"ios": "https://dc.lft.to/lastmile_qr_scan", "android": "https://dc.lft.to/lastmile_qr_scan"}, "lon": -76.997786, "type": "electric_scooter"}, {"bike_id": "fa0396538227bb8834b543dbdd0b574f", "is_reserved": 0, "fusion_lon": 0.0, "lat": 38.89298133333333, "is_disabled": 0, "name": "fa0396538227bb8834b543dbdd0b574f", "fusion_lat": 0.0, "rental_uris": {"ios": "https://dc.lft.to/lastmile_qr_scan", "android": "https://dc.lft.to/lastmile_qr_scan"}, "lon": -77.01232733333333, "type": "electric_scooter"}, {"bike_id": "104ee9e19bf399fb077b6d14aa9d6db9", "is_reserved": 0, "fusion_lon": 0.0, "lat": 38.86923066666667, "is_disabled": 0, "name": "104ee9e19bf399fb077b6d14aa9d6db9", "fusion_lat": 0.0, "rental_uris": {"ios": "https://dc.lft.to/lastmile_qr_scan", "android": "https://dc.lft.to/lastmile_qr_scan"}, "lon": -76.98305483333333, "type": "electric_scooter"}, {"bike_id": "b2c618710e7450d3ce1838988238a398", "is_reserved": 0, "fusion_lon": 0.0, "lat": 38.888735, "is_disabled": 0, "name": "b2c618710e7450d3ce1838988238a398", "fusion_lat": 0.0, "rental_uris": {"ios": "https://dc.lft.to/lastmile_qr_scan", "android": "https://dc.lft.to/lastmile_qr_scan"}, "lon": -76.9903945, "type": "electric_scooter"}, {"bike_id": "4fd02dffcd3e77cbc6143d8fd8f6ea0e", "is_reserved": 0, "fusion_lon": 0.0, "lat": 38.91588133333333, "is_disabled": 0, "name": "4fd02dffcd3e77cbc6143d8fd8f6ea0e", "fusion_lat": 0.0, "rental_uris": {"ios": "https://dc.lft.to/lastmile_qr_scan", "android": "https://dc.lft.to/lastmile_qr_scan"}, "lon": -76.98372, "type": "electric_scooter"}, {"bike_id": "261cd9530d3907a4a02dc6506103ae58", "is_reserved": 0, "fusion_lon": 0.0, "lat": 38.895045, "is_disabled": 0, "name": "261cd9530d3907a4a02dc6506103ae58", "fusion_lat": 0.0, "rental_uris": {"ios": "https://dc.lft.to/lastmile_qr_scan", "android": "https://dc.lft.to/lastmile_qr_scan"}, "lon": -77.00342633333334, "type": "electric_scooter"}, {"bike_id": "2c0ddd367226666c94595e37f3793b18", "is_reserved": 0, "fusion_lon": 0.0, "lat": 38.91551116666667, "is_disabled": 0, "name": "2c0ddd367226666c94595e37f3793b18", "fusion_lat": 0.0, "rental_uris": {"ios": "https://dc.lft.to/lastmile_qr_scan", "android": "https://dc.lft.to/lastmile_qr_scan"}, "lon": -77.0317325, "type": "electric_scooter"}, {"bike_id": "dd43e7874bf14a3fd810d11ae869d80d", "is_reserved": 0, "fusion_lon": 0.0, "lat": 38.89885116666667, "is_disabled": 0, "name": "dd43e7874bf14a3fd810d11ae869d80d", "fusion_lat": 0.0, "rental_uris": {"ios": "https://dc.lft.to/lastmile_qr_scan", "android": "https://dc.lft.to/lastmile_qr_scan"}, "lon": -76.93179733333334, "type": "electric_scooter"}, {"bike_id": "0863fca3f239b0b05469f6b87eb5b72e", "is_reserved": 0, "fusion_lon": 0.0, "lat": 38.87206966666667, "is_disabled": 0, "name": "0863fca3f239b0b05469f6b87eb5b72e", "fusion_lat": 0.0, "rental_uris": {"ios": "https://dc.lft.to/lastmile_qr_scan", "android": "https://dc.lft.to/lastmile_qr_scan"}, "lon": -77.0057865, "type": "electric_scooter"}, {"bike_id": "5cd2371d8dcffc41efed2fbabc5bfe79", "is_reserved": 0, "fusion_lon": 0.0, "lat": 38.904285, "is_disabled": 0, "name": "5cd2371d8dcffc41efed2fbabc5bfe79", "fusion_lat": 0.0, "rental_uris": {"ios": "https://dc.lft.to/lastmile_qr_scan", "android": "https://dc.lft.to/lastmile_qr_scan"}, "lon": -77.03641766666667, "type": "electric_scooter"}, {"bike_id": "4f88b3308d99ec4fabe8a29dec418b9c", "is_reserved": 0, "fusion_lon": 0.0, "lat": 38.898375, "is_disabled": 0, "name": "4f88b3308d99ec4fabe8a29dec418b9c", "fusion_lat": 0.0, "rental_uris": {"ios": "https://dc.lft.to/lastmile_qr_scan", "android": "https://dc.lft.to/lastmile_qr_scan"}, "lon": -77.04365716666666, "type": "electric_scooter"}, {"bike_id": "72ae181215c1273006af15be94b6340e", "is_reserved": 0, "fusion_lon": 0.0, "lat": 38.90552483333333, "is_disabled": 0, "name": "72ae181215c1273006af15be94b6340e", "fusion_lat": 0.0, "rental_uris": {"ios": "https://dc.lft.to/lastmile_qr_scan", "android": "https://dc.lft.to/lastmile_qr_scan"}, "lon": -77.04092333333334, "type": "electric_scooter"}, {"bike_id": "695cdf847d030bf6c6324881ae4eb222", "is_reserved": 0, "fusion_lon": 0.0, "lat": 38.8865005, "is_disabled": 0, "name": "695cdf847d030bf6c6324881ae4eb222", "fusion_lat": 0.0, "rental_uris": {"ios": "https://dc.lft.to/lastmile_qr_scan", "android": "https://dc.lft.to/lastmile_qr_scan"}, "lon": -77.16223, "type": "electric_bike"}, {"bike_id": "b649bf7e76fe58d60db904e892e4895a", "is_reserved": 0, "fusion_lon": 0.0, "lat": 38.90125466666667, "is_disabled": 0, "name": "b649bf7e76fe58d60db904e892e4895a", "fusion_lat": 0.0, "rental_uris": {"ios": "https://dc.lft.to/lastmile_qr_scan", "android": "https://dc.lft.to/lastmile_qr_scan"}, "lon": -77.04328433333333, "type": "electric_scooter"}, {"bike_id": "e16ac83ebb6c022a5a1c5db493346646", "is_reserved": 0, "fusion_lon": 0.0, "lat": 38.899222, "is_disabled": 0, "name": "e16ac83ebb6c022a5a1c5db493346646", "fusion_lat": 0.0, "rental_uris": {"ios": "https://dc.lft.to/lastmile_qr_scan", "android": "https://dc.lft.to/lastmile_qr_scan"}, "lon": -77.04056083333333, "type": "electric_scooter"}, {"bike_id": "27c5d9db7462174f87d4e592d3e1922d", "is_reserved": 0, "fusion_lon": 0.0, "lat": 38.916790666666664, "is_disabled": 0, "name": "27c5d9db7462174f87d4e592d3e1922d", "fusion_lat": 0.0, "rental_uris": {"ios": "https://dc.lft.to/lastmile_qr_scan", "android": "https://dc.lft.to/lastmile_qr_scan"}, "lon": -77.03690283333333, "type": "electric_scooter"}, {"bike_id": "f5c48c179a6a0557ef860e79c9d56416", "is_reserved": 0, "fusion_lon": 0.0, "lat": 38.909332, "is_disabled": 0, "name": "f5c48c179a6a0557ef860e79c9d56416", "fusion_lat": 0.0, "rental_uris": {"ios": "https://dc.lft.to/lastmile_qr_scan", "android": "https://dc.lft.to/lastmile_qr_scan"}, "lon": -77.0218915, "type": "electric_scooter"}, {"bike_id": "57e5e36d5cbcf940c35717bff3252e63", "is_reserved": 0, "fusion_lon": 0.0, "lat": 38.9055595, "is_disabled": 0, "name": "57e5e36d5cbcf940c35717bff3252e63", "fusion_lat": 0.0, "rental_uris": {"ios": "https://dc.lft.to/lastmile_qr_scan", "android": "https://dc.lft.to/lastmile_qr_scan"}, "lon": -77.0361235, "type": "electric_scooter"}, {"bike_id": "2506350b422ca66fbb2fd37b3be567d0", "is_reserved": 0, "fusion_lon": 0.0, "lat": 38.907932833333334, "is_disabled": 0, "name": "2506350b422ca66fbb2fd37b3be567d0", "fusion_lat": 0.0, "rental_uris": {"ios": "https://dc.lft.to/lastmile_qr_scan", "android": "https://dc.lft.to/lastmile_qr_scan"}, "lon": -77.048303, "type": "electric_scooter"}, {"bike_id": "e31c71a5a6762a73a2e8a13d6027f9ca", "is_reserved": 0, "fusion_lon": 0.0, "lat": 38.89831616666667, "is_disabled": 0, "name": "e31c71a5a6762a73a2e8a13d6027f9ca", "fusion_lat": 0.0, "rental_uris": {"ios": "https://dc.lft.to/lastmile_qr_scan", "android": "https://dc.lft.to/lastmile_qr_scan"}, "lon": -76.94633066666667, "type": "electric_scooter"}, {"bike_id": "ccc675219d7ba2de1f0ddd480abd9368", "is_reserved": 0, "fusion_lon": 0.0, "lat": 38.8923605, "is_disabled": 0, "name": "ccc675219d7ba2de1f0ddd480abd9368", "fusion_lat": 0.0, "rental_uris": {"ios": "https://dc.lft.to/lastmile_qr_scan", "android": "https://dc.lft.to/lastmile_qr_scan"}, "lon": -77.0279865, "type": "electric_scooter"}, {"bike_id": "a1ab54bf0fd02f88851810fb26bade53", "is_reserved": 0, "fusion_lon": 0.0, "lat": 38.89229666666667, "is_disabled": 0, "name": "a1ab54bf0fd02f88851810fb26bade53", "fusion_lat": 0.0, "rental_uris": {"ios": "https://dc.lft.to/lastmile_qr_scan", "android": "https://dc.lft.to/lastmile_qr_scan"}, "lon": -77.04998833333333, "type": "electric_scooter"}, {"bike_id": "6e288dca434156e34613d821204550c0", "is_reserved": 0, "fusion_lon": 0.0, "lat": 38.88358816666667, "is_disabled": 0, "name": "6e288dca434156e34613d821204550c0", "fusion_lat": 0.0, "rental_uris": {"ios": "https://dc.lft.to/lastmile_qr_scan", "android": "https://dc.lft.to/lastmile_qr_scan"}, "lon": -77.03172633333334, "type": "electric_scooter"}, {"bike_id": "6b0e646f4ca50c339410e9d563ffdfe1", "is_reserved": 0, "fusion_lon": 0.0, "lat": 38.92592116666667, "is_disabled": 0, "name": "6b0e646f4ca50c339410e9d563ffdfe1", "fusion_lat": 0.0, "rental_uris": {"ios": "https://dc.lft.to/lastmile_qr_scan", "android": "https://dc.lft.to/lastmile_qr_scan"}, "lon": -77.00478133333333, "type": "electric_scooter"}, {"bike_id": "bc175871fc159509b44d022b1ae8c8f7", "is_reserved": 0, "fusion_lon": 0.0, "lat": 38.91539933333333, "is_disabled": 0, "name": "bc175871fc159509b44d022b1ae8c8f7", "fusion_lat": 0.0, "rental_uris": {"ios": "https://dc.lft.to/lastmile_qr_scan", "android": "https://dc.lft.to/lastmile_qr_scan"}, "lon": -77.03801233333333, "type": "electric_scooter"}, {"bike_id": "1362fbeacaabe609e84e0cece6a89ead", "is_reserved": 0, "fusion_lon": 0.0, "lat": 38.90371316666667, "is_disabled": 0, "name": "1362fbeacaabe609e84e0cece6a89ead", "fusion_lat": 0.0, "rental_uris": {"ios": "https://dc.lft.to/lastmile_qr_scan", "android": "https://dc.lft.to/lastmile_qr_scan"}, "lon": -77.03175033333333, "type": "electric_scooter"}, {"bike_id": "af7b3bd9e6b417e0ed8d16277b56093e", "is_reserved": 0, "fusion_lon": 0.0, "lat": 38.93530116666667, "is_disabled": 0, "name": "af7b3bd9e6b417e0ed8d16277b56093e", "fusion_lat": 0.0, "rental_uris": {"ios": "https://dc.lft.to/lastmile_qr_scan", "android": "https://dc.lft.to/lastmile_qr_scan"}, "lon": -77.028496, "type": "electric_scooter"}, {"bike_id": "2d2b2bf8b63572288e6b54a21c42f169", "is_reserved": 0, "fusion_lon": 0.0, "lat": 38.852469, "is_disabled": 0, "name": "2d2b2bf8b63572288e6b54a21c42f169", "fusion_lat": 0.0, "rental_uris": {"ios": "https://dc.lft.to/lastmile_qr_scan", "android": "https://dc.lft.to/lastmile_qr_scan"}, "lon": -77.11427683333334, "type": "electric_bike"}, {"bike_id": "1bdbd9e9a278193704ef760cbad56a93", "is_reserved": 0, "fusion_lon": 0.0, "lat": 38.902726, "is_disabled": 0, "name": "1bdbd9e9a278193704ef760cbad56a93", "fusion_lat": 0.0, "rental_uris": {"ios": "https://dc.lft.to/lastmile_qr_scan", "android": "https://dc.lft.to/lastmile_qr_scan"}, "lon": -77.03951533333333, "type": "electric_scooter"}, {"bike_id": "7a09c8f12ccfd77c81e093c37b138541", "is_reserved": 0, "fusion_lon": 0.0, "lat": 38.8839705, "is_disabled": 0, "name": "7a09c8f12ccfd77c81e093c37b138541", "fusion_lat": 0.0, "rental_uris": {"ios": "https://dc.lft.to/lastmile_qr_scan", "android": "https://dc.lft.to/lastmile_qr_scan"}, "lon": -77.01963383333333, "type": "electric_scooter"}, {"bike_id": "81751223023469afefa6bb85a50f6196", "is_reserved": 0, "fusion_lon": 0.0, "lat": 38.92123683333333, "is_disabled": 0, "name": "81751223023469afefa6bb85a50f6196", "fusion_lat": 0.0, "rental_uris": {"ios": "https://dc.lft.to/lastmile_qr_scan", "android": "https://dc.lft.to/lastmile_qr_scan"}, "lon": -77.022025, "type": "electric_scooter"}, {"bike_id": "61b60f6d2e81da8b13f45de88930b498", "is_reserved": 0, "fusion_lon": 0.0, "lat": 38.90650083333333, "is_disabled": 0, "name": "61b60f6d2e81da8b13f45de88930b498", "fusion_lat": 0.0, "rental_uris": {"ios": "https://dc.lft.to/lastmile_qr_scan", "android": "https://dc.lft.to/lastmile_qr_scan"}, "lon": -77.00975366666667, "type": "electric_scooter"}, {"bike_id": "e2d954b639654adeec085c660b3e32dd", "is_reserved": 0, "fusion_lon": 0.0, "lat": 38.900988166666664, "is_disabled": 0, "name": "e2d954b639654adeec085c660b3e32dd", "fusion_lat": 0.0, "rental_uris": {"ios": "https://dc.lft.to/lastmile_qr_scan", "android": "https://dc.lft.to/lastmile_qr_scan"}, "lon": -77.0499015, "type": "electric_scooter"}, {"bike_id": "4c1c2f987ec77c4c5a4eba33b8b3f457", "is_reserved": 0, "fusion_lon": 0.0, "lat": 38.89934516666667, "is_disabled": 0, "name": "4c1c2f987ec77c4c5a4eba33b8b3f457", "fusion_lat": 0.0, "rental_uris": {"ios": "https://dc.lft.to/lastmile_qr_scan", "android": "https://dc.lft.to/lastmile_qr_scan"}, "lon": -77.02968433333334, "type": "electric_scooter"}, {"bike_id": "14002df3b7747576e17caed5d1621c9f", "is_reserved": 0, "fusion_lon": 0.0, "lat": 38.88678866666667, "is_disabled": 0, "name": "14002df3b7747576e17caed5d1621c9f", "fusion_lat": 0.0, "rental_uris": {"ios": "https://dc.lft.to/lastmile_qr_scan", "android": "https://dc.lft.to/lastmile_qr_scan"}, "lon": -77.01370666666666, "type": "electric_scooter"}, {"bike_id": "dc02b43da5d05ed0276ab2ad7ac88172", "is_reserved": 0, "fusion_lon": 0.0, "lat": 38.935167, "is_disabled": 0, "name": "dc02b43da5d05ed0276ab2ad7ac88172", "fusion_lat": 0.0, "rental_uris": {"ios": "https://dc.lft.to/lastmile_qr_scan", "android": "https://dc.lft.to/lastmile_qr_scan"}, "lon": -77.0329745, "type": "electric_scooter"}, {"bike_id": "92d4959e9ba46ae12ac926df56300706", "is_reserved": 0, "fusion_lon": 0.0, "lat": 38.912070166666666, "is_disabled": 0, "name": "92d4959e9ba46ae12ac926df56300706", "fusion_lat": 0.0, "rental_uris": {"ios": "https://dc.lft.to/lastmile_qr_scan", "android": "https://dc.lft.to/lastmile_qr_scan"}, "lon": -77.02950216666666, "type": "electric_scooter"},