{"data": {"bikes": [{"name": "c6003c0cfbaea59d28ec70f7777dd78e", "fusion_lon": 0.0, "lat": 38.899609833333336, "is_reserved": 0, "type": "electric_scooter", "bike_id": "c6003c0cfbaea59d28ec70f7777dd78e", "is_disabled": 0, "rental_uris": {"android": "https://dc.lft.to/lastmile_qr_scan", "ios": "https://dc.lft.to/lastmile_qr_scan"}, "lon": -77.02211883333334, "fusion_lat": 0.0}, {"name": "b2b7d4763a1de2fddfbe5152017a4eb3", "fusion_lon": 0.0, "lat": 38.923146833333334, "is_reserved": 0, "type": "electric_scooter", "bike_id": "b2b7d4763a1de2fddfbe5152017a4eb3", "is_disabled": 0, "rental_uris": {"android": "https://dc.lft.to/lastmile_qr_scan", "ios": "https://dc.lft.to/lastmile_qr_scan"}, "lon": -77.04346316666667, "fusion_lat": 0.0}, {"name": "1e18dd35571994404acbd7215e963e3a", "fusion_lon": 0.0, "lat": 38.957352, "is_reserved": 0, "type": "electric_scooter", "bike_id": "1e18dd35571994404acbd7215e963e3a", "is_disabled": 0, "rental_uris": {"android": "https://dc.lft.to/lastmile_qr_scan", "ios": "https://dc.lft.to/lastmile_qr_scan"}, "lon": -77.02405466666667, "fusion_lat": 0.0}, {"name": "664c1c04f5a7143d9fb0697f8ec023d8", "fusion_lon": 0.0, "lat": 38.90065466666667, "is_reserved": 0, "type": "electric_scooter", "bike_id": "664c1c04f5a7143d9fb0697f8ec023d8", "is_disabled": 0, "rental_uris": {"android": "https://dc.lft.to/lastmile_qr_scan", "ios": "https://dc.lft.to/lastmile_qr_scan"}, "lon": -76.98712533333334, "fusion_lat": 0.0}, {"name": "ec566e80e47bf6147e3a325d1fa4e06c", "fusion_lon": 0.0, "lat": 38.92081783333333, "is_reserved": 0, "type": "electric_scooter", "bike_id": "ec566e80e47bf6147e3a325d1fa4e06c", "is_disabled": 0, "rental_uris": {"android": "https://dc.lft.to/lastmile_qr_scan", "ios": "https://dc.lft.to/lastmile_qr_scan"}, "lon": -77.02294433333333, "fusion_lat": 0.0}, {"name": "d2527a2ab28f36c46d2f2044ea9453a1", "fusion_lon": 0.0, "lat": 38.9040995, "is_reserved": 0, "type": "electric_scooter", "bike_id": "d2527a2ab28f36c46d2f2044ea9453a1", "is_disabled": 0, "rental_uris": {"android": "https://dc.lft.to/lastmile_qr_scan", "ios": "https://dc.lft.to/lastmile_qr_scan"}, "lon": -76.9733125, "fusion_lat": 0.0}, {"name": "c61121156d2435b80a610fc74d0afb95", "fusion_lon": 0.0, "lat": 38.9044585, "is_reserved": 0, "type": "electric_scooter", "bike_id": "c61121156d2435b80a610fc74d0afb95", "is_disabled": 0, "rental_uris": {"android": "https://dc.lft.to/lastmile_qr_scan", "ios": "https://dc.lft.to/lastmile_qr_scan"}, "lon": -77.06289133333334, "fusion_lat": 0.0}, {"name": "8ea16865bf850e03d47befd3d72a52a4", "fusion_lon": 0.0, "lat": 38.892237333333334, "is_reserved": 0, "type": "electric_scooter", "bike_id": "8ea16865bf850e03d47befd3d72a52a4", "is_disabled": 0, "rental_uris": {"android": "https://dc.lft.to/lastmile_qr_scan", "ios": "https://dc.lft.to/lastmile_qr_scan"}, "lon": -77.048666, "fusion_lat": 0.0}, {"name": "b7db3a8f9385c079c84e18828bf499c9", "fusion_lon": 0.0, "lat": 38.89844183333334, "is_reserved": 0, "type": "electric_scooter", "bike_id": "b7db3a8f9385c079c84e18828bf499c9", "is_disabled": 0, "rental_uris": {"android": "https://dc.lft.to/lastmile_qr_scan", "ios": "https://dc.lft.to/lastmile_qr_scan"}, "lon": -77.022792, "fusion_lat": 0.0}, {"name": "807d0c835ba300bd0e751d28d0aabfb6", "fusion_lon": 0.0, "lat": 38.908697333333336, "is_reserved": 0, "type": "electric_scooter", "bike_id": "807d0c835ba300bd0e751d28d0aabfb6", "is_disabled": 0, "rental_uris": {"android": "https://dc.lft.to/lastmile_qr_scan", "ios": "https://dc.lft.to/lastmile_qr_scan"}, "lon": -77.0859405, "fusion_lat": 0.0}, {"name": "6711ecd34d9ec87727ad5006c3d04e09", "fusion_lon": 0.0, "lat": 38.95158833333333, "is_reserved": 0, "type": "electric_scooter", "bike_id": "6711ecd34d9ec87727ad5006c3d04e09", "is_disabled": 0, "rental_uris": {"android": "https://dc.lft.to/lastmile_qr_scan", "ios": "https://dc.lft.to/lastmile_qr_scan"}, "lon": -77.01873233333333, "fusion_lat": 0.0}, {"name": "e90eda3a85f515f581aab41144619ab1", "fusion_lon": 0.0, "lat": 38.93486133333333, "is_reserved": 0, "type": "electric_bike", "bike_id": "e90eda3a85f515f581aab41144619ab1", "is_disabled": 0, "rental_uris": {"android": "https://dc.lft.to/lastmile_qr_scan", "ios": "https://dc.lft.to/lastmile_qr_scan"}, "lon": -77.03017483333333, "fusion_lat": 0.0}, {"name": "3754fbdd058714accedaa205a96be374", "fusion_lon": 0.0, "lat": 38.956894166666665, "is_reserved": 0, "type": "electric_bike", "bike_id": "3754fbdd058714accedaa205a96be374", "is_disabled": 0, "rental_uris": {"android": "https://dc.lft.to/lastmile_qr_scan", "ios": "https://dc.lft.to/lastmile_qr_scan"}, "lon": -77.02227516666666, "fusion_lat": 0.0}, {"name": "f4c4029a1aa4d747099fbbec34336417", "fusion_lon": 0.0, "lat": 38.918962666666665, "is_reserved": 0, "type": "electric_scooter", "bike_id": "f4c4029a1aa4d747099fbbec34336417", "is_disabled": 0, "rental_uris": {"android": "https://dc.lft.to/lastmile_qr_scan", "ios": "https://dc.lft.to/lastmile_qr_scan"}, "lon": -77.02296966666667, "fusion_lat": 0.0}, {"name": "73feff8637d56b9e2550b20dcfccb54a", "fusion_lon": 0.0, "lat": 38.90365466666667, "is_reserved": 0, "type": "electric_scooter", "bike_id": "73feff8637d56b9e2550b20dcfccb54a", "is_disabled": 0, "rental_uris": {"android": "https://dc.lft.to/lastmile_qr_scan", "ios": "https://dc.lft.to/lastmile_qr_scan"}, "lon": -77.03347516666666, "fusion_lat": 0.0}, {"name": "a5c12449843d5b7bd6296cd47e20ded9", "fusion_lon": 0.0, "lat": 38.92172766666667, "is_reserved": 0, "type": "electric_scooter", "bike_id": "a5c12449843d5b7bd6296cd47e20ded9", "is_disabled": 0, "rental_uris": {"android": "https://dc.lft.to/lastmile_qr_scan", "ios": "https://dc.lft.to/lastmile_qr_scan"}, "lon": -77.01917266666666, "fusion_lat": 0.0}, {"name": "d74e5eb4b941fe5702a5a37f383c1ab9", "fusion_lon": 0.0, "lat": 38.92878733333333, "is_reserved": 0, "type": "electric_scooter", "bike_id": "d74e5eb4b941fe5702a5a37f383c1ab9", "is_disabled": 0, "rental_uris": {"android": "https://dc.lft.to/lastmile_qr_scan", "ios": "https://dc.lft.to/lastmile_qr_scan"}, "lon": -77.04236616666667, "fusion_lat": 0.0}, {"name": "cd14022d7ecefab5c97d19841f29ce1c", "fusion_lon": 0.0, "lat": 38.87229583333333, "is_reserved": 0, "type": "electric_scooter", "bike_id": "cd14022d7ecefab5c97d19841f29ce1c", "is_disabled": 0, "rental_uris": {"android": "https://dc.lft.to/lastmile_qr_scan", "ios": "https://dc.lft.to/lastmile_qr_scan"}, "lon": -77.011688, "fusion_lat": 0.0}, {"name": "2940b8d8d11765112d8d62d1ea901f3d", "fusion_lon": 0.0, "lat": 38.900346666666664, "is_reserved": 0, "type": "electric_scooter", "bike_id": "2940b8d8d11765112d8d62d1ea901f3d", "is_disabled": 0, "rental_uris": {"android": "https://dc.lft.to/lastmile_qr_scan", "ios": "https://dc.lft.to/lastmile_qr_scan"}, "lon": -77.00145483333333, "fusion_lat": 0.0}, {"name": "06a628e2f98353454bb80bad272b3da8", "fusion_lon": 0.0, "lat": 38.984377, "is_reserved": 0, "type": "electric_scooter", "bike_id": "06a628e2f98353454bb80bad272b3da8", "is_disabled": 0, "rental_uris": {"android": "https://dc.lft.to/lastmile_qr_scan", "ios": "https://dc.lft.to/lastmile_qr_scan"}, "lon": -77.02672366666667, "fusion_lat": 0.0}, {"name": "c1171f48764e58ce4171aa688026b797", "fusion_lon": 0.0, "lat": 38.918104, "is_reserved": 0, "type": "electric_scooter", "bike_id": "c1171f48764e58ce4171aa688026b797", "is_disabled": 0, "rental_uris": {"android": "https://dc.lft.to/lastmile_qr_scan", "ios": "https://dc.lft.to/lastmile_qr_scan"}, "lon": -77.03437066666666, "fusion_lat": 0.0}, {"name": "e2d6108d260d4c92be5043aeb0183040", "fusion_lon": 0.0, "lat": 38.9112055, "is_reserved": 0, "type": "electric_scooter", "bike_id": "e2d6108d260d4c92be5043aeb0183040", "is_disabled": 0, "rental_uris": {"android": "https://dc.lft.to/lastmile_qr_scan", "ios": "https://dc.lft.to/lastmile_qr_scan"}, "lon": -77.02243533333333, "fusion_lat": 0.0}, {"name": "dae33b11cc8f3d0675fd001f5571cfcf", "fusion_lon": 0.0, "lat": 38.89478016666666, "is_reserved": 0, "type": "electric_scooter", "bike_id": "dae33b11cc8f3d0675fd001f5571cfcf", "is_disabled": 0, "rental_uris": {"android": "https://dc.lft.to/lastmile_qr_scan", "ios": "https://dc.lft.to/lastmile_qr_scan"}, "lon": -77.046509, "fusion_lat": 0.0}, {"name": "ac73786c27483e1d56d20efa2fe0cf76", "fusion_lon": 0.0, "lat": 38.920344, "is_reserved": 0, "type": "electric_scooter", "bike_id": "ac73786c27483e1d56d20efa2fe0cf76", "is_disabled": 0, "rental_uris": {"android": "https://dc.lft.to/lastmile_qr_scan", "ios": "https://dc.lft.to/lastmile_qr_scan"}, "lon": -77.02584533333334, "fusion_lat": 0.0}, {"name": "c02b7536d389854f155486743187357e", "fusion_lon": 0.0, "lat": 38.89221633333333, "is_reserved": 0, "type": "electric_scooter", "bike_id": "c02b7536d389854f155486743187357e", "is_disabled": 0, "rental_uris": {"android": "https://dc.lft.to/lastmile_qr_scan", "ios": "https://dc.lft.to/lastmile_qr_scan"}, "lon": -77.04371583333334, "fusion_lat": 0.0}, {"name": "51b7af94fb0819a6c55895ffe106fa39", "fusion_lon": 0.0, "lat": 38.892209333333334, "is_reserved": 0, "type": "electric_scooter", "bike_id": "51b7af94fb0819a6c55895ffe106fa39", "is_disabled": 0, "rental_uris": {"android": "https://dc.lft.to/lastmile_qr_scan", "ios": "https://dc.lft.to/lastmile_qr_scan"}, "lon": -77.04866816666667, "fusion_lat": 0.0}, {"name": "3c127c9dcf002d29c118f47d526ea7e5", "fusion_lon": 0.0, "lat": 38.878352166666666, "is_reserved": 0, "type": "electric_scooter", "bike_id": "3c127c9dcf002d29c118f47d526ea7e5", "is_disabled": 0, "rental_uris": {"android": "https://dc.lft.to/lastmile_qr_scan", "ios": "https://dc.lft.to/lastmile_qr_scan"}, "lon": -77.0159625, "fusion_lat": 0.0}, {"name": "4a602cda3434b1d3b531cd0eb25db79a", "fusion_lon": 0.0, "lat": 38.89239033333333, "is_reserved": 0, "type": "electric_scooter", "bike_id": "4a602cda3434b1d3b531cd0eb25db79a", "is_disabled": 0, "rental_uris": {"android": "https://dc.lft.to/lastmile_qr_scan", "ios": "https://dc.lft.to/lastmile_qr_scan"}, "lon": -77.0241195, "fusion_lat": 0.0}, {"name": "97922d7761a71950872255d1caa716d6", "fusion_lon": 0.0, "lat": 38.945597666666664, "is_reserved": 0, "type": "electric_bike", "bike_id": "97922d7761a71950872255d1caa716d6", "is_disabled": 0, "rental_uris": {"android": "https://dc.lft.to/lastmile_qr_scan", "ios": "https://dc.lft.to/lastmile_qr_scan"}, "lon": -76.966888, "fusion_lat": 0.0}, {"name": "073469f199a4bbbf99fb94ea95adb169", "fusion_lon": 0.0, "lat": 38.892987833333336, "is_reserved": 0, "type": "electric_scooter", "bike_id": "073469f199a4bbbf99fb94ea95adb169", "is_disabled": 0, "rental_uris": {"android": "https://dc.lft.to/lastmile_qr_scan", "ios": "https://dc.lft.to/lastmile_qr_scan"}, "lon": -76.93928333333334, "fusion_lat": 0.0}, {"name": "3a0dd9b203ef8e0fb444059bed5c2553", "fusion_lon": 0.0, "lat": 38.9237935, "is_reserved": 0, "type": "electric_scooter", "bike_id": "3a0dd9b203ef8e0fb444059bed5c2553", "is_disabled": 0, "rental_uris": {"android": "https://dc.lft.to/lastmile_qr_scan", "ios": "https://dc.lft.to/lastmile_qr_scan"}, "lon": -77.0292595, "fusion_lat": 0.0}, {"name": "7a9493bd51018f0aeff3db54257e1b95", "fusion_lon": 0.0, "lat": 38.90382266666667, "is_reserved": 0, "type": "electric_scooter", "bike_id": "7a9493bd51018f0aeff3db54257e1b95", "is_disabled": 0, "rental_uris": {"android": "https://dc.lft.to/lastmile_qr_scan", "ios": "https://dc.lft.to/lastmile_qr_scan"}, "lon": -77.02618183333334, "fusion_lat": 0.0}, {"name": "47513ba30933bd097bcca67bed65c82d", "fusion_lon": 0.0, "lat": 38.92155983333333, "is_reserved": 0, "type": "electric_scooter", "bike_id": "47513ba30933bd097bcca67bed65c82d", "is_disabled": 0, "rental_uris": {"android": "https://dc.lft.to/lastmile_qr_scan", "ios": "https://dc.lft.to/lastmile_qr_scan"}, "lon": -77.03457616666667, "fusion_lat": 0.0}, {"name": "e021a28656d3b7b7a9dc1964afbc950a", "fusion_lon": 0.0, "lat": 38.913625333333336, "is_reserved": 0, "type": "electric_scooter", "bike_id": "e021a28656d3b7b7a9dc1964afbc950a", "is_disabled": 0, "rental_uris": {"android": "https://dc.lft.to/lastmile_qr_scan", "ios": "https://dc.lft.to/lastmile_qr_scan"}, "lon": -77.045598, "fusion_lat": 0.0}, {"name": "ced6cc05ad4980bbc0f6c759871c7c93", "fusion_lon": 0.0, "lat": 38.91404816666667, "is_reserved": 0, "type": "electric_scooter", "bike_id": "ced6cc05ad4980bbc0f6c759871c7c93", "is_disabled": 0, "rental_uris": {"android": "https://dc.lft.to/lastmile_qr_scan", "ios": "https://dc.lft.to/lastmile_qr_scan"}, "lon": -77.04373383333333, "fusion_lat": 0.0}, {"name": "4aa2babad6a2e6e983a694d504edefe7", "fusion_lon": 0.0, "lat": 38.92091166666667, "is_reserved": 0, "type": "electric_scooter", "bike_id": "4aa2babad6a2e6e983a694d504edefe7", "is_disabled": 0, "rental_uris": {"android": "https://dc.lft.to/lastmile_qr_scan", "ios": "https://dc.lft.to/lastmile_qr_scan"}, "lon": -77.02419716666667, "fusion_lat": 0.0}, {"name": "64f24f4d81347fd5aeb222960f69cadf", "fusion_lon": 0.0, "lat": 38.904007166666666, "is_reserved": 0, "type": "electric_scooter", "bike_id": "64f24f4d81347fd5aeb222960f69cadf", "is_disabled": 0, "rental_uris": {"android": "https://dc.lft.to/lastmile_qr_scan", "ios": "https://dc.lft.to/lastmile_qr_scan"}, "lon": -77.03273033333333, "fusion_lat": 0.0}, {"name": "8535f589562ba0cb626551e506cde8fc", "fusion_lon": 0.0, "lat": 38.917298333333335, "is_reserved": 0, "type": "electric_scooter", "bike_id": "8535f589562ba0cb626551e506cde8fc", "is_disabled": 0, "rental_uris": {"android": "https://dc.lft.to/lastmile_qr_scan", "ios": "https://dc.lft.to/lastmile_qr_scan"}, "lon": -77.03182583333333, "fusion_lat": 0.0}, {"name": "b951071d807b32917bd56e05b650ad2c", "fusion_lon": 0.0, "lat": 38.89219533333333, "is_reserved": 0, "type": "electric_scooter", "bike_id": "b951071d807b32917bd56e05b650ad2c", "is_disabled": 0, "rental_uris": {"android": "https://dc.lft.to/lastmile_qr_scan", "ios": "https://dc.lft.to/lastmile_qr_scan"}, "lon": -77.02228733333334, "fusion_lat": 0.0}, {"name": "9fabcf528568b2b6efc8e9169bd3bf8a", "fusion_lon": 0.0, "lat": 38.91726166666667, "is_reserved": 0, "type": "electric_scooter", "bike_id": "9fabcf528568b2b6efc8e9169bd3bf8a", "is_disabled": 0, "rental_uris": {"android": "https://dc.lft.to/lastmile_qr_scan", "ios": "https://dc.lft.to/lastmile_qr_scan"}, "lon": -77.02503533333334, "fusion_lat": 0.0}, {"name": "a5419c780c1c8989e2be5da505f6944e", "fusion_lon": 0.0, "lat": 38.89563733333333, "is_reserved": 0, "type": "electric_bike", "bike_id": "a5419c780c1c8989e2be5da505f6944e", "is_disabled": 0, "rental_uris": {"android": "https://dc.lft.to/lastmile_qr_scan", "ios": "https://dc.lft.to/lastmile_qr_scan"}, "lon": -77.12729716666666, "fusion_lat": 0.0}, {"name": "cde6392060d716a8c1ebe4c0d01985a4", "fusion_lon": 0.0, "lat": 38.92092233333333, "is_reserved": 0, "type": "electric_scooter", "bike_id": "cde6392060d716a8c1ebe4c0d01985a4", "is_disabled": 0, "rental_uris": {"android": "https://dc.lft.to/lastmile_qr_scan", "ios": "https://dc.lft.to/lastmile_qr_scan"}, "lon": -77.03186983333333, "fusion_lat": 0.0}, {"name": "f6e951d7147a051b569b1a0fb0d97973", "fusion_lon": 0.0, "lat": 38.907165666666664, "is_reserved": 0, "type": "electric_scooter", "bike_id": "f6e951d7147a051b569b1a0fb0d97973", "is_disabled": 0, "rental_uris": {"android": "https://dc.lft.to/lastmile_qr_scan", "ios": "https://dc.lft.to/lastmile_qr_scan"}, "lon": -77.01480533333333, "fusion_lat": 0.0}, {"name": "457f879eae060977c4cfd0fcd095210b", "fusion_lon": 0.0, "lat": 38.900637333333336, "is_reserved": 0, "type": "electric_scooter", "bike_id": "457f879eae060977c4cfd0fcd095210b", "is_disabled": 0, "rental_uris": {"android": "https://dc.lft.to/lastmile_qr_scan", "ios": "https://dc.lft.to/lastmile_qr_scan"}, "lon": -77.048541, "fusion_lat": 0.0}, {"name": "b659f22a16af088407619a95d6ad28f1", "fusion_lon": 0.0, "lat": 38.8922325, "is_reserved": 0, "type": "electric_scooter", "bike_id": "b659f22a16af088407619a95d6ad28f1", "is_disabled": 0, "rental_uris": {"android": "https://dc.lft.to/lastmile_qr_scan", "ios": "https://dc.lft.to/lastmile_qr_scan"}, "lon": -77.033393, "fusion_lat": 0.0}, {"name": "af612b91b3be94a1f67d0cd67f290dcc", "fusion_lon": 0.0, "lat": 38.88503, "is_reserved": 0, "type": "electric_scooter", "bike_id": "af612b91b3be94a1f67d0cd67f290dcc", "is_disabled": 0, "rental_uris": {"android": "https://dc.lft.to/lastmile_qr_scan", "ios": "https://dc.lft.to/lastmile_qr_scan"}, "lon": -76.97711333333334, "fusion_lat": 0.0}, {"name": "25b83f87a3956a79538791f43ec40980", "fusion_lon": 0.0, "lat": 38.92322816666667, "is_reserved": 0, "type": "electric_scooter", "bike_id": "25b83f87a3956a79538791f43ec40980", "is_disabled": 0, "rental_uris": {"android": "https://dc.lft.to/lastmile_qr_scan", "ios": "https://dc.lft.to/lastmile_qr_scan"}, "lon": -77.03574166666667, "fusion_lat": 0.0}, {"name": "d7b9dd1ebbb1d4111022f5e9c4406762", "fusion_lon": 0.0, "lat": 38.86368216666666, "is_reserved": 0, "type": "electric_bike", "bike_id": "d7b9dd1ebbb1d4111022f5e9c4406762", "is_disabled": 0, "rental_uris": {"android": "https://dc.lft.to/lastmile_qr_scan", "ios": "https://dc.lft.to/lastmile_qr_scan"}, "lon": -76.97009883333334, "fusion_lat": 0.0}, {"name": "5bea29ec38a7bd54554af4a358365477", "fusion_lon": 0.0, "lat": 38.9102655, "is_reserved": 0, "type": "electric_scooter", "bike_id": "5bea29ec38a7bd54554af4a358365477", "is_disabled": 0, "rental_uris": {"android": "https://dc.lft.to/lastmile_qr_scan", "ios": "https://dc.lft.to/lastmile_qr_scan"}, "lon": -77.00758433333333, "fusion_lat": 0.0}, {"name": "1353ef39327a7692e6ef9c2e1c0192e1", "fusion_lon": 0.0, "lat": 38.901713666666666, "is_reserved": 0, "type": "electric_scooter", "bike_id": "1353ef39327a7692e6ef9c2e1c0192e1", "is_disabled": 0, "rental_uris": {"android": "https://dc.lft.to/lastmile_qr_scan", "ios": "https://dc.lft.to/lastmile_qr_scan"}, "lon": -77.01615533333333, "fusion_lat": 0.0}, {"name": "5102dbbef80aa2b4031ec49158f15af8", "fusion_lon": 0.0, "lat": 38.90829183333334, "is_reserved": 0, "type": "electric_bike", "bike_id": "5102dbbef80aa2b4031ec49158f15af8", "is_disabled": 0, "rental_uris": {"android": "https://dc.lft.to/lastmile_qr_scan", "ios": "https://dc.lft.to/lastmile_qr_scan"}, "lon": -76.94157333333334, "fusion_lat": 0.0}, {"name": "e78e6874db0ba7af39796431619ab9b4", "fusion_lon": 0.0, "lat": 38.92043233333333, "is_reserved": 0, "type": "electric_scooter", "bike_id": "e78e6874db0ba7af39796431619ab9b4", "is_disabled": 0, "rental_uris": {"android": "https://dc.lft.to/lastmile_qr_scan", "ios": "https://dc.lft.to/lastmile_qr_scan"}, "lon": -77.03411483333333, "fusion_lat": 0.0}, {"name": "1e9bb92f5a2e1e32ddff0b40d7fa04c4", "fusion_lon": 0.0, "lat": 38.911339166666664, "is_reserved": 0, "type": "electric_scooter", "bike_id": "1e9bb92f5a2e1e32ddff0b40d7fa04c4", "is_disabled": 0, "rental_uris": {"android": "https://dc.lft.to/lastmile_qr_scan", "ios": "https://dc.lft.to/lastmile_qr_scan"}, "lon": -77.0280855, "fusion_lat": 0.0}, {"name": "24854b868c9a04dc1cdf049199bc2913", "fusion_lon": 0.0, "lat": 38.866985, "is_reserved": 0, "type": "electric_scooter", "bike_id": "24854b868c9a04dc1cdf049199bc2913", "is_disabled": 0, "rental_uris": {"android": "https://dc.lft.to/lastmile_qr_scan", "ios": "https://dc.lft.to/lastmile_qr_scan"}, "lon": -76.9871095, "fusion_lat": 0.0}, {"name": "311d9dc0fb956c379ce9667ba35204ee", "fusion_lon": 0.0, "lat": 38.941544666666665, "is_reserved": 0, "type": "electric_bike", "bike_id": "311d9dc0fb956c379ce9667ba35204ee", "is_disabled": 0, "rental_uris": {"android": "https://dc.lft.to/lastmile_qr_scan", "ios": "https://dc.lft.to/lastmile_qr_scan"}, "lon": -77.00194283333333, "fusion_lat": 0.0}, {"name": "93d7351cde9391fb707833dfd2a62fa0", "fusion_lon": 0.0, "lat": 38.9224495, "is_reserved": 0, "type": "electric_scooter", "bike_id": "93d7351cde9391fb707833dfd2a62fa0", "is_disabled": 0, "rental_uris": {"android": "https://dc.lft.to/lastmile_qr_scan", "ios": "https://dc.lft.to/lastmile_qr_scan"}, "lon": -77.03902333333333, "fusion_lat": 0.0}, {"name": "ceb418d7e71ad6e23ab5da6b6982ab40", "fusion_lon": 0.0, "lat": 38.880498333333335, "is_reserved": 0, "type": "electric_scooter", "bike_id": "ceb418d7e71ad6e23ab5da6b6982ab40", "is_disabled": 0, "rental_uris": {"android": "https://dc.lft.to/lastmile_qr_scan", "ios": "https://dc.lft.to/lastmile_qr_scan"}, "lon": -77.00589266666667, "fusion_lat": 0.0}, {"name": "df8dad7e536fff24adaff82dc4e59f1c", "fusion_lon": 0.0, "lat": 38.9198645, "is_reserved": 0, "type": "electric_scooter", "bike_id": "df8dad7e536fff24adaff82dc4e59f1c", "is_disabled": 0, "rental_uris": {"android": "https://dc.lft.to/lastmile_qr_scan", "ios": "https://dc.lft.to/lastmile_qr_scan"}, "lon": -77.076991, "fusion_lat": 0.0}, {"name": "7c285c980ee7affa2ec171b8020d0582", "fusion_lon": 0.0, "lat": 38.917307, "is_reserved": 0, "type": "electric_scooter", "bike_id": "7c285c980ee7affa2ec171b8020d0582", "is_disabled": 0, "rental_uris": {"android": "https://dc.lft.to/lastmile_qr_scan", "ios": "https://dc.lft.to/lastmile_qr_scan"}, "lon": -77.02508383333333, "fusion_lat": 0.0}, {"name": "21ca5254df57f8f59ab3ac87aeaafa43", "fusion_lon": 0.0, "lat": 38.888759, "is_reserved": 0, "type": "electric_bike", "bike_id": "21ca5254df57f8f59ab3ac87aeaafa43", "is_disabled": 0, "rental_uris": {"android": "https://dc.lft.to/lastmile_qr_scan", "ios": "https://dc.lft.to/lastmile_qr_scan"}, "lon": -76.97848366666666, "fusion_lat": 0.0}, {"name": "b0190b2e9b93ae6da94e169d43ba388b", "fusion_lon": 0.0, "lat": 38.95663733333333, "is_reserved": 0, "type": "electric_scooter", "bike_id": "b0190b2e9b93ae6da94e169d43ba388b", "is_disabled": 0, "rental_uris": {"android": "https://dc.lft.to/lastmile_qr_scan", "ios": "https://dc.lft.to/lastmile_qr_scan"}, "lon": -77.01038166666666, "fusion_lat": 0.0}, {"name": "d4d63020db8bce1fcee8e6fb3eefce80", "fusion_lon": 0.0, "lat": 38.935343, "is_reserved": 0, "type": "electric_scooter", "bike_id": "d4d63020db8bce1fcee8e6fb3eefce80", "is_disabled": 0, "rental_uris": {"android": "https://dc.lft.to/lastmile_qr_scan", "ios": "https://dc.lft.to/lastmile_qr_scan"}, "lon": -77.03476633333334, "fusion_lat": 0.0}, {"name": "42ee8da08756c3498dd1577544213144", "fusion_lon": 0.0, "lat": 38.907531166666665, "is_reserved": 0, "type": "electric_scooter", "bike_id": "42ee8da08756c3498dd1577544213144", "is_disabled": 0, "rental_uris": {"android": "https://dc.lft.to/lastmile_qr_scan", "ios": "https://dc.lft.to/lastmile_qr_scan"}, "lon": -76.99876683333333, "fusion_lat": 0.0}, {"name": "6ef40744dc17c99e78a694cbe7b7a051", "fusion_lon": 0.0, "lat": 38.9138535, "is_reserved": 0, "type": "electric_bike", "bike_id": "6ef40744dc17c99e78a694cbe7b7a051", "is_disabled": 0, "rental_uris": {"android": "https://dc.lft.to/lastmile_qr_scan", "ios": "https://dc.lft.to/lastmile_qr_scan"}, "lon": -77.08923366666667, "fusion_lat": 0.0}, {"name": "45cd6ebb99b03f1c4a6da4a45705fc17", "fusion_lon": 0.0, "lat": 38.83429666666667, "is_reserved": 0, "type": "electric_bike", "bike_id": "45cd6ebb99b03f1c4a6da4a45705fc17", "is_disabled": 0, "rental_uris": {"android": "https://dc.lft.to/lastmile_qr_scan", "ios": "https://dc.lft.to/lastmile_qr_scan"}, "lon": -77.1035395, "fusion_lat": 0.0}, {"name": "e071ae6d940e337fef0d1543591d8834", "fusion_lon": 0.0, "lat": 38.90832533333333, "is_reserved": 0, "type": "electric_scooter", "bike_id": "e071ae6d940e337fef0d1543591d8834", "is_disabled": 0, "rental_uris": {"android": "https://dc.lft.to/lastmile_qr_scan", "ios": "https://dc.lft.to/lastmile_qr_scan"}, "lon": -77.04449466666667, "fusion_lat": 0.0}, {"name": "849ffc92337b850063bf541fedf57e2b", "fusion_lon": 0.0, "lat": 38.91497233333333, "is_reserved": 0, "type": "electric_scooter", "bike_id": "849ffc92337b850063bf541fedf57e2b", "is_disabled": 0, "rental_uris": {"android": "https://dc.lft.to/lastmile_qr_scan", "ios": "https://dc.lft.to/lastmile_qr_scan"}, "lon": -77.01222966666667, "fusion_lat": 0.0}, {"name": "fb3b82c87543d9505883d8e475b25452", "fusion_lon": 0.0, "lat": 38.910989, "is_reserved": 0, "type": "electric_scooter", "bike_id": "fb3b82c87543d9505883d8e475b25452", "is_disabled": 0, "rental_uris": {"android": "https://dc.lft.to/lastmile_qr_scan", "ios": "https://dc.lft.to/lastmile_qr_scan"}, "lon": -77.04200416666667, "fusion_lat": 0.0}, {"name": "5d59395fac2aa0a688ddd3463d7f69b7", "fusion_lon": 0.0, "lat": 38.9241975, "is_reserved": 0, "type": "electric_scooter", "bike_id": "5d59395fac2aa0a688ddd3463d7f69b7", "is_disabled": 0, "rental_uris": {"android": "https://dc.lft.to/lastmile_qr_scan", "ios": "https://dc.lft.to/lastmile_qr_scan"}, "lon": -77.01948533333334, "fusion_lat": 0.0}, {"name": "21f152821e494c0518e078b2130e0b7b", "fusion_lon": 0.0, "lat": 38.92509716666667, "is_reserved": 0, "type": "electric_scooter", "bike_id": "21f152821e494c0518e078b2130e0b7b", "is_disabled": 0, "rental_uris": {"android": "https://dc.lft.to/lastmile_qr_scan", "ios": "https://dc.lft.to/lastmile_qr_scan"}, "lon": -77.02695333333334, "fusion_lat": 0.0}, {"name": "f27bf42104b417bf87246f730fab00ec", "fusion_lon": 0.0, "lat": 38.844351333333336, "is_reserved": 0, "type": "electric_scooter", "bike_id": "f27bf42104b417bf87246f730fab00ec", "is_disabled": 0, "rental_uris": {"android": "https://dc.lft.to/lastmile_qr_scan", "ios": "https://dc.lft.to/lastmile_qr_scan"}, "lon": -76.99814633333334, "fusion_lat": 0.0}, {"name": "f8b06ab51231f5e907f9817ec7dea0fd", "fusion_lon": 0.0, "lat": 38.928603333333335, "is_reserved": 0, "type": "electric_scooter", "bike_id": "f8b06ab51231f5e907f9817ec7dea0fd", "is_disabled": 0, "rental_uris": {"android": "https://dc.lft.to/lastmile_qr_scan", "ios": "https://dc.lft.to/lastmile_qr_scan"}, "lon": -77.01404716666667, "fusion_lat": 0.0}, {"name": "dd02d1984f00f153026896f28d723804", "fusion_lon": 0.0, "lat": 38.910984666666664, "is_reserved": 0, "type": "electric_scooter", "bike_id": "dd02d1984f00f153026896f28d723804", "is_disabled": 0, "rental_uris": {"android": "https://dc.lft.to/lastmile_qr_scan", "ios": "https://dc.lft.to/lastmile_qr_scan"}, "lon": -77.0448155, "fusion_lat": 0.0}, {"name": "013d3966114bcefcfbd2d43a2c52d82a", "fusion_lon": 0.0, "lat": 38.936138, "is_reserved": 0, "type": "electric_scooter", "bike_id": "013d3966114bcefcfbd2d43a2c52d82a", "is_disabled": 0, "rental_uris": {"android": "https://dc.lft.to/lastmile_qr_scan", "ios": "https://dc.lft.to/lastmile_qr_scan"}, "lon": -77.06753816666667, "fusion_lat": 0.0}, {"name": "c81cc44f52065764b9bcb75a184bbda5", "fusion_lon": 0.0, "lat": 38.89743583333333, "is_reserved": 0, "type": "electric_scooter", "bike_id": "c81cc44f52065764b9bcb75a184bbda5", "is_disabled": 0, "rental_uris": {"android": "https://dc.lft.to/lastmile_qr_scan", "ios": "https://dc.lft.to/lastmile_qr_scan"}, "lon": -77.04412733333334, "fusion_lat": 0.0}, {"name": "33bba7f3a48065eca61a45bfb0bde232", "fusion_lon": 0.0, "lat": 38.91748233333333, "is_reserved": 0, "type": "electric_scooter", "bike_id": "33bba7f3a48065eca61a45bfb0bde232", "is_disabled": 0, "rental_uris": {"android": "https://dc.lft.to/lastmile_qr_scan", "ios": "https://dc.lft.to/lastmile_qr_scan"}, "lon": -77.03467683333334, "fusion_lat": 0.0}, {"name": "e6b1fe8011cd4104230912c7e2c93e74", "fusion_lon": 0.0, "lat": 38.87297566666667, "is_reserved": 0, "type": "electric_bike", "bike_id": "e6b1fe8011cd4104230912c7e2c93e74", "is_disabled": 0, "rental_uris": {"android": "https://dc.lft.to/lastmile_qr_scan", "ios": "https://dc.lft.to/lastmile_qr_scan"}, "lon": -77.13925783333333, "fusion_lat": 0.0}, {"name": "f4e6e66b1ca67eed46a06f1d849063e5", "fusion_lon": 0.0, "lat": 38.94202666666666, "is_reserved": 0, "type": "electric_scooter", "bike_id": "f4e6e66b1ca67eed46a06f1d849063e5", "is_disabled": 0, "rental_uris": {"android": "https://dc.lft.to/lastmile_qr_scan", "ios": "https://dc.lft.to/lastmile_qr_scan"}, "lon": -77.02513966666666, "fusion_lat": 0.0}, {"name": "a661c4279404e50dedf30d939f3b9186", "fusion_lon": 0.0, "lat": 38.91774733333333, "is_reserved": 0, "type": "electric_scooter", "bike_id": "a661c4279404e50dedf30d939f3b9186", "is_disabled": 0, "rental_uris": {"android": "https://dc.lft.to/lastmile_qr_scan", "ios": "https://dc.lft.to/lastmile_qr_scan"}, "lon": -77.03638583333333, "fusion_lat": 0.0}, {"name": "ecd425749a2aaf10eefc44c74a135e85", "fusion_lon": 0.0, "lat": 38.912724, "is_reserved": 0, "type": "electric_scooter", "bike_id": "ecd425749a2aaf10eefc44c74a135e85", "is_disabled": 0, "rental_uris": {"android": "https://dc.lft.to/lastmile_qr_scan", "ios": "https://dc.lft.to/lastmile_qr_scan"}, "lon": -77.02693633333334, "fusion_lat": 0.0}, {"name": "5f63066606c9771257bc92a1c15ad283", "fusion_lon": 0.0, "lat": 38.944394, "is_reserved": 0, "type": "electric_scooter", "bike_id": "5f63066606c9771257bc92a1c15ad283", "is_disabled": 0, "rental_uris": {"android": "https://dc.lft.to/lastmile_qr_scan", "ios": "https://dc.lft.to/lastmile_qr_scan"}, "lon": -77.0634965, "fusion_lat": 0.0}, {"name": "f5bc13d625c1fb75d30eba8011faf529", "fusion_lon": 0.0, "lat": 38.927692666666665, "is_reserved": 0, "type": "electric_scooter", "bike_id": "f5bc13d625c1fb75d30eba8011faf529", "is_disabled": 0, "rental_uris": {"android": "https://dc.lft.to/lastmile_qr_scan", "ios": "https://dc.lft.to/lastmile_qr_scan"}, "lon": -77.02708783333334, "fusion_lat": 0.0}, {"name": "830b50cc3590aab1afc0bbaeed741163", "fusion_lon": 0.0, "lat": 38.90009366666666, "is_reserved": 0, "type": "electric_scooter", "bike_id": "830b50cc3590aab1afc0bbaeed741163", "is_disabled": 0, "rental_uris": {"android": "https://dc.lft.to/lastmile_qr_scan", "ios": "https://dc.lft.to/lastmile_qr_scan"}, "lon": -77.00684783333334, "fusion_lat": 0.0}, {"name": "0ef2a3bc6be5a2cb2aeb0679b1407829", "fusion_lon": 0.0, "lat": 38.86513883333333, "is_reserved": 0, "type": "electric_bike", "bike_id": "0ef2a3bc6be5a2cb2aeb0679b1407829", "is_disabled": 0, "rental_uris": {"android": "https://dc.lft.to/lastmile_qr_scan", "ios": "https://dc.lft.to/lastmile_qr_scan"}, "lon": -76.97341483333334, "fusion_lat": 0.0}, {"name": "1aab2ff9ca0663246bcf6dd7ce30b42c", "fusion_lon": 0.0, "lat": 38.914186, "is_reserved": 0, "type": "electric_scooter", "bike_id": "1aab2ff9ca0663246bcf6dd7ce30b42c", "is_disabled": 0, "rental_uris": {"android": "https://dc.lft.to/lastmile_qr_scan", "ios": "https://dc.lft.to/lastmile_qr_scan"}, "lon": -77.03073183333333, "fusion_lat": 0.0}, {"name": "b14a2fa5f5c25d173029f48c95718045", "fusion_lon": 0.0, "lat": 38.924159, "is_reserved": 0, "type": "electric_scooter", "bike_id": "b14a2fa5f5c25d173029f48c95718045", "is_disabled": 0, "rental_uris": {"android": "https://dc.lft.to/lastmile_qr_scan", "ios": "https://dc.lft.to/lastmile_qr_scan"}, "lon": -77.0506135, "fusion_lat": 0.0}, {"name": "eaac6b2d9b95b88d694ace9302931654", "fusion_lon": 0.0, "lat": 38.91354616666667, "is_reserved": 0, "type": "electric_bike", "bike_id": "eaac6b2d9b95b88d694ace9302931654", "is_disabled": 0, "rental_uris": {"android": "https://dc.lft.to/lastmile_qr_scan", "ios": "https://dc.lft.to/lastmile_qr_scan"}, "lon": -77.028199, "fusion_lat": 0.0}, {"name": "a9ede268bf9cabb4456559204b05062e", "fusion_lon": 0.0, "lat": 38.918144, "is_reserved": 0, "type": "electric_scooter", "bike_id": "a9ede268bf9cabb4456559204b05062e", "is_disabled": 0, "rental_uris": {"android": "https://dc.lft.to/lastmile_qr_scan", "ios": "https://dc.lft.to/lastmile_qr_scan"}, "lon": -77.03189816666666, "fusion_lat": 0.0}, {"name": "c6eb6e66ddb635d8b5d8c79798cdb4bd", "fusion_lon": 0.0, "lat": 38.87602566666666, "is_reserved": 0, "type": "electric_scooter", "bike_id": "c6eb6e66ddb635d8b5d8c79798cdb4bd", "is_disabled": 0, "rental_uris": {"android": "https://dc.lft.to/lastmile_qr_scan", "ios": "https://dc.lft.to/lastmile_qr_scan"}, "lon": -77.0007155, "fusion_lat": 0.0}, {"name": "24607fc90dd44d1f7757a832f8f61aa4", "fusion_lon": 0.0, "lat": 38.911011333333335, "is_reserved": 0, "type": "electric_scooter", "bike_id": "24607fc90dd44d1f7757a832f8f61aa4", "is_disabled": 0, "rental_uris": {"android": "https://dc.lft.to/lastmile_qr_scan", "ios": "https://dc.lft.to/lastmile_qr_scan"}, "lon": -77.042019, "fusion_lat": 0.0}, {"name": "30eec14050decf0bd40cc443dd38b62e", "fusion_lon": 0.0, "lat": 38.901352, "is_reserved": 0, "type": "electric_scooter", "bike_id": "30eec14050decf0bd40cc443dd38b62e", "is_disabled": 0, "rental_uris": {"android": "https://dc.lft.to/lastmile_qr_scan", "ios": "https://dc.lft.to/lastmile_qr_scan"}, "lon": -77.04412766666667, "fusion_lat": 0.0}, {"name": "f150970c6d6b6bff26b15ec68c1a2c5e", "fusion_lon": 0.0, "lat": 38.9286655, "is_reserved": 0, "type": "electric_scooter", "bike_id": "f150970c6d6b6bff26b15ec68c1a2c5e", "is_disabled": 0, "rental_uris": {"android": "https://dc.lft.to/lastmile_qr_scan", "ios": "https://dc.lft.to/lastmile_qr_scan"}, "lon": -77.02178883333333, "fusion_lat": 0.0}, {"name": "73cab816f0f50909cbd6b01b7e8b3520", "fusion_lon": 0.0, "lat": 38.854378, "is_reserved": 0, "type": "electric_bike", "bike_id": "73cab816f0f50909cbd6b01b7e8b3520", "is_disabled": 0, "rental_uris": {"android": "https://dc.lft.to/lastmile_qr_scan", "ios": "https://dc.lft.to/lastmile_qr_scan"}, "lon": -77.08308933333333, "fusion_lat": 0.0}, {"name": "95ed27b54466e7a1b4f838e7d0c2d877", "fusion_lon": 0.0, "lat": 38.924671333333336, "is_reserved": 0, "type": "electric_scooter", "bike_id": "95ed27b54466e7a1b4f838e7d0c2d877", "is_disabled": 0, "rental_uris": {"android": "https://dc.lft.to/lastmile_qr_scan", "ios": "https://dc.lft.to/lastmile_qr_scan"}, "lon": -77.03898783333334, "fusion_lat": 0.0}, {"name": "bed22f2f6afb9815397487d742bb351a", "fusion_lon": 0.0, "lat": 38.90493816666667, "is_reserved": 0, "type": "electric_bike", "bike_id": "bed22f2f6afb9815397487d742bb351a", "is_disabled": 0, "rental_uris": {"android": "https://dc.lft.to/lastmile_qr_scan", "ios": "https://dc.lft.to/lastmile_qr_scan"}, "lon": -76.9742585, "fusion_lat": 0.0}, {"name": "e355f2dc1a18fdd627cb4f7dfae5294b", "fusion_lon": 0.0, "lat": 38.905754333333334, "is_reserved": 0, "type": "electric_scooter", "bike_id": "e355f2dc1a18fdd627cb4f7dfae5294b", "is_disabled": 0, "rental_uris": {"android": "https://dc.lft.to/lastmile_qr_scan", "ios": "https://dc.lft.to/lastmile_qr_scan"}, "lon": -77.04150466666667, "fusion_lat": 0.0}, {"name": "519aa05786110d380f65a6e2c75344b1", "fusion_lon": 0.0, "lat": 38.914112, "is_reserved": 0, "type": "electric_scooter", "bike_id": "519aa05786110d380f65a6e2c75344b1", "is_disabled": 0, "rental_uris": {"android": "https://dc.lft.to/lastmile_qr_scan", "ios": "https://dc.lft.to/lastmile_qr_scan"}, "lon": -77.04183866666666, "fusion_lat": 0.0}, {"name": "09f0f7dd0938f426e3d4a77357acaa7b", "fusion_lon": 0.0, "lat": 38.9024455, "is_reserved": 0, "type": "electric_scooter", "bike_id": "09f0f7dd0938f426e3d4a77357acaa7b", "is_disabled": 0, "rental_uris": {"android": "https://dc.lft.to/lastmile_qr_scan", "ios": "https://dc.lft.to/lastmile_qr_scan"}, "lon": -77.00205366666667, "fusion_lat": 0.0}, {"name": "fd499c807f28fc01e782ace1b012947b", "fusion_lon": 0.0, "lat": 38.913269666666665, "is_reserved": 0, "type": "electric_scooter", "bike_id": "fd499c807f28fc01e782ace1b012947b", "is_disabled": 0, "rental_uris": {"android": "https://dc.lft.to/lastmile_qr_scan", "ios": "https://dc.lft.to/lastmile_qr_scan"}, "lon": -77.03655833333333, "fusion_lat": 0.0}, {"name": "97a35c653e8a937851ce743e8048b40e", "fusion_lon": 0.0, "lat": 38.92152633333333, "is_reserved": 0, "type": "electric_scooter", "bike_id": "97a35c653e8a937851ce743e8048b40e", "is_disabled": 0, "rental_uris": {"android": "https://dc.lft.to/lastmile_qr_scan", "ios": "https://dc.lft.to/lastmile_qr_scan"}, "lon": -77.03464133333334, "fusion_lat": 0.0}, {"name": "62c81e8ac410bb59c44d853f94694016", "fusion_lon": 0.0, "lat": 38.8923765, "is_reserved": 0, "type": "electric_scooter", "bike_id": "62c81e8ac410bb59c44d853f94694016", "is_disabled": 0, "rental_uris": {"android": "https://dc.lft.to/lastmile_qr_scan", "ios": "https://dc.lft.to/lastmile_qr_scan"}, "lon": -77.03208166666667, "fusion_lat": 0.0}, {"name": "b5e13f30e4d3c2828588f289686d12d4", "fusion_lon": 0.0, "lat": 38.934543166666664, "is_reserved": 0, "type": "electric_scooter", "bike_id": "b5e13f30e4d3c2828588f289686d12d4", "is_disabled": 0, "rental_uris": {"android": "https://dc.lft.to/lastmile_qr_scan", "ios": "https://dc.lft.to/lastmile_qr_scan"}, "lon": -77.0273085, "fusion_lat": 0.0}, {"name": "498a0b97b65ea8ad8aa67efbcc5d2b34", "fusion_lon": 0.0, "lat": 38.96507016666666, "is_reserved": 0, "type": "electric_bike", "bike_id": "498a0b97b65ea8ad8aa67efbcc5d2b34", "is_disabled": 0, "rental_uris": {"android": "https://dc.lft.to/lastmile_qr_scan", "ios": "https://dc.lft.to/lastmile_qr_scan"}, "lon": -77.0281615, "fusion_lat": 0.0}, {"name": "a67cc14bbf488b4b0f6151eb7242fcad", "fusion_lon": 0.0, "lat": 38.885267999999996, "is_reserved": 0, "type": "electric_scooter", "bike_id": "a67cc14bbf488b4b0f6151eb7242fcad", "is_disabled": 0, "rental_uris": {"android": "https://dc.lft.to/lastmile_qr_scan", "ios": "https://dc.lft.to/lastmile_qr_scan"}, "lon": -76.99627066666666, "fusion_lat": 0.0}, {"name": "b6fc26157ff5c0144784ab7905d72ff4", "fusion_lon": 0.0, "lat": 38.906063, "is_reserved": 0, "type": "electric_scooter", "bike_id": "b6fc26157ff5c0144784ab7905d72ff4", "is_disabled": 0, "rental_uris": {"android": "https://dc.lft.to/lastmile_qr_scan", "ios": "https://dc.lft.to/lastmile_qr_scan"}, "lon": -77.0210625, "fusion_lat": 0.0}, {"name": "96a78e713cd0ed6172ea5fc03029559d", "fusion_lon": 0.0, "lat": 38.91305583333333, "is_reserved": 0, "type": "electric_scooter", "bike_id": "96a78e713cd0ed6172ea5fc03029559d", "is_disabled": 0, "rental_uris": {"android": "https://dc.lft.to/lastmile_qr_scan", "ios": "https://dc.lft.to/lastmile_qr_scan"}, "lon": -77.04528783333333, "fusion_lat": 0.0}, {"name": "2de69866351bb35747202475b0bcdea0", "fusion_lon": 0.0, "lat": 38.87089133333333, "is_reserved": 0, "type": "electric_scooter", "bike_id": "2de69866351bb35747202475b0bcdea0", "is_disabled": 0, "rental_uris": {"android": "https://dc.lft.to/lastmile_qr_scan", "ios": "https://dc.lft.to/lastmile_qr_scan"}, "lon": -77.0135675, "fusion_lat": 0.0}, {"name": "1e72054ded645764099eb14284954a74", "fusion_lon": 0.0, "lat": 38.90539316666667, "is_reserved": 0, "type": "electric_scooter", "bike_id": "1e72054ded645764099eb14284954a74", "is_disabled": 0, "rental_uris": {"android": "https://dc.lft.to/lastmile_qr_scan", "ios": "https://dc.lft.to/lastmile_qr_scan"}, "lon": -77.02950983333334, "fusion_lat": 0.0}, {"name": "891c5c33e39afdcfec66a196c3a73816", "fusion_lon": 0.0, "lat": 38.96222233333334, "is_reserved": 0, "type": "electric_bike", "bike_id": "891c5c33e39afdcfec66a196c3a73816", "is_disabled": 0, "rental_uris": {"android": "https://dc.lft.to/lastmile_qr_scan", "ios": "https://dc.lft.to/lastmile_qr_scan"}, "lon": -77.0262915, "fusion_lat": 0.0}, {"name": "338257c3a37cf1d0fb1d78f32df93122", "fusion_lon": 0.0, "lat": 38.88459566666667, "is_reserved": 0, "type": "electric_scooter", "bike_id": "338257c3a37cf1d0fb1d78f32df93122", "is_disabled": 0, "rental_uris": {"android": "https://dc.lft.to/lastmile_qr_scan", "ios": "https://dc.lft.to/lastmile_qr_scan"}, "lon": -76.926212, "fusion_lat": 0.0}, {"name": "2edc3f5b95155f0f8413ca20ad28ef58", "fusion_lon": 0.0, "lat": 38.88609833333334, "is_reserved": 0, "type": "electric_scooter", "bike_id": "2edc3f5b95155f0f8413ca20ad28ef58", "is_disabled": 0, "rental_uris": {"android": "https://dc.lft.to/lastmile_qr_scan", "ios": "https://dc.lft.to/lastmile_qr_scan"}, "lon": -76.99513333333333, "fusion_lat": 0.0}, {"name": "e46b10a12f0ff92aeb88e00ab8fc75b9", "fusion_lon": 0.0, "lat": 38.9184765, "is_reserved": 0, "type": "electric_scooter", "bike_id": "e46b10a12f0ff92aeb88e00ab8fc75b9", "is_disabled": 0, "rental_uris": {"android": "https://dc.lft.to/lastmile_qr_scan", "ios": "https://dc.lft.to/lastmile_qr_scan"}, "lon": -77.023109, "fusion_lat": 0.0}, {"name": "6248bb1cd42ec96eb751915d05fe2bc3", "fusion_lon": 0.0, "lat": 38.962772666666666, "is_reserved": 0, "type": "electric_bike", "bike_id": "6248bb1cd42ec96eb751915d05fe2bc3", "is_disabled": 0, "rental_uris": {"android": "https://dc.lft.to/lastmile_qr_scan", "ios": "https://dc.lft.to/lastmile_qr_scan"}, "lon": -77.01457233333333, "fusion_lat": 0.0}, {"name": "a94d43cc79126fa8a2acd0f4ee206bc6", "fusion_lon": 0.0, "lat": 38.951745833333334, "is_reserved": 0, "type": "electric_bike", "bike_id": "a94d43cc79126fa8a2acd0f4ee206bc6", "is_disabled": 0, "rental_uris": {"android": "https://dc.lft.to/lastmile_qr_scan", "ios": "https://dc.lft.to/lastmile_qr_scan"}, "lon": -76.97728666666667, "fusion_lat": 0.0}, {"name": "5204ea50766a206b411902b9881b1a1f", "fusion_lon": 0.0, "lat": 38.915208666666665, "is_reserved": 0, "type": "electric_scooter", "bike_id": "5204ea50766a206b411902b9881b1a1f", "is_disabled": 0, "rental_uris": {"android": "https://dc.lft.to/lastmile_qr_scan", "ios": "https://dc.lft.to/lastmile_qr_scan"}, "lon": -77.01223266666666, "fusion_lat": 0.0}, {"name": "50732a312a4e649c432bf70ad802abe5", "fusion_lon": 0.0, "lat": 38.90611466666667, "is_reserved": 0, "type": "electric_scooter", "bike_id": "50732a312a4e649c432bf70ad802abe5", "is_disabled": 0, "rental_uris": {"android": "https://dc.lft.to/lastmile_qr_scan", "ios": "https://dc.lft.to/lastmile_qr_scan"}, "lon": -76.98515716666667, "fusion_lat": 0.0}, {"name": "551f3e2c4727578107f7d61de12000a9", "fusion_lon": 0.0, "lat": 38.90490633333334, "is_reserved": 0, "type": "electric_scooter", "bike_id": "551f3e2c4727578107f7d61de12000a9", "is_disabled": 0, "rental_uris": {"android": "https://dc.lft.to/lastmile_qr_scan", "ios": "https://dc.lft.to/lastmile_qr_scan"}, "lon": -76.94962516666666, "fusion_lat": 0.0}, {"name": "089b5992737e9d63d6bbe7ba97ffb708", "fusion_lon": 0.0, "lat": 38.885336833333334, "is_reserved": 0, "type": "electric_scooter", "bike_id": "089b5992737e9d63d6bbe7ba97ffb708", "is_disabled": 0, "rental_uris": {"android": "https://dc.lft.to/lastmile_qr_scan", "ios": "https://dc.lft.to/lastmile_qr_scan"}, "lon": -76.99827866666666, "fusion_lat": 0.0}, {"name": "d5a07814b6a17cf8157b6720a56d3a54", "fusion_lon": 0.0, "lat": 38.92850383333333, "is_reserved": 0, "type": "electric_scooter", "bike_id": "d5a07814b6a17cf8157b6720a56d3a54", "is_disabled": 0, "rental_uris": {"android": "https://dc.lft.to/lastmile_qr_scan", "ios": "https://dc.lft.to/lastmile_qr_scan"}, "lon": -77.03297966666666, "fusion_lat": 0.0}, {"name": "fee2c3111759af7676e059076dd8a00b", "fusion_lon": 0.0, "lat": 38.90042416666667, "is_reserved": 0, "type": "electric_scooter", "bike_id": "fee2c3111759af7676e059076dd8a00b", "is_disabled": 0, "rental_uris": {"android": "https://dc.lft.to/lastmile_qr_scan", "ios": "https://dc.lft.to/lastmile_qr_scan"}, "lon": -77.04334883333334, "fusion_lat": 0.0}, {"name": "d82b2a457f951803f0918bceb4cc861d", "fusion_lon": 0.0, "lat": 38.93079816666667, "is_reserved": 0, "type": "electric_scooter", "bike_id": "d82b2a457f951803f0918bceb4cc861d", "is_disabled": 0, "rental_uris": {"android": "https://dc.lft.to/lastmile_qr_scan", "ios": "https://dc.lft.to/lastmile_qr_scan"}, "lon": -77.02794133333333, "fusion_lat": 0.0}, {"name": "145ed201185c62939d7156786e02c9b9", "fusion_lon": 0.0, "lat": 38.9217975, "is_reserved": 0, "type": "electric_scooter", "bike_id": "145ed201185c62939d7156786e02c9b9", "is_disabled": 0, "rental_uris": {"android": "https://dc.lft.to/lastmile_qr_scan", "ios": "https://dc.lft.to/lastmile_qr_scan"}, "lon": -77.03840433333333, "fusion_lat": 0.0}, {"name": "158840b7cbf29b59d1fe8890e09f28a2", "fusion_lon": 0.0, "lat": 38.96799016666667, "is_reserved": 0, "type": "electric_bike", "bike_id": "158840b7cbf29b59d1fe8890e09f28a2", "is_disabled": 0, "rental_uris": {"android": "https://dc.lft.to/lastmile_qr_scan", "ios": "https://dc.lft.to/lastmile_qr_scan"}, "lon": -77.00037333333333, "fusion_lat": 0.0}, {"name": "db311687e9969a327b59b566b9406d1f", "fusion_lon": 0.0, "lat": 38.9228455, "is_reserved": 0, "type": "electric_scooter", "bike_id": "db311687e9969a327b59b566b9406d1f", "is_disabled": 0, "rental_uris": {"android": "https://dc.lft.to/lastmile_qr_scan", "ios": "https://dc.lft.to/lastmile_qr_scan"}, "lon": -77.0184115, "fusion_lat": 0.0}, {"name": "3a5898d01707e3c3a1f3901125594905", "fusion_lon": 0.0, "lat": 38.91697283333333, "is_reserved": 0, "type": "electric_scooter", "bike_id": "3a5898d01707e3c3a1f3901125594905", "is_disabled": 0, "rental_uris": {"android": "https://dc.lft.to/lastmile_qr_scan", "ios": "https://dc.lft.to/lastmile_qr_scan"}, "lon": -77.031629, "fusion_lat": 0.0}, {"name": "cc9c747f1634c3ef6dfc4892d03683a5", "fusion_lon": 0.0, "lat": 38.909717666666666, "is_reserved": 0, "type": "electric_scooter", "bike_id": "cc9c747f1634c3ef6dfc4892d03683a5", "is_disabled": 0, "rental_uris": {"android": "https://dc.lft.to/lastmile_qr_scan", "ios": "https://dc.lft.to/lastmile_qr_scan"}, "lon": -77.03595233333333, "fusion_lat": 0.0}, {"name": "e15c59aa76e97b1a371113324b6c700d", "fusion_lon": 0.0, "lat": 38.86517116666667, "is_reserved": 0, "type": "electric_scooter", "bike_id": "e15c59aa76e97b1a371113324b6c700d", "is_disabled": 0, "rental_uris": {"android": "https://dc.lft.to/lastmile_qr_scan", "ios": "https://dc.lft.to/lastmile_qr_scan"}, "lon": -76.9902135, "fusion_lat": 0.0}, {"name": "de95e74532dc44ecbe1211590fda0c59", "fusion_lon": 0.0, "lat": 38.91562483333333, "is_reserved": 0, "type": "electric_scooter", "bike_id": "de95e74532dc44ecbe1211590fda0c59", "is_disabled": 0, "rental_uris": {"android": "https://dc.lft.to/lastmile_qr_scan", "ios": "https://dc.lft.to/lastmile_qr_scan"}, "lon": -77.03764666666666, "fusion_lat": 0.0}, {"name": "01b52e9be678e88a7e705c44cab81a7c", "fusion_lon": 0.0, "lat": 38.9044395, "is_reserved": 0, "type": "electric_scooter", "bike_id": "01b52e9be678e88a7e705c44cab81a7c", "is_disabled": 0, "rental_uris": {"android": "https://dc.lft.to/lastmile_qr_scan", "ios": "https://dc.lft.to/lastmile_qr_scan"}, "lon": -76.97997933333333, "fusion_lat": 0.0}, {"name": "b757fefa3eeebe43e9eabb036ff19573", "fusion_lon": 0.0, "lat": 38.89870233333333, "is_reserved": 0, "type": "electric_scooter", "bike_id": "b757fefa3eeebe43e9eabb036ff19573", "is_disabled": 0, "rental_uris": {"android": "https://dc.lft.to/lastmile_qr_scan", "ios": "https://dc.lft.to/lastmile_qr_scan"}, "lon": -77.02385183333334, "fusion_lat": 0.0}, {"name": "a8602d4b06ff36d07347c1118c9f8d16", "fusion_lon": 0.0, "lat": 38.9030935, "is_reserved": 0, "type": "electric_scooter", "bike_id": "a8602d4b06ff36d07347c1118c9f8d16", "is_disabled": 0, "rental_uris": {"android": "https://dc.lft.to/lastmile_qr_scan", "ios": "https://dc.lft.to/lastmile_qr_scan"}, "lon": -77.03834433333333, "fusion_lat": 0.0}, {"name": "8ff88c784ad5db6c07a82cfa1fd58ae5", "fusion_lon": 0.0, "lat": 38.9207425, "is_reserved": 0, "type": "electric_scooter", "bike_id": "8ff88c784ad5db6c07a82cfa1fd58ae5", "is_disabled": 0, "rental_uris": {"android": "https://dc.lft.to/lastmile_qr_scan", "ios": "https://dc.lft.to/lastmile_qr_scan"}, "lon": -77.02415816666667, "fusion_lat": 0.0}, {"name": "f82b67ce36463dca354be3061da2c467", "fusion_lon": 0.0, "lat": 38.85534033333333, "is_reserved": 0, "type": "electric_bike", "bike_id": "f82b67ce36463dca354be3061da2c467", "is_disabled": 0, "rental_uris": {"android": "https://dc.lft.to/lastmile_qr_scan", "ios": "https://dc.lft.to/lastmile_qr_scan"}, "lon": -77.12012983333334, "fusion_lat": 0.0}, {"name": "65a6f2d7a368132c05c508ff22bcd151", "fusion_lon": 0.0, "lat": 38.916594, "is_reserved": 0, "type": "electric_scooter", "bike_id": "65a6f2d7a368132c05c508ff22bcd151", "is_disabled": 0, "rental_uris": {"android": "https://dc.lft.to/lastmile_qr_scan", "ios": "https://dc.lft.to/lastmile_qr_scan"}, "lon": -77.02971783333334, "fusion_lat": 0.0}, {"name": "66af30aae0542c65f7dcb9f85c071833", "fusion_lon": 0.0, "lat": 38.928688666666666, "is_reserved": 0, "type": "electric_scooter", "bike_id": "66af30aae0542c65f7dcb9f85c071833", "is_disabled": 0, "rental_uris": {"android": "https://dc.lft.to/lastmile_qr_scan", "ios": "https://dc.lft.to/lastmile_qr_scan"}, "lon": -77.027323, "fusion_lat": 0.0}, {"name": "8f453c466c4b88c5f0a4958c8b30e80c", "fusion_lon": 0.0, "lat": 38.9296285, "is_reserved": 0, "type": "electric_scooter", "bike_id": "8f453c466c4b88c5f0a4958c8b30e80c", "is_disabled": 0, "rental_uris": {"android": "https://dc.lft.to/lastmile_qr_scan", "ios": "https://dc.lft.to/lastmile_qr_scan"}, "lon": -77.03292916666666, "fusion_lat": 0.0}, {"name": "46c687e4d0aa84fd97e5611c0df59911", "fusion_lon": 0.0, "lat": 38.9056695, "is_reserved": 0, "type": "electric_scooter", "bike_id": "46c687e4d0aa84fd97e5611c0df59911", "is_disabled": 0, "rental_uris": {"android": "https://dc.lft.to/lastmile_qr_scan", "ios": "https://dc.lft.to/lastmile_qr_scan"}, "lon": -77.00582783333333, "fusion_lat": 0.0}, {"name": "93329d4e700dfb83b87e27e12549b108", "fusion_lon": 0.0, "lat": 38.9932575, "is_reserved": 0, "type": "electric_bike", "bike_id": "93329d4e700dfb83b87e27e12549b108", "is_disabled": 0, "rental_uris": {"android": "https://dc.lft.to/lastmile_qr_scan", "ios": "https://dc.lft.to/lastmile_qr_scan"}, "lon": -76.94614083333333, "fusion_lat": 0.0}, {"name": "ba89aed0938432071fba9bb81c21b614", "fusion_lon": 0.0, "lat": 38.919127, "is_reserved": 0, "type": "electric_scooter", "bike_id": "ba89aed0938432071fba9bb81c21b614", "is_disabled": 0, "rental_uris": {"android": "https://dc.lft.to/lastmile_qr_scan", "ios": "https://dc.lft.to/lastmile_qr_scan"}, "lon": -77.04463616666666, "fusion_lat": 0.0}, {"name": "315458b3ef4cd3351f2de062bb10b856", "fusion_lon": 0.0, "lat": 38.9393565, "is_reserved": 0, "type": "electric_scooter", "bike_id": "315458b3ef4cd3351f2de062bb10b856", "is_disabled": 0, "rental_uris": {"android": "https://dc.lft.to/lastmile_qr_scan", "ios": "https://dc.lft.to/lastmile_qr_scan"}, "lon": -77.02486116666667, "fusion_lat": 0.0}, {"name": "489cc40bd1f5107a21d63f50d45a3762", "fusion_lon": 0.0, "lat": 38.90183716666667, "is_reserved": 0, "type": "electric_scooter", "bike_id": "489cc40bd1f5107a21d63f50d45a3762", "is_disabled": 0, "rental_uris": {"android": "https://dc.lft.to/lastmile_qr_scan", "ios": "https://dc.lft.to/lastmile_qr_scan"}, "lon": -77.02182333333333, "fusion_lat": 0.0}, {"name": "7bebfbaa2f242673b71436be0379774b", "fusion_lon": 0.0, "lat": 38.88612, "is_reserved": 0, "type": "electric_scooter", "bike_id": "7bebfbaa2f242673b71436be0379774b", "is_disabled": 0, "rental_uris": {"android": "https://dc.lft.to/lastmile_qr_scan", "ios": "https://dc.lft.to/lastmile_qr_scan"}, "lon": -76.9951235, "fusion_lat": 0.0}, {"name": "3002d77ea0e6ed8d2749db4dd9b11373", "fusion_lon": 0.0, "lat": 38.90870566666667, "is_reserved": 0, "type": "electric_scooter", "bike_id": "3002d77ea0e6ed8d2749db4dd9b11373", "is_disabled": 0, "rental_uris": {"android": "https://dc.lft.to/lastmile_qr_scan", "ios": "https://dc.lft.to/lastmile_qr_scan"}, "lon": -77.0242485, "fusion_lat": 0.0}, {"name": "5efc7ba0d80911d39f5bbd4ce4c176e5", "fusion_lon": 0.0, "lat": 38.91795833333333, "is_reserved": 0, "type": "electric_scooter", "bike_id": "5efc7ba0d80911d39f5bbd4ce4c176e5", "is_disabled": 0, "rental_uris": {"android": "https://dc.lft.to/lastmile_qr_scan", "ios": "https://dc.lft.to/lastmile_qr_scan"}, "lon": -77.03443583333333, "fusion_lat": 0.0}, {"name": "2c7f8faefe03e8ebf7b8826f6d7fb426", "fusion_lon": 0.0, "lat": 38.93441816666667, "is_reserved": 0, "type": "electric_scooter", "bike_id": "2c7f8faefe03e8ebf7b8826f6d7fb426", "is_disabled": 0, "rental_uris": {"android": "https://dc.lft.to/lastmile_qr_scan", "ios": "https://dc.lft.to/lastmile_qr_scan"}, "lon": -77.03263916666667, "fusion_lat": 0.0}, {"name": "5d84d1464a144bd8440e798a4e1ed375", "fusion_lon": 0.0, "lat": 38.9128855, "is_reserved": 0, "type": "electric_scooter", "bike_id": "5d84d1464a144bd8440e798a4e1ed375", "is_disabled": 0, "rental_uris": {"android": "https://dc.lft.to/lastmile_qr_scan", "ios": "https://dc.lft.to/lastmile_qr_scan"}, "lon": -77.02387116666667, "fusion_lat": 0.0}, {"name": "af7c7bee51b6da32666db36296e67886", "fusion_lon": 0.0, "lat": 38.89620883333333, "is_reserved": 0, "type": "electric_scooter", "bike_id": "af7c7bee51b6da32666db36296e67886", "is_disabled": 0, "rental_uris": {"android": "https://dc.lft.to/lastmile_qr_scan", "ios": "https://dc.lft.to/lastmile_qr_scan"}, "lon": -77.01607883333334, "fusion_lat": 0.0}, {"name": "1bf4141877cec866b6d80d0ba72f4603", "fusion_lon": 0.0, "lat": 38.896400666666665, "is_reserved": 0, "type": "electric_scooter", "bike_id": "1bf4141877cec866b6d80d0ba72f4603", "is_disabled": 0, "rental_uris": {"android": "https://dc.lft.to/lastmile_qr_scan", "ios": "https://dc.lft.to/lastmile_qr_scan"}, "lon": -77.02204966666666, "fusion_lat": 0.0}, {"name": "2c0b6776a4f59eef576e5ee203ab18e5", "fusion_lon": 0.0, "lat": 38.92120283333333, "is_reserved": 0, "type": "electric_bike", "bike_id": "2c0b6776a4f59eef576e5ee203ab18e5", "is_disabled": 0, "rental_uris": {"android": "https://dc.lft.to/lastmile_qr_scan", "ios": "https://dc.lft.to/lastmile_qr_scan"}, "lon": -77.012111, "fusion_lat": 0.0}, {"name": "391b42cdc7d3bd15a699184bf1e0a0e4", "fusion_lon": 0.0, "lat": 38.910082, "is_reserved": 0, "type": "electric_scooter", "bike_id": "391b42cdc7d3bd15a699184bf1e0a0e4", "is_disabled": 0, "rental_uris": {"android": "https://dc.lft.to/lastmile_qr_scan", "ios": "https://dc.lft.to/lastmile_qr_scan"}, "lon": -77.05279133333333, "fusion_lat": 0.0}, {"name": "306f173587d5808bfdc8368ff36c89fe", "fusion_lon": 0.0, "lat": 38.874446166666665, "is_reserved": 0, "type": "electric_scooter", "bike_id": "306f173587d5808bfdc8368ff36c89fe", "is_disabled": 0, "rental_uris": {"android": "https://dc.lft.to/lastmile_qr_scan", "ios": "https://dc.lft.to/lastmile_qr_scan"}, "lon": -77.00570666666667, "fusion_lat": 0.0}, {"name": "ca8ff05092249ba026baeb752a3d7f8f", "fusion_lon": 0.0, "lat": 38.9419775, "is_reserved": 0, "type": "electric_scooter", "bike_id": "ca8ff05092249ba026baeb752a3d7f8f", "is_disabled": 0, "rental_uris": {"android": "https://dc.lft.to/lastmile_qr_scan", "ios": "https://dc.lft.to/lastmile_qr_scan"}, "lon": -77.0251385, "fusion_lat": 0.0}, {"name": "a986ce79615f2e7502b34a4faadedc66", "fusion_lon": 0.0, "lat": 38.9094505, "is_reserved": 0, "type": "electric_scooter", "bike_id": "a986ce79615f2e7502b34a4faadedc66", "is_disabled": 0, "rental_uris": {"android": "https://dc.lft.to/lastmile_qr_scan", "ios": "https://dc.lft.to/lastmile_qr_scan"}, "lon": -77.03466266666666, "fusion_lat": 0.0}, {"name": "52a74619650c19535cc114cbbc1ffe2f", "fusion_lon": 0.0, "lat": 38.90005383333333, "is_reserved": 0, "type": "electric_scooter", "bike_id": "52a74619650c19535cc114cbbc1ffe2f", "is_disabled": 0, "rental_uris": {"android": "https://dc.lft.to/lastmile_qr_scan", "ios": "https://dc.lft.to/lastmile_qr_scan"}, "lon": -76.99634133333333, "fusion_lat": 0.0}, {"name": "f5483bfb7ca203c609c3c52dc4a461f9", "fusion_lon": 0.0, "lat": 38.91706116666667, "is_reserved": 0, "type": "electric_scooter", "bike_id": "f5483bfb7ca203c609c3c52dc4a461f9", "is_disabled": 0, "rental_uris": {"android": "https://dc.lft.to/lastmile_qr_scan", "ios": "https://dc.lft.to/lastmile_qr_scan"}, "lon": -77.01332283333333, "fusion_lat": 0.0}, {"name": "dc393421df77b074928969263f76195c", "fusion_lon": 0.0, "lat": 38.896180333333334, "is_reserved": 0, "type": "electric_scooter", "bike_id": "dc393421df77b074928969263f76195c", "is_disabled": 0, "rental_uris": {"android": "https://dc.lft.to/lastmile_qr_scan", "ios": "https://dc.lft.to/lastmile_qr_scan"}, "lon": -76.98112266666666, "fusion_lat": 0.0}, {"name": "aba671cfa7827fed2aeb3f84f59e487e", "fusion_lon": 0.0, "lat": 38.921881166666665, "is_reserved": 0, "type": "electric_scooter", "bike_id": "aba671cfa7827fed2aeb3f84f59e487e", "is_disabled": 0, "rental_uris": {"android": "https://dc.lft.to/lastmile_qr_scan", "ios": "https://dc.lft.to/lastmile_qr_scan"}, "lon": -77.04701683333333, "fusion_lat": 0.0}, {"name": "d98349ba0875ac95bd13fccc53b35cae", "fusion_lon": 0.0, "lat": 38.8848305, "is_reserved": 0, "type": "electric_bike", "bike_id": "d98349ba0875ac95bd13fccc53b35cae", "is_disabled": 0, "rental_uris": {"android": "https://dc.lft.to/lastmile_qr_scan", "ios": "https://dc.lft.to/lastmile_qr_scan"}, "lon": -77.1276835, "fusion_lat": 0.0}, {"name": "fb6830fb9b5c527227561a9306098834", "fusion_lon": 0.0, "lat": 38.90406483333334, "is_reserved": 0, "type": "electric_scooter", "bike_id": "fb6830fb9b5c527227561a9306098834", "is_disabled": 0, "rental_uris": {"android": "https://dc.lft.to/lastmile_qr_scan", "ios": "https://dc.lft.to/lastmile_qr_scan"}, "lon": -77.0200105, "fusion_lat": 0.0}, {"name": "30b090da3c43ef447efd8de0b2ee0703", "fusion_lon": 0.0, "lat": 38.90173683333333, "is_reserved": 0, "type": "electric_scooter", "bike_id": "30b090da3c43ef447efd8de0b2ee0703", "is_disabled": 0, "rental_uris": {"android": "https://dc.lft.to/lastmile_qr_scan", "ios": "https://dc.lft.to/lastmile_qr_scan"}, "lon": -76.98069566666666, "fusion_lat": 0.0}, {"name": "2a06309b90b6ff6c077cb0d2ab8cf4bc", "fusion_lon": 0.0, "lat": 38.902575666666664, "is_reserved": 0, "type": "electric_scooter", "bike_id": "2a06309b90b6ff6c077cb0d2ab8cf4bc", "is_disabled": 0, "rental_uris": {"android": "https://dc.lft.to/lastmile_qr_scan", "ios": "https://dc.lft.to/lastmile_qr_scan"}, "lon": -77.02839633333333, "fusion_lat": 0.0}, {"name": "29a083e5d17803ee6c7e81b939c6460f", "fusion_lon": 0.0, "lat": 38.933850666666665, "is_reserved": 0, "type": "electric_scooter", "bike_id": "29a083e5d17803ee6c7e81b939c6460f", "is_disabled": 0, "rental_uris": {"android": "https://dc.lft.to/lastmile_qr_scan", "ios": "https://dc.lft.to/lastmile_qr_scan"}, "lon": -77.0309365, "fusion_lat": 0.0}, {"name": "36ded03e0cb6f5977355695b86e8f5a8", "fusion_lon": 0.0, "lat": 38.907288666666666, "is_reserved": 0, "type": "electric_scooter", "bike_id": "36ded03e0cb6f5977355695b86e8f5a8", "is_disabled": 0, "rental_uris": {"android": "https://dc.lft.to/lastmile_qr_scan", "ios": "https://dc.lft.to/lastmile_qr_scan"}, "lon": -77.01140416666667, "fusion_lat": 0.0}, {"name": "2a346dfcb1f9f1e0d307736845fc13f9", "fusion_lon": 0.0, "lat": 38.919434833333334, "is_reserved": 0, "type": "electric_scooter", "bike_id": "2a346dfcb1f9f1e0d307736845fc13f9", "is_disabled": 0, "rental_uris": {"android": "https://dc.lft.to/lastmile_qr_scan", "ios": "https://dc.lft.to/lastmile_qr_scan"}, "lon": -77.04496266666666, "fusion_lat": 0.0}, {"name": "3c81eb5405596b2a7c2fa18eb32df5bc", "fusion_lon": 0.0, "lat": 38.911952166666666, "is_reserved": 0, "type": "electric_scooter", "bike_id": "3c81eb5405596b2a7c2fa18eb32df5bc", "is_disabled": 0, "rental_uris": {"android": "https://dc.lft.to/lastmile_qr_scan", "ios": "https://dc.lft.to/lastmile_qr_scan"}, "lon": -77.00203416666666, "fusion_lat": 0.0}, {"name": "e1cb0623034591a378e9422721c74789", "fusion_lon": 0.0, "lat": 38.945130166666665, "is_reserved": 0, "type": "electric_scooter", "bike_id": "e1cb0623034591a378e9422721c74789", "is_disabled": 0, "rental_uris": {"android": "https://dc.lft.to/lastmile_qr_scan", "ios": "https://dc.lft.to/lastmile_qr_scan"}, "lon": -77.033751, "fusion_lat": 0.0}, {"name": "88612d22a571eae070454a9117491cc1", "fusion_lon": 0.0, "lat": 38.9336385, "is_reserved": 0, "type": "electric_scooter", "bike_id": "88612d22a571eae070454a9117491cc1", "is_disabled": 0, "rental_uris": {"android": "https://dc.lft.to/lastmile_qr_scan", "ios": "https://dc.lft.to/lastmile_qr_scan"}, "lon": -77.08856283333333, "fusion_lat": 0.0}, {"name": "629e1b36a2f5ff48c7d7ac0786a1fc1a", "fusion_lon": 0.0, "lat": 38.88920666666667, "is_reserved": 0, "type": "electric_scooter", "bike_id": "629e1b36a2f5ff48c7d7ac0786a1fc1a", "is_disabled": 0, "rental_uris": {"android": "https://dc.lft.to/lastmile_qr_scan", "ios": "https://dc.lft.to/lastmile_qr_scan"}, "lon": -76.9913395, "fusion_lat": 0.0}, {"name": "a9668878b40005a91b1294a208291fe6", "fusion_lon": 0.0, "lat": 38.93188416666667, "is_reserved": 0, "type": "electric_scooter", "bike_id": "a9668878b40005a91b1294a208291fe6", "is_disabled": 0, "rental_uris": {"android": "https://dc.lft.to/lastmile_qr_scan", "ios": "https://dc.lft.to/lastmile_qr_scan"}, "lon": -77.03881683333333, "fusion_lat": 0.0}, {"name": "2c25f32719e058c59690175df775926a", "fusion_lon": 0.0, "lat": 38.86689466666667, "is_reserved": 0, "type": "electric_scooter", "bike_id": "2c25f32719e058c59690175df775926a", "is_disabled": 0, "rental_uris": {"android": "https://dc.lft.to/lastmile_qr_scan", "ios": "https://dc.lft.to/lastmile_qr_scan"}, "lon": -76.98565633333334, "fusion_lat": 0.0}, {"name": "8154c7788f1a577a8a8fc4b4712087c5", "fusion_lon": 0.0, "lat": 38.9057145, "is_reserved": 0, "type": "electric_scooter", "bike_id": "8154c7788f1a577a8a8fc4b4712087c5", "is_disabled": 0, "rental_uris": {"android": "https://dc.lft.to/lastmile_qr_scan", "ios": "https://dc.lft.to/lastmile_qr_scan"}, "lon": -77.02760733333334, "fusion_lat": 0.0}, {"name": "4f19be21b823d8211692592554f0139d", "fusion_lon": 0.0, "lat": 38.8637405, "is_reserved": 0, "type": "electric_scooter", "bike_id": "4f19be21b823d8211692592554f0139d", "is_disabled": 0, "rental_uris": {"android": "https://dc.lft.to/lastmile_qr_scan", "ios": "https://dc.lft.to/lastmile_qr_scan"}, "lon": -76.9905725, "fusion_lat": 0.0}, {"name": "f1aa281c076e86480498af9f8342f448", "fusion_lon": 0.0, "lat": 38.9119475, "is_reserved": 0, "type": "electric_scooter", "bike_id": "f1aa281c076e86480498af9f8342f448", "is_disabled": 0, "rental_uris": {"android": "https://dc.lft.to/lastmile_qr_scan", "ios": "https://dc.lft.to/lastmile_qr_scan"}, "lon": -77.03838683333333, "fusion_lat": 0.0}, {"name": "4d305ece721623033437d95d808b0e26", "fusion_lon": 0.0, "lat": 38.9116315, "is_reserved": 0, "type": "electric_scooter", "bike_id": "4d305ece721623033437d95d808b0e26", "is_disabled": 0, "rental_uris": {"android": "https://dc.lft.to/lastmile_qr_scan", "ios": "https://dc.lft.to/lastmile_qr_scan"}, "lon": -77.01126983333333, "fusion_lat": 0.0}, {"name": "7b526814ecf469f5ea836717ff52c789", "fusion_lon": 0.0, "lat": 38.91412, "is_reserved": 0, "type": "electric_scooter", "bike_id": "7b526814ecf469f5ea836717ff52c789", "is_disabled": 0, "rental_uris": {"android": "https://dc.lft.to/lastmile_qr_scan", "ios": "https://dc.lft.to/lastmile_qr_scan"}, "lon": -77.042238, "fusion_lat": 0.0}, {"name": "0b832566d81bfa5c5f328ebc3c71a178", "fusion_lon": 0.0, "lat": 38.913136, "is_reserved": 0, "type": "electric_bike", "bike_id": "0b832566d81bfa5c5f328ebc3c71a178", "is_disabled": 0, "rental_uris": {"android": "https://dc.lft.to/lastmile_qr_scan", "ios": "https://dc.lft.to/lastmile_qr_scan"}, "lon": -77.22305166666666, "fusion_lat": 0.0}, {"name": "36aba69ce255066e0af68c0758a63dfe", "fusion_lon": 0.0, "lat": 38.88874366666667, "is_reserved": 0, "type": "electric_scooter", "bike_id": "36aba69ce255066e0af68c0758a63dfe", "is_disabled": 0, "rental_uris": {"android": "https://dc.lft.to/lastmile_qr_scan", "ios": "https://dc.lft.to/lastmile_qr_scan"}, "lon": -76.9903055, "fusion_lat": 0.0}, {"name": "33b5555e3294b84797bfb8955dfa1104", "fusion_lon": 0.0, "lat": 38.919191166666664, "is_reserved": 0, "type": "electric_scooter", "bike_id": "33b5555e3294b84797bfb8955dfa1104", "is_disabled": 0, "rental_uris": {"android": "https://dc.lft.to/lastmile_qr_scan", "ios": "https://dc.lft.to/lastmile_qr_scan"}, "lon": -77.04256366666667, "fusion_lat": 0.0}, {"name": "531e5e6561aa81f7623be56bbea018cb", "fusion_lon": 0.0, "lat": 38.941788, "is_reserved": 0, "type": "electric_scooter", "bike_id": "531e5e6561aa81f7623be56bbea018cb", "is_disabled": 0, "rental_uris": {"android": "https://dc.lft.to/lastmile_qr_scan", "ios": "https://dc.lft.to/lastmile_qr_scan"}, "lon": -77.02559133333334, "fusion_lat": 0.0}, {"name": "85e014ad08553a02e567bb44f59e4ff4", "fusion_lon": 0.0, "lat": 38.900256666666664, "is_reserved": 0, "type": "electric_scooter", "bike_id": "85e014ad08553a02e567bb44f59e4ff4", "is_disabled": 0, "rental_uris": {"android": "https://dc.lft.to/lastmile_qr_scan", "ios": "https://dc.lft.to/lastmile_qr_scan"}, "lon": -77.01777783333333, "fusion_lat": 0.0}, {"name": "eb08b3f1fa9fb6430440d1cd3ba9e644", "fusion_lon": 0.0, "lat": 38.951832333333336, "is_reserved": 0, "type": "electric_scooter", "bike_id": "eb08b3f1fa9fb6430440d1cd3ba9e644", "is_disabled": 0, "rental_uris": {"android": "https://dc.lft.to/lastmile_qr_scan", "ios": "https://dc.lft.to/lastmile_qr_scan"}, "lon": -77.02725183333334, "fusion_lat": 0.0}, {"name": "0a693ae100b87f2d6bfbe6cae23fd105", "fusion_lon": 0.0, "lat": 38.91186016666666, "is_reserved": 0, "type": "electric_scooter", "bike_id": "0a693ae100b87f2d6bfbe6cae23fd105", "is_disabled": 0, "rental_uris": {"android": "https://dc.lft.to/lastmile_qr_scan", "ios": "https://dc.lft.to/lastmile_qr_scan"}, "lon": -77.01786416666667, "fusion_lat": 0.0}, {"name": "f5fd6e7832e2857ae827034ef0cac063", "fusion_lon": 0.0, "lat": 38.900298666666664, "is_reserved": 0, "type": "electric_scooter", "bike_id": "f5fd6e7832e2857ae827034ef0cac063", "is_disabled": 0, "rental_uris": {"android": "https://dc.lft.to/lastmile_qr_scan", "ios": "https://dc.lft.to/lastmile_qr_scan"}, "lon": -76.99701333333333, "fusion_lat": 0.0}, {"name": "4ddcf11e0e2cac51455b52b65b66fdcc", "fusion_lon": 0.0, "lat": 38.900452666666666, "is_reserved": 0, "type": "electric_scooter", "bike_id": "4ddcf11e0e2cac51455b52b65b66fdcc", "is_disabled": 0, "rental_uris": {"android": "https://dc.lft.to/lastmile_qr_scan", "ios": "https://dc.lft.to/lastmile_qr_scan"}, "lon": -76.98031416666667, "fusion_lat": 0.0}, {"name": "bbc7ac6e5930d7dacb3e852db2aa606f", "fusion_lon": 0.0, "lat": 38.90272083333333, "is_reserved": 0, "type": "electric_scooter", "bike_id": "bbc7ac6e5930d7dacb3e852db2aa606f", "is_disabled": 0, "rental_uris": {"android": "https://dc.lft.to/lastmile_qr_scan", "ios": "https://dc.lft.to/lastmile_qr_scan"}, "lon": -77.0178185, "fusion_lat": 0.0}, {"name": "ac43f570ef2f0da7654d08863fca57ee", "fusion_lon": 0.0, "lat": 38.91682516666667, "is_reserved": 0, "type": "electric_scooter", "bike_id": "ac43f570ef2f0da7654d08863fca57ee", "is_disabled": 0, "rental_uris": {"android": "https://dc.lft.to/lastmile_qr_scan", "ios": "https://dc.lft.to/lastmile_qr_scan"}, "lon": -77.0269675, "fusion_lat": 0.0}, {"name": "87492ccb9176de73e0b192f18ec94a45", "fusion_lon": 0.0, "lat": 38.92383483333333, "is_reserved": 0, "type": "electric_scooter", "bike_id": "87492ccb9176de73e0b192f18ec94a45", "is_disabled": 0, "rental_uris": {"android": "https://dc.lft.to/lastmile_qr_scan", "ios": "https://dc.lft.to/lastmile_qr_scan"}, "lon": -77.0256605, "fusion_lat": 0.0}, {"name": "4149b91483d50b0a6625d9b9e146b9f2", "fusion_lon": 0.0, "lat": 38.917521, "is_reserved": 0, "type": "electric_bike", "bike_id": "4149b91483d50b0a6625d9b9e146b9f2", "is_disabled": 0, "rental_uris": {"android": "https://dc.lft.to/lastmile_qr_scan", "ios": "https://dc.lft.to/lastmile_qr_scan"}, "lon": -77.000487, "fusion_lat": 0.0}, {"name": "3e47f04abd9642cf497ac0d8e285ac04", "fusion_lon": 0.0, "lat": 38.92791916666667, "is_reserved": 0, "type": "electric_scooter", "bike_id": "3e47f04abd9642cf497ac0d8e285ac04", "is_disabled": 0, "rental_uris": {"android": "https://dc.lft.to/lastmile_qr_scan", "ios": "https://dc.lft.to/lastmile_qr_scan"}, "lon": -77.030226, "fusion_lat": 0.0}, {"name": "1433ee1d3e3f45075f50abe1b18693d3", "fusion_lon": 0.0, "lat": 38.83451633333333, "is_reserved": 0, "type": "electric_scooter", "bike_id": "1433ee1d3e3f45075f50abe1b18693d3", "is_disabled": 0, "rental_uris": {"android": "https://dc.lft.to/lastmile_qr_scan", "ios": "https://dc.lft.to/lastmile_qr_scan"}, "lon": -76.99079666666667, "fusion_lat": 0.0}, {"name": "5d4dbd2e675a489b7f07e8cc17f135d2", "fusion_lon": 0.0, "lat": 38.957597666666665, "is_reserved": 0, "type": "electric_scooter", "bike_id": "5d4dbd2e675a489b7f07e8cc17f135d2", "is_disabled": 0, "rental_uris": {"android": "https://dc.lft.to/lastmile_qr_scan", "ios": "https://dc.lft.to/lastmile_qr_scan"}, "lon": -77.02097416666666, "fusion_lat": 0.0}, {"name": "f2295d6b65b4849bf9ce55d081858866", "fusion_lon": 0.0, "lat": 38.9043765, "is_reserved": 0, "type": "electric_scooter", "bike_id": "f2295d6b65b4849bf9ce55d081858866", "is_disabled": 0, "rental_uris": {"android": "https://dc.lft.to/lastmile_qr_scan", "ios": "https://dc.lft.to/lastmile_qr_scan"}, "lon": -76.98493383333333, "fusion_lat": 0.0}, {"name": "5913e4e49b44522c0eb9fae241d37f4b", "fusion_lon": 0.0, "lat": 38.896179000000004, "is_reserved": 0, "type": "electric_scooter", "bike_id": "5913e4e49b44522c0eb9fae241d37f4b", "is_disabled": 0, "rental_uris": {"android": "https://dc.lft.to/lastmile_qr_scan", "ios": "https://dc.lft.to/lastmile_qr_scan"}, "lon": -77.02987366666666, "fusion_lat": 0.0}, {"name": "c9f2b1cefecaecfa15b6a29e4410f574", "fusion_lon": 0.0, "lat": 38.898436833333335, "is_reserved": 0, "type": "electric_scooter", "bike_id": "c9f2b1cefecaecfa15b6a29e4410f574", "is_disabled": 0, "rental_uris": {"android": "https://dc.lft.to/lastmile_qr_scan", "ios": "https://dc.lft.to/lastmile_qr_scan"}, "lon": -77.02278083333333, "fusion_lat": 0.0}, {"name": "e7902661d0cac71116c653261072cb92", "fusion_lon": 0.0, "lat": 38.9127405, "is_reserved": 0, "type": "electric_scooter", "bike_id": "e7902661d0cac71116c653261072cb92", "is_disabled": 0, "rental_uris": {"android": "https://dc.lft.to/lastmile_qr_scan", "ios": "https://dc.lft.to/lastmile_qr_scan"}, "lon": -77.02692983333333, "fusion_lat": 0.0}, {"name": "e020deb3f21ca42cd9f23af9de341cd2", "fusion_lon": 0.0, "lat": 38.911072, "is_reserved": 0, "type": "electric_scooter", "bike_id": "e020deb3f21ca42cd9f23af9de341cd2", "is_disabled": 0, "rental_uris": {"android": "https://dc.lft.to/lastmile_qr_scan", "ios": "https://dc.lft.to/lastmile_qr_scan"}, "lon": -77.011506, "fusion_lat": 0.0}, {"name": "3aaeb307d93a4065eefa699c24b4fea0", "fusion_lon": 0.0, "lat": 38.879418333333334, "is_reserved": 0, "type": "electric_scooter", "bike_id": "3aaeb307d93a4065eefa699c24b4fea0", "is_disabled": 0, "rental_uris": {"android": "https://dc.lft.to/lastmile_qr_scan", "ios": "https://dc.lft.to/lastmile_qr_scan"}, "lon": -77.00405916666666, "fusion_lat": 0.0}, {"name": "695734fa9fd36fb619b898db49460bf0", "fusion_lon": 0.0, "lat": 38.888203833333336, "is_reserved": 0, "type": "electric_scooter", "bike_id": "695734fa9fd36fb619b898db49460bf0", "is_disabled": 0, "rental_uris": {"android": "https://dc.lft.to/lastmile_qr_scan", "ios": "https://dc.lft.to/lastmile_qr_scan"}, "lon": -76.9510155, "fusion_lat": 0.0}, {"name": "b9fc77e620e67d72c6962e770d547aea", "fusion_lon": 0.0, "lat": 38.92435033333334, "is_reserved": 0, "type": "electric_scooter", "bike_id": "b9fc77e620e67d72c6962e770d547aea", "is_disabled": 0, "rental_uris": {"android": "https://dc.lft.to/lastmile_qr_scan", "ios": "https://dc.lft.to/lastmile_qr_scan"}, "lon": -77.04252583333333, "fusion_lat": 0.0}, {"name": "f09eba3e39be2c4305506977f3a29a21", "fusion_lon": 0.0, "lat": 38.924574166666666, "is_reserved": 0, "type": "electric_scooter", "bike_id": "f09eba3e39be2c4305506977f3a29a21", "is_disabled": 0, "rental_uris": {"android": "https://dc.lft.to/lastmile_qr_scan", "ios": "https://dc.lft.to/lastmile_qr_scan"}, "lon": -77.08161633333333, "fusion_lat": 0.0}, {"name": "eddcc503728ffc832391055d086e8022", "fusion_lon": 0.0, "lat": 38.925333333333334, "is_reserved": 0, "type": "electric_scooter", "bike_id": "eddcc503728ffc832391055d086e8022", "is_disabled": 0, "rental_uris": {"android": "https://dc.lft.to/lastmile_qr_scan", "ios": "https://dc.lft.to/lastmile_qr_scan"}, "lon": -76.9722075, "fusion_lat": 0.0}, {"name": "ee871055fbb4a268b0899c3111af1ab1", "fusion_lon": 0.0, "lat": 38.900132666666664, "is_reserved": 0, "type": "electric_scooter", "bike_id": "ee871055fbb4a268b0899c3111af1ab1", "is_disabled": 0, "rental_uris": {"android": "https://dc.lft.to/lastmile_qr_scan", "ios": "https://dc.lft.to/lastmile_qr_scan"}, "lon": -76.93030383333334, "fusion_lat": 0.0}, {"name": "f1b325ad623d8e139ef3e5f0ed3af5ec", "fusion_lon": 0.0, "lat": 38.926117166666664, "is_reserved": 0, "type": "electric_scooter", "bike_id": "f1b325ad623d8e139ef3e5f0ed3af5ec", "is_disabled": 0, "rental_uris": {"android": "https://dc.lft.to/lastmile_qr_scan", "ios": "https://dc.lft.to/lastmile_qr_scan"}, "lon": -77.02421166666667, "fusion_lat": 0.0}, {"name": "ab6d3f839aaad749de6c7b4190d1dc9f", "fusion_lon": 0.0, "lat": 38.915539333333335, "is_reserved": 0, "type": "electric_scooter", "bike_id": "ab6d3f839aaad749de6c7b4190d1dc9f", "is_disabled": 0, "rental_uris": {"android": "https://dc.lft.to/lastmile_qr_scan", "ios": "https://dc.lft.to/lastmile_qr_scan"}, "lon": -77.053129, "fusion_lat": 0.0}, {"name": "2172ea14f19bdd6920597a690819ad4e", "fusion_lon": 0.0, "lat": 38.92030483333333, "is_reserved": 0, "type": "electric_scooter", "bike_id": "2172ea14f19bdd6920597a690819ad4e", "is_disabled": 0, "rental_uris": {"android": "https://dc.lft.to/lastmile_qr_scan", "ios": "https://dc.lft.to/lastmile_qr_scan"}, "lon": -77.01117966666666, "fusion_lat": 0.0}, {"name": "fbb1598932a58f3efa8b467a6bd864a8", "fusion_lon": 0.0, "lat": 38.87617933333333, "is_reserved": 0, "type": "electric_scooter", "bike_id": "fbb1598932a58f3efa8b467a6bd864a8", "is_disabled": 0, "rental_uris": {"android": "https://dc.lft.to/lastmile_qr_scan", "ios": "https://dc.lft.to/lastmile_qr_scan"}, "lon": -77.00075516666666, "fusion_lat": 0.0}, {"name": "f29c2393bfceca31a65b1e2b2af5cbff", "fusion_lon": 0.0, "lat": 38.92998816666667, "is_reserved": 0, "type": "electric_scooter", "bike_id": "f29c2393bfceca31a65b1e2b2af5cbff", "is_disabled": 0, "rental_uris": {"android": "https://dc.lft.to/lastmile_qr_scan", "ios": "https://dc.lft.to/lastmile_qr_scan"}, "lon": -77.038006, "fusion_lat": 0.0}, {"name": "43bd7b81d183bc224f9e35c4884b740e", "fusion_lon": 0.0, "lat": 38.933896833333336, "is_reserved": 0, "type": "electric_scooter", "bike_id": "43bd7b81d183bc224f9e35c4884b740e", "is_disabled": 0, "rental_uris": {"android": "https://dc.lft.to/lastmile_qr_scan", "ios": "https://dc.lft.to/lastmile_qr_scan"}, "lon": -77.02333766666666, "fusion_lat": 0.0}, {"name": "9476319f35617b6424bc3dd0ea8894a9", "fusion_lon": 0.0, "lat": 38.9277805, "is_reserved": 0, "type": "electric_scooter", "bike_id": "9476319f35617b6424bc3dd0ea8894a9", "is_disabled": 0, "rental_uris": {"android": "https://dc.lft.to/lastmile_qr_scan", "ios": "https://dc.lft.to/lastmile_qr_scan"}, "lon": -77.0278405, "fusion_lat": 0.0}, {"name": "5e6dfa1b3f2b2b3a377a560cc15bbfd5", "fusion_lon": 0.0, "lat": 38.904752, "is_reserved": 0, "type": "electric_bike", "bike_id": "5e6dfa1b3f2b2b3a377a560cc15bbfd5", "is_disabled": 0, "rental_uris": {"android": "https://dc.lft.to/lastmile_qr_scan", "ios": "https://dc.lft.to/lastmile_qr_scan"}, "lon": -76.97328766666666, "fusion_lat": 0.0}, {"name": "72047551eafa16455456d381db4a458f", "fusion_lon": 0.0, "lat": 38.879406833333334, "is_reserved": 0, "type": "electric_scooter", "bike_id": "72047551eafa16455456d381db4a458f", "is_disabled": 0, "rental_uris": {"android": "https://dc.lft.to/lastmile_qr_scan", "ios": "https://dc.lft.to/lastmile_qr_scan"}, "lon": -77.00531983333333, "fusion_lat": 0.0}, {"name": "378e9f8ff5760b63f8cabc1c6b5ec7e6", "fusion_lon": 0.0, "lat": 38.90731383333333, "is_reserved": 0, "type": "electric_scooter", "bike_id": "378e9f8ff5760b63f8cabc1c6b5ec7e6", "is_disabled": 0, "rental_uris": {"android": "https://dc.lft.to/lastmile_qr_scan", "ios": "https://dc.lft.to/lastmile_qr_scan"}, "lon": -77.01137666666666, "fusion_lat": 0.0}, {"name": "9b8d9401efd9b967c26ce561e7ec42cd", "fusion_lon": 0.0, "lat": 38.85894433333333, "is_reserved": 0, "type": "electric_bike", "bike_id": "9b8d9401efd9b967c26ce561e7ec42cd", "is_disabled": 0, "rental_uris": {"android": "https://dc.lft.to/lastmile_qr_scan", "ios": "https://dc.lft.to/lastmile_qr_scan"}, "lon": -77.1186235, "fusion_lat": 0.0}, {"name": "58187d7c05fb6b08aee608b6d1649828", "fusion_lon": 0.0, "lat": 38.918693166666664, "is_reserved": 0, "type": "electric_scooter", "bike_id": "58187d7c05fb6b08aee608b6d1649828", "is_disabled": 0, "rental_uris": {"android": "https://dc.lft.to/lastmile_qr_scan", "ios": "https://dc.lft.to/lastmile_qr_scan"}, "lon": -77.04446333333334, "fusion_lat": 0.0}, {"name": "c583f32c3df7cd3ba05e2da677283205", "fusion_lon": 0.0, "lat": 38.91916616666666, "is_reserved": 0, "type": "electric_scooter", "bike_id": "c583f32c3df7cd3ba05e2da677283205", "is_disabled": 0, "rental_uris": {"android": "https://dc.lft.to/lastmile_qr_scan", "ios": "https://dc.lft.to/lastmile_qr_scan"}, "lon": -77.00995283333333, "fusion_lat": 0.0}, {"name": "af49826993e0b8d18586df0ff2d84f39", "fusion_lon": 0.0, "lat": 38.92053666666666, "is_reserved": 0, "type": "electric_scooter", "bike_id": "af49826993e0b8d18586df0ff2d84f39", "is_disabled": 0, "rental_uris": {"android": "https://dc.lft.to/lastmile_qr_scan", "ios": "https://dc.lft.to/lastmile_qr_scan"}, "lon": -77.04188666666667, "fusion_lat": 0.0}, {"name": "01eb4230c00d135fb99000a0e1c289c5", "fusion_lon": 0.0, "lat": 38.903162333333334, "is_reserved": 0, "type": "electric_scooter", "bike_id": "01eb4230c00d135fb99000a0e1c289c5", "is_disabled": 0, "rental_uris": {"android": "https://dc.lft.to/lastmile_qr_scan", "ios": "https://dc.lft.to/lastmile_qr_scan"}, "lon": -76.97804233333333, "fusion_lat": 0.0}, {"name": "5432804f093d80d08d928040ef7b3c52", "fusion_lon": 0.0, "lat": 38.9265235, "is_reserved": 0, "type": "electric_scooter", "bike_id": "5432804f093d80d08d928040ef7b3c52", "is_disabled": 0, "rental_uris": {"android": "https://dc.lft.to/lastmile_qr_scan", "ios": "https://dc.lft.to/lastmile_qr_scan"}, "lon": -77.037037, "fusion_lat": 0.0}, {"name": "2109c0f779aba67ca8e7569eeb1bf118", "fusion_lon": 0.0, "lat": 38.88526183333333, "is_reserved": 0, "type": "electric_scooter", "bike_id": "2109c0f779aba67ca8e7569eeb1bf118", "is_disabled": 0, "rental_uris": {"android": "https://dc.lft.to/lastmile_qr_scan", "ios": "https://dc.lft.to/lastmile_qr_scan"}, "lon": -77.061063, "fusion_lat": 0.0}, {"name": "5ad6c674460cd318a3ba7b28a8fec01f", "fusion_lon": 0.0, "lat": 38.898457666666665, "is_reserved": 0, "type": "electric_scooter", "bike_id": "5ad6c674460cd318a3ba7b28a8fec01f", "is_disabled": 0, "rental_uris": {"android": "https://dc.lft.to/lastmile_qr_scan", "ios": "https://dc.lft.to/lastmile_qr_scan"}, "lon": -77.02278266666667, "fusion_lat": 0.0}, {"name": "e46a9ee3995881646ae4cd6ab3819b52", "fusion_lon": 0.0, "lat": 38.900689666666665, "is_reserved": 0, "type": "electric_scooter", "bike_id": "e46a9ee3995881646ae4cd6ab3819b52", "is_disabled": 0, "rental_uris": {"android": "https://dc.lft.to/lastmile_qr_scan", "ios": "https://dc.lft.to/lastmile_qr_scan"}, "lon": -77.04644333333333, "fusion_lat": 0.0}, {"name": "4593796805ca0c8663aa4a0ec7181661", "fusion_lon": 0.0, "lat": 38.9060595, "is_reserved": 0, "type": "electric_scooter", "bike_id": "4593796805ca0c8663aa4a0ec7181661", "is_disabled": 0, "rental_uris": {"android": "https://dc.lft.to/lastmile_qr_scan", "ios": "https://dc.lft.to/lastmile_qr_scan"}, "lon": -76.9928415, "fusion_lat": 0.0}, {"name": "2ed2406b0cbb3b685ebde96193423dec", "fusion_lon": 0.0, "lat": 38.91918716666667, "is_reserved": 0, "type": "electric_scooter", "bike_id": "2ed2406b0cbb3b685ebde96193423dec", "is_disabled": 0, "rental_uris": {"android": "https://dc.lft.to/lastmile_qr_scan", "ios": "https://dc.lft.to/lastmile_qr_scan"}, "lon": -77.04807216666667, "fusion_lat": 0.0}, {"name": "c669287f70ceca14df0b2b2019233d22", "fusion_lon": 0.0, "lat": 38.904691, "is_reserved": 0, "type": "electric_scooter", "bike_id": "c669287f70ceca14df0b2b2019233d22", "is_disabled": 0, "rental_uris": {"android": "https://dc.lft.to/lastmile_qr_scan", "ios": "https://dc.lft.to/lastmile_qr_scan"}, "lon": -77.02882933333333, "fusion_lat": 0.0}, {"name": "2db0f219f59a1058603aebe60fe3f2a5", "fusion_lon": 0.0, "lat": 38.94511983333334, "is_reserved": 0, "type": "electric_scooter", "bike_id": "2db0f219f59a1058603aebe60fe3f2a5", "is_disabled": 0, "rental_uris": {"android": "https://dc.lft.to/lastmile_qr_scan", "ios": "https://dc.lft.to/lastmile_qr_scan"}, "lon": -77.033222, "fusion_lat": 0.0}, {"name": "c771532c67366cacbdb017859d01222b", "fusion_lon": 0.0, "lat": 38.908599333333335, "is_reserved": 0, "type": "electric_scooter", "bike_id": "c771532c67366cacbdb017859d01222b", "is_disabled": 0, "rental_uris": {"android": "https://dc.lft.to/lastmile_qr_scan", "ios": "https://dc.lft.to/lastmile_qr_scan"}, "lon": -77.02416566666666, "fusion_lat": 0.0}, {"name": "e51c32cbce3f43f9777f5433c98dd730", "fusion_lon": 0.0, "lat": 38.8845535, "is_reserved": 0, "type": "electric_scooter", "bike_id": "e51c32cbce3f43f9777f5433c98dd730", "is_disabled": 0, "rental_uris": {"android": "https://dc.lft.to/lastmile_qr_scan", "ios": "https://dc.lft.to/lastmile_qr_scan"}, "lon": -76.95747116666666, "fusion_lat": 0.0}, {"name": "b3050bf3a877dccc9cb2fbf338f8cdb7", "fusion_lon": 0.0, "lat": 38.915538, "is_reserved": 0, "type": "electric_scooter", "bike_id": "b3050bf3a877dccc9cb2fbf338f8cdb7", "is_disabled": 0, "rental_uris": {"android": "https://dc.lft.to/lastmile_qr_scan", "ios": "https://dc.lft.to/lastmile_qr_scan"}, "lon": -77.04130066666667, "fusion_lat": 0.0}, {"name": "76c831c88eaf314f248e23a1479082a6", "fusion_lon": 0.0, "lat": 38.91682316666667, "is_reserved": 0, "type": "electric_scooter", "bike_id": "76c831c88eaf314f248e23a1479082a6", "is_disabled": 0, "rental_uris": {"android": "https://dc.lft.to/lastmile_qr_scan", "ios": "https://dc.lft.to/lastmile_qr_scan"}, "lon": -77.02696283333333, "fusion_lat": 0.0}, {"name": "c1e3c0d85c6191975952b47b4318890c", "fusion_lon": 0.0, "lat": 38.9226255, "is_reserved": 0, "type": "electric_scooter", "bike_id": "c1e3c0d85c6191975952b47b4318890c", "is_disabled": 0, "rental_uris": {"android": "https://dc.lft.to/lastmile_qr_scan", "ios": "https://dc.lft.to/lastmile_qr_scan"}, "lon": -77.07326283333333, "fusion_lat": 0.0}, {"name": "02f8ebf655d1a72c52c13d9a5480f65d", "fusion_lon": 0.0, "lat": 38.917703333333336, "is_reserved": 0, "type": "electric_scooter", "bike_id": "02f8ebf655d1a72c52c13d9a5480f65d", "is_disabled": 0, "rental_uris": {"android": "https://dc.lft.to/lastmile_qr_scan", "ios": "https://dc.lft.to/lastmile_qr_scan"}, "lon": -77.04059166666667, "fusion_lat": 0.0}, {"name": "c16e614c883bff8fa967d8c410dcab0e", "fusion_lon": 0.0, "lat": 38.95870016666667, "is_reserved": 0, "type": "electric_bike", "bike_id": "c16e614c883bff8fa967d8c410dcab0e", "is_disabled": 0, "rental_uris": {"android": "https://dc.lft.to/lastmile_qr_scan", "ios": "https://dc.lft.to/lastmile_qr_scan"}, "lon": -77.00139283333333, "fusion_lat": 0.0}, {"name": "9f597139da2fae8cd1853dd1df19e834", "fusion_lon": 0.0, "lat": 38.861869666666664, "is_reserved": 0, "type": "electric_scooter", "bike_id": "9f597139da2fae8cd1853dd1df19e834", "is_disabled": 0, "rental_uris": {"android": "https://dc.lft.to/lastmile_qr_scan", "ios": "https://dc.lft.to/lastmile_qr_scan"}, "lon": -77.08810366666667, "fusion_lat": 0.0}, {"name": "5af8f7a1d234a495afcab1c9655bc2d4", "fusion_lon": 0.0, "lat": 38.90779033333333, "is_reserved": 0, "type": "electric_scooter", "bike_id": "5af8f7a1d234a495afcab1c9655bc2d4", "is_disabled": 0, "rental_uris": {"android": "https://dc.lft.to/lastmile_qr_scan", "ios": "https://dc.lft.to/lastmile_qr_scan"}, "lon": -77.03830033333334, "fusion_lat": 0.0}, {"name": "5a31bd58caee8097e0c95d8c77ae0e33", "fusion_lon": 0.0, "lat": 38.932263, "is_reserved": 0, "type": "electric_bike", "bike_id": "5a31bd58caee8097e0c95d8c77ae0e33", "is_disabled": 0, "rental_uris": {"android": "https://dc.lft.to/lastmile_qr_scan", "ios": "https://dc.lft.to/lastmile_qr_scan"}, "lon": -77.18120933333333, "fusion_lat": 0.0}, {"name": "098ca706aa7911cd09bf3d8ad5c5c27f", "fusion_lon": 0.0, "lat": 38.8960775, "is_reserved": 0, "type": "electric_scooter", "bike_id": "098ca706aa7911cd09bf3d8ad5c5c27f", "is_disabled": 0, "rental_uris": {"android": "https://dc.lft.to/lastmile_qr_scan", "ios": "https://dc.lft.to/lastmile_qr_scan"}, "lon": -77.05437933333333, "fusion_lat": 0.0}, {"name": "4ae77ed9f1a1e33a3414f0a2ccad1b2f", "fusion_lon": 0.0, "lat": 38.913211833333335, "is_reserved": 0, "type": "electric_scooter", "bike_id": "4ae77ed9f1a1e33a3414f0a2ccad1b2f", "is_disabled": 0, "rental_uris": {"android": "https://dc.lft.to/lastmile_qr_scan", "ios": "https://dc.lft.to/lastmile_qr_scan"}, "lon": -77.06253016666666, "fusion_lat": 0.0}, {"name": "f056b3261bce6207917d1b8ee2916076", "fusion_lon": 0.0, "lat": 38.87637466666666, "is_reserved": 0, "type": "electric_scooter", "bike_id": "f056b3261bce6207917d1b8ee2916076", "is_disabled": 0, "rental_uris": {"android": "https://dc.lft.to/lastmile_qr_scan", "ios": "https://dc.lft.to/lastmile_qr_scan"}, "lon": -77.00459433333333, "fusion_lat": 0.0}, {"name": "9ec721f6e1200d35bd00ceb85d029e63", "fusion_lon": 0.0, "lat": 38.951859666666664, "is_reserved": 0, "type": "electric_scooter", "bike_id": "9ec721f6e1200d35bd00ceb85d029e63", "is_disabled": 0, "rental_uris": {"android": "https://dc.lft.to/lastmile_qr_scan", "ios": "https://dc.lft.to/lastmile_qr_scan"}, "lon": -77.02619616666667, "fusion_lat": 0.0}, {"name": "b8690da51da01fca2ec0d31c48dc9aa1", "fusion_lon": 0.0, "lat": 38.90974716666667, "is_reserved": 0, "type": "electric_scooter", "bike_id": "b8690da51da01fca2ec0d31c48dc9aa1", "is_disabled": 0, "rental_uris": {"android": "https://dc.lft.to/lastmile_qr_scan", "ios": "https://dc.lft.to/lastmile_qr_scan"}, "lon": -77.0329785, "fusion_lat": 0.0}, {"name": "716ac8467d02bbdbbb969a57c8f0c12a", "fusion_lon": 0.0, "lat": 38.898686166666664, "is_reserved": 0, "type": "electric_scooter", "bike_id": "716ac8467d02bbdbbb969a57c8f0c12a", "is_disabled": 0, "rental_uris": {"android": "https://dc.lft.to/lastmile_qr_scan", "ios": "https://dc.lft.to/lastmile_qr_scan"}, "lon": -76.94662433333333, "fusion_lat": 0.0}, {"name": "5b4726ff5275e265fc934a130bba419f", "fusion_lon": 0.0, "lat": 38.93090216666667, "is_reserved": 0, "type": "electric_scooter", "bike_id": "5b4726ff5275e265fc934a130bba419f", "is_disabled": 0, "rental_uris": {"android": "https://dc.lft.to/lastmile_qr_scan", "ios": "https://dc.lft.to/lastmile_qr_scan"}, "lon": -77.0257455, "fusion_lat": 0.0}, {"name": "cb2f4007949e1151014cc4490df77a76", "fusion_lon": 0.0, "lat": 38.87209266666667, "is_reserved": 0, "type": "electric_scooter", "bike_id": "cb2f4007949e1151014cc4490df77a76", "is_disabled": 0, "rental_uris": {"android": "https://dc.lft.to/lastmile_qr_scan", "ios": "https://dc.lft.to/lastmile_qr_scan"}, "lon": -76.97835533333334, "fusion_lat": 0.0}, {"name": "8dea1774c85c56951dbead1281c23a9b", "fusion_lon": 0.0, "lat": 38.94200216666667, "is_reserved": 0, "type": "electric_scooter", "bike_id": "8dea1774c85c56951dbead1281c23a9b", "is_disabled": 0, "rental_uris": {"android": "https://dc.lft.to/lastmile_qr_scan", "ios": "https://dc.lft.to/lastmile_qr_scan"}, "lon": -77.02514666666667, "fusion_lat": 0.0}, {"name": "109b1ef4c8a12769c40804285544e8c3", "fusion_lon": 0.0, "lat": 38.943466666666666, "is_reserved": 0, "type": "electric_scooter", "bike_id": "109b1ef4c8a12769c40804285544e8c3", "is_disabled": 0, "rental_uris": {"android": "https://dc.lft.to/lastmile_qr_scan", "ios": "https://dc.lft.to/lastmile_qr_scan"}, "lon": -77.061334, "fusion_lat": 0.0}, {"name": "376c7d4a2f918357603ec9d12f64d4b2", "fusion_lon": 0.0, "lat": 38.893002833333334, "is_reserved": 0, "type": "electric_scooter", "bike_id": "376c7d4a2f918357603ec9d12f64d4b2", "is_disabled": 0, "rental_uris": {"android": "https://dc.lft.to/lastmile_qr_scan", "ios": "https://dc.lft.to/lastmile_qr_scan"}, "lon": -76.92920633333334, "fusion_lat": 0.0}, {"name": "c2c48844f8c8c5bd70c969b889b76337", "fusion_lon": 0.0, "lat": 38.90844166666667, "is_reserved": 0, "type": "electric_scooter", "bike_id": "c2c48844f8c8c5bd70c969b889b76337", "is_disabled": 0, "rental_uris": {"android": "https://dc.lft.to/lastmile_qr_scan", "ios": "https://dc.lft.to/lastmile_qr_scan"}, "lon": -77.0367885, "fusion_lat": 0.0}, {"name": "fbcd9a537b7d6268948c27fa2607fe21", "fusion_lon": 0.0, "lat": 38.885057, "is_reserved": 0, "type": "electric_scooter", "bike_id": "fbcd9a537b7d6268948c27fa2607fe21", "is_disabled": 0, "rental_uris": {"android": "https://dc.lft.to/lastmile_qr_scan", "ios": "https://dc.lft.to/lastmile_qr_scan"}, "lon": -76.9983695, "fusion_lat": 0.0}, {"name": "fcd20888503b293bd11a862d18c33f59", "fusion_lon": 0.0, "lat": 38.89855266666667, "is_reserved": 0, "type": "electric_scooter", "bike_id": "fcd20888503b293bd11a862d18c33f59", "is_disabled": 0, "rental_uris": {"android": "https://dc.lft.to/lastmile_qr_scan", "ios": "https://dc.lft.to/lastmile_qr_scan"}, "lon": -76.98168766666667, "fusion_lat": 0.0}, {"name": "c3888c2f9a464884591cf5828cbeee38", "fusion_lon": 0.0, "lat": 38.86515133333333, "is_reserved": 0, "type": "electric_scooter", "bike_id": "c3888c2f9a464884591cf5828cbeee38", "is_disabled": 0, "rental_uris": {"android": "https://dc.lft.to/lastmile_qr_scan", "ios": "https://dc.lft.to/lastmile_qr_scan"}, "lon": -76.99018016666666, "fusion_lat": 0.0}, {"name": "e70a5ab6de3bf622f26547b5e72d2198", "fusion_lon": 0.0, "lat": 38.8874685, "is_reserved": 0, "type": "electric_scooter", "bike_id": "e70a5ab6de3bf622f26547b5e72d2198", "is_disabled": 0, "rental_uris": {"android": "https://dc.lft.to/lastmile_qr_scan", "ios": "https://dc.lft.to/lastmile_qr_scan"}, "lon": -77.02725583333333, "fusion_lat": 0.0}, {"name": "5595b01ffd603ae91f3ae6defc232097", "fusion_lon": 0.0, "lat": 38.91729266666667, "is_reserved": 0, "type": "electric_scooter", "bike_id": "5595b01ffd603ae91f3ae6defc232097", "is_disabled": 0, "rental_uris": {"android": "https://dc.lft.to/lastmile_qr_scan", "ios": "https://dc.lft.to/lastmile_qr_scan"}, "lon": -77.0366135, "fusion_lat": 0.0}, {"name": "c44786fc78c1a517fb094f4eb3b8a8eb", "fusion_lon": 0.0, "lat": 38.91935866666667, "is_reserved": 0, "type": "electric_scooter", "bike_id": "c44786fc78c1a517fb094f4eb3b8a8eb", "is_disabled": 0, "rental_uris": {"android": "https://dc.lft.to/lastmile_qr_scan", "ios": "https://dc.lft.to/lastmile_qr_scan"}, "lon": -77.03213316666667, "fusion_lat": 0.0}, {"name": "f16c971d58670965a0cbf34f32760e8a", "fusion_lon": 0.0, "lat": 38.92219216666667, "is_reserved": 0, "type": "electric_scooter", "bike_id": "f16c971d58670965a0cbf34f32760e8a", "is_disabled": 0, "rental_uris": {"android": "https://dc.lft.to/lastmile_qr_scan", "ios": "https://dc.lft.to/lastmile_qr_scan"}, "lon": -77.03460066666666, "fusion_lat": 0.0}, {"name": "ea7f358c8629e59542936f7d711f65ff", "fusion_lon": 0.0, "lat": 38.80906, "is_reserved": 0, "type": "electric_bike", "bike_id": "ea7f358c8629e59542936f7d711f65ff", "is_disabled": 0, "rental_uris": {"android": "https://dc.lft.to/lastmile_qr_scan", "ios": "https://dc.lft.to/lastmile_qr_scan"}, "lon": -77.08659866666666, "fusion_lat": 0.0}, {"name": "67d506d41fb75e1bbe2a0c96c413de75", "fusion_lon": 0.0, "lat": 38.9286045, "is_reserved": 0, "type": "electric_scooter", "bike_id": "67d506d41fb75e1bbe2a0c96c413de75", "is_disabled": 0, "rental_uris": {"android": "https://dc.lft.to/lastmile_qr_scan", "ios": "https://dc.lft.to/lastmile_qr_scan"}, "lon": -77.01417816666667, "fusion_lat": 0.0}, {"name": "e1e03acdd71428c6de483f113cdb5411", "fusion_lon": 0.0, "lat": 38.863878166666666, "is_reserved": 0, "type": "electric_scooter", "bike_id": "e1e03acdd71428c6de483f113cdb5411", "is_disabled": 0, "rental_uris": {"android": "https://dc.lft.to/lastmile_qr_scan", "ios": "https://dc.lft.to/lastmile_qr_scan"}, "lon": -76.99040566666666, "fusion_lat": 0.0}, {"name": "a874d7218f9f9a6fdf9efd1c23c506b7", "fusion_lon": 0.0, "lat": 38.88471633333333, "is_reserved": 0, "type": "electric_scooter", "bike_id": "a874d7218f9f9a6fdf9efd1c23c506b7", "is_disabled": 0, "rental_uris": {"android": "https://dc.lft.to/lastmile_qr_scan", "ios": "https://dc.lft.to/lastmile_qr_scan"}, "lon": -77.03212333333333, "fusion_lat": 0.0}, {"name": "4d6fe2d6c0c72be5a8ed7f2194024802", "fusion_lon": 0.0, "lat": 38.9121095, "is_reserved": 0, "type": "electric_scooter", "bike_id": "4d6fe2d6c0c72be5a8ed7f2194024802", "is_disabled": 0, "rental_uris": {"android": "https://dc.lft.to/lastmile_qr_scan", "ios": "https://dc.lft.to/lastmile_qr_scan"}, "lon": -77.0384525, "fusion_lat": 0.0}, {"name": "d75ad467d2b9bed091a8a53fdcc067c6", "fusion_lon": 0.0, "lat": 38.886222833333335, "is_reserved": 0, "type": "electric_scooter", "bike_id": "d75ad467d2b9bed091a8a53fdcc067c6", "is_disabled": 0, "rental_uris": {"android": "https://dc.lft.to/lastmile_qr_scan", "ios": "https://dc.lft.to/lastmile_qr_scan"}, "lon": -76.95580766666667, "fusion_lat": 0.0}, {"name": "dce3f5d6d28fd701308527a650cc944e", "fusion_lon": 0.0, "lat": 38.900072333333334, "is_reserved": 0, "type": "electric_scooter", "bike_id": "dce3f5d6d28fd701308527a650cc944e", "is_disabled": 0, "rental_uris": {"android": "https://dc.lft.to/lastmile_qr_scan", "ios": "https://dc.lft.to/lastmile_qr_scan"}, "lon": -77.044894, "fusion_lat": 0.0}, {"name": "e3d0575aaf4b7348e03fbe3a7d5e1d83", "fusion_lon": 0.0, "lat": 38.90325416666667, "is_reserved": 0, "type": "electric_scooter", "bike_id": "e3d0575aaf4b7348e03fbe3a7d5e1d83", "is_disabled": 0, "rental_uris": {"android": "https://dc.lft.to/lastmile_qr_scan", "ios": "https://dc.lft.to/lastmile_qr_scan"}, "lon": -76.9754635, "fusion_lat": 0.0}, {"name": "aa13d3866fd20133f1400ebcabefd7a0", "fusion_lon": 0.0, "lat": 38.9359805, "is_reserved": 0, "type": "electric_bike", "bike_id": "aa13d3866fd20133f1400ebcabefd7a0", "is_disabled": 0, "rental_uris": {"android": "https://dc.lft.to/lastmile_qr_scan", "ios": "https://dc.lft.to/lastmile_qr_scan"}, "lon": -77.03543583333334, "fusion_lat": 0.0}, {"name": "6f17892f25fd84e9931d4f63aec5ccd4", "fusion_lon": 0.0, "lat": 38.92341783333333, "is_reserved": 0, "type": "electric_scooter", "bike_id": "6f17892f25fd84e9931d4f63aec5ccd4", "is_disabled": 0, "rental_uris": {"android": "https://dc.lft.to/lastmile_qr_scan", "ios": "https://dc.lft.to/lastmile_qr_scan"}, "lon": -77.05084266666667, "fusion_lat": 0.0}, {"name": "d95a8888a96e3fe6c67d8901df92357f", "fusion_lon": 0.0, "lat": 38.8071025, "is_reserved": 0, "type": "electric_bike", "bike_id": "d95a8888a96e3fe6c67d8901df92357f", "is_disabled": 0, "rental_uris": {"android": "https://dc.lft.to/lastmile_qr_scan", "ios": "https://dc.lft.to/lastmile_qr_scan"}, "lon": -77.06174666666666, "fusion_lat": 0.0}, {"name": "5c5086d80b032d50b473f64dbd12a04f", "fusion_lon": 0.0, "lat": 38.893171833333334, "is_reserved": 0, "type": "electric_scooter", "bike_id": "5c5086d80b032d50b473f64dbd12a04f", "is_disabled": 0, "rental_uris": {"android": "https://dc.lft.to/lastmile_qr_scan", "ios": "https://dc.lft.to/lastmile_qr_scan"}, "lon": -77.01204516666667, "fusion_lat": 0.0}, {"name": "f87758edc778c490ac0e442a446ed627", "fusion_lon": 0.0, "lat": 38.899141, "is_reserved": 0, "type": "electric_scooter", "bike_id": "f87758edc778c490ac0e442a446ed627", "is_disabled": 0, "rental_uris": {"android": "https://dc.lft.to/lastmile_qr_scan", "ios": "https://dc.lft.to/lastmile_qr_scan"}, "lon": -76.95067633333333, "fusion_lat": 0.0}, {"name": "0f79a3fff5bcd8257a16c3d35b89b339", "fusion_lon": 0.0, "lat": 38.961833, "is_reserved": 0, "type": "electric_bike", "bike_id": "0f79a3fff5bcd8257a16c3d35b89b339", "is_disabled": 0, "rental_uris": {"android": "https://dc.lft.to/lastmile_qr_scan", "ios": "https://dc.lft.to/lastmile_qr_scan"}, "lon": -77.07372983333333, "fusion_lat": 0.0}, {"name": "6d1df551432cb6abf3a223f5f2b01d55", "fusion_lon": 0.0, "lat": 38.91385833333333, "is_reserved": 0, "type": "electric_scooter", "bike_id": "6d1df551432cb6abf3a223f5f2b01d55", "is_disabled": 0, "rental_uris": {"android": "https://dc.lft.to/lastmile_qr_scan", "ios": "https://dc.lft.to/lastmile_qr_scan"}, "lon": -77.036664, "fusion_lat": 0.0}, {"name": "cd1f2799f0f7f7c9073efbc0e5e9d44e", "fusion_lon": 0.0, "lat": 38.92536783333333, "is_reserved": 0, "type": "electric_bike", "bike_id": "cd1f2799f0f7f7c9073efbc0e5e9d44e", "is_disabled": 0, "rental_uris": {"android": "https://dc.lft.to/lastmile_qr_scan", "ios": "https://dc.lft.to/lastmile_qr_scan"}, "lon": -77.0011905, "fusion_lat": 0.0}, {"name": "28cb4c0194e9bb04a10998b40f940684", "fusion_lon": 0.0, "lat": 38.858933666666665, "is_reserved": 0, "type": "electric_scooter", "bike_id": "28cb4c0194e9bb04a10998b40f940684", "is_disabled": 0, "rental_uris": {"android": "https://dc.lft.to/lastmile_qr_scan", "ios": "https://dc.lft.to/lastmile_qr_scan"}, "lon": -76.99733583333334, "fusion_lat": 0.0}, {"name": "085c2b2f24de14958db34f773add3854", "fusion_lon": 0.0, "lat": 38.90846066666667, "is_reserved": 0, "type": "electric_bike", "bike_id": "085c2b2f24de14958db34f773add3854", "is_disabled": 0, "rental_uris": {"android": "https://dc.lft.to/lastmile_qr_scan", "ios": "https://dc.lft.to/lastmile_qr_scan"}, "lon": -77.02713016666667, "fusion_lat": 0.0}, {"name": "343db3ba169f562cab359b6603795c15", "fusion_lon": 0.0, "lat": 38.89967333333333, "is_reserved": 0, "type": "electric_bike", "bike_id": "343db3ba169f562cab359b6603795c15", "is_disabled": 0, "rental_uris": {"android": "https://dc.lft.to/lastmile_qr_scan", "ios": "https://dc.lft.to/lastmile_qr_scan"}, "lon": -76.986664, "fusion_lat": 0.0}, {"name": "6b36f10da614ea60be58d93013968da1", "fusion_lon": 0.0, "lat": 38.904278, "is_reserved": 0, "type": "electric_scooter", "bike_id": "6b36f10da614ea60be58d93013968da1", "is_disabled": 0, "rental_uris": {"android": "https://dc.lft.to/lastmile_qr_scan", "ios": "https://dc.lft.to/lastmile_qr_scan"}, "lon": -76.979102, "fusion_lat": 0.0}, {"name": "021168085839a88032fdcf408d7b1e06", "fusion_lon": 0.0, "lat": 38.929375, "is_reserved": 0, "type": "electric_scooter", "bike_id": "021168085839a88032fdcf408d7b1e06", "is_disabled": 0, "rental_uris": {"android": "https://dc.lft.to/lastmile_qr_scan", "ios": "https://dc.lft.to/lastmile_qr_scan"}, "lon": -77.019911, "fusion_lat": 0.0}, {"name": "e66ee385fbb59013dec847aa98daa443", "fusion_lon": 0.0, "lat": 38.916329, "is_reserved": 0, "type": "electric_scooter", "bike_id": "e66ee385fbb59013dec847aa98daa443", "is_disabled": 0, "rental_uris": {"android": "https://dc.lft.to/lastmile_qr_scan", "ios": "https://dc.lft.to/lastmile_qr_scan"}, "lon": -77.039862, "fusion_lat": 0.0}, {"name": "3f72393f35c3980677747658753e37d3", "fusion_lon": 0.0, "lat": 38.93043216666667, "is_reserved": 0, "type": "electric_scooter", "bike_id": "3f72393f35c3980677747658753e37d3", "is_disabled": 0, "rental_uris": {"android": "https://dc.lft.to/lastmile_qr_scan", "ios": "https://dc.lft.to/lastmile_qr_scan"}, "lon": -77.03217383333333, "fusion_lat": 0.0}, {"name": "f7b0584116f5090a0577f39f5808fc33", "fusion_lon": 0.0, "lat": 38.909583, "is_reserved": 0, "type": "electric_scooter", "bike_id": "f7b0584116f5090a0577f39f5808fc33", "is_disabled": 0, "rental_uris": {"android": "https://dc.lft.to/lastmile_qr_scan", "ios": "https://dc.lft.to/lastmile_qr_scan"}, "lon": -77.01180433333333, "fusion_lat": 0.0}, {"name": "bbdda190c9f0e195bc869fcc02e13690", "fusion_lon": 0.0, "lat": 38.8792215, "is_reserved": 0, "type": "electric_scooter", "bike_id": "bbdda190c9f0e195bc869fcc02e13690", "is_disabled": 0, "rental_uris": {"android": "https://dc.lft.to/lastmile_qr_scan", "ios": "https://dc.lft.to/lastmile_qr_scan"}, "lon": -76.99980233333334, "fusion_lat": 0.0}, {"name": "4b140f169f03d24491ed67fba4b63c19", "fusion_lon": 0.0, "lat": 38.89347, "is_reserved": 0, "type": "electric_scooter", "bike_id": "4b140f169f03d24491ed67fba4b63c19", "is_disabled": 0, "rental_uris": {"android": "https://dc.lft.to/lastmile_qr_scan", "ios": "https://dc.lft.to/lastmile_qr_scan"}, "lon": -77.02810216666667, "fusion_lat": 0.0}, {"name": "6b97dbdbe837444b2bc740d0cc8a26f4", "fusion_lon": 0.0, "lat": 38.92514216666667, "is_reserved": 0, "type": "electric_scooter", "bike_id": "6b97dbdbe837444b2bc740d0cc8a26f4", "is_disabled": 0, "rental_uris": {"android": "https://dc.lft.to/lastmile_qr_scan", "ios": "https://dc.lft.to/lastmile_qr_scan"}, "lon": -77.02338816666666, "fusion_lat": 0.0}, {"name": "3ada59536b34729c15b69bf192946d16", "fusion_lon": 0.0, "lat": 38.906764833333334, "is_reserved": 0, "type": "electric_scooter", "bike_id": "3ada59536b34729c15b69bf192946d16", "is_disabled": 0, "rental_uris": {"android": "https://dc.lft.to/lastmile_qr_scan", "ios": "https://dc.lft.to/lastmile_qr_scan"}, "lon": -77.02968383333334, "fusion_lat": 0.0},