{"data": {"bikes": [{"lat": 38.899293666666665, "lon": -77.02820916666667, "is_disabled": 0, "fusion_lon": 0.0, "is_reserved": 0, "name": "27453059ab12d3aa3719c3c47602a950", "type": "electric_scooter", "bike_id": "27453059ab12d3aa3719c3c47602a950", "rental_uris": {"ios": "https://dc.lft.to/lastmile_qr_scan", "android": "https://dc.lft.to/lastmile_qr_scan"}, "fusion_lat": 0.0}, {"lat": 38.91006316666667, "lon": -77.03448433333334, "is_disabled": 0, "fusion_lon": 0.0, "is_reserved": 0, "name": "1e200a7497452151d8f69badea183131", "type": "electric_scooter", "bike_id": "1e200a7497452151d8f69badea183131", "rental_uris": {"ios": "https://dc.lft.to/lastmile_qr_scan", "android": "https://dc.lft.to/lastmile_qr_scan"}, "fusion_lat": 0.0}, {"lat": 38.92330916666667, "lon": -77.03617583333333, "is_disabled": 0, "fusion_lon": 0.0, "is_reserved": 0, "name": "54f0a3b33f13efc27bc29c1feb394d64", "type": "electric_scooter", "bike_id": "54f0a3b33f13efc27bc29c1feb394d64", "rental_uris": {"ios": "https://dc.lft.to/lastmile_qr_scan", "android": "https://dc.lft.to/lastmile_qr_scan"}, "fusion_lat": 0.0}, {"lat": 38.90275316666666, "lon": -77.0364845, "is_disabled": 0, "fusion_lon": 0.0, "is_reserved": 0, "name": "c5a1c19a88ab9f2968beb6999dd18066", "type": "electric_scooter", "bike_id": "c5a1c19a88ab9f2968beb6999dd18066", "rental_uris": {"ios": "https://dc.lft.to/lastmile_qr_scan", "android": "https://dc.lft.to/lastmile_qr_scan"}, "fusion_lat": 0.0}, {"lat": 38.918148333333335, "lon": -77.02679916666666, "is_disabled": 0, "fusion_lon": 0.0, "is_reserved": 0, "name": "6e5aa236b5f56f3a7a7d13b151ad3cf7", "type": "electric_scooter", "bike_id": "6e5aa236b5f56f3a7a7d13b151ad3cf7", "rental_uris": {"ios": "https://dc.lft.to/lastmile_qr_scan", "android": "https://dc.lft.to/lastmile_qr_scan"}, "fusion_lat": 0.0}, {"lat": 38.898567, "lon": -77.03348166666666, "is_disabled": 0, "fusion_lon": 0.0, "is_reserved": 0, "name": "14e20f9d215b07f0ce19ce3da7b16180", "type": "electric_scooter", "bike_id": "14e20f9d215b07f0ce19ce3da7b16180", "rental_uris": {"ios": "https://dc.lft.to/lastmile_qr_scan", "android": "https://dc.lft.to/lastmile_qr_scan"}, "fusion_lat": 0.0}, {"lat": 38.90262766666667, "lon": -77.0434475, "is_disabled": 0, "fusion_lon": 0.0, "is_reserved": 0, "name": "29092dfe713f58ea7a0ea360f30b1426", "type": "electric_scooter", "bike_id": "29092dfe713f58ea7a0ea360f30b1426", "rental_uris": {"ios": "https://dc.lft.to/lastmile_qr_scan", "android": "https://dc.lft.to/lastmile_qr_scan"}, "fusion_lat": 0.0}, {"lat": 38.89221, "lon": -77.0419775, "is_disabled": 0, "fusion_lon": 0.0, "is_reserved": 0, "name": "55a8eb4a53ea47c80e9fe3abcfd82cb7", "type": "electric_scooter", "bike_id": "55a8eb4a53ea47c80e9fe3abcfd82cb7", "rental_uris": {"ios": "https://dc.lft.to/lastmile_qr_scan", "android": "https://dc.lft.to/lastmile_qr_scan"}, "fusion_lat": 0.0}, {"lat": 38.904826, "lon": -77.0343275, "is_disabled": 0, "fusion_lon": 0.0, "is_reserved": 0, "name": "26511b3abc2d2ddd7d56d267edf84a19", "type": "electric_bike", "bike_id": "26511b3abc2d2ddd7d56d267edf84a19", "rental_uris": {"ios": "https://dc.lft.to/lastmile_qr_scan", "android": "https://dc.lft.to/lastmile_qr_scan"}, "fusion_lat": 0.0}, {"lat": 38.918743166666665, "lon": -76.9643965, "is_disabled": 0, "fusion_lon": 0.0, "is_reserved": 0, "name": "85bceb0a3cff9f4158229a135bb51924", "type": "electric_bike", "bike_id": "85bceb0a3cff9f4158229a135bb51924", "rental_uris": {"ios": "https://dc.lft.to/lastmile_qr_scan", "android": "https://dc.lft.to/lastmile_qr_scan"}, "fusion_lat": 0.0}, {"lat": 38.89759333333333, "lon": -77.02103183333334, "is_disabled": 0, "fusion_lon": 0.0, "is_reserved": 0, "name": "55c2af606afa49245881906a0223e7a0", "type": "electric_scooter", "bike_id": "55c2af606afa49245881906a0223e7a0", "rental_uris": {"ios": "https://dc.lft.to/lastmile_qr_scan", "android": "https://dc.lft.to/lastmile_qr_scan"}, "fusion_lat": 0.0}, {"lat": 38.911846833333335, "lon": -77.04824466666666, "is_disabled": 0, "fusion_lon": 0.0, "is_reserved": 0, "name": "f6d7fea9bf173a0fcb35d50e2d7afe41", "type": "electric_scooter", "bike_id": "f6d7fea9bf173a0fcb35d50e2d7afe41", "rental_uris": {"ios": "https://dc.lft.to/lastmile_qr_scan", "android": "https://dc.lft.to/lastmile_qr_scan"}, "fusion_lat": 0.0}, {"lat": 38.9133145, "lon": -77.048592, "is_disabled": 0, "fusion_lon": 0.0, "is_reserved": 0, "name": "1aced5c923dc822ffa96226614b1bfd4", "type": "electric_scooter", "bike_id": "1aced5c923dc822ffa96226614b1bfd4", "rental_uris": {"ios": "https://dc.lft.to/lastmile_qr_scan", "android": "https://dc.lft.to/lastmile_qr_scan"}, "fusion_lat": 0.0}, {"lat": 38.924693833333336, "lon": -77.022231, "is_disabled": 0, "fusion_lon": 0.0, "is_reserved": 0, "name": "d045cf1e9e1218fb6a03d2aaff390093", "type": "electric_scooter", "bike_id": "d045cf1e9e1218fb6a03d2aaff390093", "rental_uris": {"ios": "https://dc.lft.to/lastmile_qr_scan", "android": "https://dc.lft.to/lastmile_qr_scan"}, "fusion_lat": 0.0}, {"lat": 38.876559, "lon": -77.00113333333333, "is_disabled": 0, "fusion_lon": 0.0, "is_reserved": 0, "name": "1062a0e77e19c6047f62f9c78585a42d", "type": "electric_scooter", "bike_id": "1062a0e77e19c6047f62f9c78585a42d", "rental_uris": {"ios": "https://dc.lft.to/lastmile_qr_scan", "android": "https://dc.lft.to/lastmile_qr_scan"}, "fusion_lat": 0.0}, {"lat": 38.9015905, "lon": -76.98077433333333, "is_disabled": 0, "fusion_lon": 0.0, "is_reserved": 0, "name": "546ba8374b751ddfc2791a394553f140", "type": "electric_scooter", "bike_id": "546ba8374b751ddfc2791a394553f140", "rental_uris": {"ios": "https://dc.lft.to/lastmile_qr_scan", "android": "https://dc.lft.to/lastmile_qr_scan"}, "fusion_lat": 0.0}, {"lat": 38.90270916666667, "lon": -77.0152125, "is_disabled": 0, "fusion_lon": 0.0, "is_reserved": 0, "name": "45aca9805caeabfc9f122574ff2ee278", "type": "electric_scooter", "bike_id": "45aca9805caeabfc9f122574ff2ee278", "rental_uris": {"ios": "https://dc.lft.to/lastmile_qr_scan", "android": "https://dc.lft.to/lastmile_qr_scan"}, "fusion_lat": 0.0}, {"lat": 38.918180166666666, "lon": -77.01209583333333, "is_disabled": 0, "fusion_lon": 0.0, "is_reserved": 0, "name": "9271e24d792f7c667344bba079b37d96", "type": "electric_scooter", "bike_id": "9271e24d792f7c667344bba079b37d96", "rental_uris": {"ios": "https://dc.lft.to/lastmile_qr_scan", "android": "https://dc.lft.to/lastmile_qr_scan"}, "fusion_lat": 0.0}, {"lat": 38.88411383333333, "lon": -77.02566716666666, "is_disabled": 0, "fusion_lon": 0.0, "is_reserved": 0, "name": "56b6d393f158fdb210e122308dd9ae06", "type": "electric_scooter", "bike_id": "56b6d393f158fdb210e122308dd9ae06", "rental_uris": {"ios": "https://dc.lft.to/lastmile_qr_scan", "android": "https://dc.lft.to/lastmile_qr_scan"}, "fusion_lat": 0.0}, {"lat": 38.88732233333333, "lon": -77.02385766666667, "is_disabled": 0, "fusion_lon": 0.0, "is_reserved": 0, "name": "f3b3975825c98359ce2f5e48a9db0a2a", "type": "electric_scooter", "bike_id": "f3b3975825c98359ce2f5e48a9db0a2a", "rental_uris": {"ios": "https://dc.lft.to/lastmile_qr_scan", "android": "https://dc.lft.to/lastmile_qr_scan"}, "fusion_lat": 0.0}, {"lat": 38.897812, "lon": -77.05477983333333, "is_disabled": 0, "fusion_lon": 0.0, "is_reserved": 0, "name": "f132d1c9408d886a488eb504ad15fb66", "type": "electric_scooter", "bike_id": "f132d1c9408d886a488eb504ad15fb66", "rental_uris": {"ios": "https://dc.lft.to/lastmile_qr_scan", "android": "https://dc.lft.to/lastmile_qr_scan"}, "fusion_lat": 0.0}, {"lat": 38.896147166666665, "lon": -77.00923216666666, "is_disabled": 0, "fusion_lon": 0.0, "is_reserved": 0, "name": "35de38adb558f5e04986d24861356f12", "type": "electric_scooter", "bike_id": "35de38adb558f5e04986d24861356f12", "rental_uris": {"ios": "https://dc.lft.to/lastmile_qr_scan", "android": "https://dc.lft.to/lastmile_qr_scan"}, "fusion_lat": 0.0}, {"lat": 38.887466333333336, "lon": -76.90085516666667, "is_disabled": 0, "fusion_lon": 0.0, "is_reserved": 0, "name": "311cfebcb9e72b267605241b5845b9d4", "type": "electric_bike", "bike_id": "311cfebcb9e72b267605241b5845b9d4", "rental_uris": {"ios": "https://dc.lft.to/lastmile_qr_scan", "android": "https://dc.lft.to/lastmile_qr_scan"}, "fusion_lat": 0.0}, {"lat": 38.92239033333333, "lon": -77.07314716666667, "is_disabled": 0, "fusion_lon": 0.0, "is_reserved": 0, "name": "7e4dc2bf54355807a92f7b91dd690698", "type": "electric_scooter", "bike_id": "7e4dc2bf54355807a92f7b91dd690698", "rental_uris": {"ios": "https://dc.lft.to/lastmile_qr_scan", "android": "https://dc.lft.to/lastmile_qr_scan"}, "fusion_lat": 0.0}, {"lat": 38.917977666666665, "lon": -77.02489716666666, "is_disabled": 0, "fusion_lon": 0.0, "is_reserved": 0, "name": "27f95ae8ba2b52eb23dc7b6c59d9374d", "type": "electric_scooter", "bike_id": "27f95ae8ba2b52eb23dc7b6c59d9374d", "rental_uris": {"ios": "https://dc.lft.to/lastmile_qr_scan", "android": "https://dc.lft.to/lastmile_qr_scan"}, "fusion_lat": 0.0}, {"lat": 38.91880883333333, "lon": -77.02472883333333, "is_disabled": 0, "fusion_lon": 0.0, "is_reserved": 0, "name": "51ac0f2f232251a2e82049174fc91445", "type": "electric_scooter", "bike_id": "51ac0f2f232251a2e82049174fc91445", "rental_uris": {"ios": "https://dc.lft.to/lastmile_qr_scan", "android": "https://dc.lft.to/lastmile_qr_scan"}, "fusion_lat": 0.0}, {"lat": 38.957102, "lon": -77.02404066666666, "is_disabled": 0, "fusion_lon": 0.0, "is_reserved": 0, "name": "f69f49ebd70ff2d8c15aad296f03abb3", "type": "electric_scooter", "bike_id": "f69f49ebd70ff2d8c15aad296f03abb3", "rental_uris": {"ios": "https://dc.lft.to/lastmile_qr_scan", "android": "https://dc.lft.to/lastmile_qr_scan"}, "fusion_lat": 0.0}, {"lat": 38.909502333333336, "lon": -77.0449225, "is_disabled": 0, "fusion_lon": 0.0, "is_reserved": 0, "name": "1b3c239a670989e8e752d8d2d76d34e1", "type": "electric_scooter", "bike_id": "1b3c239a670989e8e752d8d2d76d34e1", "rental_uris": {"ios": "https://dc.lft.to/lastmile_qr_scan", "android": "https://dc.lft.to/lastmile_qr_scan"}, "fusion_lat": 0.0}, {"lat": 38.956768833333335, "lon": -77.013533, "is_disabled": 0, "fusion_lon": 0.0, "is_reserved": 0, "name": "f5a6cfa87e4af7bee45aa9b11cd3b17d", "type": "electric_scooter", "bike_id": "f5a6cfa87e4af7bee45aa9b11cd3b17d", "rental_uris": {"ios": "https://dc.lft.to/lastmile_qr_scan", "android": "https://dc.lft.to/lastmile_qr_scan"}, "fusion_lat": 0.0}, {"lat": 38.917998, "lon": -77.0270335, "is_disabled": 0, "fusion_lon": 0.0, "is_reserved": 0, "name": "f57e3cf1e429542f86518282f1b683ca", "type": "electric_scooter", "bike_id": "f57e3cf1e429542f86518282f1b683ca", "rental_uris": {"ios": "https://dc.lft.to/lastmile_qr_scan", "android": "https://dc.lft.to/lastmile_qr_scan"}, "fusion_lat": 0.0}, {"lat": 38.8876765, "lon": -77.001895, "is_disabled": 0, "fusion_lon": 0.0, "is_reserved": 0, "name": "58ce6697db0ffba96ee91966f998fd30", "type": "electric_scooter", "bike_id": "58ce6697db0ffba96ee91966f998fd30", "rental_uris": {"ios": "https://dc.lft.to/lastmile_qr_scan", "android": "https://dc.lft.to/lastmile_qr_scan"}, "fusion_lat": 0.0}, {"lat": 38.905427833333334, "lon": -77.05047583333334, "is_disabled": 0, "fusion_lon": 0.0, "is_reserved": 0, "name": "b359c2ed482d51a862ddb75616eb7568", "type": "electric_scooter", "bike_id": "b359c2ed482d51a862ddb75616eb7568", "rental_uris": {"ios": "https://dc.lft.to/lastmile_qr_scan", "android": "https://dc.lft.to/lastmile_qr_scan"}, "fusion_lat": 0.0}, {"lat": 38.919369833333334, "lon": -77.032053, "is_disabled": 0, "fusion_lon": 0.0, "is_reserved": 0, "name": "8c48b28667ee834052da8c8aba2b01fc", "type": "electric_scooter", "bike_id": "8c48b28667ee834052da8c8aba2b01fc", "rental_uris": {"ios": "https://dc.lft.to/lastmile_qr_scan", "android": "https://dc.lft.to/lastmile_qr_scan"}, "fusion_lat": 0.0}, {"lat": 38.916428833333335, "lon": -77.02258216666667, "is_disabled": 0, "fusion_lon": 0.0, "is_reserved": 0, "name": "ca8202b3961b619cdfd8bae7a6f84730", "type": "electric_scooter", "bike_id": "ca8202b3961b619cdfd8bae7a6f84730", "rental_uris": {"ios": "https://dc.lft.to/lastmile_qr_scan", "android": "https://dc.lft.to/lastmile_qr_scan"}, "fusion_lat": 0.0}, {"lat": 38.92324383333333, "lon": -77.03048166666666, "is_disabled": 0, "fusion_lon": 0.0, "is_reserved": 0, "name": "7ece9d391b700c4077c3dc3b7ca1672d", "type": "electric_scooter", "bike_id": "7ece9d391b700c4077c3dc3b7ca1672d", "rental_uris": {"ios": "https://dc.lft.to/lastmile_qr_scan", "android": "https://dc.lft.to/lastmile_qr_scan"}, "fusion_lat": 0.0}, {"lat": 38.922238666666665, "lon": -77.0182655, "is_disabled": 0, "fusion_lon": 0.0, "is_reserved": 0, "name": "9fb40dd3a9f12d06ab4c365d7fbca703", "type": "electric_scooter", "bike_id": "9fb40dd3a9f12d06ab4c365d7fbca703", "rental_uris": {"ios": "https://dc.lft.to/lastmile_qr_scan", "android": "https://dc.lft.to/lastmile_qr_scan"}, "fusion_lat": 0.0}, {"lat": 38.89822183333333, "lon": -77.031561, "is_disabled": 0, "fusion_lon": 0.0, "is_reserved": 0, "name": "edf7cbcfdb1c7b359466955e167b762b", "type": "electric_scooter", "bike_id": "edf7cbcfdb1c7b359466955e167b762b", "rental_uris": {"ios": "https://dc.lft.to/lastmile_qr_scan", "android": "https://dc.lft.to/lastmile_qr_scan"}, "fusion_lat": 0.0}, {"lat": 38.956007166666666, "lon": -77.01015333333334, "is_disabled": 0, "fusion_lon": 0.0, "is_reserved": 0, "name": "5bab8744a9f655ba89b0871f6dfab6d4", "type": "electric_bike", "bike_id": "5bab8744a9f655ba89b0871f6dfab6d4", "rental_uris": {"ios": "https://dc.lft.to/lastmile_qr_scan", "android": "https://dc.lft.to/lastmile_qr_scan"}, "fusion_lat": 0.0}, {"lat": 38.92961316666667, "lon": -77.01147633333333, "is_disabled": 0, "fusion_lon": 0.0, "is_reserved": 0, "name": "96aad6e09960e19f1288f2b18f0e1260", "type": "electric_scooter", "bike_id": "96aad6e09960e19f1288f2b18f0e1260", "rental_uris": {"ios": "https://dc.lft.to/lastmile_qr_scan", "android": "https://dc.lft.to/lastmile_qr_scan"}, "fusion_lat": 0.0}, {"lat": 38.888234833333335, "lon": -76.97720183333334, "is_disabled": 0, "fusion_lon": 0.0, "is_reserved": 0, "name": "ad60f1c09aa4a5b8378e49561c3b6d37", "type": "electric_scooter", "bike_id": "ad60f1c09aa4a5b8378e49561c3b6d37", "rental_uris": {"ios": "https://dc.lft.to/lastmile_qr_scan", "android": "https://dc.lft.to/lastmile_qr_scan"}, "fusion_lat": 0.0}, {"lat": 38.8919875, "lon": -77.002931, "is_disabled": 0, "fusion_lon": 0.0, "is_reserved": 0, "name": "10860e79464185f33411eb734e00bb6b", "type": "electric_scooter", "bike_id": "10860e79464185f33411eb734e00bb6b", "rental_uris": {"ios": "https://dc.lft.to/lastmile_qr_scan", "android": "https://dc.lft.to/lastmile_qr_scan"}, "fusion_lat": 0.0}, {"lat": 38.91821983333333, "lon": -77.02420833333333, "is_disabled": 0, "fusion_lon": 0.0, "is_reserved": 0, "name": "3ed3600ac2c4e6638ad50152828c4500", "type": "electric_scooter", "bike_id": "3ed3600ac2c4e6638ad50152828c4500", "rental_uris": {"ios": "https://dc.lft.to/lastmile_qr_scan", "android": "https://dc.lft.to/lastmile_qr_scan"}, "fusion_lat": 0.0}, {"lat": 38.894422166666665, "lon": -76.978199, "is_disabled": 0, "fusion_lon": 0.0, "is_reserved": 0, "name": "11fcb38de49d877e232ef09bd568cef5", "type": "electric_scooter", "bike_id": "11fcb38de49d877e232ef09bd568cef5", "rental_uris": {"ios": "https://dc.lft.to/lastmile_qr_scan", "android": "https://dc.lft.to/lastmile_qr_scan"}, "fusion_lat": 0.0}, {"lat": 38.920022833333334, "lon": -77.023592, "is_disabled": 0, "fusion_lon": 0.0, "is_reserved": 0, "name": "4e3dd4f365f34d44c5aeae5a1e5e0f5f", "type": "electric_scooter", "bike_id": "4e3dd4f365f34d44c5aeae5a1e5e0f5f", "rental_uris": {"ios": "https://dc.lft.to/lastmile_qr_scan", "android": "https://dc.lft.to/lastmile_qr_scan"}, "fusion_lat": 0.0}, {"lat": 38.93048816666666, "lon": -77.05570983333334, "is_disabled": 0, "fusion_lon": 0.0, "is_reserved": 0, "name": "460011dd311ecf43d3505c986bbda276", "type": "electric_scooter", "bike_id": "460011dd311ecf43d3505c986bbda276", "rental_uris": {"ios": "https://dc.lft.to/lastmile_qr_scan", "android": "https://dc.lft.to/lastmile_qr_scan"}, "fusion_lat": 0.0}, {"lat": 38.9094975, "lon": -77.04489516666666, "is_disabled": 0, "fusion_lon": 0.0, "is_reserved": 0, "name": "84528c371249a1091c62d20cdd8eba6c", "type": "electric_scooter", "bike_id": "84528c371249a1091c62d20cdd8eba6c", "rental_uris": {"ios": "https://dc.lft.to/lastmile_qr_scan", "android": "https://dc.lft.to/lastmile_qr_scan"}, "fusion_lat": 0.0}, {"lat": 38.89541533333333, "lon": -76.98342783333334, "is_disabled": 0, "fusion_lon": 0.0, "is_reserved": 0, "name": "15c6e833ece901e89c650f4ee389a389", "type": "electric_scooter", "bike_id": "15c6e833ece901e89c650f4ee389a389", "rental_uris": {"ios": "https://dc.lft.to/lastmile_qr_scan", "android": "https://dc.lft.to/lastmile_qr_scan"}, "fusion_lat": 0.0}, {"lat": 38.91566183333333, "lon": -77.0200345, "is_disabled": 0, "fusion_lon": 0.0, "is_reserved": 0, "name": "75a6a66d1b0985d32b8fbf9165bc96cc", "type": "electric_scooter", "bike_id": "75a6a66d1b0985d32b8fbf9165bc96cc", "rental_uris": {"ios": "https://dc.lft.to/lastmile_qr_scan", "android": "https://dc.lft.to/lastmile_qr_scan"}, "fusion_lat": 0.0}, {"lat": 38.926998, "lon": -77.020811, "is_disabled": 0, "fusion_lon": 0.0, "is_reserved": 0, "name": "39689b99c23aad47dc9a9b2d9f61de86", "type": "electric_scooter", "bike_id": "39689b99c23aad47dc9a9b2d9f61de86", "rental_uris": {"ios": "https://dc.lft.to/lastmile_qr_scan", "android": "https://dc.lft.to/lastmile_qr_scan"}, "fusion_lat": 0.0}, {"lat": 38.934859, "lon": -77.0727615, "is_disabled": 0, "fusion_lon": 0.0, "is_reserved": 0, "name": "3bcd5acc0b9e346bc4c300208abccc32", "type": "electric_scooter", "bike_id": "3bcd5acc0b9e346bc4c300208abccc32", "rental_uris": {"ios": "https://dc.lft.to/lastmile_qr_scan", "android": "https://dc.lft.to/lastmile_qr_scan"}, "fusion_lat": 0.0}, {"lat": 38.96143283333333, "lon": -77.0278385, "is_disabled": 0, "fusion_lon": 0.0, "is_reserved": 0, "name": "09890cb1d42b6fae44cc8e9bd895891b", "type": "electric_scooter", "bike_id": "09890cb1d42b6fae44cc8e9bd895891b", "rental_uris": {"ios": "https://dc.lft.to/lastmile_qr_scan", "android": "https://dc.lft.to/lastmile_qr_scan"}, "fusion_lat": 0.0}, {"lat": 38.89221083333333, "lon": -77.03220866666666, "is_disabled": 0, "fusion_lon": 0.0, "is_reserved": 0, "name": "81ff2651287a388c4202582be54e3d74", "type": "electric_scooter", "bike_id": "81ff2651287a388c4202582be54e3d74", "rental_uris": {"ios": "https://dc.lft.to/lastmile_qr_scan", "android": "https://dc.lft.to/lastmile_qr_scan"}, "fusion_lat": 0.0}, {"lat": 38.8972475, "lon": -77.07894866666666, "is_disabled": 0, "fusion_lon": 0.0, "is_reserved": 0, "name": "38db9c7842fe61ce7716cbdbd9d266f6", "type": "electric_scooter", "bike_id": "38db9c7842fe61ce7716cbdbd9d266f6", "rental_uris": {"ios": "https://dc.lft.to/lastmile_qr_scan", "android": "https://dc.lft.to/lastmile_qr_scan"}, "fusion_lat": 0.0}, {"lat": 38.889728833333336, "lon": -76.99464516666667, "is_disabled": 0, "fusion_lon": 0.0, "is_reserved": 0, "name": "6687deabb3052ae673f600d7245383b8", "type": "electric_scooter", "bike_id": "6687deabb3052ae673f600d7245383b8", "rental_uris": {"ios": "https://dc.lft.to/lastmile_qr_scan", "android": "https://dc.lft.to/lastmile_qr_scan"}, "fusion_lat": 0.0}, {"lat": 38.903633666666664, "lon": -77.02213783333333, "is_disabled": 0, "fusion_lon": 0.0, "is_reserved": 0, "name": "8fdb881c62f140cbb5fbc88f3e555700", "type": "electric_scooter", "bike_id": "8fdb881c62f140cbb5fbc88f3e555700", "rental_uris": {"ios": "https://dc.lft.to/lastmile_qr_scan", "android": "https://dc.lft.to/lastmile_qr_scan"}, "fusion_lat": 0.0}, {"lat": 38.901032, "lon": -77.03456833333334, "is_disabled": 0, "fusion_lon": 0.0, "is_reserved": 0, "name": "684f961f7b3a9c24b647653e9fa9fd25", "type": "electric_scooter", "bike_id": "684f961f7b3a9c24b647653e9fa9fd25", "rental_uris": {"ios": "https://dc.lft.to/lastmile_qr_scan", "android": "https://dc.lft.to/lastmile_qr_scan"}, "fusion_lat": 0.0}, {"lat": 38.92971516666667, "lon": -77.02792683333334, "is_disabled": 0, "fusion_lon": 0.0, "is_reserved": 0, "name": "0a36e5557ea557a805669c19634803f8", "type": "electric_scooter", "bike_id": "0a36e5557ea557a805669c19634803f8", "rental_uris": {"ios": "https://dc.lft.to/lastmile_qr_scan", "android": "https://dc.lft.to/lastmile_qr_scan"}, "fusion_lat": 0.0}, {"lat": 38.892441833333336, "lon": -77.03178666666666, "is_disabled": 0, "fusion_lon": 0.0, "is_reserved": 0, "name": "c6210e984d551077f6c6460ed0cf5108", "type": "electric_scooter", "bike_id": "c6210e984d551077f6c6460ed0cf5108", "rental_uris": {"ios": "https://dc.lft.to/lastmile_qr_scan", "android": "https://dc.lft.to/lastmile_qr_scan"}, "fusion_lat": 0.0}, {"lat": 38.92513816666667, "lon": -77.02360516666667, "is_disabled": 0, "fusion_lon": 0.0, "is_reserved": 0, "name": "5aec2355983c9deabf7aabdc380f7271", "type": "electric_scooter", "bike_id": "5aec2355983c9deabf7aabdc380f7271", "rental_uris": {"ios": "https://dc.lft.to/lastmile_qr_scan", "android": "https://dc.lft.to/lastmile_qr_scan"}, "fusion_lat": 0.0}, {"lat": 38.92481816666667, "lon": -77.02586433333333, "is_disabled": 0, "fusion_lon": 0.0, "is_reserved": 0, "name": "a99c1e929b3b214be5b7d1ea199d5c52", "type": "electric_scooter", "bike_id": "a99c1e929b3b214be5b7d1ea199d5c52", "rental_uris": {"ios": "https://dc.lft.to/lastmile_qr_scan", "android": "https://dc.lft.to/lastmile_qr_scan"}, "fusion_lat": 0.0}, {"lat": 38.91050333333333, "lon": -77.031792, "is_disabled": 0, "fusion_lon": 0.0, "is_reserved": 0, "name": "de980ea709a64d30806353a66b27b1fd", "type": "electric_scooter", "bike_id": "de980ea709a64d30806353a66b27b1fd", "rental_uris": {"ios": "https://dc.lft.to/lastmile_qr_scan", "android": "https://dc.lft.to/lastmile_qr_scan"}, "fusion_lat": 0.0}, {"lat": 38.90017233333333, "lon": -77.0466335, "is_disabled": 0, "fusion_lon": 0.0, "is_reserved": 0, "name": "f4f275b96924c74514cd36a5bf7e0557", "type": "electric_scooter", "bike_id": "f4f275b96924c74514cd36a5bf7e0557", "rental_uris": {"ios": "https://dc.lft.to/lastmile_qr_scan", "android": "https://dc.lft.to/lastmile_qr_scan"}, "fusion_lat": 0.0}, {"lat": 38.92476683333334, "lon": -77.026585, "is_disabled": 0, "fusion_lon": 0.0, "is_reserved": 0, "name": "a25d4e42fe2b7175709e87f8fa0e380e", "type": "electric_scooter", "bike_id": "a25d4e42fe2b7175709e87f8fa0e380e", "rental_uris": {"ios": "https://dc.lft.to/lastmile_qr_scan", "android": "https://dc.lft.to/lastmile_qr_scan"}, "fusion_lat": 0.0}, {"lat": 38.9111445, "lon": -77.0447095, "is_disabled": 0, "fusion_lon": 0.0, "is_reserved": 0, "name": "9a0c1c90c6782270b0b427977b601469", "type": "electric_scooter", "bike_id": "9a0c1c90c6782270b0b427977b601469", "rental_uris": {"ios": "https://dc.lft.to/lastmile_qr_scan", "android": "https://dc.lft.to/lastmile_qr_scan"}, "fusion_lat": 0.0}, {"lat": 38.91633066666667, "lon": -77.0318005, "is_disabled": 0, "fusion_lon": 0.0, "is_reserved": 0, "name": "61c41196e41ae2ad6c549b96ace595cd", "type": "electric_scooter", "bike_id": "61c41196e41ae2ad6c549b96ace595cd", "rental_uris": {"ios": "https://dc.lft.to/lastmile_qr_scan", "android": "https://dc.lft.to/lastmile_qr_scan"}, "fusion_lat": 0.0}, {"lat": 38.910971833333335, "lon": -77.03181183333334, "is_disabled": 0, "fusion_lon": 0.0, "is_reserved": 0, "name": "171a17bc152e7977ada0e0023ab4a9a2", "type": "electric_scooter", "bike_id": "171a17bc152e7977ada0e0023ab4a9a2", "rental_uris": {"ios": "https://dc.lft.to/lastmile_qr_scan", "android": "https://dc.lft.to/lastmile_qr_scan"}, "fusion_lat": 0.0}, {"lat": 38.9234455, "lon": -77.01910983333333, "is_disabled": 0, "fusion_lon": 0.0, "is_reserved": 0, "name": "a95e5fd1b39d05c5a8b084713fdccf16", "type": "electric_scooter", "bike_id": "a95e5fd1b39d05c5a8b084713fdccf16", "rental_uris": {"ios": "https://dc.lft.to/lastmile_qr_scan", "android": "https://dc.lft.to/lastmile_qr_scan"}, "fusion_lat": 0.0}, {"lat": 38.905885833333336, "lon": -77.03869383333334, "is_disabled": 0, "fusion_lon": 0.0, "is_reserved": 0, "name": "14cf03f4a4e17f70bb2e1e91b610a00b", "type": "electric_scooter", "bike_id": "14cf03f4a4e17f70bb2e1e91b610a00b", "rental_uris": {"ios": "https://dc.lft.to/lastmile_qr_scan", "android": "https://dc.lft.to/lastmile_qr_scan"}, "fusion_lat": 0.0}, {"lat": 38.895719166666666, "lon": -76.983198, "is_disabled": 0, "fusion_lon": 0.0, "is_reserved": 0, "name": "978bd9ca43ff8e335e90b3d8036c2934", "type": "electric_scooter", "bike_id": "978bd9ca43ff8e335e90b3d8036c2934", "rental_uris": {"ios": "https://dc.lft.to/lastmile_qr_scan", "android": "https://dc.lft.to/lastmile_qr_scan"}, "fusion_lat": 0.0}, {"lat": 38.887022, "lon": -76.99385116666667, "is_disabled": 0, "fusion_lon": 0.0, "is_reserved": 0, "name": "280e19b0d601cf65ec0cdc843c4fafc7", "type": "electric_scooter", "bike_id": "280e19b0d601cf65ec0cdc843c4fafc7", "rental_uris": {"ios": "https://dc.lft.to/lastmile_qr_scan", "android": "https://dc.lft.to/lastmile_qr_scan"}, "fusion_lat": 0.0}, {"lat": 38.9158775, "lon": -77.04500883333333, "is_disabled": 0, "fusion_lon": 0.0, "is_reserved": 0, "name": "bcd8f6b3fb2fe717960f905b20f53636", "type": "electric_scooter", "bike_id": "bcd8f6b3fb2fe717960f905b20f53636", "rental_uris": {"ios": "https://dc.lft.to/lastmile_qr_scan", "android": "https://dc.lft.to/lastmile_qr_scan"}, "fusion_lat": 0.0}, {"lat": 38.90959433333333, "lon": -77.04440333333334, "is_disabled": 0, "fusion_lon": 0.0, "is_reserved": 0, "name": "e9a1d1331abde5af85499c1b1c850f14", "type": "electric_scooter", "bike_id": "e9a1d1331abde5af85499c1b1c850f14", "rental_uris": {"ios": "https://dc.lft.to/lastmile_qr_scan", "android": "https://dc.lft.to/lastmile_qr_scan"}, "fusion_lat": 0.0}, {"lat": 38.925593666666664, "lon": -77.05257716666667, "is_disabled": 0, "fusion_lon": 0.0, "is_reserved": 0, "name": "72773bd7d483cdd234f2f5a331fcc69b", "type": "electric_scooter", "bike_id": "72773bd7d483cdd234f2f5a331fcc69b", "rental_uris": {"ios": "https://dc.lft.to/lastmile_qr_scan", "android": "https://dc.lft.to/lastmile_qr_scan"}, "fusion_lat": 0.0}, {"lat": 38.9228455, "lon": -77.03660333333333, "is_disabled": 0, "fusion_lon": 0.0, "is_reserved": 0, "name": "cea06e9205c84deb3e92cbe865b2b02b", "type": "electric_scooter", "bike_id": "cea06e9205c84deb3e92cbe865b2b02b", "rental_uris": {"ios": "https://dc.lft.to/lastmile_qr_scan", "android": "https://dc.lft.to/lastmile_qr_scan"}, "fusion_lat": 0.0}, {"lat": 38.90132766666667, "lon": -77.04656516666667, "is_disabled": 0, "fusion_lon": 0.0, "is_reserved": 0, "name": "9b7089168739a6a79cc8cf4f5ac51c3e", "type": "electric_scooter", "bike_id": "9b7089168739a6a79cc8cf4f5ac51c3e", "rental_uris": {"ios": "https://dc.lft.to/lastmile_qr_scan", "android": "https://dc.lft.to/lastmile_qr_scan"}, "fusion_lat": 0.0}, {"lat": 38.91629666666667, "lon": -77.04012533333334, "is_disabled": 0, "fusion_lon": 0.0, "is_reserved": 0, "name": "13c2e33d697c368c4097c0820b48d495", "type": "electric_scooter", "bike_id": "13c2e33d697c368c4097c0820b48d495", "rental_uris": {"ios": "https://dc.lft.to/lastmile_qr_scan", "android": "https://dc.lft.to/lastmile_qr_scan"}, "fusion_lat": 0.0}, {"lat": 38.9637075, "lon": -76.94529116666666, "is_disabled": 0, "fusion_lon": 0.0, "is_reserved": 0, "name": "8f33397d54408c26b572656dc6abb60a", "type": "electric_bike", "bike_id": "8f33397d54408c26b572656dc6abb60a", "rental_uris": {"ios": "https://dc.lft.to/lastmile_qr_scan", "android": "https://dc.lft.to/lastmile_qr_scan"}, "fusion_lat": 0.0}, {"lat": 38.9197835, "lon": -77.02209833333333, "is_disabled": 0, "fusion_lon": 0.0, "is_reserved": 0, "name": "4035a367adf1bd527aab80f65eb87e68", "type": "electric_scooter", "bike_id": "4035a367adf1bd527aab80f65eb87e68", "rental_uris": {"ios": "https://dc.lft.to/lastmile_qr_scan", "android": "https://dc.lft.to/lastmile_qr_scan"}, "fusion_lat": 0.0}, {"lat": 38.922602499999996, "lon": -77.03684833333334, "is_disabled": 0, "fusion_lon": 0.0, "is_reserved": 0, "name": "1fedc0967fd4f3b6593d87e2bcfdb624", "type": "electric_scooter", "bike_id": "1fedc0967fd4f3b6593d87e2bcfdb624", "rental_uris": {"ios": "https://dc.lft.to/lastmile_qr_scan", "android": "https://dc.lft.to/lastmile_qr_scan"}, "fusion_lat": 0.0}, {"lat": 38.93708866666667, "lon": -77.03519383333334, "is_disabled": 0, "fusion_lon": 0.0, "is_reserved": 0, "name": "6b9e46d53dcf322d5584bac6062fdca4", "type": "electric_scooter", "bike_id": "6b9e46d53dcf322d5584bac6062fdca4", "rental_uris": {"ios": "https://dc.lft.to/lastmile_qr_scan", "android": "https://dc.lft.to/lastmile_qr_scan"}, "fusion_lat": 0.0}, {"lat": 38.90640616666666, "lon": -77.01766483333333, "is_disabled": 0, "fusion_lon": 0.0, "is_reserved": 0, "name": "fd3d9525fe50ccafd181a596e827241f", "type": "electric_scooter", "bike_id": "fd3d9525fe50ccafd181a596e827241f", "rental_uris": {"ios": "https://dc.lft.to/lastmile_qr_scan", "android": "https://dc.lft.to/lastmile_qr_scan"}, "fusion_lat": 0.0}, {"lat": 38.935622333333335, "lon": -77.07461083333334, "is_disabled": 0, "fusion_lon": 0.0, "is_reserved": 0, "name": "a65ef166e951ae6d5ad34d14049c1f7b", "type": "electric_scooter", "bike_id": "a65ef166e951ae6d5ad34d14049c1f7b", "rental_uris": {"ios": "https://dc.lft.to/lastmile_qr_scan", "android": "https://dc.lft.to/lastmile_qr_scan"}, "fusion_lat": 0.0}, {"lat": 38.87184366666666, "lon": -77.0064465, "is_disabled": 0, "fusion_lon": 0.0, "is_reserved": 0, "name": "546cf2ec15725b40a830b27115696532", "type": "electric_scooter", "bike_id": "546cf2ec15725b40a830b27115696532", "rental_uris": {"ios": "https://dc.lft.to/lastmile_qr_scan", "android": "https://dc.lft.to/lastmile_qr_scan"}, "fusion_lat": 0.0}, {"lat": 38.924386, "lon": -77.05218066666667, "is_disabled": 0, "fusion_lon": 0.0, "is_reserved": 0, "name": "88d52d890d951cc23990335c72dd505b", "type": "electric_scooter", "bike_id": "88d52d890d951cc23990335c72dd505b", "rental_uris": {"ios": "https://dc.lft.to/lastmile_qr_scan", "android": "https://dc.lft.to/lastmile_qr_scan"}, "fusion_lat": 0.0}, {"lat": 38.91591833333333, "lon": -77.0447, "is_disabled": 0, "fusion_lon": 0.0, "is_reserved": 0, "name": "582e1d20224102107a40434f7c8dab26", "type": "electric_scooter", "bike_id": "582e1d20224102107a40434f7c8dab26", "rental_uris": {"ios": "https://dc.lft.to/lastmile_qr_scan", "android": "https://dc.lft.to/lastmile_qr_scan"}, "fusion_lat": 0.0}, {"lat": 38.907372333333335, "lon": -77.042188, "is_disabled": 0, "fusion_lon": 0.0, "is_reserved": 0, "name": "a626f9e3a95ad0b9541a142b1554f0cf", "type": "electric_scooter", "bike_id": "a626f9e3a95ad0b9541a142b1554f0cf", "rental_uris": {"ios": "https://dc.lft.to/lastmile_qr_scan", "android": "https://dc.lft.to/lastmile_qr_scan"}, "fusion_lat": 0.0}, {"lat": 38.8875295, "lon": -76.99604983333333, "is_disabled": 0, "fusion_lon": 0.0, "is_reserved": 0, "name": "e2569ec88a42d8111f97c32ae6b06b01", "type": "electric_scooter", "bike_id": "e2569ec88a42d8111f97c32ae6b06b01", "rental_uris": {"ios": "https://dc.lft.to/lastmile_qr_scan", "android": "https://dc.lft.to/lastmile_qr_scan"}, "fusion_lat": 0.0}, {"lat": 38.892541666666666, "lon": -77.00347683333334, "is_disabled": 0, "fusion_lon": 0.0, "is_reserved": 0, "name": "911f6633a39d535436ca9aad5ceea504", "type": "electric_scooter", "bike_id": "911f6633a39d535436ca9aad5ceea504", "rental_uris": {"ios": "https://dc.lft.to/lastmile_qr_scan", "android": "https://dc.lft.to/lastmile_qr_scan"}, "fusion_lat": 0.0}, {"lat": 38.936972833333336, "lon": -77.055974, "is_disabled": 0, "fusion_lon": 0.0, "is_reserved": 0, "name": "e6115268eb3c3dde5b8198c9648243d7", "type": "electric_scooter", "bike_id": "e6115268eb3c3dde5b8198c9648243d7", "rental_uris": {"ios": "https://dc.lft.to/lastmile_qr_scan", "android": "https://dc.lft.to/lastmile_qr_scan"}, "fusion_lat": 0.0}, {"lat": 38.9103295, "lon": -77.03322183333333, "is_disabled": 0, "fusion_lon": 0.0, "is_reserved": 0, "name": "9fccee1e62071475cd7f67b69d596412", "type": "electric_scooter", "bike_id": "9fccee1e62071475cd7f67b69d596412", "rental_uris": {"ios": "https://dc.lft.to/lastmile_qr_scan", "android": "https://dc.lft.to/lastmile_qr_scan"}, "fusion_lat": 0.0}, {"lat": 38.8981395, "lon": -77.0293245, "is_disabled": 0, "fusion_lon": 0.0, "is_reserved": 0, "name": "0f91086b53c543da91a877f670bc38f9", "type": "electric_scooter", "bike_id": "0f91086b53c543da91a877f670bc38f9", "rental_uris": {"ios": "https://dc.lft.to/lastmile_qr_scan", "android": "https://dc.lft.to/lastmile_qr_scan"}, "fusion_lat": 0.0}, {"lat": 38.91277316666667, "lon": -77.036004, "is_disabled": 0, "fusion_lon": 0.0, "is_reserved": 0, "name": "1efd1d67f61c12409a376a770773af62", "type": "electric_scooter", "bike_id": "1efd1d67f61c12409a376a770773af62", "rental_uris": {"ios": "https://dc.lft.to/lastmile_qr_scan", "android": "https://dc.lft.to/lastmile_qr_scan"}, "fusion_lat": 0.0}, {"lat": 38.89579783333333, "lon": -77.127039, "is_disabled": 0, "fusion_lon": 0.0, "is_reserved": 0, "name": "28ffa6389bd39cd92dd409f4b93fe521", "type": "electric_bike", "bike_id": "28ffa6389bd39cd92dd409f4b93fe521", "rental_uris": {"ios": "https://dc.lft.to/lastmile_qr_scan", "android": "https://dc.lft.to/lastmile_qr_scan"}, "fusion_lat": 0.0}, {"lat": 38.873102833333334, "lon": -77.00137133333334, "is_disabled": 0, "fusion_lon": 0.0, "is_reserved": 0, "name": "36552ce43e06f0a0e1a3fbed236bdce5", "type": "electric_scooter", "bike_id": "36552ce43e06f0a0e1a3fbed236bdce5", "rental_uris": {"ios": "https://dc.lft.to/lastmile_qr_scan", "android": "https://dc.lft.to/lastmile_qr_scan"}, "fusion_lat": 0.0}, {"lat": 38.920505166666665, "lon": -77.04190166666666, "is_disabled": 0, "fusion_lon": 0.0, "is_reserved": 0, "name": "0a050604b2fd5bf83fe3bbb840267ec3", "type": "electric_scooter", "bike_id": "0a050604b2fd5bf83fe3bbb840267ec3", "rental_uris": {"ios": "https://dc.lft.to/lastmile_qr_scan", "android": "https://dc.lft.to/lastmile_qr_scan"}, "fusion_lat": 0.0}, {"lat": 38.941717833333335, "lon": -76.9855175, "is_disabled": 0, "fusion_lon": 0.0, "is_reserved": 0, "name": "35f17ee877fbaad4575c53c308deb165", "type": "electric_bike", "bike_id": "35f17ee877fbaad4575c53c308deb165", "rental_uris": {"ios": "https://dc.lft.to/lastmile_qr_scan", "android": "https://dc.lft.to/lastmile_qr_scan"}, "fusion_lat": 0.0}, {"lat": 38.910441166666665, "lon": -77.03442133333333, "is_disabled": 0, "fusion_lon": 0.0, "is_reserved": 0, "name": "c87d709b355b6e7b30c799eefa8baf75", "type": "electric_scooter", "bike_id": "c87d709b355b6e7b30c799eefa8baf75", "rental_uris": {"ios": "https://dc.lft.to/lastmile_qr_scan", "android": "https://dc.lft.to/lastmile_qr_scan"}, "fusion_lat": 0.0}, {"lat": 38.903643, "lon": -77.03828266666666, "is_disabled": 0, "fusion_lon": 0.0, "is_reserved": 0, "name": "cfd9369fe8b145baeec64a767355432d", "type": "electric_scooter", "bike_id": "cfd9369fe8b145baeec64a767355432d", "rental_uris": {"ios": "https://dc.lft.to/lastmile_qr_scan", "android": "https://dc.lft.to/lastmile_qr_scan"}, "fusion_lat": 0.0}, {"lat": 38.91550066666667, "lon": -77.03181966666666, "is_disabled": 0, "fusion_lon": 0.0, "is_reserved": 0, "name": "39f969a2d6ea6202c03473610501f961", "type": "electric_scooter", "bike_id": "39f969a2d6ea6202c03473610501f961", "rental_uris": {"ios": "https://dc.lft.to/lastmile_qr_scan", "android": "https://dc.lft.to/lastmile_qr_scan"}, "fusion_lat": 0.0}, {"lat": 38.917576, "lon": -77.0320565, "is_disabled": 0, "fusion_lon": 0.0, "is_reserved": 0, "name": "d2455126c08a979eb667e1e4caa0ed4f", "type": "electric_scooter", "bike_id": "d2455126c08a979eb667e1e4caa0ed4f", "rental_uris": {"ios": "https://dc.lft.to/lastmile_qr_scan", "android": "https://dc.lft.to/lastmile_qr_scan"}, "fusion_lat": 0.0}, {"lat": 38.89734983333334, "lon": -77.0077765, "is_disabled": 0, "fusion_lon": 0.0, "is_reserved": 0, "name": "0c45de8ebc7acf36ceaa049eeffeced1", "type": "electric_scooter", "bike_id": "0c45de8ebc7acf36ceaa049eeffeced1", "rental_uris": {"ios": "https://dc.lft.to/lastmile_qr_scan", "android": "https://dc.lft.to/lastmile_qr_scan"}, "fusion_lat": 0.0}, {"lat": 38.914203666666666, "lon": -77.0209665, "is_disabled": 0, "fusion_lon": 0.0, "is_reserved": 0, "name": "30180543a2d4297899122cc549f39320", "type": "electric_scooter", "bike_id": "30180543a2d4297899122cc549f39320", "rental_uris": {"ios": "https://dc.lft.to/lastmile_qr_scan", "android": "https://dc.lft.to/lastmile_qr_scan"}, "fusion_lat": 0.0}, {"lat": 38.920980666666665, "lon": -77.02402216666667, "is_disabled": 0, "fusion_lon": 0.0, "is_reserved": 0, "name": "2bc75c297e78746e7bf53270af6219b2", "type": "electric_scooter", "bike_id": "2bc75c297e78746e7bf53270af6219b2", "rental_uris": {"ios": "https://dc.lft.to/lastmile_qr_scan", "android": "https://dc.lft.to/lastmile_qr_scan"}, "fusion_lat": 0.0}, {"lat": 38.9222135, "lon": -77.02212616666667, "is_disabled": 0, "fusion_lon": 0.0, "is_reserved": 0, "name": "3c808f53725d81cfe35f73b5567e4efc", "type": "electric_scooter", "bike_id": "3c808f53725d81cfe35f73b5567e4efc", "rental_uris": {"ios": "https://dc.lft.to/lastmile_qr_scan", "android": "https://dc.lft.to/lastmile_qr_scan"}, "fusion_lat": 0.0}, {"lat": 38.8986515, "lon": -77.0219105, "is_disabled": 0, "fusion_lon": 0.0, "is_reserved": 0, "name": "0ff35625d3abcebb35c2f717d0e47208", "type": "electric_scooter", "bike_id": "0ff35625d3abcebb35c2f717d0e47208", "rental_uris": {"ios": "https://dc.lft.to/lastmile_qr_scan", "android": "https://dc.lft.to/lastmile_qr_scan"}, "fusion_lat": 0.0}, {"lat": 38.92671883333333, "lon": -77.0212235, "is_disabled": 0, "fusion_lon": 0.0, "is_reserved": 0, "name": "054d1ac76d89966b50eda737a12711cb", "type": "electric_scooter", "bike_id": "054d1ac76d89966b50eda737a12711cb", "rental_uris": {"ios": "https://dc.lft.to/lastmile_qr_scan", "android": "https://dc.lft.to/lastmile_qr_scan"}, "fusion_lat": 0.0}, {"lat": 38.92210033333333, "lon": -77.04193016666666, "is_disabled": 0, "fusion_lon": 0.0, "is_reserved": 0, "name": "bf1903ab07b49d03921873f138c5182a", "type": "electric_scooter", "bike_id": "bf1903ab07b49d03921873f138c5182a", "rental_uris": {"ios": "https://dc.lft.to/lastmile_qr_scan", "android": "https://dc.lft.to/lastmile_qr_scan"}, "fusion_lat": 0.0}, {"lat": 38.84716816666667, "lon": -76.96819216666667, "is_disabled": 0, "fusion_lon": 0.0, "is_reserved": 0, "name": "2f07ed7f8f67ae2d4ba8a40644639749", "type": "electric_scooter", "bike_id": "2f07ed7f8f67ae2d4ba8a40644639749", "rental_uris": {"ios": "https://dc.lft.to/lastmile_qr_scan", "android": "https://dc.lft.to/lastmile_qr_scan"}, "fusion_lat": 0.0}, {"lat": 38.903860333333334, "lon": -77.031818, "is_disabled": 0, "fusion_lon": 0.0, "is_reserved": 0, "name": "87e572a79a2f9cc19c04601a438b8faf", "type": "electric_scooter", "bike_id": "87e572a79a2f9cc19c04601a438b8faf", "rental_uris": {"ios": "https://dc.lft.to/lastmile_qr_scan", "android": "https://dc.lft.to/lastmile_qr_scan"}, "fusion_lat": 0.0}, {"lat": 38.89222983333333, "lon": -77.02354283333334, "is_disabled": 0, "fusion_lon": 0.0, "is_reserved": 0, "name": "1545b82ef68deb8853d5d31deb6bdd71", "type": "electric_scooter", "bike_id": "1545b82ef68deb8853d5d31deb6bdd71", "rental_uris": {"ios": "https://dc.lft.to/lastmile_qr_scan", "android": "https://dc.lft.to/lastmile_qr_scan"}, "fusion_lat": 0.0}, {"lat": 38.89847616666667, "lon": -77.043741, "is_disabled": 0, "fusion_lon": 0.0, "is_reserved": 0, "name": "0e2d025f006179c713b9fe42820deb1b", "type": "electric_bike", "bike_id": "0e2d025f006179c713b9fe42820deb1b", "rental_uris": {"ios": "https://dc.lft.to/lastmile_qr_scan", "android": "https://dc.lft.to/lastmile_qr_scan"}, "fusion_lat": 0.0}, {"lat": 38.928931666666664, "lon": -77.03234283333333, "is_disabled": 0, "fusion_lon": 0.0, "is_reserved": 0, "name": "3ad37cd92e4e220e87230dbea2c28c15", "type": "electric_scooter", "bike_id": "3ad37cd92e4e220e87230dbea2c28c15", "rental_uris": {"ios": "https://dc.lft.to/lastmile_qr_scan", "android": "https://dc.lft.to/lastmile_qr_scan"}, "fusion_lat": 0.0}, {"lat": 38.89953283333333, "lon": -77.04498, "is_disabled": 0, "fusion_lon": 0.0, "is_reserved": 0, "name": "aefe52bbb4a57e7376ad985257c5fb37", "type": "electric_scooter", "bike_id": "aefe52bbb4a57e7376ad985257c5fb37", "rental_uris": {"ios": "https://dc.lft.to/lastmile_qr_scan", "android": "https://dc.lft.to/lastmile_qr_scan"}, "fusion_lat": 0.0}, {"lat": 38.91760266666667, "lon": -77.024091, "is_disabled": 0, "fusion_lon": 0.0, "is_reserved": 0, "name": "59a21325e043e1ccbc4e91ccf0c8d177", "type": "electric_scooter", "bike_id": "59a21325e043e1ccbc4e91ccf0c8d177", "rental_uris": {"ios": "https://dc.lft.to/lastmile_qr_scan", "android": "https://dc.lft.to/lastmile_qr_scan"}, "fusion_lat": 0.0}, {"lat": 38.922922, "lon": -77.03677616666667, "is_disabled": 0, "fusion_lon": 0.0, "is_reserved": 0, "name": "570d9cb2ccb12cfff74385ab149fc509", "type": "electric_scooter", "bike_id": "570d9cb2ccb12cfff74385ab149fc509", "rental_uris": {"ios": "https://dc.lft.to/lastmile_qr_scan", "android": "https://dc.lft.to/lastmile_qr_scan"}, "fusion_lat": 0.0}, {"lat": 38.90611833333333, "lon": -77.043557, "is_disabled": 0, "fusion_lon": 0.0, "is_reserved": 0, "name": "0bc5bdad62956b036d2769fd7d5eb59b", "type": "electric_scooter", "bike_id": "0bc5bdad62956b036d2769fd7d5eb59b", "rental_uris": {"ios": "https://dc.lft.to/lastmile_qr_scan", "android": "https://dc.lft.to/lastmile_qr_scan"}, "fusion_lat": 0.0}, {"lat": 38.94734566666666, "lon": -77.01616666666666, "is_disabled": 0, "fusion_lon": 0.0, "is_reserved": 0, "name": "faae1bae1568a35a00ff9aaf97229f90", "type": "electric_scooter", "bike_id": "faae1bae1568a35a00ff9aaf97229f90", "rental_uris": {"ios": "https://dc.lft.to/lastmile_qr_scan", "android": "https://dc.lft.to/lastmile_qr_scan"}, "fusion_lat": 0.0}, {"lat": 38.913458, "lon": -77.02392466666667, "is_disabled": 0, "fusion_lon": 0.0, "is_reserved": 0, "name": "33a2f10e53aecdeadbc10250281eeee3", "type": "electric_scooter", "bike_id": "33a2f10e53aecdeadbc10250281eeee3", "rental_uris": {"ios": "https://dc.lft.to/lastmile_qr_scan", "android": "https://dc.lft.to/lastmile_qr_scan"}, "fusion_lat": 0.0}, {"lat": 38.915981333333335, "lon": -77.04662233333333, "is_disabled": 0, "fusion_lon": 0.0, "is_reserved": 0, "name": "e873c7e3fff48c69e5c9105fc635e60d", "type": "electric_scooter", "bike_id": "e873c7e3fff48c69e5c9105fc635e60d", "rental_uris": {"ios": "https://dc.lft.to/lastmile_qr_scan", "android": "https://dc.lft.to/lastmile_qr_scan"}, "fusion_lat": 0.0}, {"lat": 38.90676066666666, "lon": -77.03807816666666, "is_disabled": 0, "fusion_lon": 0.0, "is_reserved": 0, "name": "7f5d2db41d84c6ac670bb60872e2a247", "type": "electric_scooter", "bike_id": "7f5d2db41d84c6ac670bb60872e2a247", "rental_uris": {"ios": "https://dc.lft.to/lastmile_qr_scan", "android": "https://dc.lft.to/lastmile_qr_scan"}, "fusion_lat": 0.0}, {"lat": 38.899116, "lon": -76.94549283333333, "is_disabled": 0, "fusion_lon": 0.0, "is_reserved": 0, "name": "db479c7d0900dca07e4efbb5fa035760", "type": "electric_scooter", "bike_id": "db479c7d0900dca07e4efbb5fa035760", "rental_uris": {"ios": "https://dc.lft.to/lastmile_qr_scan", "android": "https://dc.lft.to/lastmile_qr_scan"}, "fusion_lat": 0.0}, {"lat": 38.911520833333334, "lon": -77.0346705, "is_disabled": 0, "fusion_lon": 0.0, "is_reserved": 0, "name": "ce825ba9b25f093220044e310606c0df", "type": "electric_scooter", "bike_id": "ce825ba9b25f093220044e310606c0df", "rental_uris": {"ios": "https://dc.lft.to/lastmile_qr_scan", "android": "https://dc.lft.to/lastmile_qr_scan"}, "fusion_lat": 0.0}, {"lat": 38.832485166666665, "lon": -77.00727166666667, "is_disabled": 0, "fusion_lon": 0.0, "is_reserved": 0, "name": "cae35be345188bfaebc7fac29860a0f2", "type": "electric_bike", "bike_id": "cae35be345188bfaebc7fac29860a0f2", "rental_uris": {"ios": "https://dc.lft.to/lastmile_qr_scan", "android": "https://dc.lft.to/lastmile_qr_scan"}, "fusion_lat": 0.0}, {"lat": 38.908118333333334, "lon": -77.03456783333333, "is_disabled": 0, "fusion_lon": 0.0, "is_reserved": 0, "name": "a72a894f7ecd2261e96df6efefb4c09a", "type": "electric_scooter", "bike_id": "a72a894f7ecd2261e96df6efefb4c09a", "rental_uris": {"ios": "https://dc.lft.to/lastmile_qr_scan", "android": "https://dc.lft.to/lastmile_qr_scan"}, "fusion_lat": 0.0}, {"lat": 38.91020783333333, "lon": -77.02934533333334, "is_disabled": 0, "fusion_lon": 0.0, "is_reserved": 0, "name": "68d4789ab39706284a367053280abad3", "type": "electric_scooter", "bike_id": "68d4789ab39706284a367053280abad3", "rental_uris": {"ios": "https://dc.lft.to/lastmile_qr_scan", "android": "https://dc.lft.to/lastmile_qr_scan"}, "fusion_lat": 0.0}, {"lat": 38.9025335, "lon": -77.02654583333333, "is_disabled": 0, "fusion_lon": 0.0, "is_reserved": 0, "name": "1fafd78c41981a187f6794c28b33421e", "type": "electric_scooter", "bike_id": "1fafd78c41981a187f6794c28b33421e", "rental_uris": {"ios": "https://dc.lft.to/lastmile_qr_scan", "android": "https://dc.lft.to/lastmile_qr_scan"}, "fusion_lat": 0.0}, {"lat": 38.9007635, "lon": -77.03367683333333, "is_disabled": 0, "fusion_lon": 0.0, "is_reserved": 0, "name": "7cba3e7fc71d9a1cd218e6af9c413b54", "type": "electric_scooter", "bike_id": "7cba3e7fc71d9a1cd218e6af9c413b54", "rental_uris": {"ios": "https://dc.lft.to/lastmile_qr_scan", "android": "https://dc.lft.to/lastmile_qr_scan"}, "fusion_lat": 0.0}, {"lat": 38.91261333333333, "lon": -77.01562333333334, "is_disabled": 0, "fusion_lon": 0.0, "is_reserved": 0, "name": "3d0f52b4d407bbded07b4a20e454ca0c", "type": "electric_scooter", "bike_id": "3d0f52b4d407bbded07b4a20e454ca0c", "rental_uris": {"ios": "https://dc.lft.to/lastmile_qr_scan", "android": "https://dc.lft.to/lastmile_qr_scan"}, "fusion_lat": 0.0}, {"lat": 38.923180333333335, "lon": -77.034078, "is_disabled": 0, "fusion_lon": 0.0, "is_reserved": 0, "name": "d0596e22e0a3bef469da30f6a5ebe612", "type": "electric_scooter", "bike_id": "d0596e22e0a3bef469da30f6a5ebe612", "rental_uris": {"ios": "https://dc.lft.to/lastmile_qr_scan", "android": "https://dc.lft.to/lastmile_qr_scan"}, "fusion_lat": 0.0}, {"lat": 38.93382066666667, "lon": -77.0297345, "is_disabled": 0, "fusion_lon": 0.0, "is_reserved": 0, "name": "15c65063a1bdc3d3499f748ab0c38a69", "type": "electric_scooter", "bike_id": "15c65063a1bdc3d3499f748ab0c38a69", "rental_uris": {"ios": "https://dc.lft.to/lastmile_qr_scan", "android": "https://dc.lft.to/lastmile_qr_scan"}, "fusion_lat": 0.0}, {"lat": 38.90111483333333, "lon": -77.00888583333334, "is_disabled": 0, "fusion_lon": 0.0, "is_reserved": 0, "name": "b60df435c1adc8c7e1bbed95c5a6e578", "type": "electric_scooter", "bike_id": "b60df435c1adc8c7e1bbed95c5a6e578", "rental_uris": {"ios": "https://dc.lft.to/lastmile_qr_scan", "android": "https://dc.lft.to/lastmile_qr_scan"}, "fusion_lat": 0.0}, {"lat": 38.85521283333333, "lon": -76.98426066666667, "is_disabled": 0, "fusion_lon": 0.0, "is_reserved": 0, "name": "3160cacb458bff6b5a934858780e9c06", "type": "electric_bike", "bike_id": "3160cacb458bff6b5a934858780e9c06", "rental_uris": {"ios": "https://dc.lft.to/lastmile_qr_scan", "android": "https://dc.lft.to/lastmile_qr_scan"}, "fusion_lat": 0.0}, {"lat": 38.8970935, "lon": -77.02674916666666, "is_disabled": 0, "fusion_lon": 0.0, "is_reserved": 0, "name": "fe744ceb301e226306c37d67dd942307", "type": "electric_scooter", "bike_id": "fe744ceb301e226306c37d67dd942307", "rental_uris": {"ios": "https://dc.lft.to/lastmile_qr_scan", "android": "https://dc.lft.to/lastmile_qr_scan"}, "fusion_lat": 0.0}, {"lat": 38.918173833333334, "lon": -77.04175716666667, "is_disabled": 0, "fusion_lon": 0.0, "is_reserved": 0, "name": "cef6d042105ff66828e727a88be233d8", "type": "electric_scooter", "bike_id": "cef6d042105ff66828e727a88be233d8", "rental_uris": {"ios": "https://dc.lft.to/lastmile_qr_scan", "android": "https://dc.lft.to/lastmile_qr_scan"}, "fusion_lat": 0.0}, {"lat": 38.91267916666666, "lon": -77.04480083333333, "is_disabled": 0, "fusion_lon": 0.0, "is_reserved": 0, "name": "4c4a7d3be8f44778714ca816a5855af4", "type": "electric_scooter", "bike_id": "4c4a7d3be8f44778714ca816a5855af4", "rental_uris": {"ios": "https://dc.lft.to/lastmile_qr_scan", "android": "https://dc.lft.to/lastmile_qr_scan"}, "fusion_lat": 0.0}, {"lat": 38.87688883333333, "lon": -77.00360466666666, "is_disabled": 0, "fusion_lon": 0.0, "is_reserved": 0, "name": "9c3ac42a097662e2333ebf1359229538", "type": "electric_scooter", "bike_id": "9c3ac42a097662e2333ebf1359229538", "rental_uris": {"ios": "https://dc.lft.to/lastmile_qr_scan", "android": "https://dc.lft.to/lastmile_qr_scan"}, "fusion_lat": 0.0}, {"lat": 38.90727583333333, "lon": -77.0095305, "is_disabled": 0, "fusion_lon": 0.0, "is_reserved": 0, "name": "8230a3c12c4aa54bd8fe63dcc10e844a", "type": "electric_scooter", "bike_id": "8230a3c12c4aa54bd8fe63dcc10e844a", "rental_uris": {"ios": "https://dc.lft.to/lastmile_qr_scan", "android": "https://dc.lft.to/lastmile_qr_scan"}, "fusion_lat": 0.0}, {"lat": 38.928962166666665, "lon": -77.058051, "is_disabled": 0, "fusion_lon": 0.0, "is_reserved": 0, "name": "f237b856613b3ce4f92525b4888d9755", "type": "electric_scooter", "bike_id": "f237b856613b3ce4f92525b4888d9755", "rental_uris": {"ios": "https://dc.lft.to/lastmile_qr_scan", "android": "https://dc.lft.to/lastmile_qr_scan"}, "fusion_lat": 0.0}, {"lat": 38.847565833333334, "lon": -76.99499483333334, "is_disabled": 0, "fusion_lon": 0.0, "is_reserved": 0, "name": "e9d76c7bf3f3589d5a7550d7accb9a86", "type": "electric_scooter", "bike_id": "e9d76c7bf3f3589d5a7550d7accb9a86", "rental_uris": {"ios": "https://dc.lft.to/lastmile_qr_scan", "android": "https://dc.lft.to/lastmile_qr_scan"}, "fusion_lat": 0.0}, {"lat": 38.906509166666666, "lon": -77.01416033333334, "is_disabled": 0, "fusion_lon": 0.0, "is_reserved": 0, "name": "249b026ba9c7cb97d1ac8a3ecc0df74e", "type": "electric_scooter", "bike_id": "249b026ba9c7cb97d1ac8a3ecc0df74e", "rental_uris": {"ios": "https://dc.lft.to/lastmile_qr_scan", "android": "https://dc.lft.to/lastmile_qr_scan"}, "fusion_lat": 0.0}, {"lat": 38.92384066666666, "lon": -77.03672366666666, "is_disabled": 0, "fusion_lon": 0.0, "is_reserved": 0, "name": "b9281cbee165f2478bfa92d22c4c82b0", "type": "electric_scooter", "bike_id": "b9281cbee165f2478bfa92d22c4c82b0", "rental_uris": {"ios": "https://dc.lft.to/lastmile_qr_scan", "android": "https://dc.lft.to/lastmile_qr_scan"}, "fusion_lat": 0.0}, {"lat": 38.898578, "lon": -77.01386966666666, "is_disabled": 0, "fusion_lon": 0.0, "is_reserved": 0, "name": "8595a534da24e75195935469b3651e92", "type": "electric_scooter", "bike_id": "8595a534da24e75195935469b3651e92", "rental_uris": {"ios": "https://dc.lft.to/lastmile_qr_scan", "android": "https://dc.lft.to/lastmile_qr_scan"}, "fusion_lat": 0.0}, {"lat": 38.92442066666667, "lon": -76.98987966666667, "is_disabled": 0, "fusion_lon": 0.0, "is_reserved": 0, "name": "677cbc180e383883b2d11921abc822e3", "type": "electric_scooter", "bike_id": "677cbc180e383883b2d11921abc822e3", "rental_uris": {"ios": "https://dc.lft.to/lastmile_qr_scan", "android": "https://dc.lft.to/lastmile_qr_scan"}, "fusion_lat": 0.0}, {"lat": 38.896973, "lon": -76.96306033333333, "is_disabled": 0, "fusion_lon": 0.0, "is_reserved": 0, "name": "c99896ea8aaa899c8fa2da443b9f84df", "type": "electric_bike", "bike_id": "c99896ea8aaa899c8fa2da443b9f84df", "rental_uris": {"ios": "https://dc.lft.to/lastmile_qr_scan", "android": "https://dc.lft.to/lastmile_qr_scan"}, "fusion_lat": 0.0}, {"lat": 38.90486966666667, "lon": -76.9887915, "is_disabled": 0, "fusion_lon": 0.0, "is_reserved": 0, "name": "36b4f24f4de40b1a71a28d41db331bcd", "type": "electric_scooter", "bike_id": "36b4f24f4de40b1a71a28d41db331bcd", "rental_uris": {"ios": "https://dc.lft.to/lastmile_qr_scan", "android": "https://dc.lft.to/lastmile_qr_scan"}, "fusion_lat": 0.0}, {"lat": 38.903765666666665, "lon": -77.0503235, "is_disabled": 0, "fusion_lon": 0.0, "is_reserved": 0, "name": "1731a0a5e466529097a9f0fe779892f1", "type": "electric_scooter", "bike_id": "1731a0a5e466529097a9f0fe779892f1", "rental_uris": {"ios": "https://dc.lft.to/lastmile_qr_scan", "android": "https://dc.lft.to/lastmile_qr_scan"}, "fusion_lat": 0.0}, {"lat": 38.930222666666666, "lon": -77.0278555, "is_disabled": 0, "fusion_lon": 0.0, "is_reserved": 0, "name": "b2e61fec67109c7357140b428c677201", "type": "electric_scooter", "bike_id": "b2e61fec67109c7357140b428c677201", "rental_uris": {"ios": "https://dc.lft.to/lastmile_qr_scan", "android": "https://dc.lft.to/lastmile_qr_scan"}, "fusion_lat": 0.0}, {"lat": 38.9073255, "lon": -77.01307016666667, "is_disabled": 0, "fusion_lon": 0.0, "is_reserved": 0, "name": "075f09aa18a215265ed557ce8b7c800b", "type": "electric_scooter", "bike_id": "075f09aa18a215265ed557ce8b7c800b", "rental_uris": {"ios": "https://dc.lft.to/lastmile_qr_scan", "android": "https://dc.lft.to/lastmile_qr_scan"}, "fusion_lat": 0.0}, {"lat": 38.9231645, "lon": -77.03977483333334, "is_disabled": 0, "fusion_lon": 0.0, "is_reserved": 0, "name": "e03c1ecb8fee3c564585ea8f49eb4c5f", "type": "electric_scooter", "bike_id": "e03c1ecb8fee3c564585ea8f49eb4c5f", "rental_uris": {"ios": "https://dc.lft.to/lastmile_qr_scan", "android": "https://dc.lft.to/lastmile_qr_scan"}, "fusion_lat": 0.0}, {"lat": 38.91800883333333, "lon": -77.02487716666667, "is_disabled": 0, "fusion_lon": 0.0, "is_reserved": 0, "name": "f4f29cbe26dd2d2b45d0cdaf11b1802e", "type": "electric_scooter", "bike_id": "f4f29cbe26dd2d2b45d0cdaf11b1802e", "rental_uris": {"ios": "https://dc.lft.to/lastmile_qr_scan", "android": "https://dc.lft.to/lastmile_qr_scan"}, "fusion_lat": 0.0}, {"lat": 38.909918, "lon": -77.032005, "is_disabled": 0, "fusion_lon": 0.0, "is_reserved": 0, "name": "a357d19f596e3f769aabde36476536e7", "type": "electric_scooter", "bike_id": "a357d19f596e3f769aabde36476536e7", "rental_uris": {"ios": "https://dc.lft.to/lastmile_qr_scan", "android": "https://dc.lft.to/lastmile_qr_scan"}, "fusion_lat": 0.0}, {"lat": 38.907176, "lon": -77.07634966666667, "is_disabled": 0, "fusion_lon": 0.0, "is_reserved": 0, "name": "88af63cd1cb0a11af0d1cf3c53b2adb9", "type": "electric_scooter", "bike_id": "88af63cd1cb0a11af0d1cf3c53b2adb9", "rental_uris": {"ios": "https://dc.lft.to/lastmile_qr_scan", "android": "https://dc.lft.to/lastmile_qr_scan"}, "fusion_lat": 0.0}, {"lat": 38.88934533333333, "lon": -76.9937285, "is_disabled": 0, "fusion_lon": 0.0, "is_reserved": 0, "name": "08a3229862e898f95e9dd6a264692093", "type": "electric_scooter", "bike_id": "08a3229862e898f95e9dd6a264692093", "rental_uris": {"ios": "https://dc.lft.to/lastmile_qr_scan", "android": "https://dc.lft.to/lastmile_qr_scan"}, "fusion_lat": 0.0}, {"lat": 38.88753466666667, "lon": -76.99609783333334, "is_disabled": 0, "fusion_lon": 0.0, "is_reserved": 0, "name": "d29b77ccb86d4dd6343dfe5d836c963d", "type": "electric_scooter", "bike_id": "d29b77ccb86d4dd6343dfe5d836c963d", "rental_uris": {"ios": "https://dc.lft.to/lastmile_qr_scan", "android": "https://dc.lft.to/lastmile_qr_scan"}, "fusion_lat": 0.0}, {"lat": 38.90370566666667, "lon": -77.031574, "is_disabled": 0, "fusion_lon": 0.0, "is_reserved": 0, "name": "10fba53fe5f8dee22f6a85afd98cc12f", "type": "electric_scooter", "bike_id": "10fba53fe5f8dee22f6a85afd98cc12f", "rental_uris": {"ios": "https://dc.lft.to/lastmile_qr_scan", "android": "https://dc.lft.to/lastmile_qr_scan"}, "fusion_lat": 0.0}, {"lat": 38.88119666666667, "lon": -77.01649, "is_disabled": 0, "fusion_lon": 0.0, "is_reserved": 0, "name": "ec197727ce12f30a0bd848a8066f45dc", "type": "electric_scooter", "bike_id": "ec197727ce12f30a0bd848a8066f45dc", "rental_uris": {"ios": "https://dc.lft.to/lastmile_qr_scan", "android": "https://dc.lft.to/lastmile_qr_scan"}, "fusion_lat": 0.0}, {"lat": 38.9274225, "lon": -77.02432216666666, "is_disabled": 0, "fusion_lon": 0.0, "is_reserved": 0, "name": "836669ad7f942ad57fff7ac8c8fa7db5", "type": "electric_scooter", "bike_id": "836669ad7f942ad57fff7ac8c8fa7db5", "rental_uris": {"ios": "https://dc.lft.to/lastmile_qr_scan", "android": "https://dc.lft.to/lastmile_qr_scan"}, "fusion_lat": 0.0}, {"lat": 38.90273066666666, "lon": -77.03465883333334, "is_disabled": 0, "fusion_lon": 0.0, "is_reserved": 0, "name": "debfae9c503e5603a4ed6089faeaca9e", "type": "electric_scooter", "bike_id": "debfae9c503e5603a4ed6089faeaca9e", "rental_uris": {"ios": "https://dc.lft.to/lastmile_qr_scan", "android": "https://dc.lft.to/lastmile_qr_scan"}, "fusion_lat": 0.0}, {"lat": 38.91787716666666, "lon": -77.02300066666666, "is_disabled": 0, "fusion_lon": 0.0, "is_reserved": 0, "name": "74b9e530310c5fbd2ca1ba04a1de4120", "type": "electric_scooter", "bike_id": "74b9e530310c5fbd2ca1ba04a1de4120", "rental_uris": {"ios": "https://dc.lft.to/lastmile_qr_scan", "android": "https://dc.lft.to/lastmile_qr_scan"}, "fusion_lat": 0.0}, {"lat": 38.922996499999996, "lon": -77.023326, "is_disabled": 0, "fusion_lon": 0.0, "is_reserved": 0, "name": "1060a0ce5efd99efd3437da73df7bcf4", "type": "electric_scooter", "bike_id": "1060a0ce5efd99efd3437da73df7bcf4", "rental_uris": {"ios": "https://dc.lft.to/lastmile_qr_scan", "android": "https://dc.lft.to/lastmile_qr_scan"}, "fusion_lat": 0.0}, {"lat": 38.89220183333333, "lon": -77.023544, "is_disabled": 0, "fusion_lon": 0.0, "is_reserved": 0, "name": "6ea5a06e78c756d48ac6500a20ac5bde", "type": "electric_scooter", "bike_id": "6ea5a06e78c756d48ac6500a20ac5bde", "rental_uris": {"ios": "https://dc.lft.to/lastmile_qr_scan", "android": "https://dc.lft.to/lastmile_qr_scan"}, "fusion_lat": 0.0}, {"lat": 38.905052833333336, "lon": -77.056945, "is_disabled": 0, "fusion_lon": 0.0, "is_reserved": 0, "name": "b1f2aa98ba853604c1b3b98a34325ee8", "type": "electric_scooter", "bike_id": "b1f2aa98ba853604c1b3b98a34325ee8", "rental_uris": {"ios": "https://dc.lft.to/lastmile_qr_scan", "android": "https://dc.lft.to/lastmile_qr_scan"}, "fusion_lat": 0.0}, {"lat": 38.899099, "lon": -77.02389766666667, "is_disabled": 0, "fusion_lon": 0.0, "is_reserved": 0, "name": "ced30fa0f81c46b58df7f89aa58146a3", "type": "electric_scooter", "bike_id": "ced30fa0f81c46b58df7f89aa58146a3", "rental_uris": {"ios": "https://dc.lft.to/lastmile_qr_scan", "android": "https://dc.lft.to/lastmile_qr_scan"}, "fusion_lat": 0.0}, {"lat": 38.90270983333333, "lon": -77.0628755, "is_disabled": 0, "fusion_lon": 0.0, "is_reserved": 0, "name": "b3c1a39880d4ac0416690069e29d0219", "type": "electric_scooter", "bike_id": "b3c1a39880d4ac0416690069e29d0219", "rental_uris": {"ios": "https://dc.lft.to/lastmile_qr_scan", "android": "https://dc.lft.to/lastmile_qr_scan"}, "fusion_lat": 0.0}, {"lat": 38.879607166666666, "lon": -76.995139, "is_disabled": 0, "fusion_lon": 0.0, "is_reserved": 0, "name": "174a83e1c663ec392be1600b08aa172d", "type": "electric_scooter", "bike_id": "174a83e1c663ec392be1600b08aa172d", "rental_uris": {"ios": "https://dc.lft.to/lastmile_qr_scan", "android": "https://dc.lft.to/lastmile_qr_scan"}, "fusion_lat": 0.0}, {"lat": 38.913249666666665, "lon": -77.0317645, "is_disabled": 0, "fusion_lon": 0.0, "is_reserved": 0, "name": "1234563575dede03ba5bfe99389e3ff5", "type": "electric_scooter", "bike_id": "1234563575dede03ba5bfe99389e3ff5", "rental_uris": {"ios": "https://dc.lft.to/lastmile_qr_scan", "android": "https://dc.lft.to/lastmile_qr_scan"}, "fusion_lat": 0.0}, {"lat": 38.90466516666667, "lon": -76.995043, "is_disabled": 0, "fusion_lon": 0.0, "is_reserved": 0, "name": "b25b5ff303f9a4c69381fe51d2ab51f4", "type": "electric_scooter", "bike_id": "b25b5ff303f9a4c69381fe51d2ab51f4", "rental_uris": {"ios": "https://dc.lft.to/lastmile_qr_scan", "android": "https://dc.lft.to/lastmile_qr_scan"}, "fusion_lat": 0.0}, {"lat": 38.92297033333333, "lon": -77.043012, "is_disabled": 0, "fusion_lon": 0.0, "is_reserved": 0, "name": "8812bc6b63f87fb7b2c45b62ca599c63", "type": "electric_scooter", "bike_id": "8812bc6b63f87fb7b2c45b62ca599c63", "rental_uris": {"ios": "https://dc.lft.to/lastmile_qr_scan", "android": "https://dc.lft.to/lastmile_qr_scan"}, "fusion_lat": 0.0}, {"lat": 38.903641, "lon": -77.04020883333334, "is_disabled": 0, "fusion_lon": 0.0, "is_reserved": 0, "name": "76f87e03b478af53b8cb9e73c06bca91", "type": "electric_scooter", "bike_id": "76f87e03b478af53b8cb9e73c06bca91", "rental_uris": {"ios": "https://dc.lft.to/lastmile_qr_scan", "android": "https://dc.lft.to/lastmile_qr_scan"}, "fusion_lat": 0.0}, {"lat": 38.92896916666667, "lon": -77.01630583333333, "is_disabled": 0, "fusion_lon": 0.0, "is_reserved": 0, "name": "8290be9af9f750f7dc6341ba9ee63630", "type": "electric_scooter", "bike_id": "8290be9af9f750f7dc6341ba9ee63630", "rental_uris": {"ios": "https://dc.lft.to/lastmile_qr_scan", "android": "https://dc.lft.to/lastmile_qr_scan"}, "fusion_lat": 0.0}, {"lat": 38.89547966666667, "lon": -77.00914016666667, "is_disabled": 0, "fusion_lon": 0.0, "is_reserved": 0, "name": "28725f99b606967b75ca0decbf926217", "type": "electric_scooter", "bike_id": "28725f99b606967b75ca0decbf926217", "rental_uris": {"ios": "https://dc.lft.to/lastmile_qr_scan", "android": "https://dc.lft.to/lastmile_qr_scan"}, "fusion_lat": 0.0}, {"lat": 38.89820683333333, "lon": -77.03039733333334, "is_disabled": 0, "fusion_lon": 0.0, "is_reserved": 0, "name": "454c640c9c05904cdccc37cb90330118", "type": "electric_scooter", "bike_id": "454c640c9c05904cdccc37cb90330118", "rental_uris": {"ios": "https://dc.lft.to/lastmile_qr_scan", "android": "https://dc.lft.to/lastmile_qr_scan"}, "fusion_lat": 0.0}, {"lat": 38.89829116666667, "lon": -77.0075285, "is_disabled": 0, "fusion_lon": 0.0, "is_reserved": 0, "name": "4d3da79a62b20899a74f32460c22e01e", "type": "electric_scooter", "bike_id": "4d3da79a62b20899a74f32460c22e01e", "rental_uris": {"ios": "https://dc.lft.to/lastmile_qr_scan", "android": "https://dc.lft.to/lastmile_qr_scan"}, "fusion_lat": 0.0}, {"lat": 38.86661, "lon": -76.9890095, "is_disabled": 0, "fusion_lon": 0.0, "is_reserved": 0, "name": "b38bbd7138cdbb114933858824dcdd55", "type": "electric_scooter", "bike_id": "b38bbd7138cdbb114933858824dcdd55", "rental_uris": {"ios": "https://dc.lft.to/lastmile_qr_scan", "android": "https://dc.lft.to/lastmile_qr_scan"}, "fusion_lat": 0.0}, {"lat": 38.89912266666666, "lon": -77.0137775, "is_disabled": 0, "fusion_lon": 0.0, "is_reserved": 0, "name": "7e6269732cc725a50f4147b1e671fde6", "type": "electric_scooter", "bike_id": "7e6269732cc725a50f4147b1e671fde6", "rental_uris": {"ios": "https://dc.lft.to/lastmile_qr_scan", "android": "https://dc.lft.to/lastmile_qr_scan"}, "fusion_lat": 0.0}, {"lat": 38.87336766666667, "lon": -77.00059416666667, "is_disabled": 0, "fusion_lon": 0.0, "is_reserved": 0, "name": "7170593b9d4f31c5d3f2daa8c74c6552", "type": "electric_scooter", "bike_id": "7170593b9d4f31c5d3f2daa8c74c6552", "rental_uris": {"ios": "https://dc.lft.to/lastmile_qr_scan", "android": "https://dc.lft.to/lastmile_qr_scan"}, "fusion_lat": 0.0}, {"lat": 38.89920383333333, "lon": -77.04016866666667, "is_disabled": 0, "fusion_lon": 0.0, "is_reserved": 0, "name": "6bade7715c4d4a18750310c06733fb80", "type": "electric_scooter", "bike_id": "6bade7715c4d4a18750310c06733fb80", "rental_uris": {"ios": "https://dc.lft.to/lastmile_qr_scan", "android": "https://dc.lft.to/lastmile_qr_scan"}, "fusion_lat": 0.0}, {"lat": 38.8618665, "lon": -77.07598333333334, "is_disabled": 0, "fusion_lon": 0.0, "is_reserved": 0, "name": "b711ecd6533177664365ddf7b4ae44e1", "type": "electric_bike", "bike_id": "b711ecd6533177664365ddf7b4ae44e1", "rental_uris": {"ios": "https://dc.lft.to/lastmile_qr_scan", "android": "https://dc.lft.to/lastmile_qr_scan"}, "fusion_lat": 0.0}, {"lat": 38.9067875, "lon": -77.03668766666667, "is_disabled": 0, "fusion_lon": 0.0, "is_reserved": 0, "name": "73442a5699f98955559bf0e89b86099b", "type": "electric_scooter", "bike_id": "73442a5699f98955559bf0e89b86099b", "rental_uris": {"ios": "https://dc.lft.to/lastmile_qr_scan", "android": "https://dc.lft.to/lastmile_qr_scan"}, "fusion_lat": 0.0}, {"lat": 38.903778, "lon": -77.042902, "is_disabled": 0, "fusion_lon": 0.0, "is_reserved": 0, "name": "647eba2390379d1cffcd6ccfee121695", "type": "electric_scooter", "bike_id": "647eba2390379d1cffcd6ccfee121695", "rental_uris": {"ios": "https://dc.lft.to/lastmile_qr_scan", "android": "https://dc.lft.to/lastmile_qr_scan"}, "fusion_lat": 0.0}, {"lat": 38.896876, "lon": -77.00498816666666, "is_disabled": 0, "fusion_lon": 0.0, "is_reserved": 0, "name": "a81de0032642fb3720446e2c25efb600", "type": "electric_scooter", "bike_id": "a81de0032642fb3720446e2c25efb600", "rental_uris": {"ios": "https://dc.lft.to/lastmile_qr_scan", "android": "https://dc.lft.to/lastmile_qr_scan"}, "fusion_lat": 0.0}, {"lat": 38.89545716666667, "lon": -76.983387, "is_disabled": 0, "fusion_lon": 0.0, "is_reserved": 0, "name": "a5e40652a75279097a7deafec6f09337", "type": "electric_scooter", "bike_id": "a5e40652a75279097a7deafec6f09337", "rental_uris": {"ios": "https://dc.lft.to/lastmile_qr_scan", "android": "https://dc.lft.to/lastmile_qr_scan"}, "fusion_lat": 0.0}, {"lat": 38.9679735, "lon": -77.02427966666667, "is_disabled": 0, "fusion_lon": 0.0, "is_reserved": 0, "name": "a646d187638da9947ece05b3d6f842f0", "type": "electric_scooter", "bike_id": "a646d187638da9947ece05b3d6f842f0", "rental_uris": {"ios": "https://dc.lft.to/lastmile_qr_scan", "android": "https://dc.lft.to/lastmile_qr_scan"}, "fusion_lat": 0.0}, {"lat": 38.9418425, "lon": -77.02488966666667, "is_disabled": 0, "fusion_lon": 0.0, "is_reserved": 0, "name": "1ae976d2bf4de0cce590eeb1b299e9f2", "type": "electric_scooter", "bike_id": "1ae976d2bf4de0cce590eeb1b299e9f2", "rental_uris": {"ios": "https://dc.lft.to/lastmile_qr_scan", "android": "https://dc.lft.to/lastmile_qr_scan"}, "fusion_lat": 0.0}, {"lat": 38.9008325, "lon": -76.92960283333333, "is_disabled": 0, "fusion_lon": 0.0, "is_reserved": 0, "name": "5c08aca212aa90b877c08329c7bc3893", "type": "electric_scooter", "bike_id": "5c08aca212aa90b877c08329c7bc3893", "rental_uris": {"ios": "https://dc.lft.to/lastmile_qr_scan", "android": "https://dc.lft.to/lastmile_qr_scan"}, "fusion_lat": 0.0}, {"lat": 38.91752783333333, "lon": -77.02489733333333, "is_disabled": 0, "fusion_lon": 0.0, "is_reserved": 0, "name": "3d455d4972cbe42cb9f0ecec957e33ba", "type": "electric_scooter", "bike_id": "3d455d4972cbe42cb9f0ecec957e33ba", "rental_uris": {"ios": "https://dc.lft.to/lastmile_qr_scan", "android": "https://dc.lft.to/lastmile_qr_scan"}, "fusion_lat": 0.0}, {"lat": 38.83742266666667, "lon": -76.99811783333334, "is_disabled": 0, "fusion_lon": 0.0, "is_reserved": 0, "name": "a9d6a24cd9957a648b650257e88d53c4", "type": "electric_bike", "bike_id": "a9d6a24cd9957a648b650257e88d53c4", "rental_uris": {"ios": "https://dc.lft.to/lastmile_qr_scan", "android": "https://dc.lft.to/lastmile_qr_scan"}, "fusion_lat": 0.0}, {"lat": 38.94820933333333, "lon": -77.02981133333333, "is_disabled": 0, "fusion_lon": 0.0, "is_reserved": 0, "name": "32e738175f0a19c87dc4019495307542", "type": "electric_bike", "bike_id": "32e738175f0a19c87dc4019495307542", "rental_uris": {"ios": "https://dc.lft.to/lastmile_qr_scan", "android": "https://dc.lft.to/lastmile_qr_scan"}, "fusion_lat": 0.0}, {"lat": 38.884283833333335, "lon": -76.95758133333334, "is_disabled": 0, "fusion_lon": 0.0, "is_reserved": 0, "name": "2742a07314d732a72e2483e03df4bbbc", "type": "electric_scooter", "bike_id": "2742a07314d732a72e2483e03df4bbbc", "rental_uris": {"ios": "https://dc.lft.to/lastmile_qr_scan", "android": "https://dc.lft.to/lastmile_qr_scan"}, "fusion_lat": 0.0}, {"lat": 38.905921166666666, "lon": -77.0403795, "is_disabled": 0, "fusion_lon": 0.0, "is_reserved": 0, "name": "3a3076b4b920c9ae670d8436e4179a44", "type": "electric_scooter", "bike_id": "3a3076b4b920c9ae670d8436e4179a44", "rental_uris": {"ios": "https://dc.lft.to/lastmile_qr_scan", "android": "https://dc.lft.to/lastmile_qr_scan"}, "fusion_lat": 0.0}, {"lat": 38.90115266666667, "lon": -77.03379883333334, "is_disabled": 0, "fusion_lon": 0.0, "is_reserved": 0, "name": "8daa6d14776916a9f0d4da765954eb33", "type": "electric_scooter", "bike_id": "8daa6d14776916a9f0d4da765954eb33", "rental_uris": {"ios": "https://dc.lft.to/lastmile_qr_scan", "android": "https://dc.lft.to/lastmile_qr_scan"}, "fusion_lat": 0.0}, {"lat": 38.89737016666667, "lon": -77.04807616666666, "is_disabled": 0, "fusion_lon": 0.0, "is_reserved": 0, "name": "008ff92135d2d1ccc014dc19245b0faa", "type": "electric_scooter", "bike_id": "008ff92135d2d1ccc014dc19245b0faa", "rental_uris": {"ios": "https://dc.lft.to/lastmile_qr_scan", "android": "https://dc.lft.to/lastmile_qr_scan"}, "fusion_lat": 0.0}, {"lat": 38.89842216666667, "lon": -77.0502685, "is_disabled": 0, "fusion_lon": 0.0, "is_reserved": 0, "name": "24b33023e63b1c0b5fcbab3f781f748d", "type": "electric_scooter", "bike_id": "24b33023e63b1c0b5fcbab3f781f748d", "rental_uris": {"ios": "https://dc.lft.to/lastmile_qr_scan", "android": "https://dc.lft.to/lastmile_qr_scan"}, "fusion_lat": 0.0}, {"lat": 39.086153833333334, "lon": -77.152458, "is_disabled": 0, "fusion_lon": 0.0, "is_reserved": 0, "name": "399354783c2c690f41b8b77bb32366fb", "type": "electric_bike", "bike_id": "399354783c2c690f41b8b77bb32366fb", "rental_uris": {"ios": "https://dc.lft.to/lastmile_qr_scan", "android": "https://dc.lft.to/lastmile_qr_scan"}, "fusion_lat": 0.0}, {"lat": 38.901534833333336, "lon": -76.99033883333334, "is_disabled": 0, "fusion_lon": 0.0, "is_reserved": 0, "name": "f2b8b128d672edccb034819645fc9721", "type": "electric_scooter", "bike_id": "f2b8b128d672edccb034819645fc9721", "rental_uris": {"ios": "https://dc.lft.to/lastmile_qr_scan", "android": "https://dc.lft.to/lastmile_qr_scan"}, "fusion_lat": 0.0}, {"lat": 38.89616783333334, "lon": -77.05025883333333, "is_disabled": 0, "fusion_lon": 0.0, "is_reserved": 0, "name": "c945de47ed02bff1012e02ad19fc44f8", "type": "electric_scooter", "bike_id": "c945de47ed02bff1012e02ad19fc44f8", "rental_uris": {"ios": "https://dc.lft.to/lastmile_qr_scan", "android": "https://dc.lft.to/lastmile_qr_scan"}, "fusion_lat": 0.0}, {"lat": 38.9099695, "lon": -77.0319145, "is_disabled": 0, "fusion_lon": 0.0, "is_reserved": 0, "name": "e5ceacf53239f3945ab2d11f16cc8759", "type": "electric_scooter", "bike_id": "e5ceacf53239f3945ab2d11f16cc8759", "rental_uris": {"ios": "https://dc.lft.to/lastmile_qr_scan", "android": "https://dc.lft.to/lastmile_qr_scan"}, "fusion_lat": 0.0}, {"lat": 38.870372, "lon": -77.22872366666667, "is_disabled": 0, "fusion_lon": 0.0, "is_reserved": 0, "name": "bc5034a19687d52522676a28edb3b111", "type": "electric_bike", "bike_id": "bc5034a19687d52522676a28edb3b111", "rental_uris": {"ios": "https://dc.lft.to/lastmile_qr_scan", "android": "https://dc.lft.to/lastmile_qr_scan"}, "fusion_lat": 0.0}, {"lat": 38.8793125, "lon": -77.023788, "is_disabled": 0, "fusion_lon": 0.0, "is_reserved": 0, "name": "5349c84cdc0da8aa77b593ce4b499fcf", "type": "electric_scooter", "bike_id": "5349c84cdc0da8aa77b593ce4b499fcf", "rental_uris": {"ios": "https://dc.lft.to/lastmile_qr_scan", "android": "https://dc.lft.to/lastmile_qr_scan"}, "fusion_lat": 0.0}, {"lat": 38.8961405, "lon": -77.04611616666666, "is_disabled": 0, "fusion_lon": 0.0, "is_reserved": 0, "name": "c926770cf21cafc1cae9807bea3daccf", "type": "electric_scooter", "bike_id": "c926770cf21cafc1cae9807bea3daccf", "rental_uris": {"ios": "https://dc.lft.to/lastmile_qr_scan", "android": "https://dc.lft.to/lastmile_qr_scan"}, "fusion_lat": 0.0}, {"lat": 38.8849935, "lon": -76.9974125, "is_disabled": 0, "fusion_lon": 0.0, "is_reserved": 0, "name": "17fc2a7646d611cce34fa53fa676b8f6", "type": "electric_scooter", "bike_id": "17fc2a7646d611cce34fa53fa676b8f6", "rental_uris": {"ios": "https://dc.lft.to/lastmile_qr_scan", "android": "https://dc.lft.to/lastmile_qr_scan"}, "fusion_lat": 0.0}, {"lat": 38.907416166666664, "lon": -77.0008915, "is_disabled": 0, "fusion_lon": 0.0, "is_reserved": 0, "name": "e0eb2da4ea7b433c32d32ad973cf0576", "type": "electric_scooter", "bike_id": "e0eb2da4ea7b433c32d32ad973cf0576", "rental_uris": {"ios": "https://dc.lft.to/lastmile_qr_scan", "android": "https://dc.lft.to/lastmile_qr_scan"}, "fusion_lat": 0.0}, {"lat": 38.91563816666667, "lon": -77.02521133333333, "is_disabled": 0, "fusion_lon": 0.0, "is_reserved": 0, "name": "c0bcc5d3a44c30116388584be94dbcf0", "type": "electric_scooter", "bike_id": "c0bcc5d3a44c30116388584be94dbcf0", "rental_uris": {"ios": "https://dc.lft.to/lastmile_qr_scan", "android": "https://dc.lft.to/lastmile_qr_scan"}, "fusion_lat": 0.0}, {"lat": 38.897354166666666, "lon": -77.0037225, "is_disabled": 0, "fusion_lon": 0.0, "is_reserved": 0, "name": "a5df85943d608c9216ef58e40d2cf43e", "type": "electric_scooter", "bike_id": "a5df85943d608c9216ef58e40d2cf43e", "rental_uris": {"ios": "https://dc.lft.to/lastmile_qr_scan", "android": "https://dc.lft.to/lastmile_qr_scan"}, "fusion_lat": 0.0}, {"lat": 38.897447, "lon": -77.02747433333333, "is_disabled": 0, "fusion_lon": 0.0, "is_reserved": 0, "name": "9dc4c25893239bf6c9c8f5817b76634e", "type": "electric_scooter", "bike_id": "9dc4c25893239bf6c9c8f5817b76634e", "rental_uris": {"ios": "https://dc.lft.to/lastmile_qr_scan", "android": "https://dc.lft.to/lastmile_qr_scan"}, "fusion_lat": 0.0}, {"lat": 38.910503166666665, "lon": -77.07549516666667, "is_disabled": 0, "fusion_lon": 0.0, "is_reserved": 0, "name": "2f97116f5a74e2644c70034eff2ae39a", "type": "electric_bike", "bike_id": "2f97116f5a74e2644c70034eff2ae39a", "rental_uris": {"ios": "https://dc.lft.to/lastmile_qr_scan", "android": "https://dc.lft.to/lastmile_qr_scan"}, "fusion_lat": 0.0}, {"lat": 38.875312666666666, "lon": -77.00563183333334, "is_disabled": 0, "fusion_lon": 0.0, "is_reserved": 0, "name": "73b26363b287419046b06a3b885aa93e", "type": "electric_scooter", "bike_id": "73b26363b287419046b06a3b885aa93e", "rental_uris": {"ios": "https://dc.lft.to/lastmile_qr_scan", "android": "https://dc.lft.to/lastmile_qr_scan"}, "fusion_lat": 0.0}, {"lat": 38.93629966666666, "lon": -77.05878816666667, "is_disabled": 0, "fusion_lon": 0.0, "is_reserved": 0, "name": "19af4f2a89dba9fc2fdc6245e1bc32e0", "type": "electric_scooter", "bike_id": "19af4f2a89dba9fc2fdc6245e1bc32e0", "rental_uris": {"ios": "https://dc.lft.to/lastmile_qr_scan", "android": "https://dc.lft.to/lastmile_qr_scan"}, "fusion_lat": 0.0}, {"lat": 38.92676766666666, "lon": -77.02772916666666, "is_disabled": 0, "fusion_lon": 0.0, "is_reserved": 0, "name": "fe3e0e8c344334395e61a564824ad4df", "type": "electric_scooter", "bike_id": "fe3e0e8c344334395e61a564824ad4df", "rental_uris": {"ios": "https://dc.lft.to/lastmile_qr_scan", "android": "https://dc.lft.to/lastmile_qr_scan"}, "fusion_lat": 0.0}, {"lat": 38.86487116666667, "lon": -76.97753483333334, "is_disabled": 0, "fusion_lon": 0.0, "is_reserved": 0, "name": "53f54ab645ae209358080ef93868e8e3", "type": "electric_bike", "bike_id": "53f54ab645ae209358080ef93868e8e3", "rental_uris": {"ios": "https://dc.lft.to/lastmile_qr_scan", "android": "https://dc.lft.to/lastmile_qr_scan"}, "fusion_lat": 0.0}, {"lat": 38.924030333333334, "lon": -77.0248265, "is_disabled": 0, "fusion_lon": 0.0, "is_reserved": 0, "name": "baffc43aa5fa491b8757d838fced82c7", "type": "electric_scooter", "bike_id": "baffc43aa5fa491b8757d838fced82c7", "rental_uris": {"ios": "https://dc.lft.to/lastmile_qr_scan", "android": "https://dc.lft.to/lastmile_qr_scan"}, "fusion_lat": 0.0}, {"lat": 38.90999716666666, "lon": -77.041676, "is_disabled": 0, "fusion_lon": 0.0, "is_reserved": 0, "name": "a9a796d22d9d278ca2630bd94edba862", "type": "electric_scooter", "bike_id": "a9a796d22d9d278ca2630bd94edba862", "rental_uris": {"ios": "https://dc.lft.to/lastmile_qr_scan", "android": "https://dc.lft.to/lastmile_qr_scan"}, "fusion_lat": 0.0}, {"lat": 38.899286833333335, "lon": -77.04120766666666, "is_disabled": 0, "fusion_lon": 0.0, "is_reserved": 0, "name": "14b6778504995e4d36c24e12c858b52c", "type": "electric_scooter", "bike_id": "14b6778504995e4d36c24e12c858b52c", "rental_uris": {"ios": "https://dc.lft.to/lastmile_qr_scan", "android": "https://dc.lft.to/lastmile_qr_scan"}, "fusion_lat": 0.0}, {"lat": 38.907273, "lon": -77.03476983333333, "is_disabled": 0, "fusion_lon": 0.0, "is_reserved": 0, "name": "9a7de50e26e8b96efc00052c216eb967", "type": "electric_scooter", "bike_id": "9a7de50e26e8b96efc00052c216eb967", "rental_uris": {"ios": "https://dc.lft.to/lastmile_qr_scan", "android": "https://dc.lft.to/lastmile_qr_scan"}, "fusion_lat": 0.0}, {"lat": 38.903066333333335, "lon": -77.00582483333334, "is_disabled": 0, "fusion_lon": 0.0, "is_reserved": 0, "name": "b105fd24c7df3095e03d713434d1c008", "type": "electric_scooter", "bike_id": "b105fd24c7df3095e03d713434d1c008", "rental_uris": {"ios": "https://dc.lft.to/lastmile_qr_scan", "android": "https://dc.lft.to/lastmile_qr_scan"}, "fusion_lat": 0.0}, {"lat": 38.8917405, "lon": -76.92648716666666, "is_disabled": 0, "fusion_lon": 0.0, "is_reserved": 0, "name": "2bd1b013a4000d4fa28f35e3420c3690", "type": "electric_scooter", "bike_id": "2bd1b013a4000d4fa28f35e3420c3690", "rental_uris": {"ios": "https://dc.lft.to/lastmile_qr_scan", "android": "https://dc.lft.to/lastmile_qr_scan"}, "fusion_lat": 0.0}, {"lat": 38.90186833333333, "lon": -77.04631466666666, "is_disabled": 0, "fusion_lon": 0.0, "is_reserved": 0, "name": "3134ecc16cc872b3449c8ca6f50d9880", "type": "electric_scooter", "bike_id": "3134ecc16cc872b3449c8ca6f50d9880", "rental_uris": {"ios": "https://dc.lft.to/lastmile_qr_scan", "android": "https://dc.lft.to/lastmile_qr_scan"}, "fusion_lat": 0.0}, {"lat": 38.819916, "lon": -76.99812566666667, "is_disabled": 0, "fusion_lon": 0.0, "is_reserved": 0, "name": "9ddb20a65df9d5c45433db32e6d92461", "type": "electric_bike", "bike_id": "9ddb20a65df9d5c45433db32e6d92461", "rental_uris": {"ios": "https://dc.lft.to/lastmile_qr_scan", "android": "https://dc.lft.to/lastmile_qr_scan"}, "fusion_lat": 0.0}, {"lat": 38.9026455, "lon": -77.0270995, "is_disabled": 0, "fusion_lon": 0.0, "is_reserved": 0, "name": "a35cc301acbe08a28f4cf333a5987a6f", "type": "electric_scooter", "bike_id": "a35cc301acbe08a28f4cf333a5987a6f", "rental_uris": {"ios": "https://dc.lft.to/lastmile_qr_scan", "android": "https://dc.lft.to/lastmile_qr_scan"}, "fusion_lat": 0.0}, {"lat": 38.925182166666666, "lon": -77.05035616666666, "is_disabled": 0, "fusion_lon": 0.0, "is_reserved": 0, "name": "846ee62dfd2cc212d0bf0ba6927ed430", "type": "electric_scooter", "bike_id": "846ee62dfd2cc212d0bf0ba6927ed430", "rental_uris": {"ios": "https://dc.lft.to/lastmile_qr_scan", "android": "https://dc.lft.to/lastmile_qr_scan"}, "fusion_lat": 0.0}, {"lat": 38.884378166666664, "lon": -77.01774816666666, "is_disabled": 0, "fusion_lon": 0.0, "is_reserved": 0, "name": "398a20076259b66ae332e08c967e40aa", "type": "electric_scooter", "bike_id": "398a20076259b66ae332e08c967e40aa", "rental_uris": {"ios": "https://dc.lft.to/lastmile_qr_scan", "android": "https://dc.lft.to/lastmile_qr_scan"}, "fusion_lat": 0.0}, {"lat": 38.908193, "lon": -77.03209766666667, "is_disabled": 0, "fusion_lon": 0.0, "is_reserved": 0, "name": "18a1e2464bde66eb1f267710bf2f6a8d", "type": "electric_scooter", "bike_id": "18a1e2464bde66eb1f267710bf2f6a8d", "rental_uris": {"ios": "https://dc.lft.to/lastmile_qr_scan", "android": "https://dc.lft.to/lastmile_qr_scan"}, "fusion_lat": 0.0}, {"lat": 38.9094345, "lon": -77.03438216666666, "is_disabled": 0, "fusion_lon": 0.0, "is_reserved": 0, "name": "fea8476af3a8d418df37396163bd7e19", "type": "electric_scooter", "bike_id": "fea8476af3a8d418df37396163bd7e19", "rental_uris": {"ios": "https://dc.lft.to/lastmile_qr_scan", "android": "https://dc.lft.to/lastmile_qr_scan"}, "fusion_lat": 0.0}, {"lat": 38.956529333333336, "lon": -77.00954066666667, "is_disabled": 0, "fusion_lon": 0.0, "is_reserved": 0, "name": "acee23dff8f39e59e637f7fb3af7a204", "type": "electric_scooter", "bike_id": "acee23dff8f39e59e637f7fb3af7a204", "rental_uris": {"ios": "https://dc.lft.to/lastmile_qr_scan", "android": "https://dc.lft.to/lastmile_qr_scan"}, "fusion_lat": 0.0}, {"lat": 38.89224866666667, "lon": -77.04328483333333, "is_disabled": 0, "fusion_lon": 0.0, "is_reserved": 0, "name": "b5a4be6aea83041ea2d7d846b08bb114", "type": "electric_scooter", "bike_id": "b5a4be6aea83041ea2d7d846b08bb114", "rental_uris": {"ios": "https://dc.lft.to/lastmile_qr_scan", "android": "https://dc.lft.to/lastmile_qr_scan"}, "fusion_lat": 0.0}, {"lat": 38.914121, "lon": -77.0209575, "is_disabled": 0, "fusion_lon": 0.0, "is_reserved": 0, "name": "c28b7734f6991c710af9192be459c9f3", "type": "electric_scooter", "bike_id": "c28b7734f6991c710af9192be459c9f3", "rental_uris": {"ios": "https://dc.lft.to/lastmile_qr_scan", "android": "https://dc.lft.to/lastmile_qr_scan"}, "fusion_lat": 0.0}, {"lat": 38.924484666666665, "lon": -76.989884, "is_disabled": 0, "fusion_lon": 0.0, "is_reserved": 0, "name": "77c08ccf45adc624e1f3ba7a0ede90f6", "type": "electric_scooter", "bike_id": "77c08ccf45adc624e1f3ba7a0ede90f6", "rental_uris": {"ios": "https://dc.lft.to/lastmile_qr_scan", "android": "https://dc.lft.to/lastmile_qr_scan"}, "fusion_lat": 0.0}, {"lat": 38.92368333333334, "lon": -77.02124716666667, "is_disabled": 0, "fusion_lon": 0.0, "is_reserved": 0, "name": "8e2b8ccd7b39fa3ce8185b08653a930a", "type": "electric_scooter", "bike_id": "8e2b8ccd7b39fa3ce8185b08653a930a", "rental_uris": {"ios": "https://dc.lft.to/lastmile_qr_scan", "android": "https://dc.lft.to/lastmile_qr_scan"}, "fusion_lat": 0.0}, {"lat": 38.92754816666667, "lon": -77.052694, "is_disabled": 0, "fusion_lon": 0.0, "is_reserved": 0, "name": "6700b5ccdde7b4a6ba0a05a652cfb1b4", "type": "electric_scooter", "bike_id": "6700b5ccdde7b4a6ba0a05a652cfb1b4", "rental_uris": {"ios": "https://dc.lft.to/lastmile_qr_scan", "android": "https://dc.lft.to/lastmile_qr_scan"}, "fusion_lat": 0.0}, {"lat": 38.9105065, "lon": -77.04353683333333, "is_disabled": 0, "fusion_lon": 0.0, "is_reserved": 0, "name": "f698af6fd885744a95746a0261cbf63c", "type": "electric_scooter", "bike_id": "f698af6fd885744a95746a0261cbf63c", "rental_uris": {"ios": "https://dc.lft.to/lastmile_qr_scan", "android": "https://dc.lft.to/lastmile_qr_scan"}, "fusion_lat": 0.0}, {"lat": 38.9170385, "lon": -77.007108, "is_disabled": 0, "fusion_lon": 0.0, "is_reserved": 0, "name": "114f1fe6fd36bde599b44e1f173a6241", "type": "electric_scooter", "bike_id": "114f1fe6fd36bde599b44e1f173a6241", "rental_uris": {"ios": "https://dc.lft.to/lastmile_qr_scan", "android": "https://dc.lft.to/lastmile_qr_scan"}, "fusion_lat": 0.0}, {"lat": 39.0361135, "lon": -77.0554575, "is_disabled": 0, "fusion_lon": 0.0, "is_reserved": 0, "name": "a856b6250bddab034d515d8143402195", "type": "electric_bike", "bike_id": "a856b6250bddab034d515d8143402195", "rental_uris": {"ios": "https://dc.lft.to/lastmile_qr_scan", "android": "https://dc.lft.to/lastmile_qr_scan"}, "fusion_lat": 0.0}, {"lat": 38.926027166666664, "lon": -77.02157866666667, "is_disabled": 0, "fusion_lon": 0.0, "is_reserved": 0, "name": "ceb99a00638fcf2a1022fa7f5696bb61", "type": "electric_scooter", "bike_id": "ceb99a00638fcf2a1022fa7f5696bb61", "rental_uris": {"ios": "https://dc.lft.to/lastmile_qr_scan", "android": "https://dc.lft.to/lastmile_qr_scan"}, "fusion_lat": 0.0}, {"lat": 38.92768816666667, "lon": -77.0206435, "is_disabled": 0, "fusion_lon": 0.0, "is_reserved": 0, "name": "3ee46accdc3b29bbf7a5bec8bcf56094", "type": "electric_scooter", "bike_id": "3ee46accdc3b29bbf7a5bec8bcf56094", "rental_uris": {"ios": "https://dc.lft.to/lastmile_qr_scan", "android": "https://dc.lft.to/lastmile_qr_scan"}, "fusion_lat": 0.0}, {"lat": 38.892207166666665, "lon": -77.02227683333334, "is_disabled": 0, "fusion_lon": 0.0, "is_reserved": 0, "name": "290a996347bc1ca74c23414a722ceee0", "type": "electric_scooter", "bike_id": "290a996347bc1ca74c23414a722ceee0", "rental_uris": {"ios": "https://dc.lft.to/lastmile_qr_scan", "android": "https://dc.lft.to/lastmile_qr_scan"}, "fusion_lat": 0.0}, {"lat": 38.93401733333334, "lon": -77.039882, "is_disabled": 0, "fusion_lon": 0.0, "is_reserved": 0, "name": "6f0194ea1f8371e45b522a0c2a765c9d", "type": "electric_scooter", "bike_id": "6f0194ea1f8371e45b522a0c2a765c9d", "rental_uris": {"ios": "https://dc.lft.to/lastmile_qr_scan", "android": "https://dc.lft.to/lastmile_qr_scan"}, "fusion_lat": 0.0}, {"lat": 38.8982895, "lon": -77.04680133333333, "is_disabled": 0, "fusion_lon": 0.0, "is_reserved": 0, "name": "275589f52658a5589809a2dee35e0512", "type": "electric_bike", "bike_id": "275589f52658a5589809a2dee35e0512", "rental_uris": {"ios": "https://dc.lft.to/lastmile_qr_scan", "android": "https://dc.lft.to/lastmile_qr_scan"}, "fusion_lat": 0.0}, {"lat": 38.90325583333333, "lon": -77.0464885, "is_disabled": 0, "fusion_lon": 0.0, "is_reserved": 0, "name": "d38521fe12cc7d5b26fd9f5a9c8cf1a4", "type": "electric_scooter", "bike_id": "d38521fe12cc7d5b26fd9f5a9c8cf1a4", "rental_uris": {"ios": "https://dc.lft.to/lastmile_qr_scan", "android": "https://dc.lft.to/lastmile_qr_scan"}, "fusion_lat": 0.0}, {"lat": 38.903941833333334, "lon": -77.038171, "is_disabled": 0, "fusion_lon": 0.0, "is_reserved": 0, "name": "220436a4ae28f977330d21a66bade951", "type": "electric_scooter", "bike_id": "220436a4ae28f977330d21a66bade951", "rental_uris": {"ios": "https://dc.lft.to/lastmile_qr_scan", "android": "https://dc.lft.to/lastmile_qr_scan"}, "fusion_lat": 0.0}, {"lat": 38.9289125, "lon": -77.03261416666666, "is_disabled": 0, "fusion_lon": 0.0, "is_reserved": 0, "name": "1435a55d33f1a6efc72f9bd99694c1dd", "type": "electric_scooter", "bike_id": "1435a55d33f1a6efc72f9bd99694c1dd", "rental_uris": {"ios": "https://dc.lft.to/lastmile_qr_scan", "android": "https://dc.lft.to/lastmile_qr_scan"}, "fusion_lat": 0.0}, {"lat": 38.9305105, "lon": -77.032571, "is_disabled": 0, "fusion_lon": 0.0, "is_reserved": 0, "name": "21e01bae7ac36dc05edead35d86f8724", "type": "electric_scooter", "bike_id": "21e01bae7ac36dc05edead35d86f8724", "rental_uris": {"ios": "https://dc.lft.to/lastmile_qr_scan", "android": "https://dc.lft.to/lastmile_qr_scan"}, "fusion_lat": 0.0}, {"lat": 38.902637666666664, "lon": -77.046147, "is_disabled": 0, "fusion_lon": 0.0, "is_reserved": 0, "name": "96573ac4306352e3604f2de8e47ed3d0", "type": "electric_scooter", "bike_id": "96573ac4306352e3604f2de8e47ed3d0", "rental_uris": {"ios": "https://dc.lft.to/lastmile_qr_scan", "android": "https://dc.lft.to/lastmile_qr_scan"}, "fusion_lat": 0.0}, {"lat": 38.88732683333333, "lon": -77.01389366666666, "is_disabled": 0, "fusion_lon": 0.0, "is_reserved": 0, "name": "b13222827138d2d2f134eb329aa5bd5a", "type": "electric_scooter", "bike_id": "b13222827138d2d2f134eb329aa5bd5a", "rental_uris": {"ios": "https://dc.lft.to/lastmile_qr_scan", "android": "https://dc.lft.to/lastmile_qr_scan"}, "fusion_lat": 0.0}, {"lat": 38.8801615, "lon": -76.9807655, "is_disabled": 0, "fusion_lon": 0.0, "is_reserved": 0, "name": "7fe7f8bf75d9f4c97810d87ee8a2cff3", "type": "electric_scooter", "bike_id": "7fe7f8bf75d9f4c97810d87ee8a2cff3", "rental_uris": {"ios": "https://dc.lft.to/lastmile_qr_scan", "android": "https://dc.lft.to/lastmile_qr_scan"}, "fusion_lat": 0.0}, {"lat": 38.962275166666664, "lon": -77.0262585, "is_disabled": 0, "fusion_lon": 0.0, "is_reserved": 0, "name": "b4fb7764bc41096ac994d8a2cdc8327e", "type": "electric_bike", "bike_id": "b4fb7764bc41096ac994d8a2cdc8327e", "rental_uris": {"ios": "https://dc.lft.to/lastmile_qr_scan", "android": "https://dc.lft.to/lastmile_qr_scan"}, "fusion_lat": 0.0}, {"lat": 38.92315833333333, "lon": -77.03912216666667, "is_disabled": 0, "fusion_lon": 0.0, "is_reserved": 0, "name": "912c272ccd79654aeaf6a7d39506f2c1", "type": "electric_scooter", "bike_id": "912c272ccd79654aeaf6a7d39506f2c1", "rental_uris": {"ios": "https://dc.lft.to/lastmile_qr_scan", "android": "https://dc.lft.to/lastmile_qr_scan"}, "fusion_lat": 0.0}, {"lat": 38.91801, "lon": -77.04015366666667, "is_disabled": 0, "fusion_lon": 0.0, "is_reserved": 0, "name": "1117abacb9bed4de9426af931e8f3f66", "type": "electric_scooter", "bike_id": "1117abacb9bed4de9426af931e8f3f66", "rental_uris": {"ios": "https://dc.lft.to/lastmile_qr_scan", "android": "https://dc.lft.to/lastmile_qr_scan"}, "fusion_lat": 0.0}, {"lat": 38.887335666666665, "lon": -77.03179433333334, "is_disabled": 0, "fusion_lon": 0.0, "is_reserved": 0, "name": "5a70200e2ec285087601975a202f66e3", "type": "electric_scooter", "bike_id": "5a70200e2ec285087601975a202f66e3", "rental_uris": {"ios": "https://dc.lft.to/lastmile_qr_scan", "android": "https://dc.lft.to/lastmile_qr_scan"}, "fusion_lat": 0.0}, {"lat": 38.887455, "lon": -77.01406133333333, "is_disabled": 0, "fusion_lon": 0.0, "is_reserved": 0, "name": "862f0c3b9a32c5d99188eaffe40ec139", "type": "electric_scooter", "bike_id": "862f0c3b9a32c5d99188eaffe40ec139", "rental_uris": {"ios": "https://dc.lft.to/lastmile_qr_scan", "android": "https://dc.lft.to/lastmile_qr_scan"}, "fusion_lat": 0.0}, {"lat": 38.924159333333336, "lon": -77.05062083333333, "is_disabled": 0, "fusion_lon": 0.0, "is_reserved": 0, "name": "91a9d1080ff33e3c8007305fd3937f17", "type": "electric_scooter", "bike_id": "91a9d1080ff33e3c8007305fd3937f17", "rental_uris": {"ios": "https://dc.lft.to/lastmile_qr_scan", "android": "https://dc.lft.to/lastmile_qr_scan"}, "fusion_lat": 0.0}, {"lat": 38.90393866666667, "lon": -77.03432133333334, "is_disabled": 0, "fusion_lon": 0.0, "is_reserved": 0, "name": "cc90f8d3f0bc4833d555b6344eebb88d", "type": "electric_scooter", "bike_id": "cc90f8d3f0bc4833d555b6344eebb88d", "rental_uris": {"ios": "https://dc.lft.to/lastmile_qr_scan", "android": "https://dc.lft.to/lastmile_qr_scan"}, "fusion_lat": 0.0}, {"lat": 38.92735916666667, "lon": -77.03272033333333, "is_disabled": 0, "fusion_lon": 0.0, "is_reserved": 0, "name": "e2e6b262c5e01c0b98df6d015f223c77", "type": "electric_scooter", "bike_id": "e2e6b262c5e01c0b98df6d015f223c77", "rental_uris": {"ios": "https://dc.lft.to/lastmile_qr_scan", "android": "https://dc.lft.to/lastmile_qr_scan"}, "fusion_lat": 0.0}, {"lat": 38.90017533333334, "lon": -76.99453583333333, "is_disabled": 0, "fusion_lon": 0.0, "is_reserved": 0, "name": "75f62af05b983ac84d81988d29b524e4", "type": "electric_scooter", "bike_id": "75f62af05b983ac84d81988d29b524e4", "rental_uris": {"ios": "https://dc.lft.to/lastmile_qr_scan", "android": "https://dc.lft.to/lastmile_qr_scan"}, "fusion_lat": 0.0}, {"lat": 38.90268433333333, "lon": -77.03865466666667, "is_disabled": 0, "fusion_lon": 0.0, "is_reserved": 0, "name": "f8090647398f4cef8929a904a536f9b0", "type": "electric_scooter", "bike_id": "f8090647398f4cef8929a904a536f9b0", "rental_uris": {"ios": "https://dc.lft.to/lastmile_qr_scan", "android": "https://dc.lft.to/lastmile_qr_scan"}, "fusion_lat": 0.0}, {"lat": 38.90350983333333, "lon": -77.044968, "is_disabled": 0, "fusion_lon": 0.0, "is_reserved": 0, "name": "bbc8cab683342b876a503ae240659cbc", "type": "electric_scooter", "bike_id": "bbc8cab683342b876a503ae240659cbc", "rental_uris": {"ios": "https://dc.lft.to/lastmile_qr_scan", "android": "https://dc.lft.to/lastmile_qr_scan"}, "fusion_lat": 0.0}, {"lat": 38.848282, "lon": -77.07899466666667, "is_disabled": 0, "fusion_lon": 0.0, "is_reserved": 0, "name": "d31713696374a5930150a9714fb2a8db", "type": "electric_bike", "bike_id": "d31713696374a5930150a9714fb2a8db", "rental_uris": {"ios": "https://dc.lft.to/lastmile_qr_scan", "android": "https://dc.lft.to/lastmile_qr_scan"}, "fusion_lat": 0.0}, {"lat": 38.892210166666665, "lon": -77.022034, "is_disabled": 0, "fusion_lon": 0.0, "is_reserved": 0, "name": "29ca77a168dfd3a56a8e7e354bfc8d33", "type": "electric_scooter", "bike_id": "29ca77a168dfd3a56a8e7e354bfc8d33", "rental_uris": {"ios": "https://dc.lft.to/lastmile_qr_scan", "android": "https://dc.lft.to/lastmile_qr_scan"}, "fusion_lat": 0.0}, {"lat": 38.908444833333334, "lon": -77.040207, "is_disabled": 0, "fusion_lon": 0.0, "is_reserved": 0, "name": "189e86b4140a713664279beaf85a334d", "type": "electric_scooter", "bike_id": "189e86b4140a713664279beaf85a334d", "rental_uris": {"ios": "https://dc.lft.to/lastmile_qr_scan", "android": "https://dc.lft.to/lastmile_qr_scan"}, "fusion_lat": 0.0}, {"lat": 38.91120733333333, "lon": -77.04476533333333, "is_disabled": 0, "fusion_lon": 0.0, "is_reserved": 0, "name": "d4dcedd3812772b2f3db36d13e362cd2", "type": "electric_scooter", "bike_id": "d4dcedd3812772b2f3db36d13e362cd2", "rental_uris": {"ios": "https://dc.lft.to/lastmile_qr_scan", "android": "https://dc.lft.to/lastmile_qr_scan"}, "fusion_lat": 0.0}, {"lat": 38.89959416666667, "lon": -77.04516583333333, "is_disabled": 0, "fusion_lon": 0.0, "is_reserved": 0, "name": "232217d3f0f9844defc7b6657e51a144", "type": "electric_scooter", "bike_id": "232217d3f0f9844defc7b6657e51a144", "rental_uris": {"ios": "https://dc.lft.to/lastmile_qr_scan", "android": "https://dc.lft.to/lastmile_qr_scan"}, "fusion_lat": 0.0}, {"lat": 38.86326666666667, "lon": -76.989314, "is_disabled": 0, "fusion_lon": 0.0, "is_reserved": 0, "name": "12f3c03c1103d3d45679803fc8437dfe", "type": "electric_scooter", "bike_id": "12f3c03c1103d3d45679803fc8437dfe", "rental_uris": {"ios": "https://dc.lft.to/lastmile_qr_scan", "android": "https://dc.lft.to/lastmile_qr_scan"}, "fusion_lat": 0.0}, {"lat": 38.91706033333333, "lon": -77.0242635, "is_disabled": 0, "fusion_lon": 0.0, "is_reserved": 0, "name": "53f605e75d4250da578b92844eb4ce0f", "type": "electric_scooter", "bike_id": "53f605e75d4250da578b92844eb4ce0f", "rental_uris": {"ios": "https://dc.lft.to/lastmile_qr_scan", "android": "https://dc.lft.to/lastmile_qr_scan"}, "fusion_lat": 0.0}, {"lat": 38.94181966666667, "lon": -77.02534516666667, "is_disabled": 0, "fusion_lon": 0.0, "is_reserved": 0, "name": "16c4c5ad210329f784c4a758398b7c30", "type": "electric_scooter", "bike_id": "16c4c5ad210329f784c4a758398b7c30", "rental_uris": {"ios": "https://dc.lft.to/lastmile_qr_scan", "android": "https://dc.lft.to/lastmile_qr_scan"}, "fusion_lat": 0.0}, {"lat": 38.91808733333333, "lon": -77.026948, "is_disabled": 0, "fusion_lon": 0.0, "is_reserved": 0, "name": "86e456aa44748fdb072e38c40ad05c33", "type": "electric_scooter", "bike_id": "86e456aa44748fdb072e38c40ad05c33", "rental_uris": {"ios": "https://dc.lft.to/lastmile_qr_scan", "android": "https://dc.lft.to/lastmile_qr_scan"}, "fusion_lat": 0.0}, {"lat": 38.912888833333334, "lon": -77.03653066666666, "is_disabled": 0, "fusion_lon": 0.0, "is_reserved": 0, "name": "9a2674cbd5434de63e1f913e40500023", "type": "electric_scooter", "bike_id": "9a2674cbd5434de63e1f913e40500023", "rental_uris": {"ios": "https://dc.lft.to/lastmile_qr_scan", "android": "https://dc.lft.to/lastmile_qr_scan"}, "fusion_lat": 0.0}, {"lat": 38.90368183333333, "lon": -77.0506425, "is_disabled": 0, "fusion_lon": 0.0, "is_reserved": 0, "name": "dee35b9324a167452e16d2cf82612e46", "type": "electric_scooter", "bike_id": "dee35b9324a167452e16d2cf82612e46", "rental_uris": {"ios": "https://dc.lft.to/lastmile_qr_scan", "android": "https://dc.lft.to/lastmile_qr_scan"}, "fusion_lat": 0.0}, {"lat": 38.93871683333333, "lon": -77.02484616666666, "is_disabled": 0, "fusion_lon": 0.0, "is_reserved": 0, "name": "987a2862342e45c69d7b8ada2338a743", "type": "electric_scooter", "bike_id": "987a2862342e45c69d7b8ada2338a743", "rental_uris": {"ios": "https://dc.lft.to/lastmile_qr_scan", "android": "https://dc.lft.to/lastmile_qr_scan"}, "fusion_lat": 0.0}, {"lat": 38.887295, "lon": -76.98358683333333, "is_disabled": 0, "fusion_lon": 0.0, "is_reserved": 0, "name": "2063382932eb7038771f358e0cbd3fc3", "type": "electric_scooter", "bike_id": "2063382932eb7038771f358e0cbd3fc3", "rental_uris": {"ios": "https://dc.lft.to/lastmile_qr_scan", "android": "https://dc.lft.to/lastmile_qr_scan"}, "fusion_lat": 0.0}, {"lat": 38.884269833333335, "lon": -76.95757716666667, "is_disabled": 0, "fusion_lon": 0.0, "is_reserved": 0, "name": "b018be10049c629a04b1ac9294d580aa", "type": "electric_scooter", "bike_id": "b018be10049c629a04b1ac9294d580aa", "rental_uris": {"ios": "https://dc.lft.to/lastmile_qr_scan", "android": "https://dc.lft.to/lastmile_qr_scan"}, "fusion_lat": 0.0}, {"lat": 38.9232225, "lon": -77.01950333333333, "is_disabled": 0, "fusion_lon": 0.0, "is_reserved": 0, "name": "b982dcf04e88ca462415b7101ca895c0", "type": "electric_scooter", "bike_id": "b982dcf04e88ca462415b7101ca895c0", "rental_uris": {"ios": "https://dc.lft.to/lastmile_qr_scan", "android": "https://dc.lft.to/lastmile_qr_scan"}, "fusion_lat": 0.0}, {"lat": 38.938371333333336, "lon": -77.03390016666667, "is_disabled": 0, "fusion_lon": 0.0, "is_reserved": 0, "name": "c24ab0cd59d36422ac5bb345e05c4930", "type": "electric_scooter", "bike_id": "c24ab0cd59d36422ac5bb345e05c4930", "rental_uris": {"ios": "https://dc.lft.to/lastmile_qr_scan", "android": "https://dc.lft.to/lastmile_qr_scan"}, "fusion_lat": 0.0}, {"lat": 38.917975, "lon": -77.04016583333333, "is_disabled": 0, "fusion_lon": 0.0, "is_reserved": 0, "name": "1394db7098edc3b274c5aa37e6035b6d", "type": "electric_scooter", "bike_id": "1394db7098edc3b274c5aa37e6035b6d", "rental_uris": {"ios": "https://dc.lft.to/lastmile_qr_scan", "android": "https://dc.lft.to/lastmile_qr_scan"}, "fusion_lat": 0.0}, {"lat": 38.927511, "lon": -77.03284816666667, "is_disabled": 0, "fusion_lon": 0.0, "is_reserved": 0, "name": "6e4f08a6fc4226f29ca6b1d3d0ddba1d", "type": "electric_scooter", "bike_id": "6e4f08a6fc4226f29ca6b1d3d0ddba1d", "rental_uris": {"ios": "https://dc.lft.to/lastmile_qr_scan", "android": "https://dc.lft.to/lastmile_qr_scan"}, "fusion_lat": 0.0}, {"lat": 38.92122033333333, "lon": -77.23680616666667, "is_disabled": 0, "fusion_lon": 0.0, "is_reserved": 0, "name": "59cf39f084f2e0ce58506fcc0f705e7a", "type": "electric_bike", "bike_id": "59cf39f084f2e0ce58506fcc0f705e7a", "rental_uris": {"ios": "https://dc.lft.to/lastmile_qr_scan", "android": "https://dc.lft.to/lastmile_qr_scan"}, "fusion_lat": 0.0}, {"lat": 38.90363266666667, "lon": -77.0295305, "is_disabled": 0, "fusion_lon": 0.0, "is_reserved": 0, "name": "332a0b94ec1f7295f57c9f66e37c0825", "type": "electric_scooter", "bike_id": "332a0b94ec1f7295f57c9f66e37c0825", "rental_uris": {"ios": "https://dc.lft.to/lastmile_qr_scan", "android": "https://dc.lft.to/lastmile_qr_scan"}, "fusion_lat": 0.0}, {"lat": 38.8766385, "lon": -77.00334716666667, "is_disabled": 0, "fusion_lon": 0.0, "is_reserved": 0, "name": "ee7fc5342b40c7d01197b90b2355f55d", "type": "electric_scooter", "bike_id": "ee7fc5342b40c7d01197b90b2355f55d", "rental_uris": {"ios": "https://dc.lft.to/lastmile_qr_scan", "android": "https://dc.lft.to/lastmile_qr_scan"}, "fusion_lat": 0.0}, {"lat": 38.91258333333333, "lon": -77.0446975, "is_disabled": 0, "fusion_lon": 0.0, "is_reserved": 0, "name": "17f11fd929f258b3b269af212af6a401", "type": "electric_scooter", "bike_id": "17f11fd929f258b3b269af212af6a401", "rental_uris": {"ios": "https://dc.lft.to/lastmile_qr_scan", "android": "https://dc.lft.to/lastmile_qr_scan"}, "fusion_lat": 0.0}, {"lat": 38.93970433333333, "lon": -77.036863, "is_disabled": 0, "fusion_lon": 0.0, "is_reserved": 0, "name": "8e7a3e922068f3b4b5fda7cd31c2d4c6", "type": "electric_scooter", "bike_id": "8e7a3e922068f3b4b5fda7cd31c2d4c6", "rental_uris": {"ios": "https://dc.lft.to/lastmile_qr_scan", "android": "https://dc.lft.to/lastmile_qr_scan"}, "fusion_lat": 0.0}, {"lat": 38.89226566666667, "lon": -77.048944, "is_disabled": 0, "fusion_lon": 0.0, "is_reserved": 0, "name": "1f35a6bcaec7a0b66401534904b2a041", "type": "electric_scooter", "bike_id": "1f35a6bcaec7a0b66401534904b2a041", "rental_uris": {"ios": "https://dc.lft.to/lastmile_qr_scan", "android": "https://dc.lft.to/lastmile_qr_scan"}, "fusion_lat": 0.0}, {"lat": 38.896507, "lon": -77.0502525, "is_disabled": 0, "fusion_lon": 0.0, "is_reserved": 0, "name": "c3100b57b06d4abcbf2c6fc918a2faae", "type": "electric_scooter", "bike_id": "c3100b57b06d4abcbf2c6fc918a2faae", "rental_uris": {"ios": "https://dc.lft.to/lastmile_qr_scan", "android": "https://dc.lft.to/lastmile_qr_scan"}, "fusion_lat": 0.0}, {"lat": 38.92484833333334, "lon": -77.02273466666666, "is_disabled": 0, "fusion_lon": 0.0, "is_reserved": 0, "name": "65b6d3e1dbafb5284995ba3e665ddc1b", "type": "electric_scooter", "bike_id": "65b6d3e1dbafb5284995ba3e665ddc1b", "rental_uris": {"ios": "https://dc.lft.to/lastmile_qr_scan", "android": "https://dc.lft.to/lastmile_qr_scan"}, "fusion_lat": 0.0}, {"lat": 38.89591516666667, "lon": -77.025827, "is_disabled": 0, "fusion_lon": 0.0, "is_reserved": 0, "name": "fc5479daaae19acec52cb9cec076ea41", "type": "electric_bike", "bike_id": "fc5479daaae19acec52cb9cec076ea41", "rental_uris": {"ios": "https://dc.lft.to/lastmile_qr_scan", "android": "https://dc.lft.to/lastmile_qr_scan"}, "fusion_lat": 0.0},