{"data": {"bikes": [{"bike_id": "fbdc7244ada0bb43be6c1cc5cfd9f8db", "lon": -76.99831216666666, "lat": 38.88533783333333, "fusion_lon": 0.0, "rental_uris": {"ios": "https://dc.lft.to/lastmile_qr_scan", "android": "https://dc.lft.to/lastmile_qr_scan"}, "is_disabled": 0, "is_reserved": 0, "name": "fbdc7244ada0bb43be6c1cc5cfd9f8db", "type": "electric_scooter", "fusion_lat": 0.0}, {"bike_id": "db5053a719b265785689d21115c04df4", "lon": -76.99016983333334, "lat": 38.86514733333333, "fusion_lon": 0.0, "rental_uris": {"ios": "https://dc.lft.to/lastmile_qr_scan", "android": "https://dc.lft.to/lastmile_qr_scan"}, "is_disabled": 0, "is_reserved": 0, "name": "db5053a719b265785689d21115c04df4", "type": "electric_scooter", "fusion_lat": 0.0}, {"bike_id": "7f50578dbedbc02de937b47785ffb5e3", "lon": -77.04333016666666, "lat": 38.90039866666667, "fusion_lon": 0.0, "rental_uris": {"ios": "https://dc.lft.to/lastmile_qr_scan", "android": "https://dc.lft.to/lastmile_qr_scan"}, "is_disabled": 0, "is_reserved": 0, "name": "7f50578dbedbc02de937b47785ffb5e3", "type": "electric_scooter", "fusion_lat": 0.0}, {"bike_id": "09ec5ad2eb8620fa4b3628461b0e00a1", "lon": -77.037643, "lat": 38.9156425, "fusion_lon": 0.0, "rental_uris": {"ios": "https://dc.lft.to/lastmile_qr_scan", "android": "https://dc.lft.to/lastmile_qr_scan"}, "is_disabled": 0, "is_reserved": 0, "name": "09ec5ad2eb8620fa4b3628461b0e00a1", "type": "electric_scooter", "fusion_lat": 0.0}, {"bike_id": "06f85cab3825bec0b144203069e400fd", "lon": -76.979987, "lat": 38.904484833333335, "fusion_lon": 0.0, "rental_uris": {"ios": "https://dc.lft.to/lastmile_qr_scan", "android": "https://dc.lft.to/lastmile_qr_scan"}, "is_disabled": 0, "is_reserved": 0, "name": "06f85cab3825bec0b144203069e400fd", "type": "electric_scooter", "fusion_lat": 0.0}, {"bike_id": "4254276db716b1a0dcc341b36e3a5063", "lon": -77.0206305, "lat": 38.9353535, "fusion_lon": 0.0, "rental_uris": {"ios": "https://dc.lft.to/lastmile_qr_scan", "android": "https://dc.lft.to/lastmile_qr_scan"}, "is_disabled": 0, "is_reserved": 0, "name": "4254276db716b1a0dcc341b36e3a5063", "type": "electric_scooter", "fusion_lat": 0.0}, {"bike_id": "d1a7083e96f79439282d65dfc0cdf190", "lon": -77.03853266666667, "lat": 38.903186166666664, "fusion_lon": 0.0, "rental_uris": {"ios": "https://dc.lft.to/lastmile_qr_scan", "android": "https://dc.lft.to/lastmile_qr_scan"}, "is_disabled": 0, "is_reserved": 0, "name": "d1a7083e96f79439282d65dfc0cdf190", "type": "electric_scooter", "fusion_lat": 0.0}, {"bike_id": "ac5addb2bb865d97b11c8644c713d362", "lon": -77.04241766666667, "lat": 38.92190383333333, "fusion_lon": 0.0, "rental_uris": {"ios": "https://dc.lft.to/lastmile_qr_scan", "android": "https://dc.lft.to/lastmile_qr_scan"}, "is_disabled": 0, "is_reserved": 0, "name": "ac5addb2bb865d97b11c8644c713d362", "type": "electric_scooter", "fusion_lat": 0.0}, {"bike_id": "37badad3407b5ed65587dacdcbb333a2", "lon": -77.03593916666667, "lat": 38.90969333333334, "fusion_lon": 0.0, "rental_uris": {"ios": "https://dc.lft.to/lastmile_qr_scan", "android": "https://dc.lft.to/lastmile_qr_scan"}, "is_disabled": 0, "is_reserved": 0, "name": "37badad3407b5ed65587dacdcbb333a2", "type": "electric_scooter", "fusion_lat": 0.0}, {"bike_id": "4e125a448a183caffade2268897ae007", "lon": -77.0495035, "lat": 38.897391999999996, "fusion_lon": 0.0, "rental_uris": {"ios": "https://dc.lft.to/lastmile_qr_scan", "android": "https://dc.lft.to/lastmile_qr_scan"}, "is_disabled": 0, "is_reserved": 0, "name": "4e125a448a183caffade2268897ae007", "type": "electric_scooter", "fusion_lat": 0.0}, {"bike_id": "87d785b1476fc8a8fc94885e604a4594", "lon": -77.00040466666667, "lat": 38.96824866666667, "fusion_lon": 0.0, "rental_uris": {"ios": "https://dc.lft.to/lastmile_qr_scan", "android": "https://dc.lft.to/lastmile_qr_scan"}, "is_disabled": 0, "is_reserved": 0, "name": "87d785b1476fc8a8fc94885e604a4594", "type": "electric_bike", "fusion_lat": 0.0}, {"bike_id": "6da4bbe334166a8e9ef5f9238001c753", "lon": -77.02285133333334, "lat": 38.909702833333334, "fusion_lon": 0.0, "rental_uris": {"ios": "https://dc.lft.to/lastmile_qr_scan", "android": "https://dc.lft.to/lastmile_qr_scan"}, "is_disabled": 0, "is_reserved": 0, "name": "6da4bbe334166a8e9ef5f9238001c753", "type": "electric_scooter", "fusion_lat": 0.0}, {"bike_id": "a8e1a23b527133dd0bd4735ca6fb8d0e", "lon": -77.0321705, "lat": 38.930368666666666, "fusion_lon": 0.0, "rental_uris": {"ios": "https://dc.lft.to/lastmile_qr_scan", "android": "https://dc.lft.to/lastmile_qr_scan"}, "is_disabled": 0, "is_reserved": 0, "name": "a8e1a23b527133dd0bd4735ca6fb8d0e", "type": "electric_scooter", "fusion_lat": 0.0}, {"bike_id": "143092d8016f084f3cbf7d4855982a67", "lon": -76.9734325, "lat": 38.897241333333334, "fusion_lon": 0.0, "rental_uris": {"ios": "https://dc.lft.to/lastmile_qr_scan", "android": "https://dc.lft.to/lastmile_qr_scan"}, "is_disabled": 0, "is_reserved": 0, "name": "143092d8016f084f3cbf7d4855982a67", "type": "electric_scooter", "fusion_lat": 0.0}, {"bike_id": "268e4f60067dd03f62fd029115949246", "lon": -77.0508145, "lat": 38.923435, "fusion_lon": 0.0, "rental_uris": {"ios": "https://dc.lft.to/lastmile_qr_scan", "android": "https://dc.lft.to/lastmile_qr_scan"}, "is_disabled": 0, "is_reserved": 0, "name": "268e4f60067dd03f62fd029115949246", "type": "electric_scooter", "fusion_lat": 0.0}, {"bike_id": "df8861b1d0ca24bc69465878e2bd7b78", "lon": -77.0206775, "lat": 38.95739716666667, "fusion_lon": 0.0, "rental_uris": {"ios": "https://dc.lft.to/lastmile_qr_scan", "android": "https://dc.lft.to/lastmile_qr_scan"}, "is_disabled": 0, "is_reserved": 0, "name": "df8861b1d0ca24bc69465878e2bd7b78", "type": "electric_scooter", "fusion_lat": 0.0}, {"bike_id": "f73ca2446f6ca1d6db837b41e694990b", "lon": -77.0269335, "lat": 38.918215000000004, "fusion_lon": 0.0, "rental_uris": {"ios": "https://dc.lft.to/lastmile_qr_scan", "android": "https://dc.lft.to/lastmile_qr_scan"}, "is_disabled": 0, "is_reserved": 0, "name": "f73ca2446f6ca1d6db837b41e694990b", "type": "electric_scooter", "fusion_lat": 0.0}, {"bike_id": "b9e1f22b9a485074c2ba7a509a90d30e", "lon": -77.04493183333334, "lat": 38.90653316666667, "fusion_lon": 0.0, "rental_uris": {"ios": "https://dc.lft.to/lastmile_qr_scan", "android": "https://dc.lft.to/lastmile_qr_scan"}, "is_disabled": 0, "is_reserved": 0, "name": "b9e1f22b9a485074c2ba7a509a90d30e", "type": "electric_scooter", "fusion_lat": 0.0}, {"bike_id": "324517057e32daa152f532081fda6d7c", "lon": -77.027106, "lat": 38.9315605, "fusion_lon": 0.0, "rental_uris": {"ios": "https://dc.lft.to/lastmile_qr_scan", "android": "https://dc.lft.to/lastmile_qr_scan"}, "is_disabled": 0, "is_reserved": 0, "name": "324517057e32daa152f532081fda6d7c", "type": "electric_bike", "fusion_lat": 0.0}, {"bike_id": "9cfb03e91e75246c8247da3caa21fede", "lon": -77.03916183333334, "lat": 38.925755333333335, "fusion_lon": 0.0, "rental_uris": {"ios": "https://dc.lft.to/lastmile_qr_scan", "android": "https://dc.lft.to/lastmile_qr_scan"}, "is_disabled": 0, "is_reserved": 0, "name": "9cfb03e91e75246c8247da3caa21fede", "type": "electric_scooter", "fusion_lat": 0.0}, {"bike_id": "acfea12185afa258171a9e37aa2d840f", "lon": -76.97212733333333, "lat": 38.9836285, "fusion_lon": 0.0, "rental_uris": {"ios": "https://dc.lft.to/lastmile_qr_scan", "android": "https://dc.lft.to/lastmile_qr_scan"}, "is_disabled": 0, "is_reserved": 0, "name": "acfea12185afa258171a9e37aa2d840f", "type": "electric_bike", "fusion_lat": 0.0}, {"bike_id": "6470756e38f73bb6ad92296893f94e1d", "lon": -77.05058066666666, "lat": 38.924156333333336, "fusion_lon": 0.0, "rental_uris": {"ios": "https://dc.lft.to/lastmile_qr_scan", "android": "https://dc.lft.to/lastmile_qr_scan"}, "is_disabled": 0, "is_reserved": 0, "name": "6470756e38f73bb6ad92296893f94e1d", "type": "electric_scooter", "fusion_lat": 0.0}, {"bike_id": "228005916687255ea8a159cffc88b668", "lon": -76.9691105, "lat": 38.87156566666667, "fusion_lon": 0.0, "rental_uris": {"ios": "https://dc.lft.to/lastmile_qr_scan", "android": "https://dc.lft.to/lastmile_qr_scan"}, "is_disabled": 0, "is_reserved": 0, "name": "228005916687255ea8a159cffc88b668", "type": "electric_scooter", "fusion_lat": 0.0}, {"bike_id": "5c016e537ba32791cfa62066d64564f7", "lon": -77.0345935, "lat": 38.90885816666667, "fusion_lon": 0.0, "rental_uris": {"ios": "https://dc.lft.to/lastmile_qr_scan", "android": "https://dc.lft.to/lastmile_qr_scan"}, "is_disabled": 0, "is_reserved": 0, "name": "5c016e537ba32791cfa62066d64564f7", "type": "electric_scooter", "fusion_lat": 0.0}, {"bike_id": "95e823dad2911bd5a0dca39ed6f7062c", "lon": -77.02960683333333, "lat": 38.884365, "fusion_lon": 0.0, "rental_uris": {"ios": "https://dc.lft.to/lastmile_qr_scan", "android": "https://dc.lft.to/lastmile_qr_scan"}, "is_disabled": 0, "is_reserved": 0, "name": "95e823dad2911bd5a0dca39ed6f7062c", "type": "electric_scooter", "fusion_lat": 0.0}, {"bike_id": "cb70598db5a1bacbb4f506c2a354dc15", "lon": -76.99494583333333, "lat": 38.86244766666667, "fusion_lon": 0.0, "rental_uris": {"ios": "https://dc.lft.to/lastmile_qr_scan", "android": "https://dc.lft.to/lastmile_qr_scan"}, "is_disabled": 0, "is_reserved": 0, "name": "cb70598db5a1bacbb4f506c2a354dc15", "type": "electric_scooter", "fusion_lat": 0.0}, {"bike_id": "a124537ee43e48a62801406c7f6bff40", "lon": -77.004421, "lat": 38.876571166666665, "fusion_lon": 0.0, "rental_uris": {"ios": "https://dc.lft.to/lastmile_qr_scan", "android": "https://dc.lft.to/lastmile_qr_scan"}, "is_disabled": 0, "is_reserved": 0, "name": "a124537ee43e48a62801406c7f6bff40", "type": "electric_scooter", "fusion_lat": 0.0}, {"bike_id": "871c20d450f55714f2798099c64348f3", "lon": -77.0383775, "lat": 38.91216083333333, "fusion_lon": 0.0, "rental_uris": {"ios": "https://dc.lft.to/lastmile_qr_scan", "android": "https://dc.lft.to/lastmile_qr_scan"}, "is_disabled": 0, "is_reserved": 0, "name": "871c20d450f55714f2798099c64348f3", "type": "electric_scooter", "fusion_lat": 0.0}, {"bike_id": "e5ace6d6759013f3820f5733d97deccd", "lon": -77.0716575, "lat": 38.90780216666667, "fusion_lon": 0.0, "rental_uris": {"ios": "https://dc.lft.to/lastmile_qr_scan", "android": "https://dc.lft.to/lastmile_qr_scan"}, "is_disabled": 0, "is_reserved": 0, "name": "e5ace6d6759013f3820f5733d97deccd", "type": "electric_scooter", "fusion_lat": 0.0}, {"bike_id": "ef1e25a67d484e85cdb07782a5372fdb", "lon": -77.00135916666666, "lat": 38.886054333333334, "fusion_lon": 0.0, "rental_uris": {"ios": "https://dc.lft.to/lastmile_qr_scan", "android": "https://dc.lft.to/lastmile_qr_scan"}, "is_disabled": 0, "is_reserved": 0, "name": "ef1e25a67d484e85cdb07782a5372fdb", "type": "electric_scooter", "fusion_lat": 0.0}, {"bike_id": "fc5a401da4261cbec9c8bfb91352cfee", "lon": -77.0279395, "lat": 38.95845666666666, "fusion_lon": 0.0, "rental_uris": {"ios": "https://dc.lft.to/lastmile_qr_scan", "android": "https://dc.lft.to/lastmile_qr_scan"}, "is_disabled": 0, "is_reserved": 0, "name": "fc5a401da4261cbec9c8bfb91352cfee", "type": "electric_scooter", "fusion_lat": 0.0}, {"bike_id": "ab9ca734b06709e75d82ae2de15c1fbb", "lon": -77.002166, "lat": 38.823685833333336, "fusion_lon": 0.0, "rental_uris": {"ios": "https://dc.lft.to/lastmile_qr_scan", "android": "https://dc.lft.to/lastmile_qr_scan"}, "is_disabled": 0, "is_reserved": 0, "name": "ab9ca734b06709e75d82ae2de15c1fbb", "type": "electric_bike", "fusion_lat": 0.0}, {"bike_id": "49bc4cb0658a2af23c0c4149055b4321", "lon": -77.04699783333334, "lat": 38.9222925, "fusion_lon": 0.0, "rental_uris": {"ios": "https://dc.lft.to/lastmile_qr_scan", "android": "https://dc.lft.to/lastmile_qr_scan"}, "is_disabled": 0, "is_reserved": 0, "name": "49bc4cb0658a2af23c0c4149055b4321", "type": "electric_scooter", "fusion_lat": 0.0}, {"bike_id": "25398e9859b87f1dd586ca79dc0a23b5", "lon": -77.11827566666666, "lat": 38.85940816666667, "fusion_lon": 0.0, "rental_uris": {"ios": "https://dc.lft.to/lastmile_qr_scan", "android": "https://dc.lft.to/lastmile_qr_scan"}, "is_disabled": 0, "is_reserved": 0, "name": "25398e9859b87f1dd586ca79dc0a23b5", "type": "electric_bike", "fusion_lat": 0.0}, {"bike_id": "95b1a0a44188ad7c056ce13d4894b1c9", "lon": -77.0265055, "lat": 38.9498225, "fusion_lon": 0.0, "rental_uris": {"ios": "https://dc.lft.to/lastmile_qr_scan", "android": "https://dc.lft.to/lastmile_qr_scan"}, "is_disabled": 0, "is_reserved": 0, "name": "95b1a0a44188ad7c056ce13d4894b1c9", "type": "electric_scooter", "fusion_lat": 0.0}, {"bike_id": "0ed430633734cc057dc393fa2dcb3d56", "lon": -77.046652, "lat": 38.902077, "fusion_lon": 0.0, "rental_uris": {"ios": "https://dc.lft.to/lastmile_qr_scan", "android": "https://dc.lft.to/lastmile_qr_scan"}, "is_disabled": 0, "is_reserved": 0, "name": "0ed430633734cc057dc393fa2dcb3d56", "type": "electric_scooter", "fusion_lat": 0.0}, {"bike_id": "2b007936d4c570b14cc477ba602afb60", "lon": -77.0426405, "lat": 38.92296483333333, "fusion_lon": 0.0, "rental_uris": {"ios": "https://dc.lft.to/lastmile_qr_scan", "android": "https://dc.lft.to/lastmile_qr_scan"}, "is_disabled": 0, "is_reserved": 0, "name": "2b007936d4c570b14cc477ba602afb60", "type": "electric_scooter", "fusion_lat": 0.0}, {"bike_id": "ced475415d974f0bbabc10ac859a4904", "lon": -77.0261065, "lat": 38.951880333333335, "fusion_lon": 0.0, "rental_uris": {"ios": "https://dc.lft.to/lastmile_qr_scan", "android": "https://dc.lft.to/lastmile_qr_scan"}, "is_disabled": 0, "is_reserved": 0, "name": "ced475415d974f0bbabc10ac859a4904", "type": "electric_scooter", "fusion_lat": 0.0}, {"bike_id": "be96b76f1d268eb5345f95848a21ffb6", "lon": -77.0265605, "lat": 38.88481783333334, "fusion_lon": 0.0, "rental_uris": {"ios": "https://dc.lft.to/lastmile_qr_scan", "android": "https://dc.lft.to/lastmile_qr_scan"}, "is_disabled": 0, "is_reserved": 0, "name": "be96b76f1d268eb5345f95848a21ffb6", "type": "electric_scooter", "fusion_lat": 0.0}, {"bike_id": "3d4b31710dc63fec441a6503b3932f49", "lon": -76.99623116666666, "lat": 38.88139183333333, "fusion_lon": 0.0, "rental_uris": {"ios": "https://dc.lft.to/lastmile_qr_scan", "android": "https://dc.lft.to/lastmile_qr_scan"}, "is_disabled": 0, "is_reserved": 0, "name": "3d4b31710dc63fec441a6503b3932f49", "type": "electric_scooter", "fusion_lat": 0.0}, {"bike_id": "3982359b318156480f3785fb63a8aed1", "lon": -77.03079183333334, "lat": 38.907666, "fusion_lon": 0.0, "rental_uris": {"ios": "https://dc.lft.to/lastmile_qr_scan", "android": "https://dc.lft.to/lastmile_qr_scan"}, "is_disabled": 0, "is_reserved": 0, "name": "3982359b318156480f3785fb63a8aed1", "type": "electric_scooter", "fusion_lat": 0.0}, {"bike_id": "8b505a6bcc1c73f9df9fd14a4f0bf2ce", "lon": -77.032578, "lat": 38.9180655, "fusion_lon": 0.0, "rental_uris": {"ios": "https://dc.lft.to/lastmile_qr_scan", "android": "https://dc.lft.to/lastmile_qr_scan"}, "is_disabled": 0, "is_reserved": 0, "name": "8b505a6bcc1c73f9df9fd14a4f0bf2ce", "type": "electric_scooter", "fusion_lat": 0.0}, {"bike_id": "f8d201269c9f09c38c97193fdf1c709a", "lon": -77.05492433333333, "lat": 38.8936605, "fusion_lon": 0.0, "rental_uris": {"ios": "https://dc.lft.to/lastmile_qr_scan", "android": "https://dc.lft.to/lastmile_qr_scan"}, "is_disabled": 0, "is_reserved": 0, "name": "f8d201269c9f09c38c97193fdf1c709a", "type": "electric_scooter", "fusion_lat": 0.0}, {"bike_id": "6607bf70c82ddf88d7e120697417e522", "lon": -77.0382245, "lat": 38.907833333333336, "fusion_lon": 0.0, "rental_uris": {"ios": "https://dc.lft.to/lastmile_qr_scan", "android": "https://dc.lft.to/lastmile_qr_scan"}, "is_disabled": 0, "is_reserved": 0, "name": "6607bf70c82ddf88d7e120697417e522", "type": "electric_scooter", "fusion_lat": 0.0}, {"bike_id": "6eb641a256082a7b50881c3addbc87fa", "lon": -77.04336766666667, "lat": 38.90230733333333, "fusion_lon": 0.0, "rental_uris": {"ios": "https://dc.lft.to/lastmile_qr_scan", "android": "https://dc.lft.to/lastmile_qr_scan"}, "is_disabled": 0, "is_reserved": 0, "name": "6eb641a256082a7b50881c3addbc87fa", "type": "electric_scooter", "fusion_lat": 0.0}, {"bike_id": "add77ea8e257c2e753a57a52b4dfc4b8", "lon": -77.04298933333334, "lat": 38.92298616666667, "fusion_lon": 0.0, "rental_uris": {"ios": "https://dc.lft.to/lastmile_qr_scan", "android": "https://dc.lft.to/lastmile_qr_scan"}, "is_disabled": 0, "is_reserved": 0, "name": "add77ea8e257c2e753a57a52b4dfc4b8", "type": "electric_scooter", "fusion_lat": 0.0}, {"bike_id": "a944363d3b61e5b77c9144d3a4ad6163", "lon": -76.98161466666667, "lat": 38.896171833333334, "fusion_lon": 0.0, "rental_uris": {"ios": "https://dc.lft.to/lastmile_qr_scan", "android": "https://dc.lft.to/lastmile_qr_scan"}, "is_disabled": 0, "is_reserved": 0, "name": "a944363d3b61e5b77c9144d3a4ad6163", "type": "electric_scooter", "fusion_lat": 0.0}, {"bike_id": "753365d0fcc32e3ebad2a9a4cab8d104", "lon": -76.99813783333333, "lat": 38.9072805, "fusion_lon": 0.0, "rental_uris": {"ios": "https://dc.lft.to/lastmile_qr_scan", "android": "https://dc.lft.to/lastmile_qr_scan"}, "is_disabled": 0, "is_reserved": 0, "name": "753365d0fcc32e3ebad2a9a4cab8d104", "type": "electric_scooter", "fusion_lat": 0.0}, {"bike_id": "7acc1e97901da6d7639fa60444601e32", "lon": -76.95448216666666, "lat": 38.8838945, "fusion_lon": 0.0, "rental_uris": {"ios": "https://dc.lft.to/lastmile_qr_scan", "android": "https://dc.lft.to/lastmile_qr_scan"}, "is_disabled": 0, "is_reserved": 0, "name": "7acc1e97901da6d7639fa60444601e32", "type": "electric_scooter", "fusion_lat": 0.0}, {"bike_id": "93773ae902f767c7881e3844b5c87c32", "lon": -77.02347366666666, "lat": 38.92510583333333, "fusion_lon": 0.0, "rental_uris": {"ios": "https://dc.lft.to/lastmile_qr_scan", "android": "https://dc.lft.to/lastmile_qr_scan"}, "is_disabled": 0, "is_reserved": 0, "name": "93773ae902f767c7881e3844b5c87c32", "type": "electric_scooter", "fusion_lat": 0.0}, {"bike_id": "001ef0e6c91e65761b7912859bd9c877", "lon": -76.99150216666666, "lat": 38.891162, "fusion_lon": 0.0, "rental_uris": {"ios": "https://dc.lft.to/lastmile_qr_scan", "android": "https://dc.lft.to/lastmile_qr_scan"}, "is_disabled": 0, "is_reserved": 0, "name": "001ef0e6c91e65761b7912859bd9c877", "type": "electric_scooter", "fusion_lat": 0.0}, {"bike_id": "4144367fef83743b9fb36fdf08f30ca0", "lon": -77.04135733333334, "lat": 38.909080833333334, "fusion_lon": 0.0, "rental_uris": {"ios": "https://dc.lft.to/lastmile_qr_scan", "android": "https://dc.lft.to/lastmile_qr_scan"}, "is_disabled": 0, "is_reserved": 0, "name": "4144367fef83743b9fb36fdf08f30ca0", "type": "electric_scooter", "fusion_lat": 0.0}, {"bike_id": "23dc31374eafafbabed55790448be3bc", "lon": -77.00567783333334, "lat": 38.83701716666667, "fusion_lon": 0.0, "rental_uris": {"ios": "https://dc.lft.to/lastmile_qr_scan", "android": "https://dc.lft.to/lastmile_qr_scan"}, "is_disabled": 0, "is_reserved": 0, "name": "23dc31374eafafbabed55790448be3bc", "type": "electric_scooter", "fusion_lat": 0.0}, {"bike_id": "a57cef252bd1090acd9940a2c8a47e02", "lon": -76.94892116666666, "lat": 38.895715, "fusion_lon": 0.0, "rental_uris": {"ios": "https://dc.lft.to/lastmile_qr_scan", "android": "https://dc.lft.to/lastmile_qr_scan"}, "is_disabled": 0, "is_reserved": 0, "name": "a57cef252bd1090acd9940a2c8a47e02", "type": "electric_scooter", "fusion_lat": 0.0}, {"bike_id": "c44cc158f172541b029fddeafb9513fe", "lon": -77.03397416666667, "lat": 38.9167545, "fusion_lon": 0.0, "rental_uris": {"ios": "https://dc.lft.to/lastmile_qr_scan", "android": "https://dc.lft.to/lastmile_qr_scan"}, "is_disabled": 0, "is_reserved": 0, "name": "c44cc158f172541b029fddeafb9513fe", "type": "electric_scooter", "fusion_lat": 0.0}, {"bike_id": "4f3e6db7b665aaadc75dc7d7be70b0db", "lon": -77.03838816666666, "lat": 38.90623383333333, "fusion_lon": 0.0, "rental_uris": {"ios": "https://dc.lft.to/lastmile_qr_scan", "android": "https://dc.lft.to/lastmile_qr_scan"}, "is_disabled": 0, "is_reserved": 0, "name": "4f3e6db7b665aaadc75dc7d7be70b0db", "type": "electric_scooter", "fusion_lat": 0.0}, {"bike_id": "5b46ecdf7011be4d140e790d90e62834", "lon": -77.0258655, "lat": 38.9204175, "fusion_lon": 0.0, "rental_uris": {"ios": "https://dc.lft.to/lastmile_qr_scan", "android": "https://dc.lft.to/lastmile_qr_scan"}, "is_disabled": 0, "is_reserved": 0, "name": "5b46ecdf7011be4d140e790d90e62834", "type": "electric_scooter", "fusion_lat": 0.0}, {"bike_id": "5e02b5b974a6819240e6041ce37de391", "lon": -77.04800183333333, "lat": 38.8922385, "fusion_lon": 0.0, "rental_uris": {"ios": "https://dc.lft.to/lastmile_qr_scan", "android": "https://dc.lft.to/lastmile_qr_scan"}, "is_disabled": 0, "is_reserved": 0, "name": "5e02b5b974a6819240e6041ce37de391", "type": "electric_scooter", "fusion_lat": 0.0}, {"bike_id": "49e5c18d9880867e852de7d00efb5ee6", "lon": -76.99777216666666, "lat": 38.84430483333333, "fusion_lon": 0.0, "rental_uris": {"ios": "https://dc.lft.to/lastmile_qr_scan", "android": "https://dc.lft.to/lastmile_qr_scan"}, "is_disabled": 0, "is_reserved": 0, "name": "49e5c18d9880867e852de7d00efb5ee6", "type": "electric_scooter", "fusion_lat": 0.0}, {"bike_id": "7464efbe5a24a20be57c676450660823", "lon": -77.0199145, "lat": 38.885470166666664, "fusion_lon": 0.0, "rental_uris": {"ios": "https://dc.lft.to/lastmile_qr_scan", "android": "https://dc.lft.to/lastmile_qr_scan"}, "is_disabled": 0, "is_reserved": 0, "name": "7464efbe5a24a20be57c676450660823", "type": "electric_scooter", "fusion_lat": 0.0}, {"bike_id": "fd16ede72b60692b3359beb86b7349a3", "lon": -77.05418183333333, "lat": 38.92825333333333, "fusion_lon": 0.0, "rental_uris": {"ios": "https://dc.lft.to/lastmile_qr_scan", "android": "https://dc.lft.to/lastmile_qr_scan"}, "is_disabled": 0, "is_reserved": 0, "name": "fd16ede72b60692b3359beb86b7349a3", "type": "electric_scooter", "fusion_lat": 0.0}, {"bike_id": "92ef6f99915a5bdf7b37f22ed45e5551", "lon": -77.03308383333334, "lat": 38.908499666666664, "fusion_lon": 0.0, "rental_uris": {"ios": "https://dc.lft.to/lastmile_qr_scan", "android": "https://dc.lft.to/lastmile_qr_scan"}, "is_disabled": 0, "is_reserved": 0, "name": "92ef6f99915a5bdf7b37f22ed45e5551", "type": "electric_scooter", "fusion_lat": 0.0}, {"bike_id": "7f3f28e6ef76b411adf209c0c22701a8", "lon": -77.00452166666666, "lat": 38.8763735, "fusion_lon": 0.0, "rental_uris": {"ios": "https://dc.lft.to/lastmile_qr_scan", "android": "https://dc.lft.to/lastmile_qr_scan"}, "is_disabled": 0, "is_reserved": 0, "name": "7f3f28e6ef76b411adf209c0c22701a8", "type": "electric_scooter", "fusion_lat": 0.0}, {"bike_id": "d0a2a8d9fa3471df441502f2556edc06", "lon": -77.04495816666666, "lat": 38.91198966666666, "fusion_lon": 0.0, "rental_uris": {"ios": "https://dc.lft.to/lastmile_qr_scan", "android": "https://dc.lft.to/lastmile_qr_scan"}, "is_disabled": 0, "is_reserved": 0, "name": "d0a2a8d9fa3471df441502f2556edc06", "type": "electric_scooter", "fusion_lat": 0.0}, {"bike_id": "e8248556da3ea8aca4a51165fe5bc34e", "lon": -77.01945233333333, "lat": 38.9224605, "fusion_lon": 0.0, "rental_uris": {"ios": "https://dc.lft.to/lastmile_qr_scan", "android": "https://dc.lft.to/lastmile_qr_scan"}, "is_disabled": 0, "is_reserved": 0, "name": "e8248556da3ea8aca4a51165fe5bc34e", "type": "electric_bike", "fusion_lat": 0.0}, {"bike_id": "256b23d168940713f63c604fa9b008fe", "lon": -77.01979066666667, "lat": 38.91122583333333, "fusion_lon": 0.0, "rental_uris": {"ios": "https://dc.lft.to/lastmile_qr_scan", "android": "https://dc.lft.to/lastmile_qr_scan"}, "is_disabled": 0, "is_reserved": 0, "name": "256b23d168940713f63c604fa9b008fe", "type": "electric_bike", "fusion_lat": 0.0}, {"bike_id": "92f80267181f0a0307b6cd56a7bdaf26", "lon": -77.03213383333333, "lat": 38.920009666666665, "fusion_lon": 0.0, "rental_uris": {"ios": "https://dc.lft.to/lastmile_qr_scan", "android": "https://dc.lft.to/lastmile_qr_scan"}, "is_disabled": 0, "is_reserved": 0, "name": "92f80267181f0a0307b6cd56a7bdaf26", "type": "electric_scooter", "fusion_lat": 0.0}, {"bike_id": "adad577934f867a284089d828e4f6048", "lon": -77.048074, "lat": 38.9046605, "fusion_lon": 0.0, "rental_uris": {"ios": "https://dc.lft.to/lastmile_qr_scan", "android": "https://dc.lft.to/lastmile_qr_scan"}, "is_disabled": 0, "is_reserved": 0, "name": "adad577934f867a284089d828e4f6048", "type": "electric_scooter", "fusion_lat": 0.0}, {"bike_id": "fdc281d7028230cfab7e38f5fcb2f3b0", "lon": -77.0298295, "lat": 38.92055083333333, "fusion_lon": 0.0, "rental_uris": {"ios": "https://dc.lft.to/lastmile_qr_scan", "android": "https://dc.lft.to/lastmile_qr_scan"}, "is_disabled": 0, "is_reserved": 0, "name": "fdc281d7028230cfab7e38f5fcb2f3b0", "type": "electric_scooter", "fusion_lat": 0.0}, {"bike_id": "cb56cd683e4648e9eb89c5a71a772e71", "lon": -77.02154466666667, "lat": 38.924642, "fusion_lon": 0.0, "rental_uris": {"ios": "https://dc.lft.to/lastmile_qr_scan", "android": "https://dc.lft.to/lastmile_qr_scan"}, "is_disabled": 0, "is_reserved": 0, "name": "cb56cd683e4648e9eb89c5a71a772e71", "type": "electric_scooter", "fusion_lat": 0.0}, {"bike_id": "7851a2971226e1d8c50590bee22ce0b2", "lon": -77.03145216666667, "lat": 38.91418633333333, "fusion_lon": 0.0, "rental_uris": {"ios": "https://dc.lft.to/lastmile_qr_scan", "android": "https://dc.lft.to/lastmile_qr_scan"}, "is_disabled": 0, "is_reserved": 0, "name": "7851a2971226e1d8c50590bee22ce0b2", "type": "electric_scooter", "fusion_lat": 0.0}, {"bike_id": "77bc396179caac50b1112070d3711f02", "lon": -77.02488933333333, "lat": 38.941833333333335, "fusion_lon": 0.0, "rental_uris": {"ios": "https://dc.lft.to/lastmile_qr_scan", "android": "https://dc.lft.to/lastmile_qr_scan"}, "is_disabled": 0, "is_reserved": 0, "name": "77bc396179caac50b1112070d3711f02", "type": "electric_scooter", "fusion_lat": 0.0}, {"bike_id": "34c27b8f6f24a5638f4650b74109996c", "lon": -77.11575083333334, "lat": 38.993450333333335, "fusion_lon": 0.0, "rental_uris": {"ios": "https://dc.lft.to/lastmile_qr_scan", "android": "https://dc.lft.to/lastmile_qr_scan"}, "is_disabled": 0, "is_reserved": 0, "name": "34c27b8f6f24a5638f4650b74109996c", "type": "electric_bike", "fusion_lat": 0.0}, {"bike_id": "8c917a3bfc47df1720f17e5f80964dae", "lon": -77.02519516666666, "lat": 38.93865266666667, "fusion_lon": 0.0, "rental_uris": {"ios": "https://dc.lft.to/lastmile_qr_scan", "android": "https://dc.lft.to/lastmile_qr_scan"}, "is_disabled": 0, "is_reserved": 0, "name": "8c917a3bfc47df1720f17e5f80964dae", "type": "electric_scooter", "fusion_lat": 0.0}, {"bike_id": "c0b3bac941566c2dd3714e0fdbf6f43e", "lon": -77.0342, "lat": 38.90959766666667, "fusion_lon": 0.0, "rental_uris": {"ios": "https://dc.lft.to/lastmile_qr_scan", "android": "https://dc.lft.to/lastmile_qr_scan"}, "is_disabled": 0, "is_reserved": 0, "name": "c0b3bac941566c2dd3714e0fdbf6f43e", "type": "electric_scooter", "fusion_lat": 0.0}, {"bike_id": "99be9d79880a5367a79c1fcdb3ebc5f8", "lon": -77.04999166666667, "lat": 38.892309833333336, "fusion_lon": 0.0, "rental_uris": {"ios": "https://dc.lft.to/lastmile_qr_scan", "android": "https://dc.lft.to/lastmile_qr_scan"}, "is_disabled": 0, "is_reserved": 0, "name": "99be9d79880a5367a79c1fcdb3ebc5f8", "type": "electric_scooter", "fusion_lat": 0.0}, {"bike_id": "2f206f573ecc877c00bc9b7d4211101b", "lon": -77.18565233333334, "lat": 38.92968316666666, "fusion_lon": 0.0, "rental_uris": {"ios": "https://dc.lft.to/lastmile_qr_scan", "android": "https://dc.lft.to/lastmile_qr_scan"}, "is_disabled": 0, "is_reserved": 0, "name": "2f206f573ecc877c00bc9b7d4211101b", "type": "electric_bike", "fusion_lat": 0.0}, {"bike_id": "d9a6f8f23067cad9220b79b025f4a840", "lon": -77.034347, "lat": 38.933195833333336, "fusion_lon": 0.0, "rental_uris": {"ios": "https://dc.lft.to/lastmile_qr_scan", "android": "https://dc.lft.to/lastmile_qr_scan"}, "is_disabled": 0, "is_reserved": 0, "name": "d9a6f8f23067cad9220b79b025f4a840", "type": "electric_scooter", "fusion_lat": 0.0}, {"bike_id": "b83d8485245192dff8df673426521754", "lon": -77.046466, "lat": 39.055049, "fusion_lon": 0.0, "rental_uris": {"ios": "https://dc.lft.to/lastmile_qr_scan", "android": "https://dc.lft.to/lastmile_qr_scan"}, "is_disabled": 0, "is_reserved": 0, "name": "b83d8485245192dff8df673426521754", "type": "electric_bike", "fusion_lat": 0.0}, {"bike_id": "71e97b81fe0cb3189d760eb8e2879895", "lon": -77.0579675, "lat": 38.90266583333333, "fusion_lon": 0.0, "rental_uris": {"ios": "https://dc.lft.to/lastmile_qr_scan", "android": "https://dc.lft.to/lastmile_qr_scan"}, "is_disabled": 0, "is_reserved": 0, "name": "71e97b81fe0cb3189d760eb8e2879895", "type": "electric_scooter", "fusion_lat": 0.0}, {"bike_id": "45deedd8ee97783334a79d4fbc68ba58", "lon": -77.0450025, "lat": 38.9100935, "fusion_lon": 0.0, "rental_uris": {"ios": "https://dc.lft.to/lastmile_qr_scan", "android": "https://dc.lft.to/lastmile_qr_scan"}, "is_disabled": 0, "is_reserved": 0, "name": "45deedd8ee97783334a79d4fbc68ba58", "type": "electric_scooter", "fusion_lat": 0.0}, {"bike_id": "768f5f6187e5a70f7504cd5149c6ad1c", "lon": -76.96618416666666, "lat": 38.942208, "fusion_lon": 0.0, "rental_uris": {"ios": "https://dc.lft.to/lastmile_qr_scan", "android": "https://dc.lft.to/lastmile_qr_scan"}, "is_disabled": 0, "is_reserved": 0, "name": "768f5f6187e5a70f7504cd5149c6ad1c", "type": "electric_bike", "fusion_lat": 0.0}, {"bike_id": "18355ea0c48b9ee00d57453024c890a8", "lon": -77.0239445, "lat": 38.91979366666666, "fusion_lon": 0.0, "rental_uris": {"ios": "https://dc.lft.to/lastmile_qr_scan", "android": "https://dc.lft.to/lastmile_qr_scan"}, "is_disabled": 0, "is_reserved": 0, "name": "18355ea0c48b9ee00d57453024c890a8", "type": "electric_scooter", "fusion_lat": 0.0}, {"bike_id": "38c5c5ad6215a820fd86f86032502702", "lon": -77.03701583333333, "lat": 38.914087333333335, "fusion_lon": 0.0, "rental_uris": {"ios": "https://dc.lft.to/lastmile_qr_scan", "android": "https://dc.lft.to/lastmile_qr_scan"}, "is_disabled": 0, "is_reserved": 0, "name": "38c5c5ad6215a820fd86f86032502702", "type": "electric_scooter", "fusion_lat": 0.0}, {"bike_id": "dce424f0e3dc2c6a838dcb8ce269f224", "lon": -77.03988016666666, "lat": 38.93407233333333, "fusion_lon": 0.0, "rental_uris": {"ios": "https://dc.lft.to/lastmile_qr_scan", "android": "https://dc.lft.to/lastmile_qr_scan"}, "is_disabled": 0, "is_reserved": 0, "name": "dce424f0e3dc2c6a838dcb8ce269f224", "type": "electric_scooter", "fusion_lat": 0.0}, {"bike_id": "a2588b1c320517f7f87205908573cc1b", "lon": -76.995101, "lat": 38.8860905, "fusion_lon": 0.0, "rental_uris": {"ios": "https://dc.lft.to/lastmile_qr_scan", "android": "https://dc.lft.to/lastmile_qr_scan"}, "is_disabled": 0, "is_reserved": 0, "name": "a2588b1c320517f7f87205908573cc1b", "type": "electric_scooter", "fusion_lat": 0.0}, {"bike_id": "2e4659d30f2e2a0e66610621d9f965a7", "lon": -77.0421225, "lat": 38.906938333333336, "fusion_lon": 0.0, "rental_uris": {"ios": "https://dc.lft.to/lastmile_qr_scan", "android": "https://dc.lft.to/lastmile_qr_scan"}, "is_disabled": 0, "is_reserved": 0, "name": "2e4659d30f2e2a0e66610621d9f965a7", "type": "electric_scooter", "fusion_lat": 0.0}, {"bike_id": "0f9e3aa75a24b697b7ac371f6feddbf9", "lon": -77.03182716666667, "lat": 38.913352, "fusion_lon": 0.0, "rental_uris": {"ios": "https://dc.lft.to/lastmile_qr_scan", "android": "https://dc.lft.to/lastmile_qr_scan"}, "is_disabled": 0, "is_reserved": 0, "name": "0f9e3aa75a24b697b7ac371f6feddbf9", "type": "electric_scooter", "fusion_lat": 0.0}, {"bike_id": "58ab4cc7130dbf0418edea0ea914d4f9", "lon": -77.04471533333333, "lat": 38.89612783333333, "fusion_lon": 0.0, "rental_uris": {"ios": "https://dc.lft.to/lastmile_qr_scan", "android": "https://dc.lft.to/lastmile_qr_scan"}, "is_disabled": 0, "is_reserved": 0, "name": "58ab4cc7130dbf0418edea0ea914d4f9", "type": "electric_scooter", "fusion_lat": 0.0}, {"bike_id": "8c05c7af853f109904eb413b862f4d92", "lon": -77.05807666666666, "lat": 38.90277483333333, "fusion_lon": 0.0, "rental_uris": {"ios": "https://dc.lft.to/lastmile_qr_scan", "android": "https://dc.lft.to/lastmile_qr_scan"}, "is_disabled": 0, "is_reserved": 0, "name": "8c05c7af853f109904eb413b862f4d92", "type": "electric_scooter", "fusion_lat": 0.0}, {"bike_id": "34e593636332472e92f9a1c4d8aadf5d", "lon": -76.9372985, "lat": 38.890171, "fusion_lon": 0.0, "rental_uris": {"ios": "https://dc.lft.to/lastmile_qr_scan", "android": "https://dc.lft.to/lastmile_qr_scan"}, "is_disabled": 0, "is_reserved": 0, "name": "34e593636332472e92f9a1c4d8aadf5d", "type": "electric_scooter", "fusion_lat": 0.0}, {"bike_id": "aee822965343079232aaa569428c22fa", "lon": -77.03311316666667, "lat": 38.9216295, "fusion_lon": 0.0, "rental_uris": {"ios": "https://dc.lft.to/lastmile_qr_scan", "android": "https://dc.lft.to/lastmile_qr_scan"}, "is_disabled": 0, "is_reserved": 0, "name": "aee822965343079232aaa569428c22fa", "type": "electric_scooter", "fusion_lat": 0.0}, {"bike_id": "73baf0786dc024c8afdc25eb075ec948", "lon": -77.04801533333334, "lat": 38.90952683333333, "fusion_lon": 0.0, "rental_uris": {"ios": "https://dc.lft.to/lastmile_qr_scan", "android": "https://dc.lft.to/lastmile_qr_scan"}, "is_disabled": 0, "is_reserved": 0, "name": "73baf0786dc024c8afdc25eb075ec948", "type": "electric_scooter", "fusion_lat": 0.0}, {"bike_id": "b287fbbe5a651ec451bb8f53a39468cf", "lon": -77.04041483333333, "lat": 38.9140755, "fusion_lon": 0.0, "rental_uris": {"ios": "https://dc.lft.to/lastmile_qr_scan", "android": "https://dc.lft.to/lastmile_qr_scan"}, "is_disabled": 0, "is_reserved": 0, "name": "b287fbbe5a651ec451bb8f53a39468cf", "type": "electric_scooter", "fusion_lat": 0.0}, {"bike_id": "beb93ea6b5bc1ad219cccb2a844ed374", "lon": -77.02137433333333, "lat": 38.92323783333333, "fusion_lon": 0.0, "rental_uris": {"ios": "https://dc.lft.to/lastmile_qr_scan", "android": "https://dc.lft.to/lastmile_qr_scan"}, "is_disabled": 0, "is_reserved": 0, "name": "beb93ea6b5bc1ad219cccb2a844ed374", "type": "electric_scooter", "fusion_lat": 0.0}, {"bike_id": "359db7abab50434b33b45f886e3ba50d", "lon": -77.150186, "lat": 39.05788866666666, "fusion_lon": 0.0, "rental_uris": {"ios": "https://dc.lft.to/lastmile_qr_scan", "android": "https://dc.lft.to/lastmile_qr_scan"}, "is_disabled": 0, "is_reserved": 0, "name": "359db7abab50434b33b45f886e3ba50d", "type": "electric_bike", "fusion_lat": 0.0}, {"bike_id": "20b2dac7237eaed231a3e16c923f8e7b", "lon": -77.04088716666666, "lat": 38.910632, "fusion_lon": 0.0, "rental_uris": {"ios": "https://dc.lft.to/lastmile_qr_scan", "android": "https://dc.lft.to/lastmile_qr_scan"}, "is_disabled": 0, "is_reserved": 0, "name": "20b2dac7237eaed231a3e16c923f8e7b", "type": "electric_scooter", "fusion_lat": 0.0}, {"bike_id": "bd353002efa2f4fdaec8fe4db2f710b1", "lon": -76.9896735, "lat": 38.856964, "fusion_lon": 0.0, "rental_uris": {"ios": "https://dc.lft.to/lastmile_qr_scan", "android": "https://dc.lft.to/lastmile_qr_scan"}, "is_disabled": 0, "is_reserved": 0, "name": "bd353002efa2f4fdaec8fe4db2f710b1", "type": "electric_scooter", "fusion_lat": 0.0}, {"bike_id": "49950f2795c2221c152fecd977d1a067", "lon": -77.01899316666666, "lat": 38.9236185, "fusion_lon": 0.0, "rental_uris": {"ios": "https://dc.lft.to/lastmile_qr_scan", "android": "https://dc.lft.to/lastmile_qr_scan"}, "is_disabled": 0, "is_reserved": 0, "name": "49950f2795c2221c152fecd977d1a067", "type": "electric_scooter", "fusion_lat": 0.0}, {"bike_id": "712cc26435c40bbe4afe72c885acbf48", "lon": -77.09551183333333, "lat": 38.83735716666666, "fusion_lon": 0.0, "rental_uris": {"ios": "https://dc.lft.to/lastmile_qr_scan", "android": "https://dc.lft.to/lastmile_qr_scan"}, "is_disabled": 0, "is_reserved": 0, "name": "712cc26435c40bbe4afe72c885acbf48", "type": "electric_bike", "fusion_lat": 0.0}, {"bike_id": "8252e9b1121fc3536a3744bec4f5a224", "lon": -77.03801166666666, "lat": 38.9304745, "fusion_lon": 0.0, "rental_uris": {"ios": "https://dc.lft.to/lastmile_qr_scan", "android": "https://dc.lft.to/lastmile_qr_scan"}, "is_disabled": 0, "is_reserved": 0, "name": "8252e9b1121fc3536a3744bec4f5a224", "type": "electric_scooter", "fusion_lat": 0.0}, {"bike_id": "709d8644243c2ae2af423172dd44ab9d", "lon": -76.997798, "lat": 38.8442775, "fusion_lon": 0.0, "rental_uris": {"ios": "https://dc.lft.to/lastmile_qr_scan", "android": "https://dc.lft.to/lastmile_qr_scan"}, "is_disabled": 0, "is_reserved": 0, "name": "709d8644243c2ae2af423172dd44ab9d", "type": "electric_scooter", "fusion_lat": 0.0}, {"bike_id": "e2e59490c7ba46c78971c1206ff45b17", "lon": -77.084537, "lat": 38.959146833333335, "fusion_lon": 0.0, "rental_uris": {"ios": "https://dc.lft.to/lastmile_qr_scan", "android": "https://dc.lft.to/lastmile_qr_scan"}, "is_disabled": 0, "is_reserved": 0, "name": "e2e59490c7ba46c78971c1206ff45b17", "type": "electric_scooter", "fusion_lat": 0.0}, {"bike_id": "44ee707dc24eaa318e3face723221ba8", "lon": -77.0442785, "lat": 38.921142333333336, "fusion_lon": 0.0, "rental_uris": {"ios": "https://dc.lft.to/lastmile_qr_scan", "android": "https://dc.lft.to/lastmile_qr_scan"}, "is_disabled": 0, "is_reserved": 0, "name": "44ee707dc24eaa318e3face723221ba8", "type": "electric_scooter", "fusion_lat": 0.0}, {"bike_id": "a71476e33653b1365ffbc0a1e9a87c5a", "lon": -77.04347533333333, "lat": 38.896035833333336, "fusion_lon": 0.0, "rental_uris": {"ios": "https://dc.lft.to/lastmile_qr_scan", "android": "https://dc.lft.to/lastmile_qr_scan"}, "is_disabled": 0, "is_reserved": 0, "name": "a71476e33653b1365ffbc0a1e9a87c5a", "type": "electric_scooter", "fusion_lat": 0.0}, {"bike_id": "4690ec9e866ca8e8bf63065a49b81064", "lon": -77.043324, "lat": 38.901216166666664, "fusion_lon": 0.0, "rental_uris": {"ios": "https://dc.lft.to/lastmile_qr_scan", "android": "https://dc.lft.to/lastmile_qr_scan"}, "is_disabled": 0, "is_reserved": 0, "name": "4690ec9e866ca8e8bf63065a49b81064", "type": "electric_scooter", "fusion_lat": 0.0}, {"bike_id": "93d2b2e38e4646a3c99bd976f9857eb6", "lon": -77.04486983333334, "lat": 38.905628666666665, "fusion_lon": 0.0, "rental_uris": {"ios": "https://dc.lft.to/lastmile_qr_scan", "android": "https://dc.lft.to/lastmile_qr_scan"}, "is_disabled": 0, "is_reserved": 0, "name": "93d2b2e38e4646a3c99bd976f9857eb6", "type": "electric_scooter", "fusion_lat": 0.0}, {"bike_id": "bf471a3b6e1eccfa35510ceb15ab6d6a", "lon": -76.986094, "lat": 38.906206166666664, "fusion_lon": 0.0, "rental_uris": {"ios": "https://dc.lft.to/lastmile_qr_scan", "android": "https://dc.lft.to/lastmile_qr_scan"}, "is_disabled": 0, "is_reserved": 0, "name": "bf471a3b6e1eccfa35510ceb15ab6d6a", "type": "electric_bike", "fusion_lat": 0.0}, {"bike_id": "8133da6877ff3c38b7307093132083b3", "lon": -77.02963083333333, "lat": 38.91683333333334, "fusion_lon": 0.0, "rental_uris": {"ios": "https://dc.lft.to/lastmile_qr_scan", "android": "https://dc.lft.to/lastmile_qr_scan"}, "is_disabled": 0, "is_reserved": 0, "name": "8133da6877ff3c38b7307093132083b3", "type": "electric_scooter", "fusion_lat": 0.0}, {"bike_id": "dfd87c47e8b326464722d3fb373feb2b", "lon": -77.02694733333334, "lat": 38.90602783333333, "fusion_lon": 0.0, "rental_uris": {"ios": "https://dc.lft.to/lastmile_qr_scan", "android": "https://dc.lft.to/lastmile_qr_scan"}, "is_disabled": 0, "is_reserved": 0, "name": "dfd87c47e8b326464722d3fb373feb2b", "type": "electric_scooter", "fusion_lat": 0.0}, {"bike_id": "de6a6e4aa3497418f2fb628ca85b2d6f", "lon": -77.02770033333333, "lat": 38.9171165, "fusion_lon": 0.0, "rental_uris": {"ios": "https://dc.lft.to/lastmile_qr_scan", "android": "https://dc.lft.to/lastmile_qr_scan"}, "is_disabled": 0, "is_reserved": 0, "name": "de6a6e4aa3497418f2fb628ca85b2d6f", "type": "electric_scooter", "fusion_lat": 0.0}, {"bike_id": "1f9b0907ed833c4eba54fab8a7eb5b06", "lon": -77.03190683333334, "lat": 38.920148833333336, "fusion_lon": 0.0, "rental_uris": {"ios": "https://dc.lft.to/lastmile_qr_scan", "android": "https://dc.lft.to/lastmile_qr_scan"}, "is_disabled": 0, "is_reserved": 0, "name": "1f9b0907ed833c4eba54fab8a7eb5b06", "type": "electric_scooter", "fusion_lat": 0.0}, {"bike_id": "32166715f0fa8ca97b96c3612858bd9e", "lon": -77.04239266666667, "lat": 38.92282683333333, "fusion_lon": 0.0, "rental_uris": {"ios": "https://dc.lft.to/lastmile_qr_scan", "android": "https://dc.lft.to/lastmile_qr_scan"}, "is_disabled": 0, "is_reserved": 0, "name": "32166715f0fa8ca97b96c3612858bd9e", "type": "electric_scooter", "fusion_lat": 0.0}, {"bike_id": "ef56be22ddfaa7b7fe398c05020e0957", "lon": -77.02524016666666, "lat": 38.921497333333335, "fusion_lon": 0.0, "rental_uris": {"ios": "https://dc.lft.to/lastmile_qr_scan", "android": "https://dc.lft.to/lastmile_qr_scan"}, "is_disabled": 0, "is_reserved": 0, "name": "ef56be22ddfaa7b7fe398c05020e0957", "type": "electric_scooter", "fusion_lat": 0.0}, {"bike_id": "c7d1a90382d1f96ec8c46accb9c5ea23", "lon": -77.042204, "lat": 38.920637166666666, "fusion_lon": 0.0, "rental_uris": {"ios": "https://dc.lft.to/lastmile_qr_scan", "android": "https://dc.lft.to/lastmile_qr_scan"}, "is_disabled": 0, "is_reserved": 0, "name": "c7d1a90382d1f96ec8c46accb9c5ea23", "type": "electric_scooter", "fusion_lat": 0.0}, {"bike_id": "e4e5872c55ebf67dab7703e4954fa304", "lon": -77.0424985, "lat": 38.9035705, "fusion_lon": 0.0, "rental_uris": {"ios": "https://dc.lft.to/lastmile_qr_scan", "android": "https://dc.lft.to/lastmile_qr_scan"}, "is_disabled": 0, "is_reserved": 0, "name": "e4e5872c55ebf67dab7703e4954fa304", "type": "electric_scooter", "fusion_lat": 0.0}, {"bike_id": "07912ec6cbaa61c89ca237e864a3167e", "lon": -77.03155666666666, "lat": 38.902485, "fusion_lon": 0.0, "rental_uris": {"ios": "https://dc.lft.to/lastmile_qr_scan", "android": "https://dc.lft.to/lastmile_qr_scan"}, "is_disabled": 0, "is_reserved": 0, "name": "07912ec6cbaa61c89ca237e864a3167e", "type": "electric_scooter", "fusion_lat": 0.0}, {"bike_id": "5dd202fe3c0c0f72c533bae5ff1d7305", "lon": -77.05920266666666, "lat": 38.90139716666667, "fusion_lon": 0.0, "rental_uris": {"ios": "https://dc.lft.to/lastmile_qr_scan", "android": "https://dc.lft.to/lastmile_qr_scan"}, "is_disabled": 0, "is_reserved": 0, "name": "5dd202fe3c0c0f72c533bae5ff1d7305", "type": "electric_scooter", "fusion_lat": 0.0}, {"bike_id": "91c3d906f7c7f4d3b133df61fdb7309c", "lon": -77.00239166666667, "lat": 38.8764675, "fusion_lon": 0.0, "rental_uris": {"ios": "https://dc.lft.to/lastmile_qr_scan", "android": "https://dc.lft.to/lastmile_qr_scan"}, "is_disabled": 0, "is_reserved": 0, "name": "91c3d906f7c7f4d3b133df61fdb7309c", "type": "electric_scooter", "fusion_lat": 0.0}, {"bike_id": "58568c37d36ea72c6b76850d9d486705", "lon": -77.008123, "lat": 38.878604833333334, "fusion_lon": 0.0, "rental_uris": {"ios": "https://dc.lft.to/lastmile_qr_scan", "android": "https://dc.lft.to/lastmile_qr_scan"}, "is_disabled": 0, "is_reserved": 0, "name": "58568c37d36ea72c6b76850d9d486705", "type": "electric_scooter", "fusion_lat": 0.0}, {"bike_id": "3819d674877f212b7fcbbecc3fa3f642", "lon": -77.02512733333333, "lat": 38.921381, "fusion_lon": 0.0, "rental_uris": {"ios": "https://dc.lft.to/lastmile_qr_scan", "android": "https://dc.lft.to/lastmile_qr_scan"}, "is_disabled": 0, "is_reserved": 0, "name": "3819d674877f212b7fcbbecc3fa3f642", "type": "electric_scooter", "fusion_lat": 0.0}, {"bike_id": "d94c06aea3336b62375de2cb188e6c71", "lon": -77.0272025, "lat": 38.9513575, "fusion_lon": 0.0, "rental_uris": {"ios": "https://dc.lft.to/lastmile_qr_scan", "android": "https://dc.lft.to/lastmile_qr_scan"}, "is_disabled": 0, "is_reserved": 0, "name": "d94c06aea3336b62375de2cb188e6c71", "type": "electric_scooter", "fusion_lat": 0.0}, {"bike_id": "45fcad157ca51125d40bf87b4bb5207c", "lon": -77.02761166666667, "lat": 38.9561565, "fusion_lon": 0.0, "rental_uris": {"ios": "https://dc.lft.to/lastmile_qr_scan", "android": "https://dc.lft.to/lastmile_qr_scan"}, "is_disabled": 0, "is_reserved": 0, "name": "45fcad157ca51125d40bf87b4bb5207c", "type": "electric_scooter", "fusion_lat": 0.0}, {"bike_id": "03fa9047a94ec5a52feb4d4ea77d1426", "lon": -77.03201233333333, "lat": 38.930655, "fusion_lon": 0.0, "rental_uris": {"ios": "https://dc.lft.to/lastmile_qr_scan", "android": "https://dc.lft.to/lastmile_qr_scan"}, "is_disabled": 0, "is_reserved": 0, "name": "03fa9047a94ec5a52feb4d4ea77d1426", "type": "electric_scooter", "fusion_lat": 0.0}, {"bike_id": "d847a9820fc37af508a9682ab11ffac9", "lon": -77.03072366666666, "lat": 39.04226833333333, "fusion_lon": 0.0, "rental_uris": {"ios": "https://dc.lft.to/lastmile_qr_scan", "android": "https://dc.lft.to/lastmile_qr_scan"}, "is_disabled": 0, "is_reserved": 0, "name": "d847a9820fc37af508a9682ab11ffac9", "type": "electric_bike", "fusion_lat": 0.0}, {"bike_id": "2330e314e26e4271f8e60bc857ab8138", "lon": -76.965038, "lat": 38.876477, "fusion_lon": 0.0, "rental_uris": {"ios": "https://dc.lft.to/lastmile_qr_scan", "android": "https://dc.lft.to/lastmile_qr_scan"}, "is_disabled": 0, "is_reserved": 0, "name": "2330e314e26e4271f8e60bc857ab8138", "type": "electric_scooter", "fusion_lat": 0.0}, {"bike_id": "b87da02d55aa2588b7a817f0ed8a13b1", "lon": -77.02008616666667, "lat": 38.911118, "fusion_lon": 0.0, "rental_uris": {"ios": "https://dc.lft.to/lastmile_qr_scan", "android": "https://dc.lft.to/lastmile_qr_scan"}, "is_disabled": 0, "is_reserved": 0, "name": "b87da02d55aa2588b7a817f0ed8a13b1", "type": "electric_scooter", "fusion_lat": 0.0}, {"bike_id": "629832af1646e531b408d50f90026e11", "lon": -77.0122705, "lat": 38.86976533333333, "fusion_lon": 0.0, "rental_uris": {"ios": "https://dc.lft.to/lastmile_qr_scan", "android": "https://dc.lft.to/lastmile_qr_scan"}, "is_disabled": 0, "is_reserved": 0, "name": "629832af1646e531b408d50f90026e11", "type": "electric_scooter", "fusion_lat": 0.0}, {"bike_id": "f2d950bdcb3c2e7d256c5bab0fed1153", "lon": -77.00201616666666, "lat": 38.87375383333333, "fusion_lon": 0.0, "rental_uris": {"ios": "https://dc.lft.to/lastmile_qr_scan", "android": "https://dc.lft.to/lastmile_qr_scan"}, "is_disabled": 0, "is_reserved": 0, "name": "f2d950bdcb3c2e7d256c5bab0fed1153", "type": "electric_scooter", "fusion_lat": 0.0}, {"bike_id": "d2ae76687b488d00df1cf9a204cba7af", "lon": -76.99948416666666, "lat": 38.903216666666665, "fusion_lon": 0.0, "rental_uris": {"ios": "https://dc.lft.to/lastmile_qr_scan", "android": "https://dc.lft.to/lastmile_qr_scan"}, "is_disabled": 0, "is_reserved": 0, "name": "d2ae76687b488d00df1cf9a204cba7af", "type": "electric_scooter", "fusion_lat": 0.0}, {"bike_id": "f9636670c05ec652d0b328cbab7b26af", "lon": -77.02020216666666, "lat": 38.924404333333335, "fusion_lon": 0.0, "rental_uris": {"ios": "https://dc.lft.to/lastmile_qr_scan", "android": "https://dc.lft.to/lastmile_qr_scan"}, "is_disabled": 0, "is_reserved": 0, "name": "f9636670c05ec652d0b328cbab7b26af", "type": "electric_scooter", "fusion_lat": 0.0}, {"bike_id": "4be2846a4400db40e99fa23b9d8f0fff", "lon": -76.99355966666667, "lat": 38.955064666666665, "fusion_lon": 0.0, "rental_uris": {"ios": "https://dc.lft.to/lastmile_qr_scan", "android": "https://dc.lft.to/lastmile_qr_scan"}, "is_disabled": 0, "is_reserved": 0, "name": "4be2846a4400db40e99fa23b9d8f0fff", "type": "electric_bike", "fusion_lat": 0.0}, {"bike_id": "09305a98c0f76b2e717e6a3032feeddc", "lon": -77.02887883333334, "lat": 38.919480166666666, "fusion_lon": 0.0, "rental_uris": {"ios": "https://dc.lft.to/lastmile_qr_scan", "android": "https://dc.lft.to/lastmile_qr_scan"}, "is_disabled": 0, "is_reserved": 0, "name": "09305a98c0f76b2e717e6a3032feeddc", "type": "electric_scooter", "fusion_lat": 0.0}, {"bike_id": "68301c9794e40831f252e4a2c4ec1e77", "lon": -77.0430865, "lat": 38.89222566666667, "fusion_lon": 0.0, "rental_uris": {"ios": "https://dc.lft.to/lastmile_qr_scan", "android": "https://dc.lft.to/lastmile_qr_scan"}, "is_disabled": 0, "is_reserved": 0, "name": "68301c9794e40831f252e4a2c4ec1e77", "type": "electric_scooter", "fusion_lat": 0.0}, {"bike_id": "3e0778a914db1c9117ae03e0d4349579", "lon": -77.01510333333333, "lat": 38.95836116666667, "fusion_lon": 0.0, "rental_uris": {"ios": "https://dc.lft.to/lastmile_qr_scan", "android": "https://dc.lft.to/lastmile_qr_scan"}, "is_disabled": 0, "is_reserved": 0, "name": "3e0778a914db1c9117ae03e0d4349579", "type": "electric_scooter", "fusion_lat": 0.0}, {"bike_id": "14ab7a28e49dc25a3b91761b052f102d", "lon": -77.04212966666667, "lat": 38.9027915, "fusion_lon": 0.0, "rental_uris": {"ios": "https://dc.lft.to/lastmile_qr_scan", "android": "https://dc.lft.to/lastmile_qr_scan"}, "is_disabled": 0, "is_reserved": 0, "name": "14ab7a28e49dc25a3b91761b052f102d", "type": "electric_scooter", "fusion_lat": 0.0}, {"bike_id": "0ebdd4f1c6eeb76b877d0051b65ae3f7", "lon": -77.0382145, "lat": 38.90719, "fusion_lon": 0.0, "rental_uris": {"ios": "https://dc.lft.to/lastmile_qr_scan", "android": "https://dc.lft.to/lastmile_qr_scan"}, "is_disabled": 0, "is_reserved": 0, "name": "0ebdd4f1c6eeb76b877d0051b65ae3f7", "type": "electric_scooter", "fusion_lat": 0.0}, {"bike_id": "0ca2f15f089e268f39dd20f0a626b4db", "lon": -77.03310233333333, "lat": 38.9451345, "fusion_lon": 0.0, "rental_uris": {"ios": "https://dc.lft.to/lastmile_qr_scan", "android": "https://dc.lft.to/lastmile_qr_scan"}, "is_disabled": 0, "is_reserved": 0, "name": "0ca2f15f089e268f39dd20f0a626b4db", "type": "electric_scooter", "fusion_lat": 0.0}, {"bike_id": "9878addd34d7c7e799efe8bb420b8bcd", "lon": -77.03336166666666, "lat": 38.92158883333333, "fusion_lon": 0.0, "rental_uris": {"ios": "https://dc.lft.to/lastmile_qr_scan", "android": "https://dc.lft.to/lastmile_qr_scan"}, "is_disabled": 0, "is_reserved": 0, "name": "9878addd34d7c7e799efe8bb420b8bcd", "type": "electric_scooter", "fusion_lat": 0.0}, {"bike_id": "c4897b18b95fcb5933cf9dd10841b405", "lon": -76.98753633333334, "lat": 38.94559316666667, "fusion_lon": 0.0, "rental_uris": {"ios": "https://dc.lft.to/lastmile_qr_scan", "android": "https://dc.lft.to/lastmile_qr_scan"}, "is_disabled": 0, "is_reserved": 0, "name": "c4897b18b95fcb5933cf9dd10841b405", "type": "electric_bike", "fusion_lat": 0.0}, {"bike_id": "8e3bfa5526f3a58551122235bf9a986d", "lon": -77.01132883333334, "lat": 38.90730166666667, "fusion_lon": 0.0, "rental_uris": {"ios": "https://dc.lft.to/lastmile_qr_scan", "android": "https://dc.lft.to/lastmile_qr_scan"}, "is_disabled": 0, "is_reserved": 0, "name": "8e3bfa5526f3a58551122235bf9a986d", "type": "electric_scooter", "fusion_lat": 0.0}, {"bike_id": "4b6e3cc14f9b419e49d9cf42b16e882a", "lon": -76.95744116666667, "lat": 38.884577, "fusion_lon": 0.0, "rental_uris": {"ios": "https://dc.lft.to/lastmile_qr_scan", "android": "https://dc.lft.to/lastmile_qr_scan"}, "is_disabled": 0, "is_reserved": 0, "name": "4b6e3cc14f9b419e49d9cf42b16e882a", "type": "electric_scooter", "fusion_lat": 0.0}, {"bike_id": "89d7eae48fa2a1931fa8ceb0c8d072ae", "lon": -77.11865683333333, "lat": 38.858943333333336, "fusion_lon": 0.0, "rental_uris": {"ios": "https://dc.lft.to/lastmile_qr_scan", "android": "https://dc.lft.to/lastmile_qr_scan"}, "is_disabled": 0, "is_reserved": 0, "name": "89d7eae48fa2a1931fa8ceb0c8d072ae", "type": "electric_bike", "fusion_lat": 0.0}, {"bike_id": "b10c8c31fc627f6fab6333e63190a29c", "lon": -77.031553, "lat": 38.911187166666664, "fusion_lon": 0.0, "rental_uris": {"ios": "https://dc.lft.to/lastmile_qr_scan", "android": "https://dc.lft.to/lastmile_qr_scan"}, "is_disabled": 0, "is_reserved": 0, "name": "b10c8c31fc627f6fab6333e63190a29c", "type": "electric_scooter", "fusion_lat": 0.0}, {"bike_id": "8a161d75f351fae74bf4d2f2e4f2a2a8", "lon": -77.03443433333334, "lat": 38.920504666666666, "fusion_lon": 0.0, "rental_uris": {"ios": "https://dc.lft.to/lastmile_qr_scan", "android": "https://dc.lft.to/lastmile_qr_scan"}, "is_disabled": 0, "is_reserved": 0, "name": "8a161d75f351fae74bf4d2f2e4f2a2a8", "type": "electric_scooter", "fusion_lat": 0.0}, {"bike_id": "35d738fd8e7f4bd1ad0e1e83aa06d4f3", "lon": -76.97803066666667, "lat": 38.903096, "fusion_lon": 0.0, "rental_uris": {"ios": "https://dc.lft.to/lastmile_qr_scan", "android": "https://dc.lft.to/lastmile_qr_scan"}, "is_disabled": 0, "is_reserved": 0, "name": "35d738fd8e7f4bd1ad0e1e83aa06d4f3", "type": "electric_scooter", "fusion_lat": 0.0}, {"bike_id": "f8d26167ef193dc19a2a0a046d89b660", "lon": -77.03345833333333, "lat": 38.901218666666665, "fusion_lon": 0.0, "rental_uris": {"ios": "https://dc.lft.to/lastmile_qr_scan", "android": "https://dc.lft.to/lastmile_qr_scan"}, "is_disabled": 0, "is_reserved": 0, "name": "f8d26167ef193dc19a2a0a046d89b660", "type": "electric_scooter", "fusion_lat": 0.0}, {"bike_id": "577a81c9766a0a632964016214e6c12a", "lon": -77.03868083333333, "lat": 38.907892333333336, "fusion_lon": 0.0, "rental_uris": {"ios": "https://dc.lft.to/lastmile_qr_scan", "android": "https://dc.lft.to/lastmile_qr_scan"}, "is_disabled": 0, "is_reserved": 0, "name": "577a81c9766a0a632964016214e6c12a", "type": "electric_scooter", "fusion_lat": 0.0}, {"bike_id": "8d642824153116a37607595c717f6035", "lon": -76.99278983333333, "lat": 38.9061325, "fusion_lon": 0.0, "rental_uris": {"ios": "https://dc.lft.to/lastmile_qr_scan", "android": "https://dc.lft.to/lastmile_qr_scan"}, "is_disabled": 0, "is_reserved": 0, "name": "8d642824153116a37607595c717f6035", "type": "electric_scooter", "fusion_lat": 0.0}, {"bike_id": "86c5d86aec271a12c6714832b375b8e6", "lon": -77.07165066666667, "lat": 38.908727666666664, "fusion_lon": 0.0, "rental_uris": {"ios": "https://dc.lft.to/lastmile_qr_scan", "android": "https://dc.lft.to/lastmile_qr_scan"}, "is_disabled": 0, "is_reserved": 0, "name": "86c5d86aec271a12c6714832b375b8e6", "type": "electric_scooter", "fusion_lat": 0.0}, {"bike_id": "c12544d1f4328edfd527033cff0d8797", "lon": -77.0091055, "lat": 38.82786183333333, "fusion_lon": 0.0, "rental_uris": {"ios": "https://dc.lft.to/lastmile_qr_scan", "android": "https://dc.lft.to/lastmile_qr_scan"}, "is_disabled": 0, "is_reserved": 0, "name": "c12544d1f4328edfd527033cff0d8797", "type": "electric_bike", "fusion_lat": 0.0}, {"bike_id": "936a1d8ff1973ed308887d3125c3f8df", "lon": -77.041856, "lat": 38.92338683333333, "fusion_lon": 0.0, "rental_uris": {"ios": "https://dc.lft.to/lastmile_qr_scan", "android": "https://dc.lft.to/lastmile_qr_scan"}, "is_disabled": 0, "is_reserved": 0, "name": "936a1d8ff1973ed308887d3125c3f8df", "type": "electric_scooter", "fusion_lat": 0.0}, {"bike_id": "ae93ca76a3f30263e2759356dbe57046", "lon": -77.0112745, "lat": 38.89880133333333, "fusion_lon": 0.0, "rental_uris": {"ios": "https://dc.lft.to/lastmile_qr_scan", "android": "https://dc.lft.to/lastmile_qr_scan"}, "is_disabled": 0, "is_reserved": 0, "name": "ae93ca76a3f30263e2759356dbe57046", "type": "electric_scooter", "fusion_lat": 0.0}, {"bike_id": "6b1914798c2597ef916879a3302959b0", "lon": -77.00340833333334, "lat": 38.916008166666664, "fusion_lon": 0.0, "rental_uris": {"ios": "https://dc.lft.to/lastmile_qr_scan", "android": "https://dc.lft.to/lastmile_qr_scan"}, "is_disabled": 0, "is_reserved": 0, "name": "6b1914798c2597ef916879a3302959b0", "type": "electric_scooter", "fusion_lat": 0.0}, {"bike_id": "bc9fe3e758b8658f42f086527409ea84", "lon": -77.00577883333334, "lat": 38.90253283333333, "fusion_lon": 0.0, "rental_uris": {"ios": "https://dc.lft.to/lastmile_qr_scan", "android": "https://dc.lft.to/lastmile_qr_scan"}, "is_disabled": 0, "is_reserved": 0, "name": "bc9fe3e758b8658f42f086527409ea84", "type": "electric_scooter", "fusion_lat": 0.0}, {"bike_id": "c340041db7f05cce15c1913119e2f9b5", "lon": -77.02218133333334, "lat": 38.92084, "fusion_lon": 0.0, "rental_uris": {"ios": "https://dc.lft.to/lastmile_qr_scan", "android": "https://dc.lft.to/lastmile_qr_scan"}, "is_disabled": 0, "is_reserved": 0, "name": "c340041db7f05cce15c1913119e2f9b5", "type": "electric_scooter", "fusion_lat": 0.0}, {"bike_id": "742f87dcdb1d2a36e59ddb81cb2365fd", "lon": -76.984822, "lat": 38.905051666666665, "fusion_lon": 0.0, "rental_uris": {"ios": "https://dc.lft.to/lastmile_qr_scan", "android": "https://dc.lft.to/lastmile_qr_scan"}, "is_disabled": 0, "is_reserved": 0, "name": "742f87dcdb1d2a36e59ddb81cb2365fd", "type": "electric_scooter", "fusion_lat": 0.0}, {"bike_id": "6208c68e663dffb17026124c1f630ac2", "lon": -77.032146, "lat": 38.920016333333336, "fusion_lon": 0.0, "rental_uris": {"ios": "https://dc.lft.to/lastmile_qr_scan", "android": "https://dc.lft.to/lastmile_qr_scan"}, "is_disabled": 0, "is_reserved": 0, "name": "6208c68e663dffb17026124c1f630ac2", "type": "electric_scooter", "fusion_lat": 0.0}, {"bike_id": "781e27140380371dfe9daa847cdb8aab", "lon": -77.00791683333334, "lat": 38.879244666666665, "fusion_lon": 0.0, "rental_uris": {"ios": "https://dc.lft.to/lastmile_qr_scan", "android": "https://dc.lft.to/lastmile_qr_scan"}, "is_disabled": 0, "is_reserved": 0, "name": "781e27140380371dfe9daa847cdb8aab", "type": "electric_scooter", "fusion_lat": 0.0}, {"bike_id": "7cecef569621b34c9c4e95a5c8de66b6", "lon": -76.99253216666666, "lat": 38.88270683333333, "fusion_lon": 0.0, "rental_uris": {"ios": "https://dc.lft.to/lastmile_qr_scan", "android": "https://dc.lft.to/lastmile_qr_scan"}, "is_disabled": 0, "is_reserved": 0, "name": "7cecef569621b34c9c4e95a5c8de66b6", "type": "electric_scooter", "fusion_lat": 0.0}, {"bike_id": "d889b19e1c54341816de1e67980a0ff0", "lon": -77.03196316666667, "lat": 38.9174005, "fusion_lon": 0.0, "rental_uris": {"ios": "https://dc.lft.to/lastmile_qr_scan", "android": "https://dc.lft.to/lastmile_qr_scan"}, "is_disabled": 0, "is_reserved": 0, "name": "d889b19e1c54341816de1e67980a0ff0", "type": "electric_scooter", "fusion_lat": 0.0}, {"bike_id": "c7ffca56f8371ac01a26cc56c9ab295b", "lon": -77.042408, "lat": 38.9070645, "fusion_lon": 0.0, "rental_uris": {"ios": "https://dc.lft.to/lastmile_qr_scan", "android": "https://dc.lft.to/lastmile_qr_scan"}, "is_disabled": 0, "is_reserved": 0, "name": "c7ffca56f8371ac01a26cc56c9ab295b", "type": "electric_scooter", "fusion_lat": 0.0}, {"bike_id": "cc8bd75a8249e5d20edc31c5d3ea8748", "lon": -77.0320925, "lat": 38.91194633333333, "fusion_lon": 0.0, "rental_uris": {"ios": "https://dc.lft.to/lastmile_qr_scan", "android": "https://dc.lft.to/lastmile_qr_scan"}, "is_disabled": 0, "is_reserved": 0, "name": "cc8bd75a8249e5d20edc31c5d3ea8748", "type": "electric_scooter", "fusion_lat": 0.0}, {"bike_id": "0c6f88ed03624bbf66579020cfcfaebe", "lon": -76.98713683333334, "lat": 38.86700866666666, "fusion_lon": 0.0, "rental_uris": {"ios": "https://dc.lft.to/lastmile_qr_scan", "android": "https://dc.lft.to/lastmile_qr_scan"}, "is_disabled": 0, "is_reserved": 0, "name": "0c6f88ed03624bbf66579020cfcfaebe", "type": "electric_scooter", "fusion_lat": 0.0}, {"bike_id": "a1474c4764ae6b16c529637ae1304aaf", "lon": -77.0258755, "lat": 38.92043833333334, "fusion_lon": 0.0, "rental_uris": {"ios": "https://dc.lft.to/lastmile_qr_scan", "android": "https://dc.lft.to/lastmile_qr_scan"}, "is_disabled": 0, "is_reserved": 0, "name": "a1474c4764ae6b16c529637ae1304aaf", "type": "electric_scooter", "fusion_lat": 0.0}, {"bike_id": "a4f0ea94b0f2ed02631c43a892af5eb7", "lon": -77.0327045, "lat": 38.8988165, "fusion_lon": 0.0, "rental_uris": {"ios": "https://dc.lft.to/lastmile_qr_scan", "android": "https://dc.lft.to/lastmile_qr_scan"}, "is_disabled": 0, "is_reserved": 0, "name": "a4f0ea94b0f2ed02631c43a892af5eb7", "type": "electric_scooter", "fusion_lat": 0.0}, {"bike_id": "c93f552a5bc77efcc2f56ddf5eac929d", "lon": -77.009234, "lat": 38.90834383333333, "fusion_lon": 0.0, "rental_uris": {"ios": "https://dc.lft.to/lastmile_qr_scan", "android": "https://dc.lft.to/lastmile_qr_scan"}, "is_disabled": 0, "is_reserved": 0, "name": "c93f552a5bc77efcc2f56ddf5eac929d", "type": "electric_scooter", "fusion_lat": 0.0}, {"bike_id": "bf4ddd10ebb1f28328a2bcc699da258f", "lon": -77.00865883333333, "lat": 38.87941516666667, "fusion_lon": 0.0, "rental_uris": {"ios": "https://dc.lft.to/lastmile_qr_scan", "android": "https://dc.lft.to/lastmile_qr_scan"}, "is_disabled": 0, "is_reserved": 0, "name": "bf4ddd10ebb1f28328a2bcc699da258f", "type": "electric_scooter", "fusion_lat": 0.0}, {"bike_id": "5c9ac466995acd7f18d9fc1ea346ccbe", "lon": -77.03451716666666, "lat": 38.907034333333335, "fusion_lon": 0.0, "rental_uris": {"ios": "https://dc.lft.to/lastmile_qr_scan", "android": "https://dc.lft.to/lastmile_qr_scan"}, "is_disabled": 0, "is_reserved": 0, "name": "5c9ac466995acd7f18d9fc1ea346ccbe", "type": "electric_scooter", "fusion_lat": 0.0}, {"bike_id": "1a3d529de67f50d2110c4e5ac161ac2f", "lon": -77.01426216666667, "lat": 38.952335, "fusion_lon": 0.0, "rental_uris": {"ios": "https://dc.lft.to/lastmile_qr_scan", "android": "https://dc.lft.to/lastmile_qr_scan"}, "is_disabled": 0, "is_reserved": 0, "name": "1a3d529de67f50d2110c4e5ac161ac2f", "type": "electric_scooter", "fusion_lat": 0.0}, {"bike_id": "8223f831e4b2eb49715956d051a7b731", "lon": -77.03589966666667, "lat": 38.936761833333335, "fusion_lon": 0.0, "rental_uris": {"ios": "https://dc.lft.to/lastmile_qr_scan", "android": "https://dc.lft.to/lastmile_qr_scan"}, "is_disabled": 0, "is_reserved": 0, "name": "8223f831e4b2eb49715956d051a7b731", "type": "electric_scooter", "fusion_lat": 0.0}, {"bike_id": "9e307237afbbe3851231925500953296", "lon": -77.01189333333333, "lat": 38.90019933333333, "fusion_lon": 0.0, "rental_uris": {"ios": "https://dc.lft.to/lastmile_qr_scan", "android": "https://dc.lft.to/lastmile_qr_scan"}, "is_disabled": 0, "is_reserved": 0, "name": "9e307237afbbe3851231925500953296", "type": "electric_scooter", "fusion_lat": 0.0}, {"bike_id": "479c2d38c5835c7beb087bb379814d39", "lon": -77.034945, "lat": 38.924871333333336, "fusion_lon": 0.0, "rental_uris": {"ios": "https://dc.lft.to/lastmile_qr_scan", "android": "https://dc.lft.to/lastmile_qr_scan"}, "is_disabled": 0, "is_reserved": 0, "name": "479c2d38c5835c7beb087bb379814d39", "type": "electric_scooter", "fusion_lat": 0.0}, {"bike_id": "f12bfb2dd3e014f4a197718059e39b24", "lon": -77.01297083333333, "lat": 38.93030483333333, "fusion_lon": 0.0, "rental_uris": {"ios": "https://dc.lft.to/lastmile_qr_scan", "android": "https://dc.lft.to/lastmile_qr_scan"}, "is_disabled": 0, "is_reserved": 0, "name": "f12bfb2dd3e014f4a197718059e39b24", "type": "electric_scooter", "fusion_lat": 0.0}, {"bike_id": "31e7475535b2a130a6f4174666aa0abf", "lon": -77.02281266666667, "lat": 38.87886783333333, "fusion_lon": 0.0, "rental_uris": {"ios": "https://dc.lft.to/lastmile_qr_scan", "android": "https://dc.lft.to/lastmile_qr_scan"}, "is_disabled": 0, "is_reserved": 0, "name": "31e7475535b2a130a6f4174666aa0abf", "type": "electric_scooter", "fusion_lat": 0.0}, {"bike_id": "004beffd3a16a7a4d0129fd28752db1c", "lon": -77.02409716666666, "lat": 38.92091716666667, "fusion_lon": 0.0, "rental_uris": {"ios": "https://dc.lft.to/lastmile_qr_scan", "android": "https://dc.lft.to/lastmile_qr_scan"}, "is_disabled": 0, "is_reserved": 0, "name": "004beffd3a16a7a4d0129fd28752db1c", "type": "electric_scooter", "fusion_lat": 0.0}, {"bike_id": "d45284d932ec344378232678ec034991", "lon": -77.02693183333334, "lat": 38.915202666666666, "fusion_lon": 0.0, "rental_uris": {"ios": "https://dc.lft.to/lastmile_qr_scan", "android": "https://dc.lft.to/lastmile_qr_scan"}, "is_disabled": 0, "is_reserved": 0, "name": "d45284d932ec344378232678ec034991", "type": "electric_scooter", "fusion_lat": 0.0}, {"bike_id": "bbf4462986fec0e98f378010529ffdbe", "lon": -77.064251, "lat": 38.908828666666665, "fusion_lon": 0.0, "rental_uris": {"ios": "https://dc.lft.to/lastmile_qr_scan", "android": "https://dc.lft.to/lastmile_qr_scan"}, "is_disabled": 0, "is_reserved": 0, "name": "bbf4462986fec0e98f378010529ffdbe", "type": "electric_scooter", "fusion_lat": 0.0}, {"bike_id": "a800d76f7b86cc6ca47476a83f3c1235", "lon": -77.0056495, "lat": 38.88508566666667, "fusion_lon": 0.0, "rental_uris": {"ios": "https://dc.lft.to/lastmile_qr_scan", "android": "https://dc.lft.to/lastmile_qr_scan"}, "is_disabled": 0, "is_reserved": 0, "name": "a800d76f7b86cc6ca47476a83f3c1235", "type": "electric_scooter", "fusion_lat": 0.0}, {"bike_id": "f3262cca4ff21311b3c55eb27ebf1414", "lon": -77.005911, "lat": 38.88264066666667, "fusion_lon": 0.0, "rental_uris": {"ios": "https://dc.lft.to/lastmile_qr_scan", "android": "https://dc.lft.to/lastmile_qr_scan"}, "is_disabled": 0, "is_reserved": 0, "name": "f3262cca4ff21311b3c55eb27ebf1414", "type": "electric_scooter", "fusion_lat": 0.0}, {"bike_id": "a2b9a093c004b8f6873a9ec232c6b05b", "lon": -77.035568, "lat": 38.92693283333333, "fusion_lon": 0.0, "rental_uris": {"ios": "https://dc.lft.to/lastmile_qr_scan", "android": "https://dc.lft.to/lastmile_qr_scan"}, "is_disabled": 0, "is_reserved": 0, "name": "a2b9a093c004b8f6873a9ec232c6b05b", "type": "electric_scooter", "fusion_lat": 0.0}, {"bike_id": "13f63842b8d0c308ad326cd762ef5fe6", "lon": -77.036126, "lat": 38.92298566666667, "fusion_lon": 0.0, "rental_uris": {"ios": "https://dc.lft.to/lastmile_qr_scan", "android": "https://dc.lft.to/lastmile_qr_scan"}, "is_disabled": 0, "is_reserved": 0, "name": "13f63842b8d0c308ad326cd762ef5fe6", "type": "electric_bike", "fusion_lat": 0.0}, {"bike_id": "32d5fce450aa4a0a319006d4ffdc4644", "lon": -77.01980433333334, "lat": 38.945237166666665, "fusion_lon": 0.0, "rental_uris": {"ios": "https://dc.lft.to/lastmile_qr_scan", "android": "https://dc.lft.to/lastmile_qr_scan"}, "is_disabled": 0, "is_reserved": 0, "name": "32d5fce450aa4a0a319006d4ffdc4644", "type": "electric_scooter", "fusion_lat": 0.0}, {"bike_id": "d5a27a9c45755a4130de74bdf45b2ff7", "lon": -77.02198783333333, "lat": 38.91016533333333, "fusion_lon": 0.0, "rental_uris": {"ios": "https://dc.lft.to/lastmile_qr_scan", "android": "https://dc.lft.to/lastmile_qr_scan"}, "is_disabled": 0, "is_reserved": 0, "name": "d5a27a9c45755a4130de74bdf45b2ff7", "type": "electric_scooter", "fusion_lat": 0.0}, {"bike_id": "f67d90e903b83654d91f9d157d45d69a", "lon": -77.03117716666667, "lat": 38.92305366666667, "fusion_lon": 0.0, "rental_uris": {"ios": "https://dc.lft.to/lastmile_qr_scan", "android": "https://dc.lft.to/lastmile_qr_scan"}, "is_disabled": 0, "is_reserved": 0, "name": "f67d90e903b83654d91f9d157d45d69a", "type": "electric_scooter", "fusion_lat": 0.0}, {"bike_id": "b06fb045088861ac775e19979bb8f5d8", "lon": -77.03914333333333, "lat": 38.906350833333335, "fusion_lon": 0.0, "rental_uris": {"ios": "https://dc.lft.to/lastmile_qr_scan", "android": "https://dc.lft.to/lastmile_qr_scan"}, "is_disabled": 0, "is_reserved": 0, "name": "b06fb045088861ac775e19979bb8f5d8", "type": "electric_scooter", "fusion_lat": 0.0}, {"bike_id": "b0fa6a351fb11762fe974f01d608d459", "lon": -77.03266566666667, "lat": 38.918031666666664, "fusion_lon": 0.0, "rental_uris": {"ios": "https://dc.lft.to/lastmile_qr_scan", "android": "https://dc.lft.to/lastmile_qr_scan"}, "is_disabled": 0, "is_reserved": 0, "name": "b0fa6a351fb11762fe974f01d608d459", "type": "electric_scooter", "fusion_lat": 0.0}, {"bike_id": "2bdc948edce0706036a5716c7e8f9f67", "lon": -77.03212066666667, "lat": 38.91557383333333, "fusion_lon": 0.0, "rental_uris": {"ios": "https://dc.lft.to/lastmile_qr_scan", "android": "https://dc.lft.to/lastmile_qr_scan"}, "is_disabled": 0, "is_reserved": 0, "name": "2bdc948edce0706036a5716c7e8f9f67", "type": "electric_scooter", "fusion_lat": 0.0}, {"bike_id": "5d5d8b8cd60be9bd20bc256dd5277a0c", "lon": -77.0234085, "lat": 38.8922, "fusion_lon": 0.0, "rental_uris": {"ios": "https://dc.lft.to/lastmile_qr_scan", "android": "https://dc.lft.to/lastmile_qr_scan"}, "is_disabled": 0, "is_reserved": 0, "name": "5d5d8b8cd60be9bd20bc256dd5277a0c", "type": "electric_scooter", "fusion_lat": 0.0}, {"bike_id": "ef95f2569796cd047bb0f946493ead91", "lon": -76.98931766666666, "lat": 38.87073316666667, "fusion_lon": 0.0, "rental_uris": {"ios": "https://dc.lft.to/lastmile_qr_scan", "android": "https://dc.lft.to/lastmile_qr_scan"}, "is_disabled": 0, "is_reserved": 0, "name": "ef95f2569796cd047bb0f946493ead91", "type": "electric_scooter", "fusion_lat": 0.0}, {"bike_id": "07ff426f8b86c628b0b6a80a8f1184e3", "lon": -76.949337, "lat": 38.8935965, "fusion_lon": 0.0, "rental_uris": {"ios": "https://dc.lft.to/lastmile_qr_scan", "android": "https://dc.lft.to/lastmile_qr_scan"}, "is_disabled": 0, "is_reserved": 0, "name": "07ff426f8b86c628b0b6a80a8f1184e3", "type": "electric_scooter", "fusion_lat": 0.0}, {"bike_id": "902adc5f73aabcc5d8c340b8174dd499", "lon": -77.044969, "lat": 38.91419233333333, "fusion_lon": 0.0, "rental_uris": {"ios": "https://dc.lft.to/lastmile_qr_scan", "android": "https://dc.lft.to/lastmile_qr_scan"}, "is_disabled": 0, "is_reserved": 0, "name": "902adc5f73aabcc5d8c340b8174dd499", "type": "electric_scooter", "fusion_lat": 0.0}, {"bike_id": "b249badc129e8d4e546c239cfd5a7b23", "lon": -76.968769, "lat": 38.860997833333336, "fusion_lon": 0.0, "rental_uris": {"ios": "https://dc.lft.to/lastmile_qr_scan", "android": "https://dc.lft.to/lastmile_qr_scan"}, "is_disabled": 0, "is_reserved": 0, "name": "b249badc129e8d4e546c239cfd5a7b23", "type": "electric_scooter", "fusion_lat": 0.0}, {"bike_id": "3d433d14c9c0fcae43c53639fc3dd934", "lon": -77.02828666666667, "lat": 38.93239616666666, "fusion_lon": 0.0, "rental_uris": {"ios": "https://dc.lft.to/lastmile_qr_scan", "android": "https://dc.lft.to/lastmile_qr_scan"}, "is_disabled": 0, "is_reserved": 0, "name": "3d433d14c9c0fcae43c53639fc3dd934", "type": "electric_scooter", "fusion_lat": 0.0}, {"bike_id": "dcfc37bdf7fb0c9464a6644a2e8a1627", "lon": -77.0266095, "lat": 38.932612166666665, "fusion_lon": 0.0, "rental_uris": {"ios": "https://dc.lft.to/lastmile_qr_scan", "android": "https://dc.lft.to/lastmile_qr_scan"}, "is_disabled": 0, "is_reserved": 0, "name": "dcfc37bdf7fb0c9464a6644a2e8a1627", "type": "electric_scooter", "fusion_lat": 0.0}, {"bike_id": "2f8cff139a8828411feccfc779299d7f", "lon": -77.03517566666666, "lat": 38.922862333333335, "fusion_lon": 0.0, "rental_uris": {"ios": "https://dc.lft.to/lastmile_qr_scan", "android": "https://dc.lft.to/lastmile_qr_scan"}, "is_disabled": 0, "is_reserved": 0, "name": "2f8cff139a8828411feccfc779299d7f", "type": "electric_scooter", "fusion_lat": 0.0}, {"bike_id": "2a8179a01d9d26f211b77de3cb9d574f", "lon": -77.02319733333333, "lat": 38.92942716666667, "fusion_lon": 0.0, "rental_uris": {"ios": "https://dc.lft.to/lastmile_qr_scan", "android": "https://dc.lft.to/lastmile_qr_scan"}, "is_disabled": 0, "is_reserved": 0, "name": "2a8179a01d9d26f211b77de3cb9d574f", "type": "electric_scooter", "fusion_lat": 0.0}, {"bike_id": "d46b67efdff44286bdd11a029cced3da", "lon": -77.0179105, "lat": 38.901217333333335, "fusion_lon": 0.0, "rental_uris": {"ios": "https://dc.lft.to/lastmile_qr_scan", "android": "https://dc.lft.to/lastmile_qr_scan"}, "is_disabled": 0, "is_reserved": 0, "name": "d46b67efdff44286bdd11a029cced3da", "type": "electric_scooter", "fusion_lat": 0.0}, {"bike_id": "5cd99178deb83fe97b195d6178677f34", "lon": -76.9985795, "lat": 38.9089005, "fusion_lon": 0.0, "rental_uris": {"ios": "https://dc.lft.to/lastmile_qr_scan", "android": "https://dc.lft.to/lastmile_qr_scan"}, "is_disabled": 0, "is_reserved": 0, "name": "5cd99178deb83fe97b195d6178677f34", "type": "electric_scooter", "fusion_lat": 0.0}, {"bike_id": "4d4730ac1a18d718c7a4bbb504d08b33", "lon": -77.00199933333333, "lat": 38.8737595, "fusion_lon": 0.0, "rental_uris": {"ios": "https://dc.lft.to/lastmile_qr_scan", "android": "https://dc.lft.to/lastmile_qr_scan"}, "is_disabled": 0, "is_reserved": 0, "name": "4d4730ac1a18d718c7a4bbb504d08b33", "type": "electric_scooter", "fusion_lat": 0.0}, {"bike_id": "f529324f63d416d50e606bcd286797bf", "lon": -77.02803583333333, "lat": 38.9113535, "fusion_lon": 0.0, "rental_uris": {"ios": "https://dc.lft.to/lastmile_qr_scan", "android": "https://dc.lft.to/lastmile_qr_scan"}, "is_disabled": 0, "is_reserved": 0, "name": "f529324f63d416d50e606bcd286797bf", "type": "electric_scooter", "fusion_lat": 0.0}, {"bike_id": "faf8ed4fc9bff4b7e86e877cde04f351", "lon": -76.98715066666666, "lat": 38.86700066666667, "fusion_lon": 0.0, "rental_uris": {"ios": "https://dc.lft.to/lastmile_qr_scan", "android": "https://dc.lft.to/lastmile_qr_scan"}, "is_disabled": 0, "is_reserved": 0, "name": "faf8ed4fc9bff4b7e86e877cde04f351", "type": "electric_scooter", "fusion_lat": 0.0}, {"bike_id": "c8325a4d10f44e3387e3baed1bc3eca9", "lon": -77.0047155, "lat": 38.911427833333335, "fusion_lon": 0.0, "rental_uris": {"ios": "https://dc.lft.to/lastmile_qr_scan", "android": "https://dc.lft.to/lastmile_qr_scan"}, "is_disabled": 0, "is_reserved": 0, "name": "c8325a4d10f44e3387e3baed1bc3eca9", "type": "electric_scooter", "fusion_lat": 0.0}, {"bike_id": "06195a8ee9d06fe5b828e9d78c7b36d5", "lon": -77.04841166666667, "lat": 38.900708, "fusion_lon": 0.0, "rental_uris": {"ios": "https://dc.lft.to/lastmile_qr_scan", "android": "https://dc.lft.to/lastmile_qr_scan"}, "is_disabled": 0, "is_reserved": 0, "name": "06195a8ee9d06fe5b828e9d78c7b36d5", "type": "electric_scooter", "fusion_lat": 0.0}, {"bike_id": "0dda06c5b17454d438ed9d338f45a35c", "lon": -77.0148195, "lat": 38.907179, "fusion_lon": 0.0, "rental_uris": {"ios": "https://dc.lft.to/lastmile_qr_scan", "android": "https://dc.lft.to/lastmile_qr_scan"}, "is_disabled": 0, "is_reserved": 0, "name": "0dda06c5b17454d438ed9d338f45a35c", "type": "electric_scooter", "fusion_lat": 0.0}, {"bike_id": "efce4055a2cedb4ceed8bbf07f707555", "lon": -77.005701, "lat": 38.8806655, "fusion_lon": 0.0, "rental_uris": {"ios": "https://dc.lft.to/lastmile_qr_scan", "android": "https://dc.lft.to/lastmile_qr_scan"}, "is_disabled": 0, "is_reserved": 0, "name": "efce4055a2cedb4ceed8bbf07f707555", "type": "electric_scooter", "fusion_lat": 0.0}, {"bike_id": "63441bf587baf4d39c36c78038548526", "lon": -77.04058766666667, "lat": 38.9084465, "fusion_lon": 0.0, "rental_uris": {"ios": "https://dc.lft.to/lastmile_qr_scan", "android": "https://dc.lft.to/lastmile_qr_scan"}, "is_disabled": 0, "is_reserved": 0, "name": "63441bf587baf4d39c36c78038548526", "type": "electric_scooter", "fusion_lat": 0.0}, {"bike_id": "a689f2aa832084f2ab8a0569e9754fa7", "lon": -77.016033, "lat": 38.901725, "fusion_lon": 0.0, "rental_uris": {"ios": "https://dc.lft.to/lastmile_qr_scan", "android": "https://dc.lft.to/lastmile_qr_scan"}, "is_disabled": 0, "is_reserved": 0, "name": "a689f2aa832084f2ab8a0569e9754fa7", "type": "electric_scooter", "fusion_lat": 0.0}, {"bike_id": "dcf4c8d8a56bf8c9e2055fc86e6fb3d5", "lon": -77.127368, "lat": 38.8956675, "fusion_lon": 0.0, "rental_uris": {"ios": "https://dc.lft.to/lastmile_qr_scan", "android": "https://dc.lft.to/lastmile_qr_scan"}, "is_disabled": 0, "is_reserved": 0, "name": "dcf4c8d8a56bf8c9e2055fc86e6fb3d5", "type": "electric_bike", "fusion_lat": 0.0}, {"bike_id": "f871f79d845327405cacdab466f438f1", "lon": -77.03233916666667, "lat": 38.904579, "fusion_lon": 0.0, "rental_uris": {"ios": "https://dc.lft.to/lastmile_qr_scan", "android": "https://dc.lft.to/lastmile_qr_scan"}, "is_disabled": 0, "is_reserved": 0, "name": "f871f79d845327405cacdab466f438f1", "type": "electric_scooter", "fusion_lat": 0.0}, {"bike_id": "5de4c3324a7b163feb567562eead55a9", "lon": -77.04333183333334, "lat": 38.9087855, "fusion_lon": 0.0, "rental_uris": {"ios": "https://dc.lft.to/lastmile_qr_scan", "android": "https://dc.lft.to/lastmile_qr_scan"}, "is_disabled": 0, "is_reserved": 0, "name": "5de4c3324a7b163feb567562eead55a9", "type": "electric_scooter", "fusion_lat": 0.0}, {"bike_id": "462299026126ea92831af07b2bf2d371", "lon": -76.98494616666666, "lat": 38.880197833333334, "fusion_lon": 0.0, "rental_uris": {"ios": "https://dc.lft.to/lastmile_qr_scan", "android": "https://dc.lft.to/lastmile_qr_scan"}, "is_disabled": 0, "is_reserved": 0, "name": "462299026126ea92831af07b2bf2d371", "type": "electric_scooter", "fusion_lat": 0.0}, {"bike_id": "506eea71c40a57d465f2eaa04fa46c2c", "lon": -77.00877566666666, "lat": 38.922453833333336, "fusion_lon": 0.0, "rental_uris": {"ios": "https://dc.lft.to/lastmile_qr_scan", "android": "https://dc.lft.to/lastmile_qr_scan"}, "is_disabled": 0, "is_reserved": 0, "name": "506eea71c40a57d465f2eaa04fa46c2c", "type": "electric_scooter", "fusion_lat": 0.0}, {"bike_id": "70db3b52f7e9117c91271d516600fe7e", "lon": -77.03731616666667, "lat": 38.911283833333336, "fusion_lon": 0.0, "rental_uris": {"ios": "https://dc.lft.to/lastmile_qr_scan", "android": "https://dc.lft.to/lastmile_qr_scan"}, "is_disabled": 0, "is_reserved": 0, "name": "70db3b52f7e9117c91271d516600fe7e", "type": "electric_scooter", "fusion_lat": 0.0}, {"bike_id": "98b667cd2ea2dfec2e6ed9e873b115a6", "lon": -77.04449366666667, "lat": 38.91173333333333, "fusion_lon": 0.0, "rental_uris": {"ios": "https://dc.lft.to/lastmile_qr_scan", "android": "https://dc.lft.to/lastmile_qr_scan"}, "is_disabled": 0, "is_reserved": 0, "name": "98b667cd2ea2dfec2e6ed9e873b115a6", "type": "electric_scooter", "fusion_lat": 0.0}, {"bike_id": "84863ef1f9e99020d8145b7b98c17b53", "lon": -77.045551, "lat": 38.9136775, "fusion_lon": 0.0, "rental_uris": {"ios": "https://dc.lft.to/lastmile_qr_scan", "android": "https://dc.lft.to/lastmile_qr_scan"}, "is_disabled": 0, "is_reserved": 0, "name": "84863ef1f9e99020d8145b7b98c17b53", "type": "electric_scooter", "fusion_lat": 0.0}, {"bike_id": "98dcf0ff26c5473ccad62ac29ea04d9e", "lon": -76.99808733333333, "lat": 38.900310833333336, "fusion_lon": 0.0, "rental_uris": {"ios": "https://dc.lft.to/lastmile_qr_scan", "android": "https://dc.lft.to/lastmile_qr_scan"}, "is_disabled": 0, "is_reserved": 0, "name": "98dcf0ff26c5473ccad62ac29ea04d9e", "type": "electric_scooter", "fusion_lat": 0.0}, {"bike_id": "6411d6dc3f703901aff9de81cc8d90c5", "lon": -77.05018216666667, "lat": 38.901845, "fusion_lon": 0.0, "rental_uris": {"ios": "https://dc.lft.to/lastmile_qr_scan", "android": "https://dc.lft.to/lastmile_qr_scan"}, "is_disabled": 0, "is_reserved": 0, "name": "6411d6dc3f703901aff9de81cc8d90c5", "type": "electric_scooter", "fusion_lat": 0.0}, {"bike_id": "c849e91d8ede34b0337cc8161b13b3f2", "lon": -77.03195116666667, "lat": 38.90933033333334, "fusion_lon": 0.0, "rental_uris": {"ios": "https://dc.lft.to/lastmile_qr_scan", "android": "https://dc.lft.to/lastmile_qr_scan"}, "is_disabled": 0, "is_reserved": 0, "name": "c849e91d8ede34b0337cc8161b13b3f2", "type": "electric_scooter", "fusion_lat": 0.0}, {"bike_id": "09c49cfb99859355e152406f451618aa", "lon": -77.0280215, "lat": 38.91764466666667, "fusion_lon": 0.0, "rental_uris": {"ios": "https://dc.lft.to/lastmile_qr_scan", "android": "https://dc.lft.to/lastmile_qr_scan"}, "is_disabled": 0, "is_reserved": 0, "name": "09c49cfb99859355e152406f451618aa", "type": "electric_scooter", "fusion_lat": 0.0}, {"bike_id": "815239b5fa82a23e1410bdde29768039", "lon": -77.03307516666666, "lat": 38.932027166666664, "fusion_lon": 0.0, "rental_uris": {"ios": "https://dc.lft.to/lastmile_qr_scan", "android": "https://dc.lft.to/lastmile_qr_scan"}, "is_disabled": 0, "is_reserved": 0, "name": "815239b5fa82a23e1410bdde29768039", "type": "electric_scooter", "fusion_lat": 0.0}, {"bike_id": "655bd9b9342cf77dcb4f31c64e1de14d", "lon": -77.02708583333333, "lat": 38.908470333333334, "fusion_lon": 0.0, "rental_uris": {"ios": "https://dc.lft.to/lastmile_qr_scan", "android": "https://dc.lft.to/lastmile_qr_scan"}, "is_disabled": 0, "is_reserved": 0, "name": "655bd9b9342cf77dcb4f31c64e1de14d", "type": "electric_bike", "fusion_lat": 0.0}, {"bike_id": "f72eb2ae8bb41bc0d42f2221a4e501af", "lon": -76.94660833333333, "lat": 38.898664833333335, "fusion_lon": 0.0, "rental_uris": {"ios": "https://dc.lft.to/lastmile_qr_scan", "android": "https://dc.lft.to/lastmile_qr_scan"}, "is_disabled": 0, "is_reserved": 0, "name": "f72eb2ae8bb41bc0d42f2221a4e501af", "type": "electric_scooter", "fusion_lat": 0.0}, {"bike_id": "16ac00d1a3174594f2f4ffa65c5f32b9", "lon": -76.9834535, "lat": 38.889926, "fusion_lon": 0.0, "rental_uris": {"ios": "https://dc.lft.to/lastmile_qr_scan", "android": "https://dc.lft.to/lastmile_qr_scan"}, "is_disabled": 0, "is_reserved": 0, "name": "16ac00d1a3174594f2f4ffa65c5f32b9", "type": "electric_bike", "fusion_lat": 0.0}, {"bike_id": "d9595c05c9eb42c33c698f3beaf592a0", "lon": -76.99365316666666, "lat": 38.9008255, "fusion_lon": 0.0, "rental_uris": {"ios": "https://dc.lft.to/lastmile_qr_scan", "android": "https://dc.lft.to/lastmile_qr_scan"}, "is_disabled": 0, "is_reserved": 0, "name": "d9595c05c9eb42c33c698f3beaf592a0", "type": "electric_scooter", "fusion_lat": 0.0}, {"bike_id": "0163d70cfe96c12d50bd63f553eae1ab", "lon": -76.98667466666667, "lat": 38.89968016666667, "fusion_lon": 0.0, "rental_uris": {"ios": "https://dc.lft.to/lastmile_qr_scan", "android": "https://dc.lft.to/lastmile_qr_scan"}, "is_disabled": 0, "is_reserved": 0, "name": "0163d70cfe96c12d50bd63f553eae1ab", "type": "electric_bike", "fusion_lat": 0.0}, {"bike_id": "63b094b72aa717d9e4f5aca122d297a0", "lon": -77.01987616666666, "lat": 38.92934283333334, "fusion_lon": 0.0, "rental_uris": {"ios": "https://dc.lft.to/lastmile_qr_scan", "android": "https://dc.lft.to/lastmile_qr_scan"}, "is_disabled": 0, "is_reserved": 0, "name": "63b094b72aa717d9e4f5aca122d297a0", "type": "electric_scooter", "fusion_lat": 0.0}, {"bike_id": "5b0544386f003b5639ab70146144bdd2", "lon": -76.994697, "lat": 38.86209866666667, "fusion_lon": 0.0, "rental_uris": {"ios": "https://dc.lft.to/lastmile_qr_scan", "android": "https://dc.lft.to/lastmile_qr_scan"}, "is_disabled": 0, "is_reserved": 0, "name": "5b0544386f003b5639ab70146144bdd2", "type": "electric_scooter", "fusion_lat": 0.0}, {"bike_id": "3afd6becf36fc4cb56a0dd7dd54fb39c", "lon": -77.03845333333334, "lat": 38.90370566666667, "fusion_lon": 0.0, "rental_uris": {"ios": "https://dc.lft.to/lastmile_qr_scan", "android": "https://dc.lft.to/lastmile_qr_scan"}, "is_disabled": 0, "is_reserved": 0, "name": "3afd6becf36fc4cb56a0dd7dd54fb39c", "type": "electric_scooter", "fusion_lat": 0.0}, {"bike_id": "21803afeaa017131310d2461a599dc22", "lon": -77.0606, "lat": 38.939265666666664, "fusion_lon": 0.0, "rental_uris": {"ios": "https://dc.lft.to/lastmile_qr_scan", "android": "https://dc.lft.to/lastmile_qr_scan"}, "is_disabled": 0, "is_reserved": 0, "name": "21803afeaa017131310d2461a599dc22", "type": "electric_scooter", "fusion_lat": 0.0}, {"bike_id": "35726d67caaabb4e7d41b03c6446af12", "lon": -77.043365, "lat": 38.90032266666667, "fusion_lon": 0.0, "rental_uris": {"ios": "https://dc.lft.to/lastmile_qr_scan", "android": "https://dc.lft.to/lastmile_qr_scan"}, "is_disabled": 0, "is_reserved": 0, "name": "35726d67caaabb4e7d41b03c6446af12", "type": "electric_scooter", "fusion_lat": 0.0}, {"bike_id": "eca779fd29eb1690c97f1b9082849b2d", "lon": -77.03297016666667, "lat": 38.927512166666666, "fusion_lon": 0.0, "rental_uris": {"ios": "https://dc.lft.to/lastmile_qr_scan", "android": "https://dc.lft.to/lastmile_qr_scan"}, "is_disabled": 0, "is_reserved": 0, "name": "eca779fd29eb1690c97f1b9082849b2d", "type": "electric_scooter", "fusion_lat": 0.0}, {"bike_id": "aaed73b04fd2e0d7b9e1804e58425e30", "lon": -77.03804116666667, "lat": 38.931023, "fusion_lon": 0.0, "rental_uris": {"ios": "https://dc.lft.to/lastmile_qr_scan", "android": "https://dc.lft.to/lastmile_qr_scan"}, "is_disabled": 0, "is_reserved": 0, "name": "aaed73b04fd2e0d7b9e1804e58425e30", "type": "electric_scooter", "fusion_lat": 0.0}, {"bike_id": "469b42d0735eb9b96f40bfe252454a04", "lon": -76.97213566666667, "lat": 38.925386333333336, "fusion_lon": 0.0, "rental_uris": {"ios": "https://dc.lft.to/lastmile_qr_scan", "android": "https://dc.lft.to/lastmile_qr_scan"}, "is_disabled": 0, "is_reserved": 0, "name": "469b42d0735eb9b96f40bfe252454a04", "type": "electric_scooter", "fusion_lat": 0.0}, {"bike_id": "c14e8cf53f1a2bd749308adae134b561", "lon": -77.0531425, "lat": 38.9155725, "fusion_lon": 0.0, "rental_uris": {"ios": "https://dc.lft.to/lastmile_qr_scan", "android": "https://dc.lft.to/lastmile_qr_scan"}, "is_disabled": 0, "is_reserved": 0, "name": "c14e8cf53f1a2bd749308adae134b561", "type": "electric_scooter", "fusion_lat": 0.0}, {"bike_id": "c1e203a2baa56f188f25be81cc8f112e", "lon": -77.032072, "lat": 38.91529283333333, "fusion_lon": 0.0, "rental_uris": {"ios": "https://dc.lft.to/lastmile_qr_scan", "android": "https://dc.lft.to/lastmile_qr_scan"}, "is_disabled": 0, "is_reserved": 0, "name": "c1e203a2baa56f188f25be81cc8f112e", "type": "electric_scooter", "fusion_lat": 0.0}, {"bike_id": "3d622b339961d694634b32952a89bde0", "lon": -77.03459416666666, "lat": 38.90567566666667, "fusion_lon": 0.0, "rental_uris": {"ios": "https://dc.lft.to/lastmile_qr_scan", "android": "https://dc.lft.to/lastmile_qr_scan"}, "is_disabled": 0, "is_reserved": 0, "name": "3d622b339961d694634b32952a89bde0", "type": "electric_scooter", "fusion_lat": 0.0}, {"bike_id": "0781a4134eb1d35215bebcf69e0485d4", "lon": -76.97325283333333, "lat": 38.90473583333333, "fusion_lon": 0.0, "rental_uris": {"ios": "https://dc.lft.to/lastmile_qr_scan", "android": "https://dc.lft.to/lastmile_qr_scan"}, "is_disabled": 0, "is_reserved": 0, "name": "0781a4134eb1d35215bebcf69e0485d4", "type": "electric_bike", "fusion_lat": 0.0}, {"bike_id": "9aaad97e1c1493f6533aac5481921131", "lon": -77.02412033333333, "lat": 38.926075166666664, "fusion_lon": 0.0, "rental_uris": {"ios": "https://dc.lft.to/lastmile_qr_scan", "android": "https://dc.lft.to/lastmile_qr_scan"}, "is_disabled": 0, "is_reserved": 0, "name": "9aaad97e1c1493f6533aac5481921131", "type": "electric_scooter", "fusion_lat": 0.0}, {"bike_id": "28dc7af9811754442078d35c1c09d0d1", "lon": -76.93029316666667, "lat": 38.90011766666667, "fusion_lon": 0.0, "rental_uris": {"ios": "https://dc.lft.to/lastmile_qr_scan", "android": "https://dc.lft.to/lastmile_qr_scan"}, "is_disabled": 0, "is_reserved": 0, "name": "28dc7af9811754442078d35c1c09d0d1", "type": "electric_scooter", "fusion_lat": 0.0}, {"bike_id": "d4d0e3a2a75c373f8f18ec1dd83effca", "lon": -77.02964733333333, "lat": 38.896131, "fusion_lon": 0.0, "rental_uris": {"ios": "https://dc.lft.to/lastmile_qr_scan", "android": "https://dc.lft.to/lastmile_qr_scan"}, "is_disabled": 0, "is_reserved": 0, "name": "d4d0e3a2a75c373f8f18ec1dd83effca", "type": "electric_scooter", "fusion_lat": 0.0}, {"bike_id": "eb1ab4d52eb570af1d884218b1dc9a08", "lon": -77.004305, "lat": 38.87655766666666, "fusion_lon": 0.0, "rental_uris": {"ios": "https://dc.lft.to/lastmile_qr_scan", "android": "https://dc.lft.to/lastmile_qr_scan"}, "is_disabled": 0, "is_reserved": 0, "name": "eb1ab4d52eb570af1d884218b1dc9a08", "type": "electric_scooter", "fusion_lat": 0.0}, {"bike_id": "a4c571899e69177a17236c4730c94c3d", "lon": -77.050797, "lat": 38.923556166666664, "fusion_lon": 0.0, "rental_uris": {"ios": "https://dc.lft.to/lastmile_qr_scan", "android": "https://dc.lft.to/lastmile_qr_scan"}, "is_disabled": 0, "is_reserved": 0, "name": "a4c571899e69177a17236c4730c94c3d", "type": "electric_scooter", "fusion_lat": 0.0}, {"bike_id": "bcf11f8366f81465c54159ff96837eb6", "lon": -77.0130115, "lat": 38.930038333333336, "fusion_lon": 0.0, "rental_uris": {"ios": "https://dc.lft.to/lastmile_qr_scan", "android": "https://dc.lft.to/lastmile_qr_scan"}, "is_disabled": 0, "is_reserved": 0, "name": "bcf11f8366f81465c54159ff96837eb6", "type": "electric_scooter", "fusion_lat": 0.0}, {"bike_id": "d63b784f82c1d8d1a84d5327f2e54e74", "lon": -77.03865116666667, "lat": 38.90243366666667, "fusion_lon": 0.0, "rental_uris": {"ios": "https://dc.lft.to/lastmile_qr_scan", "android": "https://dc.lft.to/lastmile_qr_scan"}, "is_disabled": 0, "is_reserved": 0, "name": "d63b784f82c1d8d1a84d5327f2e54e74", "type": "electric_scooter", "fusion_lat": 0.0}, {"bike_id": "5c27f1a1abe514ae6448b0f2fa8c8ab6", "lon": -77.0437565, "lat": 38.892246166666666, "fusion_lon": 0.0, "rental_uris": {"ios": "https://dc.lft.to/lastmile_qr_scan", "android": "https://dc.lft.to/lastmile_qr_scan"}, "is_disabled": 0, "is_reserved": 0, "name": "5c27f1a1abe514ae6448b0f2fa8c8ab6", "type": "electric_scooter", "fusion_lat": 0.0}, {"bike_id": "b14fe1c1283d14416a469a90b471cae7", "lon": -77.02691566666667, "lat": 38.900913833333334, "fusion_lon": 0.0, "rental_uris": {"ios": "https://dc.lft.to/lastmile_qr_scan", "android": "https://dc.lft.to/lastmile_qr_scan"}, "is_disabled": 0, "is_reserved": 0, "name": "b14fe1c1283d14416a469a90b471cae7", "type": "electric_scooter", "fusion_lat": 0.0}, {"bike_id": "b47694db42db3f7702ea2157e9929909", "lon": -77.00546816666666, "lat": 38.87457933333334, "fusion_lon": 0.0, "rental_uris": {"ios": "https://dc.lft.to/lastmile_qr_scan", "android": "https://dc.lft.to/lastmile_qr_scan"}, "is_disabled": 0, "is_reserved": 0, "name": "b47694db42db3f7702ea2157e9929909", "type": "electric_scooter", "fusion_lat": 0.0}, {"bike_id": "58a87d6655bce0516b1a5d2596047496", "lon": -77.03210016666667, "lat": 38.920042333333335, "fusion_lon": 0.0, "rental_uris": {"ios": "https://dc.lft.to/lastmile_qr_scan", "android": "https://dc.lft.to/lastmile_qr_scan"}, "is_disabled": 0, "is_reserved": 0, "name": "58a87d6655bce0516b1a5d2596047496", "type": "electric_scooter", "fusion_lat": 0.0}, {"bike_id": "e76323e2e14f2bcd00b4e86bedd22515", "lon": -77.02495766666667, "lat": 38.906518166666665, "fusion_lon": 0.0, "rental_uris": {"ios": "https://dc.lft.to/lastmile_qr_scan", "android": "https://dc.lft.to/lastmile_qr_scan"}, "is_disabled": 0, "is_reserved": 0, "name": "e76323e2e14f2bcd00b4e86bedd22515", "type": "electric_scooter", "fusion_lat": 0.0}, {"bike_id": "8dd81572a1e09b703065d28a022643a7", "lon": -76.973049, "lat": 38.9198885, "fusion_lon": 0.0, "rental_uris": {"ios": "https://dc.lft.to/lastmile_qr_scan", "android": "https://dc.lft.to/lastmile_qr_scan"}, "is_disabled": 0, "is_reserved": 0, "name": "8dd81572a1e09b703065d28a022643a7", "type": "electric_scooter", "fusion_lat": 0.0}, {"bike_id": "4f97235c8e5e7e6683295dcc1ef44a77", "lon": -77.038141, "lat": 38.90782266666667, "fusion_lon": 0.0, "rental_uris": {"ios": "https://dc.lft.to/lastmile_qr_scan", "android": "https://dc.lft.to/lastmile_qr_scan"}, "is_disabled": 0, "is_reserved": 0, "name": "4f97235c8e5e7e6683295dcc1ef44a77", "type": "electric_scooter", "fusion_lat": 0.0}, {"bike_id": "8374ce044782abe95c4e116db717421d", "lon": -77.042821, "lat": 38.922916666666666, "fusion_lon": 0.0, "rental_uris": {"ios": "https://dc.lft.to/lastmile_qr_scan", "android": "https://dc.lft.to/lastmile_qr_scan"}, "is_disabled": 0, "is_reserved": 0, "name": "8374ce044782abe95c4e116db717421d", "type": "electric_scooter", "fusion_lat": 0.0}, {"bike_id": "0124da3da6868a62805a4fae69c4d33e", "lon": -77.0403445, "lat": 38.903672666666665, "fusion_lon": 0.0, "rental_uris": {"ios": "https://dc.lft.to/lastmile_qr_scan", "android": "https://dc.lft.to/lastmile_qr_scan"}, "is_disabled": 0, "is_reserved": 0, "name": "0124da3da6868a62805a4fae69c4d33e", "type": "electric_scooter", "fusion_lat": 0.0}, {"bike_id": "4530a442bc5981e8e68d402720cf6c2f", "lon": -77.03214183333333, "lat": 38.9179115, "fusion_lon": 0.0, "rental_uris": {"ios": "https://dc.lft.to/lastmile_qr_scan", "android": "https://dc.lft.to/lastmile_qr_scan"}, "is_disabled": 0, "is_reserved": 0, "name": "4530a442bc5981e8e68d402720cf6c2f", "type": "electric_scooter", "fusion_lat": 0.0}, {"bike_id": "c1b5da8fd31c401ac10e45f58ab0420c", "lon": -77.03331533333333, "lat": 38.9211445, "fusion_lon": 0.0, "rental_uris": {"ios": "https://dc.lft.to/lastmile_qr_scan", "android": "https://dc.lft.to/lastmile_qr_scan"}, "is_disabled": 0, "is_reserved": 0, "name": "c1b5da8fd31c401ac10e45f58ab0420c", "type": "electric_scooter", "fusion_lat": 0.0}, {"bike_id": "f17f6b621139ddd6dc2e12022b73b396", "lon": -77.04529416666666, "lat": 38.913160500000004, "fusion_lon": 0.0, "rental_uris": {"ios": "https://dc.lft.to/lastmile_qr_scan", "android": "https://dc.lft.to/lastmile_qr_scan"}, "is_disabled": 0, "is_reserved": 0, "name": "f17f6b621139ddd6dc2e12022b73b396", "type": "electric_scooter", "fusion_lat": 0.0}, {"bike_id": "5f0dbd1d89b49cdf5b65ff06bd649846", "lon": -76.995141, "lat": 38.886104333333336, "fusion_lon": 0.0, "rental_uris": {"ios": "https://dc.lft.to/lastmile_qr_scan", "android": "https://dc.lft.to/lastmile_qr_scan"}, "is_disabled": 0, "is_reserved": 0, "name": "5f0dbd1d89b49cdf5b65ff06bd649846", "type": "electric_scooter", "fusion_lat": 0.0}, {"bike_id": "240853705be2c420270a373ea8464f36", "lon": -77.02164216666667, "lat": 38.916188, "fusion_lon": 0.0, "rental_uris": {"ios": "https://dc.lft.to/lastmile_qr_scan", "android": "https://dc.lft.to/lastmile_qr_scan"}, "is_disabled": 0, "is_reserved": 0, "name": "240853705be2c420270a373ea8464f36", "type": "electric_scooter", "fusion_lat": 0.0}, {"bike_id": "ee841f351469f7871bdc73faa79b9ed4", "lon": -77.022225, "lat": 38.912701, "fusion_lon": 0.0, "rental_uris": {"ios": "https://dc.lft.to/lastmile_qr_scan", "android": "https://dc.lft.to/lastmile_qr_scan"}, "is_disabled": 0, "is_reserved": 0, "name": "ee841f351469f7871bdc73faa79b9ed4", "type": "electric_scooter", "fusion_lat": 0.0}, {"bike_id": "ee081cbc18f5766113669ebe10800b6f", "lon": -77.01358066666667, "lat": 38.870864833333336, "fusion_lon": 0.0, "rental_uris": {"ios": "https://dc.lft.to/lastmile_qr_scan", "android": "https://dc.lft.to/lastmile_qr_scan"}, "is_disabled": 0, "is_reserved": 0, "name": "ee081cbc18f5766113669ebe10800b6f", "type": "electric_scooter", "fusion_lat": 0.0}, {"bike_id": "1bc30fcc4c3610a0a1281bcaf2a277c1", "lon": -77.02625083333334, "lat": 38.962177833333335, "fusion_lon": 0.0, "rental_uris": {"ios": "https://dc.lft.to/lastmile_qr_scan", "android": "https://dc.lft.to/lastmile_qr_scan"}, "is_disabled": 0, "is_reserved": 0, "name": "1bc30fcc4c3610a0a1281bcaf2a277c1", "type": "electric_bike", "fusion_lat": 0.0}, {"bike_id": "5f901b07f0a84174259d64335b479e4b", "lon": -77.038991, "lat": 38.91833, "fusion_lon": 0.0, "rental_uris": {"ios": "https://dc.lft.to/lastmile_qr_scan", "android": "https://dc.lft.to/lastmile_qr_scan"}, "is_disabled": 0, "is_reserved": 0, "name": "5f901b07f0a84174259d64335b479e4b", "type": "electric_scooter", "fusion_lat": 0.0}, {"bike_id": "86e35f868e769a550ff7fa5b35d27e82", "lon": -77.03345916666666, "lat": 38.92868433333334, "fusion_lon": 0.0, "rental_uris": {"ios": "https://dc.lft.to/lastmile_qr_scan", "android": "https://dc.lft.to/lastmile_qr_scan"}, "is_disabled": 0, "is_reserved": 0, "name": "86e35f868e769a550ff7fa5b35d27e82", "type": "electric_scooter", "fusion_lat": 0.0}, {"bike_id": "1446a94eae8bcecbacdaa7a8965f06a9", "lon": -77.02106983333333, "lat": 38.906054166666664, "fusion_lon": 0.0, "rental_uris": {"ios": "https://dc.lft.to/lastmile_qr_scan", "android": "https://dc.lft.to/lastmile_qr_scan"}, "is_disabled": 0, "is_reserved": 0, "name": "1446a94eae8bcecbacdaa7a8965f06a9", "type": "electric_scooter", "fusion_lat": 0.0}, {"bike_id": "5835d6b79d7effdb746362ba4036a0fb", "lon": -77.037697, "lat": 38.9269535, "fusion_lon": 0.0, "rental_uris": {"ios": "https://dc.lft.to/lastmile_qr_scan", "android": "https://dc.lft.to/lastmile_qr_scan"}, "is_disabled": 0, "is_reserved": 0, "name": "5835d6b79d7effdb746362ba4036a0fb", "type": "electric_scooter", "fusion_lat": 0.0}, {"bike_id": "6b1bc0c5112271ec83ccb93efbc8a1dc", "lon": -76.974234, "lat": 38.905027, "fusion_lon": 0.0, "rental_uris": {"ios": "https://dc.lft.to/lastmile_qr_scan", "android": "https://dc.lft.to/lastmile_qr_scan"}, "is_disabled": 0, "is_reserved": 0, "name": "6b1bc0c5112271ec83ccb93efbc8a1dc", "type": "electric_bike", "fusion_lat": 0.0}, {"bike_id": "43042286cd0c74f3a01c2f4911352111", "lon": -76.92621883333334, "lat": 38.884586166666665, "fusion_lon": 0.0, "rental_uris": {"ios": "https://dc.lft.to/lastmile_qr_scan", "android": "https://dc.lft.to/lastmile_qr_scan"}, "is_disabled": 0, "is_reserved": 0, "name": "43042286cd0c74f3a01c2f4911352111", "type": "electric_scooter", "fusion_lat": 0.0}, {"bike_id": "6f672a1da128a14492db585dda27f5cc", "lon": -77.04346483333333, "lat": 38.90091416666667, "fusion_lon": 0.0, "rental_uris": {"ios": "https://dc.lft.to/lastmile_qr_scan", "android": "https://dc.lft.to/lastmile_qr_scan"}, "is_disabled": 0, "is_reserved": 0, "name": "6f672a1da128a14492db585dda27f5cc", "type": "electric_scooter", "fusion_lat": 0.0}, {"bike_id": "d880034db320c279216866e1607b9ebb", "lon": -77.02289, "lat": 38.914493, "fusion_lon": 0.0, "rental_uris": {"ios": "https://dc.lft.to/lastmile_qr_scan", "android": "https://dc.lft.to/lastmile_qr_scan"}, "is_disabled": 0, "is_reserved": 0, "name": "d880034db320c279216866e1607b9ebb", "type": "electric_scooter", "fusion_lat": 0.0}, {"bike_id": "440332213935d20f8ff35cb3646065be", "lon": -76.99618966666667, "lat": 38.88519383333333, "fusion_lon": 0.0, "rental_uris": {"ios": "https://dc.lft.to/lastmile_qr_scan", "android": "https://dc.lft.to/lastmile_qr_scan"}, "is_disabled": 0, "is_reserved": 0, "name": "440332213935d20f8ff35cb3646065be", "type": "electric_scooter", "fusion_lat": 0.0}, {"bike_id": "18f75f30985802d996ccaebf2466f4e6", "lon": -77.02826616666667, "lat": 38.90385933333334, "fusion_lon": 0.0, "rental_uris": {"ios": "https://dc.lft.to/lastmile_qr_scan", "android": "https://dc.lft.to/lastmile_qr_scan"}, "is_disabled": 0, "is_reserved": 0, "name": "18f75f30985802d996ccaebf2466f4e6", "type": "electric_scooter", "fusion_lat": 0.0}, {"bike_id": "ec1789837053cb23f49c3d888520ab58", "lon": -77.02828466666666, "lat": 38.96500833333333, "fusion_lon": 0.0, "rental_uris": {"ios": "https://dc.lft.to/lastmile_qr_scan", "android": "https://dc.lft.to/lastmile_qr_scan"}, "is_disabled": 0, "is_reserved": 0, "name": "ec1789837053cb23f49c3d888520ab58", "type": "electric_bike", "fusion_lat": 0.0}, {"bike_id": "c937e567f0fb9dc9ad6869aa33a55787", "lon": -77.03205883333334, "lat": 38.892354, "fusion_lon": 0.0, "rental_uris": {"ios": "https://dc.lft.to/lastmile_qr_scan", "android": "https://dc.lft.to/lastmile_qr_scan"}, "is_disabled": 0, "is_reserved": 0, "name": "c937e567f0fb9dc9ad6869aa33a55787", "type": "electric_scooter", "fusion_lat": 0.0}, {"bike_id": "14fa812c92c72de2944c961b15cf676c", "lon": -77.10833383333333, "lat": 38.812025166666665, "fusion_lon": 0.0, "rental_uris": {"ios": "https://dc.lft.to/lastmile_qr_scan", "android": "https://dc.lft.to/lastmile_qr_scan"}, "is_disabled": 0, "is_reserved": 0, "name": "14fa812c92c72de2944c961b15cf676c", "type": "electric_bike", "fusion_lat": 0.0}, {"bike_id": "c361aca40d61a94fc0da8dacb9cdf5fe", "lon": -77.01174266666666, "lat": 38.915673, "fusion_lon": 0.0, "rental_uris": {"ios": "https://dc.lft.to/lastmile_qr_scan", "android": "https://dc.lft.to/lastmile_qr_scan"}, "is_disabled": 0, "is_reserved": 0, "name": "c361aca40d61a94fc0da8dacb9cdf5fe", "type": "electric_scooter", "fusion_lat": 0.0}, {"bike_id": "03f5356958c676e31c6340182d023b1c", "lon": -77.04155016666667, "lat": 38.9265395, "fusion_lon": 0.0, "rental_uris": {"ios": "https://dc.lft.to/lastmile_qr_scan", "android": "https://dc.lft.to/lastmile_qr_scan"}, "is_disabled": 0, "is_reserved": 0, "name": "03f5356958c676e31c6340182d023b1c", "type": "electric_scooter", "fusion_lat": 0.0}, {"bike_id": "239c9fe3a0dceb837f1c310bed833162", "lon": -77.045046, "lat": 38.905586666666665, "fusion_lon": 0.0, "rental_uris": {"ios": "https://dc.lft.to/lastmile_qr_scan", "android": "https://dc.lft.to/lastmile_qr_scan"}, "is_disabled": 0, "is_reserved": 0, "name": "239c9fe3a0dceb837f1c310bed833162", "type": "electric_scooter", "fusion_lat": 0.0}, {"bike_id": "d8a59e90f84251ca3235a9a22526af45", "lon": -76.98506866666666, "lat": 38.880842666666666, "fusion_lon": 0.0, "rental_uris": {"ios": "https://dc.lft.to/lastmile_qr_scan", "android": "https://dc.lft.to/lastmile_qr_scan"}, "is_disabled": 0, "is_reserved": 0, "name": "d8a59e90f84251ca3235a9a22526af45", "type": "electric_scooter", "fusion_lat": 0.0}, {"bike_id": "4266e2ed2983e35933a2bcef114d22f7", "lon": -77.02489883333334, "lat": 38.938661833333335, "fusion_lon": 0.0, "rental_uris": {"ios": "https://dc.lft.to/lastmile_qr_scan", "android": "https://dc.lft.to/lastmile_qr_scan"}, "is_disabled": 0, "is_reserved": 0, "name": "4266e2ed2983e35933a2bcef114d22f7", "type": "electric_scooter", "fusion_lat": 0.0}, {"bike_id": "0254bc2777cf69879f10c1aa5902521c", "lon": -77.037252, "lat": 38.91120333333333, "fusion_lon": 0.0, "rental_uris": {"ios": "https://dc.lft.to/lastmile_qr_scan", "android": "https://dc.lft.to/lastmile_qr_scan"}, "is_disabled": 0, "is_reserved": 0, "name": "0254bc2777cf69879f10c1aa5902521c", "type": "electric_scooter", "fusion_lat": 0.0}, {"bike_id": "efc471fe89ec38b1d69211fcbc6077c0", "lon": -77.04871016666667, "lat": 38.893167, "fusion_lon": 0.0, "rental_uris": {"ios": "https://dc.lft.to/lastmile_qr_scan", "android": "https://dc.lft.to/lastmile_qr_scan"}, "is_disabled": 0, "is_reserved": 0, "name": "efc471fe89ec38b1d69211fcbc6077c0", "type": "electric_scooter", "fusion_lat": 0.0},