{"data": {"bikes": [{"lon": -77.0648765, "bike_id": "fa4a0e3b1abc44867edcdb32850fa64f", "lat": 38.92905433333333, "fusion_lon": 0.0, "fusion_lat": 0.0, "type": "electric_scooter", "name": "fa4a0e3b1abc44867edcdb32850fa64f", "is_disabled": 0, "rental_uris": {"ios": "https://dc.lft.to/lastmile_qr_scan", "android": "https://dc.lft.to/lastmile_qr_scan"}, "is_reserved": 0}, {"lon": -77.033497, "bike_id": "dfd1c4c6ada36213e8edc6b3ce58c4a0", "lat": 38.92346416666667, "fusion_lon": 0.0, "fusion_lat": 0.0, "type": "electric_scooter", "name": "dfd1c4c6ada36213e8edc6b3ce58c4a0", "is_disabled": 0, "rental_uris": {"ios": "https://dc.lft.to/lastmile_qr_scan", "android": "https://dc.lft.to/lastmile_qr_scan"}, "is_reserved": 0}, {"lon": -77.0416195, "bike_id": "e9cc214ac2fb262dc975bb42c1045b63", "lat": 38.91254033333333, "fusion_lon": 0.0, "fusion_lat": 0.0, "type": "electric_scooter", "name": "e9cc214ac2fb262dc975bb42c1045b63", "is_disabled": 0, "rental_uris": {"ios": "https://dc.lft.to/lastmile_qr_scan", "android": "https://dc.lft.to/lastmile_qr_scan"}, "is_reserved": 0}, {"lon": -77.024329, "bike_id": "a5c924af4d23e543d2dc01b2183d5783", "lat": 38.88409383333333, "fusion_lon": 0.0, "fusion_lat": 0.0, "type": "electric_scooter", "name": "a5c924af4d23e543d2dc01b2183d5783", "is_disabled": 0, "rental_uris": {"ios": "https://dc.lft.to/lastmile_qr_scan", "android": "https://dc.lft.to/lastmile_qr_scan"}, "is_reserved": 0}, {"lon": -77.03829366666666, "bike_id": "02dedea572c99e96a59e801f948570f7", "lat": 38.91266316666667, "fusion_lon": 0.0, "fusion_lat": 0.0, "type": "electric_scooter", "name": "02dedea572c99e96a59e801f948570f7", "is_disabled": 0, "rental_uris": {"ios": "https://dc.lft.to/lastmile_qr_scan", "android": "https://dc.lft.to/lastmile_qr_scan"}, "is_reserved": 0}, {"lon": -77.04807066666666, "bike_id": "6c50f5547e04a0de0dae6d084b3ea4ed", "lat": 38.914043166666666, "fusion_lon": 0.0, "fusion_lat": 0.0, "type": "electric_scooter", "name": "6c50f5547e04a0de0dae6d084b3ea4ed", "is_disabled": 0, "rental_uris": {"ios": "https://dc.lft.to/lastmile_qr_scan", "android": "https://dc.lft.to/lastmile_qr_scan"}, "is_reserved": 0}, {"lon": -77.04182383333334, "bike_id": "bc7dcd2f50b2537367e2543774d89173", "lat": 38.8922815, "fusion_lon": 0.0, "fusion_lat": 0.0, "type": "electric_scooter", "name": "bc7dcd2f50b2537367e2543774d89173", "is_disabled": 0, "rental_uris": {"ios": "https://dc.lft.to/lastmile_qr_scan", "android": "https://dc.lft.to/lastmile_qr_scan"}, "is_reserved": 0}, {"lon": -76.9853665, "bike_id": "7c9fdaa73e78a5f76a530a40358cb746", "lat": 38.907852, "fusion_lon": 0.0, "fusion_lat": 0.0, "type": "electric_scooter", "name": "7c9fdaa73e78a5f76a530a40358cb746", "is_disabled": 0, "rental_uris": {"ios": "https://dc.lft.to/lastmile_qr_scan", "android": "https://dc.lft.to/lastmile_qr_scan"}, "is_reserved": 0}, {"lon": -76.98235366666667, "bike_id": "0bc6872360d1f924e2d70f1f086b9bd7", "lat": 38.88862916666667, "fusion_lon": 0.0, "fusion_lat": 0.0, "type": "electric_scooter", "name": "0bc6872360d1f924e2d70f1f086b9bd7", "is_disabled": 0, "rental_uris": {"ios": "https://dc.lft.to/lastmile_qr_scan", "android": "https://dc.lft.to/lastmile_qr_scan"}, "is_reserved": 0}, {"lon": -77.03060316666667, "bike_id": "9d87c797f554055abd38baaba70c82bf", "lat": 38.908060666666664, "fusion_lon": 0.0, "fusion_lat": 0.0, "type": "electric_scooter", "name": "9d87c797f554055abd38baaba70c82bf", "is_disabled": 0, "rental_uris": {"ios": "https://dc.lft.to/lastmile_qr_scan", "android": "https://dc.lft.to/lastmile_qr_scan"}, "is_reserved": 0}, {"lon": -77.03208466666666, "bike_id": "f50833ddd6bf740712d9686ee11749dd", "lat": 38.914972166666665, "fusion_lon": 0.0, "fusion_lat": 0.0, "type": "electric_scooter", "name": "f50833ddd6bf740712d9686ee11749dd", "is_disabled": 0, "rental_uris": {"ios": "https://dc.lft.to/lastmile_qr_scan", "android": "https://dc.lft.to/lastmile_qr_scan"}, "is_reserved": 0}, {"lon": -77.04487833333333, "bike_id": "60ba5091e0a3e33c3d4e72ac5d0e25f6", "lat": 38.913212333333334, "fusion_lon": 0.0, "fusion_lat": 0.0, "type": "electric_scooter", "name": "60ba5091e0a3e33c3d4e72ac5d0e25f6", "is_disabled": 0, "rental_uris": {"ios": "https://dc.lft.to/lastmile_qr_scan", "android": "https://dc.lft.to/lastmile_qr_scan"}, "is_reserved": 0}, {"lon": -76.98837416666667, "bike_id": "945b457e5cbf117867b1570846f8d68f", "lat": 38.8966675, "fusion_lon": 0.0, "fusion_lat": 0.0, "type": "electric_scooter", "name": "945b457e5cbf117867b1570846f8d68f", "is_disabled": 0, "rental_uris": {"ios": "https://dc.lft.to/lastmile_qr_scan", "android": "https://dc.lft.to/lastmile_qr_scan"}, "is_reserved": 0}, {"lon": -76.9720675, "bike_id": "742ef5181b2c90a723f7d41cf86cc7ff", "lat": 38.89288033333333, "fusion_lon": 0.0, "fusion_lat": 0.0, "type": "electric_bike", "name": "742ef5181b2c90a723f7d41cf86cc7ff", "is_disabled": 0, "rental_uris": {"ios": "https://dc.lft.to/lastmile_qr_scan", "android": "https://dc.lft.to/lastmile_qr_scan"}, "is_reserved": 0}, {"lon": -77.077606, "bike_id": "a5d12b49760c3971475cadb410f7465a", "lat": 38.95771283333333, "fusion_lon": 0.0, "fusion_lat": 0.0, "type": "electric_scooter", "name": "a5d12b49760c3971475cadb410f7465a", "is_disabled": 0, "rental_uris": {"ios": "https://dc.lft.to/lastmile_qr_scan", "android": "https://dc.lft.to/lastmile_qr_scan"}, "is_reserved": 0}, {"lon": -77.02211416666667, "bike_id": "eaeb77952d5dd9ba3c6322251f28245b", "lat": 38.89351816666667, "fusion_lon": 0.0, "fusion_lat": 0.0, "type": "electric_scooter", "name": "eaeb77952d5dd9ba3c6322251f28245b", "is_disabled": 0, "rental_uris": {"ios": "https://dc.lft.to/lastmile_qr_scan", "android": "https://dc.lft.to/lastmile_qr_scan"}, "is_reserved": 0}, {"lon": -77.139277, "bike_id": "6dd0accbe8640b876c20a26de8e22fc3", "lat": 38.87304066666667, "fusion_lon": 0.0, "fusion_lat": 0.0, "type": "electric_bike", "name": "6dd0accbe8640b876c20a26de8e22fc3", "is_disabled": 0, "rental_uris": {"ios": "https://dc.lft.to/lastmile_qr_scan", "android": "https://dc.lft.to/lastmile_qr_scan"}, "is_reserved": 0}, {"lon": -77.03818633333333, "bike_id": "80df70a12cfc61be454a7eb967dc5952", "lat": 38.9309795, "fusion_lon": 0.0, "fusion_lat": 0.0, "type": "electric_scooter", "name": "80df70a12cfc61be454a7eb967dc5952", "is_disabled": 0, "rental_uris": {"ios": "https://dc.lft.to/lastmile_qr_scan", "android": "https://dc.lft.to/lastmile_qr_scan"}, "is_reserved": 0}, {"lon": -77.00876616666666, "bike_id": "62a1b01f2c7f14e98c5806de99ed22ae", "lat": 38.825316666666666, "fusion_lon": 0.0, "fusion_lat": 0.0, "type": "electric_scooter", "name": "62a1b01f2c7f14e98c5806de99ed22ae", "is_disabled": 0, "rental_uris": {"ios": "https://dc.lft.to/lastmile_qr_scan", "android": "https://dc.lft.to/lastmile_qr_scan"}, "is_reserved": 0}, {"lon": -76.97705016666667, "bike_id": "5d333154540b4f8028c7887a25794401", "lat": 38.885208666666664, "fusion_lon": 0.0, "fusion_lat": 0.0, "type": "electric_scooter", "name": "5d333154540b4f8028c7887a25794401", "is_disabled": 0, "rental_uris": {"ios": "https://dc.lft.to/lastmile_qr_scan", "android": "https://dc.lft.to/lastmile_qr_scan"}, "is_reserved": 0}, {"lon": -77.0557405, "bike_id": "609ddb170c0e533aec72427594b74b55", "lat": 38.930622166666666, "fusion_lon": 0.0, "fusion_lat": 0.0, "type": "electric_scooter", "name": "609ddb170c0e533aec72427594b74b55", "is_disabled": 0, "rental_uris": {"ios": "https://dc.lft.to/lastmile_qr_scan", "android": "https://dc.lft.to/lastmile_qr_scan"}, "is_reserved": 0}, {"lon": -77.041798, "bike_id": "16643ab6c263b6770a567e1171531307", "lat": 38.91552133333333, "fusion_lon": 0.0, "fusion_lat": 0.0, "type": "electric_scooter", "name": "16643ab6c263b6770a567e1171531307", "is_disabled": 0, "rental_uris": {"ios": "https://dc.lft.to/lastmile_qr_scan", "android": "https://dc.lft.to/lastmile_qr_scan"}, "is_reserved": 0}, {"lon": -77.02703083333333, "bike_id": "0e5e30c396199f6f83c1f40605e71033", "lat": 38.94987733333333, "fusion_lon": 0.0, "fusion_lat": 0.0, "type": "electric_scooter", "name": "0e5e30c396199f6f83c1f40605e71033", "is_disabled": 0, "rental_uris": {"ios": "https://dc.lft.to/lastmile_qr_scan", "android": "https://dc.lft.to/lastmile_qr_scan"}, "is_reserved": 0}, {"lon": -77.0296985, "bike_id": "063fbb61db94c9781f717cd3190a3a2a", "lat": 38.90489816666667, "fusion_lon": 0.0, "fusion_lat": 0.0, "type": "electric_scooter", "name": "063fbb61db94c9781f717cd3190a3a2a", "is_disabled": 0, "rental_uris": {"ios": "https://dc.lft.to/lastmile_qr_scan", "android": "https://dc.lft.to/lastmile_qr_scan"}, "is_reserved": 0}, {"lon": -76.99270133333333, "bike_id": "49ee48c7ce50e73ca0dd4016b1b02eee", "lat": 38.8603345, "fusion_lon": 0.0, "fusion_lat": 0.0, "type": "electric_scooter", "name": "49ee48c7ce50e73ca0dd4016b1b02eee", "is_disabled": 0, "rental_uris": {"ios": "https://dc.lft.to/lastmile_qr_scan", "android": "https://dc.lft.to/lastmile_qr_scan"}, "is_reserved": 0}, {"lon": -77.12431933333333, "bike_id": "27f49379868b41f1073a09f79be9b362", "lat": 38.8537075, "fusion_lon": 0.0, "fusion_lat": 0.0, "type": "electric_bike", "name": "27f49379868b41f1073a09f79be9b362", "is_disabled": 0, "rental_uris": {"ios": "https://dc.lft.to/lastmile_qr_scan", "android": "https://dc.lft.to/lastmile_qr_scan"}, "is_reserved": 0}, {"lon": -76.949738, "bike_id": "9285c2cca61a3690534cefa5cdb4fdbb", "lat": 38.893697, "fusion_lon": 0.0, "fusion_lat": 0.0, "type": "electric_scooter", "name": "9285c2cca61a3690534cefa5cdb4fdbb", "is_disabled": 0, "rental_uris": {"ios": "https://dc.lft.to/lastmile_qr_scan", "android": "https://dc.lft.to/lastmile_qr_scan"}, "is_reserved": 0}, {"lon": -77.03813316666667, "bike_id": "cca649134ce4d217914b9be7ba6a720a", "lat": 38.91037083333333, "fusion_lon": 0.0, "fusion_lat": 0.0, "type": "electric_scooter", "name": "cca649134ce4d217914b9be7ba6a720a", "is_disabled": 0, "rental_uris": {"ios": "https://dc.lft.to/lastmile_qr_scan", "android": "https://dc.lft.to/lastmile_qr_scan"}, "is_reserved": 0}, {"lon": -77.00066, "bike_id": "2c0186f5479fd84d8cf7e994812cc9e6", "lat": 38.89994083333333, "fusion_lon": 0.0, "fusion_lat": 0.0, "type": "electric_scooter", "name": "2c0186f5479fd84d8cf7e994812cc9e6", "is_disabled": 0, "rental_uris": {"ios": "https://dc.lft.to/lastmile_qr_scan", "android": "https://dc.lft.to/lastmile_qr_scan"}, "is_reserved": 0}, {"lon": -77.02364266666666, "bike_id": "917663c1a511f6068006bae2f496e6bb", "lat": 38.90726766666667, "fusion_lon": 0.0, "fusion_lat": 0.0, "type": "electric_scooter", "name": "917663c1a511f6068006bae2f496e6bb", "is_disabled": 0, "rental_uris": {"ios": "https://dc.lft.to/lastmile_qr_scan", "android": "https://dc.lft.to/lastmile_qr_scan"}, "is_reserved": 0}, {"lon": -77.04346983333333, "bike_id": "f87460eebb25771e3ccacd27e1daa71f", "lat": 38.9071145, "fusion_lon": 0.0, "fusion_lat": 0.0, "type": "electric_scooter", "name": "f87460eebb25771e3ccacd27e1daa71f", "is_disabled": 0, "rental_uris": {"ios": "https://dc.lft.to/lastmile_qr_scan", "android": "https://dc.lft.to/lastmile_qr_scan"}, "is_reserved": 0}, {"lon": -77.043822, "bike_id": "2472c4175f67861a8409fe22bb620d8d", "lat": 38.91879616666667, "fusion_lon": 0.0, "fusion_lat": 0.0, "type": "electric_scooter", "name": "2472c4175f67861a8409fe22bb620d8d", "is_disabled": 0, "rental_uris": {"ios": "https://dc.lft.to/lastmile_qr_scan", "android": "https://dc.lft.to/lastmile_qr_scan"}, "is_reserved": 0}, {"lon": -77.048658, "bike_id": "408564ae757c7e81fc86420fa2b6f3b3", "lat": 38.91604566666667, "fusion_lon": 0.0, "fusion_lat": 0.0, "type": "electric_scooter", "name": "408564ae757c7e81fc86420fa2b6f3b3", "is_disabled": 0, "rental_uris": {"ios": "https://dc.lft.to/lastmile_qr_scan", "android": "https://dc.lft.to/lastmile_qr_scan"}, "is_reserved": 0}, {"lon": -77.03371666666666, "bike_id": "d99ed7db0c32ca58f5ff8742be5dffc0", "lat": 38.92045266666667, "fusion_lon": 0.0, "fusion_lat": 0.0, "type": "electric_scooter", "name": "d99ed7db0c32ca58f5ff8742be5dffc0", "is_disabled": 0, "rental_uris": {"ios": "https://dc.lft.to/lastmile_qr_scan", "android": "https://dc.lft.to/lastmile_qr_scan"}, "is_reserved": 0}, {"lon": -77.03798833333333, "bike_id": "a75ef095a5a07177fcc8d3824f0f64ea", "lat": 38.91035016666667, "fusion_lon": 0.0, "fusion_lat": 0.0, "type": "electric_scooter", "name": "a75ef095a5a07177fcc8d3824f0f64ea", "is_disabled": 0, "rental_uris": {"ios": "https://dc.lft.to/lastmile_qr_scan", "android": "https://dc.lft.to/lastmile_qr_scan"}, "is_reserved": 0}, {"lon": -77.033085, "bike_id": "0115921e3cf59fe5def51b6c01dba568", "lat": 38.90128516666667, "fusion_lon": 0.0, "fusion_lat": 0.0, "type": "electric_scooter", "name": "0115921e3cf59fe5def51b6c01dba568", "is_disabled": 0, "rental_uris": {"ios": "https://dc.lft.to/lastmile_qr_scan", "android": "https://dc.lft.to/lastmile_qr_scan"}, "is_reserved": 0}, {"lon": -77.03244333333333, "bike_id": "cbc0fde7d29002c77eaf7afa8308d8bf", "lat": 38.92872116666667, "fusion_lon": 0.0, "fusion_lat": 0.0, "type": "electric_scooter", "name": "cbc0fde7d29002c77eaf7afa8308d8bf", "is_disabled": 0, "rental_uris": {"ios": "https://dc.lft.to/lastmile_qr_scan", "android": "https://dc.lft.to/lastmile_qr_scan"}, "is_reserved": 0}, {"lon": -77.0265575, "bike_id": "9ba9080483a9117a8db35fb6a89f645b", "lat": 38.927763666666664, "fusion_lon": 0.0, "fusion_lat": 0.0, "type": "electric_scooter", "name": "9ba9080483a9117a8db35fb6a89f645b", "is_disabled": 0, "rental_uris": {"ios": "https://dc.lft.to/lastmile_qr_scan", "android": "https://dc.lft.to/lastmile_qr_scan"}, "is_reserved": 0}, {"lon": -77.00202933333334, "bike_id": "097b454b097fe1d7e4e7a0b83cef136c", "lat": 38.90238933333333, "fusion_lon": 0.0, "fusion_lat": 0.0, "type": "electric_scooter", "name": "097b454b097fe1d7e4e7a0b83cef136c", "is_disabled": 0, "rental_uris": {"ios": "https://dc.lft.to/lastmile_qr_scan", "android": "https://dc.lft.to/lastmile_qr_scan"}, "is_reserved": 0}, {"lon": -77.05050283333334, "bike_id": "01934db76f8de7e079371a39b5af82ce", "lat": 38.9006045, "fusion_lon": 0.0, "fusion_lat": 0.0, "type": "electric_scooter", "name": "01934db76f8de7e079371a39b5af82ce", "is_disabled": 0, "rental_uris": {"ios": "https://dc.lft.to/lastmile_qr_scan", "android": "https://dc.lft.to/lastmile_qr_scan"}, "is_reserved": 0}, {"lon": -77.03654233333333, "bike_id": "10f55ccb15303f098d44c4e1ae6be9ea", "lat": 38.921345, "fusion_lon": 0.0, "fusion_lat": 0.0, "type": "electric_scooter", "name": "10f55ccb15303f098d44c4e1ae6be9ea", "is_disabled": 0, "rental_uris": {"ios": "https://dc.lft.to/lastmile_qr_scan", "android": "https://dc.lft.to/lastmile_qr_scan"}, "is_reserved": 0}, {"lon": -77.03872583333333, "bike_id": "71690f8105cd7339b03c33dd1fd62a4f", "lat": 38.929699166666666, "fusion_lon": 0.0, "fusion_lat": 0.0, "type": "electric_scooter", "name": "71690f8105cd7339b03c33dd1fd62a4f", "is_disabled": 0, "rental_uris": {"ios": "https://dc.lft.to/lastmile_qr_scan", "android": "https://dc.lft.to/lastmile_qr_scan"}, "is_reserved": 0}, {"lon": -77.0543575, "bike_id": "023b7f82342a461d9ec1c335651ac4e9", "lat": 38.836861999999996, "fusion_lon": 0.0, "fusion_lat": 0.0, "type": "electric_bike", "name": "023b7f82342a461d9ec1c335651ac4e9", "is_disabled": 0, "rental_uris": {"ios": "https://dc.lft.to/lastmile_qr_scan", "android": "https://dc.lft.to/lastmile_qr_scan"}, "is_reserved": 0}, {"lon": -77.00034533333333, "bike_id": "dc60dabe9ae2b5c9fa92729d0c5f865e", "lat": 38.967981333333334, "fusion_lon": 0.0, "fusion_lat": 0.0, "type": "electric_bike", "name": "dc60dabe9ae2b5c9fa92729d0c5f865e", "is_disabled": 0, "rental_uris": {"ios": "https://dc.lft.to/lastmile_qr_scan", "android": "https://dc.lft.to/lastmile_qr_scan"}, "is_reserved": 0}, {"lon": -77.03204466666666, "bike_id": "ee7706324aadbd729b255254c2719858", "lat": 38.9440445, "fusion_lon": 0.0, "fusion_lat": 0.0, "type": "electric_scooter", "name": "ee7706324aadbd729b255254c2719858", "is_disabled": 0, "rental_uris": {"ios": "https://dc.lft.to/lastmile_qr_scan", "android": "https://dc.lft.to/lastmile_qr_scan"}, "is_reserved": 0}, {"lon": -77.04563033333334, "bike_id": "b1d9c60c6f9528e105c6e95ec53a12c7", "lat": 38.896103, "fusion_lon": 0.0, "fusion_lat": 0.0, "type": "electric_scooter", "name": "b1d9c60c6f9528e105c6e95ec53a12c7", "is_disabled": 0, "rental_uris": {"ios": "https://dc.lft.to/lastmile_qr_scan", "android": "https://dc.lft.to/lastmile_qr_scan"}, "is_reserved": 0}, {"lon": -77.03187333333334, "bike_id": "af6519be44c6ed68d05fb728e9733e66", "lat": 38.9174655, "fusion_lon": 0.0, "fusion_lat": 0.0, "type": "electric_scooter", "name": "af6519be44c6ed68d05fb728e9733e66", "is_disabled": 0, "rental_uris": {"ios": "https://dc.lft.to/lastmile_qr_scan", "android": "https://dc.lft.to/lastmile_qr_scan"}, "is_reserved": 0}, {"lon": -77.11778716666667, "bike_id": "c039740021a2141e505eb7a22e3635cd", "lat": 39.054939833333336, "fusion_lon": 0.0, "fusion_lat": 0.0, "type": "electric_bike", "name": "c039740021a2141e505eb7a22e3635cd", "is_disabled": 0, "rental_uris": {"ios": "https://dc.lft.to/lastmile_qr_scan", "android": "https://dc.lft.to/lastmile_qr_scan"}, "is_reserved": 0}, {"lon": -77.01660033333333, "bike_id": "094a8b37daa7625a32d8f51ffef2b3e0", "lat": 38.9173815, "fusion_lon": 0.0, "fusion_lat": 0.0, "type": "electric_scooter", "name": "094a8b37daa7625a32d8f51ffef2b3e0", "is_disabled": 0, "rental_uris": {"ios": "https://dc.lft.to/lastmile_qr_scan", "android": "https://dc.lft.to/lastmile_qr_scan"}, "is_reserved": 0}, {"lon": -77.048517, "bike_id": "489c05e70e4869a4886bcdc2d24f0e77", "lat": 38.904726833333335, "fusion_lon": 0.0, "fusion_lat": 0.0, "type": "electric_bike", "name": "489c05e70e4869a4886bcdc2d24f0e77", "is_disabled": 0, "rental_uris": {"ios": "https://dc.lft.to/lastmile_qr_scan", "android": "https://dc.lft.to/lastmile_qr_scan"}, "is_reserved": 0}, {"lon": -77.0361, "bike_id": "4e28ca397615de0586d155783a147315", "lat": 38.9232805, "fusion_lon": 0.0, "fusion_lat": 0.0, "type": "electric_scooter", "name": "4e28ca397615de0586d155783a147315", "is_disabled": 0, "rental_uris": {"ios": "https://dc.lft.to/lastmile_qr_scan", "android": "https://dc.lft.to/lastmile_qr_scan"}, "is_reserved": 0}, {"lon": -77.04169483333334, "bike_id": "e244d129d44c12fae36cd5bd6fb1fa4f", "lat": 38.919718833333334, "fusion_lon": 0.0, "fusion_lat": 0.0, "type": "electric_scooter", "name": "e244d129d44c12fae36cd5bd6fb1fa4f", "is_disabled": 0, "rental_uris": {"ios": "https://dc.lft.to/lastmile_qr_scan", "android": "https://dc.lft.to/lastmile_qr_scan"}, "is_reserved": 0}, {"lon": -77.04483483333334, "bike_id": "5d6d0600bde4cc5f2f0041b14810622c", "lat": 38.892396, "fusion_lon": 0.0, "fusion_lat": 0.0, "type": "electric_scooter", "name": "5d6d0600bde4cc5f2f0041b14810622c", "is_disabled": 0, "rental_uris": {"ios": "https://dc.lft.to/lastmile_qr_scan", "android": "https://dc.lft.to/lastmile_qr_scan"}, "is_reserved": 0}, {"lon": -77.032776, "bike_id": "87e653898f2a0e302eebcab80d1385d1", "lat": 38.941538666666666, "fusion_lon": 0.0, "fusion_lat": 0.0, "type": "electric_scooter", "name": "87e653898f2a0e302eebcab80d1385d1", "is_disabled": 0, "rental_uris": {"ios": "https://dc.lft.to/lastmile_qr_scan", "android": "https://dc.lft.to/lastmile_qr_scan"}, "is_reserved": 0}, {"lon": -77.0241495, "bike_id": "88743cab35f020c1322d5a819e159513", "lat": 38.93425933333333, "fusion_lon": 0.0, "fusion_lat": 0.0, "type": "electric_bike", "name": "88743cab35f020c1322d5a819e159513", "is_disabled": 0, "rental_uris": {"ios": "https://dc.lft.to/lastmile_qr_scan", "android": "https://dc.lft.to/lastmile_qr_scan"}, "is_reserved": 0}, {"lon": -76.97531616666667, "bike_id": "11cdb6557fcb11e5982820ce7ba4cba7", "lat": 38.903282833333336, "fusion_lon": 0.0, "fusion_lat": 0.0, "type": "electric_bike", "name": "11cdb6557fcb11e5982820ce7ba4cba7", "is_disabled": 0, "rental_uris": {"ios": "https://dc.lft.to/lastmile_qr_scan", "android": "https://dc.lft.to/lastmile_qr_scan"}, "is_reserved": 0}, {"lon": -76.9335145, "bike_id": "7bb3928934dd34ee35db29fb3576e5bd", "lat": 38.89907066666667, "fusion_lon": 0.0, "fusion_lat": 0.0, "type": "electric_scooter", "name": "7bb3928934dd34ee35db29fb3576e5bd", "is_disabled": 0, "rental_uris": {"ios": "https://dc.lft.to/lastmile_qr_scan", "android": "https://dc.lft.to/lastmile_qr_scan"}, "is_reserved": 0}, {"lon": -76.985636, "bike_id": "5b7a049989c765866295e5748436bd8d", "lat": 38.899560666666666, "fusion_lon": 0.0, "fusion_lat": 0.0, "type": "electric_scooter", "name": "5b7a049989c765866295e5748436bd8d", "is_disabled": 0, "rental_uris": {"ios": "https://dc.lft.to/lastmile_qr_scan", "android": "https://dc.lft.to/lastmile_qr_scan"}, "is_reserved": 0}, {"lon": -76.9910935, "bike_id": "9e5badafb4ca4e20373306b69e920f62", "lat": 38.903205166666666, "fusion_lon": 0.0, "fusion_lat": 0.0, "type": "electric_scooter", "name": "9e5badafb4ca4e20373306b69e920f62", "is_disabled": 0, "rental_uris": {"ios": "https://dc.lft.to/lastmile_qr_scan", "android": "https://dc.lft.to/lastmile_qr_scan"}, "is_reserved": 0}, {"lon": -77.02720616666667, "bike_id": "471719f193019af9eff1e61fe3d4c29f", "lat": 38.91673083333333, "fusion_lon": 0.0, "fusion_lat": 0.0, "type": "electric_scooter", "name": "471719f193019af9eff1e61fe3d4c29f", "is_disabled": 0, "rental_uris": {"ios": "https://dc.lft.to/lastmile_qr_scan", "android": "https://dc.lft.to/lastmile_qr_scan"}, "is_reserved": 0}, {"lon": -77.070945, "bike_id": "f86b265b8e7ba915146be880d6d6f189", "lat": 38.912183, "fusion_lon": 0.0, "fusion_lat": 0.0, "type": "electric_scooter", "name": "f86b265b8e7ba915146be880d6d6f189", "is_disabled": 0, "rental_uris": {"ios": "https://dc.lft.to/lastmile_qr_scan", "android": "https://dc.lft.to/lastmile_qr_scan"}, "is_reserved": 0}, {"lon": -77.0268065, "bike_id": "e20ff831d3076cd2faa61cefe39fa4ab", "lat": 38.943254, "fusion_lon": 0.0, "fusion_lat": 0.0, "type": "electric_scooter", "name": "e20ff831d3076cd2faa61cefe39fa4ab", "is_disabled": 0, "rental_uris": {"ios": "https://dc.lft.to/lastmile_qr_scan", "android": "https://dc.lft.to/lastmile_qr_scan"}, "is_reserved": 0}, {"lon": -76.93378466666667, "bike_id": "93fbaeb0b8ccef73e0344831b9c5359f", "lat": 38.91029566666667, "fusion_lon": 0.0, "fusion_lat": 0.0, "type": "electric_scooter", "name": "93fbaeb0b8ccef73e0344831b9c5359f", "is_disabled": 0, "rental_uris": {"ios": "https://dc.lft.to/lastmile_qr_scan", "android": "https://dc.lft.to/lastmile_qr_scan"}, "is_reserved": 0}, {"lon": -77.12683516666667, "bike_id": "832c1d159f9d4be3c7d5c97d08d14aa0", "lat": 38.815095666666664, "fusion_lon": 0.0, "fusion_lat": 0.0, "type": "electric_bike", "name": "832c1d159f9d4be3c7d5c97d08d14aa0", "is_disabled": 0, "rental_uris": {"ios": "https://dc.lft.to/lastmile_qr_scan", "android": "https://dc.lft.to/lastmile_qr_scan"}, "is_reserved": 0}, {"lon": -77.03797666666667, "bike_id": "ee5a40aa57e3ae664bac96afdfd14c2f", "lat": 38.91542333333334, "fusion_lon": 0.0, "fusion_lat": 0.0, "type": "electric_scooter", "name": "ee5a40aa57e3ae664bac96afdfd14c2f", "is_disabled": 0, "rental_uris": {"ios": "https://dc.lft.to/lastmile_qr_scan", "android": "https://dc.lft.to/lastmile_qr_scan"}, "is_reserved": 0}, {"lon": -76.98198316666667, "bike_id": "bff9fb36a4d3defc36e04a3679159bcf", "lat": 38.926007, "fusion_lon": 0.0, "fusion_lat": 0.0, "type": "electric_scooter", "name": "bff9fb36a4d3defc36e04a3679159bcf", "is_disabled": 0, "rental_uris": {"ios": "https://dc.lft.to/lastmile_qr_scan", "android": "https://dc.lft.to/lastmile_qr_scan"}, "is_reserved": 0}, {"lon": -77.04169983333334, "bike_id": "4e8a763bdff40139f2b347811e5494d8", "lat": 38.905658, "fusion_lon": 0.0, "fusion_lat": 0.0, "type": "electric_scooter", "name": "4e8a763bdff40139f2b347811e5494d8", "is_disabled": 0, "rental_uris": {"ios": "https://dc.lft.to/lastmile_qr_scan", "android": "https://dc.lft.to/lastmile_qr_scan"}, "is_reserved": 0}, {"lon": -77.0271475, "bike_id": "0788f4e297a55da568d2a61c90cca2df", "lat": 38.89772383333333, "fusion_lon": 0.0, "fusion_lat": 0.0, "type": "electric_scooter", "name": "0788f4e297a55da568d2a61c90cca2df", "is_disabled": 0, "rental_uris": {"ios": "https://dc.lft.to/lastmile_qr_scan", "android": "https://dc.lft.to/lastmile_qr_scan"}, "is_reserved": 0}, {"lon": -77.02186233333333, "bike_id": "2bd062429578e89844d49ff7bfe12d0b", "lat": 38.9330705, "fusion_lon": 0.0, "fusion_lat": 0.0, "type": "electric_scooter", "name": "2bd062429578e89844d49ff7bfe12d0b", "is_disabled": 0, "rental_uris": {"ios": "https://dc.lft.to/lastmile_qr_scan", "android": "https://dc.lft.to/lastmile_qr_scan"}, "is_reserved": 0}, {"lon": -76.93359283333334, "bike_id": "7e79e5164792d908a6bc3fe34408dd38", "lat": 38.887942833333334, "fusion_lon": 0.0, "fusion_lat": 0.0, "type": "electric_scooter", "name": "7e79e5164792d908a6bc3fe34408dd38", "is_disabled": 0, "rental_uris": {"ios": "https://dc.lft.to/lastmile_qr_scan", "android": "https://dc.lft.to/lastmile_qr_scan"}, "is_reserved": 0}, {"lon": -76.93181166666666, "bike_id": "0368017bb0585cd224f95b739d06cee2", "lat": 38.903671833333334, "fusion_lon": 0.0, "fusion_lat": 0.0, "type": "electric_scooter", "name": "0368017bb0585cd224f95b739d06cee2", "is_disabled": 0, "rental_uris": {"ios": "https://dc.lft.to/lastmile_qr_scan", "android": "https://dc.lft.to/lastmile_qr_scan"}, "is_reserved": 0}, {"lon": -77.02954, "bike_id": "4a72a2e9f74583595433726b2963b024", "lat": 38.91672283333333, "fusion_lon": 0.0, "fusion_lat": 0.0, "type": "electric_scooter", "name": "4a72a2e9f74583595433726b2963b024", "is_disabled": 0, "rental_uris": {"ios": "https://dc.lft.to/lastmile_qr_scan", "android": "https://dc.lft.to/lastmile_qr_scan"}, "is_reserved": 0}, {"lon": -77.02966983333333, "bike_id": "f7ef1476679523d22445080304f877f2", "lat": 38.91682433333333, "fusion_lon": 0.0, "fusion_lat": 0.0, "type": "electric_scooter", "name": "f7ef1476679523d22445080304f877f2", "is_disabled": 0, "rental_uris": {"ios": "https://dc.lft.to/lastmile_qr_scan", "android": "https://dc.lft.to/lastmile_qr_scan"}, "is_reserved": 0}, {"lon": -77.04334733333333, "bike_id": "f4b5904cc3e322ceea41fd9f7c6fc0d9", "lat": 38.908113166666666, "fusion_lon": 0.0, "fusion_lat": 0.0, "type": "electric_scooter", "name": "f4b5904cc3e322ceea41fd9f7c6fc0d9", "is_disabled": 0, "rental_uris": {"ios": "https://dc.lft.to/lastmile_qr_scan", "android": "https://dc.lft.to/lastmile_qr_scan"}, "is_reserved": 0}, {"lon": -77.05001866666667, "bike_id": "0d21481a79de18d144c4058c00a4638d", "lat": 38.891962666666664, "fusion_lon": 0.0, "fusion_lat": 0.0, "type": "electric_scooter", "name": "0d21481a79de18d144c4058c00a4638d", "is_disabled": 0, "rental_uris": {"ios": "https://dc.lft.to/lastmile_qr_scan", "android": "https://dc.lft.to/lastmile_qr_scan"}, "is_reserved": 0}, {"lon": -77.03341033333334, "bike_id": "1d8fa786eaac4eaee1f1ae6a8bd7005a", "lat": 38.90118966666667, "fusion_lon": 0.0, "fusion_lat": 0.0, "type": "electric_scooter", "name": "1d8fa786eaac4eaee1f1ae6a8bd7005a", "is_disabled": 0, "rental_uris": {"ios": "https://dc.lft.to/lastmile_qr_scan", "android": "https://dc.lft.to/lastmile_qr_scan"}, "is_reserved": 0}, {"lon": -77.04693016666667, "bike_id": "052796325449ba805f83c1106dc8305a", "lat": 38.90534783333333, "fusion_lon": 0.0, "fusion_lat": 0.0, "type": "electric_scooter", "name": "052796325449ba805f83c1106dc8305a", "is_disabled": 0, "rental_uris": {"ios": "https://dc.lft.to/lastmile_qr_scan", "android": "https://dc.lft.to/lastmile_qr_scan"}, "is_reserved": 0}, {"lon": -77.02963433333333, "bike_id": "4fc65b05e138eec1704a79ccd1083234", "lat": 38.900547, "fusion_lon": 0.0, "fusion_lat": 0.0, "type": "electric_scooter", "name": "4fc65b05e138eec1704a79ccd1083234", "is_disabled": 0, "rental_uris": {"ios": "https://dc.lft.to/lastmile_qr_scan", "android": "https://dc.lft.to/lastmile_qr_scan"}, "is_reserved": 0}, {"lon": -77.07728066666667, "bike_id": "2d97e3aecb0626eff31b70076fc26c31", "lat": 38.9225975, "fusion_lon": 0.0, "fusion_lat": 0.0, "type": "electric_bike", "name": "2d97e3aecb0626eff31b70076fc26c31", "is_disabled": 0, "rental_uris": {"ios": "https://dc.lft.to/lastmile_qr_scan", "android": "https://dc.lft.to/lastmile_qr_scan"}, "is_reserved": 0}, {"lon": -77.04869066666667, "bike_id": "8716bd26d61a852a6cc9d3da96746fd2", "lat": 38.90473516666667, "fusion_lon": 0.0, "fusion_lat": 0.0, "type": "electric_scooter", "name": "8716bd26d61a852a6cc9d3da96746fd2", "is_disabled": 0, "rental_uris": {"ios": "https://dc.lft.to/lastmile_qr_scan", "android": "https://dc.lft.to/lastmile_qr_scan"}, "is_reserved": 0}, {"lon": -77.01050033333334, "bike_id": "d65bdf191df1693b08496a03eae6d787", "lat": 38.96344033333333, "fusion_lon": 0.0, "fusion_lat": 0.0, "type": "electric_scooter", "name": "d65bdf191df1693b08496a03eae6d787", "is_disabled": 0, "rental_uris": {"ios": "https://dc.lft.to/lastmile_qr_scan", "android": "https://dc.lft.to/lastmile_qr_scan"}, "is_reserved": 0}, {"lon": -77.00376633333333, "bike_id": "2b5bc1052d03b9b12cd2153361793c35", "lat": 38.9059865, "fusion_lon": 0.0, "fusion_lat": 0.0, "type": "electric_scooter", "name": "2b5bc1052d03b9b12cd2153361793c35", "is_disabled": 0, "rental_uris": {"ios": "https://dc.lft.to/lastmile_qr_scan", "android": "https://dc.lft.to/lastmile_qr_scan"}, "is_reserved": 0}, {"lon": -77.00197583333333, "bike_id": "24e7c2a59b075c21f4e58ff437192ed6", "lat": 38.9001505, "fusion_lon": 0.0, "fusion_lat": 0.0, "type": "electric_scooter", "name": "24e7c2a59b075c21f4e58ff437192ed6", "is_disabled": 0, "rental_uris": {"ios": "https://dc.lft.to/lastmile_qr_scan", "android": "https://dc.lft.to/lastmile_qr_scan"}, "is_reserved": 0}, {"lon": -77.05043683333334, "bike_id": "6ced2dfbdc1961a73c3d3fe2ee15ba3f", "lat": 38.92422766666667, "fusion_lon": 0.0, "fusion_lat": 0.0, "type": "electric_bike", "name": "6ced2dfbdc1961a73c3d3fe2ee15ba3f", "is_disabled": 0, "rental_uris": {"ios": "https://dc.lft.to/lastmile_qr_scan", "android": "https://dc.lft.to/lastmile_qr_scan"}, "is_reserved": 0}, {"lon": -77.0318465, "bike_id": "92a4e48333d7c41047ad922adc45499b", "lat": 38.90519666666667, "fusion_lon": 0.0, "fusion_lat": 0.0, "type": "electric_scooter", "name": "92a4e48333d7c41047ad922adc45499b", "is_disabled": 0, "rental_uris": {"ios": "https://dc.lft.to/lastmile_qr_scan", "android": "https://dc.lft.to/lastmile_qr_scan"}, "is_reserved": 0}, {"lon": -77.06580083333333, "bike_id": "570e04628d561e7eb6167545b82e6a74", "lat": 38.9113175, "fusion_lon": 0.0, "fusion_lat": 0.0, "type": "electric_bike", "name": "570e04628d561e7eb6167545b82e6a74", "is_disabled": 0, "rental_uris": {"ios": "https://dc.lft.to/lastmile_qr_scan", "android": "https://dc.lft.to/lastmile_qr_scan"}, "is_reserved": 0}, {"lon": -77.1034085, "bike_id": "8c6cdcf1c40d37a320677f0ad965da52", "lat": 38.88553233333333, "fusion_lon": 0.0, "fusion_lat": 0.0, "type": "electric_bike", "name": "8c6cdcf1c40d37a320677f0ad965da52", "is_disabled": 0, "rental_uris": {"ios": "https://dc.lft.to/lastmile_qr_scan", "android": "https://dc.lft.to/lastmile_qr_scan"}, "is_reserved": 0}, {"lon": -77.04520916666667, "bike_id": "57296dd4608c0bec414eab8155251aaf", "lat": 38.9073445, "fusion_lon": 0.0, "fusion_lat": 0.0, "type": "electric_scooter", "name": "57296dd4608c0bec414eab8155251aaf", "is_disabled": 0, "rental_uris": {"ios": "https://dc.lft.to/lastmile_qr_scan", "android": "https://dc.lft.to/lastmile_qr_scan"}, "is_reserved": 0}, {"lon": -77.028344, "bike_id": "489677f67cb83d1a41ffa6641a2320a6", "lat": 38.929611666666666, "fusion_lon": 0.0, "fusion_lat": 0.0, "type": "electric_scooter", "name": "489677f67cb83d1a41ffa6641a2320a6", "is_disabled": 0, "rental_uris": {"ios": "https://dc.lft.to/lastmile_qr_scan", "android": "https://dc.lft.to/lastmile_qr_scan"}, "is_reserved": 0}, {"lon": -77.00991866666666, "bike_id": "60af0875c82292c1c24ba6b11504a0ec", "lat": 38.9037545, "fusion_lon": 0.0, "fusion_lat": 0.0, "type": "electric_scooter", "name": "60af0875c82292c1c24ba6b11504a0ec", "is_disabled": 0, "rental_uris": {"ios": "https://dc.lft.to/lastmile_qr_scan", "android": "https://dc.lft.to/lastmile_qr_scan"}, "is_reserved": 0}, {"lon": -77.0356615, "bike_id": "8f7a4f933ecd76eb51fda40ba8fdcf98", "lat": 38.917700833333335, "fusion_lon": 0.0, "fusion_lat": 0.0, "type": "electric_scooter", "name": "8f7a4f933ecd76eb51fda40ba8fdcf98", "is_disabled": 0, "rental_uris": {"ios": "https://dc.lft.to/lastmile_qr_scan", "android": "https://dc.lft.to/lastmile_qr_scan"}, "is_reserved": 0}, {"lon": -77.03988433333333, "bike_id": "9fdb2f25b78d730ac6c4be9891c0103e", "lat": 38.916225833333336, "fusion_lon": 0.0, "fusion_lat": 0.0, "type": "electric_scooter", "name": "9fdb2f25b78d730ac6c4be9891c0103e", "is_disabled": 0, "rental_uris": {"ios": "https://dc.lft.to/lastmile_qr_scan", "android": "https://dc.lft.to/lastmile_qr_scan"}, "is_reserved": 0}, {"lon": -76.95895183333333, "bike_id": "17e821936fdfd18c55795377bad10076", "lat": 38.89007733333333, "fusion_lon": 0.0, "fusion_lat": 0.0, "type": "electric_scooter", "name": "17e821936fdfd18c55795377bad10076", "is_disabled": 0, "rental_uris": {"ios": "https://dc.lft.to/lastmile_qr_scan", "android": "https://dc.lft.to/lastmile_qr_scan"}, "is_reserved": 0}, {"lon": -77.02418333333334, "bike_id": "c972836458116b8c6b12c8821a2905aa", "lat": 38.904333333333334, "fusion_lon": 0.0, "fusion_lat": 0.0, "type": "electric_scooter", "name": "c972836458116b8c6b12c8821a2905aa", "is_disabled": 0, "rental_uris": {"ios": "https://dc.lft.to/lastmile_qr_scan", "android": "https://dc.lft.to/lastmile_qr_scan"}, "is_reserved": 0}, {"lon": -76.9636185, "bike_id": "d25762998dbc6f0c4113892a85174ee5", "lat": 38.934987166666666, "fusion_lon": 0.0, "fusion_lat": 0.0, "type": "electric_scooter", "name": "d25762998dbc6f0c4113892a85174ee5", "is_disabled": 0, "rental_uris": {"ios": "https://dc.lft.to/lastmile_qr_scan", "android": "https://dc.lft.to/lastmile_qr_scan"}, "is_reserved": 0}, {"lon": -77.03853683333334, "bike_id": "01ba3202eab562ea979491c92c202ea7", "lat": 38.915456666666664, "fusion_lon": 0.0, "fusion_lat": 0.0, "type": "electric_scooter", "name": "01ba3202eab562ea979491c92c202ea7", "is_disabled": 0, "rental_uris": {"ios": "https://dc.lft.to/lastmile_qr_scan", "android": "https://dc.lft.to/lastmile_qr_scan"}, "is_reserved": 0}, {"lon": -77.03815233333333, "bike_id": "722abc5cf546694b4b6c2efd1cb47304", "lat": 38.9309415, "fusion_lon": 0.0, "fusion_lat": 0.0, "type": "electric_scooter", "name": "722abc5cf546694b4b6c2efd1cb47304", "is_disabled": 0, "rental_uris": {"ios": "https://dc.lft.to/lastmile_qr_scan", "android": "https://dc.lft.to/lastmile_qr_scan"}, "is_reserved": 0}, {"lon": -77.035117, "bike_id": "544db4a6f6839e6ecb4cd41843583657", "lat": 38.921358, "fusion_lon": 0.0, "fusion_lat": 0.0, "type": "electric_scooter", "name": "544db4a6f6839e6ecb4cd41843583657", "is_disabled": 0, "rental_uris": {"ios": "https://dc.lft.to/lastmile_qr_scan", "android": "https://dc.lft.to/lastmile_qr_scan"}, "is_reserved": 0}, {"lon": -77.00914716666666, "bike_id": "6e2a39c70f423a34638e5293654cad5b", "lat": 38.82785483333333, "fusion_lon": 0.0, "fusion_lat": 0.0, "type": "electric_bike", "name": "6e2a39c70f423a34638e5293654cad5b", "is_disabled": 0, "rental_uris": {"ios": "https://dc.lft.to/lastmile_qr_scan", "android": "https://dc.lft.to/lastmile_qr_scan"}, "is_reserved": 0}, {"lon": -77.02122566666667, "bike_id": "623288f04277d540210e9e9b72de6b88", "lat": 38.93701316666667, "fusion_lon": 0.0, "fusion_lat": 0.0, "type": "electric_scooter", "name": "623288f04277d540210e9e9b72de6b88", "is_disabled": 0, "rental_uris": {"ios": "https://dc.lft.to/lastmile_qr_scan", "android": "https://dc.lft.to/lastmile_qr_scan"}, "is_reserved": 0}, {"lon": -77.04689183333333, "bike_id": "e1e055ce389e506e7c9741eb50148b42", "lat": 38.892224666666664, "fusion_lon": 0.0, "fusion_lat": 0.0, "type": "electric_scooter", "name": "e1e055ce389e506e7c9741eb50148b42", "is_disabled": 0, "rental_uris": {"ios": "https://dc.lft.to/lastmile_qr_scan", "android": "https://dc.lft.to/lastmile_qr_scan"}, "is_reserved": 0}, {"lon": -77.04687716666666, "bike_id": "2d2ddd39070f09c2a44e4b3ae8aa4ff1", "lat": 38.8922125, "fusion_lon": 0.0, "fusion_lat": 0.0, "type": "electric_scooter", "name": "2d2ddd39070f09c2a44e4b3ae8aa4ff1", "is_disabled": 0, "rental_uris": {"ios": "https://dc.lft.to/lastmile_qr_scan", "android": "https://dc.lft.to/lastmile_qr_scan"}, "is_reserved": 0}, {"lon": -77.02962966666666, "bike_id": "7f8d7aa6073d5b6ac774723bdffce877", "lat": 38.906684, "fusion_lon": 0.0, "fusion_lat": 0.0, "type": "electric_scooter", "name": "7f8d7aa6073d5b6ac774723bdffce877", "is_disabled": 0, "rental_uris": {"ios": "https://dc.lft.to/lastmile_qr_scan", "android": "https://dc.lft.to/lastmile_qr_scan"}, "is_reserved": 0}, {"lon": -77.02628866666667, "bike_id": "cd9b7add41ab208857318c370983af72", "lat": 38.96220666666667, "fusion_lon": 0.0, "fusion_lat": 0.0, "type": "electric_bike", "name": "cd9b7add41ab208857318c370983af72", "is_disabled": 0, "rental_uris": {"ios": "https://dc.lft.to/lastmile_qr_scan", "android": "https://dc.lft.to/lastmile_qr_scan"}, "is_reserved": 0}, {"lon": -77.043098, "bike_id": "a9f7b8aff3fc35c86b073b7ee2381006", "lat": 38.90356516666667, "fusion_lon": 0.0, "fusion_lat": 0.0, "type": "electric_scooter", "name": "a9f7b8aff3fc35c86b073b7ee2381006", "is_disabled": 0, "rental_uris": {"ios": "https://dc.lft.to/lastmile_qr_scan", "android": "https://dc.lft.to/lastmile_qr_scan"}, "is_reserved": 0}, {"lon": -76.98279466666666, "bike_id": "22558d18380beda5fd7c87074d077929", "lat": 38.91633816666667, "fusion_lon": 0.0, "fusion_lat": 0.0, "type": "electric_scooter", "name": "22558d18380beda5fd7c87074d077929", "is_disabled": 0, "rental_uris": {"ios": "https://dc.lft.to/lastmile_qr_scan", "android": "https://dc.lft.to/lastmile_qr_scan"}, "is_reserved": 0}, {"lon": -77.01899983333334, "bike_id": "83782f00570067114cafb70bd6e16d5a", "lat": 38.8863245, "fusion_lon": 0.0, "fusion_lat": 0.0, "type": "electric_scooter", "name": "83782f00570067114cafb70bd6e16d5a", "is_disabled": 0, "rental_uris": {"ios": "https://dc.lft.to/lastmile_qr_scan", "android": "https://dc.lft.to/lastmile_qr_scan"}, "is_reserved": 0}, {"lon": -77.02530683333333, "bike_id": "4a4736968f1d2fea53ab48292a67abbe", "lat": 38.927418333333335, "fusion_lon": 0.0, "fusion_lat": 0.0, "type": "electric_scooter", "name": "4a4736968f1d2fea53ab48292a67abbe", "is_disabled": 0, "rental_uris": {"ios": "https://dc.lft.to/lastmile_qr_scan", "android": "https://dc.lft.to/lastmile_qr_scan"}, "is_reserved": 0}, {"lon": -76.98592166666667, "bike_id": "373c171000c9bd9b8eef52a2c889afd2", "lat": 38.86687333333333, "fusion_lon": 0.0, "fusion_lat": 0.0, "type": "electric_scooter", "name": "373c171000c9bd9b8eef52a2c889afd2", "is_disabled": 0, "rental_uris": {"ios": "https://dc.lft.to/lastmile_qr_scan", "android": "https://dc.lft.to/lastmile_qr_scan"}, "is_reserved": 0}, {"lon": -77.04340966666666, "bike_id": "095daecf291a1925f71d7915efcafc1b", "lat": 38.9081315, "fusion_lon": 0.0, "fusion_lat": 0.0, "type": "electric_scooter", "name": "095daecf291a1925f71d7915efcafc1b", "is_disabled": 0, "rental_uris": {"ios": "https://dc.lft.to/lastmile_qr_scan", "android": "https://dc.lft.to/lastmile_qr_scan"}, "is_reserved": 0}, {"lon": -77.038659, "bike_id": "4c510cd9ce8b65d6df854384ba16880a", "lat": 38.911663, "fusion_lon": 0.0, "fusion_lat": 0.0, "type": "electric_scooter", "name": "4c510cd9ce8b65d6df854384ba16880a", "is_disabled": 0, "rental_uris": {"ios": "https://dc.lft.to/lastmile_qr_scan", "android": "https://dc.lft.to/lastmile_qr_scan"}, "is_reserved": 0}, {"lon": -77.0269605, "bike_id": "1846bd467d89d9f1479694f46d6a3d51", "lat": 38.90619016666667, "fusion_lon": 0.0, "fusion_lat": 0.0, "type": "electric_scooter", "name": "1846bd467d89d9f1479694f46d6a3d51", "is_disabled": 0, "rental_uris": {"ios": "https://dc.lft.to/lastmile_qr_scan", "android": "https://dc.lft.to/lastmile_qr_scan"}, "is_reserved": 0}, {"lon": -77.03571366666667, "bike_id": "30cb6ca72ee40606d17e53a4852dca7b", "lat": 38.917786, "fusion_lon": 0.0, "fusion_lat": 0.0, "type": "electric_scooter", "name": "30cb6ca72ee40606d17e53a4852dca7b", "is_disabled": 0, "rental_uris": {"ios": "https://dc.lft.to/lastmile_qr_scan", "android": "https://dc.lft.to/lastmile_qr_scan"}, "is_reserved": 0}, {"lon": -77.027893, "bike_id": "842e47d405aa2c8b231fd21c50599dd4", "lat": 38.8939895, "fusion_lon": 0.0, "fusion_lat": 0.0, "type": "electric_scooter", "name": "842e47d405aa2c8b231fd21c50599dd4", "is_disabled": 0, "rental_uris": {"ios": "https://dc.lft.to/lastmile_qr_scan", "android": "https://dc.lft.to/lastmile_qr_scan"}, "is_reserved": 0}, {"lon": -76.99002016666667, "bike_id": "da15e31a4c301987a95d6a6bfa7ec397", "lat": 38.865056, "fusion_lon": 0.0, "fusion_lat": 0.0, "type": "electric_scooter", "name": "da15e31a4c301987a95d6a6bfa7ec397", "is_disabled": 0, "rental_uris": {"ios": "https://dc.lft.to/lastmile_qr_scan", "android": "https://dc.lft.to/lastmile_qr_scan"}, "is_reserved": 0}, {"lon": -77.02774966666667, "bike_id": "2fe47f2b11cd00b2cb9af2af3b41af5e", "lat": 38.93010066666667, "fusion_lon": 0.0, "fusion_lat": 0.0, "type": "electric_scooter", "name": "2fe47f2b11cd00b2cb9af2af3b41af5e", "is_disabled": 0, "rental_uris": {"ios": "https://dc.lft.to/lastmile_qr_scan", "android": "https://dc.lft.to/lastmile_qr_scan"}, "is_reserved": 0}, {"lon": -77.03955233333333, "bike_id": "bb1e56d05b81677a1d2b7a24b5432d2b", "lat": 38.898770999999996, "fusion_lon": 0.0, "fusion_lat": 0.0, "type": "electric_scooter", "name": "bb1e56d05b81677a1d2b7a24b5432d2b", "is_disabled": 0, "rental_uris": {"ios": "https://dc.lft.to/lastmile_qr_scan", "android": "https://dc.lft.to/lastmile_qr_scan"}, "is_reserved": 0}, {"lon": -76.9890875, "bike_id": "b2d86f407172cadc4c9d54909d2d5d54", "lat": 38.866678666666665, "fusion_lon": 0.0, "fusion_lat": 0.0, "type": "electric_scooter", "name": "b2d86f407172cadc4c9d54909d2d5d54", "is_disabled": 0, "rental_uris": {"ios": "https://dc.lft.to/lastmile_qr_scan", "android": "https://dc.lft.to/lastmile_qr_scan"}, "is_reserved": 0}, {"lon": -77.02543516666667, "bike_id": "2c5db6b5393229870aef96a050de6090", "lat": 38.930835333333334, "fusion_lon": 0.0, "fusion_lat": 0.0, "type": "electric_scooter", "name": "2c5db6b5393229870aef96a050de6090", "is_disabled": 0, "rental_uris": {"ios": "https://dc.lft.to/lastmile_qr_scan", "android": "https://dc.lft.to/lastmile_qr_scan"}, "is_reserved": 0}, {"lon": -77.0433445, "bike_id": "339d1a346f298147a75636084db4fe99", "lat": 38.91106333333333, "fusion_lon": 0.0, "fusion_lat": 0.0, "type": "electric_scooter", "name": "339d1a346f298147a75636084db4fe99", "is_disabled": 0, "rental_uris": {"ios": "https://dc.lft.to/lastmile_qr_scan", "android": "https://dc.lft.to/lastmile_qr_scan"}, "is_reserved": 0}, {"lon": -77.00524183333333, "bike_id": "53cb094c91f6c724375afdb665341e20", "lat": 38.875453, "fusion_lon": 0.0, "fusion_lat": 0.0, "type": "electric_scooter", "name": "53cb094c91f6c724375afdb665341e20", "is_disabled": 0, "rental_uris": {"ios": "https://dc.lft.to/lastmile_qr_scan", "android": "https://dc.lft.to/lastmile_qr_scan"}, "is_reserved": 0}, {"lon": -77.10840433333334, "bike_id": "ac2bdb9ebf543e673e842ce397b8895d", "lat": 38.812013666666665, "fusion_lon": 0.0, "fusion_lat": 0.0, "type": "electric_bike", "name": "ac2bdb9ebf543e673e842ce397b8895d", "is_disabled": 0, "rental_uris": {"ios": "https://dc.lft.to/lastmile_qr_scan", "android": "https://dc.lft.to/lastmile_qr_scan"}, "is_reserved": 0}, {"lon": -76.98084666666666, "bike_id": "3dfb9e228dc4ba6952828cffb4182a48", "lat": 38.90709116666667, "fusion_lon": 0.0, "fusion_lat": 0.0, "type": "electric_scooter", "name": "3dfb9e228dc4ba6952828cffb4182a48", "is_disabled": 0, "rental_uris": {"ios": "https://dc.lft.to/lastmile_qr_scan", "android": "https://dc.lft.to/lastmile_qr_scan"}, "is_reserved": 0}, {"lon": -77.03414916666667, "bike_id": "c6c2d7f9b65e322373add2aa413761ac", "lat": 38.923136666666664, "fusion_lon": 0.0, "fusion_lat": 0.0, "type": "electric_scooter", "name": "c6c2d7f9b65e322373add2aa413761ac", "is_disabled": 0, "rental_uris": {"ios": "https://dc.lft.to/lastmile_qr_scan", "android": "https://dc.lft.to/lastmile_qr_scan"}, "is_reserved": 0}, {"lon": -77.02460116666667, "bike_id": "568750d51b103e17f9f9f0f39d5433af", "lat": 38.900863, "fusion_lon": 0.0, "fusion_lat": 0.0, "type": "electric_scooter", "name": "568750d51b103e17f9f9f0f39d5433af", "is_disabled": 0, "rental_uris": {"ios": "https://dc.lft.to/lastmile_qr_scan", "android": "https://dc.lft.to/lastmile_qr_scan"}, "is_reserved": 0}, {"lon": -77.04333516666667, "bike_id": "3f7ba0c209fc1b90f4821731cb157dc3", "lat": 38.90255366666667, "fusion_lon": 0.0, "fusion_lat": 0.0, "type": "electric_scooter", "name": "3f7ba0c209fc1b90f4821731cb157dc3", "is_disabled": 0, "rental_uris": {"ios": "https://dc.lft.to/lastmile_qr_scan", "android": "https://dc.lft.to/lastmile_qr_scan"}, "is_reserved": 0}, {"lon": -77.0526515, "bike_id": "f0244e92d6fcccc48f99a0a41a063ca3", "lat": 38.9277975, "fusion_lon": 0.0, "fusion_lat": 0.0, "type": "electric_scooter", "name": "f0244e92d6fcccc48f99a0a41a063ca3", "is_disabled": 0, "rental_uris": {"ios": "https://dc.lft.to/lastmile_qr_scan", "android": "https://dc.lft.to/lastmile_qr_scan"}, "is_reserved": 0}, {"lon": -77.018385, "bike_id": "65f0e9d0286bee77b830a2a53dd6a1d5", "lat": 38.91489283333333, "fusion_lon": 0.0, "fusion_lat": 0.0, "type": "electric_scooter", "name": "65f0e9d0286bee77b830a2a53dd6a1d5", "is_disabled": 0, "rental_uris": {"ios": "https://dc.lft.to/lastmile_qr_scan", "android": "https://dc.lft.to/lastmile_qr_scan"}, "is_reserved": 0}, {"lon": -77.0275635, "bike_id": "65ff469cd99a5378c3529fb5bfa139c8", "lat": 38.94404316666667, "fusion_lon": 0.0, "fusion_lat": 0.0, "type": "electric_scooter", "name": "65ff469cd99a5378c3529fb5bfa139c8", "is_disabled": 0, "rental_uris": {"ios": "https://dc.lft.to/lastmile_qr_scan", "android": "https://dc.lft.to/lastmile_qr_scan"}, "is_reserved": 0}, {"lon": -77.0452095, "bike_id": "08e42dcf59afa928bb4b85858af99dee", "lat": 38.916495166666664, "fusion_lon": 0.0, "fusion_lat": 0.0, "type": "electric_scooter", "name": "08e42dcf59afa928bb4b85858af99dee", "is_disabled": 0, "rental_uris": {"ios": "https://dc.lft.to/lastmile_qr_scan", "android": "https://dc.lft.to/lastmile_qr_scan"}, "is_reserved": 0}, {"lon": -77.03824266666666, "bike_id": "7185cfe4111fc4336fe43f2ff376757c", "lat": 38.906839, "fusion_lon": 0.0, "fusion_lat": 0.0, "type": "electric_scooter", "name": "7185cfe4111fc4336fe43f2ff376757c", "is_disabled": 0, "rental_uris": {"ios": "https://dc.lft.to/lastmile_qr_scan", "android": "https://dc.lft.to/lastmile_qr_scan"}, "is_reserved": 0}, {"lon": -77.02055066666667, "bike_id": "23cd78d3933e0f6c0706f419294e3c46", "lat": 38.90968816666667, "fusion_lon": 0.0, "fusion_lat": 0.0, "type": "electric_scooter", "name": "23cd78d3933e0f6c0706f419294e3c46", "is_disabled": 0, "rental_uris": {"ios": "https://dc.lft.to/lastmile_qr_scan", "android": "https://dc.lft.to/lastmile_qr_scan"}, "is_reserved": 0}, {"lon": -77.00503933333333, "bike_id": "d271a774ace4f38ec13197787b33f3ea", "lat": 38.912605, "fusion_lon": 0.0, "fusion_lat": 0.0, "type": "electric_scooter", "name": "d271a774ace4f38ec13197787b33f3ea", "is_disabled": 0, "rental_uris": {"ios": "https://dc.lft.to/lastmile_qr_scan", "android": "https://dc.lft.to/lastmile_qr_scan"}, "is_reserved": 0}, {"lon": -77.04646216666667, "bike_id": "940c2234cc9abded122ab793d467b3d7", "lat": 38.91594833333333, "fusion_lon": 0.0, "fusion_lat": 0.0, "type": "electric_scooter", "name": "940c2234cc9abded122ab793d467b3d7", "is_disabled": 0, "rental_uris": {"ios": "https://dc.lft.to/lastmile_qr_scan", "android": "https://dc.lft.to/lastmile_qr_scan"}, "is_reserved": 0}, {"lon": -77.02363366666667, "bike_id": "c900d731e7eb74ffdd0cc5b369ffc39f", "lat": 38.89218533333333, "fusion_lon": 0.0, "fusion_lat": 0.0, "type": "electric_scooter", "name": "c900d731e7eb74ffdd0cc5b369ffc39f", "is_disabled": 0, "rental_uris": {"ios": "https://dc.lft.to/lastmile_qr_scan", "android": "https://dc.lft.to/lastmile_qr_scan"}, "is_reserved": 0}, {"lon": -77.03662866666667, "bike_id": "bbb39aa1bc47c1373da44aa1f704a626", "lat": 38.92283366666667, "fusion_lon": 0.0, "fusion_lat": 0.0, "type": "electric_scooter", "name": "bbb39aa1bc47c1373da44aa1f704a626", "is_disabled": 0, "rental_uris": {"ios": "https://dc.lft.to/lastmile_qr_scan", "android": "https://dc.lft.to/lastmile_qr_scan"}, "is_reserved": 0}, {"lon": -77.02395133333333, "bike_id": "34c064b7c060adda28a40ec3b39da708", "lat": 38.9168195, "fusion_lon": 0.0, "fusion_lat": 0.0, "type": "electric_scooter", "name": "34c064b7c060adda28a40ec3b39da708", "is_disabled": 0, "rental_uris": {"ios": "https://dc.lft.to/lastmile_qr_scan", "android": "https://dc.lft.to/lastmile_qr_scan"}, "is_reserved": 0}, {"lon": -77.058614, "bike_id": "e41a073271174abb3b3f773d2c778939", "lat": 38.9360745, "fusion_lon": 0.0, "fusion_lat": 0.0, "type": "electric_scooter", "name": "e41a073271174abb3b3f773d2c778939", "is_disabled": 0, "rental_uris": {"ios": "https://dc.lft.to/lastmile_qr_scan", "android": "https://dc.lft.to/lastmile_qr_scan"}, "is_reserved": 0}, {"lon": -77.02976716666667, "bike_id": "7798cd7291d9a38c88d9caf1bc9625a4", "lat": 38.904923333333336, "fusion_lon": 0.0, "fusion_lat": 0.0, "type": "electric_scooter", "name": "7798cd7291d9a38c88d9caf1bc9625a4", "is_disabled": 0, "rental_uris": {"ios": "https://dc.lft.to/lastmile_qr_scan", "android": "https://dc.lft.to/lastmile_qr_scan"}, "is_reserved": 0}, {"lon": -77.014798, "bike_id": "c8aa1f0f79095a51b0d0fc92627aed9d", "lat": 38.919218666666666, "fusion_lon": 0.0, "fusion_lat": 0.0, "type": "electric_scooter", "name": "c8aa1f0f79095a51b0d0fc92627aed9d", "is_disabled": 0, "rental_uris": {"ios": "https://dc.lft.to/lastmile_qr_scan", "android": "https://dc.lft.to/lastmile_qr_scan"}, "is_reserved": 0}, {"lon": -77.00606566666667, "bike_id": "d7fe1322db15c80f3e90b2eb9244f6b6", "lat": 38.872885, "fusion_lon": 0.0, "fusion_lat": 0.0, "type": "electric_scooter", "name": "d7fe1322db15c80f3e90b2eb9244f6b6", "is_disabled": 0, "rental_uris": {"ios": "https://dc.lft.to/lastmile_qr_scan", "android": "https://dc.lft.to/lastmile_qr_scan"}, "is_reserved": 0}, {"lon": -77.01625483333333, "bike_id": "3b478fb8ee6810ef6f87eca3c172ba13", "lat": 38.906865, "fusion_lon": 0.0, "fusion_lat": 0.0, "type": "electric_scooter", "name": "3b478fb8ee6810ef6f87eca3c172ba13", "is_disabled": 0, "rental_uris": {"ios": "https://dc.lft.to/lastmile_qr_scan", "android": "https://dc.lft.to/lastmile_qr_scan"}, "is_reserved": 0}, {"lon": -77.04032183333334, "bike_id": "e7c24bfdc11f79ea8b45237ae1308369", "lat": 38.921740666666665, "fusion_lon": 0.0, "fusion_lat": 0.0, "type": "electric_scooter", "name": "e7c24bfdc11f79ea8b45237ae1308369", "is_disabled": 0, "rental_uris": {"ios": "https://dc.lft.to/lastmile_qr_scan", "android": "https://dc.lft.to/lastmile_qr_scan"}, "is_reserved": 0}, {"lon": -76.98836183333333, "bike_id": "eca5f0b8e22a99e7262e2af4d0437fb2", "lat": 38.901252666666664, "fusion_lon": 0.0, "fusion_lat": 0.0, "type": "electric_scooter", "name": "eca5f0b8e22a99e7262e2af4d0437fb2", "is_disabled": 0, "rental_uris": {"ios": "https://dc.lft.to/lastmile_qr_scan", "android": "https://dc.lft.to/lastmile_qr_scan"}, "is_reserved": 0}, {"lon": -77.048755, "bike_id": "7eb1a61316a971a9264b2a339731a162", "lat": 38.892314666666664, "fusion_lon": 0.0, "fusion_lat": 0.0, "type": "electric_scooter", "name": "7eb1a61316a971a9264b2a339731a162", "is_disabled": 0, "rental_uris": {"ios": "https://dc.lft.to/lastmile_qr_scan", "android": "https://dc.lft.to/lastmile_qr_scan"}, "is_reserved": 0}, {"lon": -77.03643733333334, "bike_id": "02d2ed94ac181626de5f9402c3f29c9b", "lat": 38.924605666666665, "fusion_lon": 0.0, "fusion_lat": 0.0, "type": "electric_scooter", "name": "02d2ed94ac181626de5f9402c3f29c9b", "is_disabled": 0, "rental_uris": {"ios": "https://dc.lft.to/lastmile_qr_scan", "android": "https://dc.lft.to/lastmile_qr_scan"}, "is_reserved": 0}, {"lon": -77.0240565, "bike_id": "2b3f429a8f962142ad5cc3726b36ce4e", "lat": 38.906928666666666, "fusion_lon": 0.0, "fusion_lat": 0.0, "type": "electric_scooter", "name": "2b3f429a8f962142ad5cc3726b36ce4e", "is_disabled": 0, "rental_uris": {"ios": "https://dc.lft.to/lastmile_qr_scan", "android": "https://dc.lft.to/lastmile_qr_scan"}, "is_reserved": 0}, {"lon": -77.0446535, "bike_id": "5ac92ba9ede3527a7be2131448125030", "lat": 38.89221533333333, "fusion_lon": 0.0, "fusion_lat": 0.0, "type": "electric_scooter", "name": "5ac92ba9ede3527a7be2131448125030", "is_disabled": 0, "rental_uris": {"ios": "https://dc.lft.to/lastmile_qr_scan", "android": "https://dc.lft.to/lastmile_qr_scan"}, "is_reserved": 0}, {"lon": -77.02094333333334, "bike_id": "3cef057699be3538106687fd696453a4", "lat": 38.927031, "fusion_lon": 0.0, "fusion_lat": 0.0, "type": "electric_scooter", "name": "3cef057699be3538106687fd696453a4", "is_disabled": 0, "rental_uris": {"ios": "https://dc.lft.to/lastmile_qr_scan", "android": "https://dc.lft.to/lastmile_qr_scan"}, "is_reserved": 0}, {"lon": -77.09495666666666, "bike_id": "e850ce77ae5e17bc391cb827433e827c", "lat": 38.80761283333333, "fusion_lon": 0.0, "fusion_lat": 0.0, "type": "electric_bike", "name": "e850ce77ae5e17bc391cb827433e827c", "is_disabled": 0, "rental_uris": {"ios": "https://dc.lft.to/lastmile_qr_scan", "android": "https://dc.lft.to/lastmile_qr_scan"}, "is_reserved": 0}, {"lon": -77.0095485, "bike_id": "fa966df4f30ca3d71ee50612a4ed9406", "lat": 38.92138933333333, "fusion_lon": 0.0, "fusion_lat": 0.0, "type": "electric_scooter", "name": "fa966df4f30ca3d71ee50612a4ed9406", "is_disabled": 0, "rental_uris": {"ios": "https://dc.lft.to/lastmile_qr_scan", "android": "https://dc.lft.to/lastmile_qr_scan"}, "is_reserved": 0}, {"lon": -77.04844216666666, "bike_id": "837e58081679e3acda1cdda7cc904707", "lat": 38.8896715, "fusion_lon": 0.0, "fusion_lat": 0.0, "type": "electric_scooter", "name": "837e58081679e3acda1cdda7cc904707", "is_disabled": 0, "rental_uris": {"ios": "https://dc.lft.to/lastmile_qr_scan", "android": "https://dc.lft.to/lastmile_qr_scan"}, "is_reserved": 0}, {"lon": -77.03102433333333, "bike_id": "fa59016bedb8a289642ef8d248edfcb7", "lat": 38.897286666666666, "fusion_lon": 0.0, "fusion_lat": 0.0, "type": "electric_scooter", "name": "fa59016bedb8a289642ef8d248edfcb7", "is_disabled": 0, "rental_uris": {"ios": "https://dc.lft.to/lastmile_qr_scan", "android": "https://dc.lft.to/lastmile_qr_scan"}, "is_reserved": 0}, {"lon": -76.99917066666667, "bike_id": "5a1160e2eace93bdda27524386f249be", "lat": 38.88976316666667, "fusion_lon": 0.0, "fusion_lat": 0.0, "type": "electric_scooter", "name": "5a1160e2eace93bdda27524386f249be", "is_disabled": 0, "rental_uris": {"ios": "https://dc.lft.to/lastmile_qr_scan", "android": "https://dc.lft.to/lastmile_qr_scan"}, "is_reserved": 0}, {"lon": -77.02317266666667, "bike_id": "16b7c90749e100e3a9fc8694decb9b9e", "lat": 38.91843083333333, "fusion_lon": 0.0, "fusion_lat": 0.0, "type": "electric_scooter", "name": "16b7c90749e100e3a9fc8694decb9b9e", "is_disabled": 0, "rental_uris": {"ios": "https://dc.lft.to/lastmile_qr_scan", "android": "https://dc.lft.to/lastmile_qr_scan"}, "is_reserved": 0}, {"lon": -76.98106066666666, "bike_id": "88989f37507a5d1347b4be14c90de213", "lat": 38.8772995, "fusion_lon": 0.0, "fusion_lat": 0.0, "type": "electric_bike", "name": "88989f37507a5d1347b4be14c90de213", "is_disabled": 0, "rental_uris": {"ios": "https://dc.lft.to/lastmile_qr_scan", "android": "https://dc.lft.to/lastmile_qr_scan"}, "is_reserved": 0}, {"lon": -77.03325683333334, "bike_id": "ab746c5366ce4cd565f66a7884d8623e", "lat": 38.92649216666667, "fusion_lon": 0.0, "fusion_lat": 0.0, "type": "electric_scooter", "name": "ab746c5366ce4cd565f66a7884d8623e", "is_disabled": 0, "rental_uris": {"ios": "https://dc.lft.to/lastmile_qr_scan", "android": "https://dc.lft.to/lastmile_qr_scan"}, "is_reserved": 0}, {"lon": -77.03854083333333, "bike_id": "518d0a6e3343ef86b995805725c531c3", "lat": 38.917122666666664, "fusion_lon": 0.0, "fusion_lat": 0.0, "type": "electric_scooter", "name": "518d0a6e3343ef86b995805725c531c3", "is_disabled": 0, "rental_uris": {"ios": "https://dc.lft.to/lastmile_qr_scan", "android": "https://dc.lft.to/lastmile_qr_scan"}, "is_reserved": 0}, {"lon": -77.03297966666666, "bike_id": "c8a4f70762579dbdb43655923f08bd0c", "lat": 38.93034566666667, "fusion_lon": 0.0, "fusion_lat": 0.0, "type": "electric_scooter", "name": "c8a4f70762579dbdb43655923f08bd0c", "is_disabled": 0, "rental_uris": {"ios": "https://dc.lft.to/lastmile_qr_scan", "android": "https://dc.lft.to/lastmile_qr_scan"}, "is_reserved": 0}, {"lon": -77.00067866666667, "bike_id": "27c5385c75d52f427784d33493628174", "lat": 38.886709833333335, "fusion_lon": 0.0, "fusion_lat": 0.0, "type": "electric_scooter", "name": "27c5385c75d52f427784d33493628174", "is_disabled": 0, "rental_uris": {"ios": "https://dc.lft.to/lastmile_qr_scan", "android": "https://dc.lft.to/lastmile_qr_scan"}, "is_reserved": 0}, {"lon": -77.05003266666667, "bike_id": "081620256bdb881ada4d431944299d7e", "lat": 38.89197333333333, "fusion_lon": 0.0, "fusion_lat": 0.0, "type": "electric_scooter", "name": "081620256bdb881ada4d431944299d7e", "is_disabled": 0, "rental_uris": {"ios": "https://dc.lft.to/lastmile_qr_scan", "android": "https://dc.lft.to/lastmile_qr_scan"}, "is_reserved": 0}, {"lon": -76.98244316666667, "bike_id": "55bfa6110a568f7a09cec260e09e11d1", "lat": 38.864578333333334, "fusion_lon": 0.0, "fusion_lat": 0.0, "type": "electric_scooter", "name": "55bfa6110a568f7a09cec260e09e11d1", "is_disabled": 0, "rental_uris": {"ios": "https://dc.lft.to/lastmile_qr_scan", "android": "https://dc.lft.to/lastmile_qr_scan"}, "is_reserved": 0}, {"lon": -77.05002583333334, "bike_id": "a809ebf3c7f0e60714c2ffed400bfc8d", "lat": 38.891957833333336, "fusion_lon": 0.0, "fusion_lat": 0.0, "type": "electric_scooter", "name": "a809ebf3c7f0e60714c2ffed400bfc8d", "is_disabled": 0, "rental_uris": {"ios": "https://dc.lft.to/lastmile_qr_scan", "android": "https://dc.lft.to/lastmile_qr_scan"}, "is_reserved": 0}, {"lon": -77.02097733333333, "bike_id": "8ee0f8b2d9537c4f95746781a677acb9", "lat": 38.91128283333333, "fusion_lon": 0.0, "fusion_lat": 0.0, "type": "electric_scooter", "name": "8ee0f8b2d9537c4f95746781a677acb9", "is_disabled": 0, "rental_uris": {"ios": "https://dc.lft.to/lastmile_qr_scan", "android": "https://dc.lft.to/lastmile_qr_scan"}, "is_reserved": 0}, {"lon": -77.0366255, "bike_id": "a6a1621c8232bd10504b21f7dedff228", "lat": 38.93339816666666, "fusion_lon": 0.0, "fusion_lat": 0.0, "type": "electric_scooter", "name": "a6a1621c8232bd10504b21f7dedff228", "is_disabled": 0, "rental_uris": {"ios": "https://dc.lft.to/lastmile_qr_scan", "android": "https://dc.lft.to/lastmile_qr_scan"}, "is_reserved": 0}, {"lon": -77.03232433333334, "bike_id": "ba7723de5ed069a42682513a0eb28767", "lat": 38.929863166666664, "fusion_lon": 0.0, "fusion_lat": 0.0, "type": "electric_scooter", "name": "ba7723de5ed069a42682513a0eb28767", "is_disabled": 0, "rental_uris": {"ios": "https://dc.lft.to/lastmile_qr_scan", "android": "https://dc.lft.to/lastmile_qr_scan"}, "is_reserved": 0}, {"lon": -77.02830583333333, "bike_id": "c8031f8778e1b7482c5edb9b40e68f24", "lat": 38.931445, "fusion_lon": 0.0, "fusion_lat": 0.0, "type": "electric_scooter", "name": "c8031f8778e1b7482c5edb9b40e68f24", "is_disabled": 0, "rental_uris": {"ios": "https://dc.lft.to/lastmile_qr_scan", "android": "https://dc.lft.to/lastmile_qr_scan"}, "is_reserved": 0}, {"lon": -77.04187316666666, "bike_id": "455b8208253658e9e091d74f834a3027", "lat": 38.92626383333333, "fusion_lon": 0.0, "fusion_lat": 0.0, "type": "electric_scooter", "name": "455b8208253658e9e091d74f834a3027", "is_disabled": 0, "rental_uris": {"ios": "https://dc.lft.to/lastmile_qr_scan", "android": "https://dc.lft.to/lastmile_qr_scan"}, "is_reserved": 0}, {"lon": -77.01965683333333, "bike_id": "7dd1314088afd787613a8b3860ca187f", "lat": 38.92207366666667, "fusion_lon": 0.0, "fusion_lat": 0.0, "type": "electric_scooter", "name": "7dd1314088afd787613a8b3860ca187f", "is_disabled": 0, "rental_uris": {"ios": "https://dc.lft.to/lastmile_qr_scan", "android": "https://dc.lft.to/lastmile_qr_scan"}, "is_reserved": 0}, {"lon": -76.94974383333333, "bike_id": "d172f018884c6bb606542579ec141ee8", "lat": 38.89371116666667, "fusion_lon": 0.0, "fusion_lat": 0.0, "type": "electric_scooter", "name": "d172f018884c6bb606542579ec141ee8", "is_disabled": 0, "rental_uris": {"ios": "https://dc.lft.to/lastmile_qr_scan", "android": "https://dc.lft.to/lastmile_qr_scan"}, "is_reserved": 0}, {"lon": -77.0328385, "bike_id": "3aa9cd49a9b69886a28584d59da3a174", "lat": 38.92848133333333, "fusion_lon": 0.0, "fusion_lat": 0.0, "type": "electric_scooter", "name": "3aa9cd49a9b69886a28584d59da3a174", "is_disabled": 0, "rental_uris": {"ios": "https://dc.lft.to/lastmile_qr_scan", "android": "https://dc.lft.to/lastmile_qr_scan"}, "is_reserved": 0}, {"lon": -77.0365755, "bike_id": "62c91b7b72737fa9662186f33707c0f1", "lat": 38.92122616666666, "fusion_lon": 0.0, "fusion_lat": 0.0, "type": "electric_scooter", "name": "62c91b7b72737fa9662186f33707c0f1", "is_disabled": 0, "rental_uris": {"ios": "https://dc.lft.to/lastmile_qr_scan", "android": "https://dc.lft.to/lastmile_qr_scan"}, "is_reserved": 0}, {"lon": -76.98711833333333, "bike_id": "82e10a9a1eaab251e5ebbe747559d190", "lat": 38.86625983333333, "fusion_lon": 0.0, "fusion_lat": 0.0, "type": "electric_scooter", "name": "82e10a9a1eaab251e5ebbe747559d190", "is_disabled": 0, "rental_uris": {"ios": "https://dc.lft.to/lastmile_qr_scan", "android": "https://dc.lft.to/lastmile_qr_scan"}, "is_reserved": 0}, {"lon": -77.02695216666666, "bike_id": "3e5f22446ce4b075fc701e42017d63cc", "lat": 38.91172533333334, "fusion_lon": 0.0, "fusion_lat": 0.0, "type": "electric_scooter", "name": "3e5f22446ce4b075fc701e42017d63cc", "is_disabled": 0, "rental_uris": {"ios": "https://dc.lft.to/lastmile_qr_scan", "android": "https://dc.lft.to/lastmile_qr_scan"}, "is_reserved": 0}, {"lon": -77.0262145, "bike_id": "8460f8caa5668e92ee72659026534825", "lat": 38.89217083333333, "fusion_lon": 0.0, "fusion_lat": 0.0, "type": "electric_scooter", "name": "8460f8caa5668e92ee72659026534825", "is_disabled": 0, "rental_uris": {"ios": "https://dc.lft.to/lastmile_qr_scan", "android": "https://dc.lft.to/lastmile_qr_scan"}, "is_reserved": 0}, {"lon": -77.004597, "bike_id": "00c6932c9b29ae6b90e89302f313d508", "lat": 38.914391333333334, "fusion_lon": 0.0, "fusion_lat": 0.0, "type": "electric_scooter", "name": "00c6932c9b29ae6b90e89302f313d508", "is_disabled": 0, "rental_uris": {"ios": "https://dc.lft.to/lastmile_qr_scan", "android": "https://dc.lft.to/lastmile_qr_scan"}, "is_reserved": 0}, {"lon": -77.06234466666666, "bike_id": "78bf426eda91b0ebb5715b8975b0be90", "lat": 38.86303866666667, "fusion_lon": 0.0, "fusion_lat": 0.0, "type": "electric_bike", "name": "78bf426eda91b0ebb5715b8975b0be90", "is_disabled": 0, "rental_uris": {"ios": "https://dc.lft.to/lastmile_qr_scan", "android": "https://dc.lft.to/lastmile_qr_scan"}, "is_reserved": 0}, {"lon": -76.98191366666667, "bike_id": "324c5614a9188f0d04f489cf56176267", "lat": 38.8994905, "fusion_lon": 0.0, "fusion_lat": 0.0, "type": "electric_scooter", "name": "324c5614a9188f0d04f489cf56176267", "is_disabled": 0, "rental_uris": {"ios": "https://dc.lft.to/lastmile_qr_scan", "android": "https://dc.lft.to/lastmile_qr_scan"}, "is_reserved": 0}, {"lon": -77.024192, "bike_id": "06100e1ef850963424f7aca53eb0cfd2", "lat": 38.8796185, "fusion_lon": 0.0, "fusion_lat": 0.0, "type": "electric_scooter", "name": "06100e1ef850963424f7aca53eb0cfd2", "is_disabled": 0, "rental_uris": {"ios": "https://dc.lft.to/lastmile_qr_scan", "android": "https://dc.lft.to/lastmile_qr_scan"}, "is_reserved": 0}, {"lon": -77.02395633333333, "bike_id": "98b0dad5cf25453a03b5a4fe2e9c514a", "lat": 38.8813185, "fusion_lon": 0.0, "fusion_lat": 0.0, "type": "electric_scooter", "name": "98b0dad5cf25453a03b5a4fe2e9c514a", "is_disabled": 0, "rental_uris": {"ios": "https://dc.lft.to/lastmile_qr_scan", "android": "https://dc.lft.to/lastmile_qr_scan"}, "is_reserved": 0}, {"lon": -77.03286633333333, "bike_id": "5ac132b4144fa7ef24dcbd5992f1450b", "lat": 38.956451, "fusion_lon": 0.0, "fusion_lat": 0.0, "type": "electric_scooter", "name": "5ac132b4144fa7ef24dcbd5992f1450b", "is_disabled": 0, "rental_uris": {"ios": "https://dc.lft.to/lastmile_qr_scan", "android": "https://dc.lft.to/lastmile_qr_scan"}, "is_reserved": 0}, {"lon": -77.03994916666667, "bike_id": "d1e5261293c6be8928f3f933b1d0ea4b", "lat": 38.933430333333334, "fusion_lon": 0.0, "fusion_lat": 0.0, "type": "electric_scooter", "name": "d1e5261293c6be8928f3f933b1d0ea4b", "is_disabled": 0, "rental_uris": {"ios": "https://dc.lft.to/lastmile_qr_scan", "android": "https://dc.lft.to/lastmile_qr_scan"}, "is_reserved": 0}, {"lon": -77.04846466666666, "bike_id": "cdabee027a78153f4845f13cd8413755", "lat": 38.915163166666666, "fusion_lon": 0.0, "fusion_lat": 0.0, "type": "electric_scooter", "name": "cdabee027a78153f4845f13cd8413755", "is_disabled": 0, "rental_uris": {"ios": "https://dc.lft.to/lastmile_qr_scan", "android": "https://dc.lft.to/lastmile_qr_scan"}, "is_reserved": 0}, {"lon": -77.01607366666667, "bike_id": "1cf1aa3dc977902a99af32ed6ff4f116", "lat": 38.899652333333336, "fusion_lon": 0.0, "fusion_lat": 0.0, "type": "electric_scooter", "name": "1cf1aa3dc977902a99af32ed6ff4f116", "is_disabled": 0, "rental_uris": {"ios": "https://dc.lft.to/lastmile_qr_scan", "android": "https://dc.lft.to/lastmile_qr_scan"}, "is_reserved": 0}, {"lon": -76.997953, "bike_id": "aeba2c6edc1a0063f840fadc4c99d59b", "lat": 38.956402, "fusion_lon": 0.0, "fusion_lat": 0.0, "type": "electric_bike", "name": "aeba2c6edc1a0063f840fadc4c99d59b", "is_disabled": 0, "rental_uris": {"ios": "https://dc.lft.to/lastmile_qr_scan", "android": "https://dc.lft.to/lastmile_qr_scan"}, "is_reserved": 0}, {"lon": -77.0199525, "bike_id": "adfe1cb5fd94c31bbb72df5e9ef967f9", "lat": 38.915311833333334, "fusion_lon": 0.0, "fusion_lat": 0.0, "type": "electric_scooter", "name": "adfe1cb5fd94c31bbb72df5e9ef967f9", "is_disabled": 0, "rental_uris": {"ios": "https://dc.lft.to/lastmile_qr_scan", "android": "https://dc.lft.to/lastmile_qr_scan"}, "is_reserved": 0}, {"lon": -77.05858616666667, "bike_id": "f9aa9dceb1509711822d1cba8d477ad3", "lat": 38.93543366666667, "fusion_lon": 0.0, "fusion_lat": 0.0, "type": "electric_scooter", "name": "f9aa9dceb1509711822d1cba8d477ad3", "is_disabled": 0, "rental_uris": {"ios": "https://dc.lft.to/lastmile_qr_scan", "android": "https://dc.lft.to/lastmile_qr_scan"}, "is_reserved": 0}, {"lon": -77.0419015, "bike_id": "a382719f924e6b9a8ed75d2b4aab61a1", "lat": 38.899863, "fusion_lon": 0.0, "fusion_lat": 0.0, "type": "electric_scooter", "name": "a382719f924e6b9a8ed75d2b4aab61a1", "is_disabled": 0, "rental_uris": {"ios": "https://dc.lft.to/lastmile_qr_scan", "android": "https://dc.lft.to/lastmile_qr_scan"}, "is_reserved": 0}, {"lon": -77.02203816666666, "bike_id": "94e434a813eb927bb98c39c78794b8cd", "lat": 38.887311, "fusion_lon": 0.0, "fusion_lat": 0.0, "type": "electric_scooter", "name": "94e434a813eb927bb98c39c78794b8cd", "is_disabled": 0, "rental_uris": {"ios": "https://dc.lft.to/lastmile_qr_scan", "android": "https://dc.lft.to/lastmile_qr_scan"}, "is_reserved": 0}, {"lon": -76.97325733333334, "bike_id": "ccb66280cc971ee5f8e86aa965616dbd", "lat": 38.90483533333333, "fusion_lon": 0.0, "fusion_lat": 0.0, "type": "electric_bike", "name": "ccb66280cc971ee5f8e86aa965616dbd", "is_disabled": 0, "rental_uris": {"ios": "https://dc.lft.to/lastmile_qr_scan", "android": "https://dc.lft.to/lastmile_qr_scan"}, "is_reserved": 0}, {"lon": -77.04180683333334, "bike_id": "ec8355bb6429987452f6e337bff28490", "lat": 38.91980083333333, "fusion_lon": 0.0, "fusion_lat": 0.0, "type": "electric_scooter", "name": "ec8355bb6429987452f6e337bff28490", "is_disabled": 0, "rental_uris": {"ios": "https://dc.lft.to/lastmile_qr_scan", "android": "https://dc.lft.to/lastmile_qr_scan"}, "is_reserved": 0}, {"lon": -77.03836066666666, "bike_id": "8d7e70a83d67acc3b711fcc40cc1921e", "lat": 38.910386, "fusion_lon": 0.0, "fusion_lat": 0.0, "type": "electric_scooter", "name": "8d7e70a83d67acc3b711fcc40cc1921e", "is_disabled": 0, "rental_uris": {"ios": "https://dc.lft.to/lastmile_qr_scan", "android": "https://dc.lft.to/lastmile_qr_scan"}, "is_reserved": 0}, {"lon": -77.025619, "bike_id": "02b7b4192ded2459b3441bcd137525cf", "lat": 38.882879833333334, "fusion_lon": 0.0, "fusion_lat": 0.0, "type": "electric_scooter", "name": "02b7b4192ded2459b3441bcd137525cf", "is_disabled": 0, "rental_uris": {"ios": "https://dc.lft.to/lastmile_qr_scan", "android": "https://dc.lft.to/lastmile_qr_scan"}, "is_reserved": 0}, {"lon": -77.18559883333333, "bike_id": "eb898cbbe23d9d49b4fae24cee7067f3", "lat": 39.09974883333334, "fusion_lon": 0.0, "fusion_lat": 0.0, "type": "electric_bike", "name": "eb898cbbe23d9d49b4fae24cee7067f3", "is_disabled": 0, "rental_uris": {"ios": "https://dc.lft.to/lastmile_qr_scan", "android": "https://dc.lft.to/lastmile_qr_scan"}, "is_reserved": 0}, {"lon": -76.962568, "bike_id": "5869835de381c3fdbcd59001de4c7856", "lat": 38.8824685, "fusion_lon": 0.0, "fusion_lat": 0.0, "type": "electric_bike", "name": "5869835de381c3fdbcd59001de4c7856", "is_disabled": 0, "rental_uris": {"ios": "https://dc.lft.to/lastmile_qr_scan", "android": "https://dc.lft.to/lastmile_qr_scan"}, "is_reserved": 0}, {"lon": -76.98352516666667, "bike_id": "0ab22301c65a23a1c4fbe5f64142e21d", "lat": 38.89203416666667, "fusion_lon": 0.0, "fusion_lat": 0.0, "type": "electric_bike", "name": "0ab22301c65a23a1c4fbe5f64142e21d", "is_disabled": 0, "rental_uris": {"ios": "https://dc.lft.to/lastmile_qr_scan", "android": "https://dc.lft.to/lastmile_qr_scan"}, "is_reserved": 0}, {"lon": -77.00711416666667, "bike_id": "1a0551f9d69207f801eeaac2328ea155", "lat": 38.94605333333333, "fusion_lon": 0.0, "fusion_lat": 0.0, "type": "electric_bike", "name": "1a0551f9d69207f801eeaac2328ea155", "is_disabled": 0, "rental_uris": {"ios": "https://dc.lft.to/lastmile_qr_scan", "android": "https://dc.lft.to/lastmile_qr_scan"}, "is_reserved": 0}, {"lon": -77.02347633333333, "bike_id": "c83b9f8792d0948997897819d6fd7ad2", "lat": 38.93533, "fusion_lon": 0.0, "fusion_lat": 0.0, "type": "electric_scooter", "name": "c83b9f8792d0948997897819d6fd7ad2", "is_disabled": 0, "rental_uris": {"ios": "https://dc.lft.to/lastmile_qr_scan", "android": "https://dc.lft.to/lastmile_qr_scan"}, "is_reserved": 0}, {"lon": -77.03180866666666, "bike_id": "682ccad6a6f8a1f627b7aee829cf759b", "lat": 38.93596633333333, "fusion_lon": 0.0, "fusion_lat": 0.0, "type": "electric_scooter", "name": "682ccad6a6f8a1f627b7aee829cf759b", "is_disabled": 0, "rental_uris": {"ios": "https://dc.lft.to/lastmile_qr_scan", "android": "https://dc.lft.to/lastmile_qr_scan"}, "is_reserved": 0}, {"lon": -77.03398, "bike_id": "e1c394b4bda3690ffee42d35b52e24ba", "lat": 38.920518666666666, "fusion_lon": 0.0, "fusion_lat": 0.0, "type": "electric_scooter", "name": "e1c394b4bda3690ffee42d35b52e24ba", "is_disabled": 0, "rental_uris": {"ios": "https://dc.lft.to/lastmile_qr_scan", "android": "https://dc.lft.to/lastmile_qr_scan"}, "is_reserved": 0}, {"lon": -77.0453465, "bike_id": "344babddd65ccd53b0a79a4984cf1bba", "lat": 38.916319333333334, "fusion_lon": 0.0, "fusion_lat": 0.0, "type": "electric_scooter", "name": "344babddd65ccd53b0a79a4984cf1bba", "is_disabled": 0, "rental_uris": {"ios": "https://dc.lft.to/lastmile_qr_scan", "android": "https://dc.lft.to/lastmile_qr_scan"}, "is_reserved": 0}, {"lon": -77.04129616666667, "bike_id": "5487c4978aa05f810826d1b76edb2a14", "lat": 38.927211666666665, "fusion_lon": 0.0, "fusion_lat": 0.0, "type": "electric_scooter", "name": "5487c4978aa05f810826d1b76edb2a14", "is_disabled": 0, "rental_uris": {"ios": "https://dc.lft.to/lastmile_qr_scan", "android": "https://dc.lft.to/lastmile_qr_scan"}, "is_reserved": 0}, {"lon": -77.00654766666666, "bike_id": "b524efa795927b83046822561c474420", "lat": 38.94462583333333, "fusion_lon": 0.0, "fusion_lat": 0.0, "type": "electric_scooter", "name": "b524efa795927b83046822561c474420", "is_disabled": 0, "rental_uris": {"ios": "https://dc.lft.to/lastmile_qr_scan", "android": "https://dc.lft.to/lastmile_qr_scan"}, "is_reserved": 0}, {"lon": -76.9772835, "bike_id": "ba4d21d0bea743b32465e83dd6a5fef0", "lat": 38.86491433333333, "fusion_lon": 0.0, "fusion_lat": 0.0, "type": "electric_bike", "name": "ba4d21d0bea743b32465e83dd6a5fef0", "is_disabled": 0, "rental_uris": {"ios": "https://dc.lft.to/lastmile_qr_scan", "android": "https://dc.lft.to/lastmile_qr_scan"}, "is_reserved": 0}, {"lon": -76.990049, "bike_id": "73db36b9e5684dd280ce388daad8c041", "lat": 38.9039615, "fusion_lon": 0.0, "fusion_lat": 0.0, "type": "electric_scooter", "name": "73db36b9e5684dd280ce388daad8c041", "is_disabled": 0, "rental_uris": {"ios": "https://dc.lft.to/lastmile_qr_scan", "android": "https://dc.lft.to/lastmile_qr_scan"}, "is_reserved": 0}, {"lon": -77.031247, "bike_id": "3aa6353065851ebd29ae6d97e2a9fc68", "lat": 38.98824616666667, "fusion_lon": 0.0, "fusion_lat": 0.0, "type": "electric_scooter", "name": "3aa6353065851ebd29ae6d97e2a9fc68", "is_disabled": 0, "rental_uris": {"ios": "https://dc.lft.to/lastmile_qr_scan", "android": "https://dc.lft.to/lastmile_qr_scan"}, "is_reserved": 0}, {"lon": -77.22799016666667, "bike_id": "63a93e6409ddb7bb9396784fc6f234f8", "lat": 38.910141833333334, "fusion_lon": 0.0, "fusion_lat": 0.0, "type": "electric_bike", "name": "63a93e6409ddb7bb9396784fc6f234f8", "is_disabled": 0, "rental_uris": {"ios": "https://dc.lft.to/lastmile_qr_scan", "android": "https://dc.lft.to/lastmile_qr_scan"}, "is_reserved": 0}, {"lon": -77.03186616666666, "bike_id": "8b04660cf0f33719914f33b685b726b5", "lat": 38.909966, "fusion_lon": 0.0, "fusion_lat": 0.0, "type": "electric_scooter", "name": "8b04660cf0f33719914f33b685b726b5", "is_disabled": 0, "rental_uris": {"ios": "https://dc.lft.to/lastmile_qr_scan", "android": "https://dc.lft.to/lastmile_qr_scan"}, "is_reserved": 0}, {"lon": -77.02089783333334, "bike_id": "f7f7ce0fab41afbb8f99423d1c514621", "lat": 38.929134, "fusion_lon": 0.0, "fusion_lat": 0.0, "type": "electric_scooter", "name": "f7f7ce0fab41afbb8f99423d1c514621", "is_disabled": 0, "rental_uris": {"ios": "https://dc.lft.to/lastmile_qr_scan", "android": "https://dc.lft.to/lastmile_qr_scan"}, "is_reserved": 0}, {"lon": -77.00744566666667, "bike_id": "60be730e4530cb93adf1b349d33a471f", "lat": 38.925284, "fusion_lon": 0.0, "fusion_lat": 0.0, "type": "electric_scooter", "name": "60be730e4530cb93adf1b349d33a471f", "is_disabled": 0, "rental_uris": {"ios": "https://dc.lft.to/lastmile_qr_scan", "android": "https://dc.lft.to/lastmile_qr_scan"}, "is_reserved": 0}, {"lon": -77.03165433333334, "bike_id": "6ed2f26c894f2498c3c80b5606bf59cc", "lat": 38.923675333333335, "fusion_lon": 0.0, "fusion_lat": 0.0, "type": "electric_scooter", "name": "6ed2f26c894f2498c3c80b5606bf59cc", "is_disabled": 0, "rental_uris": {"ios": "https://dc.lft.to/lastmile_qr_scan", "android": "https://dc.lft.to/lastmile_qr_scan"}, "is_reserved": 0}, {"lon": -77.02798533333333, "bike_id": "9e347591bd6f75b6049490ec33058ed9", "lat": 38.91220766666667, "fusion_lon": 0.0, "fusion_lat": 0.0, "type": "electric_scooter", "name": "9e347591bd6f75b6049490ec33058ed9", "is_disabled": 0, "rental_uris": {"ios": "https://dc.lft.to/lastmile_qr_scan", "android": "https://dc.lft.to/lastmile_qr_scan"}, "is_reserved": 0}, {"lon": -77.0531175, "bike_id": "1368095705cb7ad8b723f24ffdd814f6", "lat": 38.94102516666667, "fusion_lon": 0.0, "fusion_lat": 0.0, "type": "electric_bike", "name": "1368095705cb7ad8b723f24ffdd814f6", "is_disabled": 0, "rental_uris": {"ios": "https://dc.lft.to/lastmile_qr_scan", "android": "https://dc.lft.to/lastmile_qr_scan"}, "is_reserved": 0}, {"lon": -77.0587455, "bike_id": "aa38050ec6ba9638cc0db54e950b47a6", "lat": 38.9355655, "fusion_lon": 0.0, "fusion_lat": 0.0, "type": "electric_scooter", "name": "aa38050ec6ba9638cc0db54e950b47a6", "is_disabled": 0, "rental_uris": {"ios": "https://dc.lft.to/lastmile_qr_scan", "android": "https://dc.lft.to/lastmile_qr_scan"}, "is_reserved": 0}, {"lon": -77.0047545, "bike_id": "086ebe22d0128888960458cc10afc4f0", "lat": 38.91190366666667, "fusion_lon": 0.0, "fusion_lat": 0.0, "type": "electric_scooter", "name": "086ebe22d0128888960458cc10afc4f0", "is_disabled": 0, "rental_uris": {"ios": "https://dc.lft.to/lastmile_qr_scan", "android": "https://dc.lft.to/lastmile_qr_scan"}, "is_reserved": 0}, {"lon": -77.041418, "bike_id": "aee5b47f7ab643924b0dbf91436e3921", "lat": 38.9229415, "fusion_lon": 0.0, "fusion_lat": 0.0, "type": "electric_scooter", "name": "aee5b47f7ab643924b0dbf91436e3921", "is_disabled": 0, "rental_uris": {"ios": "https://dc.lft.to/lastmile_qr_scan", "android": "https://dc.lft.to/lastmile_qr_scan"}, "is_reserved": 0}, {"lon": -77.02794216666666, "bike_id": "d1b7e686d8e7fc8501b7da76e743cf63", "lat": 38.95400716666666, "fusion_lon": 0.0, "fusion_lat": 0.0, "type": "electric_scooter", "name": "d1b7e686d8e7fc8501b7da76e743cf63", "is_disabled": 0, "rental_uris": {"ios": "https://dc.lft.to/lastmile_qr_scan", "android": "https://dc.lft.to/lastmile_qr_scan"}, "is_reserved": 0}, {"lon": -76.96384733333333, "bike_id": "7605a5c06677a7cb4e3bac4dd283930e", "lat": 38.95169583333333, "fusion_lon": 0.0, "fusion_lat": 0.0, "type": "electric_bike", "name": "7605a5c06677a7cb4e3bac4dd283930e", "is_disabled": 0, "rental_uris": {"ios": "https://dc.lft.to/lastmile_qr_scan", "android": "https://dc.lft.to/lastmile_qr_scan"}, "is_reserved": 0}, {"lon": -77.02434133333334, "bike_id": "eb2e89ff98ffff436a2f5a51e874f277", "lat": 38.923401, "fusion_lon": 0.0, "fusion_lat": 0.0, "type": "electric_scooter", "name": "eb2e89ff98ffff436a2f5a51e874f277", "is_disabled": 0, "rental_uris": {"ios": "https://dc.lft.to/lastmile_qr_scan", "android": "https://dc.lft.to/lastmile_qr_scan"}, "is_reserved": 0}, {"lon": -77.0324665, "bike_id": "aea81c5d5b2b13ec85c18edeb7c52490", "lat": 38.9288085, "fusion_lon": 0.0, "fusion_lat": 0.0, "type": "electric_scooter", "name": "aea81c5d5b2b13ec85c18edeb7c52490", "is_disabled": 0, "rental_uris": {"ios": "https://dc.lft.to/lastmile_qr_scan", "android": "https://dc.lft.to/lastmile_qr_scan"}, "is_reserved": 0}, {"lon": -77.03644716666666, "bike_id": "574955fe73b0471d8024b6b929ff0210", "lat": 38.91751283333333, "fusion_lon": 0.0, "fusion_lat": 0.0, "type": "electric_scooter", "name": "574955fe73b0471d8024b6b929ff0210", "is_disabled": 0, "rental_uris": {"ios": "https://dc.lft.to/lastmile_qr_scan", "android": "https://dc.lft.to/lastmile_qr_scan"}, "is_reserved": 0}, {"lon": -77.0222425, "bike_id": "81517c528d61a3f31a3ed6a64ed667a9", "lat": 38.912461, "fusion_lon": 0.0, "fusion_lat": 0.0, "type": "electric_scooter", "name": "81517c528d61a3f31a3ed6a64ed667a9", "is_disabled": 0, "rental_uris": {"ios": "https://dc.lft.to/lastmile_qr_scan", "android": "https://dc.lft.to/lastmile_qr_scan"}, "is_reserved": 0}, {"lon": -77.00343916666667, "bike_id": "f0a935624d247a8845d8869de79adb2c", "lat": 38.91626266666667, "fusion_lon": 0.0, "fusion_lat": 0.0, "type": "electric_scooter", "name": "f0a935624d247a8845d8869de79adb2c", "is_disabled": 0, "rental_uris": {"ios": "https://dc.lft.to/lastmile_qr_scan", "android": "https://dc.lft.to/lastmile_qr_scan"}, "is_reserved": 0}, {"lon": -77.031728, "bike_id": "d7e58bb8ba40fa1c787176baf5ca77f7", "lat": 38.914144, "fusion_lon": 0.0, "fusion_lat": 0.0, "type": "electric_scooter", "name": "d7e58bb8ba40fa1c787176baf5ca77f7", "is_disabled": 0, "rental_uris": {"ios": "https://dc.lft.to/lastmile_qr_scan", "android": "https://dc.lft.to/lastmile_qr_scan"}, "is_reserved": 0}, {"lon": -77.04172433333333, "bike_id": "8261e838d2f2d6991eb7e5edc2b25a85", "lat": 38.911374333333335, "fusion_lon": 0.0, "fusion_lat": 0.0, "type": "electric_scooter", "name": "8261e838d2f2d6991eb7e5edc2b25a85", "is_disabled": 0, "rental_uris": {"ios": "https://dc.lft.to/lastmile_qr_scan", "android": "https://dc.lft.to/lastmile_qr_scan"}, "is_reserved": 0}, {"lon": -77.02710933333333, "bike_id": "74f346090377cee66f126727b63fb72b", "lat": 38.90937, "fusion_lon": 0.0, "fusion_lat": 0.0, "type": "electric_scooter", "name": "74f346090377cee66f126727b63fb72b", "is_disabled": 0, "rental_uris": {"ios": "https://dc.lft.to/lastmile_qr_scan", "android": "https://dc.lft.to/lastmile_qr_scan"}, "is_reserved": 0}, {"lon": -76.98456866666666, "bike_id": "355c1c74621c502dd5cffd0b3d138cd7", "lat": 38.90553366666666, "fusion_lon": 0.0, "fusion_lat": 0.0, "type": "electric_scooter", "name": "355c1c74621c502dd5cffd0b3d138cd7", "is_disabled": 0, "rental_uris": {"ios": "https://dc.lft.to/lastmile_qr_scan", "android": "https://dc.lft.to/lastmile_qr_scan"}, "is_reserved": 0}, {"lon": -77.0352105, "bike_id": "4e37a7db9781b365ac6664be7bc9ac81", "lat": 38.92193916666667, "fusion_lon": 0.0, "fusion_lat": 0.0, "type": "electric_scooter", "name": "4e37a7db9781b365ac6664be7bc9ac81", "is_disabled": 0, "rental_uris": {"ios": "https://dc.lft.to/lastmile_qr_scan", "android": "https://dc.lft.to/lastmile_qr_scan"}, "is_reserved": 0}, {"lon": -77.0320465, "bike_id": "8063feaf76c1a61a905f466e896e673c", "lat": 38.904369333333335, "fusion_lon": 0.0, "fusion_lat": 0.0, "type": "electric_scooter", "name": "8063feaf76c1a61a905f466e896e673c", "is_disabled": 0, "rental_uris": {"ios": "https://dc.lft.to/lastmile_qr_scan", "android": "https://dc.lft.to/lastmile_qr_scan"}, "is_reserved": 0}, {"lon": -77.08683883333333, "bike_id": "2fde7ec99b46d122639c72952bc9f562", "lat": 38.87393633333333, "fusion_lon": 0.0, "fusion_lat": 0.0, "type": "electric_bike", "name": "2fde7ec99b46d122639c72952bc9f562", "is_disabled": 0, "rental_uris": {"ios": "https://dc.lft.to/lastmile_qr_scan", "android": "https://dc.lft.to/lastmile_qr_scan"}, "is_reserved": 0}, {"lon": -77.03911166666667, "bike_id": "88a1807c7ecc3cf29e380427d75fd9b6", "lat": 38.92574416666667, "fusion_lon": 0.0, "fusion_lat": 0.0, "type": "electric_scooter", "name": "88a1807c7ecc3cf29e380427d75fd9b6", "is_disabled": 0, "rental_uris": {"ios": "https://dc.lft.to/lastmile_qr_scan", "android": "https://dc.lft.to/lastmile_qr_scan"}, "is_reserved": 0}, {"lon": -77.03439616666667, "bike_id": "5a108b43d2eab21b86c3c587048de4db", "lat": 38.91812516666667, "fusion_lon": 0.0, "fusion_lat": 0.0, "type": "electric_scooter", "name": "5a108b43d2eab21b86c3c587048de4db", "is_disabled": 0, "rental_uris": {"ios": "https://dc.lft.to/lastmile_qr_scan", "android": "https://dc.lft.to/lastmile_qr_scan"}, "is_reserved": 0}, {"lon": -76.9574415, "bike_id": "a0ca18acb764ead2a25fed09e0d6c84c", "lat": 38.88432533333334, "fusion_lon": 0.0, "fusion_lat": 0.0, "type": "electric_scooter", "name": "a0ca18acb764ead2a25fed09e0d6c84c", "is_disabled": 0, "rental_uris": {"ios": "https://dc.lft.to/lastmile_qr_scan", "android": "https://dc.lft.to/lastmile_qr_scan"}, "is_reserved": 0}, {"lon": -77.09961416666667, "bike_id": "640e1bbe8c4e1b5d500c3255cb10d3cd", "lat": 38.85793433333333, "fusion_lon": 0.0, "fusion_lat": 0.0, "type": "electric_bike", "name": "640e1bbe8c4e1b5d500c3255cb10d3cd", "is_disabled": 0, "rental_uris": {"ios": "https://dc.lft.to/lastmile_qr_scan", "android": "https://dc.lft.to/lastmile_qr_scan"}, "is_reserved": 0}, {"lon": -77.03354333333333, "bike_id": "4f6de9b23c8bd87a841b49c63cb19cca", "lat": 38.938521, "fusion_lon": 0.0, "fusion_lat": 0.0, "type": "electric_scooter", "name": "4f6de9b23c8bd87a841b49c63cb19cca", "is_disabled": 0, "rental_uris": {"ios": "https://dc.lft.to/lastmile_qr_scan", "android": "https://dc.lft.to/lastmile_qr_scan"}, "is_reserved": 0}, {"lon": -77.02502533333333, "bike_id": "f8e9283b2ce7b5bbc59d140bfbf66720", "lat": 38.92647266666667, "fusion_lon": 0.0, "fusion_lat": 0.0, "type": "electric_scooter", "name": "f8e9283b2ce7b5bbc59d140bfbf66720", "is_disabled": 0, "rental_uris": {"ios": "https://dc.lft.to/lastmile_qr_scan", "android": "https://dc.lft.to/lastmile_qr_scan"}, "is_reserved": 0}, {"lon": -77.02960666666667, "bike_id": "8f465782ec48d19dd15003da720d5b81", "lat": 38.924935166666664, "fusion_lon": 0.0, "fusion_lat": 0.0, "type": "electric_scooter", "name": "8f465782ec48d19dd15003da720d5b81", "is_disabled": 0, "rental_uris": {"ios": "https://dc.lft.to/lastmile_qr_scan", "android": "https://dc.lft.to/lastmile_qr_scan"}, "is_reserved": 0}, {"lon": -77.04474183333333, "bike_id": "0890d055d47d09f6d2b701ca96baee0a", "lat": 38.90860216666667, "fusion_lon": 0.0, "fusion_lat": 0.0, "type": "electric_scooter", "name": "0890d055d47d09f6d2b701ca96baee0a", "is_disabled": 0, "rental_uris": {"ios": "https://dc.lft.to/lastmile_qr_scan", "android": "https://dc.lft.to/lastmile_qr_scan"}, "is_reserved": 0}, {"lon": -77.02766083333333, "bike_id": "37cf56b3956d28d21af12f406754f3ac", "lat": 38.93456966666667, "fusion_lon": 0.0, "fusion_lat": 0.0, "type": "electric_scooter", "name": "37cf56b3956d28d21af12f406754f3ac", "is_disabled": 0, "rental_uris": {"ios": "https://dc.lft.to/lastmile_qr_scan", "android": "https://dc.lft.to/lastmile_qr_scan"}, "is_reserved": 0}, {"lon": -77.02263083333334, "bike_id": "57910d588e9b74d5f3ee20e29570cc96", "lat": 38.93763233333333, "fusion_lon": 0.0, "fusion_lat": 0.0, "type": "electric_scooter", "name": "57910d588e9b74d5f3ee20e29570cc96", "is_disabled": 0, "rental_uris": {"ios": "https://dc.lft.to/lastmile_qr_scan", "android": "https://dc.lft.to/lastmile_qr_scan"}, "is_reserved": 0}, {"lon": -77.02697916666666, "bike_id": "514383013715938150f642279b9cc2a0", "lat": 38.9266435, "fusion_lon": 0.0, "fusion_lat": 0.0, "type": "electric_scooter", "name": "514383013715938150f642279b9cc2a0", "is_disabled": 0, "rental_uris": {"ios": "https://dc.lft.to/lastmile_qr_scan", "android": "https://dc.lft.to/lastmile_qr_scan"}, "is_reserved": 0}, {"lon": -77.04485666666666, "bike_id": "dd63b5fa0f4726962308c791fe2fc556", "lat": 38.892396166666664, "fusion_lon": 0.0, "fusion_lat": 0.0, "type": "electric_scooter", "name": "dd63b5fa0f4726962308c791fe2fc556", "is_disabled": 0, "rental_uris": {"ios": "https://dc.lft.to/lastmile_qr_scan", "android": "https://dc.lft.to/lastmile_qr_scan"}, "is_reserved": 0}, {"lon": -77.01276966666667, "bike_id": "8dabc0bfe7a6445c354b42b3ddacf5fa", "lat": 38.91561933333333, "fusion_lon": 0.0, "fusion_lat": 0.0, "type": "electric_scooter", "name": "8dabc0bfe7a6445c354b42b3ddacf5fa", "is_disabled": 0, "rental_uris": {"ios": "https://dc.lft.to/lastmile_qr_scan", "android": "https://dc.lft.to/lastmile_qr_scan"}, "is_reserved": 0}, {"lon": -77.00532183333333, "bike_id": "c5c4f6f55c13abad371b7cb30cb96195", "lat": 38.929737833333334, "fusion_lon": 0.0, "fusion_lat": 0.0, "type": "electric_scooter", "name": "c5c4f6f55c13abad371b7cb30cb96195", "is_disabled": 0, "rental_uris": {"ios": "https://dc.lft.to/lastmile_qr_scan", "android": "https://dc.lft.to/lastmile_qr_scan"}, "is_reserved": 0}, {"lon": -77.05272683333334, "bike_id": "ae458a3381afb0e032fd07e48be34c92", "lat": 38.92561533333333, "fusion_lon": 0.0, "fusion_lat": 0.0, "type": "electric_scooter", "name": "ae458a3381afb0e032fd07e48be34c92", "is_disabled": 0, "rental_uris": {"ios": "https://dc.lft.to/lastmile_qr_scan", "android": "https://dc.lft.to/lastmile_qr_scan"}, "is_reserved": 0}, {"lon": -77.02065583333334, "bike_id": "1d210589a457eae3c600a583c2fe374b", "lat": 38.89973466666667, "fusion_lon": 0.0, "fusion_lat": 0.0, "type": "electric_scooter", "name": "1d210589a457eae3c600a583c2fe374b", "is_disabled": 0, "rental_uris": {"ios": "https://dc.lft.to/lastmile_qr_scan", "android": "https://dc.lft.to/lastmile_qr_scan"}, "is_reserved": 0}, {"lon": -76.9852275, "bike_id": "e669e50da1a429b2a69d447d0a7a0d8d", "lat": 38.866849, "fusion_lon": 0.0, "fusion_lat": 0.0, "type": "electric_scooter", "name": "e669e50da1a429b2a69d447d0a7a0d8d", "is_disabled": 0, "rental_uris": {"ios": "https://dc.lft.to/lastmile_qr_scan", "android": "https://dc.lft.to/lastmile_qr_scan"}, "is_reserved": 0}, {"lon": -77.02038983333334, "bike_id": "4f5d25fddaf9a3f6472a4e87f5c0b75b", "lat": 38.908680333333336, "fusion_lon": 0.0, "fusion_lat": 0.0, "type": "electric_scooter", "name": "4f5d25fddaf9a3f6472a4e87f5c0b75b", "is_disabled": 0, "rental_uris": {"ios": "https://dc.lft.to/lastmile_qr_scan", "android": "https://dc.lft.to/lastmile_qr_scan"}, "is_reserved": 0}, {"lon": -77.01480333333333, "bike_id": "510aaeabaf2b654a187958727508bcd7", "lat": 38.94067416666667, "fusion_lon": 0.0, "fusion_lat": 0.0, "type": "electric_bike", "name": "510aaeabaf2b654a187958727508bcd7", "is_disabled": 0, "rental_uris": {"ios": "https://dc.lft.to/lastmile_qr_scan", "android": "https://dc.lft.to/lastmile_qr_scan"}, "is_reserved": 0}, {"lon": -77.0222635, "bike_id": "1072269cf5b6466f97094c6e2492f03a", "lat": 38.912478, "fusion_lon": 0.0, "fusion_lat": 0.0, "type": "electric_scooter", "name": "1072269cf5b6466f97094c6e2492f03a", "is_disabled": 0, "rental_uris": {"ios": "https://dc.lft.to/lastmile_qr_scan", "android": "https://dc.lft.to/lastmile_qr_scan"}, "is_reserved": 0}, {"lon": -76.93080433333333, "bike_id": "35878530b7b18b07ac2f41470e33d2ef", "lat": 38.88379583333333, "fusion_lon": 0.0, "fusion_lat": 0.0, "type": "electric_scooter", "name": "35878530b7b18b07ac2f41470e33d2ef", "is_disabled": 0, "rental_uris": {"ios": "https://dc.lft.to/lastmile_qr_scan", "android": "https://dc.lft.to/lastmile_qr_scan"}, "is_reserved": 0}, {"lon": -77.02656433333334, "bike_id": "6578d3a4099e0c4809d51310cff5458f", "lat": 38.91692466666667, "fusion_lon": 0.0, "fusion_lat": 0.0, "type": "electric_scooter", "name": "6578d3a4099e0c4809d51310cff5458f", "is_disabled": 0, "rental_uris": {"ios": "https://dc.lft.to/lastmile_qr_scan", "android": "https://dc.lft.to/lastmile_qr_scan"}, "is_reserved": 0}, {"lon": -77.03176816666667, "bike_id": "98dc573d969b7eef31bd9f3a4d4f18a4", "lat": 38.89198283333333, "fusion_lon": 0.0, "fusion_lat": 0.0, "type": "electric_scooter", "name": "98dc573d969b7eef31bd9f3a4d4f18a4", "is_disabled": 0, "rental_uris": {"ios": "https://dc.lft.to/lastmile_qr_scan", "android": "https://dc.lft.to/lastmile_qr_scan"}, "is_reserved": 0}, {"lon": -77.0435225, "bike_id": "5d21b14cad40ddf19d6b8c2ce435fd69", "lat": 38.92176283333333, "fusion_lon": 0.0, "fusion_lat": 0.0, "type": "electric_scooter", "name": "5d21b14cad40ddf19d6b8c2ce435fd69", "is_disabled": 0, "rental_uris": {"ios": "https://dc.lft.to/lastmile_qr_scan", "android": "https://dc.lft.to/lastmile_qr_scan"}, "is_reserved": 0}, {"lon": -77.02667583333333, "bike_id": "56c2547616111778433fbc13f9b3a79b", "lat": 38.92184983333333, "fusion_lon": 0.0, "fusion_lat": 0.0, "type": "electric_scooter", "name": "56c2547616111778433fbc13f9b3a79b", "is_disabled": 0, "rental_uris": {"ios": "https://dc.lft.to/lastmile_qr_scan", "android": "https://dc.lft.to/lastmile_qr_scan"}, "is_reserved": 0}, {"lon": -77.00344216666667, "bike_id": "f78f88fab03e2e0e357bf071cd95989d", "lat": 38.89908283333333, "fusion_lon": 0.0, "fusion_lat": 0.0, "type": "electric_scooter", "name": "f78f88fab03e2e0e357bf071cd95989d", "is_disabled": 0, "rental_uris": {"ios": "https://dc.lft.to/lastmile_qr_scan", "android": "https://dc.lft.to/lastmile_qr_scan"}, "is_reserved": 0}, {"lon": -77.01808583333333, "bike_id": "fb398d6a411bff2dfddf8bca3403c76e", "lat": 38.914703, "fusion_lon": 0.0, "fusion_lat": 0.0, "type": "electric_scooter", "name": "fb398d6a411bff2dfddf8bca3403c76e", "is_disabled": 0, "rental_uris": {"ios": "https://dc.lft.to/lastmile_qr_scan", "android": "https://dc.lft.to/lastmile_qr_scan"}, "is_reserved": 0}, {"lon": -77.03387283333333, "bike_id": "c069208b9ab2106c85ff66c441e79265", "lat": 38.905546333333334, "fusion_lon": 0.0, "fusion_lat": 0.0, "type": "electric_scooter", "name": "c069208b9ab2106c85ff66c441e79265", "is_disabled": 0, "rental_uris": {"ios": "https://dc.lft.to/lastmile_qr_scan", "android": "https://dc.lft.to/lastmile_qr_scan"}, "is_reserved": 0}, {"lon": -77.03517883333333, "bike_id": "e32cfe30c646101da6831eb95505e66b", "lat": 38.9159715, "fusion_lon": 0.0, "fusion_lat": 0.0, "type": "electric_scooter", "name": "e32cfe30c646101da6831eb95505e66b", "is_disabled": 0, "rental_uris": {"ios": "https://dc.lft.to/lastmile_qr_scan", "android": "https://dc.lft.to/lastmile_qr_scan"}, "is_reserved": 0}, {"lon": -77.03328666666667, "bike_id": "6e0eb310014b989df5b11250e941f7c1", "lat": 38.938982833333334, "fusion_lon": 0.0, "fusion_lat": 0.0, "type": "electric_scooter", "name": "6e0eb310014b989df5b11250e941f7c1", "is_disabled": 0, "rental_uris": {"ios": "https://dc.lft.to/lastmile_qr_scan", "android": "https://dc.lft.to/lastmile_qr_scan"}, "is_reserved": 0}, {"lon": -77.04207183333334, "bike_id": "88daa47b34d7f01f0400428bfff8edaf", "lat": 38.921306, "fusion_lon": 0.0, "fusion_lat": 0.0, "type": "electric_scooter", "name": "88daa47b34d7f01f0400428bfff8edaf", "is_disabled": 0, "rental_uris": {"ios": "https://dc.lft.to/lastmile_qr_scan", "android": "https://dc.lft.to/lastmile_qr_scan"}, "is_reserved": 0}, {"lon": -77.03644083333333, "bike_id": "5f9cbdd40e86cfc2119317e137c36fc3", "lat": 38.913026333333335, "fusion_lon": 0.0, "fusion_lat": 0.0, "type": "electric_scooter", "name": "5f9cbdd40e86cfc2119317e137c36fc3", "is_disabled": 0, "rental_uris": {"ios": "https://dc.lft.to/lastmile_qr_scan", "android": "https://dc.lft.to/lastmile_qr_scan"}, "is_reserved": 0}, {"lon": -77.04138266666666, "bike_id": "528df3145cbca6d396273c459401ae4f", "lat": 38.921250666666666, "fusion_lon": 0.0, "fusion_lat": 0.0, "type": "electric_scooter", "name": "528df3145cbca6d396273c459401ae4f", "is_disabled": 0, "rental_uris": {"ios": "https://dc.lft.to/lastmile_qr_scan", "android": "https://dc.lft.to/lastmile_qr_scan"}, "is_reserved": 0}, {"lon": -77.01742116666667, "bike_id": "a3c037a53ff030468da271107eefce72", "lat": 38.90236733333333, "fusion_lon": 0.0, "fusion_lat": 0.0, "type": "electric_scooter", "name": "a3c037a53ff030468da271107eefce72", "is_disabled": 0, "rental_uris": {"ios": "https://dc.lft.to/lastmile_qr_scan", "android": "https://dc.lft.to/lastmile_qr_scan"}, "is_reserved": 0}, {"lon": -76.99471033333333, "bike_id": "ee76165efbf885a021e462b45fedf684", "lat": 38.862281, "fusion_lon": 0.0, "fusion_lat": 0.0, "type": "electric_scooter", "name": "ee76165efbf885a021e462b45fedf684", "is_disabled": 0, "rental_uris": {"ios": "https://dc.lft.to/lastmile_qr_scan", "android": "https://dc.lft.to/lastmile_qr_scan"}, "is_reserved": 0}, {"lon": -77.032528, "bike_id": "dd849b90475b9d510dabce0c70b05038", "lat": 38.942730166666664, "fusion_lon": 0.0, "fusion_lat": 0.0, "type": "electric_scooter", "name": "dd849b90475b9d510dabce0c70b05038", "is_disabled": 0, "rental_uris": {"ios": "https://dc.lft.to/lastmile_qr_scan", "android": "https://dc.lft.to/lastmile_qr_scan"}, "is_reserved": 0}, {"lon": -77.0326555, "bike_id": "d77d51d88f1bfe9628a9d5c3cf3c4e4e", "lat": 38.919922166666666, "fusion_lon": 0.0, "fusion_lat": 0.0, "type": "electric_scooter", "name": "d77d51d88f1bfe9628a9d5c3cf3c4e4e", "is_disabled": 0, "rental_uris": {"ios": "https://dc.lft.to/lastmile_qr_scan", "android": "https://dc.lft.to/lastmile_qr_scan"}, "is_reserved": 0}, {"lon": -77.0272945, "bike_id": "b923a27af3975c2bfe34c3eec063411d", "lat": 38.943797833333335, "fusion_lon": 0.0, "fusion_lat": 0.0, "type": "electric_scooter", "name": "b923a27af3975c2bfe34c3eec063411d", "is_disabled": 0, "rental_uris": {"ios": "https://dc.lft.to/lastmile_qr_scan", "android": "https://dc.lft.to/lastmile_qr_scan"}, "is_reserved": 0}, {"lon": -77.03138933333334, "bike_id": "d95ecbfd83da2cb247f8f242ca40ecef", "lat": 38.92960516666667, "fusion_lon": 0.0, "fusion_lat": 0.0, "type": "electric_scooter", "name": "d95ecbfd83da2cb247f8f242ca40ecef", "is_disabled": 0, "rental_uris": {"ios": "https://dc.lft.to/lastmile_qr_scan", "android": "https://dc.lft.to/lastmile_qr_scan"}, "is_reserved": 0}, {"lon": -77.04339266666666, "bike_id": "cc8c978b37ac88f8a6f62d66a6d5d1bc", "lat": 38.93332616666667, "fusion_lon": 0.0, "fusion_lat": 0.0, "type": "electric_scooter", "name": "cc8c978b37ac88f8a6f62d66a6d5d1bc", "is_disabled": 0, "rental_uris": {"ios": "https://dc.lft.to/lastmile_qr_scan", "android": "https://dc.lft.to/lastmile_qr_scan"}, "is_reserved": 0}, {"lon": -77.0415855, "bike_id": "940d9cab8b780495414b1b8cbe34be6a", "lat": 38.899038, "fusion_lon": 0.0, "fusion_lat": 0.0, "type": "electric_scooter", "name": "940d9cab8b780495414b1b8cbe34be6a", "is_disabled": 0, "rental_uris": {"ios": "https://dc.lft.to/lastmile_qr_scan", "android": "https://dc.lft.to/lastmile_qr_scan"}, "is_reserved": 0}, {"lon": -77.030779, "bike_id": "218e2f12a48b7c77cd0bf62866773164", "lat": 38.880361666666666, "fusion_lon": 0.0, "fusion_lat": 0.0, "type": "electric_scooter", "name": "218e2f12a48b7c77cd0bf62866773164", "is_disabled": 0, "rental_uris": {"ios": "https://dc.lft.to/lastmile_qr_scan", "android": "https://dc.lft.to/lastmile_qr_scan"}, "is_reserved": 0}, {"lon": -77.0005405, "bike_id": "a15314e72b5108b962f585b95d57aa43", "lat": 38.908249166666664, "fusion_lon": 0.0, "fusion_lat": 0.0, "type": "electric_scooter", "name": "a15314e72b5108b962f585b95d57aa43", "is_disabled": 0, "rental_uris": {"ios": "https://dc.lft.to/lastmile_qr_scan", "android": "https://dc.lft.to/lastmile_qr_scan"}, "is_reserved": 0}, {"lon": -77.01584, "bike_id": "d40b7291cd389a9d2f6ed4e13553b04d", "lat": 38.87662616666667, "fusion_lon": 0.0, "fusion_lat": 0.0, "type": "electric_scooter", "name": "d40b7291cd389a9d2f6ed4e13553b04d", "is_disabled": 0, "rental_uris": {"ios": "https://dc.lft.to/lastmile_qr_scan", "android": "https://dc.lft.to/lastmile_qr_scan"}, "is_reserved": 0}, {"lon": -77.0178845, "bike_id": "5f109191e60cf48551546cb00c9ccc65", "lat": 38.920415166666665, "fusion_lon": 0.0, "fusion_lat": 0.0, "type": "electric_scooter", "name": "5f109191e60cf48551546cb00c9ccc65", "is_disabled": 0, "rental_uris": {"ios": "https://dc.lft.to/lastmile_qr_scan", "android": "https://dc.lft.to/lastmile_qr_scan"}, "is_reserved": 0}, {"lon": -77.0268885, "bike_id": "f259937c48395aaf9544f5258760c7b9", "lat": 38.91229583333333, "fusion_lon": 0.0, "fusion_lat": 0.0, "type": "electric_scooter", "name": "f259937c48395aaf9544f5258760c7b9", "is_disabled": 0, "rental_uris": {"ios": "https://dc.lft.to/lastmile_qr_scan", "android": "https://dc.lft.to/lastmile_qr_scan"}, "is_reserved": 0}, {"lon": -77.03840983333333, "bike_id": "e8c85dbec1b25a91f8e9810ed6861724", "lat": 38.908798833333336, "fusion_lon": 0.0, "fusion_lat": 0.0, "type": "electric_scooter", "name": "e8c85dbec1b25a91f8e9810ed6861724", "is_disabled": 0, "rental_uris": {"ios": "https://dc.lft.to/lastmile_qr_scan", "android": "https://dc.lft.to/lastmile_qr_scan"}, "is_reserved": 0}, {"lon": -77.01115666666666, "bike_id": "923cf8b671d255c67e505a1c26ab7dd0", "lat": 38.900209333333336, "fusion_lon": 0.0, "fusion_lat": 0.0, "type": "electric_scooter", "name": "923cf8b671d255c67e505a1c26ab7dd0", "is_disabled": 0, "rental_uris": {"ios": "https://dc.lft.to/lastmile_qr_scan", "android": "https://dc.lft.to/lastmile_qr_scan"}, "is_reserved": 0}, {"lon": -77.0328295, "bike_id": "8d136a381de6b5de726829dcd5a07d9a", "lat": 38.901552833333334, "fusion_lon": 0.0, "fusion_lat": 0.0, "type": "electric_scooter", "name": "8d136a381de6b5de726829dcd5a07d9a", "is_disabled": 0, "rental_uris": {"ios": "https://dc.lft.to/lastmile_qr_scan", "android": "https://dc.lft.to/lastmile_qr_scan"}, "is_reserved": 0}, {"lon": -77.012087, "bike_id": "8e81e3b42f3d4d4b92ab6ed139343966", "lat": 38.88551016666667, "fusion_lon": 0.0, "fusion_lat": 0.0, "type": "electric_scooter", "name": "8e81e3b42f3d4d4b92ab6ed139343966", "is_disabled": 0, "rental_uris": {"ios": "https://dc.lft.to/lastmile_qr_scan", "android": "https://dc.lft.to/lastmile_qr_scan"}, "is_reserved": 0}, {"lon": -77.03097916666667, "bike_id": "a9f29e1d39ceb71302ff7cbc9ba05ce3", "lat": 38.9191575, "fusion_lon": 0.0, "fusion_lat": 0.0, "type": "electric_scooter", "name": "a9f29e1d39ceb71302ff7cbc9ba05ce3", "is_disabled": 0, "rental_uris": {"ios": "https://dc.lft.to/lastmile_qr_scan", "android": "https://dc.lft.to/lastmile_qr_scan"}, "is_reserved": 0}, {"lon": -76.989334, "bike_id": "d27a9066cc985d70a9751e4309825f6f", "lat": 38.86556066666667, "fusion_lon": 0.0, "fusion_lat": 0.0, "type": "electric_scooter", "name": "d27a9066cc985d70a9751e4309825f6f", "is_disabled": 0, "rental_uris": {"ios": "https://dc.lft.to/lastmile_qr_scan", "android": "https://dc.lft.to/lastmile_qr_scan"}, "is_reserved": 0},