{"data": {"bikes": [{"name": "880fbf2f09b31edb4efefd146f4d7194", "fusion_lat": 0.0, "type": "electric_scooter", "lat": 38.910322, "is_reserved": 0, "is_disabled": 0, "fusion_lon": 0.0, "bike_id": "880fbf2f09b31edb4efefd146f4d7194", "lon": -77.02391033333333, "rental_uris": {"ios": "https://dc.lft.to/lastmile_qr_scan", "android": "https://dc.lft.to/lastmile_qr_scan"}}, {"name": "3f040f6588ebdfa7c72e64b43383ea20", "fusion_lat": 0.0, "type": "electric_scooter", "lat": 38.89844333333333, "is_reserved": 0, "is_disabled": 0, "fusion_lon": 0.0, "bike_id": "3f040f6588ebdfa7c72e64b43383ea20", "lon": -77.029356, "rental_uris": {"ios": "https://dc.lft.to/lastmile_qr_scan", "android": "https://dc.lft.to/lastmile_qr_scan"}}, {"name": "12ce84c91824959f472dc0a57b46625a", "fusion_lat": 0.0, "type": "electric_scooter", "lat": 38.909592, "is_reserved": 0, "is_disabled": 0, "fusion_lon": 0.0, "bike_id": "12ce84c91824959f472dc0a57b46625a", "lon": -77.01133266666666, "rental_uris": {"ios": "https://dc.lft.to/lastmile_qr_scan", "android": "https://dc.lft.to/lastmile_qr_scan"}}, {"name": "5a518905258122400547c96132aefa5c", "fusion_lat": 0.0, "type": "electric_scooter", "lat": 38.93704966666667, "is_reserved": 0, "is_disabled": 0, "fusion_lon": 0.0, "bike_id": "5a518905258122400547c96132aefa5c", "lon": -77.02398666666667, "rental_uris": {"ios": "https://dc.lft.to/lastmile_qr_scan", "android": "https://dc.lft.to/lastmile_qr_scan"}}, {"name": "e93afee40afd55ed77f3fdb67e65e6d9", "fusion_lat": 0.0, "type": "electric_scooter", "lat": 38.87653566666667, "is_reserved": 0, "is_disabled": 0, "fusion_lon": 0.0, "bike_id": "e93afee40afd55ed77f3fdb67e65e6d9", "lon": -77.00443866666667, "rental_uris": {"ios": "https://dc.lft.to/lastmile_qr_scan", "android": "https://dc.lft.to/lastmile_qr_scan"}}, {"name": "285013e17a6231ad8eac7b478c072b0f", "fusion_lat": 0.0, "type": "electric_scooter", "lat": 38.89850416666667, "is_reserved": 0, "is_disabled": 0, "fusion_lon": 0.0, "bike_id": "285013e17a6231ad8eac7b478c072b0f", "lon": -77.00737333333333, "rental_uris": {"ios": "https://dc.lft.to/lastmile_qr_scan", "android": "https://dc.lft.to/lastmile_qr_scan"}}, {"name": "5c17079bb8416bed901b82bb405b1ca5", "fusion_lat": 0.0, "type": "electric_scooter", "lat": 38.91561983333333, "is_reserved": 0, "is_disabled": 0, "fusion_lon": 0.0, "bike_id": "5c17079bb8416bed901b82bb405b1ca5", "lon": -77.0141385, "rental_uris": {"ios": "https://dc.lft.to/lastmile_qr_scan", "android": "https://dc.lft.to/lastmile_qr_scan"}}, {"name": "c30ab87f59a3b9c64a9b2f3b3356a6eb", "fusion_lat": 0.0, "type": "electric_bike", "lat": 38.876032, "is_reserved": 0, "is_disabled": 0, "fusion_lon": 0.0, "bike_id": "c30ab87f59a3b9c64a9b2f3b3356a6eb", "lon": -77.00074983333333, "rental_uris": {"ios": "https://dc.lft.to/lastmile_qr_scan", "android": "https://dc.lft.to/lastmile_qr_scan"}}, {"name": "c16643831a29a9c3e33b45cd8b24c0ff", "fusion_lat": 0.0, "type": "electric_bike", "lat": 38.94603, "is_reserved": 0, "is_disabled": 0, "fusion_lon": 0.0, "bike_id": "c16643831a29a9c3e33b45cd8b24c0ff", "lon": -77.02980383333333, "rental_uris": {"ios": "https://dc.lft.to/lastmile_qr_scan", "android": "https://dc.lft.to/lastmile_qr_scan"}}, {"name": "945fc67f9a157eeae175852083a2852f", "fusion_lat": 0.0, "type": "electric_bike", "lat": 38.85402116666667, "is_reserved": 0, "is_disabled": 0, "fusion_lon": 0.0, "bike_id": "945fc67f9a157eeae175852083a2852f", "lon": -77.1181415, "rental_uris": {"ios": "https://dc.lft.to/lastmile_qr_scan", "android": "https://dc.lft.to/lastmile_qr_scan"}}, {"name": "158f8d08cf41e10487dfb43f9d51916b", "fusion_lat": 0.0, "type": "electric_scooter", "lat": 38.916470833333335, "is_reserved": 0, "is_disabled": 0, "fusion_lon": 0.0, "bike_id": "158f8d08cf41e10487dfb43f9d51916b", "lon": -77.02298966666666, "rental_uris": {"ios": "https://dc.lft.to/lastmile_qr_scan", "android": "https://dc.lft.to/lastmile_qr_scan"}}, {"name": "d44f206724afd06755f79bfd798b3749", "fusion_lat": 0.0, "type": "electric_scooter", "lat": 38.92927183333333, "is_reserved": 0, "is_disabled": 0, "fusion_lon": 0.0, "bike_id": "d44f206724afd06755f79bfd798b3749", "lon": -77.02335116666667, "rental_uris": {"ios": "https://dc.lft.to/lastmile_qr_scan", "android": "https://dc.lft.to/lastmile_qr_scan"}}, {"name": "9d827f1b79d2424e5c40f91f7bd8f371", "fusion_lat": 0.0, "type": "electric_scooter", "lat": 38.91680733333333, "is_reserved": 0, "is_disabled": 0, "fusion_lon": 0.0, "bike_id": "9d827f1b79d2424e5c40f91f7bd8f371", "lon": -77.03634866666667, "rental_uris": {"ios": "https://dc.lft.to/lastmile_qr_scan", "android": "https://dc.lft.to/lastmile_qr_scan"}}, {"name": "ed27c62431132fc51b904cada3de439a", "fusion_lat": 0.0, "type": "electric_scooter", "lat": 38.881440833333336, "is_reserved": 0, "is_disabled": 0, "fusion_lon": 0.0, "bike_id": "ed27c62431132fc51b904cada3de439a", "lon": -77.01307283333334, "rental_uris": {"ios": "https://dc.lft.to/lastmile_qr_scan", "android": "https://dc.lft.to/lastmile_qr_scan"}}, {"name": "0f6328f4461646db9a72ce8798dfc5da", "fusion_lat": 0.0, "type": "electric_scooter", "lat": 38.90240333333333, "is_reserved": 0, "is_disabled": 0, "fusion_lon": 0.0, "bike_id": "0f6328f4461646db9a72ce8798dfc5da", "lon": -77.03465483333333, "rental_uris": {"ios": "https://dc.lft.to/lastmile_qr_scan", "android": "https://dc.lft.to/lastmile_qr_scan"}}, {"name": "2ff27546b0dfbff6c84c18bbea4178a2", "fusion_lat": 0.0, "type": "electric_scooter", "lat": 38.905493666666665, "is_reserved": 0, "is_disabled": 0, "fusion_lon": 0.0, "bike_id": "2ff27546b0dfbff6c84c18bbea4178a2", "lon": -77.04399066666667, "rental_uris": {"ios": "https://dc.lft.to/lastmile_qr_scan", "android": "https://dc.lft.to/lastmile_qr_scan"}}, {"name": "058086310cf63a7f295701a0a0ce1af4", "fusion_lat": 0.0, "type": "electric_scooter", "lat": 38.908641833333334, "is_reserved": 0, "is_disabled": 0, "fusion_lon": 0.0, "bike_id": "058086310cf63a7f295701a0a0ce1af4", "lon": -77.0347765, "rental_uris": {"ios": "https://dc.lft.to/lastmile_qr_scan", "android": "https://dc.lft.to/lastmile_qr_scan"}}, {"name": "d5168f8e40494088a0da68d4826732e6", "fusion_lat": 0.0, "type": "electric_scooter", "lat": 38.882206833333335, "is_reserved": 0, "is_disabled": 0, "fusion_lon": 0.0, "bike_id": "d5168f8e40494088a0da68d4826732e6", "lon": -76.94177083333334, "rental_uris": {"ios": "https://dc.lft.to/lastmile_qr_scan", "android": "https://dc.lft.to/lastmile_qr_scan"}}, {"name": "f537b338fcd5da83a2f25ef9bdd0f4c5", "fusion_lat": 0.0, "type": "electric_scooter", "lat": 38.914157, "is_reserved": 0, "is_disabled": 0, "fusion_lon": 0.0, "bike_id": "f537b338fcd5da83a2f25ef9bdd0f4c5", "lon": -77.02799883333333, "rental_uris": {"ios": "https://dc.lft.to/lastmile_qr_scan", "android": "https://dc.lft.to/lastmile_qr_scan"}}, {"name": "8af8c7ea9d5a65ad77c091d3d03e0f00", "fusion_lat": 0.0, "type": "electric_scooter", "lat": 38.9249405, "is_reserved": 0, "is_disabled": 0, "fusion_lon": 0.0, "bike_id": "8af8c7ea9d5a65ad77c091d3d03e0f00", "lon": -77.02709816666666, "rental_uris": {"ios": "https://dc.lft.to/lastmile_qr_scan", "android": "https://dc.lft.to/lastmile_qr_scan"}}, {"name": "67f7f1cafad65028cb0e568702c4fd4a", "fusion_lat": 0.0, "type": "electric_scooter", "lat": 38.92466133333333, "is_reserved": 0, "is_disabled": 0, "fusion_lon": 0.0, "bike_id": "67f7f1cafad65028cb0e568702c4fd4a", "lon": -77.030502, "rental_uris": {"ios": "https://dc.lft.to/lastmile_qr_scan", "android": "https://dc.lft.to/lastmile_qr_scan"}}, {"name": "a9c9c20e83c80849488a52ab3e9b04b4", "fusion_lat": 0.0, "type": "electric_scooter", "lat": 38.909757166666665, "is_reserved": 0, "is_disabled": 0, "fusion_lon": 0.0, "bike_id": "a9c9c20e83c80849488a52ab3e9b04b4", "lon": -77.04668916666667, "rental_uris": {"ios": "https://dc.lft.to/lastmile_qr_scan", "android": "https://dc.lft.to/lastmile_qr_scan"}}, {"name": "e6b0d994cb3ef2f9d93236b6f86b5220", "fusion_lat": 0.0, "type": "electric_scooter", "lat": 38.920739166666664, "is_reserved": 0, "is_disabled": 0, "fusion_lon": 0.0, "bike_id": "e6b0d994cb3ef2f9d93236b6f86b5220", "lon": -77.02393866666667, "rental_uris": {"ios": "https://dc.lft.to/lastmile_qr_scan", "android": "https://dc.lft.to/lastmile_qr_scan"}}, {"name": "db9b0499e13889b5047b1e0148a74a76", "fusion_lat": 0.0, "type": "electric_scooter", "lat": 38.86257583333333, "is_reserved": 0, "is_disabled": 0, "fusion_lon": 0.0, "bike_id": "db9b0499e13889b5047b1e0148a74a76", "lon": -76.9871365, "rental_uris": {"ios": "https://dc.lft.to/lastmile_qr_scan", "android": "https://dc.lft.to/lastmile_qr_scan"}}, {"name": "0aefde9b6dd4e76edf64423a7ecdebf1", "fusion_lat": 0.0, "type": "electric_scooter", "lat": 38.905635, "is_reserved": 0, "is_disabled": 0, "fusion_lon": 0.0, "bike_id": "0aefde9b6dd4e76edf64423a7ecdebf1", "lon": -76.9968455, "rental_uris": {"ios": "https://dc.lft.to/lastmile_qr_scan", "android": "https://dc.lft.to/lastmile_qr_scan"}}, {"name": "b06af5654b1d460b6f3df486b8fcd597", "fusion_lat": 0.0, "type": "electric_scooter", "lat": 38.89775916666667, "is_reserved": 0, "is_disabled": 0, "fusion_lon": 0.0, "bike_id": "b06af5654b1d460b6f3df486b8fcd597", "lon": -77.03170783333333, "rental_uris": {"ios": "https://dc.lft.to/lastmile_qr_scan", "android": "https://dc.lft.to/lastmile_qr_scan"}}, {"name": "2f86e1fcf4e2fb66ba7690f2bcaf36aa", "fusion_lat": 0.0, "type": "electric_scooter", "lat": 38.90581316666667, "is_reserved": 0, "is_disabled": 0, "fusion_lon": 0.0, "bike_id": "2f86e1fcf4e2fb66ba7690f2bcaf36aa", "lon": -77.04661766666666, "rental_uris": {"ios": "https://dc.lft.to/lastmile_qr_scan", "android": "https://dc.lft.to/lastmile_qr_scan"}}, {"name": "0c17fbb0e6e22287abfe9ac238627549", "fusion_lat": 0.0, "type": "electric_scooter", "lat": 38.892404166666665, "is_reserved": 0, "is_disabled": 0, "fusion_lon": 0.0, "bike_id": "0c17fbb0e6e22287abfe9ac238627549", "lon": -77.033835, "rental_uris": {"ios": "https://dc.lft.to/lastmile_qr_scan", "android": "https://dc.lft.to/lastmile_qr_scan"}}, {"name": "af399aae9082bb47bd90f6b6230a0a86", "fusion_lat": 0.0, "type": "electric_scooter", "lat": 38.930937, "is_reserved": 0, "is_disabled": 0, "fusion_lon": 0.0, "bike_id": "af399aae9082bb47bd90f6b6230a0a86", "lon": -77.02507, "rental_uris": {"ios": "https://dc.lft.to/lastmile_qr_scan", "android": "https://dc.lft.to/lastmile_qr_scan"}}, {"name": "1d2f753f45c6339c4e2f9a6e006a09fc", "fusion_lat": 0.0, "type": "electric_scooter", "lat": 38.90530583333334, "is_reserved": 0, "is_disabled": 0, "fusion_lon": 0.0, "bike_id": "1d2f753f45c6339c4e2f9a6e006a09fc", "lon": -77.04557233333334, "rental_uris": {"ios": "https://dc.lft.to/lastmile_qr_scan", "android": "https://dc.lft.to/lastmile_qr_scan"}}, {"name": "8955e6d98dda2392885d4d8c39e7c559", "fusion_lat": 0.0, "type": "electric_scooter", "lat": 38.918072333333335, "is_reserved": 0, "is_disabled": 0, "fusion_lon": 0.0, "bike_id": "8955e6d98dda2392885d4d8c39e7c559", "lon": -77.04627383333333, "rental_uris": {"ios": "https://dc.lft.to/lastmile_qr_scan", "android": "https://dc.lft.to/lastmile_qr_scan"}}, {"name": "825ef8ea530b8b98a9a1fa2b0a2f6cbb", "fusion_lat": 0.0, "type": "electric_scooter", "lat": 38.921859833333336, "is_reserved": 0, "is_disabled": 0, "fusion_lon": 0.0, "bike_id": "825ef8ea530b8b98a9a1fa2b0a2f6cbb", "lon": -77.04281083333333, "rental_uris": {"ios": "https://dc.lft.to/lastmile_qr_scan", "android": "https://dc.lft.to/lastmile_qr_scan"}}, {"name": "44da670a9e64ed76cb9253da8c96d24d", "fusion_lat": 0.0, "type": "electric_scooter", "lat": 38.931873833333334, "is_reserved": 0, "is_disabled": 0, "fusion_lon": 0.0, "bike_id": "44da670a9e64ed76cb9253da8c96d24d", "lon": -77.034581, "rental_uris": {"ios": "https://dc.lft.to/lastmile_qr_scan", "android": "https://dc.lft.to/lastmile_qr_scan"}}, {"name": "2d3d3790765c73bda5c36cd2df3f6e35", "fusion_lat": 0.0, "type": "electric_scooter", "lat": 38.90738666666667, "is_reserved": 0, "is_disabled": 0, "fusion_lon": 0.0, "bike_id": "2d3d3790765c73bda5c36cd2df3f6e35", "lon": -77.02693066666667, "rental_uris": {"ios": "https://dc.lft.to/lastmile_qr_scan", "android": "https://dc.lft.to/lastmile_qr_scan"}}, {"name": "b911e8830b34bb07105e9f4b51f91900", "fusion_lat": 0.0, "type": "electric_scooter", "lat": 38.91932533333333, "is_reserved": 0, "is_disabled": 0, "fusion_lon": 0.0, "bike_id": "b911e8830b34bb07105e9f4b51f91900", "lon": -77.02392083333334, "rental_uris": {"ios": "https://dc.lft.to/lastmile_qr_scan", "android": "https://dc.lft.to/lastmile_qr_scan"}}, {"name": "1dc3569d3c8049f00172f31bae1887c5", "fusion_lat": 0.0, "type": "electric_scooter", "lat": 38.899753833333335, "is_reserved": 0, "is_disabled": 0, "fusion_lon": 0.0, "bike_id": "1dc3569d3c8049f00172f31bae1887c5", "lon": -77.01937383333333, "rental_uris": {"ios": "https://dc.lft.to/lastmile_qr_scan", "android": "https://dc.lft.to/lastmile_qr_scan"}}, {"name": "f25c3e3e0dac866c59f57e49156aa9e4", "fusion_lat": 0.0, "type": "electric_scooter", "lat": 38.913362, "is_reserved": 0, "is_disabled": 0, "fusion_lon": 0.0, "bike_id": "f25c3e3e0dac866c59f57e49156aa9e4", "lon": -77.048673, "rental_uris": {"ios": "https://dc.lft.to/lastmile_qr_scan", "android": "https://dc.lft.to/lastmile_qr_scan"}}, {"name": "ca53433a5207c8d5c030c61c62e1334e", "fusion_lat": 0.0, "type": "electric_scooter", "lat": 38.916767166666666, "is_reserved": 0, "is_disabled": 0, "fusion_lon": 0.0, "bike_id": "ca53433a5207c8d5c030c61c62e1334e", "lon": -77.02390416666667, "rental_uris": {"ios": "https://dc.lft.to/lastmile_qr_scan", "android": "https://dc.lft.to/lastmile_qr_scan"}}, {"name": "9b60fe6217fc2217da8bd8737e414baf", "fusion_lat": 0.0, "type": "electric_scooter", "lat": 38.91027916666667, "is_reserved": 0, "is_disabled": 0, "fusion_lon": 0.0, "bike_id": "9b60fe6217fc2217da8bd8737e414baf", "lon": -77.0075725, "rental_uris": {"ios": "https://dc.lft.to/lastmile_qr_scan", "android": "https://dc.lft.to/lastmile_qr_scan"}}, {"name": "a0061564bb51c8c75a69385dfd0e8a16", "fusion_lat": 0.0, "type": "electric_scooter", "lat": 38.92624083333333, "is_reserved": 0, "is_disabled": 0, "fusion_lon": 0.0, "bike_id": "a0061564bb51c8c75a69385dfd0e8a16", "lon": -77.037863, "rental_uris": {"ios": "https://dc.lft.to/lastmile_qr_scan", "android": "https://dc.lft.to/lastmile_qr_scan"}}, {"name": "8481a30692d36b8c5d6630cc0a53b5b8", "fusion_lat": 0.0, "type": "electric_bike", "lat": 38.97086983333333, "is_reserved": 0, "is_disabled": 0, "fusion_lon": 0.0, "bike_id": "8481a30692d36b8c5d6630cc0a53b5b8", "lon": -77.0696375, "rental_uris": {"ios": "https://dc.lft.to/lastmile_qr_scan", "android": "https://dc.lft.to/lastmile_qr_scan"}}, {"name": "74b41e51ca4691138a51361fc9c1d806", "fusion_lat": 0.0, "type": "electric_scooter", "lat": 38.911898666666666, "is_reserved": 0, "is_disabled": 0, "fusion_lon": 0.0, "bike_id": "74b41e51ca4691138a51361fc9c1d806", "lon": -77.04540833333333, "rental_uris": {"ios": "https://dc.lft.to/lastmile_qr_scan", "android": "https://dc.lft.to/lastmile_qr_scan"}}, {"name": "29aae019bfa8965f880aae866664a512", "fusion_lat": 0.0, "type": "electric_bike", "lat": 38.86375533333333, "is_reserved": 0, "is_disabled": 0, "fusion_lon": 0.0, "bike_id": "29aae019bfa8965f880aae866664a512", "lon": -77.12901183333334, "rental_uris": {"ios": "https://dc.lft.to/lastmile_qr_scan", "android": "https://dc.lft.to/lastmile_qr_scan"}}, {"name": "d728781786142db81b7db9ec2b2fc606", "fusion_lat": 0.0, "type": "electric_scooter", "lat": 38.926977666666666, "is_reserved": 0, "is_disabled": 0, "fusion_lon": 0.0, "bike_id": "d728781786142db81b7db9ec2b2fc606", "lon": -77.0242055, "rental_uris": {"ios": "https://dc.lft.to/lastmile_qr_scan", "android": "https://dc.lft.to/lastmile_qr_scan"}}, {"name": "2647e4fbe6923459b2ff59bf38168932", "fusion_lat": 0.0, "type": "electric_scooter", "lat": 38.897428833333336, "is_reserved": 0, "is_disabled": 0, "fusion_lon": 0.0, "bike_id": "2647e4fbe6923459b2ff59bf38168932", "lon": -77.02690916666667, "rental_uris": {"ios": "https://dc.lft.to/lastmile_qr_scan", "android": "https://dc.lft.to/lastmile_qr_scan"}}, {"name": "8c8684fcc6001cc223928016130bd833", "fusion_lat": 0.0, "type": "electric_scooter", "lat": 38.902191, "is_reserved": 0, "is_disabled": 0, "fusion_lon": 0.0, "bike_id": "8c8684fcc6001cc223928016130bd833", "lon": -77.0459255, "rental_uris": {"ios": "https://dc.lft.to/lastmile_qr_scan", "android": "https://dc.lft.to/lastmile_qr_scan"}}, {"name": "b4fd222d19e1326cd136a0c2d3ce0378", "fusion_lat": 0.0, "type": "electric_scooter", "lat": 38.89233816666667, "is_reserved": 0, "is_disabled": 0, "fusion_lon": 0.0, "bike_id": "b4fd222d19e1326cd136a0c2d3ce0378", "lon": -77.01523533333334, "rental_uris": {"ios": "https://dc.lft.to/lastmile_qr_scan", "android": "https://dc.lft.to/lastmile_qr_scan"}}, {"name": "2ff25713a34b719132e06e392b571a1e", "fusion_lat": 0.0, "type": "electric_scooter", "lat": 38.87665883333333, "is_reserved": 0, "is_disabled": 0, "fusion_lon": 0.0, "bike_id": "2ff25713a34b719132e06e392b571a1e", "lon": -77.00425183333333, "rental_uris": {"ios": "https://dc.lft.to/lastmile_qr_scan", "android": "https://dc.lft.to/lastmile_qr_scan"}}, {"name": "b98db79724edb72439b7389e1a87b310", "fusion_lat": 0.0, "type": "electric_bike", "lat": 38.92851133333333, "is_reserved": 0, "is_disabled": 0, "fusion_lon": 0.0, "bike_id": "b98db79724edb72439b7389e1a87b310", "lon": -77.106776, "rental_uris": {"ios": "https://dc.lft.to/lastmile_qr_scan", "android": "https://dc.lft.to/lastmile_qr_scan"}}, {"name": "06a45b3291ad622c716cce2e55789a29", "fusion_lat": 0.0, "type": "electric_scooter", "lat": 38.897308333333335, "is_reserved": 0, "is_disabled": 0, "fusion_lon": 0.0, "bike_id": "06a45b3291ad622c716cce2e55789a29", "lon": -77.04337116666666, "rental_uris": {"ios": "https://dc.lft.to/lastmile_qr_scan", "android": "https://dc.lft.to/lastmile_qr_scan"}}, {"name": "96e285da2fc1992d06dbcb69d868041c", "fusion_lat": 0.0, "type": "electric_scooter", "lat": 38.930582, "is_reserved": 0, "is_disabled": 0, "fusion_lon": 0.0, "bike_id": "96e285da2fc1992d06dbcb69d868041c", "lon": -77.02319916666667, "rental_uris": {"ios": "https://dc.lft.to/lastmile_qr_scan", "android": "https://dc.lft.to/lastmile_qr_scan"}}, {"name": "1a75eca136aac53aa303bba83e57303a", "fusion_lat": 0.0, "type": "electric_scooter", "lat": 38.90281216666666, "is_reserved": 0, "is_disabled": 0, "fusion_lon": 0.0, "bike_id": "1a75eca136aac53aa303bba83e57303a", "lon": -77.04264666666667, "rental_uris": {"ios": "https://dc.lft.to/lastmile_qr_scan", "android": "https://dc.lft.to/lastmile_qr_scan"}}, {"name": "a41979f1ee661c5c0d4f981da39ea496", "fusion_lat": 0.0, "type": "electric_scooter", "lat": 38.901696666666666, "is_reserved": 0, "is_disabled": 0, "fusion_lon": 0.0, "bike_id": "a41979f1ee661c5c0d4f981da39ea496", "lon": -77.02563316666667, "rental_uris": {"ios": "https://dc.lft.to/lastmile_qr_scan", "android": "https://dc.lft.to/lastmile_qr_scan"}}, {"name": "5d236ec3f1bd752cb1168b357b4e4003", "fusion_lat": 0.0, "type": "electric_scooter", "lat": 38.89734266666667, "is_reserved": 0, "is_disabled": 0, "fusion_lon": 0.0, "bike_id": "5d236ec3f1bd752cb1168b357b4e4003", "lon": -77.0476325, "rental_uris": {"ios": "https://dc.lft.to/lastmile_qr_scan", "android": "https://dc.lft.to/lastmile_qr_scan"}}, {"name": "70c4b58ff8c7c551cc05ac68c841b942", "fusion_lat": 0.0, "type": "electric_scooter", "lat": 38.92559116666666, "is_reserved": 0, "is_disabled": 0, "fusion_lon": 0.0, "bike_id": "70c4b58ff8c7c551cc05ac68c841b942", "lon": -77.06286183333333, "rental_uris": {"ios": "https://dc.lft.to/lastmile_qr_scan", "android": "https://dc.lft.to/lastmile_qr_scan"}}, {"name": "ec8d5ad72ea902c3b99fd4e827ff8ced", "fusion_lat": 0.0, "type": "electric_scooter", "lat": 38.88344766666667, "is_reserved": 0, "is_disabled": 0, "fusion_lon": 0.0, "bike_id": "ec8d5ad72ea902c3b99fd4e827ff8ced", "lon": -76.94930733333334, "rental_uris": {"ios": "https://dc.lft.to/lastmile_qr_scan", "android": "https://dc.lft.to/lastmile_qr_scan"}}, {"name": "1c13f417c22ed67587ff3c0d867422b6", "fusion_lat": 0.0, "type": "electric_scooter", "lat": 38.912554166666666, "is_reserved": 0, "is_disabled": 0, "fusion_lon": 0.0, "bike_id": "1c13f417c22ed67587ff3c0d867422b6", "lon": -77.00762616666667, "rental_uris": {"ios": "https://dc.lft.to/lastmile_qr_scan", "android": "https://dc.lft.to/lastmile_qr_scan"}}, {"name": "6ed825db63ee3ee118c0f0cc5c899506", "fusion_lat": 0.0, "type": "electric_scooter", "lat": 38.86373416666667, "is_reserved": 0, "is_disabled": 0, "fusion_lon": 0.0, "bike_id": "6ed825db63ee3ee118c0f0cc5c899506", "lon": -77.01359416666666, "rental_uris": {"ios": "https://dc.lft.to/lastmile_qr_scan", "android": "https://dc.lft.to/lastmile_qr_scan"}}, {"name": "8f6a19988c33b81fece219e87d3080c2", "fusion_lat": 0.0, "type": "electric_scooter", "lat": 38.912773666666666, "is_reserved": 0, "is_disabled": 0, "fusion_lon": 0.0, "bike_id": "8f6a19988c33b81fece219e87d3080c2", "lon": -77.02237566666666, "rental_uris": {"ios": "https://dc.lft.to/lastmile_qr_scan", "android": "https://dc.lft.to/lastmile_qr_scan"}}, {"name": "b673a5ba8da461706e3461425ec0601d", "fusion_lat": 0.0, "type": "electric_bike", "lat": 38.915399666666666, "is_reserved": 0, "is_disabled": 0, "fusion_lon": 0.0, "bike_id": "b673a5ba8da461706e3461425ec0601d", "lon": -77.03206266666666, "rental_uris": {"ios": "https://dc.lft.to/lastmile_qr_scan", "android": "https://dc.lft.to/lastmile_qr_scan"}}, {"name": "cb9a19b2ac581d57d4fa71ee1462592f", "fusion_lat": 0.0, "type": "electric_scooter", "lat": 38.88356616666667, "is_reserved": 0, "is_disabled": 0, "fusion_lon": 0.0, "bike_id": "cb9a19b2ac581d57d4fa71ee1462592f", "lon": -77.01987816666667, "rental_uris": {"ios": "https://dc.lft.to/lastmile_qr_scan", "android": "https://dc.lft.to/lastmile_qr_scan"}}, {"name": "1e63ca3f961cb761dcc706e0cb48dd2a", "fusion_lat": 0.0, "type": "electric_scooter", "lat": 38.897908666666666, "is_reserved": 0, "is_disabled": 0, "fusion_lon": 0.0, "bike_id": "1e63ca3f961cb761dcc706e0cb48dd2a", "lon": -77.02816016666667, "rental_uris": {"ios": "https://dc.lft.to/lastmile_qr_scan", "android": "https://dc.lft.to/lastmile_qr_scan"}}, {"name": "3e1479103f4ae8aa6415b777a0c221f2", "fusion_lat": 0.0, "type": "electric_scooter", "lat": 38.91418783333334, "is_reserved": 0, "is_disabled": 0, "fusion_lon": 0.0, "bike_id": "3e1479103f4ae8aa6415b777a0c221f2", "lon": -77.008865, "rental_uris": {"ios": "https://dc.lft.to/lastmile_qr_scan", "android": "https://dc.lft.to/lastmile_qr_scan"}}, {"name": "1755285c1de0f412cf0a36dede94d91c", "fusion_lat": 0.0, "type": "electric_scooter", "lat": 38.918005666666666, "is_reserved": 0, "is_disabled": 0, "fusion_lon": 0.0, "bike_id": "1755285c1de0f412cf0a36dede94d91c", "lon": -77.01013383333333, "rental_uris": {"ios": "https://dc.lft.to/lastmile_qr_scan", "android": "https://dc.lft.to/lastmile_qr_scan"}}, {"name": "c947bc1a4cdf3ed2bab0f51ba8a19b3d", "fusion_lat": 0.0, "type": "electric_scooter", "lat": 38.9029075, "is_reserved": 0, "is_disabled": 0, "fusion_lon": 0.0, "bike_id": "c947bc1a4cdf3ed2bab0f51ba8a19b3d", "lon": -77.034707, "rental_uris": {"ios": "https://dc.lft.to/lastmile_qr_scan", "android": "https://dc.lft.to/lastmile_qr_scan"}}, {"name": "74c8068dfed82f3b1ac33c2fd82e29b4", "fusion_lat": 0.0, "type": "electric_scooter", "lat": 38.912493, "is_reserved": 0, "is_disabled": 0, "fusion_lon": 0.0, "bike_id": "74c8068dfed82f3b1ac33c2fd82e29b4", "lon": -77.0815755, "rental_uris": {"ios": "https://dc.lft.to/lastmile_qr_scan", "android": "https://dc.lft.to/lastmile_qr_scan"}}, {"name": "6ee2a6dcdc68b75d702533806af76be3", "fusion_lat": 0.0, "type": "electric_scooter", "lat": 38.880659333333334, "is_reserved": 0, "is_disabled": 0, "fusion_lon": 0.0, "bike_id": "6ee2a6dcdc68b75d702533806af76be3", "lon": -76.935338, "rental_uris": {"ios": "https://dc.lft.to/lastmile_qr_scan", "android": "https://dc.lft.to/lastmile_qr_scan"}}, {"name": "d1b0f50bce88ec4862b83df8a5d6c5a0", "fusion_lat": 0.0, "type": "electric_bike", "lat": 38.920074166666666, "is_reserved": 0, "is_disabled": 0, "fusion_lon": 0.0, "bike_id": "d1b0f50bce88ec4862b83df8a5d6c5a0", "lon": -76.97491083333334, "rental_uris": {"ios": "https://dc.lft.to/lastmile_qr_scan", "android": "https://dc.lft.to/lastmile_qr_scan"}}, {"name": "256bfa77e54ad362fdf5c2f7dd9582fc", "fusion_lat": 0.0, "type": "electric_scooter", "lat": 38.89589933333333, "is_reserved": 0, "is_disabled": 0, "fusion_lon": 0.0, "bike_id": "256bfa77e54ad362fdf5c2f7dd9582fc", "lon": -76.937185, "rental_uris": {"ios": "https://dc.lft.to/lastmile_qr_scan", "android": "https://dc.lft.to/lastmile_qr_scan"}}, {"name": "00b5fd8a34f6a06fd3c49924255f488c", "fusion_lat": 0.0, "type": "electric_scooter", "lat": 38.90672216666667, "is_reserved": 0, "is_disabled": 0, "fusion_lon": 0.0, "bike_id": "00b5fd8a34f6a06fd3c49924255f488c", "lon": -77.02074266666666, "rental_uris": {"ios": "https://dc.lft.to/lastmile_qr_scan", "android": "https://dc.lft.to/lastmile_qr_scan"}}, {"name": "c6863cad0d58128a6556958a11debdcc", "fusion_lat": 0.0, "type": "electric_scooter", "lat": 38.85615716666667, "is_reserved": 0, "is_disabled": 0, "fusion_lon": 0.0, "bike_id": "c6863cad0d58128a6556958a11debdcc", "lon": -76.98018, "rental_uris": {"ios": "https://dc.lft.to/lastmile_qr_scan", "android": "https://dc.lft.to/lastmile_qr_scan"}}, {"name": "71669becc8092e600e198644a8af9090", "fusion_lat": 0.0, "type": "electric_scooter", "lat": 38.90454366666667, "is_reserved": 0, "is_disabled": 0, "fusion_lon": 0.0, "bike_id": "71669becc8092e600e198644a8af9090", "lon": -76.99619383333334, "rental_uris": {"ios": "https://dc.lft.to/lastmile_qr_scan", "android": "https://dc.lft.to/lastmile_qr_scan"}}, {"name": "cdb8c593cab7685165f36a40ea7ccd6c", "fusion_lat": 0.0, "type": "electric_scooter", "lat": 38.91630083333333, "is_reserved": 0, "is_disabled": 0, "fusion_lon": 0.0, "bike_id": "cdb8c593cab7685165f36a40ea7ccd6c", "lon": -77.01089633333333, "rental_uris": {"ios": "https://dc.lft.to/lastmile_qr_scan", "android": "https://dc.lft.to/lastmile_qr_scan"}}, {"name": "adab130c3ead28430a5bd1fb0a6cc9bf", "fusion_lat": 0.0, "type": "electric_scooter", "lat": 38.8848675, "is_reserved": 0, "is_disabled": 0, "fusion_lon": 0.0, "bike_id": "adab130c3ead28430a5bd1fb0a6cc9bf", "lon": -77.02200683333334, "rental_uris": {"ios": "https://dc.lft.to/lastmile_qr_scan", "android": "https://dc.lft.to/lastmile_qr_scan"}}, {"name": "0c08c0c6268ec470e8f5a49cef14e9f6", "fusion_lat": 0.0, "type": "electric_scooter", "lat": 38.882564, "is_reserved": 0, "is_disabled": 0, "fusion_lon": 0.0, "bike_id": "0c08c0c6268ec470e8f5a49cef14e9f6", "lon": -77.00624683333334, "rental_uris": {"ios": "https://dc.lft.to/lastmile_qr_scan", "android": "https://dc.lft.to/lastmile_qr_scan"}}, {"name": "211b2ec186d802e66e9a6fb24b257b01", "fusion_lat": 0.0, "type": "electric_scooter", "lat": 38.912720166666666, "is_reserved": 0, "is_disabled": 0, "fusion_lon": 0.0, "bike_id": "211b2ec186d802e66e9a6fb24b257b01", "lon": -77.06086683333334, "rental_uris": {"ios": "https://dc.lft.to/lastmile_qr_scan", "android": "https://dc.lft.to/lastmile_qr_scan"}}, {"name": "84d20c838e2bcf0b3e5b4822cc8d7a18", "fusion_lat": 0.0, "type": "electric_scooter", "lat": 38.91704266666667, "is_reserved": 0, "is_disabled": 0, "fusion_lon": 0.0, "bike_id": "84d20c838e2bcf0b3e5b4822cc8d7a18", "lon": -77.01198933333333, "rental_uris": {"ios": "https://dc.lft.to/lastmile_qr_scan", "android": "https://dc.lft.to/lastmile_qr_scan"}}, {"name": "09d3903c1d1a8078ab06b38fe679704c", "fusion_lat": 0.0, "type": "electric_scooter", "lat": 38.921166, "is_reserved": 0, "is_disabled": 0, "fusion_lon": 0.0, "bike_id": "09d3903c1d1a8078ab06b38fe679704c", "lon": -77.0419815, "rental_uris": {"ios": "https://dc.lft.to/lastmile_qr_scan", "android": "https://dc.lft.to/lastmile_qr_scan"}}, {"name": "43f908b70633b80b8d9ad6a70c4e5acd", "fusion_lat": 0.0, "type": "electric_bike", "lat": 38.85433583333333, "is_reserved": 0, "is_disabled": 0, "fusion_lon": 0.0, "bike_id": "43f908b70633b80b8d9ad6a70c4e5acd", "lon": -76.90967483333333, "rental_uris": {"ios": "https://dc.lft.to/lastmile_qr_scan", "android": "https://dc.lft.to/lastmile_qr_scan"}}, {"name": "8e8eb7642770872692ba3baf0bfa5289", "fusion_lat": 0.0, "type": "electric_scooter", "lat": 38.935296, "is_reserved": 0, "is_disabled": 0, "fusion_lon": 0.0, "bike_id": "8e8eb7642770872692ba3baf0bfa5289", "lon": -77.0340735, "rental_uris": {"ios": "https://dc.lft.to/lastmile_qr_scan", "android": "https://dc.lft.to/lastmile_qr_scan"}}, {"name": "b6f3f8eb1d624415b6fd4ffff84c2825", "fusion_lat": 0.0, "type": "electric_scooter", "lat": 38.876633, "is_reserved": 0, "is_disabled": 0, "fusion_lon": 0.0, "bike_id": "b6f3f8eb1d624415b6fd4ffff84c2825", "lon": -77.00067266666667, "rental_uris": {"ios": "https://dc.lft.to/lastmile_qr_scan", "android": "https://dc.lft.to/lastmile_qr_scan"}}, {"name": "f8b62d69dbc958424ba2e86be4f61022", "fusion_lat": 0.0, "type": "electric_scooter", "lat": 38.9299575, "is_reserved": 0, "is_disabled": 0, "fusion_lon": 0.0, "bike_id": "f8b62d69dbc958424ba2e86be4f61022", "lon": -77.02306383333334, "rental_uris": {"ios": "https://dc.lft.to/lastmile_qr_scan", "android": "https://dc.lft.to/lastmile_qr_scan"}}, {"name": "2ccb6d238e9bcb45b586815abdb8977d", "fusion_lat": 0.0, "type": "electric_scooter", "lat": 38.90671183333333, "is_reserved": 0, "is_disabled": 0, "fusion_lon": 0.0, "bike_id": "2ccb6d238e9bcb45b586815abdb8977d", "lon": -77.02703266666667, "rental_uris": {"ios": "https://dc.lft.to/lastmile_qr_scan", "android": "https://dc.lft.to/lastmile_qr_scan"}}, {"name": "7a258708ba1491da713e5e7289f1fe98", "fusion_lat": 0.0, "type": "electric_scooter", "lat": 38.89524383333333, "is_reserved": 0, "is_disabled": 0, "fusion_lon": 0.0, "bike_id": "7a258708ba1491da713e5e7289f1fe98", "lon": -76.94891216666667, "rental_uris": {"ios": "https://dc.lft.to/lastmile_qr_scan", "android": "https://dc.lft.to/lastmile_qr_scan"}}, {"name": "65957e621ee9e30dfa195353e157f71b", "fusion_lat": 0.0, "type": "electric_scooter", "lat": 38.90250316666667, "is_reserved": 0, "is_disabled": 0, "fusion_lon": 0.0, "bike_id": "65957e621ee9e30dfa195353e157f71b", "lon": -77.01730966666666, "rental_uris": {"ios": "https://dc.lft.to/lastmile_qr_scan", "android": "https://dc.lft.to/lastmile_qr_scan"}}, {"name": "8705ccb4ad96f008ab913f388b25b5cd", "fusion_lat": 0.0, "type": "electric_bike", "lat": 38.8104515, "is_reserved": 0, "is_disabled": 0, "fusion_lon": 0.0, "bike_id": "8705ccb4ad96f008ab913f388b25b5cd", "lon": -77.08509616666667, "rental_uris": {"ios": "https://dc.lft.to/lastmile_qr_scan", "android": "https://dc.lft.to/lastmile_qr_scan"}}, {"name": "392074bd0e89cf395b31089d80257393", "fusion_lat": 0.0, "type": "electric_scooter", "lat": 38.89228766666667, "is_reserved": 0, "is_disabled": 0, "fusion_lon": 0.0, "bike_id": "392074bd0e89cf395b31089d80257393", "lon": -77.05001283333333, "rental_uris": {"ios": "https://dc.lft.to/lastmile_qr_scan", "android": "https://dc.lft.to/lastmile_qr_scan"}}, {"name": "ef43b23eac0761ea4428c0dc3066a15f", "fusion_lat": 0.0, "type": "electric_scooter", "lat": 38.916067, "is_reserved": 0, "is_disabled": 0, "fusion_lon": 0.0, "bike_id": "ef43b23eac0761ea4428c0dc3066a15f", "lon": -77.03855033333333, "rental_uris": {"ios": "https://dc.lft.to/lastmile_qr_scan", "android": "https://dc.lft.to/lastmile_qr_scan"}}, {"name": "f2630f10fe5760ca921d0fb40d1be962", "fusion_lat": 0.0, "type": "electric_scooter", "lat": 38.90747316666667, "is_reserved": 0, "is_disabled": 0, "fusion_lon": 0.0, "bike_id": "f2630f10fe5760ca921d0fb40d1be962", "lon": -77.00765316666667, "rental_uris": {"ios": "https://dc.lft.to/lastmile_qr_scan", "android": "https://dc.lft.to/lastmile_qr_scan"}}, {"name": "b42aac6f3de713cf57673de03257570b", "fusion_lat": 0.0, "type": "electric_scooter", "lat": 38.90106633333333, "is_reserved": 0, "is_disabled": 0, "fusion_lon": 0.0, "bike_id": "b42aac6f3de713cf57673de03257570b", "lon": -77.02015483333334, "rental_uris": {"ios": "https://dc.lft.to/lastmile_qr_scan", "android": "https://dc.lft.to/lastmile_qr_scan"}}, {"name": "bb8cd8dbbad095f0084c0d305a2548aa", "fusion_lat": 0.0, "type": "electric_scooter", "lat": 38.90239733333333, "is_reserved": 0, "is_disabled": 0, "fusion_lon": 0.0, "bike_id": "bb8cd8dbbad095f0084c0d305a2548aa", "lon": -77.0020115, "rental_uris": {"ios": "https://dc.lft.to/lastmile_qr_scan", "android": "https://dc.lft.to/lastmile_qr_scan"}}, {"name": "64ddf6a086b0d5e55e168f26b21788d2", "fusion_lat": 0.0, "type": "electric_scooter", "lat": 38.8998595, "is_reserved": 0, "is_disabled": 0, "fusion_lon": 0.0, "bike_id": "64ddf6a086b0d5e55e168f26b21788d2", "lon": -77.02164266666666, "rental_uris": {"ios": "https://dc.lft.to/lastmile_qr_scan", "android": "https://dc.lft.to/lastmile_qr_scan"}}, {"name": "442eab9c4e91fbf8425263b17a23cae6", "fusion_lat": 0.0, "type": "electric_scooter", "lat": 38.9360415, "is_reserved": 0, "is_disabled": 0, "fusion_lon": 0.0, "bike_id": "442eab9c4e91fbf8425263b17a23cae6", "lon": -77.05592566666667, "rental_uris": {"ios": "https://dc.lft.to/lastmile_qr_scan", "android": "https://dc.lft.to/lastmile_qr_scan"}}, {"name": "13cd687bd9d25c3d605f53c98479ee08", "fusion_lat": 0.0, "type": "electric_scooter", "lat": 38.90638416666667, "is_reserved": 0, "is_disabled": 0, "fusion_lon": 0.0, "bike_id": "13cd687bd9d25c3d605f53c98479ee08", "lon": -77.01398766666667, "rental_uris": {"ios": "https://dc.lft.to/lastmile_qr_scan", "android": "https://dc.lft.to/lastmile_qr_scan"}}, {"name": "344e26e35a9cac529cbf39046b81fd65", "fusion_lat": 0.0, "type": "electric_scooter", "lat": 38.90868366666667, "is_reserved": 0, "is_disabled": 0, "fusion_lon": 0.0, "bike_id": "344e26e35a9cac529cbf39046b81fd65", "lon": -77.08591133333333, "rental_uris": {"ios": "https://dc.lft.to/lastmile_qr_scan", "android": "https://dc.lft.to/lastmile_qr_scan"}}, {"name": "5261b5d18fae90e70234f7a98a399ac7", "fusion_lat": 0.0, "type": "electric_scooter", "lat": 38.938754, "is_reserved": 0, "is_disabled": 0, "fusion_lon": 0.0, "bike_id": "5261b5d18fae90e70234f7a98a399ac7", "lon": -77.02473333333333, "rental_uris": {"ios": "https://dc.lft.to/lastmile_qr_scan", "android": "https://dc.lft.to/lastmile_qr_scan"}}, {"name": "489b2780367bf3dc82b91a427950753a", "fusion_lat": 0.0, "type": "electric_scooter", "lat": 38.905438, "is_reserved": 0, "is_disabled": 0, "fusion_lon": 0.0, "bike_id": "489b2780367bf3dc82b91a427950753a", "lon": -77.02201666666667, "rental_uris": {"ios": "https://dc.lft.to/lastmile_qr_scan", "android": "https://dc.lft.to/lastmile_qr_scan"}}, {"name": "d24a342716190641b3ff06b2c77afe7e", "fusion_lat": 0.0, "type": "electric_scooter", "lat": 38.880148, "is_reserved": 0, "is_disabled": 0, "fusion_lon": 0.0, "bike_id": "d24a342716190641b3ff06b2c77afe7e", "lon": -77.0057375, "rental_uris": {"ios": "https://dc.lft.to/lastmile_qr_scan", "android": "https://dc.lft.to/lastmile_qr_scan"}}, {"name": "e983edc2aa8686eb68c60cccfdda45f1", "fusion_lat": 0.0, "type": "electric_scooter", "lat": 38.89746316666667, "is_reserved": 0, "is_disabled": 0, "fusion_lon": 0.0, "bike_id": "e983edc2aa8686eb68c60cccfdda45f1", "lon": -77.02692483333334, "rental_uris": {"ios": "https://dc.lft.to/lastmile_qr_scan", "android": "https://dc.lft.to/lastmile_qr_scan"}}, {"name": "b28200026e7360d94093bb22566adf35", "fusion_lat": 0.0, "type": "electric_bike", "lat": 38.967583, "is_reserved": 0, "is_disabled": 0, "fusion_lon": 0.0, "bike_id": "b28200026e7360d94093bb22566adf35", "lon": -77.09163666666667, "rental_uris": {"ios": "https://dc.lft.to/lastmile_qr_scan", "android": "https://dc.lft.to/lastmile_qr_scan"}}, {"name": "ea76daa4d2512bfababb6a8dfd58ba8e", "fusion_lat": 0.0, "type": "electric_scooter", "lat": 38.88745133333333, "is_reserved": 0, "is_disabled": 0, "fusion_lon": 0.0, "bike_id": "ea76daa4d2512bfababb6a8dfd58ba8e", "lon": -77.01542266666667, "rental_uris": {"ios": "https://dc.lft.to/lastmile_qr_scan", "android": "https://dc.lft.to/lastmile_qr_scan"}}, {"name": "d5b36600b4ac2fcb4393c7b0aa180d1a", "fusion_lat": 0.0, "type": "electric_bike", "lat": 38.86162233333334, "is_reserved": 0, "is_disabled": 0, "fusion_lon": 0.0, "bike_id": "d5b36600b4ac2fcb4393c7b0aa180d1a", "lon": -77.130948, "rental_uris": {"ios": "https://dc.lft.to/lastmile_qr_scan", "android": "https://dc.lft.to/lastmile_qr_scan"}}, {"name": "5b8822754e2199355cc5412e5dd0272e", "fusion_lat": 0.0, "type": "electric_scooter", "lat": 38.892453333333336, "is_reserved": 0, "is_disabled": 0, "fusion_lon": 0.0, "bike_id": "5b8822754e2199355cc5412e5dd0272e", "lon": -77.01781466666667, "rental_uris": {"ios": "https://dc.lft.to/lastmile_qr_scan", "android": "https://dc.lft.to/lastmile_qr_scan"}}, {"name": "73d4d0864c66b60aa4e820ef196de204", "fusion_lat": 0.0, "type": "electric_scooter", "lat": 38.90227766666667, "is_reserved": 0, "is_disabled": 0, "fusion_lon": 0.0, "bike_id": "73d4d0864c66b60aa4e820ef196de204", "lon": -76.97414183333333, "rental_uris": {"ios": "https://dc.lft.to/lastmile_qr_scan", "android": "https://dc.lft.to/lastmile_qr_scan"}}, {"name": "1a22e95056b62ffa001641acb665d0e5", "fusion_lat": 0.0, "type": "electric_scooter", "lat": 38.908207166666664, "is_reserved": 0, "is_disabled": 0, "fusion_lon": 0.0, "bike_id": "1a22e95056b62ffa001641acb665d0e5", "lon": -76.99714916666667, "rental_uris": {"ios": "https://dc.lft.to/lastmile_qr_scan", "android": "https://dc.lft.to/lastmile_qr_scan"}}, {"name": "f4cdf9065321bae4045cb8dd5797fe34", "fusion_lat": 0.0, "type": "electric_scooter", "lat": 38.91181866666667, "is_reserved": 0, "is_disabled": 0, "fusion_lon": 0.0, "bike_id": "f4cdf9065321bae4045cb8dd5797fe34", "lon": -77.0446225, "rental_uris": {"ios": "https://dc.lft.to/lastmile_qr_scan", "android": "https://dc.lft.to/lastmile_qr_scan"}}, {"name": "79489838bccbc870587b721ff8cc0c72", "fusion_lat": 0.0, "type": "electric_scooter", "lat": 38.9011225, "is_reserved": 0, "is_disabled": 0, "fusion_lon": 0.0, "bike_id": "79489838bccbc870587b721ff8cc0c72", "lon": -77.03989616666667, "rental_uris": {"ios": "https://dc.lft.to/lastmile_qr_scan", "android": "https://dc.lft.to/lastmile_qr_scan"}}, {"name": "a474ef70420fcc7231de9ac5eb312953", "fusion_lat": 0.0, "type": "electric_scooter", "lat": 38.92074266666667, "is_reserved": 0, "is_disabled": 0, "fusion_lon": 0.0, "bike_id": "a474ef70420fcc7231de9ac5eb312953", "lon": -77.02395433333334, "rental_uris": {"ios": "https://dc.lft.to/lastmile_qr_scan", "android": "https://dc.lft.to/lastmile_qr_scan"}}, {"name": "03285fa2803910f9636abc88c9b9e86c", "fusion_lat": 0.0, "type": "electric_scooter", "lat": 38.914031333333334, "is_reserved": 0, "is_disabled": 0, "fusion_lon": 0.0, "bike_id": "03285fa2803910f9636abc88c9b9e86c", "lon": -77.00803983333333, "rental_uris": {"ios": "https://dc.lft.to/lastmile_qr_scan", "android": "https://dc.lft.to/lastmile_qr_scan"}}, {"name": "afaadba03744f0b5c14d377658d7515b", "fusion_lat": 0.0, "type": "electric_scooter", "lat": 38.883453333333335, "is_reserved": 0, "is_disabled": 0, "fusion_lon": 0.0, "bike_id": "afaadba03744f0b5c14d377658d7515b", "lon": -77.023247, "rental_uris": {"ios": "https://dc.lft.to/lastmile_qr_scan", "android": "https://dc.lft.to/lastmile_qr_scan"}}, {"name": "cd0c7e5fdbf6d358580ec63b024d78d3", "fusion_lat": 0.0, "type": "electric_scooter", "lat": 38.921797166666664, "is_reserved": 0, "is_disabled": 0, "fusion_lon": 0.0, "bike_id": "cd0c7e5fdbf6d358580ec63b024d78d3", "lon": -77.02663583333333, "rental_uris": {"ios": "https://dc.lft.to/lastmile_qr_scan", "android": "https://dc.lft.to/lastmile_qr_scan"}}, {"name": "8fd3869091713fbc3a7154dec83599ab", "fusion_lat": 0.0, "type": "electric_bike", "lat": 38.95956483333333, "is_reserved": 0, "is_disabled": 0, "fusion_lon": 0.0, "bike_id": "8fd3869091713fbc3a7154dec83599ab", "lon": -77.1008605, "rental_uris": {"ios": "https://dc.lft.to/lastmile_qr_scan", "android": "https://dc.lft.to/lastmile_qr_scan"}}, {"name": "d845ed38b7fe6cbc4174c621abd18d8e", "fusion_lat": 0.0, "type": "electric_scooter", "lat": 38.91328333333333, "is_reserved": 0, "is_disabled": 0, "fusion_lon": 0.0, "bike_id": "d845ed38b7fe6cbc4174c621abd18d8e", "lon": -77.04534, "rental_uris": {"ios": "https://dc.lft.to/lastmile_qr_scan", "android": "https://dc.lft.to/lastmile_qr_scan"}}, {"name": "62c8b7d8ba876ecc8617aa0a5db7fd9f", "fusion_lat": 0.0, "type": "electric_scooter", "lat": 38.901108666666666, "is_reserved": 0, "is_disabled": 0, "fusion_lon": 0.0, "bike_id": "62c8b7d8ba876ecc8617aa0a5db7fd9f", "lon": -77.03175033333333, "rental_uris": {"ios": "https://dc.lft.to/lastmile_qr_scan", "android": "https://dc.lft.to/lastmile_qr_scan"}}, {"name": "f105bf17e1d84d2bea93c209642f795e", "fusion_lat": 0.0, "type": "electric_scooter", "lat": 38.90459533333333, "is_reserved": 0, "is_disabled": 0, "fusion_lon": 0.0, "bike_id": "f105bf17e1d84d2bea93c209642f795e", "lon": -77.0142785, "rental_uris": {"ios": "https://dc.lft.to/lastmile_qr_scan", "android": "https://dc.lft.to/lastmile_qr_scan"}}, {"name": "b8a936c2e39872c631fd8bb5f9629cd7", "fusion_lat": 0.0, "type": "electric_scooter", "lat": 38.918409, "is_reserved": 0, "is_disabled": 0, "fusion_lon": 0.0, "bike_id": "b8a936c2e39872c631fd8bb5f9629cd7", "lon": -77.0269425, "rental_uris": {"ios": "https://dc.lft.to/lastmile_qr_scan", "android": "https://dc.lft.to/lastmile_qr_scan"}}, {"name": "4506c3a601539161d0a3bfe6359e37f8", "fusion_lat": 0.0, "type": "electric_scooter", "lat": 38.91263416666666, "is_reserved": 0, "is_disabled": 0, "fusion_lon": 0.0, "bike_id": "4506c3a601539161d0a3bfe6359e37f8", "lon": -77.00922733333333, "rental_uris": {"ios": "https://dc.lft.to/lastmile_qr_scan", "android": "https://dc.lft.to/lastmile_qr_scan"}}, {"name": "62d958ba89dec1624616c45f8baa3b55", "fusion_lat": 0.0, "type": "electric_scooter", "lat": 38.874265, "is_reserved": 0, "is_disabled": 0, "fusion_lon": 0.0, "bike_id": "62d958ba89dec1624616c45f8baa3b55", "lon": -77.00576033333333, "rental_uris": {"ios": "https://dc.lft.to/lastmile_qr_scan", "android": "https://dc.lft.to/lastmile_qr_scan"}}, {"name": "9be25190c79cd2dc83597e250208e0c4", "fusion_lat": 0.0, "type": "electric_bike", "lat": 38.92906966666666, "is_reserved": 0, "is_disabled": 0, "fusion_lon": 0.0, "bike_id": "9be25190c79cd2dc83597e250208e0c4", "lon": -77.02381266666667, "rental_uris": {"ios": "https://dc.lft.to/lastmile_qr_scan", "android": "https://dc.lft.to/lastmile_qr_scan"}}, {"name": "c1361cf81905029abb09de3f39e024e5", "fusion_lat": 0.0, "type": "electric_bike", "lat": 38.85793316666667, "is_reserved": 0, "is_disabled": 0, "fusion_lon": 0.0, "bike_id": "c1361cf81905029abb09de3f39e024e5", "lon": -76.98742083333333, "rental_uris": {"ios": "https://dc.lft.to/lastmile_qr_scan", "android": "https://dc.lft.to/lastmile_qr_scan"}}, {"name": "eef6a5de2634385ace86dcdc475aa8f7", "fusion_lat": 0.0, "type": "electric_scooter", "lat": 38.9077295, "is_reserved": 0, "is_disabled": 0, "fusion_lon": 0.0, "bike_id": "eef6a5de2634385ace86dcdc475aa8f7", "lon": -77.03546466666667, "rental_uris": {"ios": "https://dc.lft.to/lastmile_qr_scan", "android": "https://dc.lft.to/lastmile_qr_scan"}}, {"name": "77ab4dec25e96d681dd397ce63b920dc", "fusion_lat": 0.0, "type": "electric_scooter", "lat": 38.898331, "is_reserved": 0, "is_disabled": 0, "fusion_lon": 0.0, "bike_id": "77ab4dec25e96d681dd397ce63b920dc", "lon": -77.025947, "rental_uris": {"ios": "https://dc.lft.to/lastmile_qr_scan", "android": "https://dc.lft.to/lastmile_qr_scan"}}, {"name": "feb99e549942d48bf3776470b840f1e5", "fusion_lat": 0.0, "type": "electric_scooter", "lat": 38.91623516666667, "is_reserved": 0, "is_disabled": 0, "fusion_lon": 0.0, "bike_id": "feb99e549942d48bf3776470b840f1e5", "lon": -77.02159883333333, "rental_uris": {"ios": "https://dc.lft.to/lastmile_qr_scan", "android": "https://dc.lft.to/lastmile_qr_scan"}}, {"name": "efc328b95121ead8a3ed55a6b4ccc837", "fusion_lat": 0.0, "type": "electric_scooter", "lat": 38.921395, "is_reserved": 0, "is_disabled": 0, "fusion_lon": 0.0, "bike_id": "efc328b95121ead8a3ed55a6b4ccc837", "lon": -77.04024466666667, "rental_uris": {"ios": "https://dc.lft.to/lastmile_qr_scan", "android": "https://dc.lft.to/lastmile_qr_scan"}}, {"name": "2190c1358f4b7120ca8ed99b31fa9bca", "fusion_lat": 0.0, "type": "electric_scooter", "lat": 38.910420333333334, "is_reserved": 0, "is_disabled": 0, "fusion_lon": 0.0, "bike_id": "2190c1358f4b7120ca8ed99b31fa9bca", "lon": -77.043691, "rental_uris": {"ios": "https://dc.lft.to/lastmile_qr_scan", "android": "https://dc.lft.to/lastmile_qr_scan"}}, {"name": "9958e83d0eb7a2e418a0c2707bcaa85e", "fusion_lat": 0.0, "type": "electric_scooter", "lat": 38.9041535, "is_reserved": 0, "is_disabled": 0, "fusion_lon": 0.0, "bike_id": "9958e83d0eb7a2e418a0c2707bcaa85e", "lon": -76.97889933333333, "rental_uris": {"ios": "https://dc.lft.to/lastmile_qr_scan", "android": "https://dc.lft.to/lastmile_qr_scan"}}, {"name": "b23369d0fbc07ff7747a5eb312216915", "fusion_lat": 0.0, "type": "electric_scooter", "lat": 38.921271, "is_reserved": 0, "is_disabled": 0, "fusion_lon": 0.0, "bike_id": "b23369d0fbc07ff7747a5eb312216915", "lon": -77.04214283333333, "rental_uris": {"ios": "https://dc.lft.to/lastmile_qr_scan", "android": "https://dc.lft.to/lastmile_qr_scan"}}, {"name": "4fffc1f6dc6c7d04f78bc1fe2a395b8f", "fusion_lat": 0.0, "type": "electric_scooter", "lat": 38.918451166666664, "is_reserved": 0, "is_disabled": 0, "fusion_lon": 0.0, "bike_id": "4fffc1f6dc6c7d04f78bc1fe2a395b8f", "lon": -77.02599583333334, "rental_uris": {"ios": "https://dc.lft.to/lastmile_qr_scan", "android": "https://dc.lft.to/lastmile_qr_scan"}}, {"name": "8a83fd61926cf34669002766534fe9b4", "fusion_lat": 0.0, "type": "electric_scooter", "lat": 38.907114, "is_reserved": 0, "is_disabled": 0, "fusion_lon": 0.0, "bike_id": "8a83fd61926cf34669002766534fe9b4", "lon": -77.00540516666666, "rental_uris": {"ios": "https://dc.lft.to/lastmile_qr_scan", "android": "https://dc.lft.to/lastmile_qr_scan"}}, {"name": "eae85d115a5c11a71ffc0987e0574ae2", "fusion_lat": 0.0, "type": "electric_scooter", "lat": 38.91188616666667, "is_reserved": 0, "is_disabled": 0, "fusion_lon": 0.0, "bike_id": "eae85d115a5c11a71ffc0987e0574ae2", "lon": -77.03259516666667, "rental_uris": {"ios": "https://dc.lft.to/lastmile_qr_scan", "android": "https://dc.lft.to/lastmile_qr_scan"}}, {"name": "929ebd6172395bddf84de1d402622af5", "fusion_lat": 0.0, "type": "electric_scooter", "lat": 38.885064666666665, "is_reserved": 0, "is_disabled": 0, "fusion_lon": 0.0, "bike_id": "929ebd6172395bddf84de1d402622af5", "lon": -77.00567566666666, "rental_uris": {"ios": "https://dc.lft.to/lastmile_qr_scan", "android": "https://dc.lft.to/lastmile_qr_scan"}}, {"name": "0d37ceb44ae841c82db0c9a29442271b", "fusion_lat": 0.0, "type": "electric_scooter", "lat": 38.912539, "is_reserved": 0, "is_disabled": 0, "fusion_lon": 0.0, "bike_id": "0d37ceb44ae841c82db0c9a29442271b", "lon": -77.03864366666667, "rental_uris": {"ios": "https://dc.lft.to/lastmile_qr_scan", "android": "https://dc.lft.to/lastmile_qr_scan"}}, {"name": "538012375cda5feb92ec972f4795fe23", "fusion_lat": 0.0, "type": "electric_scooter", "lat": 38.897602, "is_reserved": 0, "is_disabled": 0, "fusion_lon": 0.0, "bike_id": "538012375cda5feb92ec972f4795fe23", "lon": -77.02602433333334, "rental_uris": {"ios": "https://dc.lft.to/lastmile_qr_scan", "android": "https://dc.lft.to/lastmile_qr_scan"}}, {"name": "7f516f8d0de189d3de1ff5b7bf2f956f", "fusion_lat": 0.0, "type": "electric_scooter", "lat": 38.931050666666664, "is_reserved": 0, "is_disabled": 0, "fusion_lon": 0.0, "bike_id": "7f516f8d0de189d3de1ff5b7bf2f956f", "lon": -77.03513416666667, "rental_uris": {"ios": "https://dc.lft.to/lastmile_qr_scan", "android": "https://dc.lft.to/lastmile_qr_scan"}}, {"name": "33ccfaac1c24862e382cd6d7900ea984", "fusion_lat": 0.0, "type": "electric_scooter", "lat": 38.91337566666667, "is_reserved": 0, "is_disabled": 0, "fusion_lon": 0.0, "bike_id": "33ccfaac1c24862e382cd6d7900ea984", "lon": -77.042312, "rental_uris": {"ios": "https://dc.lft.to/lastmile_qr_scan", "android": "https://dc.lft.to/lastmile_qr_scan"}}, {"name": "3b90c7af2fed3d64ff1f14e5ac8a17cc", "fusion_lat": 0.0, "type": "electric_bike", "lat": 38.91417583333333, "is_reserved": 0, "is_disabled": 0, "fusion_lon": 0.0, "bike_id": "3b90c7af2fed3d64ff1f14e5ac8a17cc", "lon": -77.03168083333334, "rental_uris": {"ios": "https://dc.lft.to/lastmile_qr_scan", "android": "https://dc.lft.to/lastmile_qr_scan"}}, {"name": "7fa0f5c7755f4aff2c3c6fb418770c59", "fusion_lat": 0.0, "type": "electric_scooter", "lat": 38.908537333333335, "is_reserved": 0, "is_disabled": 0, "fusion_lon": 0.0, "bike_id": "7fa0f5c7755f4aff2c3c6fb418770c59", "lon": -76.99796516666666, "rental_uris": {"ios": "https://dc.lft.to/lastmile_qr_scan", "android": "https://dc.lft.to/lastmile_qr_scan"}}, {"name": "c80b670a76988f0f1582c1eda8d0085d", "fusion_lat": 0.0, "type": "electric_scooter", "lat": 38.91121783333333, "is_reserved": 0, "is_disabled": 0, "fusion_lon": 0.0, "bike_id": "c80b670a76988f0f1582c1eda8d0085d", "lon": -77.04772516666667, "rental_uris": {"ios": "https://dc.lft.to/lastmile_qr_scan", "android": "https://dc.lft.to/lastmile_qr_scan"}}, {"name": "aedad7a166632514ceb20fdf367ba333", "fusion_lat": 0.0, "type": "electric_scooter", "lat": 38.89550833333333, "is_reserved": 0, "is_disabled": 0, "fusion_lon": 0.0, "bike_id": "aedad7a166632514ceb20fdf367ba333", "lon": -76.94879533333334, "rental_uris": {"ios": "https://dc.lft.to/lastmile_qr_scan", "android": "https://dc.lft.to/lastmile_qr_scan"}}, {"name": "e080782cb7f9e9b388332af155a97ab5", "fusion_lat": 0.0, "type": "electric_scooter", "lat": 38.9270915, "is_reserved": 0, "is_disabled": 0, "fusion_lon": 0.0, "bike_id": "e080782cb7f9e9b388332af155a97ab5", "lon": -77.03732466666666, "rental_uris": {"ios": "https://dc.lft.to/lastmile_qr_scan", "android": "https://dc.lft.to/lastmile_qr_scan"}}, {"name": "5e52308280982052aee42e9a863d6f98", "fusion_lat": 0.0, "type": "electric_scooter", "lat": 38.862480833333336, "is_reserved": 0, "is_disabled": 0, "fusion_lon": 0.0, "bike_id": "5e52308280982052aee42e9a863d6f98", "lon": -76.99534566666667, "rental_uris": {"ios": "https://dc.lft.to/lastmile_qr_scan", "android": "https://dc.lft.to/lastmile_qr_scan"}}, {"name": "a6930aa21dac05f3521d2afbac9ccd1f", "fusion_lat": 0.0, "type": "electric_scooter", "lat": 38.90466633333333, "is_reserved": 0, "is_disabled": 0, "fusion_lon": 0.0, "bike_id": "a6930aa21dac05f3521d2afbac9ccd1f", "lon": -77.06006766666667, "rental_uris": {"ios": "https://dc.lft.to/lastmile_qr_scan", "android": "https://dc.lft.to/lastmile_qr_scan"}}, {"name": "d12de60c419ab682003eefac9f6409a6", "fusion_lat": 0.0, "type": "electric_scooter", "lat": 38.90726866666667, "is_reserved": 0, "is_disabled": 0, "fusion_lon": 0.0, "bike_id": "d12de60c419ab682003eefac9f6409a6", "lon": -77.01066616666667, "rental_uris": {"ios": "https://dc.lft.to/lastmile_qr_scan", "android": "https://dc.lft.to/lastmile_qr_scan"}}, {"name": "6dd5fc269e9bdddf3c3c4690fe8ec9f5", "fusion_lat": 0.0, "type": "electric_scooter", "lat": 38.90266183333333, "is_reserved": 0, "is_disabled": 0, "fusion_lon": 0.0, "bike_id": "6dd5fc269e9bdddf3c3c4690fe8ec9f5", "lon": -77.04364083333333, "rental_uris": {"ios": "https://dc.lft.to/lastmile_qr_scan", "android": "https://dc.lft.to/lastmile_qr_scan"}}, {"name": "8326ca930a8887ab98c4fedf7122a547", "fusion_lat": 0.0, "type": "electric_scooter", "lat": 38.937326, "is_reserved": 0, "is_disabled": 0, "fusion_lon": 0.0, "bike_id": "8326ca930a8887ab98c4fedf7122a547", "lon": -77.03266366666666, "rental_uris": {"ios": "https://dc.lft.to/lastmile_qr_scan", "android": "https://dc.lft.to/lastmile_qr_scan"}}, {"name": "570e77cb1687d7ec0548f4e6115e19a2", "fusion_lat": 0.0, "type": "electric_scooter", "lat": 38.9025945, "is_reserved": 0, "is_disabled": 0, "fusion_lon": 0.0, "bike_id": "570e77cb1687d7ec0548f4e6115e19a2", "lon": -77.02654166666666, "rental_uris": {"ios": "https://dc.lft.to/lastmile_qr_scan", "android": "https://dc.lft.to/lastmile_qr_scan"}}, {"name": "df561b1be9e9cac3208bb8983c020963", "fusion_lat": 0.0, "type": "electric_scooter", "lat": 38.89562466666667, "is_reserved": 0, "is_disabled": 0, "fusion_lon": 0.0, "bike_id": "df561b1be9e9cac3208bb8983c020963", "lon": -76.97464833333333, "rental_uris": {"ios": "https://dc.lft.to/lastmile_qr_scan", "android": "https://dc.lft.to/lastmile_qr_scan"}}, {"name": "ac79e38391f493aab2faff5bedf3f981", "fusion_lat": 0.0, "type": "electric_bike", "lat": 38.9526795, "is_reserved": 0, "is_disabled": 0, "fusion_lon": 0.0, "bike_id": "ac79e38391f493aab2faff5bedf3f981", "lon": -77.06987916666667, "rental_uris": {"ios": "https://dc.lft.to/lastmile_qr_scan", "android": "https://dc.lft.to/lastmile_qr_scan"}}, {"name": "2aca7d921c971c423f9c5ea7533bed01", "fusion_lat": 0.0, "type": "electric_scooter", "lat": 38.921980833333336, "is_reserved": 0, "is_disabled": 0, "fusion_lon": 0.0, "bike_id": "2aca7d921c971c423f9c5ea7533bed01", "lon": -76.9975615, "rental_uris": {"ios": "https://dc.lft.to/lastmile_qr_scan", "android": "https://dc.lft.to/lastmile_qr_scan"}}, {"name": "5242ba89f8d3d25940c039dc6f4aac06", "fusion_lat": 0.0, "type": "electric_scooter", "lat": 38.901831666666666, "is_reserved": 0, "is_disabled": 0, "fusion_lon": 0.0, "bike_id": "5242ba89f8d3d25940c039dc6f4aac06", "lon": -77.03377616666667, "rental_uris": {"ios": "https://dc.lft.to/lastmile_qr_scan", "android": "https://dc.lft.to/lastmile_qr_scan"}}, {"name": "97efe297b63f84e080003f803977c3ce", "fusion_lat": 0.0, "type": "electric_scooter", "lat": 38.918605666666664, "is_reserved": 0, "is_disabled": 0, "fusion_lon": 0.0, "bike_id": "97efe297b63f84e080003f803977c3ce", "lon": -77.045936, "rental_uris": {"ios": "https://dc.lft.to/lastmile_qr_scan", "android": "https://dc.lft.to/lastmile_qr_scan"}}, {"name": "e947e6b362db1b9875cbdd49c5b39f89", "fusion_lat": 0.0, "type": "electric_scooter", "lat": 38.893324, "is_reserved": 0, "is_disabled": 0, "fusion_lon": 0.0, "bike_id": "e947e6b362db1b9875cbdd49c5b39f89", "lon": -76.9289325, "rental_uris": {"ios": "https://dc.lft.to/lastmile_qr_scan", "android": "https://dc.lft.to/lastmile_qr_scan"}}, {"name": "1088638144103e71a7f6a736142fab15", "fusion_lat": 0.0, "type": "electric_scooter", "lat": 38.8920075, "is_reserved": 0, "is_disabled": 0, "fusion_lon": 0.0, "bike_id": "1088638144103e71a7f6a736142fab15", "lon": -77.0029005, "rental_uris": {"ios": "https://dc.lft.to/lastmile_qr_scan", "android": "https://dc.lft.to/lastmile_qr_scan"}}, {"name": "bfe209076ee7eb771f7288ca9fd22afd", "fusion_lat": 0.0, "type": "electric_scooter", "lat": 38.93260166666666, "is_reserved": 0, "is_disabled": 0, "fusion_lon": 0.0, "bike_id": "bfe209076ee7eb771f7288ca9fd22afd", "lon": -77.03263716666666, "rental_uris": {"ios": "https://dc.lft.to/lastmile_qr_scan", "android": "https://dc.lft.to/lastmile_qr_scan"}}, {"name": "7387fd70d1190542922cc4accbeee503", "fusion_lat": 0.0, "type": "electric_scooter", "lat": 38.9233185, "is_reserved": 0, "is_disabled": 0, "fusion_lon": 0.0, "bike_id": "7387fd70d1190542922cc4accbeee503", "lon": -77.02048083333334, "rental_uris": {"ios": "https://dc.lft.to/lastmile_qr_scan", "android": "https://dc.lft.to/lastmile_qr_scan"}}, {"name": "12caf6e7a47a0355cb660a05c051599d", "fusion_lat": 0.0, "type": "electric_scooter", "lat": 38.89994433333333, "is_reserved": 0, "is_disabled": 0, "fusion_lon": 0.0, "bike_id": "12caf6e7a47a0355cb660a05c051599d", "lon": -76.98563266666666, "rental_uris": {"ios": "https://dc.lft.to/lastmile_qr_scan", "android": "https://dc.lft.to/lastmile_qr_scan"}}, {"name": "d80e82eddf4dcd5694d4010e580d3a86", "fusion_lat": 0.0, "type": "electric_scooter", "lat": 38.8636815, "is_reserved": 0, "is_disabled": 0, "fusion_lon": 0.0, "bike_id": "d80e82eddf4dcd5694d4010e580d3a86", "lon": -77.0136085, "rental_uris": {"ios": "https://dc.lft.to/lastmile_qr_scan", "android": "https://dc.lft.to/lastmile_qr_scan"}}, {"name": "71c7a3fe472b80a98c970d6b53814388", "fusion_lat": 0.0, "type": "electric_bike", "lat": 38.94379383333333, "is_reserved": 0, "is_disabled": 0, "fusion_lon": 0.0, "bike_id": "71c7a3fe472b80a98c970d6b53814388", "lon": -76.96291616666667, "rental_uris": {"ios": "https://dc.lft.to/lastmile_qr_scan", "android": "https://dc.lft.to/lastmile_qr_scan"}}, {"name": "976b4c9edd298d97cf218b32db7e4ed8", "fusion_lat": 0.0, "type": "electric_scooter", "lat": 38.885326166666665, "is_reserved": 0, "is_disabled": 0, "fusion_lon": 0.0, "bike_id": "976b4c9edd298d97cf218b32db7e4ed8", "lon": -77.03344216666666, "rental_uris": {"ios": "https://dc.lft.to/lastmile_qr_scan", "android": "https://dc.lft.to/lastmile_qr_scan"}}, {"name": "2fe8883a123b834a56822663efe069c7", "fusion_lat": 0.0, "type": "electric_scooter", "lat": 38.914351333333336, "is_reserved": 0, "is_disabled": 0, "fusion_lon": 0.0, "bike_id": "2fe8883a123b834a56822663efe069c7", "lon": -77.02199616666667, "rental_uris": {"ios": "https://dc.lft.to/lastmile_qr_scan", "android": "https://dc.lft.to/lastmile_qr_scan"}}, {"name": "64a2dbe59338d63fb36a50ffcea255da", "fusion_lat": 0.0, "type": "electric_scooter", "lat": 38.87429266666667, "is_reserved": 0, "is_disabled": 0, "fusion_lon": 0.0, "bike_id": "64a2dbe59338d63fb36a50ffcea255da", "lon": -77.02066183333334, "rental_uris": {"ios": "https://dc.lft.to/lastmile_qr_scan", "android": "https://dc.lft.to/lastmile_qr_scan"}}, {"name": "f9d4a6516bb902867c222672e23b3fbf", "fusion_lat": 0.0, "type": "electric_scooter", "lat": 38.91237133333333, "is_reserved": 0, "is_disabled": 0, "fusion_lon": 0.0, "bike_id": "f9d4a6516bb902867c222672e23b3fbf", "lon": -77.048789, "rental_uris": {"ios": "https://dc.lft.to/lastmile_qr_scan", "android": "https://dc.lft.to/lastmile_qr_scan"}}, {"name": "16ba10a7c2e9aeba9e96fcbf5fc386d7", "fusion_lat": 0.0, "type": "electric_bike", "lat": 38.95924383333333, "is_reserved": 0, "is_disabled": 0, "fusion_lon": 0.0, "bike_id": "16ba10a7c2e9aeba9e96fcbf5fc386d7", "lon": -76.92539533333333, "rental_uris": {"ios": "https://dc.lft.to/lastmile_qr_scan", "android": "https://dc.lft.to/lastmile_qr_scan"}}, {"name": "107d07179bd6cba01618b985a437024c", "fusion_lat": 0.0, "type": "electric_scooter", "lat": 38.903098666666665, "is_reserved": 0, "is_disabled": 0, "fusion_lon": 0.0, "bike_id": "107d07179bd6cba01618b985a437024c", "lon": -77.05021016666667, "rental_uris": {"ios": "https://dc.lft.to/lastmile_qr_scan", "android": "https://dc.lft.to/lastmile_qr_scan"}}, {"name": "15c143d2cd780c9824efcbf3c332cce9", "fusion_lat": 0.0, "type": "electric_scooter", "lat": 38.903684166666665, "is_reserved": 0, "is_disabled": 0, "fusion_lon": 0.0, "bike_id": "15c143d2cd780c9824efcbf3c332cce9", "lon": -77.01774133333333, "rental_uris": {"ios": "https://dc.lft.to/lastmile_qr_scan", "android": "https://dc.lft.to/lastmile_qr_scan"}}, {"name": "2727b84343f0873a71407640965f2923", "fusion_lat": 0.0, "type": "electric_scooter", "lat": 38.9099375, "is_reserved": 0, "is_disabled": 0, "fusion_lon": 0.0, "bike_id": "2727b84343f0873a71407640965f2923", "lon": -77.03471116666667, "rental_uris": {"ios": "https://dc.lft.to/lastmile_qr_scan", "android": "https://dc.lft.to/lastmile_qr_scan"}}, {"name": "697f15f7d3f2d563141aa4a9bafb073f", "fusion_lat": 0.0, "type": "electric_bike", "lat": 38.939534, "is_reserved": 0, "is_disabled": 0, "fusion_lon": 0.0, "bike_id": "697f15f7d3f2d563141aa4a9bafb073f", "lon": -77.36093966666667, "rental_uris": {"ios": "https://dc.lft.to/lastmile_qr_scan", "android": "https://dc.lft.to/lastmile_qr_scan"}}, {"name": "9638cc7e4c1eb6adb78982f1201bf07f", "fusion_lat": 0.0, "type": "electric_scooter", "lat": 38.9081695, "is_reserved": 0, "is_disabled": 0, "fusion_lon": 0.0, "bike_id": "9638cc7e4c1eb6adb78982f1201bf07f", "lon": -77.0394215, "rental_uris": {"ios": "https://dc.lft.to/lastmile_qr_scan", "android": "https://dc.lft.to/lastmile_qr_scan"}}, {"name": "5fd280fc70d6fea721f9ac6f6a17f2e0", "fusion_lat": 0.0, "type": "electric_bike", "lat": 38.845983333333336, "is_reserved": 0, "is_disabled": 0, "fusion_lon": 0.0, "bike_id": "5fd280fc70d6fea721f9ac6f6a17f2e0", "lon": -76.968764, "rental_uris": {"ios": "https://dc.lft.to/lastmile_qr_scan", "android": "https://dc.lft.to/lastmile_qr_scan"}}, {"name": "acdce50bdb23030df8a6edde6be8a57f", "fusion_lat": 0.0, "type": "electric_bike", "lat": 38.926931, "is_reserved": 0, "is_disabled": 0, "fusion_lon": 0.0, "bike_id": "acdce50bdb23030df8a6edde6be8a57f", "lon": -77.0078665, "rental_uris": {"ios": "https://dc.lft.to/lastmile_qr_scan", "android": "https://dc.lft.to/lastmile_qr_scan"}}, {"name": "c79346fb0b99586d7d5fac2e76e4c41c", "fusion_lat": 0.0, "type": "electric_bike", "lat": 38.877495, "is_reserved": 0, "is_disabled": 0, "fusion_lon": 0.0, "bike_id": "c79346fb0b99586d7d5fac2e76e4c41c", "lon": -76.97988583333333, "rental_uris": {"ios": "https://dc.lft.to/lastmile_qr_scan", "android": "https://dc.lft.to/lastmile_qr_scan"}}, {"name": "7d367bac1c84814e52184f16f03a40ce", "fusion_lat": 0.0, "type": "electric_scooter", "lat": 38.92648233333333, "is_reserved": 0, "is_disabled": 0, "fusion_lon": 0.0, "bike_id": "7d367bac1c84814e52184f16f03a40ce", "lon": -77.03726583333334, "rental_uris": {"ios": "https://dc.lft.to/lastmile_qr_scan", "android": "https://dc.lft.to/lastmile_qr_scan"}}, {"name": "5f990c665ce1d29630c79f38b7f17294", "fusion_lat": 0.0, "type": "electric_scooter", "lat": 38.86959683333333, "is_reserved": 0, "is_disabled": 0, "fusion_lon": 0.0, "bike_id": "5f990c665ce1d29630c79f38b7f17294", "lon": -77.0137465, "rental_uris": {"ios": "https://dc.lft.to/lastmile_qr_scan", "android": "https://dc.lft.to/lastmile_qr_scan"}}, {"name": "f934941bda320fd15609d3d1f84673c9", "fusion_lat": 0.0, "type": "electric_scooter", "lat": 38.909622, "is_reserved": 0, "is_disabled": 0, "fusion_lon": 0.0, "bike_id": "f934941bda320fd15609d3d1f84673c9", "lon": -77.03415416666667, "rental_uris": {"ios": "https://dc.lft.to/lastmile_qr_scan", "android": "https://dc.lft.to/lastmile_qr_scan"}}, {"name": "a156a39b944aa682b02904d585959b47", "fusion_lat": 0.0, "type": "electric_scooter", "lat": 38.900017166666665, "is_reserved": 0, "is_disabled": 0, "fusion_lon": 0.0, "bike_id": "a156a39b944aa682b02904d585959b47", "lon": -77.05340283333334, "rental_uris": {"ios": "https://dc.lft.to/lastmile_qr_scan", "android": "https://dc.lft.to/lastmile_qr_scan"}}, {"name": "a552c132b903ea24cdaeb5fea68c835d", "fusion_lat": 0.0, "type": "electric_scooter", "lat": 38.90778066666667, "is_reserved": 0, "is_disabled": 0, "fusion_lon": 0.0, "bike_id": "a552c132b903ea24cdaeb5fea68c835d", "lon": -77.072521, "rental_uris": {"ios": "https://dc.lft.to/lastmile_qr_scan", "android": "https://dc.lft.to/lastmile_qr_scan"}}, {"name": "4e62291d027724cd1b2e3a06528df52e", "fusion_lat": 0.0, "type": "electric_scooter", "lat": 38.928618166666666, "is_reserved": 0, "is_disabled": 0, "fusion_lon": 0.0, "bike_id": "4e62291d027724cd1b2e3a06528df52e", "lon": -77.03441516666666, "rental_uris": {"ios": "https://dc.lft.to/lastmile_qr_scan", "android": "https://dc.lft.to/lastmile_qr_scan"}}, {"name": "8424338fed11388d990b92fc48e079ea", "fusion_lat": 0.0, "type": "electric_scooter", "lat": 38.89550366666667, "is_reserved": 0, "is_disabled": 0, "fusion_lon": 0.0, "bike_id": "8424338fed11388d990b92fc48e079ea", "lon": -76.94873316666667, "rental_uris": {"ios": "https://dc.lft.to/lastmile_qr_scan", "android": "https://dc.lft.to/lastmile_qr_scan"}}, {"name": "0ff4cd8a10faddbeb3a383ea9c44cd43", "fusion_lat": 0.0, "type": "electric_scooter", "lat": 38.903894666666666, "is_reserved": 0, "is_disabled": 0, "fusion_lon": 0.0, "bike_id": "0ff4cd8a10faddbeb3a383ea9c44cd43", "lon": -77.00691366666666, "rental_uris": {"ios": "https://dc.lft.to/lastmile_qr_scan", "android": "https://dc.lft.to/lastmile_qr_scan"}}, {"name": "2e3b7420fa9405e96d4c84c7cb626a73", "fusion_lat": 0.0, "type": "electric_scooter", "lat": 38.909723666666665, "is_reserved": 0, "is_disabled": 0, "fusion_lon": 0.0, "bike_id": "2e3b7420fa9405e96d4c84c7cb626a73", "lon": -77.0111835, "rental_uris": {"ios": "https://dc.lft.to/lastmile_qr_scan", "android": "https://dc.lft.to/lastmile_qr_scan"}}, {"name": "a1e3c8f79f796883dd3e878ba1bf0419", "fusion_lat": 0.0, "type": "electric_scooter", "lat": 38.91402566666667, "is_reserved": 0, "is_disabled": 0, "fusion_lon": 0.0, "bike_id": "a1e3c8f79f796883dd3e878ba1bf0419", "lon": -77.02228583333333, "rental_uris": {"ios": "https://dc.lft.to/lastmile_qr_scan", "android": "https://dc.lft.to/lastmile_qr_scan"}}, {"name": "c371f59787b04ab2f5d6dd2d03c7f258", "fusion_lat": 0.0, "type": "electric_scooter", "lat": 38.922893, "is_reserved": 0, "is_disabled": 0, "fusion_lon": 0.0, "bike_id": "c371f59787b04ab2f5d6dd2d03c7f258", "lon": -77.02965883333333, "rental_uris": {"ios": "https://dc.lft.to/lastmile_qr_scan", "android": "https://dc.lft.to/lastmile_qr_scan"}}, {"name": "782f36935f66f1034e38497d4826dce4", "fusion_lat": 0.0, "type": "electric_scooter", "lat": 38.9060995, "is_reserved": 0, "is_disabled": 0, "fusion_lon": 0.0, "bike_id": "782f36935f66f1034e38497d4826dce4", "lon": -77.006095, "rental_uris": {"ios": "https://dc.lft.to/lastmile_qr_scan", "android": "https://dc.lft.to/lastmile_qr_scan"}}, {"name": "30b028957f23dfb40da531ec28423cb4", "fusion_lat": 0.0, "type": "electric_scooter", "lat": 38.87494383333333, "is_reserved": 0, "is_disabled": 0, "fusion_lon": 0.0, "bike_id": "30b028957f23dfb40da531ec28423cb4", "lon": -76.99794933333334, "rental_uris": {"ios": "https://dc.lft.to/lastmile_qr_scan", "android": "https://dc.lft.to/lastmile_qr_scan"}}, {"name": "f5e5d4ec4cc1ba190e712a954a92aba9", "fusion_lat": 0.0, "type": "electric_scooter", "lat": 38.902545833333335, "is_reserved": 0, "is_disabled": 0, "fusion_lon": 0.0, "bike_id": "f5e5d4ec4cc1ba190e712a954a92aba9", "lon": -77.0032835, "rental_uris": {"ios": "https://dc.lft.to/lastmile_qr_scan", "android": "https://dc.lft.to/lastmile_qr_scan"}}, {"name": "8b4403849b85ee2431c22b8964c712ce", "fusion_lat": 0.0, "type": "electric_scooter", "lat": 38.876266, "is_reserved": 0, "is_disabled": 0, "fusion_lon": 0.0, "bike_id": "8b4403849b85ee2431c22b8964c712ce", "lon": -76.965288, "rental_uris": {"ios": "https://dc.lft.to/lastmile_qr_scan", "android": "https://dc.lft.to/lastmile_qr_scan"}}, {"name": "5ade105b0c8a6ea3f8ac55c4514bfb37", "fusion_lat": 0.0, "type": "electric_scooter", "lat": 38.87290766666667, "is_reserved": 0, "is_disabled": 0, "fusion_lon": 0.0, "bike_id": "5ade105b0c8a6ea3f8ac55c4514bfb37", "lon": -77.00988166666667, "rental_uris": {"ios": "https://dc.lft.to/lastmile_qr_scan", "android": "https://dc.lft.to/lastmile_qr_scan"}}, {"name": "b7a4a8cfe7f41a1234578e6d9c63b54f", "fusion_lat": 0.0, "type": "electric_scooter", "lat": 38.91263416666666, "is_reserved": 0, "is_disabled": 0, "fusion_lon": 0.0, "bike_id": "b7a4a8cfe7f41a1234578e6d9c63b54f", "lon": -77.03154866666667, "rental_uris": {"ios": "https://dc.lft.to/lastmile_qr_scan", "android": "https://dc.lft.to/lastmile_qr_scan"}}, {"name": "6a48ef927dbe78f39184806bf0f21149", "fusion_lat": 0.0, "type": "electric_scooter", "lat": 38.933923, "is_reserved": 0, "is_disabled": 0, "fusion_lon": 0.0, "bike_id": "6a48ef927dbe78f39184806bf0f21149", "lon": -77.03577566666667, "rental_uris": {"ios": "https://dc.lft.to/lastmile_qr_scan", "android": "https://dc.lft.to/lastmile_qr_scan"}}, {"name": "dabe1b91fb33ce2165d2e41b9094d4ac", "fusion_lat": 0.0, "type": "electric_scooter", "lat": 38.901487333333336, "is_reserved": 0, "is_disabled": 0, "fusion_lon": 0.0, "bike_id": "dabe1b91fb33ce2165d2e41b9094d4ac", "lon": -77.0231175, "rental_uris": {"ios": "https://dc.lft.to/lastmile_qr_scan", "android": "https://dc.lft.to/lastmile_qr_scan"}}, {"name": "83331801ace830b73c217555a498c75a", "fusion_lat": 0.0, "type": "electric_scooter", "lat": 38.883192333333334, "is_reserved": 0, "is_disabled": 0, "fusion_lon": 0.0, "bike_id": "83331801ace830b73c217555a498c75a", "lon": -77.02378716666666, "rental_uris": {"ios": "https://dc.lft.to/lastmile_qr_scan", "android": "https://dc.lft.to/lastmile_qr_scan"}}, {"name": "272bde71e3a0e986e9dee25ffaff6d82", "fusion_lat": 0.0, "type": "electric_scooter", "lat": 38.91684633333333, "is_reserved": 0, "is_disabled": 0, "fusion_lon": 0.0, "bike_id": "272bde71e3a0e986e9dee25ffaff6d82", "lon": -77.02917316666667, "rental_uris": {"ios": "https://dc.lft.to/lastmile_qr_scan", "android": "https://dc.lft.to/lastmile_qr_scan"}}, {"name": "25c291b4d81aefc8a9f3ecd404b28ed6", "fusion_lat": 0.0, "type": "electric_scooter", "lat": 38.91142083333333, "is_reserved": 0, "is_disabled": 0, "fusion_lon": 0.0, "bike_id": "25c291b4d81aefc8a9f3ecd404b28ed6", "lon": -77.04189616666666, "rental_uris": {"ios": "https://dc.lft.to/lastmile_qr_scan", "android": "https://dc.lft.to/lastmile_qr_scan"}}, {"name": "ecd134c6fc14b93a35b2a816635e1a23", "fusion_lat": 0.0, "type": "electric_scooter", "lat": 38.891895833333336, "is_reserved": 0, "is_disabled": 0, "fusion_lon": 0.0, "bike_id": "ecd134c6fc14b93a35b2a816635e1a23", "lon": -77.01584683333333, "rental_uris": {"ios": "https://dc.lft.to/lastmile_qr_scan", "android": "https://dc.lft.to/lastmile_qr_scan"}}, {"name": "8b4fefb0540a8fbc23da8b4f186d37d3", "fusion_lat": 0.0, "type": "electric_scooter", "lat": 38.874600666666666, "is_reserved": 0, "is_disabled": 0, "fusion_lon": 0.0, "bike_id": "8b4fefb0540a8fbc23da8b4f186d37d3", "lon": -77.00542716666666, "rental_uris": {"ios": "https://dc.lft.to/lastmile_qr_scan", "android": "https://dc.lft.to/lastmile_qr_scan"}}, {"name": "9f8f0326974654b4e40647742368cbd1", "fusion_lat": 0.0, "type": "electric_scooter", "lat": 38.957308166666664, "is_reserved": 0, "is_disabled": 0, "fusion_lon": 0.0, "bike_id": "9f8f0326974654b4e40647742368cbd1", "lon": -77.02393733333334, "rental_uris": {"ios": "https://dc.lft.to/lastmile_qr_scan", "android": "https://dc.lft.to/lastmile_qr_scan"}}, {"name": "77f4777a7c3c3f743be42d5b4fac4e3f", "fusion_lat": 0.0, "type": "electric_scooter", "lat": 38.928414, "is_reserved": 0, "is_disabled": 0, "fusion_lon": 0.0, "bike_id": "77f4777a7c3c3f743be42d5b4fac4e3f", "lon": -77.05420716666667, "rental_uris": {"ios": "https://dc.lft.to/lastmile_qr_scan", "android": "https://dc.lft.to/lastmile_qr_scan"}}, {"name": "cebcfd519fe3ea9c0cb0c119fd978aef", "fusion_lat": 0.0, "type": "electric_scooter", "lat": 38.942902, "is_reserved": 0, "is_disabled": 0, "fusion_lon": 0.0, "bike_id": "cebcfd519fe3ea9c0cb0c119fd978aef", "lon": -77.02169033333334, "rental_uris": {"ios": "https://dc.lft.to/lastmile_qr_scan", "android": "https://dc.lft.to/lastmile_qr_scan"}}, {"name": "6784e04e487988dd055ddb57c53cb20e", "fusion_lat": 0.0, "type": "electric_scooter", "lat": 38.911022333333335, "is_reserved": 0, "is_disabled": 0, "fusion_lon": 0.0, "bike_id": "6784e04e487988dd055ddb57c53cb20e", "lon": -77.0735005, "rental_uris": {"ios": "https://dc.lft.to/lastmile_qr_scan", "android": "https://dc.lft.to/lastmile_qr_scan"}}, {"name": "a0a1f5040676ee65bded10727ac1993f", "fusion_lat": 0.0, "type": "electric_scooter", "lat": 38.930014, "is_reserved": 0, "is_disabled": 0, "fusion_lon": 0.0, "bike_id": "a0a1f5040676ee65bded10727ac1993f", "lon": -77.05523533333333, "rental_uris": {"ios": "https://dc.lft.to/lastmile_qr_scan", "android": "https://dc.lft.to/lastmile_qr_scan"}}, {"name": "e223eca7c2fe7399e3554a26ca6fc3dd", "fusion_lat": 0.0, "type": "electric_scooter", "lat": 38.85919066666666, "is_reserved": 0, "is_disabled": 0, "fusion_lon": 0.0, "bike_id": "e223eca7c2fe7399e3554a26ca6fc3dd", "lon": -76.98979733333333, "rental_uris": {"ios": "https://dc.lft.to/lastmile_qr_scan", "android": "https://dc.lft.to/lastmile_qr_scan"}}, {"name": "3a2ff8c9fbfa2d71dba3d62398b0e0ee", "fusion_lat": 0.0, "type": "electric_bike", "lat": 38.89217683333333, "is_reserved": 0, "is_disabled": 0, "fusion_lon": 0.0, "bike_id": "3a2ff8c9fbfa2d71dba3d62398b0e0ee", "lon": -77.10781466666667, "rental_uris": {"ios": "https://dc.lft.to/lastmile_qr_scan", "android": "https://dc.lft.to/lastmile_qr_scan"}}, {"name": "08a7edf914028e98ca7e7131306f136d", "fusion_lat": 0.0, "type": "electric_scooter", "lat": 38.911841333333335, "is_reserved": 0, "is_disabled": 0, "fusion_lon": 0.0, "bike_id": "08a7edf914028e98ca7e7131306f136d", "lon": -77.038663, "rental_uris": {"ios": "https://dc.lft.to/lastmile_qr_scan", "android": "https://dc.lft.to/lastmile_qr_scan"}}, {"name": "384c9b0af0c929671fa64fa01b2d080e", "fusion_lat": 0.0, "type": "electric_scooter", "lat": 38.880478833333335, "is_reserved": 0, "is_disabled": 0, "fusion_lon": 0.0, "bike_id": "384c9b0af0c929671fa64fa01b2d080e", "lon": -77.00516883333333, "rental_uris": {"ios": "https://dc.lft.to/lastmile_qr_scan", "android": "https://dc.lft.to/lastmile_qr_scan"}}, {"name": "042a7f1ab874bf3f270e51ec1714f2d6", "fusion_lat": 0.0, "type": "electric_scooter", "lat": 38.912524, "is_reserved": 0, "is_disabled": 0, "fusion_lon": 0.0, "bike_id": "042a7f1ab874bf3f270e51ec1714f2d6", "lon": -77.01977116666667, "rental_uris": {"ios": "https://dc.lft.to/lastmile_qr_scan", "android": "https://dc.lft.to/lastmile_qr_scan"}}, {"name": "3f4fa17137c6a077157ea713a566ba5d", "fusion_lat": 0.0, "type": "electric_scooter", "lat": 38.8922725, "is_reserved": 0, "is_disabled": 0, "fusion_lon": 0.0, "bike_id": "3f4fa17137c6a077157ea713a566ba5d", "lon": -77.05004733333334, "rental_uris": {"ios": "https://dc.lft.to/lastmile_qr_scan", "android": "https://dc.lft.to/lastmile_qr_scan"}}, {"name": "cfe23216648e2602e9f00c4815903d28", "fusion_lat": 0.0, "type": "electric_scooter", "lat": 38.935590833333336, "is_reserved": 0, "is_disabled": 0, "fusion_lon": 0.0, "bike_id": "cfe23216648e2602e9f00c4815903d28", "lon": -77.03257016666667, "rental_uris": {"ios": "https://dc.lft.to/lastmile_qr_scan", "android": "https://dc.lft.to/lastmile_qr_scan"}}, {"name": "727e50d17c390d97583ec628b3f971e8", "fusion_lat": 0.0, "type": "electric_scooter", "lat": 38.8996865, "is_reserved": 0, "is_disabled": 0, "fusion_lon": 0.0, "bike_id": "727e50d17c390d97583ec628b3f971e8", "lon": -77.02205133333334, "rental_uris": {"ios": "https://dc.lft.to/lastmile_qr_scan", "android": "https://dc.lft.to/lastmile_qr_scan"}}, {"name": "7ceca93517ecab5d4f890ae4d4372957", "fusion_lat": 0.0, "type": "electric_scooter", "lat": 38.92421566666667, "is_reserved": 0, "is_disabled": 0, "fusion_lon": 0.0, "bike_id": "7ceca93517ecab5d4f890ae4d4372957", "lon": -77.01949016666667, "rental_uris": {"ios": "https://dc.lft.to/lastmile_qr_scan", "android": "https://dc.lft.to/lastmile_qr_scan"}}, {"name": "bfc406dd26df6b986344ffadf44de33f", "fusion_lat": 0.0, "type": "electric_scooter", "lat": 38.877529, "is_reserved": 0, "is_disabled": 0, "fusion_lon": 0.0, "bike_id": "bfc406dd26df6b986344ffadf44de33f", "lon": -77.019988, "rental_uris": {"ios": "https://dc.lft.to/lastmile_qr_scan", "android": "https://dc.lft.to/lastmile_qr_scan"}}, {"name": "d9eb53aa388b68edef708815acf1deef", "fusion_lat": 0.0, "type": "electric_scooter", "lat": 38.918118166666666, "is_reserved": 0, "is_disabled": 0, "fusion_lon": 0.0, "bike_id": "d9eb53aa388b68edef708815acf1deef", "lon": -77.04006333333334, "rental_uris": {"ios": "https://dc.lft.to/lastmile_qr_scan", "android": "https://dc.lft.to/lastmile_qr_scan"}}, {"name": "925b176028f1a89b541c9eca267ecf35", "fusion_lat": 0.0, "type": "electric_scooter", "lat": 38.9248125, "is_reserved": 0, "is_disabled": 0, "fusion_lon": 0.0, "bike_id": "925b176028f1a89b541c9eca267ecf35", "lon": -77.02836916666666, "rental_uris": {"ios": "https://dc.lft.to/lastmile_qr_scan", "android": "https://dc.lft.to/lastmile_qr_scan"}}, {"name": "89bd41006a36e650a63482d5702773c6", "fusion_lat": 0.0, "type": "electric_scooter", "lat": 38.92158333333333, "is_reserved": 0, "is_disabled": 0, "fusion_lon": 0.0, "bike_id": "89bd41006a36e650a63482d5702773c6", "lon": -76.99643516666667, "rental_uris": {"ios": "https://dc.lft.to/lastmile_qr_scan", "android": "https://dc.lft.to/lastmile_qr_scan"}}, {"name": "2ed05ea7c6a934accc958361c5f84851", "fusion_lat": 0.0, "type": "electric_scooter", "lat": 38.904756666666664, "is_reserved": 0, "is_disabled": 0, "fusion_lon": 0.0, "bike_id": "2ed05ea7c6a934accc958361c5f84851", "lon": -77.03541366666667, "rental_uris": {"ios": "https://dc.lft.to/lastmile_qr_scan", "android": "https://dc.lft.to/lastmile_qr_scan"}}, {"name": "808694dfc322e0240cca1b0a816260cf", "fusion_lat": 0.0, "type": "electric_scooter", "lat": 38.929347666666665, "is_reserved": 0, "is_disabled": 0, "fusion_lon": 0.0, "bike_id": "808694dfc322e0240cca1b0a816260cf", "lon": -77.03682233333333, "rental_uris": {"ios": "https://dc.lft.to/lastmile_qr_scan", "android": "https://dc.lft.to/lastmile_qr_scan"}}, {"name": "575be79b0921d941b9967d1982541dbb", "fusion_lat": 0.0, "type": "electric_scooter", "lat": 38.9014165, "is_reserved": 0, "is_disabled": 0, "fusion_lon": 0.0, "bike_id": "575be79b0921d941b9967d1982541dbb", "lon": -76.99994083333333, "rental_uris": {"ios": "https://dc.lft.to/lastmile_qr_scan", "android": "https://dc.lft.to/lastmile_qr_scan"}}, {"name": "b140e040307375685d10297a486cec9a", "fusion_lat": 0.0, "type": "electric_scooter", "lat": 38.90379333333333, "is_reserved": 0, "is_disabled": 0, "fusion_lon": 0.0, "bike_id": "b140e040307375685d10297a486cec9a", "lon": -77.03635883333334, "rental_uris": {"ios": "https://dc.lft.to/lastmile_qr_scan", "android": "https://dc.lft.to/lastmile_qr_scan"}}, {"name": "7a4b39e2471e703af257b9bbb5105f83", "fusion_lat": 0.0, "type": "electric_scooter", "lat": 38.90380566666666, "is_reserved": 0, "is_disabled": 0, "fusion_lon": 0.0, "bike_id": "7a4b39e2471e703af257b9bbb5105f83", "lon": -77.06026533333333, "rental_uris": {"ios": "https://dc.lft.to/lastmile_qr_scan", "android": "https://dc.lft.to/lastmile_qr_scan"}}, {"name": "d6324372242674b7acd7a907ec7ddc7e", "fusion_lat": 0.0, "type": "electric_scooter", "lat": 38.92331933333333, "is_reserved": 0, "is_disabled": 0, "fusion_lon": 0.0, "bike_id": "d6324372242674b7acd7a907ec7ddc7e", "lon": -77.04180716666667, "rental_uris": {"ios": "https://dc.lft.to/lastmile_qr_scan", "android": "https://dc.lft.to/lastmile_qr_scan"}}, {"name": "bc37040824f5a5d69305962a9190c596", "fusion_lat": 0.0, "type": "electric_scooter", "lat": 38.900481666666664, "is_reserved": 0, "is_disabled": 0, "fusion_lon": 0.0, "bike_id": "bc37040824f5a5d69305962a9190c596", "lon": -77.00066016666666, "rental_uris": {"ios": "https://dc.lft.to/lastmile_qr_scan", "android": "https://dc.lft.to/lastmile_qr_scan"}}, {"name": "7fad6a65ce58664caccd45eac2cdf136", "fusion_lat": 0.0, "type": "electric_scooter", "lat": 38.909586, "is_reserved": 0, "is_disabled": 0, "fusion_lon": 0.0, "bike_id": "7fad6a65ce58664caccd45eac2cdf136", "lon": -77.0237905, "rental_uris": {"ios": "https://dc.lft.to/lastmile_qr_scan", "android": "https://dc.lft.to/lastmile_qr_scan"}}, {"name": "fe9a7b0eea83f6c49b122f6268b1ebd7", "fusion_lat": 0.0, "type": "electric_scooter", "lat": 38.90908116666667, "is_reserved": 0, "is_disabled": 0, "fusion_lon": 0.0, "bike_id": "fe9a7b0eea83f6c49b122f6268b1ebd7", "lon": -77.06434733333333, "rental_uris": {"ios": "https://dc.lft.to/lastmile_qr_scan", "android": "https://dc.lft.to/lastmile_qr_scan"}}, {"name": "e9dee085cfba57c3c5536b0590b6ed50", "fusion_lat": 0.0, "type": "electric_scooter", "lat": 38.887379333333335, "is_reserved": 0, "is_disabled": 0, "fusion_lon": 0.0, "bike_id": "e9dee085cfba57c3c5536b0590b6ed50", "lon": -77.03214066666666, "rental_uris": {"ios": "https://dc.lft.to/lastmile_qr_scan", "android": "https://dc.lft.to/lastmile_qr_scan"}}, {"name": "51c9e370d80ca2d554b99a41ad23a74f", "fusion_lat": 0.0, "type": "electric_scooter", "lat": 38.9170865, "is_reserved": 0, "is_disabled": 0, "fusion_lon": 0.0, "bike_id": "51c9e370d80ca2d554b99a41ad23a74f", "lon": -77.02892733333333, "rental_uris": {"ios": "https://dc.lft.to/lastmile_qr_scan", "android": "https://dc.lft.to/lastmile_qr_scan"}}, {"name": "cb96c45d17cd7999225c0a9a67b2a2de", "fusion_lat": 0.0, "type": "electric_scooter", "lat": 38.883552, "is_reserved": 0, "is_disabled": 0, "fusion_lon": 0.0, "bike_id": "cb96c45d17cd7999225c0a9a67b2a2de", "lon": -76.99611066666667, "rental_uris": {"ios": "https://dc.lft.to/lastmile_qr_scan", "android": "https://dc.lft.to/lastmile_qr_scan"}}, {"name": "93cc81cd93f67e26086d0831bce8cd18", "fusion_lat": 0.0, "type": "electric_scooter", "lat": 38.880474, "is_reserved": 0, "is_disabled": 0, "fusion_lon": 0.0, "bike_id": "93cc81cd93f67e26086d0831bce8cd18", "lon": -77.00511316666666, "rental_uris": {"ios": "https://dc.lft.to/lastmile_qr_scan", "android": "https://dc.lft.to/lastmile_qr_scan"}}, {"name": "f910b5a35345559697cf400d33029671", "fusion_lat": 0.0, "type": "electric_scooter", "lat": 38.9012395, "is_reserved": 0, "is_disabled": 0, "fusion_lon": 0.0, "bike_id": "f910b5a35345559697cf400d33029671", "lon": -77.04224783333333, "rental_uris": {"ios": "https://dc.lft.to/lastmile_qr_scan", "android": "https://dc.lft.to/lastmile_qr_scan"}}, {"name": "27339facc23b683af497f0294a99bcff", "fusion_lat": 0.0, "type": "electric_scooter", "lat": 38.9049905, "is_reserved": 0, "is_disabled": 0, "fusion_lon": 0.0, "bike_id": "27339facc23b683af497f0294a99bcff", "lon": -77.06526766666667, "rental_uris": {"ios": "https://dc.lft.to/lastmile_qr_scan", "android": "https://dc.lft.to/lastmile_qr_scan"}}, {"name": "c379f4d3b115bbcdd8f63093da564c32", "fusion_lat": 0.0, "type": "electric_scooter", "lat": 38.9232975, "is_reserved": 0, "is_disabled": 0, "fusion_lon": 0.0, "bike_id": "c379f4d3b115bbcdd8f63093da564c32", "lon": -77.0195915, "rental_uris": {"ios": "https://dc.lft.to/lastmile_qr_scan", "android": "https://dc.lft.to/lastmile_qr_scan"}}, {"name": "ec69d98f18f1d99f521a8f502ce2682c", "fusion_lat": 0.0, "type": "electric_scooter", "lat": 38.89963733333333, "is_reserved": 0, "is_disabled": 0, "fusion_lon": 0.0, "bike_id": "ec69d98f18f1d99f521a8f502ce2682c", "lon": -77.03192816666666, "rental_uris": {"ios": "https://dc.lft.to/lastmile_qr_scan", "android": "https://dc.lft.to/lastmile_qr_scan"}}, {"name": "7e494382b00d4c9690a5340da35aa55b", "fusion_lat": 0.0, "type": "electric_scooter", "lat": 38.89832666666667, "is_reserved": 0, "is_disabled": 0, "fusion_lon": 0.0, "bike_id": "7e494382b00d4c9690a5340da35aa55b", "lon": -76.94641833333333, "rental_uris": {"ios": "https://dc.lft.to/lastmile_qr_scan", "android": "https://dc.lft.to/lastmile_qr_scan"}}, {"name": "1f25b80a320242394a3791b8577c3d8a", "fusion_lat": 0.0, "type": "electric_scooter", "lat": 38.911884666666666, "is_reserved": 0, "is_disabled": 0, "fusion_lon": 0.0, "bike_id": "1f25b80a320242394a3791b8577c3d8a", "lon": -76.99618183333334, "rental_uris": {"ios": "https://dc.lft.to/lastmile_qr_scan", "android": "https://dc.lft.to/lastmile_qr_scan"}}, {"name": "5bbfc1136b30eb20daacd0a5a567dbb7", "fusion_lat": 0.0, "type": "electric_scooter", "lat": 38.91703066666667, "is_reserved": 0, "is_disabled": 0, "fusion_lon": 0.0, "bike_id": "5bbfc1136b30eb20daacd0a5a567dbb7", "lon": -77.028486, "rental_uris": {"ios": "https://dc.lft.to/lastmile_qr_scan", "android": "https://dc.lft.to/lastmile_qr_scan"}}, {"name": "47920670200f99a78c587cdcaf029d80", "fusion_lat": 0.0, "type": "electric_scooter", "lat": 38.91680133333333, "is_reserved": 0, "is_disabled": 0, "fusion_lon": 0.0, "bike_id": "47920670200f99a78c587cdcaf029d80", "lon": -77.01578133333334, "rental_uris": {"ios": "https://dc.lft.to/lastmile_qr_scan", "android": "https://dc.lft.to/lastmile_qr_scan"}}, {"name": "998e7cb07fb33ae536f09c87ee6f69b7", "fusion_lat": 0.0, "type": "electric_scooter", "lat": 38.916127333333336, "is_reserved": 0, "is_disabled": 0, "fusion_lon": 0.0, "bike_id": "998e7cb07fb33ae536f09c87ee6f69b7", "lon": -77.02312616666667, "rental_uris": {"ios": "https://dc.lft.to/lastmile_qr_scan", "android": "https://dc.lft.to/lastmile_qr_scan"}}, {"name": "f4f9ea6750b20b984e0c11ddf4e83dd2", "fusion_lat": 0.0, "type": "electric_scooter", "lat": 38.908587833333335, "is_reserved": 0, "is_disabled": 0, "fusion_lon": 0.0, "bike_id": "f4f9ea6750b20b984e0c11ddf4e83dd2", "lon": -77.045867, "rental_uris": {"ios": "https://dc.lft.to/lastmile_qr_scan", "android": "https://dc.lft.to/lastmile_qr_scan"}}, {"name": "85a1316ee9b6bf8e493aff50a7e9245a", "fusion_lat": 0.0, "type": "electric_scooter", "lat": 38.91407233333334, "is_reserved": 0, "is_disabled": 0, "fusion_lon": 0.0, "bike_id": "85a1316ee9b6bf8e493aff50a7e9245a", "lon": -77.0456725, "rental_uris": {"ios": "https://dc.lft.to/lastmile_qr_scan", "android": "https://dc.lft.to/lastmile_qr_scan"}}, {"name": "8e5e20ede3e4bad2d61dfcdea718c95e", "fusion_lat": 0.0, "type": "electric_bike", "lat": 38.904217333333335, "is_reserved": 0, "is_disabled": 0, "fusion_lon": 0.0, "bike_id": "8e5e20ede3e4bad2d61dfcdea718c95e", "lon": -77.04839583333333, "rental_uris": {"ios": "https://dc.lft.to/lastmile_qr_scan", "android": "https://dc.lft.to/lastmile_qr_scan"}}, {"name": "27fe94969a257f25eace47a6a08ab812", "fusion_lat": 0.0, "type": "electric_bike", "lat": 38.852322666666666, "is_reserved": 0, "is_disabled": 0, "fusion_lon": 0.0, "bike_id": "27fe94969a257f25eace47a6a08ab812", "lon": -77.10337216666667, "rental_uris": {"ios": "https://dc.lft.to/lastmile_qr_scan", "android": "https://dc.lft.to/lastmile_qr_scan"}}, {"name": "104c6487d0f537a9744a08d45bb18e4d", "fusion_lat": 0.0, "type": "electric_scooter", "lat": 38.9113925, "is_reserved": 0, "is_disabled": 0, "fusion_lon": 0.0, "bike_id": "104c6487d0f537a9744a08d45bb18e4d", "lon": -77.0418935, "rental_uris": {"ios": "https://dc.lft.to/lastmile_qr_scan", "android": "https://dc.lft.to/lastmile_qr_scan"}}, {"name": "92cec6cbe37db4016513e0c2b59b719b", "fusion_lat": 0.0, "type": "electric_scooter", "lat": 38.8803865, "is_reserved": 0, "is_disabled": 0, "fusion_lon": 0.0, "bike_id": "92cec6cbe37db4016513e0c2b59b719b", "lon": -76.92722833333333, "rental_uris": {"ios": "https://dc.lft.to/lastmile_qr_scan", "android": "https://dc.lft.to/lastmile_qr_scan"}}, {"name": "f52dde86fd61207487f2ccfb28ed3656", "fusion_lat": 0.0, "type": "electric_scooter", "lat": 38.9048445, "is_reserved": 0, "is_disabled": 0, "fusion_lon": 0.0, "bike_id": "f52dde86fd61207487f2ccfb28ed3656", "lon": -77.04340933333333, "rental_uris": {"ios": "https://dc.lft.to/lastmile_qr_scan", "android": "https://dc.lft.to/lastmile_qr_scan"}}, {"name": "20d740805ad161d38693f94b4d0d036c", "fusion_lat": 0.0, "type": "electric_scooter", "lat": 38.9243785, "is_reserved": 0, "is_disabled": 0, "fusion_lon": 0.0, "bike_id": "20d740805ad161d38693f94b4d0d036c", "lon": -77.02976316666667, "rental_uris": {"ios": "https://dc.lft.to/lastmile_qr_scan", "android": "https://dc.lft.to/lastmile_qr_scan"}}, {"name": "10daa0db75f2de51fb99b88b5cdf8e26", "fusion_lat": 0.0, "type": "electric_bike", "lat": 38.880412, "is_reserved": 0, "is_disabled": 0, "fusion_lon": 0.0, "bike_id": "10daa0db75f2de51fb99b88b5cdf8e26", "lon": -77.01323, "rental_uris": {"ios": "https://dc.lft.to/lastmile_qr_scan", "android": "https://dc.lft.to/lastmile_qr_scan"}}, {"name": "49a857bea78730c80f211725b8bb67f5", "fusion_lat": 0.0, "type": "electric_scooter", "lat": 38.907460666666665, "is_reserved": 0, "is_disabled": 0, "fusion_lon": 0.0, "bike_id": "49a857bea78730c80f211725b8bb67f5", "lon": -77.0307795, "rental_uris": {"ios": "https://dc.lft.to/lastmile_qr_scan", "android": "https://dc.lft.to/lastmile_qr_scan"}}, {"name": "93c20ff4ad457412ff1d5a3a0d3f16e3", "fusion_lat": 0.0, "type": "electric_scooter", "lat": 38.90430716666667, "is_reserved": 0, "is_disabled": 0, "fusion_lon": 0.0, "bike_id": "93c20ff4ad457412ff1d5a3a0d3f16e3", "lon": -77.05311383333333, "rental_uris": {"ios": "https://dc.lft.to/lastmile_qr_scan", "android": "https://dc.lft.to/lastmile_qr_scan"}}, {"name": "eacbefce35ad1117a5f557da5b713f61", "fusion_lat": 0.0, "type": "electric_scooter", "lat": 38.911890166666666, "is_reserved": 0, "is_disabled": 0, "fusion_lon": 0.0, "bike_id": "eacbefce35ad1117a5f557da5b713f61", "lon": -77.03839916666666, "rental_uris": {"ios": "https://dc.lft.to/lastmile_qr_scan", "android": "https://dc.lft.to/lastmile_qr_scan"}}, {"name": "ab8d6ec03d227660825478ae4b8a5e22", "fusion_lat": 0.0, "type": "electric_scooter", "lat": 38.91943416666667, "is_reserved": 0, "is_disabled": 0, "fusion_lon": 0.0, "bike_id": "ab8d6ec03d227660825478ae4b8a5e22", "lon": -77.0454255, "rental_uris": {"ios": "https://dc.lft.to/lastmile_qr_scan", "android": "https://dc.lft.to/lastmile_qr_scan"}}, {"name": "de7d586cc31ff233ba9212c901dc85ca", "fusion_lat": 0.0, "type": "electric_scooter", "lat": 38.86072466666667, "is_reserved": 0, "is_disabled": 0, "fusion_lon": 0.0, "bike_id": "de7d586cc31ff233ba9212c901dc85ca", "lon": -76.96744166666667, "rental_uris": {"ios": "https://dc.lft.to/lastmile_qr_scan", "android": "https://dc.lft.to/lastmile_qr_scan"}}, {"name": "d1d4ef14e202694bf413feab1b889ca2", "fusion_lat": 0.0, "type": "electric_scooter", "lat": 38.906605666666664, "is_reserved": 0, "is_disabled": 0, "fusion_lon": 0.0, "bike_id": "d1d4ef14e202694bf413feab1b889ca2", "lon": -77.027165, "rental_uris": {"ios": "https://dc.lft.to/lastmile_qr_scan", "android": "https://dc.lft.to/lastmile_qr_scan"}}, {"name": "f6ae03b71842eea4d5e6b644823ce0b5", "fusion_lat": 0.0, "type": "electric_scooter", "lat": 38.90110816666667, "is_reserved": 0, "is_disabled": 0, "fusion_lon": 0.0, "bike_id": "f6ae03b71842eea4d5e6b644823ce0b5", "lon": -77.04981166666667, "rental_uris": {"ios": "https://dc.lft.to/lastmile_qr_scan", "android": "https://dc.lft.to/lastmile_qr_scan"}}, {"name": "94bd480535c537ec756e30ebbf78e477", "fusion_lat": 0.0, "type": "electric_scooter", "lat": 38.933585666666666, "is_reserved": 0, "is_disabled": 0, "fusion_lon": 0.0, "bike_id": "94bd480535c537ec756e30ebbf78e477", "lon": -77.03454133333334, "rental_uris": {"ios": "https://dc.lft.to/lastmile_qr_scan", "android": "https://dc.lft.to/lastmile_qr_scan"}}, {"name": "e5d3de918758ea6a4b49cbf2d74883fa", "fusion_lat": 0.0, "type": "electric_scooter", "lat": 38.914001, "is_reserved": 0, "is_disabled": 0, "fusion_lon": 0.0, "bike_id": "e5d3de918758ea6a4b49cbf2d74883fa", "lon": -77.01226666666666, "rental_uris": {"ios": "https://dc.lft.to/lastmile_qr_scan", "android": "https://dc.lft.to/lastmile_qr_scan"}}, {"name": "81c4e0941b0302eff0f1038b8efeb469", "fusion_lat": 0.0, "type": "electric_scooter", "lat": 38.91696483333333, "is_reserved": 0, "is_disabled": 0, "fusion_lon": 0.0, "bike_id": "81c4e0941b0302eff0f1038b8efeb469", "lon": -77.04337166666667, "rental_uris": {"ios": "https://dc.lft.to/lastmile_qr_scan", "android": "https://dc.lft.to/lastmile_qr_scan"}}, {"name": "e8fda6a0b7cfe2ad9b066e254de72a3c", "fusion_lat": 0.0, "type": "electric_scooter", "lat": 38.885922666666666, "is_reserved": 0, "is_disabled": 0, "fusion_lon": 0.0, "bike_id": "e8fda6a0b7cfe2ad9b066e254de72a3c", "lon": -77.0220645, "rental_uris": {"ios": "https://dc.lft.to/lastmile_qr_scan", "android": "https://dc.lft.to/lastmile_qr_scan"}}, {"name": "0f4967662e0db3915f20ca63609789ce", "fusion_lat": 0.0, "type": "electric_scooter", "lat": 38.920741666666665, "is_reserved": 0, "is_disabled": 0, "fusion_lon": 0.0, "bike_id": "0f4967662e0db3915f20ca63609789ce", "lon": -77.043974, "rental_uris": {"ios": "https://dc.lft.to/lastmile_qr_scan", "android": "https://dc.lft.to/lastmile_qr_scan"}}, {"name": "3eddb1f12879b36968b2e32ece64b86e", "fusion_lat": 0.0, "type": "electric_bike", "lat": 38.94072366666666, "is_reserved": 0, "is_disabled": 0, "fusion_lon": 0.0, "bike_id": "3eddb1f12879b36968b2e32ece64b86e", "lon": -77.03820883333333, "rental_uris": {"ios": "https://dc.lft.to/lastmile_qr_scan", "android": "https://dc.lft.to/lastmile_qr_scan"}}, {"name": "fe2e6656e9a00d1084c15f4fec898942", "fusion_lat": 0.0, "type": "electric_scooter", "lat": 38.934775333333334, "is_reserved": 0, "is_disabled": 0, "fusion_lon": 0.0, "bike_id": "fe2e6656e9a00d1084c15f4fec898942", "lon": -77.07270916666667, "rental_uris": {"ios": "https://dc.lft.to/lastmile_qr_scan", "android": "https://dc.lft.to/lastmile_qr_scan"}}, {"name": "21d930ac9abbfa5a04d5d6a32a538c0e", "fusion_lat": 0.0, "type": "electric_scooter", "lat": 38.899974, "is_reserved": 0, "is_disabled": 0, "fusion_lon": 0.0, "bike_id": "21d930ac9abbfa5a04d5d6a32a538c0e", "lon": -77.02940883333333, "rental_uris": {"ios": "https://dc.lft.to/lastmile_qr_scan", "android": "https://dc.lft.to/lastmile_qr_scan"}}, {"name": "69721036550078efb85a0baf5a27b8b5", "fusion_lat": 0.0, "type": "electric_scooter", "lat": 38.9249055, "is_reserved": 0, "is_disabled": 0, "fusion_lon": 0.0, "bike_id": "69721036550078efb85a0baf5a27b8b5", "lon": -77.02707166666667, "rental_uris": {"ios": "https://dc.lft.to/lastmile_qr_scan", "android": "https://dc.lft.to/lastmile_qr_scan"}}, {"name": "8841f54ad6d9dd543c77815d06e618c4", "fusion_lat": 0.0, "type": "electric_scooter", "lat": 38.91681716666667, "is_reserved": 0, "is_disabled": 0, "fusion_lon": 0.0, "bike_id": "8841f54ad6d9dd543c77815d06e618c4", "lon": -77.02966216666667, "rental_uris": {"ios": "https://dc.lft.to/lastmile_qr_scan", "android": "https://dc.lft.to/lastmile_qr_scan"}}, {"name": "3aa75e25d768d8fb233710ec48b5bf83", "fusion_lat": 0.0, "type": "electric_scooter", "lat": 38.90560983333334, "is_reserved": 0, "is_disabled": 0, "fusion_lon": 0.0, "bike_id": "3aa75e25d768d8fb233710ec48b5bf83", "lon": -77.0371495, "rental_uris": {"ios": "https://dc.lft.to/lastmile_qr_scan", "android": "https://dc.lft.to/lastmile_qr_scan"}}, {"name": "a21a54e86f93c336f8a243f14d5427f2", "fusion_lat": 0.0, "type": "electric_scooter", "lat": 38.868248333333334, "is_reserved": 0, "is_disabled": 0, "fusion_lon": 0.0, "bike_id": "a21a54e86f93c336f8a243f14d5427f2", "lon": -76.98614566666667, "rental_uris": {"ios": "https://dc.lft.to/lastmile_qr_scan", "android": "https://dc.lft.to/lastmile_qr_scan"}}, {"name": "ea8e82c74996a6bd6f3143142fae86aa", "fusion_lat": 0.0, "type": "electric_scooter", "lat": 38.92481, "is_reserved": 0, "is_disabled": 0, "fusion_lon": 0.0, "bike_id": "ea8e82c74996a6bd6f3143142fae86aa", "lon": -77.02996233333333, "rental_uris": {"ios": "https://dc.lft.to/lastmile_qr_scan", "android": "https://dc.lft.to/lastmile_qr_scan"}}, {"name": "0d35895d6f6f46fb4d2141378995ea08", "fusion_lat": 0.0, "type": "electric_scooter", "lat": 38.938663, "is_reserved": 0, "is_disabled": 0, "fusion_lon": 0.0, "bike_id": "0d35895d6f6f46fb4d2141378995ea08", "lon": -77.02216866666667, "rental_uris": {"ios": "https://dc.lft.to/lastmile_qr_scan", "android": "https://dc.lft.to/lastmile_qr_scan"}}, {"name": "1298b2430a463423d733606fdc845f16", "fusion_lat": 0.0, "type": "electric_scooter", "lat": 38.928603, "is_reserved": 0, "is_disabled": 0, "fusion_lon": 0.0, "bike_id": "1298b2430a463423d733606fdc845f16", "lon": -77.01408633333334, "rental_uris": {"ios": "https://dc.lft.to/lastmile_qr_scan", "android": "https://dc.lft.to/lastmile_qr_scan"}}, {"name": "798631a44d3c0c090e7f5e6a60a1c684", "fusion_lat": 0.0, "type": "electric_scooter", "lat": 38.9158745, "is_reserved": 0, "is_disabled": 0, "fusion_lon": 0.0, "bike_id": "798631a44d3c0c090e7f5e6a60a1c684", "lon": -77.042567, "rental_uris": {"ios": "https://dc.lft.to/lastmile_qr_scan", "android": "https://dc.lft.to/lastmile_qr_scan"}}, {"name": "ec15e9af32a58470127747d3ced3cf19", "fusion_lat": 0.0, "type": "electric_scooter", "lat": 38.92381366666667, "is_reserved": 0, "is_disabled": 0, "fusion_lon": 0.0, "bike_id": "ec15e9af32a58470127747d3ced3cf19", "lon": -77.039081, "rental_uris": {"ios": "https://dc.lft.to/lastmile_qr_scan", "android": "https://dc.lft.to/lastmile_qr_scan"}}, {"name": "5de0452352c5d3c1e7a99374a4497c25", "fusion_lat": 0.0, "type": "electric_scooter", "lat": 38.885762, "is_reserved": 0, "is_disabled": 0, "fusion_lon": 0.0, "bike_id": "5de0452352c5d3c1e7a99374a4497c25", "lon": -76.9950065, "rental_uris": {"ios": "https://dc.lft.to/lastmile_qr_scan", "android": "https://dc.lft.to/lastmile_qr_scan"}}, {"name": "a5338017408b4bdd32c35d790aa57f49", "fusion_lat": 0.0, "type": "electric_scooter", "lat": 38.91673183333333, "is_reserved": 0, "is_disabled": 0, "fusion_lon": 0.0, "bike_id": "a5338017408b4bdd32c35d790aa57f49", "lon": -77.0318685, "rental_uris": {"ios": "https://dc.lft.to/lastmile_qr_scan", "android": "https://dc.lft.to/lastmile_qr_scan"}}, {"name": "1efd333ef271b4c32a63c45032d76a29", "fusion_lat": 0.0, "type": "electric_scooter", "lat": 38.915781333333335, "is_reserved": 0, "is_disabled": 0, "fusion_lon": 0.0, "bike_id": "1efd333ef271b4c32a63c45032d76a29", "lon": -77.01602166666666, "rental_uris": {"ios": "https://dc.lft.to/lastmile_qr_scan", "android": "https://dc.lft.to/lastmile_qr_scan"}}, {"name": "92d290164275b7c8022794b0ce72c1bd", "fusion_lat": 0.0, "type": "electric_scooter", "lat": 38.916448833333334, "is_reserved": 0, "is_disabled": 0, "fusion_lon": 0.0, "bike_id": "92d290164275b7c8022794b0ce72c1bd", "lon": -77.02306183333333, "rental_uris": {"ios": "https://dc.lft.to/lastmile_qr_scan", "android": "https://dc.lft.to/lastmile_qr_scan"}}, {"name": "8b91ec507525106d4c9e67b00bf79f5a", "fusion_lat": 0.0, "type": "electric_scooter", "lat": 38.866590333333335, "is_reserved": 0, "is_disabled": 0, "fusion_lon": 0.0, "bike_id": "8b91ec507525106d4c9e67b00bf79f5a", "lon": -76.9888665, "rental_uris": {"ios": "https://dc.lft.to/lastmile_qr_scan", "android": "https://dc.lft.to/lastmile_qr_scan"}}, {"name": "3a1bcbd580a6bf7e9a621d26f815f72e", "fusion_lat": 0.0, "type": "electric_scooter", "lat": 38.8810705, "is_reserved": 0, "is_disabled": 0, "fusion_lon": 0.0, "bike_id": "3a1bcbd580a6bf7e9a621d26f815f72e", "lon": -77.01212416666667, "rental_uris": {"ios": "https://dc.lft.to/lastmile_qr_scan", "android": "https://dc.lft.to/lastmile_qr_scan"}}, {"name": "03fc674d9df605357d399730e3f76377", "fusion_lat": 0.0, "type": "electric_scooter", "lat": 38.90504383333333, "is_reserved": 0, "is_disabled": 0, "fusion_lon": 0.0, "bike_id": "03fc674d9df605357d399730e3f76377", "lon": -76.9944935, "rental_uris": {"ios": "https://dc.lft.to/lastmile_qr_scan", "android": "https://dc.lft.to/lastmile_qr_scan"}}, {"name": "555fd619f8390a2394baa3152674b720", "fusion_lat": 0.0, "type": "electric_scooter", "lat": 38.906721833333336, "is_reserved": 0, "is_disabled": 0, "fusion_lon": 0.0, "bike_id": "555fd619f8390a2394baa3152674b720", "lon": -77.02707033333333, "rental_uris": {"ios": "https://dc.lft.to/lastmile_qr_scan", "android": "https://dc.lft.to/lastmile_qr_scan"}}, {"name": "76ec4d457b54d6fe0095a3a4f9c26912", "fusion_lat": 0.0, "type": "electric_bike", "lat": 39.105621, "is_reserved": 0, "is_disabled": 0, "fusion_lon": 0.0, "bike_id": "76ec4d457b54d6fe0095a3a4f9c26912", "lon": -77.152684, "rental_uris": {"ios": "https://dc.lft.to/lastmile_qr_scan", "android": "https://dc.lft.to/lastmile_qr_scan"}}, {"name": "03cc161e35c6126ee2c9b5e5bba85bbe", "fusion_lat": 0.0, "type": "electric_scooter", "lat": 38.902412, "is_reserved": 0, "is_disabled": 0, "fusion_lon": 0.0, "bike_id": "03cc161e35c6126ee2c9b5e5bba85bbe", "lon": -77.02691466666667, "rental_uris": {"ios": "https://dc.lft.to/lastmile_qr_scan", "android": "https://dc.lft.to/lastmile_qr_scan"}}, {"name": "2411dcaa3c4017c3d36ef96773a6b23a", "fusion_lat": 0.0, "type": "electric_scooter", "lat": 38.91926133333333, "is_reserved": 0, "is_disabled": 0, "fusion_lon": 0.0, "bike_id": "2411dcaa3c4017c3d36ef96773a6b23a", "lon": -77.04499266666667, "rental_uris": {"ios": "https://dc.lft.to/lastmile_qr_scan", "android": "https://dc.lft.to/lastmile_qr_scan"}}, {"name": "2ef22aa32b46ab80007bb5442f078edd", "fusion_lat": 0.0, "type": "electric_bike", "lat": 38.88645916666667, "is_reserved": 0, "is_disabled": 0, "fusion_lon": 0.0, "bike_id": "2ef22aa32b46ab80007bb5442f078edd", "lon": -77.16226516666667, "rental_uris": {"ios": "https://dc.lft.to/lastmile_qr_scan", "android": "https://dc.lft.to/lastmile_qr_scan"}}, {"name": "724b5f655aa6aebcdd13443d330f2e84", "fusion_lat": 0.0, "type": "electric_scooter", "lat": 38.897321166666664, "is_reserved": 0, "is_disabled": 0, "fusion_lon": 0.0, "bike_id": "724b5f655aa6aebcdd13443d330f2e84", "lon": -77.04645883333333, "rental_uris": {"ios": "https://dc.lft.to/lastmile_qr_scan", "android": "https://dc.lft.to/lastmile_qr_scan"}}, {"name": "f2dce828fab1276dc4d1f0325114da09", "fusion_lat": 0.0, "type": "electric_scooter", "lat": 38.909709, "is_reserved": 0, "is_disabled": 0, "fusion_lon": 0.0, "bike_id": "f2dce828fab1276dc4d1f0325114da09", "lon": -77.036777, "rental_uris": {"ios": "https://dc.lft.to/lastmile_qr_scan", "android": "https://dc.lft.to/lastmile_qr_scan"}},