{"data": {"bikes": [{"rental_uris": {"ios": "https://dc.lft.to/lastmile_qr_scan", "android": "https://dc.lft.to/lastmile_qr_scan"}, "type": "electric_scooter", "lon": -77.0097525, "lat": 38.9192565, "fusion_lon": 0.0, "name": "66010358e135cfeaa9a0730901aa64df", "bike_id": "66010358e135cfeaa9a0730901aa64df", "is_reserved": 0, "fusion_lat": 0.0, "is_disabled": 0}, {"rental_uris": {"ios": "https://dc.lft.to/lastmile_qr_scan", "android": "https://dc.lft.to/lastmile_qr_scan"}, "type": "electric_scooter", "lon": -77.015301, "lat": 38.88641066666667, "fusion_lon": 0.0, "name": "d73f3c6d55554d3356f4d52c97ae69fc", "bike_id": "d73f3c6d55554d3356f4d52c97ae69fc", "is_reserved": 0, "fusion_lat": 0.0, "is_disabled": 0}, {"rental_uris": {"ios": "https://dc.lft.to/lastmile_qr_scan", "android": "https://dc.lft.to/lastmile_qr_scan"}, "type": "electric_scooter", "lon": -76.99507433333333, "lat": 38.88011783333334, "fusion_lon": 0.0, "name": "b608b8d0180a24442b6ff836458e034c", "bike_id": "b608b8d0180a24442b6ff836458e034c", "is_reserved": 0, "fusion_lat": 0.0, "is_disabled": 0}, {"rental_uris": {"ios": "https://dc.lft.to/lastmile_qr_scan", "android": "https://dc.lft.to/lastmile_qr_scan"}, "type": "electric_scooter", "lon": -77.00930833333334, "lat": 38.912536333333335, "fusion_lon": 0.0, "name": "4228f28640484d597085e9fcea9274f3", "bike_id": "4228f28640484d597085e9fcea9274f3", "is_reserved": 0, "fusion_lat": 0.0, "is_disabled": 0}, {"rental_uris": {"ios": "https://dc.lft.to/lastmile_qr_scan", "android": "https://dc.lft.to/lastmile_qr_scan"}, "type": "electric_scooter", "lon": -77.01451083333333, "lat": 38.8994035, "fusion_lon": 0.0, "name": "0d99f2c14d674b43baceacba54d5a9a3", "bike_id": "0d99f2c14d674b43baceacba54d5a9a3", "is_reserved": 0, "fusion_lat": 0.0, "is_disabled": 0}, {"rental_uris": {"ios": "https://dc.lft.to/lastmile_qr_scan", "android": "https://dc.lft.to/lastmile_qr_scan"}, "type": "electric_scooter", "lon": -76.98665033333333, "lat": 38.91241133333333, "fusion_lon": 0.0, "name": "5d0c5749a38c44bbf94d776aeb2ed3af", "bike_id": "5d0c5749a38c44bbf94d776aeb2ed3af", "is_reserved": 0, "fusion_lat": 0.0, "is_disabled": 0}, {"rental_uris": {"ios": "https://dc.lft.to/lastmile_qr_scan", "android": "https://dc.lft.to/lastmile_qr_scan"}, "type": "electric_scooter", "lon": -77.0463915, "lat": 38.892220333333334, "fusion_lon": 0.0, "name": "0e3981155130ea2f49c66560c750f4cb", "bike_id": "0e3981155130ea2f49c66560c750f4cb", "is_reserved": 0, "fusion_lat": 0.0, "is_disabled": 0}, {"rental_uris": {"ios": "https://dc.lft.to/lastmile_qr_scan", "android": "https://dc.lft.to/lastmile_qr_scan"}, "type": "electric_scooter", "lon": -77.0660845, "lat": 38.93660033333333, "fusion_lon": 0.0, "name": "6f5a317a96f6366ffdb532ff98b14798", "bike_id": "6f5a317a96f6366ffdb532ff98b14798", "is_reserved": 0, "fusion_lat": 0.0, "is_disabled": 0}, {"rental_uris": {"ios": "https://dc.lft.to/lastmile_qr_scan", "android": "https://dc.lft.to/lastmile_qr_scan"}, "type": "electric_scooter", "lon": -76.9500105, "lat": 38.90611533333333, "fusion_lon": 0.0, "name": "e0ab809ad90d4e39719d30221c02ed4a", "bike_id": "e0ab809ad90d4e39719d30221c02ed4a", "is_reserved": 0, "fusion_lat": 0.0, "is_disabled": 0}, {"rental_uris": {"ios": "https://dc.lft.to/lastmile_qr_scan", "android": "https://dc.lft.to/lastmile_qr_scan"}, "type": "electric_scooter", "lon": -77.01979166666666, "lat": 38.911998, "fusion_lon": 0.0, "name": "d49874dece8231208def566f9810b3bf", "bike_id": "d49874dece8231208def566f9810b3bf", "is_reserved": 0, "fusion_lat": 0.0, "is_disabled": 0}, {"rental_uris": {"ios": "https://dc.lft.to/lastmile_qr_scan", "android": "https://dc.lft.to/lastmile_qr_scan"}, "type": "electric_scooter", "lon": -77.02695416666667, "lat": 38.906841666666665, "fusion_lon": 0.0, "name": "54730c5506e29043773a21518ab5bd45", "bike_id": "54730c5506e29043773a21518ab5bd45", "is_reserved": 0, "fusion_lat": 0.0, "is_disabled": 0}, {"rental_uris": {"ios": "https://dc.lft.to/lastmile_qr_scan", "android": "https://dc.lft.to/lastmile_qr_scan"}, "type": "electric_scooter", "lon": -77.02180466666667, "lat": 38.90697616666667, "fusion_lon": 0.0, "name": "a03707577a472b8ddfa1dcd5cb9fd409", "bike_id": "a03707577a472b8ddfa1dcd5cb9fd409", "is_reserved": 0, "fusion_lat": 0.0, "is_disabled": 0}, {"rental_uris": {"ios": "https://dc.lft.to/lastmile_qr_scan", "android": "https://dc.lft.to/lastmile_qr_scan"}, "type": "electric_scooter", "lon": -76.99587166666667, "lat": 38.92833866666667, "fusion_lon": 0.0, "name": "58b2ea313b66e6c02453706c6dd695ad", "bike_id": "58b2ea313b66e6c02453706c6dd695ad", "is_reserved": 0, "fusion_lat": 0.0, "is_disabled": 0}, {"rental_uris": {"ios": "https://dc.lft.to/lastmile_qr_scan", "android": "https://dc.lft.to/lastmile_qr_scan"}, "type": "electric_scooter", "lon": -77.01167533333333, "lat": 38.89613533333333, "fusion_lon": 0.0, "name": "90ed3f68bff5529949b5615af686ee0a", "bike_id": "90ed3f68bff5529949b5615af686ee0a", "is_reserved": 0, "fusion_lat": 0.0, "is_disabled": 0}, {"rental_uris": {"ios": "https://dc.lft.to/lastmile_qr_scan", "android": "https://dc.lft.to/lastmile_qr_scan"}, "type": "electric_scooter", "lon": -77.0522055, "lat": 38.92435183333333, "fusion_lon": 0.0, "name": "e8a0b579141c1425bfd761b75d4299dd", "bike_id": "e8a0b579141c1425bfd761b75d4299dd", "is_reserved": 0, "fusion_lat": 0.0, "is_disabled": 0}, {"rental_uris": {"ios": "https://dc.lft.to/lastmile_qr_scan", "android": "https://dc.lft.to/lastmile_qr_scan"}, "type": "electric_scooter", "lon": -77.0020825, "lat": 38.892580333333335, "fusion_lon": 0.0, "name": "544817cd0340cb7d2e28ea342ccda866", "bike_id": "544817cd0340cb7d2e28ea342ccda866", "is_reserved": 0, "fusion_lat": 0.0, "is_disabled": 0}, {"rental_uris": {"ios": "https://dc.lft.to/lastmile_qr_scan", "android": "https://dc.lft.to/lastmile_qr_scan"}, "type": "electric_scooter", "lon": -77.0328825, "lat": 38.8990615, "fusion_lon": 0.0, "name": "bf0fac386ca219bc281d19f9b29d2d3c", "bike_id": "bf0fac386ca219bc281d19f9b29d2d3c", "is_reserved": 0, "fusion_lat": 0.0, "is_disabled": 0}, {"rental_uris": {"ios": "https://dc.lft.to/lastmile_qr_scan", "android": "https://dc.lft.to/lastmile_qr_scan"}, "type": "electric_scooter", "lon": -76.9274295, "lat": 38.900664166666665, "fusion_lon": 0.0, "name": "7df1abb8f4e03cf432cf777489e371e1", "bike_id": "7df1abb8f4e03cf432cf777489e371e1", "is_reserved": 0, "fusion_lat": 0.0, "is_disabled": 0}, {"rental_uris": {"ios": "https://dc.lft.to/lastmile_qr_scan", "android": "https://dc.lft.to/lastmile_qr_scan"}, "type": "electric_scooter", "lon": -76.99293466666667, "lat": 38.88125466666666, "fusion_lon": 0.0, "name": "01fc79ca3aea5834dc498607778a3c19", "bike_id": "01fc79ca3aea5834dc498607778a3c19", "is_reserved": 0, "fusion_lat": 0.0, "is_disabled": 0}, {"rental_uris": {"ios": "https://dc.lft.to/lastmile_qr_scan", "android": "https://dc.lft.to/lastmile_qr_scan"}, "type": "electric_scooter", "lon": -76.99157316666667, "lat": 38.878612, "fusion_lon": 0.0, "name": "7319868820f25c329ab5acf8a44a513b", "bike_id": "7319868820f25c329ab5acf8a44a513b", "is_reserved": 0, "fusion_lat": 0.0, "is_disabled": 0}, {"rental_uris": {"ios": "https://dc.lft.to/lastmile_qr_scan", "android": "https://dc.lft.to/lastmile_qr_scan"}, "type": "electric_scooter", "lon": -77.0436535, "lat": 38.9112095, "fusion_lon": 0.0, "name": "261acaba0046f7da75395a453970760c", "bike_id": "261acaba0046f7da75395a453970760c", "is_reserved": 0, "fusion_lat": 0.0, "is_disabled": 0}, {"rental_uris": {"ios": "https://dc.lft.to/lastmile_qr_scan", "android": "https://dc.lft.to/lastmile_qr_scan"}, "type": "electric_scooter", "lon": -77.06380266666666, "lat": 38.90512366666667, "fusion_lon": 0.0, "name": "e01a21622d9f509d790daf1496b2d850", "bike_id": "e01a21622d9f509d790daf1496b2d850", "is_reserved": 0, "fusion_lat": 0.0, "is_disabled": 0}, {"rental_uris": {"ios": "https://dc.lft.to/lastmile_qr_scan", "android": "https://dc.lft.to/lastmile_qr_scan"}, "type": "electric_scooter", "lon": -77.022596, "lat": 38.902212, "fusion_lon": 0.0, "name": "68b4fcd44070de6c4fd9459125324e5c", "bike_id": "68b4fcd44070de6c4fd9459125324e5c", "is_reserved": 0, "fusion_lat": 0.0, "is_disabled": 0}, {"rental_uris": {"ios": "https://dc.lft.to/lastmile_qr_scan", "android": "https://dc.lft.to/lastmile_qr_scan"}, "type": "electric_scooter", "lon": -77.02586, "lat": 38.92676516666667, "fusion_lon": 0.0, "name": "29f2a7b7ed50531356318895fc8e16d0", "bike_id": "29f2a7b7ed50531356318895fc8e16d0", "is_reserved": 0, "fusion_lat": 0.0, "is_disabled": 0}, {"rental_uris": {"ios": "https://dc.lft.to/lastmile_qr_scan", "android": "https://dc.lft.to/lastmile_qr_scan"}, "type": "electric_scooter", "lon": -76.99400816666666, "lat": 38.91009, "fusion_lon": 0.0, "name": "3e2de44ee75b2da112aa3b20fcdd7a70", "bike_id": "3e2de44ee75b2da112aa3b20fcdd7a70", "is_reserved": 0, "fusion_lat": 0.0, "is_disabled": 0}, {"rental_uris": {"ios": "https://dc.lft.to/lastmile_qr_scan", "android": "https://dc.lft.to/lastmile_qr_scan"}, "type": "electric_scooter", "lon": -76.995102, "lat": 38.877660666666664, "fusion_lon": 0.0, "name": "d7d092faef763340d1b10be3b92b4434", "bike_id": "d7d092faef763340d1b10be3b92b4434", "is_reserved": 0, "fusion_lat": 0.0, "is_disabled": 0}, {"rental_uris": {"ios": "https://dc.lft.to/lastmile_qr_scan", "android": "https://dc.lft.to/lastmile_qr_scan"}, "type": "electric_scooter", "lon": -77.03722266666666, "lat": 38.92655383333334, "fusion_lon": 0.0, "name": "51f71017c6b2b9a26c2cd9bf20c1388a", "bike_id": "51f71017c6b2b9a26c2cd9bf20c1388a", "is_reserved": 0, "fusion_lat": 0.0, "is_disabled": 0}, {"rental_uris": {"ios": "https://dc.lft.to/lastmile_qr_scan", "android": "https://dc.lft.to/lastmile_qr_scan"}, "type": "electric_scooter", "lon": -77.02181116666667, "lat": 38.911245, "fusion_lon": 0.0, "name": "f16de4cfbbd308d41366555ef472b963", "bike_id": "f16de4cfbbd308d41366555ef472b963", "is_reserved": 0, "fusion_lat": 0.0, "is_disabled": 0}, {"rental_uris": {"ios": "https://dc.lft.to/lastmile_qr_scan", "android": "https://dc.lft.to/lastmile_qr_scan"}, "type": "electric_scooter", "lon": -77.02701266666666, "lat": 38.9195155, "fusion_lon": 0.0, "name": "89ee1206de7883a139fd96669b13ab6d", "bike_id": "89ee1206de7883a139fd96669b13ab6d", "is_reserved": 0, "fusion_lat": 0.0, "is_disabled": 0}, {"rental_uris": {"ios": "https://dc.lft.to/lastmile_qr_scan", "android": "https://dc.lft.to/lastmile_qr_scan"}, "type": "electric_scooter", "lon": -77.04487833333333, "lat": 38.915853166666665, "fusion_lon": 0.0, "name": "54415f2f8a2df9febf34bb1cf5c871f7", "bike_id": "54415f2f8a2df9febf34bb1cf5c871f7", "is_reserved": 0, "fusion_lat": 0.0, "is_disabled": 0}, {"rental_uris": {"ios": "https://dc.lft.to/lastmile_qr_scan", "android": "https://dc.lft.to/lastmile_qr_scan"}, "type": "electric_scooter", "lon": -77.060986, "lat": 38.905322, "fusion_lon": 0.0, "name": "9ef14f3597770a5f5ac8d6df2f8b02cc", "bike_id": "9ef14f3597770a5f5ac8d6df2f8b02cc", "is_reserved": 0, "fusion_lat": 0.0, "is_disabled": 0}, {"rental_uris": {"ios": "https://dc.lft.to/lastmile_qr_scan", "android": "https://dc.lft.to/lastmile_qr_scan"}, "type": "electric_scooter", "lon": -76.93750933333334, "lat": 38.890474, "fusion_lon": 0.0, "name": "9e7d876ea2f09bf0ce81fe7ab6aa01dc", "bike_id": "9e7d876ea2f09bf0ce81fe7ab6aa01dc", "is_reserved": 0, "fusion_lat": 0.0, "is_disabled": 0}, {"rental_uris": {"ios": "https://dc.lft.to/lastmile_qr_scan", "android": "https://dc.lft.to/lastmile_qr_scan"}, "type": "electric_scooter", "lon": -77.0382535, "lat": 38.92467833333333, "fusion_lon": 0.0, "name": "deabf6d014e5e5770221b7fe779e153c", "bike_id": "deabf6d014e5e5770221b7fe779e153c", "is_reserved": 0, "fusion_lat": 0.0, "is_disabled": 0}, {"rental_uris": {"ios": "https://dc.lft.to/lastmile_qr_scan", "android": "https://dc.lft.to/lastmile_qr_scan"}, "type": "electric_scooter", "lon": -77.02613966666667, "lat": 38.88109466666667, "fusion_lon": 0.0, "name": "63d2c50254e0ee37cf0af1c44821b46e", "bike_id": "63d2c50254e0ee37cf0af1c44821b46e", "is_reserved": 0, "fusion_lat": 0.0, "is_disabled": 0}, {"rental_uris": {"ios": "https://dc.lft.to/lastmile_qr_scan", "android": "https://dc.lft.to/lastmile_qr_scan"}, "type": "electric_scooter", "lon": -77.02201716666667, "lat": 38.905538166666666, "fusion_lon": 0.0, "name": "8d9a8cd4d4c859e6b542dc5012f15cca", "bike_id": "8d9a8cd4d4c859e6b542dc5012f15cca", "is_reserved": 0, "fusion_lat": 0.0, "is_disabled": 0}, {"rental_uris": {"ios": "https://dc.lft.to/lastmile_qr_scan", "android": "https://dc.lft.to/lastmile_qr_scan"}, "type": "electric_scooter", "lon": -77.05683066666667, "lat": 38.923315, "fusion_lon": 0.0, "name": "9503d3b78e364632ecce6809d0b0e12c", "bike_id": "9503d3b78e364632ecce6809d0b0e12c", "is_reserved": 0, "fusion_lat": 0.0, "is_disabled": 0}, {"rental_uris": {"ios": "https://dc.lft.to/lastmile_qr_scan", "android": "https://dc.lft.to/lastmile_qr_scan"}, "type": "electric_scooter", "lon": -77.03344133333333, "lat": 38.913552, "fusion_lon": 0.0, "name": "88956672c0887f191cdadc2bab9c7582", "bike_id": "88956672c0887f191cdadc2bab9c7582", "is_reserved": 0, "fusion_lat": 0.0, "is_disabled": 0}, {"rental_uris": {"ios": "https://dc.lft.to/lastmile_qr_scan", "android": "https://dc.lft.to/lastmile_qr_scan"}, "type": "electric_scooter", "lon": -77.0330295, "lat": 38.92909866666667, "fusion_lon": 0.0, "name": "0daa57965a05e6278611e81af088f6df", "bike_id": "0daa57965a05e6278611e81af088f6df", "is_reserved": 0, "fusion_lat": 0.0, "is_disabled": 0}, {"rental_uris": {"ios": "https://dc.lft.to/lastmile_qr_scan", "android": "https://dc.lft.to/lastmile_qr_scan"}, "type": "electric_scooter", "lon": -77.00344383333334, "lat": 38.892175333333334, "fusion_lon": 0.0, "name": "c095be4a7365972496c453a231ee71a9", "bike_id": "c095be4a7365972496c453a231ee71a9", "is_reserved": 0, "fusion_lat": 0.0, "is_disabled": 0}, {"rental_uris": {"ios": "https://dc.lft.to/lastmile_qr_scan", "android": "https://dc.lft.to/lastmile_qr_scan"}, "type": "electric_scooter", "lon": -76.99433116666667, "lat": 38.938606666666665, "fusion_lon": 0.0, "name": "2fc44142ba564ec4c9f11ef7ff4459e7", "bike_id": "2fc44142ba564ec4c9f11ef7ff4459e7", "is_reserved": 0, "fusion_lat": 0.0, "is_disabled": 0}, {"rental_uris": {"ios": "https://dc.lft.to/lastmile_qr_scan", "android": "https://dc.lft.to/lastmile_qr_scan"}, "type": "electric_bike", "lon": -76.94061766666667, "lat": 38.891288833333334, "fusion_lon": 0.0, "name": "6bbc851e28c976bebb761dbdf7f3e504", "bike_id": "6bbc851e28c976bebb761dbdf7f3e504", "is_reserved": 0, "fusion_lat": 0.0, "is_disabled": 0}, {"rental_uris": {"ios": "https://dc.lft.to/lastmile_qr_scan", "android": "https://dc.lft.to/lastmile_qr_scan"}, "type": "electric_scooter", "lon": -77.03217633333334, "lat": 38.8962625, "fusion_lon": 0.0, "name": "a6e5a90e1ec9ebbe14dd9113e0281dad", "bike_id": "a6e5a90e1ec9ebbe14dd9113e0281dad", "is_reserved": 0, "fusion_lat": 0.0, "is_disabled": 0}, {"rental_uris": {"ios": "https://dc.lft.to/lastmile_qr_scan", "android": "https://dc.lft.to/lastmile_qr_scan"}, "type": "electric_scooter", "lon": -77.0485995, "lat": 38.916217333333336, "fusion_lon": 0.0, "name": "b21d5a63a480d498380bc6ba3262548f", "bike_id": "b21d5a63a480d498380bc6ba3262548f", "is_reserved": 0, "fusion_lat": 0.0, "is_disabled": 0}, {"rental_uris": {"ios": "https://dc.lft.to/lastmile_qr_scan", "android": "https://dc.lft.to/lastmile_qr_scan"}, "type": "electric_scooter", "lon": -77.03207266666666, "lat": 38.892357, "fusion_lon": 0.0, "name": "15f6bfa6f9a7c0ce0489574bab2e7cc6", "bike_id": "15f6bfa6f9a7c0ce0489574bab2e7cc6", "is_reserved": 0, "fusion_lat": 0.0, "is_disabled": 0}, {"rental_uris": {"ios": "https://dc.lft.to/lastmile_qr_scan", "android": "https://dc.lft.to/lastmile_qr_scan"}, "type": "electric_scooter", "lon": -77.02285883333333, "lat": 38.90909216666667, "fusion_lon": 0.0, "name": "0f5678515e2bbbc88db68818b29fd76f", "bike_id": "0f5678515e2bbbc88db68818b29fd76f", "is_reserved": 0, "fusion_lat": 0.0, "is_disabled": 0}, {"rental_uris": {"ios": "https://dc.lft.to/lastmile_qr_scan", "android": "https://dc.lft.to/lastmile_qr_scan"}, "type": "electric_scooter", "lon": -77.0401745, "lat": 38.92449633333333, "fusion_lon": 0.0, "name": "b3bd0e37e2859c172f6248eb63b9f99a", "bike_id": "b3bd0e37e2859c172f6248eb63b9f99a", "is_reserved": 0, "fusion_lat": 0.0, "is_disabled": 0}, {"rental_uris": {"ios": "https://dc.lft.to/lastmile_qr_scan", "android": "https://dc.lft.to/lastmile_qr_scan"}, "type": "electric_scooter", "lon": -77.02228533333333, "lat": 38.9262525, "fusion_lon": 0.0, "name": "2b01ef8577bdb38a891ed2bef2d2ac29", "bike_id": "2b01ef8577bdb38a891ed2bef2d2ac29", "is_reserved": 0, "fusion_lat": 0.0, "is_disabled": 0}, {"rental_uris": {"ios": "https://dc.lft.to/lastmile_qr_scan", "android": "https://dc.lft.to/lastmile_qr_scan"}, "type": "electric_scooter", "lon": -77.01999716666667, "lat": 38.91364316666667, "fusion_lon": 0.0, "name": "8799673c491dd10d64f6839cafeaccae", "bike_id": "8799673c491dd10d64f6839cafeaccae", "is_reserved": 0, "fusion_lat": 0.0, "is_disabled": 0}, {"rental_uris": {"ios": "https://dc.lft.to/lastmile_qr_scan", "android": "https://dc.lft.to/lastmile_qr_scan"}, "type": "electric_scooter", "lon": -77.04362966666666, "lat": 38.90026183333333, "fusion_lon": 0.0, "name": "650d376f1df55a2de7f05896e4dce06a", "bike_id": "650d376f1df55a2de7f05896e4dce06a", "is_reserved": 0, "fusion_lat": 0.0, "is_disabled": 0}, {"rental_uris": {"ios": "https://dc.lft.to/lastmile_qr_scan", "android": "https://dc.lft.to/lastmile_qr_scan"}, "type": "electric_scooter", "lon": -77.043298, "lat": 38.906198, "fusion_lon": 0.0, "name": "a0d0ec9e42b4bebab8921d67ac7749df", "bike_id": "a0d0ec9e42b4bebab8921d67ac7749df", "is_reserved": 0, "fusion_lat": 0.0, "is_disabled": 0}, {"rental_uris": {"ios": "https://dc.lft.to/lastmile_qr_scan", "android": "https://dc.lft.to/lastmile_qr_scan"}, "type": "electric_scooter", "lon": -76.9396685, "lat": 38.88817516666667, "fusion_lon": 0.0, "name": "988b8221db8ae62eabd9306e803554d4", "bike_id": "988b8221db8ae62eabd9306e803554d4", "is_reserved": 0, "fusion_lat": 0.0, "is_disabled": 0}, {"rental_uris": {"ios": "https://dc.lft.to/lastmile_qr_scan", "android": "https://dc.lft.to/lastmile_qr_scan"}, "type": "electric_bike", "lon": -76.99492183333334, "lat": 38.96916216666666, "fusion_lon": 0.0, "name": "8d97c440c74a606b53241394edf48a32", "bike_id": "8d97c440c74a606b53241394edf48a32", "is_reserved": 0, "fusion_lat": 0.0, "is_disabled": 0}, {"rental_uris": {"ios": "https://dc.lft.to/lastmile_qr_scan", "android": "https://dc.lft.to/lastmile_qr_scan"}, "type": "electric_scooter", "lon": -77.04230566666666, "lat": 38.92172333333333, "fusion_lon": 0.0, "name": "e0e46adc359f1464c771d60c09fedb9d", "bike_id": "e0e46adc359f1464c771d60c09fedb9d", "is_reserved": 0, "fusion_lat": 0.0, "is_disabled": 0}, {"rental_uris": {"ios": "https://dc.lft.to/lastmile_qr_scan", "android": "https://dc.lft.to/lastmile_qr_scan"}, "type": "electric_scooter", "lon": -77.02204233333333, "lat": 38.92466533333333, "fusion_lon": 0.0, "name": "6551dab0a580f9dfbdb939ce2ec7bdac", "bike_id": "6551dab0a580f9dfbdb939ce2ec7bdac", "is_reserved": 0, "fusion_lat": 0.0, "is_disabled": 0}, {"rental_uris": {"ios": "https://dc.lft.to/lastmile_qr_scan", "android": "https://dc.lft.to/lastmile_qr_scan"}, "type": "electric_scooter", "lon": -77.00645266666666, "lat": 38.87185316666667, "fusion_lon": 0.0, "name": "b2de76ef2eaf72b9d97dc2667b0cc0d9", "bike_id": "b2de76ef2eaf72b9d97dc2667b0cc0d9", "is_reserved": 0, "fusion_lat": 0.0, "is_disabled": 0}, {"rental_uris": {"ios": "https://dc.lft.to/lastmile_qr_scan", "android": "https://dc.lft.to/lastmile_qr_scan"}, "type": "electric_scooter", "lon": -77.04450066666666, "lat": 38.910130333333335, "fusion_lon": 0.0, "name": "b3d1140bca282519c27adcd3b887b896", "bike_id": "b3d1140bca282519c27adcd3b887b896", "is_reserved": 0, "fusion_lat": 0.0, "is_disabled": 0}, {"rental_uris": {"ios": "https://dc.lft.to/lastmile_qr_scan", "android": "https://dc.lft.to/lastmile_qr_scan"}, "type": "electric_scooter", "lon": -77.03212883333333, "lat": 38.913267, "fusion_lon": 0.0, "name": "8d174a26b22579dc41f3ded93fc58939", "bike_id": "8d174a26b22579dc41f3ded93fc58939", "is_reserved": 0, "fusion_lat": 0.0, "is_disabled": 0}, {"rental_uris": {"ios": "https://dc.lft.to/lastmile_qr_scan", "android": "https://dc.lft.to/lastmile_qr_scan"}, "type": "electric_scooter", "lon": -77.04225816666667, "lat": 38.897364333333336, "fusion_lon": 0.0, "name": "062b2e93bd2581877f35aebba725e1e8", "bike_id": "062b2e93bd2581877f35aebba725e1e8", "is_reserved": 0, "fusion_lat": 0.0, "is_disabled": 0}, {"rental_uris": {"ios": "https://dc.lft.to/lastmile_qr_scan", "android": "https://dc.lft.to/lastmile_qr_scan"}, "type": "electric_scooter", "lon": -77.04355183333334, "lat": 38.9008785, "fusion_lon": 0.0, "name": "adbbd8d261c894ee7bfda5aedfc6165a", "bike_id": "adbbd8d261c894ee7bfda5aedfc6165a", "is_reserved": 0, "fusion_lat": 0.0, "is_disabled": 0}, {"rental_uris": {"ios": "https://dc.lft.to/lastmile_qr_scan", "android": "https://dc.lft.to/lastmile_qr_scan"}, "type": "electric_scooter", "lon": -76.9734765, "lat": 38.904049, "fusion_lon": 0.0, "name": "61c3980c6c85d5a5393ab60f4dbbaed6", "bike_id": "61c3980c6c85d5a5393ab60f4dbbaed6", "is_reserved": 0, "fusion_lat": 0.0, "is_disabled": 0}, {"rental_uris": {"ios": "https://dc.lft.to/lastmile_qr_scan", "android": "https://dc.lft.to/lastmile_qr_scan"}, "type": "electric_scooter", "lon": -76.98333916666667, "lat": 38.89542, "fusion_lon": 0.0, "name": "26c8d5f0fbc5a8abd719d44fd918e3fa", "bike_id": "26c8d5f0fbc5a8abd719d44fd918e3fa", "is_reserved": 0, "fusion_lat": 0.0, "is_disabled": 0}, {"rental_uris": {"ios": "https://dc.lft.to/lastmile_qr_scan", "android": "https://dc.lft.to/lastmile_qr_scan"}, "type": "electric_scooter", "lon": -77.00751416666667, "lat": 38.953793, "fusion_lon": 0.0, "name": "c54b58cb260405a672ae5e89f9c94004", "bike_id": "c54b58cb260405a672ae5e89f9c94004", "is_reserved": 0, "fusion_lat": 0.0, "is_disabled": 0}, {"rental_uris": {"ios": "https://dc.lft.to/lastmile_qr_scan", "android": "https://dc.lft.to/lastmile_qr_scan"}, "type": "electric_scooter", "lon": -77.0319005, "lat": 38.90800633333333, "fusion_lon": 0.0, "name": "6f76411505ba4653eec5dcc92f0e260d", "bike_id": "6f76411505ba4653eec5dcc92f0e260d", "is_reserved": 0, "fusion_lat": 0.0, "is_disabled": 0}, {"rental_uris": {"ios": "https://dc.lft.to/lastmile_qr_scan", "android": "https://dc.lft.to/lastmile_qr_scan"}, "type": "electric_scooter", "lon": -77.02714083333333, "lat": 38.89974866666667, "fusion_lon": 0.0, "name": "8308bc0cd3b4a27b24dc5dece7751072", "bike_id": "8308bc0cd3b4a27b24dc5dece7751072", "is_reserved": 0, "fusion_lat": 0.0, "is_disabled": 0}, {"rental_uris": {"ios": "https://dc.lft.to/lastmile_qr_scan", "android": "https://dc.lft.to/lastmile_qr_scan"}, "type": "electric_scooter", "lon": -77.03933183333334, "lat": 38.92493916666667, "fusion_lon": 0.0, "name": "a84b54f28ab2a98ac859b6c76370a37a", "bike_id": "a84b54f28ab2a98ac859b6c76370a37a", "is_reserved": 0, "fusion_lat": 0.0, "is_disabled": 0}, {"rental_uris": {"ios": "https://dc.lft.to/lastmile_qr_scan", "android": "https://dc.lft.to/lastmile_qr_scan"}, "type": "electric_scooter", "lon": -77.031598, "lat": 38.88677766666667, "fusion_lon": 0.0, "name": "84c6fc66a4368c491e952413d3358377", "bike_id": "84c6fc66a4368c491e952413d3358377", "is_reserved": 0, "fusion_lat": 0.0, "is_disabled": 0}, {"rental_uris": {"ios": "https://dc.lft.to/lastmile_qr_scan", "android": "https://dc.lft.to/lastmile_qr_scan"}, "type": "electric_scooter", "lon": -76.94795883333333, "lat": 38.8964025, "fusion_lon": 0.0, "name": "1cf7b4b5a9b68da605daeb2991525cc3", "bike_id": "1cf7b4b5a9b68da605daeb2991525cc3", "is_reserved": 0, "fusion_lat": 0.0, "is_disabled": 0}, {"rental_uris": {"ios": "https://dc.lft.to/lastmile_qr_scan", "android": "https://dc.lft.to/lastmile_qr_scan"}, "type": "electric_scooter", "lon": -77.03708533333334, "lat": 38.92637783333333, "fusion_lon": 0.0, "name": "5cf98d92e65817075a763df9e1ac94e1", "bike_id": "5cf98d92e65817075a763df9e1ac94e1", "is_reserved": 0, "fusion_lat": 0.0, "is_disabled": 0}, {"rental_uris": {"ios": "https://dc.lft.to/lastmile_qr_scan", "android": "https://dc.lft.to/lastmile_qr_scan"}, "type": "electric_scooter", "lon": -77.04274233333334, "lat": 38.892209, "fusion_lon": 0.0, "name": "3862c3a0c215c1a8989e676d7302ce71", "bike_id": "3862c3a0c215c1a8989e676d7302ce71", "is_reserved": 0, "fusion_lat": 0.0, "is_disabled": 0}, {"rental_uris": {"ios": "https://dc.lft.to/lastmile_qr_scan", "android": "https://dc.lft.to/lastmile_qr_scan"}, "type": "electric_bike", "lon": -77.09521816666667, "lat": 38.838098333333335, "fusion_lon": 0.0, "name": "8784957009caabc8037133bd3063107b", "bike_id": "8784957009caabc8037133bd3063107b", "is_reserved": 0, "fusion_lat": 0.0, "is_disabled": 0}, {"rental_uris": {"ios": "https://dc.lft.to/lastmile_qr_scan", "android": "https://dc.lft.to/lastmile_qr_scan"}, "type": "electric_scooter", "lon": -77.0425185, "lat": 38.9206305, "fusion_lon": 0.0, "name": "375e681bae0178886e40319ea4e07739", "bike_id": "375e681bae0178886e40319ea4e07739", "is_reserved": 0, "fusion_lat": 0.0, "is_disabled": 0}, {"rental_uris": {"ios": "https://dc.lft.to/lastmile_qr_scan", "android": "https://dc.lft.to/lastmile_qr_scan"}, "type": "electric_scooter", "lon": -77.03544683333334, "lat": 38.92416516666667, "fusion_lon": 0.0, "name": "b7fa85a294d3dc4139b4aef20a96aa48", "bike_id": "b7fa85a294d3dc4139b4aef20a96aa48", "is_reserved": 0, "fusion_lat": 0.0, "is_disabled": 0}, {"rental_uris": {"ios": "https://dc.lft.to/lastmile_qr_scan", "android": "https://dc.lft.to/lastmile_qr_scan"}, "type": "electric_scooter", "lon": -76.92788633333333, "lat": 38.896856, "fusion_lon": 0.0, "name": "57c1cfbc2527182d809058d4b608209f", "bike_id": "57c1cfbc2527182d809058d4b608209f", "is_reserved": 0, "fusion_lat": 0.0, "is_disabled": 0}, {"rental_uris": {"ios": "https://dc.lft.to/lastmile_qr_scan", "android": "https://dc.lft.to/lastmile_qr_scan"}, "type": "electric_scooter", "lon": -77.03824516666667, "lat": 38.91695433333334, "fusion_lon": 0.0, "name": "607bf45cb3ee079905245cfc3207dd6f", "bike_id": "607bf45cb3ee079905245cfc3207dd6f", "is_reserved": 0, "fusion_lat": 0.0, "is_disabled": 0}, {"rental_uris": {"ios": "https://dc.lft.to/lastmile_qr_scan", "android": "https://dc.lft.to/lastmile_qr_scan"}, "type": "electric_scooter", "lon": -77.025362, "lat": 38.92093583333333, "fusion_lon": 0.0, "name": "00b75648c3779f1ca4e6f808ad787dc2", "bike_id": "00b75648c3779f1ca4e6f808ad787dc2", "is_reserved": 0, "fusion_lat": 0.0, "is_disabled": 0}, {"rental_uris": {"ios": "https://dc.lft.to/lastmile_qr_scan", "android": "https://dc.lft.to/lastmile_qr_scan"}, "type": "electric_scooter", "lon": -77.019826, "lat": 38.884768666666666, "fusion_lon": 0.0, "name": "f0ccdecfb1eb363702bb1d731e864eec", "bike_id": "f0ccdecfb1eb363702bb1d731e864eec", "is_reserved": 0, "fusion_lat": 0.0, "is_disabled": 0}, {"rental_uris": {"ios": "https://dc.lft.to/lastmile_qr_scan", "android": "https://dc.lft.to/lastmile_qr_scan"}, "type": "electric_bike", "lon": -76.96526233333333, "lat": 38.87476, "fusion_lon": 0.0, "name": "8c0bc454ae1b094c75dc92bb341cbbb6", "bike_id": "8c0bc454ae1b094c75dc92bb341cbbb6", "is_reserved": 0, "fusion_lat": 0.0, "is_disabled": 0}, {"rental_uris": {"ios": "https://dc.lft.to/lastmile_qr_scan", "android": "https://dc.lft.to/lastmile_qr_scan"}, "type": "electric_scooter", "lon": -77.02430616666666, "lat": 38.907258, "fusion_lon": 0.0, "name": "6ecc457c4fd3d56062ed58b098b1f0ef", "bike_id": "6ecc457c4fd3d56062ed58b098b1f0ef", "is_reserved": 0, "fusion_lat": 0.0, "is_disabled": 0}, {"rental_uris": {"ios": "https://dc.lft.to/lastmile_qr_scan", "android": "https://dc.lft.to/lastmile_qr_scan"}, "type": "electric_scooter", "lon": -77.07592383333333, "lat": 38.91217483333333, "fusion_lon": 0.0, "name": "0d65f2fdb9acb4d986891b4516a06b25", "bike_id": "0d65f2fdb9acb4d986891b4516a06b25", "is_reserved": 0, "fusion_lat": 0.0, "is_disabled": 0}, {"rental_uris": {"ios": "https://dc.lft.to/lastmile_qr_scan", "android": "https://dc.lft.to/lastmile_qr_scan"}, "type": "electric_scooter", "lon": -77.00581033333333, "lat": 38.903871333333335, "fusion_lon": 0.0, "name": "5f96b12e074bd886d7c47eaa818b8d3a", "bike_id": "5f96b12e074bd886d7c47eaa818b8d3a", "is_reserved": 0, "fusion_lat": 0.0, "is_disabled": 0}, {"rental_uris": {"ios": "https://dc.lft.to/lastmile_qr_scan", "android": "https://dc.lft.to/lastmile_qr_scan"}, "type": "electric_scooter", "lon": -76.99519933333333, "lat": 38.894831833333335, "fusion_lon": 0.0, "name": "4f3ae9013378cb0dcf02305ead525fed", "bike_id": "4f3ae9013378cb0dcf02305ead525fed", "is_reserved": 0, "fusion_lat": 0.0, "is_disabled": 0}, {"rental_uris": {"ios": "https://dc.lft.to/lastmile_qr_scan", "android": "https://dc.lft.to/lastmile_qr_scan"}, "type": "electric_scooter", "lon": -77.06377433333333, "lat": 38.944011333333336, "fusion_lon": 0.0, "name": "6008ed34d8344bf4ecbb406b49202a67", "bike_id": "6008ed34d8344bf4ecbb406b49202a67", "is_reserved": 0, "fusion_lat": 0.0, "is_disabled": 0}, {"rental_uris": {"ios": "https://dc.lft.to/lastmile_qr_scan", "android": "https://dc.lft.to/lastmile_qr_scan"}, "type": "electric_scooter", "lon": -76.95767283333333, "lat": 38.884396333333335, "fusion_lon": 0.0, "name": "14e9c364ac7a234cb9d28ee9fb981411", "bike_id": "14e9c364ac7a234cb9d28ee9fb981411", "is_reserved": 0, "fusion_lat": 0.0, "is_disabled": 0}, {"rental_uris": {"ios": "https://dc.lft.to/lastmile_qr_scan", "android": "https://dc.lft.to/lastmile_qr_scan"}, "type": "electric_scooter", "lon": -77.02608766666667, "lat": 38.906263, "fusion_lon": 0.0, "name": "c9a5c388d3c9bff648b21702aa7b9723", "bike_id": "c9a5c388d3c9bff648b21702aa7b9723", "is_reserved": 0, "fusion_lat": 0.0, "is_disabled": 0}, {"rental_uris": {"ios": "https://dc.lft.to/lastmile_qr_scan", "android": "https://dc.lft.to/lastmile_qr_scan"}, "type": "electric_scooter", "lon": -77.00066816666667, "lat": 38.87684083333333, "fusion_lon": 0.0, "name": "eda433861956fdb1ae1af90a20dace13", "bike_id": "eda433861956fdb1ae1af90a20dace13", "is_reserved": 0, "fusion_lat": 0.0, "is_disabled": 0}, {"rental_uris": {"ios": "https://dc.lft.to/lastmile_qr_scan", "android": "https://dc.lft.to/lastmile_qr_scan"}, "type": "electric_scooter", "lon": -77.024525, "lat": 38.89915233333333, "fusion_lon": 0.0, "name": "46f515b9d969b1e814ddd06821ae1620", "bike_id": "46f515b9d969b1e814ddd06821ae1620", "is_reserved": 0, "fusion_lat": 0.0, "is_disabled": 0}, {"rental_uris": {"ios": "https://dc.lft.to/lastmile_qr_scan", "android": "https://dc.lft.to/lastmile_qr_scan"}, "type": "electric_bike", "lon": -77.08411766666667, "lat": 38.832991, "fusion_lon": 0.0, "name": "45911fc972dea4eb2799226dac459dd9", "bike_id": "45911fc972dea4eb2799226dac459dd9", "is_reserved": 0, "fusion_lat": 0.0, "is_disabled": 0}, {"rental_uris": {"ios": "https://dc.lft.to/lastmile_qr_scan", "android": "https://dc.lft.to/lastmile_qr_scan"}, "type": "electric_scooter", "lon": -77.0058135, "lat": 38.875746666666664, "fusion_lon": 0.0, "name": "26c3786e2fd9ed6add51e2cf3b9cc29e", "bike_id": "26c3786e2fd9ed6add51e2cf3b9cc29e", "is_reserved": 0, "fusion_lat": 0.0, "is_disabled": 0}, {"rental_uris": {"ios": "https://dc.lft.to/lastmile_qr_scan", "android": "https://dc.lft.to/lastmile_qr_scan"}, "type": "electric_scooter", "lon": -77.02722716666666, "lat": 38.89675116666667, "fusion_lon": 0.0, "name": "a0c1d4c4fbb63977f0e69a39a545cae1", "bike_id": "a0c1d4c4fbb63977f0e69a39a545cae1", "is_reserved": 0, "fusion_lat": 0.0, "is_disabled": 0}, {"rental_uris": {"ios": "https://dc.lft.to/lastmile_qr_scan", "android": "https://dc.lft.to/lastmile_qr_scan"}, "type": "electric_scooter", "lon": -77.03651183333334, "lat": 38.90504966666666, "fusion_lon": 0.0, "name": "d1f92487c4e7e3e480204ccba1d81800", "bike_id": "d1f92487c4e7e3e480204ccba1d81800", "is_reserved": 0, "fusion_lat": 0.0, "is_disabled": 0}, {"rental_uris": {"ios": "https://dc.lft.to/lastmile_qr_scan", "android": "https://dc.lft.to/lastmile_qr_scan"}, "type": "electric_scooter", "lon": -77.02479083333333, "lat": 38.941957, "fusion_lon": 0.0, "name": "61971cba6c0bc63a6e97cfe0e43e6906", "bike_id": "61971cba6c0bc63a6e97cfe0e43e6906", "is_reserved": 0, "fusion_lat": 0.0, "is_disabled": 0}, {"rental_uris": {"ios": "https://dc.lft.to/lastmile_qr_scan", "android": "https://dc.lft.to/lastmile_qr_scan"}, "type": "electric_scooter", "lon": -77.08964533333334, "lat": 38.934490833333335, "fusion_lon": 0.0, "name": "dde8252e523ea86198fe6bb084615989", "bike_id": "dde8252e523ea86198fe6bb084615989", "is_reserved": 0, "fusion_lat": 0.0, "is_disabled": 0}, {"rental_uris": {"ios": "https://dc.lft.to/lastmile_qr_scan", "android": "https://dc.lft.to/lastmile_qr_scan"}, "type": "electric_scooter", "lon": -77.04354283333333, "lat": 38.90124183333333, "fusion_lon": 0.0, "name": "5c0fbb20ccba75d36020cb895d76fe34", "bike_id": "5c0fbb20ccba75d36020cb895d76fe34", "is_reserved": 0, "fusion_lat": 0.0, "is_disabled": 0}, {"rental_uris": {"ios": "https://dc.lft.to/lastmile_qr_scan", "android": "https://dc.lft.to/lastmile_qr_scan"}, "type": "electric_scooter", "lon": -77.0319245, "lat": 38.918662, "fusion_lon": 0.0, "name": "d6f83c46b8aac6f64b34109e0bdb186a", "bike_id": "d6f83c46b8aac6f64b34109e0bdb186a", "is_reserved": 0, "fusion_lat": 0.0, "is_disabled": 0}, {"rental_uris": {"ios": "https://dc.lft.to/lastmile_qr_scan", "android": "https://dc.lft.to/lastmile_qr_scan"}, "type": "electric_scooter", "lon": -77.05997116666667, "lat": 38.905282166666666, "fusion_lon": 0.0, "name": "376fbba8b6638eef63fad43bce644041", "bike_id": "376fbba8b6638eef63fad43bce644041", "is_reserved": 0, "fusion_lat": 0.0, "is_disabled": 0}, {"rental_uris": {"ios": "https://dc.lft.to/lastmile_qr_scan", "android": "https://dc.lft.to/lastmile_qr_scan"}, "type": "electric_scooter", "lon": -77.03216833333333, "lat": 38.91997216666667, "fusion_lon": 0.0, "name": "318db67b0c818aa36d232ba8b763ff92", "bike_id": "318db67b0c818aa36d232ba8b763ff92", "is_reserved": 0, "fusion_lat": 0.0, "is_disabled": 0}, {"rental_uris": {"ios": "https://dc.lft.to/lastmile_qr_scan", "android": "https://dc.lft.to/lastmile_qr_scan"}, "type": "electric_bike", "lon": -77.07384383333333, "lat": 38.9259855, "fusion_lon": 0.0, "name": "f179f496ed53b8ba5a6c69186980ffa8", "bike_id": "f179f496ed53b8ba5a6c69186980ffa8", "is_reserved": 0, "fusion_lat": 0.0, "is_disabled": 0}, {"rental_uris": {"ios": "https://dc.lft.to/lastmile_qr_scan", "android": "https://dc.lft.to/lastmile_qr_scan"}, "type": "electric_scooter", "lon": -77.0269505, "lat": 38.97317616666667, "fusion_lon": 0.0, "name": "739330616da90dc1d99535a62f0861e6", "bike_id": "739330616da90dc1d99535a62f0861e6", "is_reserved": 0, "fusion_lat": 0.0, "is_disabled": 0}, {"rental_uris": {"ios": "https://dc.lft.to/lastmile_qr_scan", "android": "https://dc.lft.to/lastmile_qr_scan"}, "type": "electric_scooter", "lon": -77.025876, "lat": 38.904414, "fusion_lon": 0.0, "name": "bda55ff6b0e5b3f2c41bc264060f10d3", "bike_id": "bda55ff6b0e5b3f2c41bc264060f10d3", "is_reserved": 0, "fusion_lat": 0.0, "is_disabled": 0}, {"rental_uris": {"ios": "https://dc.lft.to/lastmile_qr_scan", "android": "https://dc.lft.to/lastmile_qr_scan"}, "type": "electric_scooter", "lon": -77.01515166666667, "lat": 38.926763, "fusion_lon": 0.0, "name": "6d5683c9d0e06fc468f9c908fdc0c3cd", "bike_id": "6d5683c9d0e06fc468f9c908fdc0c3cd", "is_reserved": 0, "fusion_lat": 0.0, "is_disabled": 0}, {"rental_uris": {"ios": "https://dc.lft.to/lastmile_qr_scan", "android": "https://dc.lft.to/lastmile_qr_scan"}, "type": "electric_scooter", "lon": -77.0270985, "lat": 38.92411333333333, "fusion_lon": 0.0, "name": "6101b04d7bb18a089b9d5b2a9a4eeadb", "bike_id": "6101b04d7bb18a089b9d5b2a9a4eeadb", "is_reserved": 0, "fusion_lat": 0.0, "is_disabled": 0}, {"rental_uris": {"ios": "https://dc.lft.to/lastmile_qr_scan", "android": "https://dc.lft.to/lastmile_qr_scan"}, "type": "electric_scooter", "lon": -77.05920783333333, "lat": 38.902404, "fusion_lon": 0.0, "name": "5a8c3349900ca93b6428590ed7ccb48c", "bike_id": "5a8c3349900ca93b6428590ed7ccb48c", "is_reserved": 0, "fusion_lat": 0.0, "is_disabled": 0}, {"rental_uris": {"ios": "https://dc.lft.to/lastmile_qr_scan", "android": "https://dc.lft.to/lastmile_qr_scan"}, "type": "electric_scooter", "lon": -77.01052266666666, "lat": 38.91180666666666, "fusion_lon": 0.0, "name": "271c0b90f53c280fb86c41296aee7410", "bike_id": "271c0b90f53c280fb86c41296aee7410", "is_reserved": 0, "fusion_lat": 0.0, "is_disabled": 0}, {"rental_uris": {"ios": "https://dc.lft.to/lastmile_qr_scan", "android": "https://dc.lft.to/lastmile_qr_scan"}, "type": "electric_scooter", "lon": -77.0419795, "lat": 38.92464116666667, "fusion_lon": 0.0, "name": "fbb7aad53376b84cd2d6d66950cd7d85", "bike_id": "fbb7aad53376b84cd2d6d66950cd7d85", "is_reserved": 0, "fusion_lat": 0.0, "is_disabled": 0}, {"rental_uris": {"ios": "https://dc.lft.to/lastmile_qr_scan", "android": "https://dc.lft.to/lastmile_qr_scan"}, "type": "electric_scooter", "lon": -77.0217845, "lat": 38.90130833333333, "fusion_lon": 0.0, "name": "479ff5aed182fba7cbfee3e081c4a624", "bike_id": "479ff5aed182fba7cbfee3e081c4a624", "is_reserved": 0, "fusion_lat": 0.0, "is_disabled": 0}, {"rental_uris": {"ios": "https://dc.lft.to/lastmile_qr_scan", "android": "https://dc.lft.to/lastmile_qr_scan"}, "type": "electric_scooter", "lon": -77.020112, "lat": 38.924149166666666, "fusion_lon": 0.0, "name": "bd5563f23b2b4bde2f70cd3c6a7abb03", "bike_id": "bd5563f23b2b4bde2f70cd3c6a7abb03", "is_reserved": 0, "fusion_lat": 0.0, "is_disabled": 0}, {"rental_uris": {"ios": "https://dc.lft.to/lastmile_qr_scan", "android": "https://dc.lft.to/lastmile_qr_scan"}, "type": "electric_scooter", "lon": -77.0441335, "lat": 38.91131216666667, "fusion_lon": 0.0, "name": "fc51f98446981f9a04f2dd32be5d9e2b", "bike_id": "fc51f98446981f9a04f2dd32be5d9e2b", "is_reserved": 0, "fusion_lat": 0.0, "is_disabled": 0}, {"rental_uris": {"ios": "https://dc.lft.to/lastmile_qr_scan", "android": "https://dc.lft.to/lastmile_qr_scan"}, "type": "electric_scooter", "lon": -76.99173116666667, "lat": 38.9001175, "fusion_lon": 0.0, "name": "cf250391fd787ed4ab18e561a5b65c07", "bike_id": "cf250391fd787ed4ab18e561a5b65c07", "is_reserved": 0, "fusion_lat": 0.0, "is_disabled": 0}, {"rental_uris": {"ios": "https://dc.lft.to/lastmile_qr_scan", "android": "https://dc.lft.to/lastmile_qr_scan"}, "type": "electric_scooter", "lon": -77.02195616666667, "lat": 38.905251, "fusion_lon": 0.0, "name": "1059c5bc04edf92f0d6e4d00bccda072", "bike_id": "1059c5bc04edf92f0d6e4d00bccda072", "is_reserved": 0, "fusion_lat": 0.0, "is_disabled": 0}, {"rental_uris": {"ios": "https://dc.lft.to/lastmile_qr_scan", "android": "https://dc.lft.to/lastmile_qr_scan"}, "type": "electric_scooter", "lon": -76.98961616666666, "lat": 38.9013695, "fusion_lon": 0.0, "name": "a108baf423d5fa711c956f7743d3b219", "bike_id": "a108baf423d5fa711c956f7743d3b219", "is_reserved": 0, "fusion_lat": 0.0, "is_disabled": 0}, {"rental_uris": {"ios": "https://dc.lft.to/lastmile_qr_scan", "android": "https://dc.lft.to/lastmile_qr_scan"}, "type": "electric_scooter", "lon": -76.9809785, "lat": 38.903938, "fusion_lon": 0.0, "name": "9463eee425f1067eb652e3a2a290629d", "bike_id": "9463eee425f1067eb652e3a2a290629d", "is_reserved": 0, "fusion_lat": 0.0, "is_disabled": 0}, {"rental_uris": {"ios": "https://dc.lft.to/lastmile_qr_scan", "android": "https://dc.lft.to/lastmile_qr_scan"}, "type": "electric_scooter", "lon": -76.98540766666666, "lat": 38.8799675, "fusion_lon": 0.0, "name": "cf367789ef90ff92cf39a46f34d878bc", "bike_id": "cf367789ef90ff92cf39a46f34d878bc", "is_reserved": 0, "fusion_lat": 0.0, "is_disabled": 0}, {"rental_uris": {"ios": "https://dc.lft.to/lastmile_qr_scan", "android": "https://dc.lft.to/lastmile_qr_scan"}, "type": "electric_scooter", "lon": -77.02955233333333, "lat": 38.899346, "fusion_lon": 0.0, "name": "2169a346f2920ee1953a49086a42cb36", "bike_id": "2169a346f2920ee1953a49086a42cb36", "is_reserved": 0, "fusion_lat": 0.0, "is_disabled": 0}, {"rental_uris": {"ios": "https://dc.lft.to/lastmile_qr_scan", "android": "https://dc.lft.to/lastmile_qr_scan"}, "type": "electric_scooter", "lon": -77.03203483333333, "lat": 38.8862255, "fusion_lon": 0.0, "name": "c99bdc824740c6c8f6c300ddad42d87b", "bike_id": "c99bdc824740c6c8f6c300ddad42d87b", "is_reserved": 0, "fusion_lat": 0.0, "is_disabled": 0}, {"rental_uris": {"ios": "https://dc.lft.to/lastmile_qr_scan", "android": "https://dc.lft.to/lastmile_qr_scan"}, "type": "electric_scooter", "lon": -77.07301183333334, "lat": 38.93539916666667, "fusion_lon": 0.0, "name": "5d49eba335845034b55d8f4a2f51a1c0", "bike_id": "5d49eba335845034b55d8f4a2f51a1c0", "is_reserved": 0, "fusion_lat": 0.0, "is_disabled": 0}, {"rental_uris": {"ios": "https://dc.lft.to/lastmile_qr_scan", "android": "https://dc.lft.to/lastmile_qr_scan"}, "type": "electric_scooter", "lon": -77.04026916666666, "lat": 38.92445716666667, "fusion_lon": 0.0, "name": "61f4049256a6496871ea48997b6d7e31", "bike_id": "61f4049256a6496871ea48997b6d7e31", "is_reserved": 0, "fusion_lat": 0.0, "is_disabled": 0}, {"rental_uris": {"ios": "https://dc.lft.to/lastmile_qr_scan", "android": "https://dc.lft.to/lastmile_qr_scan"}, "type": "electric_scooter", "lon": -77.02494383333334, "lat": 38.8973675, "fusion_lon": 0.0, "name": "69d8397b6720de17f2da1fcbd318f9f7", "bike_id": "69d8397b6720de17f2da1fcbd318f9f7", "is_reserved": 0, "fusion_lat": 0.0, "is_disabled": 0}, {"rental_uris": {"ios": "https://dc.lft.to/lastmile_qr_scan", "android": "https://dc.lft.to/lastmile_qr_scan"}, "type": "electric_scooter", "lon": -76.95217433333333, "lat": 38.8890095, "fusion_lon": 0.0, "name": "682a11f0cfbee26a36ba49ba7de29bdc", "bike_id": "682a11f0cfbee26a36ba49ba7de29bdc", "is_reserved": 0, "fusion_lat": 0.0, "is_disabled": 0}, {"rental_uris": {"ios": "https://dc.lft.to/lastmile_qr_scan", "android": "https://dc.lft.to/lastmile_qr_scan"}, "type": "electric_scooter", "lon": -77.0031855, "lat": 38.9243375, "fusion_lon": 0.0, "name": "064af28e18fc7eebe6603035d473eae7", "bike_id": "064af28e18fc7eebe6603035d473eae7", "is_reserved": 0, "fusion_lat": 0.0, "is_disabled": 0}, {"rental_uris": {"ios": "https://dc.lft.to/lastmile_qr_scan", "android": "https://dc.lft.to/lastmile_qr_scan"}, "type": "electric_bike", "lon": -76.96478666666667, "lat": 38.956026, "fusion_lon": 0.0, "name": "0fb8f51494d5be577d4687071e96d7bd", "bike_id": "0fb8f51494d5be577d4687071e96d7bd", "is_reserved": 0, "fusion_lat": 0.0, "is_disabled": 0}, {"rental_uris": {"ios": "https://dc.lft.to/lastmile_qr_scan", "android": "https://dc.lft.to/lastmile_qr_scan"}, "type": "electric_scooter", "lon": -77.0228495, "lat": 38.909107666666664, "fusion_lon": 0.0, "name": "9df17293c9de741fd440fd00d5d39c8b", "bike_id": "9df17293c9de741fd440fd00d5d39c8b", "is_reserved": 0, "fusion_lat": 0.0, "is_disabled": 0}, {"rental_uris": {"ios": "https://dc.lft.to/lastmile_qr_scan", "android": "https://dc.lft.to/lastmile_qr_scan"}, "type": "electric_scooter", "lon": -77.06094783333333, "lat": 38.90528966666667, "fusion_lon": 0.0, "name": "8e8345dd00eef1bef9b2d8ae1719e8f7", "bike_id": "8e8345dd00eef1bef9b2d8ae1719e8f7", "is_reserved": 0, "fusion_lat": 0.0, "is_disabled": 0}, {"rental_uris": {"ios": "https://dc.lft.to/lastmile_qr_scan", "android": "https://dc.lft.to/lastmile_qr_scan"}, "type": "electric_scooter", "lon": -76.92659566666667, "lat": 38.895460666666665, "fusion_lon": 0.0, "name": "8f0ca2e49193a4dbfb989567f746d7fe", "bike_id": "8f0ca2e49193a4dbfb989567f746d7fe", "is_reserved": 0, "fusion_lat": 0.0, "is_disabled": 0}, {"rental_uris": {"ios": "https://dc.lft.to/lastmile_qr_scan", "android": "https://dc.lft.to/lastmile_qr_scan"}, "type": "electric_scooter", "lon": -77.03318466666667, "lat": 38.898816, "fusion_lon": 0.0, "name": "110fac4e98688522cedc0ceef4e4abf0", "bike_id": "110fac4e98688522cedc0ceef4e4abf0", "is_reserved": 0, "fusion_lat": 0.0, "is_disabled": 0}, {"rental_uris": {"ios": "https://dc.lft.to/lastmile_qr_scan", "android": "https://dc.lft.to/lastmile_qr_scan"}, "type": "electric_scooter", "lon": -77.04377866666667, "lat": 38.91117933333334, "fusion_lon": 0.0, "name": "cb606862dfdd6a9754a51da3ddd76bb4", "bike_id": "cb606862dfdd6a9754a51da3ddd76bb4", "is_reserved": 0, "fusion_lat": 0.0, "is_disabled": 0}, {"rental_uris": {"ios": "https://dc.lft.to/lastmile_qr_scan", "android": "https://dc.lft.to/lastmile_qr_scan"}, "type": "electric_scooter", "lon": -77.0384745, "lat": 38.90895116666667, "fusion_lon": 0.0, "name": "e97c8159a048de468fe2087199ec0817", "bike_id": "e97c8159a048de468fe2087199ec0817", "is_reserved": 0, "fusion_lat": 0.0, "is_disabled": 0}, {"rental_uris": {"ios": "https://dc.lft.to/lastmile_qr_scan", "android": "https://dc.lft.to/lastmile_qr_scan"}, "type": "electric_scooter", "lon": -77.011964, "lat": 38.897626, "fusion_lon": 0.0, "name": "05b139f95028a39186966bcdc484c2ea", "bike_id": "05b139f95028a39186966bcdc484c2ea", "is_reserved": 0, "fusion_lat": 0.0, "is_disabled": 0}, {"rental_uris": {"ios": "https://dc.lft.to/lastmile_qr_scan", "android": "https://dc.lft.to/lastmile_qr_scan"}, "type": "electric_scooter", "lon": -77.05126066666666, "lat": 38.901666666666664, "fusion_lon": 0.0, "name": "35e8613e9f0367663f3c96346d4fd090", "bike_id": "35e8613e9f0367663f3c96346d4fd090", "is_reserved": 0, "fusion_lat": 0.0, "is_disabled": 0}, {"rental_uris": {"ios": "https://dc.lft.to/lastmile_qr_scan", "android": "https://dc.lft.to/lastmile_qr_scan"}, "type": "electric_scooter", "lon": -77.0278685, "lat": 38.89615466666667, "fusion_lon": 0.0, "name": "22494ce52ff4de16c3ce9bdea1d07393", "bike_id": "22494ce52ff4de16c3ce9bdea1d07393", "is_reserved": 0, "fusion_lat": 0.0, "is_disabled": 0}, {"rental_uris": {"ios": "https://dc.lft.to/lastmile_qr_scan", "android": "https://dc.lft.to/lastmile_qr_scan"}, "type": "electric_scooter", "lon": -77.01726466666666, "lat": 38.9025305, "fusion_lon": 0.0, "name": "3ebb140f0fa0e3e424b06295584273a7", "bike_id": "3ebb140f0fa0e3e424b06295584273a7", "is_reserved": 0, "fusion_lat": 0.0, "is_disabled": 0}, {"rental_uris": {"ios": "https://dc.lft.to/lastmile_qr_scan", "android": "https://dc.lft.to/lastmile_qr_scan"}, "type": "electric_scooter", "lon": -77.02199966666667, "lat": 38.893924, "fusion_lon": 0.0, "name": "5706c45a562a30203379dcf7a9b337af", "bike_id": "5706c45a562a30203379dcf7a9b337af", "is_reserved": 0, "fusion_lat": 0.0, "is_disabled": 0}, {"rental_uris": {"ios": "https://dc.lft.to/lastmile_qr_scan", "android": "https://dc.lft.to/lastmile_qr_scan"}, "type": "electric_scooter", "lon": -77.03264366666667, "lat": 38.91405616666667, "fusion_lon": 0.0, "name": "0320c176a67f41d424711f27c7e74256", "bike_id": "0320c176a67f41d424711f27c7e74256", "is_reserved": 0, "fusion_lat": 0.0, "is_disabled": 0}, {"rental_uris": {"ios": "https://dc.lft.to/lastmile_qr_scan", "android": "https://dc.lft.to/lastmile_qr_scan"}, "type": "electric_scooter", "lon": -77.0150585, "lat": 38.913139, "fusion_lon": 0.0, "name": "c98add942488e3438ca5727ef6117ec0", "bike_id": "c98add942488e3438ca5727ef6117ec0", "is_reserved": 0, "fusion_lat": 0.0, "is_disabled": 0}, {"rental_uris": {"ios": "https://dc.lft.to/lastmile_qr_scan", "android": "https://dc.lft.to/lastmile_qr_scan"}, "type": "electric_scooter", "lon": -77.02204083333334, "lat": 38.92472333333333, "fusion_lon": 0.0, "name": "4b58abf0c72082c8e59a6616df1f4840", "bike_id": "4b58abf0c72082c8e59a6616df1f4840", "is_reserved": 0, "fusion_lat": 0.0, "is_disabled": 0}, {"rental_uris": {"ios": "https://dc.lft.to/lastmile_qr_scan", "android": "https://dc.lft.to/lastmile_qr_scan"}, "type": "electric_scooter", "lon": -77.01527483333334, "lat": 38.90903266666667, "fusion_lon": 0.0, "name": "0f2dcf726ac0446c0c7dce3d1dc660c1", "bike_id": "0f2dcf726ac0446c0c7dce3d1dc660c1", "is_reserved": 0, "fusion_lat": 0.0, "is_disabled": 0}, {"rental_uris": {"ios": "https://dc.lft.to/lastmile_qr_scan", "android": "https://dc.lft.to/lastmile_qr_scan"}, "type": "electric_scooter", "lon": -77.019531, "lat": 38.923275833333335, "fusion_lon": 0.0, "name": "28026fb132bbbb1fcb303c350fca33a1", "bike_id": "28026fb132bbbb1fcb303c350fca33a1", "is_reserved": 0, "fusion_lat": 0.0, "is_disabled": 0}, {"rental_uris": {"ios": "https://dc.lft.to/lastmile_qr_scan", "android": "https://dc.lft.to/lastmile_qr_scan"}, "type": "electric_bike", "lon": -77.03690383333333, "lat": 38.9266345, "fusion_lon": 0.0, "name": "daea7b04a0f116890618423e784bea74", "bike_id": "daea7b04a0f116890618423e784bea74", "is_reserved": 0, "fusion_lat": 0.0, "is_disabled": 0}, {"rental_uris": {"ios": "https://dc.lft.to/lastmile_qr_scan", "android": "https://dc.lft.to/lastmile_qr_scan"}, "type": "electric_scooter", "lon": -77.01189183333334, "lat": 38.89692183333333, "fusion_lon": 0.0, "name": "626c5c5063fdf4075b1c287cd2e8e872", "bike_id": "626c5c5063fdf4075b1c287cd2e8e872", "is_reserved": 0, "fusion_lat": 0.0, "is_disabled": 0}, {"rental_uris": {"ios": "https://dc.lft.to/lastmile_qr_scan", "android": "https://dc.lft.to/lastmile_qr_scan"}, "type": "electric_scooter", "lon": -77.02553233333333, "lat": 38.89740716666667, "fusion_lon": 0.0, "name": "e04767073dfca8289d028280f3e7387d", "bike_id": "e04767073dfca8289d028280f3e7387d", "is_reserved": 0, "fusion_lat": 0.0, "is_disabled": 0}, {"rental_uris": {"ios": "https://dc.lft.to/lastmile_qr_scan", "android": "https://dc.lft.to/lastmile_qr_scan"}, "type": "electric_scooter", "lon": -77.005253, "lat": 38.88051383333333, "fusion_lon": 0.0, "name": "892411c63d72fb9c8f841048159af544", "bike_id": "892411c63d72fb9c8f841048159af544", "is_reserved": 0, "fusion_lat": 0.0, "is_disabled": 0}, {"rental_uris": {"ios": "https://dc.lft.to/lastmile_qr_scan", "android": "https://dc.lft.to/lastmile_qr_scan"}, "type": "electric_scooter", "lon": -76.98369016666666, "lat": 38.92199216666667, "fusion_lon": 0.0, "name": "d08050040ec474753cb09e208ea9db8b", "bike_id": "d08050040ec474753cb09e208ea9db8b", "is_reserved": 0, "fusion_lat": 0.0, "is_disabled": 0}, {"rental_uris": {"ios": "https://dc.lft.to/lastmile_qr_scan", "android": "https://dc.lft.to/lastmile_qr_scan"}, "type": "electric_scooter", "lon": -77.0449635, "lat": 38.89950316666667, "fusion_lon": 0.0, "name": "ff11347a6ae26ceac1010aa8e33b8374", "bike_id": "ff11347a6ae26ceac1010aa8e33b8374", "is_reserved": 0, "fusion_lat": 0.0, "is_disabled": 0}, {"rental_uris": {"ios": "https://dc.lft.to/lastmile_qr_scan", "android": "https://dc.lft.to/lastmile_qr_scan"}, "type": "electric_scooter", "lon": -77.0385745, "lat": 38.916620333333334, "fusion_lon": 0.0, "name": "a06c0d0e08e75b145c2b7ade1c6a24d0", "bike_id": "a06c0d0e08e75b145c2b7ade1c6a24d0", "is_reserved": 0, "fusion_lat": 0.0, "is_disabled": 0}, {"rental_uris": {"ios": "https://dc.lft.to/lastmile_qr_scan", "android": "https://dc.lft.to/lastmile_qr_scan"}, "type": "electric_scooter", "lon": -76.99168466666667, "lat": 38.873411833333336, "fusion_lon": 0.0, "name": "fe6d63bac2d65e23d2eb3bdb42e58268", "bike_id": "fe6d63bac2d65e23d2eb3bdb42e58268", "is_reserved": 0, "fusion_lat": 0.0, "is_disabled": 0}, {"rental_uris": {"ios": "https://dc.lft.to/lastmile_qr_scan", "android": "https://dc.lft.to/lastmile_qr_scan"}, "type": "electric_scooter", "lon": -77.041151, "lat": 38.9211715, "fusion_lon": 0.0, "name": "72278e2d19cef5346c08d2067abc5814", "bike_id": "72278e2d19cef5346c08d2067abc5814", "is_reserved": 0, "fusion_lat": 0.0, "is_disabled": 0}, {"rental_uris": {"ios": "https://dc.lft.to/lastmile_qr_scan", "android": "https://dc.lft.to/lastmile_qr_scan"}, "type": "electric_scooter", "lon": -77.03626416666667, "lat": 38.92856733333333, "fusion_lon": 0.0, "name": "d021fc3346bda03ca79b93c4a285bb94", "bike_id": "d021fc3346bda03ca79b93c4a285bb94", "is_reserved": 0, "fusion_lat": 0.0, "is_disabled": 0}, {"rental_uris": {"ios": "https://dc.lft.to/lastmile_qr_scan", "android": "https://dc.lft.to/lastmile_qr_scan"}, "type": "electric_scooter", "lon": -77.03717166666667, "lat": 38.92786983333333, "fusion_lon": 0.0, "name": "1cae981a12d7c84520509689503b95dc", "bike_id": "1cae981a12d7c84520509689503b95dc", "is_reserved": 0, "fusion_lat": 0.0, "is_disabled": 0}, {"rental_uris": {"ios": "https://dc.lft.to/lastmile_qr_scan", "android": "https://dc.lft.to/lastmile_qr_scan"}, "type": "electric_bike", "lon": -77.01797783333333, "lat": 38.9941175, "fusion_lon": 0.0, "name": "3c6dfdafaa0dec4ddf0b6a4fda83100a", "bike_id": "3c6dfdafaa0dec4ddf0b6a4fda83100a", "is_reserved": 0, "fusion_lat": 0.0, "is_disabled": 0}, {"rental_uris": {"ios": "https://dc.lft.to/lastmile_qr_scan", "android": "https://dc.lft.to/lastmile_qr_scan"}, "type": "electric_scooter", "lon": -77.033743, "lat": 38.901529, "fusion_lon": 0.0, "name": "476593eafb7adbaf7356602b1cd79e10", "bike_id": "476593eafb7adbaf7356602b1cd79e10", "is_reserved": 0, "fusion_lat": 0.0, "is_disabled": 0}, {"rental_uris": {"ios": "https://dc.lft.to/lastmile_qr_scan", "android": "https://dc.lft.to/lastmile_qr_scan"}, "type": "electric_scooter", "lon": -77.05243583333333, "lat": 38.9253005, "fusion_lon": 0.0, "name": "59fff80eb0cfed60b3ec9aeeadaeb716", "bike_id": "59fff80eb0cfed60b3ec9aeeadaeb716", "is_reserved": 0, "fusion_lat": 0.0, "is_disabled": 0}, {"rental_uris": {"ios": "https://dc.lft.to/lastmile_qr_scan", "android": "https://dc.lft.to/lastmile_qr_scan"}, "type": "electric_scooter", "lon": -77.00573816666666, "lat": 38.9062415, "fusion_lon": 0.0, "name": "ab5a99f21632d3d805bdb889e91e74ad", "bike_id": "ab5a99f21632d3d805bdb889e91e74ad", "is_reserved": 0, "fusion_lat": 0.0, "is_disabled": 0}, {"rental_uris": {"ios": "https://dc.lft.to/lastmile_qr_scan", "android": "https://dc.lft.to/lastmile_qr_scan"}, "type": "electric_scooter", "lon": -77.03699933333333, "lat": 38.922543166666664, "fusion_lon": 0.0, "name": "17bf86c442d5fa60a4a2a20393da9fcc", "bike_id": "17bf86c442d5fa60a4a2a20393da9fcc", "is_reserved": 0, "fusion_lat": 0.0, "is_disabled": 0}, {"rental_uris": {"ios": "https://dc.lft.to/lastmile_qr_scan", "android": "https://dc.lft.to/lastmile_qr_scan"}, "type": "electric_scooter", "lon": -77.024016, "lat": 38.924981, "fusion_lon": 0.0, "name": "7af90545008efb83ac34a485c8590001", "bike_id": "7af90545008efb83ac34a485c8590001", "is_reserved": 0, "fusion_lat": 0.0, "is_disabled": 0}, {"rental_uris": {"ios": "https://dc.lft.to/lastmile_qr_scan", "android": "https://dc.lft.to/lastmile_qr_scan"}, "type": "electric_scooter", "lon": -76.98993333333334, "lat": 38.8904195, "fusion_lon": 0.0, "name": "d62aa4592b7fc32e5327158fe5a3787b", "bike_id": "d62aa4592b7fc32e5327158fe5a3787b", "is_reserved": 0, "fusion_lat": 0.0, "is_disabled": 0}, {"rental_uris": {"ios": "https://dc.lft.to/lastmile_qr_scan", "android": "https://dc.lft.to/lastmile_qr_scan"}, "type": "electric_scooter", "lon": -77.0328895, "lat": 38.899013333333336, "fusion_lon": 0.0, "name": "3f42566f5458637ed8419381ebc241dc", "bike_id": "3f42566f5458637ed8419381ebc241dc", "is_reserved": 0, "fusion_lat": 0.0, "is_disabled": 0}, {"rental_uris": {"ios": "https://dc.lft.to/lastmile_qr_scan", "android": "https://dc.lft.to/lastmile_qr_scan"}, "type": "electric_scooter", "lon": -77.026945, "lat": 38.9168545, "fusion_lon": 0.0, "name": "a157099b73dfc05a67182bead127bb09", "bike_id": "a157099b73dfc05a67182bead127bb09", "is_reserved": 0, "fusion_lat": 0.0, "is_disabled": 0}, {"rental_uris": {"ios": "https://dc.lft.to/lastmile_qr_scan", "android": "https://dc.lft.to/lastmile_qr_scan"}, "type": "electric_bike", "lon": -76.986886, "lat": 38.944725, "fusion_lon": 0.0, "name": "11ccec1acde028c4a32c518c640dd82e", "bike_id": "11ccec1acde028c4a32c518c640dd82e", "is_reserved": 0, "fusion_lat": 0.0, "is_disabled": 0}, {"rental_uris": {"ios": "https://dc.lft.to/lastmile_qr_scan", "android": "https://dc.lft.to/lastmile_qr_scan"}, "type": "electric_scooter", "lon": -77.0033605, "lat": 38.89357183333333, "fusion_lon": 0.0, "name": "7d617004e86fe78002ab980a4ba5e359", "bike_id": "7d617004e86fe78002ab980a4ba5e359", "is_reserved": 0, "fusion_lat": 0.0, "is_disabled": 0}, {"rental_uris": {"ios": "https://dc.lft.to/lastmile_qr_scan", "android": "https://dc.lft.to/lastmile_qr_scan"}, "type": "electric_scooter", "lon": -76.99209416666666, "lat": 38.895209666666666, "fusion_lon": 0.0, "name": "f3146bbe400a63fdc31ee218769fc08f", "bike_id": "f3146bbe400a63fdc31ee218769fc08f", "is_reserved": 0, "fusion_lat": 0.0, "is_disabled": 0}, {"rental_uris": {"ios": "https://dc.lft.to/lastmile_qr_scan", "android": "https://dc.lft.to/lastmile_qr_scan"}, "type": "electric_scooter", "lon": -77.03524166666666, "lat": 38.92149166666667, "fusion_lon": 0.0, "name": "f9a896e0b616decf2f9675ebbef37366", "bike_id": "f9a896e0b616decf2f9675ebbef37366", "is_reserved": 0, "fusion_lat": 0.0, "is_disabled": 0}, {"rental_uris": {"ios": "https://dc.lft.to/lastmile_qr_scan", "android": "https://dc.lft.to/lastmile_qr_scan"}, "type": "electric_scooter", "lon": -77.00645033333333, "lat": 38.871848666666665, "fusion_lon": 0.0, "name": "8c8c0d64f1d7e6cbc0d84fe1e57efeba", "bike_id": "8c8c0d64f1d7e6cbc0d84fe1e57efeba", "is_reserved": 0, "fusion_lat": 0.0, "is_disabled": 0}, {"rental_uris": {"ios": "https://dc.lft.to/lastmile_qr_scan", "android": "https://dc.lft.to/lastmile_qr_scan"}, "type": "electric_scooter", "lon": -77.03178616666666, "lat": 38.909185, "fusion_lon": 0.0, "name": "2f4cd8fdaeebc06ec2ced41fa5e131f3", "bike_id": "2f4cd8fdaeebc06ec2ced41fa5e131f3", "is_reserved": 0, "fusion_lat": 0.0, "is_disabled": 0}, {"rental_uris": {"ios": "https://dc.lft.to/lastmile_qr_scan", "android": "https://dc.lft.to/lastmile_qr_scan"}, "type": "electric_scooter", "lon": -77.028293, "lat": 38.886557, "fusion_lon": 0.0, "name": "e0ffeb06a9f0d2d0f84e1048f6b78a2e", "bike_id": "e0ffeb06a9f0d2d0f84e1048f6b78a2e", "is_reserved": 0, "fusion_lat": 0.0, "is_disabled": 0}, {"rental_uris": {"ios": "https://dc.lft.to/lastmile_qr_scan", "android": "https://dc.lft.to/lastmile_qr_scan"}, "type": "electric_bike", "lon": -77.04446866666666, "lat": 39.025419666666664, "fusion_lon": 0.0, "name": "959a80885ba1655291d2b53e1f3016de", "bike_id": "959a80885ba1655291d2b53e1f3016de", "is_reserved": 0, "fusion_lat": 0.0, "is_disabled": 0}, {"rental_uris": {"ios": "https://dc.lft.to/lastmile_qr_scan", "android": "https://dc.lft.to/lastmile_qr_scan"}, "type": "electric_scooter", "lon": -77.0405735, "lat": 38.89886766666667, "fusion_lon": 0.0, "name": "a8e3f71ee8ed39b7ff15b40d9df913a7", "bike_id": "a8e3f71ee8ed39b7ff15b40d9df913a7", "is_reserved": 0, "fusion_lat": 0.0, "is_disabled": 0}, {"rental_uris": {"ios": "https://dc.lft.to/lastmile_qr_scan", "android": "https://dc.lft.to/lastmile_qr_scan"}, "type": "electric_bike", "lon": -76.9915065, "lat": 38.885867, "fusion_lon": 0.0, "name": "6dd15ba076d530349ccfbb1b28a5999e", "bike_id": "6dd15ba076d530349ccfbb1b28a5999e", "is_reserved": 0, "fusion_lat": 0.0, "is_disabled": 0}, {"rental_uris": {"ios": "https://dc.lft.to/lastmile_qr_scan", "android": "https://dc.lft.to/lastmile_qr_scan"}, "type": "electric_scooter", "lon": -77.04373166666667, "lat": 38.911202333333335, "fusion_lon": 0.0, "name": "9c171872495872df28189d5734bf9dff", "bike_id": "9c171872495872df28189d5734bf9dff", "is_reserved": 0, "fusion_lat": 0.0, "is_disabled": 0}, {"rental_uris": {"ios": "https://dc.lft.to/lastmile_qr_scan", "android": "https://dc.lft.to/lastmile_qr_scan"}, "type": "electric_scooter", "lon": -77.04637666666666, "lat": 38.89503583333333, "fusion_lon": 0.0, "name": "903936abb3f2cb294cea0e1247b47de6", "bike_id": "903936abb3f2cb294cea0e1247b47de6", "is_reserved": 0, "fusion_lat": 0.0, "is_disabled": 0}, {"rental_uris": {"ios": "https://dc.lft.to/lastmile_qr_scan", "android": "https://dc.lft.to/lastmile_qr_scan"}, "type": "electric_scooter", "lon": -77.0206315, "lat": 38.89984716666667, "fusion_lon": 0.0, "name": "315409eefb3fa0b5acb79d5c205c1b51", "bike_id": "315409eefb3fa0b5acb79d5c205c1b51", "is_reserved": 0, "fusion_lat": 0.0, "is_disabled": 0}, {"rental_uris": {"ios": "https://dc.lft.to/lastmile_qr_scan", "android": "https://dc.lft.to/lastmile_qr_scan"}, "type": "electric_scooter", "lon": -77.04248983333333, "lat": 38.920624833333335, "fusion_lon": 0.0, "name": "541b4b8d8ceb8c597ab58cafb484e630", "bike_id": "541b4b8d8ceb8c597ab58cafb484e630", "is_reserved": 0, "fusion_lat": 0.0, "is_disabled": 0}, {"rental_uris": {"ios": "https://dc.lft.to/lastmile_qr_scan", "android": "https://dc.lft.to/lastmile_qr_scan"}, "type": "electric_scooter", "lon": -77.01408183333334, "lat": 38.92843516666667, "fusion_lon": 0.0, "name": "18e8852ca10baa9caa8724db68c3e176", "bike_id": "18e8852ca10baa9caa8724db68c3e176", "is_reserved": 0, "fusion_lat": 0.0, "is_disabled": 0}, {"rental_uris": {"ios": "https://dc.lft.to/lastmile_qr_scan", "android": "https://dc.lft.to/lastmile_qr_scan"}, "type": "electric_scooter", "lon": -76.97574866666666, "lat": 38.89739216666667, "fusion_lon": 0.0, "name": "18885d62ac7df3377dc14617fea75e53", "bike_id": "18885d62ac7df3377dc14617fea75e53", "is_reserved": 0, "fusion_lat": 0.0, "is_disabled": 0}, {"rental_uris": {"ios": "https://dc.lft.to/lastmile_qr_scan", "android": "https://dc.lft.to/lastmile_qr_scan"}, "type": "electric_scooter", "lon": -77.0367965, "lat": 38.9232585, "fusion_lon": 0.0, "name": "749fdb7c5e7335e2d495bcc084addf06", "bike_id": "749fdb7c5e7335e2d495bcc084addf06", "is_reserved": 0, "fusion_lat": 0.0, "is_disabled": 0}, {"rental_uris": {"ios": "https://dc.lft.to/lastmile_qr_scan", "android": "https://dc.lft.to/lastmile_qr_scan"}, "type": "electric_scooter", "lon": -77.0271785, "lat": 38.897262166666664, "fusion_lon": 0.0, "name": "39bf5b790cb5a333e896cbb6efc9cd68", "bike_id": "39bf5b790cb5a333e896cbb6efc9cd68", "is_reserved": 0, "fusion_lat": 0.0, "is_disabled": 0}, {"rental_uris": {"ios": "https://dc.lft.to/lastmile_qr_scan", "android": "https://dc.lft.to/lastmile_qr_scan"}, "type": "electric_scooter", "lon": -76.93912966666667, "lat": 38.897179666666666, "fusion_lon": 0.0, "name": "9b814c1b599d6227823752ae711e235f", "bike_id": "9b814c1b599d6227823752ae711e235f", "is_reserved": 0, "fusion_lat": 0.0, "is_disabled": 0}, {"rental_uris": {"ios": "https://dc.lft.to/lastmile_qr_scan", "android": "https://dc.lft.to/lastmile_qr_scan"}, "type": "electric_scooter", "lon": -76.977061, "lat": 38.88820483333333, "fusion_lon": 0.0, "name": "a9b85aa2682208c954427e3c7e11f999", "bike_id": "a9b85aa2682208c954427e3c7e11f999", "is_reserved": 0, "fusion_lat": 0.0, "is_disabled": 0}, {"rental_uris": {"ios": "https://dc.lft.to/lastmile_qr_scan", "android": "https://dc.lft.to/lastmile_qr_scan"}, "type": "electric_scooter", "lon": -76.94890133333334, "lat": 38.8951035, "fusion_lon": 0.0, "name": "767f0feefc9721beb968937aadc8a94a", "bike_id": "767f0feefc9721beb968937aadc8a94a", "is_reserved": 0, "fusion_lat": 0.0, "is_disabled": 0}, {"rental_uris": {"ios": "https://dc.lft.to/lastmile_qr_scan", "android": "https://dc.lft.to/lastmile_qr_scan"}, "type": "electric_scooter", "lon": -77.04619616666666, "lat": 38.8936135, "fusion_lon": 0.0, "name": "f63746aa53baf901ba51b692ee24da1d", "bike_id": "f63746aa53baf901ba51b692ee24da1d", "is_reserved": 0, "fusion_lat": 0.0, "is_disabled": 0}, {"rental_uris": {"ios": "https://dc.lft.to/lastmile_qr_scan", "android": "https://dc.lft.to/lastmile_qr_scan"}, "type": "electric_scooter", "lon": -77.05754616666667, "lat": 38.924627, "fusion_lon": 0.0, "name": "45bd80f31ad0e029373dca941bc95ce5", "bike_id": "45bd80f31ad0e029373dca941bc95ce5", "is_reserved": 0, "fusion_lat": 0.0, "is_disabled": 0}, {"rental_uris": {"ios": "https://dc.lft.to/lastmile_qr_scan", "android": "https://dc.lft.to/lastmile_qr_scan"}, "type": "electric_scooter", "lon": -77.01167233333334, "lat": 38.87662683333333, "fusion_lon": 0.0, "name": "f9722276d597d70631d7ed46088d580c", "bike_id": "f9722276d597d70631d7ed46088d580c", "is_reserved": 0, "fusion_lat": 0.0, "is_disabled": 0}, {"rental_uris": {"ios": "https://dc.lft.to/lastmile_qr_scan", "android": "https://dc.lft.to/lastmile_qr_scan"}, "type": "electric_scooter", "lon": -77.04480766666667, "lat": 38.910999, "fusion_lon": 0.0, "name": "307e9a117a9a28ff9d53534757ca838a", "bike_id": "307e9a117a9a28ff9d53534757ca838a", "is_reserved": 0, "fusion_lat": 0.0, "is_disabled": 0}, {"rental_uris": {"ios": "https://dc.lft.to/lastmile_qr_scan", "android": "https://dc.lft.to/lastmile_qr_scan"}, "type": "electric_scooter", "lon": -77.0055105, "lat": 38.876578, "fusion_lon": 0.0, "name": "2c2e054e281f50941a0751a94ed6e7cd", "bike_id": "2c2e054e281f50941a0751a94ed6e7cd", "is_reserved": 0, "fusion_lat": 0.0, "is_disabled": 0}, {"rental_uris": {"ios": "https://dc.lft.to/lastmile_qr_scan", "android": "https://dc.lft.to/lastmile_qr_scan"}, "type": "electric_scooter", "lon": -77.032585, "lat": 38.9024205, "fusion_lon": 0.0, "name": "211ad5404e9b196cba4cb46d4c74de92", "bike_id": "211ad5404e9b196cba4cb46d4c74de92", "is_reserved": 0, "fusion_lat": 0.0, "is_disabled": 0}, {"rental_uris": {"ios": "https://dc.lft.to/lastmile_qr_scan", "android": "https://dc.lft.to/lastmile_qr_scan"}, "type": "electric_scooter", "lon": -77.00921533333333, "lat": 38.91067533333333, "fusion_lon": 0.0, "name": "881499d32f87d3b05834521596ac5626", "bike_id": "881499d32f87d3b05834521596ac5626", "is_reserved": 0, "fusion_lat": 0.0, "is_disabled": 0}, {"rental_uris": {"ios": "https://dc.lft.to/lastmile_qr_scan", "android": "https://dc.lft.to/lastmile_qr_scan"}, "type": "electric_scooter", "lon": -77.011362, "lat": 38.88527066666666, "fusion_lon": 0.0, "name": "4806350229465b3fc0d5ea573d4ec3f5", "bike_id": "4806350229465b3fc0d5ea573d4ec3f5", "is_reserved": 0, "fusion_lat": 0.0, "is_disabled": 0}, {"rental_uris": {"ios": "https://dc.lft.to/lastmile_qr_scan", "android": "https://dc.lft.to/lastmile_qr_scan"}, "type": "electric_scooter", "lon": -77.03252866666666, "lat": 38.95618133333333, "fusion_lon": 0.0, "name": "ab7241cd693cffe271b0c93e28285805", "bike_id": "ab7241cd693cffe271b0c93e28285805", "is_reserved": 0, "fusion_lat": 0.0, "is_disabled": 0}, {"rental_uris": {"ios": "https://dc.lft.to/lastmile_qr_scan", "android": "https://dc.lft.to/lastmile_qr_scan"}, "type": "electric_scooter", "lon": -77.06190916666667, "lat": 38.93016333333333, "fusion_lon": 0.0, "name": "b94ed8d48787361d31bd47b960ffb47a", "bike_id": "b94ed8d48787361d31bd47b960ffb47a", "is_reserved": 0, "fusion_lat": 0.0, "is_disabled": 0}, {"rental_uris": {"ios": "https://dc.lft.to/lastmile_qr_scan", "android": "https://dc.lft.to/lastmile_qr_scan"}, "type": "electric_scooter", "lon": -77.0382505, "lat": 38.9340555, "fusion_lon": 0.0, "name": "150c2e66e8cbea4a18037739b7d550f4", "bike_id": "150c2e66e8cbea4a18037739b7d550f4", "is_reserved": 0, "fusion_lat": 0.0, "is_disabled": 0}, {"rental_uris": {"ios": "https://dc.lft.to/lastmile_qr_scan", "android": "https://dc.lft.to/lastmile_qr_scan"}, "type": "electric_bike", "lon": -76.9704495, "lat": 38.95888733333334, "fusion_lon": 0.0, "name": "679f14db8a69d35f2ac58a50aaf2acfa", "bike_id": "679f14db8a69d35f2ac58a50aaf2acfa", "is_reserved": 0, "fusion_lat": 0.0, "is_disabled": 0}, {"rental_uris": {"ios": "https://dc.lft.to/lastmile_qr_scan", "android": "https://dc.lft.to/lastmile_qr_scan"}, "type": "electric_scooter", "lon": -77.0383955, "lat": 38.91108283333333, "fusion_lon": 0.0, "name": "fc291c2b97e0a2bcc83ca63d047e47a9", "bike_id": "fc291c2b97e0a2bcc83ca63d047e47a9", "is_reserved": 0, "fusion_lat": 0.0, "is_disabled": 0}, {"rental_uris": {"ios": "https://dc.lft.to/lastmile_qr_scan", "android": "https://dc.lft.to/lastmile_qr_scan"}, "type": "electric_scooter", "lon": -77.02199416666667, "lat": 38.912153833333335, "fusion_lon": 0.0, "name": "1de12ca1bc77328ca0f815da09dc7fca", "bike_id": "1de12ca1bc77328ca0f815da09dc7fca", "is_reserved": 0, "fusion_lat": 0.0, "is_disabled": 0}, {"rental_uris": {"ios": "https://dc.lft.to/lastmile_qr_scan", "android": "https://dc.lft.to/lastmile_qr_scan"}, "type": "electric_scooter", "lon": -77.0323475, "lat": 38.92690133333333, "fusion_lon": 0.0, "name": "76d7e0c69b6efa3d287a4a43ff9bd9c0", "bike_id": "76d7e0c69b6efa3d287a4a43ff9bd9c0", "is_reserved": 0, "fusion_lat": 0.0, "is_disabled": 0}, {"rental_uris": {"ios": "https://dc.lft.to/lastmile_qr_scan", "android": "https://dc.lft.to/lastmile_qr_scan"}, "type": "electric_scooter", "lon": -77.01888233333334, "lat": 38.922742, "fusion_lon": 0.0, "name": "5128e50300036cd45e75bf6ee6b790e2", "bike_id": "5128e50300036cd45e75bf6ee6b790e2", "is_reserved": 0, "fusion_lat": 0.0, "is_disabled": 0}, {"rental_uris": {"ios": "https://dc.lft.to/lastmile_qr_scan", "android": "https://dc.lft.to/lastmile_qr_scan"}, "type": "electric_scooter", "lon": -77.04682783333334, "lat": 38.892219, "fusion_lon": 0.0, "name": "b8d7100c5891b6a2bae276870aee7f3d", "bike_id": "b8d7100c5891b6a2bae276870aee7f3d", "is_reserved": 0, "fusion_lat": 0.0, "is_disabled": 0}, {"rental_uris": {"ios": "https://dc.lft.to/lastmile_qr_scan", "android": "https://dc.lft.to/lastmile_qr_scan"}, "type": "electric_scooter", "lon": -77.02447733333334, "lat": 38.92352283333334, "fusion_lon": 0.0, "name": "28f44aef548c3216956026bb7667772d", "bike_id": "28f44aef548c3216956026bb7667772d", "is_reserved": 0, "fusion_lat": 0.0, "is_disabled": 0}, {"rental_uris": {"ios": "https://dc.lft.to/lastmile_qr_scan", "android": "https://dc.lft.to/lastmile_qr_scan"}, "type": "electric_scooter", "lon": -77.02456266666667, "lat": 38.907733, "fusion_lon": 0.0, "name": "03b6990dabf263ba34eade638205bb5f", "bike_id": "03b6990dabf263ba34eade638205bb5f", "is_reserved": 0, "fusion_lat": 0.0, "is_disabled": 0}, {"rental_uris": {"ios": "https://dc.lft.to/lastmile_qr_scan", "android": "https://dc.lft.to/lastmile_qr_scan"}, "type": "electric_scooter", "lon": -77.02008166666667, "lat": 38.8767755, "fusion_lon": 0.0, "name": "d581a643d65e3e0190dd12c1b05b94bf", "bike_id": "d581a643d65e3e0190dd12c1b05b94bf", "is_reserved": 0, "fusion_lat": 0.0, "is_disabled": 0}, {"rental_uris": {"ios": "https://dc.lft.to/lastmile_qr_scan", "android": "https://dc.lft.to/lastmile_qr_scan"}, "type": "electric_bike", "lon": -76.8684745, "lat": 38.8940095, "fusion_lon": 0.0, "name": "66e2af2c8f1771a3359a682b7cf2646a", "bike_id": "66e2af2c8f1771a3359a682b7cf2646a", "is_reserved": 0, "fusion_lat": 0.0, "is_disabled": 0}, {"rental_uris": {"ios": "https://dc.lft.to/lastmile_qr_scan", "android": "https://dc.lft.to/lastmile_qr_scan"}, "type": "electric_scooter", "lon": -77.03183016666667, "lat": 38.911257666666664, "fusion_lon": 0.0, "name": "dcd715dd40f2730a272d3f00ef4f7fd1", "bike_id": "dcd715dd40f2730a272d3f00ef4f7fd1", "is_reserved": 0, "fusion_lat": 0.0, "is_disabled": 0}, {"rental_uris": {"ios": "https://dc.lft.to/lastmile_qr_scan", "android": "https://dc.lft.to/lastmile_qr_scan"}, "type": "electric_scooter", "lon": -77.0437165, "lat": 38.920732666666666, "fusion_lon": 0.0, "name": "36d8b79dbbe35ec6bdb7337fbeb4778e", "bike_id": "36d8b79dbbe35ec6bdb7337fbeb4778e", "is_reserved": 0, "fusion_lat": 0.0, "is_disabled": 0}, {"rental_uris": {"ios": "https://dc.lft.to/lastmile_qr_scan", "android": "https://dc.lft.to/lastmile_qr_scan"}, "type": "electric_scooter", "lon": -77.03331883333334, "lat": 38.903659, "fusion_lon": 0.0, "name": "b901952108818a564a3c2bcfc15df1fb", "bike_id": "b901952108818a564a3c2bcfc15df1fb", "is_reserved": 0, "fusion_lat": 0.0, "is_disabled": 0}, {"rental_uris": {"ios": "https://dc.lft.to/lastmile_qr_scan", "android": "https://dc.lft.to/lastmile_qr_scan"}, "type": "electric_scooter", "lon": -77.03711783333334, "lat": 38.93507283333334, "fusion_lon": 0.0, "name": "f881deb3ce439febadd7b0f7320a22b3", "bike_id": "f881deb3ce439febadd7b0f7320a22b3", "is_reserved": 0, "fusion_lat": 0.0, "is_disabled": 0}, {"rental_uris": {"ios": "https://dc.lft.to/lastmile_qr_scan", "android": "https://dc.lft.to/lastmile_qr_scan"}, "type": "electric_scooter", "lon": -77.05536316666667, "lat": 38.92795483333333, "fusion_lon": 0.0, "name": "e77bfdfe989aa188d4ef15d79b4727e0", "bike_id": "e77bfdfe989aa188d4ef15d79b4727e0", "is_reserved": 0, "fusion_lat": 0.0, "is_disabled": 0}, {"rental_uris": {"ios": "https://dc.lft.to/lastmile_qr_scan", "android": "https://dc.lft.to/lastmile_qr_scan"}, "type": "electric_scooter", "lon": -76.9810325, "lat": 38.9039405, "fusion_lon": 0.0, "name": "f8358f563be0a1a15b4769ceb7055a7a", "bike_id": "f8358f563be0a1a15b4769ceb7055a7a", "is_reserved": 0, "fusion_lat": 0.0, "is_disabled": 0}, {"rental_uris": {"ios": "https://dc.lft.to/lastmile_qr_scan", "android": "https://dc.lft.to/lastmile_qr_scan"}, "type": "electric_scooter", "lon": -77.006476, "lat": 38.871853333333334, "fusion_lon": 0.0, "name": "c288b95250fde82e2490281b22b702d9", "bike_id": "c288b95250fde82e2490281b22b702d9", "is_reserved": 0, "fusion_lat": 0.0, "is_disabled": 0}, {"rental_uris": {"ios": "https://dc.lft.to/lastmile_qr_scan", "android": "https://dc.lft.to/lastmile_qr_scan"}, "type": "electric_scooter", "lon": -77.0440785, "lat": 38.9202, "fusion_lon": 0.0, "name": "53f1a2fb99a08ed22fa42222407a0d85", "bike_id": "53f1a2fb99a08ed22fa42222407a0d85", "is_reserved": 0, "fusion_lat": 0.0, "is_disabled": 0}, {"rental_uris": {"ios": "https://dc.lft.to/lastmile_qr_scan", "android": "https://dc.lft.to/lastmile_qr_scan"}, "type": "electric_scooter", "lon": -77.039713, "lat": 38.924512166666666, "fusion_lon": 0.0, "name": "30e607d9741bc9c95368d6cf734edb60", "bike_id": "30e607d9741bc9c95368d6cf734edb60", "is_reserved": 0, "fusion_lat": 0.0, "is_disabled": 0}, {"rental_uris": {"ios": "https://dc.lft.to/lastmile_qr_scan", "android": "https://dc.lft.to/lastmile_qr_scan"}, "type": "electric_scooter", "lon": -77.02038216666666, "lat": 38.922117166666666, "fusion_lon": 0.0, "name": "ae6129774234bfe90ec0e823e66dfc6a", "bike_id": "ae6129774234bfe90ec0e823e66dfc6a", "is_reserved": 0, "fusion_lat": 0.0, "is_disabled": 0}, {"rental_uris": {"ios": "https://dc.lft.to/lastmile_qr_scan", "android": "https://dc.lft.to/lastmile_qr_scan"}, "type": "electric_scooter", "lon": -77.03661816666667, "lat": 38.915807, "fusion_lon": 0.0, "name": "4da39a127f422adbc0c5e61021abe44b", "bike_id": "4da39a127f422adbc0c5e61021abe44b", "is_reserved": 0, "fusion_lat": 0.0, "is_disabled": 0}, {"rental_uris": {"ios": "https://dc.lft.to/lastmile_qr_scan", "android": "https://dc.lft.to/lastmile_qr_scan"}, "type": "electric_scooter", "lon": -77.09190266666667, "lat": 38.91363466666667, "fusion_lon": 0.0, "name": "863ed0a71d29c14ef508cea2a3f166c6", "bike_id": "863ed0a71d29c14ef508cea2a3f166c6", "is_reserved": 0, "fusion_lat": 0.0, "is_disabled": 0}, {"rental_uris": {"ios": "https://dc.lft.to/lastmile_qr_scan", "android": "https://dc.lft.to/lastmile_qr_scan"}, "type": "electric_scooter", "lon": -76.96904633333334, "lat": 38.8652775, "fusion_lon": 0.0, "name": "a3600b1bd604160c2d92813166186307", "bike_id": "a3600b1bd604160c2d92813166186307", "is_reserved": 0, "fusion_lat": 0.0, "is_disabled": 0}, {"rental_uris": {"ios": "https://dc.lft.to/lastmile_qr_scan", "android": "https://dc.lft.to/lastmile_qr_scan"}, "type": "electric_scooter", "lon": -76.99735233333334, "lat": 38.88430266666667, "fusion_lon": 0.0, "name": "e3c0f619018c1faf9a118218666005be", "bike_id": "e3c0f619018c1faf9a118218666005be", "is_reserved": 0, "fusion_lat": 0.0, "is_disabled": 0}, {"rental_uris": {"ios": "https://dc.lft.to/lastmile_qr_scan", "android": "https://dc.lft.to/lastmile_qr_scan"}, "type": "electric_scooter", "lon": -76.95770783333333, "lat": 38.884437, "fusion_lon": 0.0, "name": "b7d5a9849c92422a6a7b377b8b43b083", "bike_id": "b7d5a9849c92422a6a7b377b8b43b083", "is_reserved": 0, "fusion_lat": 0.0, "is_disabled": 0}, {"rental_uris": {"ios": "https://dc.lft.to/lastmile_qr_scan", "android": "https://dc.lft.to/lastmile_qr_scan"}, "type": "electric_scooter", "lon": -76.97499283333333, "lat": 38.90308983333333, "fusion_lon": 0.0, "name": "8516294b14713f384a1a3ad3357e1bb8", "bike_id": "8516294b14713f384a1a3ad3357e1bb8", "is_reserved": 0, "fusion_lat": 0.0, "is_disabled": 0}, {"rental_uris": {"ios": "https://dc.lft.to/lastmile_qr_scan", "android": "https://dc.lft.to/lastmile_qr_scan"}, "type": "electric_scooter", "lon": -77.03849783333334, "lat": 38.91078916666667, "fusion_lon": 0.0, "name": "17bbbc4b2a2af2415174307685c350a2", "bike_id": "17bbbc4b2a2af2415174307685c350a2", "is_reserved": 0, "fusion_lat": 0.0, "is_disabled": 0}, {"rental_uris": {"ios": "https://dc.lft.to/lastmile_qr_scan", "android": "https://dc.lft.to/lastmile_qr_scan"}, "type": "electric_scooter", "lon": -77.0501545, "lat": 38.90723533333333, "fusion_lon": 0.0, "name": "98389fa7112dfef634075d7dc55a477c", "bike_id": "98389fa7112dfef634075d7dc55a477c", "is_reserved": 0, "fusion_lat": 0.0, "is_disabled": 0}, {"rental_uris": {"ios": "https://dc.lft.to/lastmile_qr_scan", "android": "https://dc.lft.to/lastmile_qr_scan"}, "type": "electric_bike", "lon": -77.02346933333334, "lat": 38.92303066666667, "fusion_lon": 0.0, "name": "266f755550d18938a45acceeb9dd5deb", "bike_id": "266f755550d18938a45acceeb9dd5deb", "is_reserved": 0, "fusion_lat": 0.0, "is_disabled": 0}, {"rental_uris": {"ios": "https://dc.lft.to/lastmile_qr_scan", "android": "https://dc.lft.to/lastmile_qr_scan"}, "type": "electric_scooter", "lon": -77.03662083333333, "lat": 38.92120283333333, "fusion_lon": 0.0, "name": "35073acd4caf6beb750a830a711564d5", "bike_id": "35073acd4caf6beb750a830a711564d5", "is_reserved": 0, "fusion_lat": 0.0, "is_disabled": 0}, {"rental_uris": {"ios": "https://dc.lft.to/lastmile_qr_scan", "android": "https://dc.lft.to/lastmile_qr_scan"}, "type": "electric_scooter", "lon": -77.002148, "lat": 38.911023, "fusion_lon": 0.0, "name": "06a9b749a561b22d005ebb0ec9a79cfd", "bike_id": "06a9b749a561b22d005ebb0ec9a79cfd", "is_reserved": 0, "fusion_lat": 0.0, "is_disabled": 0}, {"rental_uris": {"ios": "https://dc.lft.to/lastmile_qr_scan", "android": "https://dc.lft.to/lastmile_qr_scan"}, "type": "electric_scooter", "lon": -77.02379166666667, "lat": 38.89828633333333, "fusion_lon": 0.0, "name": "06507b37a464e718408d51d11dda735b", "bike_id": "06507b37a464e718408d51d11dda735b", "is_reserved": 0, "fusion_lat": 0.0, "is_disabled": 0}, {"rental_uris": {"ios": "https://dc.lft.to/lastmile_qr_scan", "android": "https://dc.lft.to/lastmile_qr_scan"}, "type": "electric_scooter", "lon": -77.022221, "lat": 38.920903833333334, "fusion_lon": 0.0, "name": "d380137c89d62d9a9074aab2f8e5473a", "bike_id": "d380137c89d62d9a9074aab2f8e5473a", "is_reserved": 0, "fusion_lat": 0.0, "is_disabled": 0}, {"rental_uris": {"ios": "https://dc.lft.to/lastmile_qr_scan", "android": "https://dc.lft.to/lastmile_qr_scan"}, "type": "electric_scooter", "lon": -77.031754, "lat": 38.92240833333334, "fusion_lon": 0.0, "name": "09875150dcd2e76bf570a4d737496843", "bike_id": "09875150dcd2e76bf570a4d737496843", "is_reserved": 0, "fusion_lat": 0.0, "is_disabled": 0}, {"rental_uris": {"ios": "https://dc.lft.to/lastmile_qr_scan", "android": "https://dc.lft.to/lastmile_qr_scan"}, "type": "electric_scooter", "lon": -77.01263033333333, "lat": 38.951822666666665, "fusion_lon": 0.0, "name": "22b697b75b248f761b5c0128b8e4315d", "bike_id": "22b697b75b248f761b5c0128b8e4315d", "is_reserved": 0, "fusion_lat": 0.0, "is_disabled": 0}, {"rental_uris": {"ios": "https://dc.lft.to/lastmile_qr_scan", "android": "https://dc.lft.to/lastmile_qr_scan"}, "type": "electric_scooter", "lon": -77.02010833333334, "lat": 38.93501833333333, "fusion_lon": 0.0, "name": "c1a6618252d3fcb6e6d83a2b384d0a61", "bike_id": "c1a6618252d3fcb6e6d83a2b384d0a61", "is_reserved": 0, "fusion_lat": 0.0, "is_disabled": 0}, {"rental_uris": {"ios": "https://dc.lft.to/lastmile_qr_scan", "android": "https://dc.lft.to/lastmile_qr_scan"}, "type": "electric_scooter", "lon": -77.0436785, "lat": 38.92243166666667, "fusion_lon": 0.0, "name": "2831e7d2b1ac59dc7090d7bebd60ce9e", "bike_id": "2831e7d2b1ac59dc7090d7bebd60ce9e", "is_reserved": 0, "fusion_lat": 0.0, "is_disabled": 0}, {"rental_uris": {"ios": "https://dc.lft.to/lastmile_qr_scan", "android": "https://dc.lft.to/lastmile_qr_scan"}, "type": "electric_scooter", "lon": -77.02206383333333, "lat": 38.90822416666666, "fusion_lon": 0.0, "name": "4233f5fa876b3b380f6e9410d08c79ea", "bike_id": "4233f5fa876b3b380f6e9410d08c79ea", "is_reserved": 0, "fusion_lat": 0.0, "is_disabled": 0}, {"rental_uris": {"ios": "https://dc.lft.to/lastmile_qr_scan", "android": "https://dc.lft.to/lastmile_qr_scan"}, "type": "electric_scooter", "lon": -77.04347933333334, "lat": 38.896823, "fusion_lon": 0.0, "name": "335d56eaeb10cfc467cf19f008858551", "bike_id": "335d56eaeb10cfc467cf19f008858551", "is_reserved": 0, "fusion_lat": 0.0, "is_disabled": 0}, {"rental_uris": {"ios": "https://dc.lft.to/lastmile_qr_scan", "android": "https://dc.lft.to/lastmile_qr_scan"}, "type": "electric_scooter", "lon": -76.99018483333333, "lat": 38.88269716666667, "fusion_lon": 0.0, "name": "957369d54a78b036a2117bb6fd1fb950", "bike_id": "957369d54a78b036a2117bb6fd1fb950", "is_reserved": 0, "fusion_lat": 0.0, "is_disabled": 0}, {"rental_uris": {"ios": "https://dc.lft.to/lastmile_qr_scan", "android": "https://dc.lft.to/lastmile_qr_scan"}, "type": "electric_scooter", "lon": -77.02299633333334, "lat": 38.917430833333334, "fusion_lon": 0.0, "name": "4a97ec9a212bbb395771ef52789414fb", "bike_id": "4a97ec9a212bbb395771ef52789414fb", "is_reserved": 0, "fusion_lat": 0.0, "is_disabled": 0}, {"rental_uris": {"ios": "https://dc.lft.to/lastmile_qr_scan", "android": "https://dc.lft.to/lastmile_qr_scan"}, "type": "electric_scooter", "lon": -76.9981305, "lat": 38.92924333333333, "fusion_lon": 0.0, "name": "ce73ddf54268c8f8f23f2d546a482fdd", "bike_id": "ce73ddf54268c8f8f23f2d546a482fdd", "is_reserved": 0, "fusion_lat": 0.0, "is_disabled": 0}, {"rental_uris": {"ios": "https://dc.lft.to/lastmile_qr_scan", "android": "https://dc.lft.to/lastmile_qr_scan"}, "type": "electric_scooter", "lon": -77.0540695, "lat": 38.903696333333336, "fusion_lon": 0.0, "name": "c310aed4684cc9711b82c498711514e8", "bike_id": "c310aed4684cc9711b82c498711514e8", "is_reserved": 0, "fusion_lat": 0.0, "is_disabled": 0}, {"rental_uris": {"ios": "https://dc.lft.to/lastmile_qr_scan", "android": "https://dc.lft.to/lastmile_qr_scan"}, "type": "electric_scooter", "lon": -77.026969, "lat": 38.89764916666667, "fusion_lon": 0.0, "name": "03f218c4f6e167f9a2df199532e53fc1", "bike_id": "03f218c4f6e167f9a2df199532e53fc1", "is_reserved": 0, "fusion_lat": 0.0, "is_disabled": 0}, {"rental_uris": {"ios": "https://dc.lft.to/lastmile_qr_scan", "android": "https://dc.lft.to/lastmile_qr_scan"}, "type": "electric_scooter", "lon": -77.0321305, "lat": 38.911926333333334, "fusion_lon": 0.0, "name": "a52d88c9cf0aabb4d8ad2693b5ac68b9", "bike_id": "a52d88c9cf0aabb4d8ad2693b5ac68b9", "is_reserved": 0, "fusion_lat": 0.0, "is_disabled": 0}, {"rental_uris": {"ios": "https://dc.lft.to/lastmile_qr_scan", "android": "https://dc.lft.to/lastmile_qr_scan"}, "type": "electric_scooter", "lon": -77.00232616666666, "lat": 38.907817333333334, "fusion_lon": 0.0, "name": "44cbf1da6eca139097382858b4b2c784", "bike_id": "44cbf1da6eca139097382858b4b2c784", "is_reserved": 0, "fusion_lat": 0.0, "is_disabled": 0}, {"rental_uris": {"ios": "https://dc.lft.to/lastmile_qr_scan", "android": "https://dc.lft.to/lastmile_qr_scan"}, "type": "electric_scooter", "lon": -77.03089216666666, "lat": 38.926706333333335, "fusion_lon": 0.0, "name": "3bb6a0c4aa5da7ac0849fe9a54a201f9", "bike_id": "3bb6a0c4aa5da7ac0849fe9a54a201f9", "is_reserved": 0, "fusion_lat": 0.0, "is_disabled": 0}, {"rental_uris": {"ios": "https://dc.lft.to/lastmile_qr_scan", "android": "https://dc.lft.to/lastmile_qr_scan"}, "type": "electric_scooter", "lon": -77.0286895, "lat": 38.887481666666666, "fusion_lon": 0.0, "name": "dfa4f207c6cda2d26d47b41a73f231e7", "bike_id": "dfa4f207c6cda2d26d47b41a73f231e7", "is_reserved": 0, "fusion_lat": 0.0, "is_disabled": 0}, {"rental_uris": {"ios": "https://dc.lft.to/lastmile_qr_scan", "android": "https://dc.lft.to/lastmile_qr_scan"}, "type": "electric_scooter", "lon": -76.933913, "lat": 38.8990745, "fusion_lon": 0.0, "name": "e6e5a69f4b185ec253832650e3db2af8", "bike_id": "e6e5a69f4b185ec253832650e3db2af8", "is_reserved": 0, "fusion_lat": 0.0, "is_disabled": 0}, {"rental_uris": {"ios": "https://dc.lft.to/lastmile_qr_scan", "android": "https://dc.lft.to/lastmile_qr_scan"}, "type": "electric_scooter", "lon": -77.0329545, "lat": 38.911189666666665, "fusion_lon": 0.0, "name": "5351d1ff5646631f5b7001d235d22638", "bike_id": "5351d1ff5646631f5b7001d235d22638", "is_reserved": 0, "fusion_lat": 0.0, "is_disabled": 0}, {"rental_uris": {"ios": "https://dc.lft.to/lastmile_qr_scan", "android": "https://dc.lft.to/lastmile_qr_scan"}, "type": "electric_scooter", "lon": -77.0580675, "lat": 38.934645333333336, "fusion_lon": 0.0, "name": "d37162dcfbeeb42bbd3ff810124f37bf", "bike_id": "d37162dcfbeeb42bbd3ff810124f37bf", "is_reserved": 0, "fusion_lat": 0.0, "is_disabled": 0}, {"rental_uris": {"ios": "https://dc.lft.to/lastmile_qr_scan", "android": "https://dc.lft.to/lastmile_qr_scan"}, "type": "electric_scooter", "lon": -77.01270933333333, "lat": 38.897420333333336, "fusion_lon": 0.0, "name": "f0fd442d2b04b4e1ee08cc902cdfd6bb", "bike_id": "f0fd442d2b04b4e1ee08cc902cdfd6bb", "is_reserved": 0, "fusion_lat": 0.0, "is_disabled": 0}, {"rental_uris": {"ios": "https://dc.lft.to/lastmile_qr_scan", "android": "https://dc.lft.to/lastmile_qr_scan"}, "type": "electric_scooter", "lon": -77.045046, "lat": 38.89227533333333, "fusion_lon": 0.0, "name": "d41b5403b7e9e1c84a90d08d07039e9e", "bike_id": "d41b5403b7e9e1c84a90d08d07039e9e", "is_reserved": 0, "fusion_lat": 0.0, "is_disabled": 0}, {"rental_uris": {"ios": "https://dc.lft.to/lastmile_qr_scan", "android": "https://dc.lft.to/lastmile_qr_scan"}, "type": "electric_scooter", "lon": -77.04497233333333, "lat": 38.91515866666667, "fusion_lon": 0.0, "name": "49b6f293a228e4fdca2b339528e802e1", "bike_id": "49b6f293a228e4fdca2b339528e802e1", "is_reserved": 0, "fusion_lat": 0.0, "is_disabled": 0}, {"rental_uris": {"ios": "https://dc.lft.to/lastmile_qr_scan", "android": "https://dc.lft.to/lastmile_qr_scan"}, "type": "electric_scooter", "lon": -77.03511433333334, "lat": 38.9310905, "fusion_lon": 0.0, "name": "243633c8aadc7d01e213a63198007f2d", "bike_id": "243633c8aadc7d01e213a63198007f2d", "is_reserved": 0, "fusion_lat": 0.0, "is_disabled": 0}, {"rental_uris": {"ios": "https://dc.lft.to/lastmile_qr_scan", "android": "https://dc.lft.to/lastmile_qr_scan"}, "type": "electric_scooter", "lon": -77.04470183333333, "lat": 38.892221, "fusion_lon": 0.0, "name": "e9116d2c9aaab9eed4bbb00e86baa01e", "bike_id": "e9116d2c9aaab9eed4bbb00e86baa01e", "is_reserved": 0, "fusion_lat": 0.0, "is_disabled": 0}, {"rental_uris": {"ios": "https://dc.lft.to/lastmile_qr_scan", "android": "https://dc.lft.to/lastmile_qr_scan"}, "type": "electric_scooter", "lon": -77.07030316666666, "lat": 38.907793, "fusion_lon": 0.0, "name": "2a8107a5b7332c1e327a46983514051a", "bike_id": "2a8107a5b7332c1e327a46983514051a", "is_reserved": 0, "fusion_lat": 0.0, "is_disabled": 0}, {"rental_uris": {"ios": "https://dc.lft.to/lastmile_qr_scan", "android": "https://dc.lft.to/lastmile_qr_scan"}, "type": "electric_scooter", "lon": -76.99772866666666, "lat": 38.894221, "fusion_lon": 0.0, "name": "0422b80d4713a00ecca58771f2a8c4c7", "bike_id": "0422b80d4713a00ecca58771f2a8c4c7", "is_reserved": 0, "fusion_lat": 0.0, "is_disabled": 0}, {"rental_uris": {"ios": "https://dc.lft.to/lastmile_qr_scan", "android": "https://dc.lft.to/lastmile_qr_scan"}, "type": "electric_scooter", "lon": -77.029543, "lat": 38.89934433333333, "fusion_lon": 0.0, "name": "aa050447f4a88ccf7d322ff3edb4489c", "bike_id": "aa050447f4a88ccf7d322ff3edb4489c", "is_reserved": 0, "fusion_lat": 0.0, "is_disabled": 0}, {"rental_uris": {"ios": "https://dc.lft.to/lastmile_qr_scan", "android": "https://dc.lft.to/lastmile_qr_scan"}, "type": "electric_scooter", "lon": -77.0276565, "lat": 38.9026585, "fusion_lon": 0.0, "name": "b009eafb54a0243ff6cd6b07805d3370", "bike_id": "b009eafb54a0243ff6cd6b07805d3370", "is_reserved": 0, "fusion_lat": 0.0, "is_disabled": 0}, {"rental_uris": {"ios": "https://dc.lft.to/lastmile_qr_scan", "android": "https://dc.lft.to/lastmile_qr_scan"}, "type": "electric_scooter", "lon": -77.017596, "lat": 38.876879, "fusion_lon": 0.0, "name": "a31627a534c5d80e20c9c25791497d65", "bike_id": "a31627a534c5d80e20c9c25791497d65", "is_reserved": 0, "fusion_lat": 0.0, "is_disabled": 0}, {"rental_uris": {"ios": "https://dc.lft.to/lastmile_qr_scan", "android": "https://dc.lft.to/lastmile_qr_scan"}, "type": "electric_scooter", "lon": -77.05014666666666, "lat": 38.92340866666667, "fusion_lon": 0.0, "name": "fb354a8addd7bba3abae004125341626", "bike_id": "fb354a8addd7bba3abae004125341626", "is_reserved": 0, "fusion_lat": 0.0, "is_disabled": 0}, {"rental_uris": {"ios": "https://dc.lft.to/lastmile_qr_scan", "android": "https://dc.lft.to/lastmile_qr_scan"}, "type": "electric_scooter", "lon": -77.04009433333333, "lat": 38.9099975, "fusion_lon": 0.0, "name": "74890892a46f75fda366b4bf4a11ca53", "bike_id": "74890892a46f75fda366b4bf4a11ca53", "is_reserved": 0, "fusion_lat": 0.0, "is_disabled": 0}, {"rental_uris": {"ios": "https://dc.lft.to/lastmile_qr_scan", "android": "https://dc.lft.to/lastmile_qr_scan"}, "type": "electric_scooter", "lon": -77.05156466666666, "lat": 38.92384033333333, "fusion_lon": 0.0, "name": "5258d4ef4dcd732372c9b532eca6f66f", "bike_id": "5258d4ef4dcd732372c9b532eca6f66f", "is_reserved": 0, "fusion_lat": 0.0, "is_disabled": 0}, {"rental_uris": {"ios": "https://dc.lft.to/lastmile_qr_scan", "android": "https://dc.lft.to/lastmile_qr_scan"}, "type": "electric_scooter", "lon": -77.02218583333334, "lat": 38.924692666666665, "fusion_lon": 0.0, "name": "150c6d1e6275627b06a0ee3a31e041b0", "bike_id": "150c6d1e6275627b06a0ee3a31e041b0", "is_reserved": 0, "fusion_lat": 0.0, "is_disabled": 0}, {"rental_uris": {"ios": "https://dc.lft.to/lastmile_qr_scan", "android": "https://dc.lft.to/lastmile_qr_scan"}, "type": "electric_scooter", "lon": -77.03853566666666, "lat": 38.9321325, "fusion_lon": 0.0, "name": "f2809f9e69272104e794fc5ed1c10f0b", "bike_id": "f2809f9e69272104e794fc5ed1c10f0b", "is_reserved": 0, "fusion_lat": 0.0, "is_disabled": 0}, {"rental_uris": {"ios": "https://dc.lft.to/lastmile_qr_scan", "android": "https://dc.lft.to/lastmile_qr_scan"}, "type": "electric_bike", "lon": -77.00727583333334, "lat": 38.950643, "fusion_lon": 0.0, "name": "00c50789627962a5ff1e496e5d15b2df", "bike_id": "00c50789627962a5ff1e496e5d15b2df", "is_reserved": 0, "fusion_lat": 0.0, "is_disabled": 0}, {"rental_uris": {"ios": "https://dc.lft.to/lastmile_qr_scan", "android": "https://dc.lft.to/lastmile_qr_scan"}, "type": "electric_scooter", "lon": -77.03650266666666, "lat": 38.920983166666666, "fusion_lon": 0.0, "name": "51135480e8aba89b2663890dd644189d", "bike_id": "51135480e8aba89b2663890dd644189d", "is_reserved": 0, "fusion_lat": 0.0, "is_disabled": 0}, {"rental_uris": {"ios": "https://dc.lft.to/lastmile_qr_scan", "android": "https://dc.lft.to/lastmile_qr_scan"}, "type": "electric_scooter", "lon": -77.05599366666667, "lat": 38.93698033333333, "fusion_lon": 0.0, "name": "26d1fd1dd8683058830281a4cc8557aa", "bike_id": "26d1fd1dd8683058830281a4cc8557aa", "is_reserved": 0, "fusion_lat": 0.0, "is_disabled": 0}, {"rental_uris": {"ios": "https://dc.lft.to/lastmile_qr_scan", "android": "https://dc.lft.to/lastmile_qr_scan"}, "type": "electric_scooter", "lon": -76.932613, "lat": 38.887717, "fusion_lon": 0.0, "name": "b8bb7fc27bf26e3967ed8c8088b05b41", "bike_id": "b8bb7fc27bf26e3967ed8c8088b05b41", "is_reserved": 0, "fusion_lat": 0.0, "is_disabled": 0}, {"rental_uris": {"ios": "https://dc.lft.to/lastmile_qr_scan", "android": "https://dc.lft.to/lastmile_qr_scan"}, "type": "electric_scooter", "lon": -77.02117033333333, "lat": 38.924784333333335, "fusion_lon": 0.0, "name": "af8acfd92884ab0a6d621c1096da402e", "bike_id": "af8acfd92884ab0a6d621c1096da402e", "is_reserved": 0, "fusion_lat": 0.0, "is_disabled": 0}, {"rental_uris": {"ios": "https://dc.lft.to/lastmile_qr_scan", "android": "https://dc.lft.to/lastmile_qr_scan"}, "type": "electric_scooter", "lon": -77.022769, "lat": 38.928223333333335, "fusion_lon": 0.0, "name": "206fdf55d0af01e7e0a528631667c722", "bike_id": "206fdf55d0af01e7e0a528631667c722", "is_reserved": 0, "fusion_lat": 0.0, "is_disabled": 0}, {"rental_uris": {"ios": "https://dc.lft.to/lastmile_qr_scan", "android": "https://dc.lft.to/lastmile_qr_scan"}, "type": "electric_scooter", "lon": -77.085732, "lat": 38.93354033333333, "fusion_lon": 0.0, "name": "f2c621f28556943215d71c7098f836ef", "bike_id": "f2c621f28556943215d71c7098f836ef", "is_reserved": 0, "fusion_lat": 0.0, "is_disabled": 0}, {"rental_uris": {"ios": "https://dc.lft.to/lastmile_qr_scan", "android": "https://dc.lft.to/lastmile_qr_scan"}, "type": "electric_scooter", "lon": -77.0533695, "lat": 38.90447666666667, "fusion_lon": 0.0, "name": "6729ae393be14f33237a96366010a02b", "bike_id": "6729ae393be14f33237a96366010a02b", "is_reserved": 0, "fusion_lat": 0.0, "is_disabled": 0}, {"rental_uris": {"ios": "https://dc.lft.to/lastmile_qr_scan", "android": "https://dc.lft.to/lastmile_qr_scan"}, "type": "electric_scooter", "lon": -77.0347285, "lat": 38.92887316666667, "fusion_lon": 0.0, "name": "e3c19e79cf7dbf8074c07f933cf18d88", "bike_id": "e3c19e79cf7dbf8074c07f933cf18d88", "is_reserved": 0, "fusion_lat": 0.0, "is_disabled": 0}, {"rental_uris": {"ios": "https://dc.lft.to/lastmile_qr_scan", "android": "https://dc.lft.to/lastmile_qr_scan"}, "type": "electric_scooter", "lon": -76.93390683333334, "lat": 38.899040166666666, "fusion_lon": 0.0, "name": "a03acb4ecbb980142da634b66e958cad", "bike_id": "a03acb4ecbb980142da634b66e958cad", "is_reserved": 0, "fusion_lat": 0.0, "is_disabled": 0}, {"rental_uris": {"ios": "https://dc.lft.to/lastmile_qr_scan", "android": "https://dc.lft.to/lastmile_qr_scan"}, "type": "electric_scooter", "lon": -77.04610216666667, "lat": 38.916802833333335, "fusion_lon": 0.0, "name": "974fb365b980401c0b3506ef06194685", "bike_id": "974fb365b980401c0b3506ef06194685", "is_reserved": 0, "fusion_lat": 0.0, "is_disabled": 0}, {"rental_uris": {"ios": "https://dc.lft.to/lastmile_qr_scan", "android": "https://dc.lft.to/lastmile_qr_scan"}, "type": "electric_scooter", "lon": -77.04226666666666, "lat": 38.916993166666664, "fusion_lon": 0.0, "name": "e647717a4055089cdcf1acd67fddb919", "bike_id": "e647717a4055089cdcf1acd67fddb919", "is_reserved": 0, "fusion_lat": 0.0, "is_disabled": 0}, {"rental_uris": {"ios": "https://dc.lft.to/lastmile_qr_scan", "android": "https://dc.lft.to/lastmile_qr_scan"}, "type": "electric_bike", "lon": -77.1337775, "lat": 38.806838166666665, "fusion_lon": 0.0, "name": "605334672d52a471fc9b9580ed91209a", "bike_id": "605334672d52a471fc9b9580ed91209a", "is_reserved": 0, "fusion_lat": 0.0, "is_disabled": 0}, {"rental_uris": {"ios": "https://dc.lft.to/lastmile_qr_scan", "android": "https://dc.lft.to/lastmile_qr_scan"}, "type": "electric_scooter", "lon": -77.043986, "lat": 38.910943833333334, "fusion_lon": 0.0, "name": "5ec576bc948312b95f338d832862b2be", "bike_id": "5ec576bc948312b95f338d832862b2be", "is_reserved": 0, "fusion_lat": 0.0, "is_disabled": 0}, {"rental_uris": {"ios": "https://dc.lft.to/lastmile_qr_scan", "android": "https://dc.lft.to/lastmile_qr_scan"}, "type": "electric_scooter", "lon": -77.03282633333333, "lat": 38.93252866666667, "fusion_lon": 0.0, "name": "9a5b8d0d8e7bbf98893e07676e794581", "bike_id": "9a5b8d0d8e7bbf98893e07676e794581", "is_reserved": 0, "fusion_lat": 0.0, "is_disabled": 0}, {"rental_uris": {"ios": "https://dc.lft.to/lastmile_qr_scan", "android": "https://dc.lft.to/lastmile_qr_scan"}, "type": "electric_scooter", "lon": -76.96818516666667, "lat": 38.84718616666667, "fusion_lon": 0.0, "name": "5a746214f64c0133e4dc62e020990f65", "bike_id": "5a746214f64c0133e4dc62e020990f65", "is_reserved": 0, "fusion_lat": 0.0, "is_disabled": 0}, {"rental_uris": {"ios": "https://dc.lft.to/lastmile_qr_scan", "android": "https://dc.lft.to/lastmile_qr_scan"}, "type": "electric_scooter", "lon": -77.0276735, "lat": 38.964029, "fusion_lon": 0.0, "name": "1c5919b769770593982434236d337c39", "bike_id": "1c5919b769770593982434236d337c39", "is_reserved": 0, "fusion_lat": 0.0, "is_disabled": 0}, {"rental_uris": {"ios": "https://dc.lft.to/lastmile_qr_scan", "android": "https://dc.lft.to/lastmile_qr_scan"}, "type": "electric_scooter", "lon": -77.032857, "lat": 38.89898383333333, "fusion_lon": 0.0, "name": "7b15feab35574a8651c77f36e2f0b377", "bike_id": "7b15feab35574a8651c77f36e2f0b377", "is_reserved": 0, "fusion_lat": 0.0, "is_disabled": 0}, {"rental_uris": {"ios": "https://dc.lft.to/lastmile_qr_scan", "android": "https://dc.lft.to/lastmile_qr_scan"}, "type": "electric_scooter", "lon": -77.01763916666667, "lat": 38.903665833333335, "fusion_lon": 0.0, "name": "27d3244c46f8b49d640f3f4067f294d4", "bike_id": "27d3244c46f8b49d640f3f4067f294d4", "is_reserved": 0, "fusion_lat": 0.0, "is_disabled": 0}, {"rental_uris": {"ios": "https://dc.lft.to/lastmile_qr_scan", "android": "https://dc.lft.to/lastmile_qr_scan"}, "type": "electric_scooter", "lon": -76.98833466666666, "lat": 38.9003375, "fusion_lon": 0.0, "name": "c7539a77bfb04d9ff5588dd174db170d", "bike_id": "c7539a77bfb04d9ff5588dd174db170d", "is_reserved": 0, "fusion_lat": 0.0, "is_disabled": 0}, {"rental_uris": {"ios": "https://dc.lft.to/lastmile_qr_scan", "android": "https://dc.lft.to/lastmile_qr_scan"}, "type": "electric_scooter", "lon": -77.02098416666666, "lat": 38.921541166666664, "fusion_lon": 0.0, "name": "4042e6c8ac32e1def23615ad9d0d72e4", "bike_id": "4042e6c8ac32e1def23615ad9d0d72e4", "is_reserved": 0, "fusion_lat": 0.0, "is_disabled": 0}, {"rental_uris": {"ios": "https://dc.lft.to/lastmile_qr_scan", "android": "https://dc.lft.to/lastmile_qr_scan"}, "type": "electric_scooter", "lon": -77.05439633333333, "lat": 38.926706333333335, "fusion_lon": 0.0, "name": "76a61d8606167b474335a482d5f2d3fd", "bike_id": "76a61d8606167b474335a482d5f2d3fd", "is_reserved": 0, "fusion_lat": 0.0, "is_disabled": 0}, {"rental_uris": {"ios": "https://dc.lft.to/lastmile_qr_scan", "android": "https://dc.lft.to/lastmile_qr_scan"}, "type": "electric_bike", "lon": -76.9774195, "lat": 38.86485616666667, "fusion_lon": 0.0, "name": "dae1c2fd8899d51760a11d34b44c54c9", "bike_id": "dae1c2fd8899d51760a11d34b44c54c9", "is_reserved": 0, "fusion_lat": 0.0, "is_disabled": 0}, {"rental_uris": {"ios": "https://dc.lft.to/lastmile_qr_scan", "android": "https://dc.lft.to/lastmile_qr_scan"}, "type": "electric_scooter", "lon": -77.07273833333333, "lat": 38.93489066666667, "fusion_lon": 0.0, "name": "e5fc7e60ce5363d838fc3c1d4b6a1dbe", "bike_id": "e5fc7e60ce5363d838fc3c1d4b6a1dbe", "is_reserved": 0, "fusion_lat": 0.0, "is_disabled": 0}, {"rental_uris": {"ios": "https://dc.lft.to/lastmile_qr_scan", "android": "https://dc.lft.to/lastmile_qr_scan"}, "type": "electric_scooter", "lon": -77.02493266666667, "lat": 38.93758066666667, "fusion_lon": 0.0, "name": "73c28abf9108b52c13c29a77b3579e48", "bike_id": "73c28abf9108b52c13c29a77b3579e48", "is_reserved": 0, "fusion_lat": 0.0, "is_disabled": 0}, {"rental_uris": {"ios": "https://dc.lft.to/lastmile_qr_scan", "android": "https://dc.lft.to/lastmile_qr_scan"}, "type": "electric_scooter", "lon": -76.9978045, "lat": 38.89297916666666, "fusion_lon": 0.0, "name": "43bbff6b45f607ef5240677c8285500a", "bike_id": "43bbff6b45f607ef5240677c8285500a", "is_reserved": 0, "fusion_lat": 0.0, "is_disabled": 0}, {"rental_uris": {"ios": "https://dc.lft.to/lastmile_qr_scan", "android": "https://dc.lft.to/lastmile_qr_scan"}, "type": "electric_scooter", "lon": -76.9975905, "lat": 38.922831333333335, "fusion_lon": 0.0, "name": "432c685293098c422b82194a9a1fec9d", "bike_id": "432c685293098c422b82194a9a1fec9d", "is_reserved": 0, "fusion_lat": 0.0, "is_disabled": 0}, {"rental_uris": {"ios": "https://dc.lft.to/lastmile_qr_scan", "android": "https://dc.lft.to/lastmile_qr_scan"}, "type": "electric_scooter", "lon": -77.0434395, "lat": 38.904445333333335, "fusion_lon": 0.0, "name": "b1752b2b494e546d6cd73f44b010a8b7", "bike_id": "b1752b2b494e546d6cd73f44b010a8b7", "is_reserved": 0, "fusion_lat": 0.0, "is_disabled": 0}, {"rental_uris": {"ios": "https://dc.lft.to/lastmile_qr_scan", "android": "https://dc.lft.to/lastmile_qr_scan"},