{"data": {"bikes": [{"type": "electric_scooter", "name": "7034cd05418c162c765570ea41f55ada", "fusion_lon": 0.0, "is_reserved": 0, "lon": -77.08457483333333, "fusion_lat": 0.0, "is_disabled": 0, "bike_id": "7034cd05418c162c765570ea41f55ada", "lat": 38.959065333333335, "rental_uris": {"ios": "https://dc.lft.to/lastmile_qr_scan", "android": "https://dc.lft.to/lastmile_qr_scan"}}, {"type": "electric_scooter", "name": "ded4d32c74b607ab735389df9ab44185", "fusion_lon": 0.0, "is_reserved": 0, "lon": -77.0442905, "fusion_lat": 0.0, "is_disabled": 0, "bike_id": "ded4d32c74b607ab735389df9ab44185", "lat": 38.92109416666667, "rental_uris": {"ios": "https://dc.lft.to/lastmile_qr_scan", "android": "https://dc.lft.to/lastmile_qr_scan"}}, {"type": "electric_scooter", "name": "68f75bfc2509339c5ade151d6803d90e", "fusion_lon": 0.0, "is_reserved": 0, "lon": -77.04345733333334, "fusion_lat": 0.0, "is_disabled": 0, "bike_id": "68f75bfc2509339c5ade151d6803d90e", "lat": 38.89608666666667, "rental_uris": {"ios": "https://dc.lft.to/lastmile_qr_scan", "android": "https://dc.lft.to/lastmile_qr_scan"}}, {"type": "electric_scooter", "name": "4cf5fe6884a16c052481720a08a788d7", "fusion_lon": 0.0, "is_reserved": 0, "lon": -77.05814583333333, "fusion_lat": 0.0, "is_disabled": 0, "bike_id": "4cf5fe6884a16c052481720a08a788d7", "lat": 38.90282416666667, "rental_uris": {"ios": "https://dc.lft.to/lastmile_qr_scan", "android": "https://dc.lft.to/lastmile_qr_scan"}}, {"type": "electric_scooter", "name": "8cd8a40dbe75147678eee915467a9692", "fusion_lon": 0.0, "is_reserved": 0, "lon": -77.03313066666666, "fusion_lat": 0.0, "is_disabled": 0, "bike_id": "8cd8a40dbe75147678eee915467a9692", "lat": 38.9215605, "rental_uris": {"ios": "https://dc.lft.to/lastmile_qr_scan", "android": "https://dc.lft.to/lastmile_qr_scan"}}, {"type": "electric_scooter", "name": "8d68e54fa6932fce41946560b389aa59", "fusion_lon": 0.0, "is_reserved": 0, "lon": -77.04804616666667, "fusion_lat": 0.0, "is_disabled": 0, "bike_id": "8d68e54fa6932fce41946560b389aa59", "lat": 38.90978166666667, "rental_uris": {"ios": "https://dc.lft.to/lastmile_qr_scan", "android": "https://dc.lft.to/lastmile_qr_scan"}}, {"type": "electric_scooter", "name": "06df7d521740b3b671bf3d2699af1a59", "fusion_lon": 0.0, "is_reserved": 0, "lon": -77.04044883333333, "fusion_lat": 0.0, "is_disabled": 0, "bike_id": "06df7d521740b3b671bf3d2699af1a59", "lat": 38.914162833333336, "rental_uris": {"ios": "https://dc.lft.to/lastmile_qr_scan", "android": "https://dc.lft.to/lastmile_qr_scan"}}, {"type": "electric_bike", "name": "fe79839371d86b1eadfa9b19e64d9d5d", "fusion_lon": 0.0, "is_reserved": 0, "lon": -77.15016866666667, "fusion_lat": 0.0, "is_disabled": 0, "bike_id": "fe79839371d86b1eadfa9b19e64d9d5d", "lat": 39.0578765, "rental_uris": {"ios": "https://dc.lft.to/lastmile_qr_scan", "android": "https://dc.lft.to/lastmile_qr_scan"}}, {"type": "electric_scooter", "name": "c03afc1eee7e1098a1a4ce9b6c0c6613", "fusion_lon": 0.0, "is_reserved": 0, "lon": -77.02138816666667, "fusion_lat": 0.0, "is_disabled": 0, "bike_id": "c03afc1eee7e1098a1a4ce9b6c0c6613", "lat": 38.92321, "rental_uris": {"ios": "https://dc.lft.to/lastmile_qr_scan", "android": "https://dc.lft.to/lastmile_qr_scan"}}, {"type": "electric_scooter", "name": "d0d3ade30c74fdf46228261106cdc3f4", "fusion_lon": 0.0, "is_reserved": 0, "lon": -77.0408215, "fusion_lat": 0.0, "is_disabled": 0, "bike_id": "d0d3ade30c74fdf46228261106cdc3f4", "lat": 38.91051183333333, "rental_uris": {"ios": "https://dc.lft.to/lastmile_qr_scan", "android": "https://dc.lft.to/lastmile_qr_scan"}}, {"type": "electric_scooter", "name": "9af14fa6edd48fc0079aabb488d0844d", "fusion_lon": 0.0, "is_reserved": 0, "lon": -77.01898783333333, "fusion_lat": 0.0, "is_disabled": 0, "bike_id": "9af14fa6edd48fc0079aabb488d0844d", "lat": 38.9237835, "rental_uris": {"ios": "https://dc.lft.to/lastmile_qr_scan", "android": "https://dc.lft.to/lastmile_qr_scan"}}, {"type": "electric_scooter", "name": "adf8bdd1ff6537c1b3ab3bd528536e97", "fusion_lon": 0.0, "is_reserved": 0, "lon": -77.07249733333333, "fusion_lat": 0.0, "is_disabled": 0, "bike_id": "adf8bdd1ff6537c1b3ab3bd528536e97", "lat": 38.9077785, "rental_uris": {"ios": "https://dc.lft.to/lastmile_qr_scan", "android": "https://dc.lft.to/lastmile_qr_scan"}}, {"type": "electric_scooter", "name": "48b405208b4f0e02f1906d7b83c11e3b", "fusion_lon": 0.0, "is_reserved": 0, "lon": -77.0379915, "fusion_lat": 0.0, "is_disabled": 0, "bike_id": "48b405208b4f0e02f1906d7b83c11e3b", "lat": 38.93044733333333, "rental_uris": {"ios": "https://dc.lft.to/lastmile_qr_scan", "android": "https://dc.lft.to/lastmile_qr_scan"}}, {"type": "electric_scooter", "name": "cd0a4ac9e19a52e31192b63d673096b2", "fusion_lon": 0.0, "is_reserved": 0, "lon": -77.03584866666667, "fusion_lat": 0.0, "is_disabled": 0, "bike_id": "cd0a4ac9e19a52e31192b63d673096b2", "lat": 38.9076135, "rental_uris": {"ios": "https://dc.lft.to/lastmile_qr_scan", "android": "https://dc.lft.to/lastmile_qr_scan"}}, {"type": "electric_scooter", "name": "7cbf0551459950b2db4c8977300e2db5", "fusion_lon": 0.0, "is_reserved": 0, "lon": -77.04255033333334, "fusion_lat": 0.0, "is_disabled": 0, "bike_id": "7cbf0551459950b2db4c8977300e2db5", "lat": 38.909586, "rental_uris": {"ios": "https://dc.lft.to/lastmile_qr_scan", "android": "https://dc.lft.to/lastmile_qr_scan"}}, {"type": "electric_scooter", "name": "6843f17d510a24f6c9c4158031955257", "fusion_lon": 0.0, "is_reserved": 0, "lon": -77.04005833333333, "fusion_lat": 0.0, "is_disabled": 0, "bike_id": "6843f17d510a24f6c9c4158031955257", "lat": 38.89428133333333, "rental_uris": {"ios": "https://dc.lft.to/lastmile_qr_scan", "android": "https://dc.lft.to/lastmile_qr_scan"}}, {"type": "electric_bike", "name": "355571832ae582be11d9b8baf9f23c4e", "fusion_lon": 0.0, "is_reserved": 0, "lon": -77.03710966666667, "fusion_lat": 0.0, "is_disabled": 0, "bike_id": "355571832ae582be11d9b8baf9f23c4e", "lat": 38.935482, "rental_uris": {"ios": "https://dc.lft.to/lastmile_qr_scan", "android": "https://dc.lft.to/lastmile_qr_scan"}}, {"type": "electric_scooter", "name": "d3216ea2c94560bb870ee0b1f0891927", "fusion_lon": 0.0, "is_reserved": 0, "lon": -77.03034933333333, "fusion_lat": 0.0, "is_disabled": 0, "bike_id": "d3216ea2c94560bb870ee0b1f0891927", "lat": 38.896935166666665, "rental_uris": {"ios": "https://dc.lft.to/lastmile_qr_scan", "android": "https://dc.lft.to/lastmile_qr_scan"}}, {"type": "electric_scooter", "name": "a89e521aa88d44aa522b6301e85fbe71", "fusion_lon": 0.0, "is_reserved": 0, "lon": -77.0284395, "fusion_lat": 0.0, "is_disabled": 0, "bike_id": "a89e521aa88d44aa522b6301e85fbe71", "lat": 38.9325, "rental_uris": {"ios": "https://dc.lft.to/lastmile_qr_scan", "android": "https://dc.lft.to/lastmile_qr_scan"}}, {"type": "electric_bike", "name": "20708df9d2e4fe155f2f50212937e715", "fusion_lon": 0.0, "is_reserved": 0, "lon": -77.181224, "fusion_lat": 0.0, "is_disabled": 0, "bike_id": "20708df9d2e4fe155f2f50212937e715", "lat": 38.9322815, "rental_uris": {"ios": "https://dc.lft.to/lastmile_qr_scan", "android": "https://dc.lft.to/lastmile_qr_scan"}}, {"type": "electric_scooter", "name": "4dfcec778853b79a4400261785f3efac", "fusion_lon": 0.0, "is_reserved": 0, "lon": -77.03346816666667, "fusion_lat": 0.0, "is_disabled": 0, "bike_id": "4dfcec778853b79a4400261785f3efac", "lat": 38.898726833333335, "rental_uris": {"ios": "https://dc.lft.to/lastmile_qr_scan", "android": "https://dc.lft.to/lastmile_qr_scan"}}, {"type": "electric_scooter", "name": "923b8a2c7e37bdc73b3aa399385d06c1", "fusion_lon": 0.0, "is_reserved": 0, "lon": -77.03374366666667, "fusion_lat": 0.0, "is_disabled": 0, "bike_id": "923b8a2c7e37bdc73b3aa399385d06c1", "lat": 38.91711733333333, "rental_uris": {"ios": "https://dc.lft.to/lastmile_qr_scan", "android": "https://dc.lft.to/lastmile_qr_scan"}}, {"type": "electric_scooter", "name": "f556331afcbf4ca16f0aeaa63129d4a5", "fusion_lon": 0.0, "is_reserved": 0, "lon": -77.06249566666666, "fusion_lat": 0.0, "is_disabled": 0, "bike_id": "f556331afcbf4ca16f0aeaa63129d4a5", "lat": 38.913223333333335, "rental_uris": {"ios": "https://dc.lft.to/lastmile_qr_scan", "android": "https://dc.lft.to/lastmile_qr_scan"}}, {"type": "electric_scooter", "name": "7bb020720e69e56829042dc8eedfa96f", "fusion_lon": 0.0, "is_reserved": 0, "lon": -77.0405675, "fusion_lat": 0.0, "is_disabled": 0, "bike_id": "7bb020720e69e56829042dc8eedfa96f", "lat": 38.917670333333334, "rental_uris": {"ios": "https://dc.lft.to/lastmile_qr_scan", "android": "https://dc.lft.to/lastmile_qr_scan"}}, {"type": "electric_scooter", "name": "6cae682299e56f828edb93a190c4fbcf", "fusion_lon": 0.0, "is_reserved": 0, "lon": -77.03164683333334, "fusion_lat": 0.0, "is_disabled": 0, "bike_id": "6cae682299e56f828edb93a190c4fbcf", "lat": 38.929581666666664, "rental_uris": {"ios": "https://dc.lft.to/lastmile_qr_scan", "android": "https://dc.lft.to/lastmile_qr_scan"}}, {"type": "electric_bike", "name": "3e4da92917a5defb70fa5b3f89f9a907", "fusion_lon": 0.0, "is_reserved": 0, "lon": -77.001447, "fusion_lat": 0.0, "is_disabled": 0, "bike_id": "3e4da92917a5defb70fa5b3f89f9a907", "lat": 38.958744333333335, "rental_uris": {"ios": "https://dc.lft.to/lastmile_qr_scan", "android": "https://dc.lft.to/lastmile_qr_scan"}}, {"type": "electric_scooter", "name": "3d4f7e687e5d7d5d5f890de8f6b9dd02", "fusion_lon": 0.0, "is_reserved": 0, "lon": -77.03543233333333, "fusion_lat": 0.0, "is_disabled": 0, "bike_id": "3d4f7e687e5d7d5d5f890de8f6b9dd02", "lat": 38.92393116666667, "rental_uris": {"ios": "https://dc.lft.to/lastmile_qr_scan", "android": "https://dc.lft.to/lastmile_qr_scan"}}, {"type": "electric_scooter", "name": "9319cd7cd6e70587e4fdda8abd6c02af", "fusion_lon": 0.0, "is_reserved": 0, "lon": -77.04087433333333, "fusion_lat": 0.0, "is_disabled": 0, "bike_id": "9319cd7cd6e70587e4fdda8abd6c02af", "lat": 38.91486966666667, "rental_uris": {"ios": "https://dc.lft.to/lastmile_qr_scan", "android": "https://dc.lft.to/lastmile_qr_scan"}}, {"type": "electric_scooter", "name": "0c775b4815ce296c285ed26d37795fd0", "fusion_lon": 0.0, "is_reserved": 0, "lon": -77.047933, "fusion_lat": 0.0, "is_disabled": 0, "bike_id": "0c775b4815ce296c285ed26d37795fd0", "lat": 38.91645366666667, "rental_uris": {"ios": "https://dc.lft.to/lastmile_qr_scan", "android": "https://dc.lft.to/lastmile_qr_scan"}}, {"type": "electric_scooter", "name": "4848a9bb0dcb16ace0c223b36f8917e7", "fusion_lon": 0.0, "is_reserved": 0, "lon": -76.98911633333333, "fusion_lat": 0.0, "is_disabled": 0, "bike_id": "4848a9bb0dcb16ace0c223b36f8917e7", "lat": 38.87070883333333, "rental_uris": {"ios": "https://dc.lft.to/lastmile_qr_scan", "android": "https://dc.lft.to/lastmile_qr_scan"}}, {"type": "electric_scooter", "name": "440ed81d967695bde118abf4c42ed71e", "fusion_lon": 0.0, "is_reserved": 0, "lon": -77.02203, "fusion_lat": 0.0, "is_disabled": 0, "bike_id": "440ed81d967695bde118abf4c42ed71e", "lat": 38.9246745, "rental_uris": {"ios": "https://dc.lft.to/lastmile_qr_scan", "android": "https://dc.lft.to/lastmile_qr_scan"}}, {"type": "electric_scooter", "name": "f9782a83b4320ad098b7d315f9c406c2", "fusion_lon": 0.0, "is_reserved": 0, "lon": -77.00588966666666, "fusion_lat": 0.0, "is_disabled": 0, "bike_id": "f9782a83b4320ad098b7d315f9c406c2", "lat": 38.882745, "rental_uris": {"ios": "https://dc.lft.to/lastmile_qr_scan", "android": "https://dc.lft.to/lastmile_qr_scan"}}, {"type": "electric_scooter", "name": "30cad6e66276041e52ea36c9a4066624", "fusion_lon": 0.0, "is_reserved": 0, "lon": -77.019812, "fusion_lat": 0.0, "is_disabled": 0, "bike_id": "30cad6e66276041e52ea36c9a4066624", "lat": 38.945198833333336, "rental_uris": {"ios": "https://dc.lft.to/lastmile_qr_scan", "android": "https://dc.lft.to/lastmile_qr_scan"}}, {"type": "electric_scooter", "name": "37cac60ee3b06191c8b8535c9f68d17c", "fusion_lon": 0.0, "is_reserved": 0, "lon": -77.03120383333334, "fusion_lat": 0.0, "is_disabled": 0, "bike_id": "37cac60ee3b06191c8b8535c9f68d17c", "lat": 38.923068666666666, "rental_uris": {"ios": "https://dc.lft.to/lastmile_qr_scan", "android": "https://dc.lft.to/lastmile_qr_scan"}}, {"type": "electric_scooter", "name": "883e914215991e5b14d51039d2f2225a", "fusion_lon": 0.0, "is_reserved": 0, "lon": -77.0392075, "fusion_lat": 0.0, "is_disabled": 0, "bike_id": "883e914215991e5b14d51039d2f2225a", "lat": 38.906473, "rental_uris": {"ios": "https://dc.lft.to/lastmile_qr_scan", "android": "https://dc.lft.to/lastmile_qr_scan"}}, {"type": "electric_bike", "name": "0fc0e118b1e2305c3b913c8fdb989d27", "fusion_lon": 0.0, "is_reserved": 0, "lon": -77.036566, "fusion_lat": 0.0, "is_disabled": 0, "bike_id": "0fc0e118b1e2305c3b913c8fdb989d27", "lat": 38.93626583333333, "rental_uris": {"ios": "https://dc.lft.to/lastmile_qr_scan", "android": "https://dc.lft.to/lastmile_qr_scan"}}, {"type": "electric_scooter", "name": "87c6dc86b300d367b38aa7d153b9d0af", "fusion_lon": 0.0, "is_reserved": 0, "lon": -77.03197633333333, "fusion_lat": 0.0, "is_disabled": 0, "bike_id": "87c6dc86b300d367b38aa7d153b9d0af", "lat": 38.9156675, "rental_uris": {"ios": "https://dc.lft.to/lastmile_qr_scan", "android": "https://dc.lft.to/lastmile_qr_scan"}}, {"type": "electric_scooter", "name": "e578c8419f6eddfb525fed048554c93c", "fusion_lon": 0.0, "is_reserved": 0, "lon": -77.032521, "fusion_lat": 0.0, "is_disabled": 0, "bike_id": "e578c8419f6eddfb525fed048554c93c", "lat": 38.91813616666666, "rental_uris": {"ios": "https://dc.lft.to/lastmile_qr_scan", "android": "https://dc.lft.to/lastmile_qr_scan"}}, {"type": "electric_scooter", "name": "8adce27f0949cbc190d2986767b68a99", "fusion_lon": 0.0, "is_reserved": 0, "lon": -77.03203366666666, "fusion_lat": 0.0, "is_disabled": 0, "bike_id": "8adce27f0949cbc190d2986767b68a99", "lat": 38.915646, "rental_uris": {"ios": "https://dc.lft.to/lastmile_qr_scan", "android": "https://dc.lft.to/lastmile_qr_scan"}}, {"type": "electric_scooter", "name": "8c284d810d45fd07440e85e3a831d3f7", "fusion_lon": 0.0, "is_reserved": 0, "lon": -77.0234015, "fusion_lat": 0.0, "is_disabled": 0, "bike_id": "8c284d810d45fd07440e85e3a831d3f7", "lat": 38.89226466666667, "rental_uris": {"ios": "https://dc.lft.to/lastmile_qr_scan", "android": "https://dc.lft.to/lastmile_qr_scan"}}, {"type": "electric_scooter", "name": "9e2174c682aa21a8960f85e3fd7f4980", "fusion_lon": 0.0, "is_reserved": 0, "lon": -77.04492233333333, "fusion_lat": 0.0, "is_disabled": 0, "bike_id": "9e2174c682aa21a8960f85e3fd7f4980", "lat": 38.905559, "rental_uris": {"ios": "https://dc.lft.to/lastmile_qr_scan", "android": "https://dc.lft.to/lastmile_qr_scan"}}, {"type": "electric_bike", "name": "7bcd71d1b4cba4ff7883c59d1bdb2e77", "fusion_lon": 0.0, "is_reserved": 0, "lon": -76.986061, "fusion_lat": 0.0, "is_disabled": 0, "bike_id": "7bcd71d1b4cba4ff7883c59d1bdb2e77", "lat": 38.90622166666667, "rental_uris": {"ios": "https://dc.lft.to/lastmile_qr_scan", "android": "https://dc.lft.to/lastmile_qr_scan"}}, {"type": "electric_scooter", "name": "7ffc12fda5bd4a2e4ba75c43512dbc6a", "fusion_lon": 0.0, "is_reserved": 0, "lon": -76.9996385, "fusion_lat": 0.0, "is_disabled": 0, "bike_id": "7ffc12fda5bd4a2e4ba75c43512dbc6a", "lat": 38.90867216666667, "rental_uris": {"ios": "https://dc.lft.to/lastmile_qr_scan", "android": "https://dc.lft.to/lastmile_qr_scan"}}, {"type": "electric_scooter", "name": "74ad9447e68a520f5e8c559e91bba822", "fusion_lon": 0.0, "is_reserved": 0, "lon": -77.02975816666667, "fusion_lat": 0.0, "is_disabled": 0, "bike_id": "74ad9447e68a520f5e8c559e91bba822", "lat": 38.91683066666667, "rental_uris": {"ios": "https://dc.lft.to/lastmile_qr_scan", "android": "https://dc.lft.to/lastmile_qr_scan"}}, {"type": "electric_scooter", "name": "33a897c57b9b552507e00a750135366f", "fusion_lon": 0.0, "is_reserved": 0, "lon": -77.02097416666666, "fusion_lat": 0.0, "is_disabled": 0, "bike_id": "33a897c57b9b552507e00a750135366f", "lat": 38.93267983333333, "rental_uris": {"ios": "https://dc.lft.to/lastmile_qr_scan", "android": "https://dc.lft.to/lastmile_qr_scan"}}, {"type": "electric_scooter", "name": "6fb18fdd3fe5357ddc66616d13da1046", "fusion_lon": 0.0, "is_reserved": 0, "lon": -77.007133, "fusion_lat": 0.0, "is_disabled": 0, "bike_id": "6fb18fdd3fe5357ddc66616d13da1046", "lat": 38.900265166666664, "rental_uris": {"ios": "https://dc.lft.to/lastmile_qr_scan", "android": "https://dc.lft.to/lastmile_qr_scan"}}, {"type": "electric_scooter", "name": "c78cbdefbe135de4bdbdcebb2b445c78", "fusion_lon": 0.0, "is_reserved": 0, "lon": -77.01208966666667, "fusion_lat": 0.0, "is_disabled": 0, "bike_id": "c78cbdefbe135de4bdbdcebb2b445c78", "lat": 38.86399266666667, "rental_uris": {"ios": "https://dc.lft.to/lastmile_qr_scan", "android": "https://dc.lft.to/lastmile_qr_scan"}}, {"type": "electric_scooter", "name": "3d0916e7cdd6daf2198a379e6506b0cd", "fusion_lon": 0.0, "is_reserved": 0, "lon": -77.04459983333334, "fusion_lat": 0.0, "is_disabled": 0, "bike_id": "3d0916e7cdd6daf2198a379e6506b0cd", "lat": 38.911187, "rental_uris": {"ios": "https://dc.lft.to/lastmile_qr_scan", "android": "https://dc.lft.to/lastmile_qr_scan"}}, {"type": "electric_scooter", "name": "d250a387f89421007a41a8f094ebcf9c", "fusion_lon": 0.0, "is_reserved": 0, "lon": -77.02592216666666, "fusion_lat": 0.0, "is_disabled": 0, "bike_id": "d250a387f89421007a41a8f094ebcf9c", "lat": 38.91690833333333, "rental_uris": {"ios": "https://dc.lft.to/lastmile_qr_scan", "android": "https://dc.lft.to/lastmile_qr_scan"}}, {"type": "electric_scooter", "name": "86f1186f5b1ccde92065ced7bac0d161", "fusion_lon": 0.0, "is_reserved": 0, "lon": -77.0389685, "fusion_lat": 0.0, "is_disabled": 0, "bike_id": "86f1186f5b1ccde92065ced7bac0d161", "lat": 38.92251566666667, "rental_uris": {"ios": "https://dc.lft.to/lastmile_qr_scan", "android": "https://dc.lft.to/lastmile_qr_scan"}}, {"type": "electric_bike", "name": "61ada4eb91c96d0a874da464281087fb", "fusion_lon": 0.0, "is_reserved": 0, "lon": -77.06448666666667, "fusion_lat": 0.0, "is_disabled": 0, "bike_id": "61ada4eb91c96d0a874da464281087fb", "lat": 38.973968666666664, "rental_uris": {"ios": "https://dc.lft.to/lastmile_qr_scan", "android": "https://dc.lft.to/lastmile_qr_scan"}}, {"type": "electric_scooter", "name": "1c2df9c07ae8ab8fdb6e55ad7d8cb091", "fusion_lon": 0.0, "is_reserved": 0, "lon": -77.01169866666666, "fusion_lat": 0.0, "is_disabled": 0, "bike_id": "1c2df9c07ae8ab8fdb6e55ad7d8cb091", "lat": 38.91561216666667, "rental_uris": {"ios": "https://dc.lft.to/lastmile_qr_scan", "android": "https://dc.lft.to/lastmile_qr_scan"}}, {"type": "electric_scooter", "name": "0dbc351781dac93f88ef5e5671ccca2d", "fusion_lon": 0.0, "is_reserved": 0, "lon": -77.04507516666666, "fusion_lat": 0.0, "is_disabled": 0, "bike_id": "0dbc351781dac93f88ef5e5671ccca2d", "lat": 38.90384916666667, "rental_uris": {"ios": "https://dc.lft.to/lastmile_qr_scan", "android": "https://dc.lft.to/lastmile_qr_scan"}}, {"type": "electric_scooter", "name": "adb622c1c1f8d06ef27f3292331a111c", "fusion_lon": 0.0, "is_reserved": 0, "lon": -76.9298305, "fusion_lat": 0.0, "is_disabled": 0, "bike_id": "adb622c1c1f8d06ef27f3292331a111c", "lat": 38.90141833333333, "rental_uris": {"ios": "https://dc.lft.to/lastmile_qr_scan", "android": "https://dc.lft.to/lastmile_qr_scan"}}, {"type": "electric_scooter", "name": "1fb80e77448590e7ee820763e0befa93", "fusion_lon": 0.0, "is_reserved": 0, "lon": -77.02463816666666, "fusion_lat": 0.0, "is_disabled": 0, "bike_id": "1fb80e77448590e7ee820763e0befa93", "lat": 38.9178765, "rental_uris": {"ios": "https://dc.lft.to/lastmile_qr_scan", "android": "https://dc.lft.to/lastmile_qr_scan"}}, {"type": "electric_scooter", "name": "7eb053c42e77ca55f86263e2772f80e6", "fusion_lon": 0.0, "is_reserved": 0, "lon": -77.059655, "fusion_lat": 0.0, "is_disabled": 0, "bike_id": "7eb053c42e77ca55f86263e2772f80e6", "lat": 38.9283635, "rental_uris": {"ios": "https://dc.lft.to/lastmile_qr_scan", "android": "https://dc.lft.to/lastmile_qr_scan"}}, {"type": "electric_scooter", "name": "a3a9362aa568f25afae9797f89a907e6", "fusion_lon": 0.0, "is_reserved": 0, "lon": -76.98731933333333, "fusion_lat": 0.0, "is_disabled": 0, "bike_id": "a3a9362aa568f25afae9797f89a907e6", "lat": 38.907986666666666, "rental_uris": {"ios": "https://dc.lft.to/lastmile_qr_scan", "android": "https://dc.lft.to/lastmile_qr_scan"}}, {"type": "electric_scooter", "name": "6b3a3be3fd704e709b45e96191070e07", "fusion_lon": 0.0, "is_reserved": 0, "lon": -77.04465816666666, "fusion_lat": 0.0, "is_disabled": 0, "bike_id": "6b3a3be3fd704e709b45e96191070e07", "lat": 38.91406033333333, "rental_uris": {"ios": "https://dc.lft.to/lastmile_qr_scan", "android": "https://dc.lft.to/lastmile_qr_scan"}}, {"type": "electric_scooter", "name": "31f46346fd659cee4b07f7833f5a9351", "fusion_lon": 0.0, "is_reserved": 0, "lon": -77.04903866666666, "fusion_lat": 0.0, "is_disabled": 0, "bike_id": "31f46346fd659cee4b07f7833f5a9351", "lat": 38.88840833333333, "rental_uris": {"ios": "https://dc.lft.to/lastmile_qr_scan", "android": "https://dc.lft.to/lastmile_qr_scan"}}, {"type": "electric_scooter", "name": "c730f246b73427eeb7cd75e76e63645c", "fusion_lon": 0.0, "is_reserved": 0, "lon": -77.036533, "fusion_lat": 0.0, "is_disabled": 0, "bike_id": "c730f246b73427eeb7cd75e76e63645c", "lat": 38.922424, "rental_uris": {"ios": "https://dc.lft.to/lastmile_qr_scan", "android": "https://dc.lft.to/lastmile_qr_scan"}}, {"type": "electric_scooter", "name": "681528364e6efcda1a312aa62399cf2b", "fusion_lon": 0.0, "is_reserved": 0, "lon": -76.9851545, "fusion_lat": 0.0, "is_disabled": 0, "bike_id": "681528364e6efcda1a312aa62399cf2b", "lat": 38.880802333333335, "rental_uris": {"ios": "https://dc.lft.to/lastmile_qr_scan", "android": "https://dc.lft.to/lastmile_qr_scan"}}, {"type": "electric_scooter", "name": "e35569ca07815f9a72a5dbe531731568", "fusion_lon": 0.0, "is_reserved": 0, "lon": -77.05326533333333, "fusion_lat": 0.0, "is_disabled": 0, "bike_id": "e35569ca07815f9a72a5dbe531731568", "lat": 38.915498166666666, "rental_uris": {"ios": "https://dc.lft.to/lastmile_qr_scan", "android": "https://dc.lft.to/lastmile_qr_scan"}}, {"type": "electric_scooter", "name": "f65d389122146847c505e9949b3b2140", "fusion_lon": 0.0, "is_reserved": 0, "lon": -77.04335216666666, "fusion_lat": 0.0, "is_disabled": 0, "bike_id": "f65d389122146847c505e9949b3b2140", "lat": 38.892281833333335, "rental_uris": {"ios": "https://dc.lft.to/lastmile_qr_scan", "android": "https://dc.lft.to/lastmile_qr_scan"}}, {"type": "electric_scooter", "name": "f78eccd62f2568dee61d015461afb403", "fusion_lon": 0.0, "is_reserved": 0, "lon": -77.033922, "fusion_lat": 0.0, "is_disabled": 0, "bike_id": "f78eccd62f2568dee61d015461afb403", "lat": 38.919210166666666, "rental_uris": {"ios": "https://dc.lft.to/lastmile_qr_scan", "android": "https://dc.lft.to/lastmile_qr_scan"}}, {"type": "electric_scooter", "name": "43c75392c596e20399e1bec6bab3b27e", "fusion_lon": 0.0, "is_reserved": 0, "lon": -77.03855316666667, "fusion_lat": 0.0, "is_disabled": 0, "bike_id": "43c75392c596e20399e1bec6bab3b27e", "lat": 38.9171615, "rental_uris": {"ios": "https://dc.lft.to/lastmile_qr_scan", "android": "https://dc.lft.to/lastmile_qr_scan"}}, {"type": "electric_scooter", "name": "439f717d5b5e1a69fde733f2cdaa096b", "fusion_lon": 0.0, "is_reserved": 0, "lon": -77.04867966666667, "fusion_lat": 0.0, "is_disabled": 0, "bike_id": "439f717d5b5e1a69fde733f2cdaa096b", "lat": 38.8931485, "rental_uris": {"ios": "https://dc.lft.to/lastmile_qr_scan", "android": "https://dc.lft.to/lastmile_qr_scan"}}, {"type": "electric_scooter", "name": "f2cf88868ea2ea0ded9ffeff5f7b9905", "fusion_lon": 0.0, "is_reserved": 0, "lon": -77.04509883333333, "fusion_lat": 0.0, "is_disabled": 0, "bike_id": "f2cf88868ea2ea0ded9ffeff5f7b9905", "lat": 38.90547383333333, "rental_uris": {"ios": "https://dc.lft.to/lastmile_qr_scan", "android": "https://dc.lft.to/lastmile_qr_scan"}}, {"type": "electric_scooter", "name": "337a27ffea9878cd3a38511c1fd6c150", "fusion_lon": 0.0, "is_reserved": 0, "lon": -77.0414665, "fusion_lat": 0.0, "is_disabled": 0, "bike_id": "337a27ffea9878cd3a38511c1fd6c150", "lat": 38.92652266666666, "rental_uris": {"ios": "https://dc.lft.to/lastmile_qr_scan", "android": "https://dc.lft.to/lastmile_qr_scan"}}, {"type": "electric_scooter", "name": "b6fe87a11aa6ca9a3a47ce6b9c119792", "fusion_lon": 0.0, "is_reserved": 0, "lon": -77.0320785, "fusion_lat": 0.0, "is_disabled": 0, "bike_id": "b6fe87a11aa6ca9a3a47ce6b9c119792", "lat": 38.916874166666666, "rental_uris": {"ios": "https://dc.lft.to/lastmile_qr_scan", "android": "https://dc.lft.to/lastmile_qr_scan"}}, {"type": "electric_scooter", "name": "3ee19890b79db824f42ce5858fa4736c", "fusion_lon": 0.0, "is_reserved": 0, "lon": -76.9851195, "fusion_lat": 0.0, "is_disabled": 0, "bike_id": "3ee19890b79db824f42ce5858fa4736c", "lat": 38.880776166666664, "rental_uris": {"ios": "https://dc.lft.to/lastmile_qr_scan", "android": "https://dc.lft.to/lastmile_qr_scan"}}, {"type": "electric_scooter", "name": "b0a169b67d358d6808c399cdc30c8347", "fusion_lon": 0.0, "is_reserved": 0, "lon": -77.03390016666667, "fusion_lat": 0.0, "is_disabled": 0, "bike_id": "b0a169b67d358d6808c399cdc30c8347", "lat": 38.886646166666665, "rental_uris": {"ios": "https://dc.lft.to/lastmile_qr_scan", "android": "https://dc.lft.to/lastmile_qr_scan"}}, {"type": "electric_scooter", "name": "3ae99568a7bd45b9eb1e72c51c98024b", "fusion_lon": 0.0, "is_reserved": 0, "lon": -77.0249125, "fusion_lat": 0.0, "is_disabled": 0, "bike_id": "3ae99568a7bd45b9eb1e72c51c98024b", "lat": 38.93860316666667, "rental_uris": {"ios": "https://dc.lft.to/lastmile_qr_scan", "android": "https://dc.lft.to/lastmile_qr_scan"}}, {"type": "electric_scooter", "name": "e3f4e9f4ec61f60f1a527b1075f9a9b8", "fusion_lon": 0.0, "is_reserved": 0, "lon": -76.98712083333334, "fusion_lat": 0.0, "is_disabled": 0, "bike_id": "e3f4e9f4ec61f60f1a527b1075f9a9b8", "lat": 38.900650666666664, "rental_uris": {"ios": "https://dc.lft.to/lastmile_qr_scan", "android": "https://dc.lft.to/lastmile_qr_scan"}}, {"type": "electric_scooter", "name": "25c3340bdfb974014948f8286234aae0", "fusion_lon": 0.0, "is_reserved": 0, "lon": -77.019194, "fusion_lat": 0.0, "is_disabled": 0, "bike_id": "25c3340bdfb974014948f8286234aae0", "lat": 38.921733333333336, "rental_uris": {"ios": "https://dc.lft.to/lastmile_qr_scan", "android": "https://dc.lft.to/lastmile_qr_scan"}}, {"type": "electric_scooter", "name": "1df6c17c2da79a1dd577cc316a24cc4f", "fusion_lon": 0.0, "is_reserved": 0, "lon": -77.0186545, "fusion_lat": 0.0, "is_disabled": 0, "bike_id": "1df6c17c2da79a1dd577cc316a24cc4f", "lat": 38.951513166666665, "rental_uris": {"ios": "https://dc.lft.to/lastmile_qr_scan", "android": "https://dc.lft.to/lastmile_qr_scan"}}, {"type": "electric_bike", "name": "147d08f7d5b2eb97fb3e44392d19394f", "fusion_lon": 0.0, "is_reserved": 0, "lon": -76.8953935, "fusion_lat": 0.0, "is_disabled": 0, "bike_id": "147d08f7d5b2eb97fb3e44392d19394f", "lat": 38.945576, "rental_uris": {"ios": "https://dc.lft.to/lastmile_qr_scan", "android": "https://dc.lft.to/lastmile_qr_scan"}}, {"type": "electric_scooter", "name": "ef5df6bd5c94de1ad5baa19a20afe093", "fusion_lon": 0.0, "is_reserved": 0, "lon": -77.04653283333333, "fusion_lat": 0.0, "is_disabled": 0, "bike_id": "ef5df6bd5c94de1ad5baa19a20afe093", "lat": 38.905522500000004, "rental_uris": {"ios": "https://dc.lft.to/lastmile_qr_scan", "android": "https://dc.lft.to/lastmile_qr_scan"}}, {"type": "electric_bike", "name": "2a189968cfce93079964ef3a3cad0c22", "fusion_lon": 0.0, "is_reserved": 0, "lon": -77.0222405, "fusion_lat": 0.0, "is_disabled": 0, "bike_id": "2a189968cfce93079964ef3a3cad0c22", "lat": 38.956891666666664, "rental_uris": {"ios": "https://dc.lft.to/lastmile_qr_scan", "android": "https://dc.lft.to/lastmile_qr_scan"}}, {"type": "electric_scooter", "name": "91c4c7f537b7e7ee63ecfdd2c11e7586", "fusion_lon": 0.0, "is_reserved": 0, "lon": -77.0420695, "fusion_lat": 0.0, "is_disabled": 0, "bike_id": "91c4c7f537b7e7ee63ecfdd2c11e7586", "lat": 38.921052833333334, "rental_uris": {"ios": "https://dc.lft.to/lastmile_qr_scan", "android": "https://dc.lft.to/lastmile_qr_scan"}}, {"type": "electric_scooter", "name": "ac4b8baa5e219e039850ae153da1ee21", "fusion_lon": 0.0, "is_reserved": 0, "lon": -77.02552866666667, "fusion_lat": 0.0, "is_disabled": 0, "bike_id": "ac4b8baa5e219e039850ae153da1ee21", "lat": 38.9184795, "rental_uris": {"ios": "https://dc.lft.to/lastmile_qr_scan", "android": "https://dc.lft.to/lastmile_qr_scan"}}, {"type": "electric_scooter", "name": "cad680746b45fa1975a468d868790949", "fusion_lon": 0.0, "is_reserved": 0, "lon": -77.04330883333333, "fusion_lat": 0.0, "is_disabled": 0, "bike_id": "cad680746b45fa1975a468d868790949", "lat": 38.901361, "rental_uris": {"ios": "https://dc.lft.to/lastmile_qr_scan", "android": "https://dc.lft.to/lastmile_qr_scan"}}, {"type": "electric_scooter", "name": "164f5c8d2913b338389f86c93d92e431", "fusion_lon": 0.0, "is_reserved": 0, "lon": -77.04346983333333, "fusion_lat": 0.0, "is_disabled": 0, "bike_id": "164f5c8d2913b338389f86c93d92e431", "lat": 38.923208, "rental_uris": {"ios": "https://dc.lft.to/lastmile_qr_scan", "android": "https://dc.lft.to/lastmile_qr_scan"}}, {"type": "electric_scooter", "name": "d59e0c79db232a98ddd07217a68ffc3a", "fusion_lon": 0.0, "is_reserved": 0, "lon": -77.028427, "fusion_lat": 0.0, "is_disabled": 0, "bike_id": "d59e0c79db232a98ddd07217a68ffc3a", "lat": 38.94261816666667, "rental_uris": {"ios": "https://dc.lft.to/lastmile_qr_scan", "android": "https://dc.lft.to/lastmile_qr_scan"}}, {"type": "electric_scooter", "name": "833cc165f633dfc7f650a5e6fa05da9c", "fusion_lon": 0.0, "is_reserved": 0, "lon": -76.99850416666666, "fusion_lat": 0.0, "is_disabled": 0, "bike_id": "833cc165f633dfc7f650a5e6fa05da9c", "lat": 38.896223, "rental_uris": {"ios": "https://dc.lft.to/lastmile_qr_scan", "android": "https://dc.lft.to/lastmile_qr_scan"}}, {"type": "electric_scooter", "name": "84c58c4cc9cb11dcfc0d09e23fea47ab", "fusion_lon": 0.0, "is_reserved": 0, "lon": -77.04544033333333, "fusion_lat": 0.0, "is_disabled": 0, "bike_id": "84c58c4cc9cb11dcfc0d09e23fea47ab", "lat": 38.93407083333334, "rental_uris": {"ios": "https://dc.lft.to/lastmile_qr_scan", "android": "https://dc.lft.to/lastmile_qr_scan"}}, {"type": "electric_scooter", "name": "8a806d455068d52e61a56a36018e2b9a", "fusion_lon": 0.0, "is_reserved": 0, "lon": -77.02088616666667, "fusion_lat": 0.0, "is_disabled": 0, "bike_id": "8a806d455068d52e61a56a36018e2b9a", "lat": 38.921430666666666, "rental_uris": {"ios": "https://dc.lft.to/lastmile_qr_scan", "android": "https://dc.lft.to/lastmile_qr_scan"}}, {"type": "electric_scooter", "name": "1200673cd0e0c195a3fa129d8fd93966", "fusion_lon": 0.0, "is_reserved": 0, "lon": -77.06299666666666, "fusion_lat": 0.0, "is_disabled": 0, "bike_id": "1200673cd0e0c195a3fa129d8fd93966", "lat": 38.903961833333334, "rental_uris": {"ios": "https://dc.lft.to/lastmile_qr_scan", "android": "https://dc.lft.to/lastmile_qr_scan"}}, {"type": "electric_scooter", "name": "af666c758ba7aa4280f0c0f55b30f3e8", "fusion_lon": 0.0, "is_reserved": 0, "lon": -77.00335033333333, "fusion_lat": 0.0, "is_disabled": 0, "bike_id": "af666c758ba7aa4280f0c0f55b30f3e8", "lat": 38.893579, "rental_uris": {"ios": "https://dc.lft.to/lastmile_qr_scan", "android": "https://dc.lft.to/lastmile_qr_scan"}}, {"type": "electric_scooter", "name": "465e72e77e87704e96d0a1122624f19b", "fusion_lon": 0.0, "is_reserved": 0, "lon": -77.05412716666666, "fusion_lat": 0.0, "is_disabled": 0, "bike_id": "465e72e77e87704e96d0a1122624f19b", "lat": 38.9282975, "rental_uris": {"ios": "https://dc.lft.to/lastmile_qr_scan", "android": "https://dc.lft.to/lastmile_qr_scan"}}, {"type": "electric_scooter", "name": "ba90dc71488c4d533bd8afd21d268fe5", "fusion_lon": 0.0, "is_reserved": 0, "lon": -77.03435566666667, "fusion_lat": 0.0, "is_disabled": 0, "bike_id": "ba90dc71488c4d533bd8afd21d268fe5", "lat": 38.904086, "rental_uris": {"ios": "https://dc.lft.to/lastmile_qr_scan", "android": "https://dc.lft.to/lastmile_qr_scan"}}, {"type": "electric_scooter", "name": "cc09885ea6669ecac776a5c89a38f006", "fusion_lon": 0.0, "is_reserved": 0, "lon": -77.01912433333334, "fusion_lat": 0.0, "is_disabled": 0, "bike_id": "cc09885ea6669ecac776a5c89a38f006", "lat": 38.92029333333333, "rental_uris": {"ios": "https://dc.lft.to/lastmile_qr_scan", "android": "https://dc.lft.to/lastmile_qr_scan"}}, {"type": "electric_scooter", "name": "94029de9a02594a9b769b531e8f72304", "fusion_lon": 0.0, "is_reserved": 0, "lon": -77.06085766666666, "fusion_lat": 0.0, "is_disabled": 0, "bike_id": "94029de9a02594a9b769b531e8f72304", "lat": 38.93014183333333, "rental_uris": {"ios": "https://dc.lft.to/lastmile_qr_scan", "android": "https://dc.lft.to/lastmile_qr_scan"}}, {"type": "electric_bike", "name": "d6949beb02d7db74f5e8b0c6ee71ecab", "fusion_lon": 0.0, "is_reserved": 0, "lon": -76.98767183333334, "fusion_lat": 0.0, "is_disabled": 0, "bike_id": "d6949beb02d7db74f5e8b0c6ee71ecab", "lat": 38.857713, "rental_uris": {"ios": "https://dc.lft.to/lastmile_qr_scan", "android": "https://dc.lft.to/lastmile_qr_scan"}}, {"type": "electric_scooter", "name": "b2f064b981700de82fbf4289cd1717c3", "fusion_lon": 0.0, "is_reserved": 0, "lon": -76.97714316666666, "fusion_lat": 0.0, "is_disabled": 0, "bike_id": "b2f064b981700de82fbf4289cd1717c3", "lat": 38.89901233333333, "rental_uris": {"ios": "https://dc.lft.to/lastmile_qr_scan", "android": "https://dc.lft.to/lastmile_qr_scan"}}, {"type": "electric_scooter", "name": "ee6b483267eb5904fb086f913986c9bd", "fusion_lon": 0.0, "is_reserved": 0, "lon": -77.0305375, "fusion_lat": 0.0, "is_disabled": 0, "bike_id": "ee6b483267eb5904fb086f913986c9bd", "lat": 38.927743, "rental_uris": {"ios": "https://dc.lft.to/lastmile_qr_scan", "android": "https://dc.lft.to/lastmile_qr_scan"}}, {"type": "electric_scooter", "name": "4d105f6a4ec91dd8419027c54debef3e", "fusion_lon": 0.0, "is_reserved": 0, "lon": -77.0272505, "fusion_lat": 0.0, "is_disabled": 0, "bike_id": "4d105f6a4ec91dd8419027c54debef3e", "lat": 38.951776, "rental_uris": {"ios": "https://dc.lft.to/lastmile_qr_scan", "android": "https://dc.lft.to/lastmile_qr_scan"}}, {"type": "electric_scooter", "name": "6a26828d255cb1f4168115d5044f6217", "fusion_lon": 0.0, "is_reserved": 0, "lon": -77.02777066666667, "fusion_lat": 0.0, "is_disabled": 0, "bike_id": "6a26828d255cb1f4168115d5044f6217", "lat": 38.95533666666667, "rental_uris": {"ios": "https://dc.lft.to/lastmile_qr_scan", "android": "https://dc.lft.to/lastmile_qr_scan"}}, {"type": "electric_scooter", "name": "7b355ae0a70086f22da5ff34b1d39a19", "fusion_lon": 0.0, "is_reserved": 0, "lon": -77.01685616666667, "fusion_lat": 0.0, "is_disabled": 0, "bike_id": "7b355ae0a70086f22da5ff34b1d39a19", "lat": 38.971221666666665, "rental_uris": {"ios": "https://dc.lft.to/lastmile_qr_scan", "android": "https://dc.lft.to/lastmile_qr_scan"}}, {"type": "electric_bike", "name": "79bddea15c82a30e1d2ab075372cae23", "fusion_lon": 0.0, "is_reserved": 0, "lon": -77.09522616666666, "fusion_lat": 0.0, "is_disabled": 0, "bike_id": "79bddea15c82a30e1d2ab075372cae23", "lat": 38.83810533333333, "rental_uris": {"ios": "https://dc.lft.to/lastmile_qr_scan", "android": "https://dc.lft.to/lastmile_qr_scan"}}, {"type": "electric_scooter", "name": "a4bf94891776171f372e1db4ef17faf4", "fusion_lon": 0.0, "is_reserved": 0, "lon": -77.0326355, "fusion_lat": 0.0, "is_disabled": 0, "bike_id": "a4bf94891776171f372e1db4ef17faf4", "lat": 38.937724, "rental_uris": {"ios": "https://dc.lft.to/lastmile_qr_scan", "android": "https://dc.lft.to/lastmile_qr_scan"}}, {"type": "electric_scooter", "name": "3549e529163494e8d6c366e319682f04", "fusion_lon": 0.0, "is_reserved": 0, "lon": -77.058163, "fusion_lat": 0.0, "is_disabled": 0, "bike_id": "3549e529163494e8d6c366e319682f04", "lat": 38.935284333333335, "rental_uris": {"ios": "https://dc.lft.to/lastmile_qr_scan", "android": "https://dc.lft.to/lastmile_qr_scan"}}, {"type": "electric_scooter", "name": "83300bf483814f31eb1982684ac85f75", "fusion_lon": 0.0, "is_reserved": 0, "lon": -77.036481, "fusion_lat": 0.0, "is_disabled": 0, "bike_id": "83300bf483814f31eb1982684ac85f75", "lat": 38.907859, "rental_uris": {"ios": "https://dc.lft.to/lastmile_qr_scan", "android": "https://dc.lft.to/lastmile_qr_scan"}}, {"type": "electric_scooter", "name": "89e534997b930f1afea04e71bb0aab0a", "fusion_lon": 0.0, "is_reserved": 0, "lon": -77.01720166666667, "fusion_lat": 0.0, "is_disabled": 0, "bike_id": "89e534997b930f1afea04e71bb0aab0a", "lat": 38.893428, "rental_uris": {"ios": "https://dc.lft.to/lastmile_qr_scan", "android": "https://dc.lft.to/lastmile_qr_scan"}}, {"type": "electric_scooter", "name": "5af64c5fbc286e97de4b46212502081a", "fusion_lon": 0.0, "is_reserved": 0, "lon": -77.03157583333333, "fusion_lat": 0.0, "is_disabled": 0, "bike_id": "5af64c5fbc286e97de4b46212502081a", "lat": 38.9111625, "rental_uris": {"ios": "https://dc.lft.to/lastmile_qr_scan", "android": "https://dc.lft.to/lastmile_qr_scan"}}, {"type": "electric_scooter", "name": "3dddde0c4b1cab37b7b7861602cedc8e", "fusion_lon": 0.0, "is_reserved": 0, "lon": -76.97795333333333, "fusion_lat": 0.0, "is_disabled": 0, "bike_id": "3dddde0c4b1cab37b7b7861602cedc8e", "lat": 38.903137, "rental_uris": {"ios": "https://dc.lft.to/lastmile_qr_scan", "android": "https://dc.lft.to/lastmile_qr_scan"}}, {"type": "electric_scooter", "name": "5b2ccafa914ca63f91239e7a9ca57d42", "fusion_lon": 0.0, "is_reserved": 0, "lon": -77.03867866666667, "fusion_lat": 0.0, "is_disabled": 0, "bike_id": "5b2ccafa914ca63f91239e7a9ca57d42", "lat": 38.9079445, "rental_uris": {"ios": "https://dc.lft.to/lastmile_qr_scan", "android": "https://dc.lft.to/lastmile_qr_scan"}}, {"type": "electric_scooter", "name": "bfe1f8906e8a5dc1e7defd24ca179103", "fusion_lon": 0.0, "is_reserved": 0, "lon": -76.992673, "fusion_lat": 0.0, "is_disabled": 0, "bike_id": "bfe1f8906e8a5dc1e7defd24ca179103", "lat": 38.90600216666667, "rental_uris": {"ios": "https://dc.lft.to/lastmile_qr_scan", "android": "https://dc.lft.to/lastmile_qr_scan"}}, {"type": "electric_scooter", "name": "b0ee98c0865ebaa385c5aaa4821ee592", "fusion_lon": 0.0, "is_reserved": 0, "lon": -77.03193116666667, "fusion_lat": 0.0, "is_disabled": 0, "bike_id": "b0ee98c0865ebaa385c5aaa4821ee592", "lat": 38.8922295, "rental_uris": {"ios": "https://dc.lft.to/lastmile_qr_scan", "android": "https://dc.lft.to/lastmile_qr_scan"}}, {"type": "electric_scooter", "name": "a0b3327839d21e328d3a6b310356e2c1", "fusion_lon": 0.0, "is_reserved": 0, "lon": -77.04215116666667, "fusion_lat": 0.0, "is_disabled": 0, "bike_id": "a0b3327839d21e328d3a6b310356e2c1", "lat": 38.902598, "rental_uris": {"ios": "https://dc.lft.to/lastmile_qr_scan", "android": "https://dc.lft.to/lastmile_qr_scan"}}, {"type": "electric_scooter", "name": "b0642d23e3f270a3198bf5db642d3ca2", "fusion_lon": 0.0, "is_reserved": 0, "lon": -77.0382135, "fusion_lat": 0.0, "is_disabled": 0, "bike_id": "b0642d23e3f270a3198bf5db642d3ca2", "lat": 38.907250166666664, "rental_uris": {"ios": "https://dc.lft.to/lastmile_qr_scan", "android": "https://dc.lft.to/lastmile_qr_scan"}}, {"type": "electric_scooter", "name": "3ea0c4972647999692374254a00d8b35", "fusion_lon": 0.0, "is_reserved": 0, "lon": -77.03318466666667, "fusion_lat": 0.0, "is_disabled": 0, "bike_id": "3ea0c4972647999692374254a00d8b35", "lat": 38.9451115, "rental_uris": {"ios": "https://dc.lft.to/lastmile_qr_scan", "android": "https://dc.lft.to/lastmile_qr_scan"}}, {"type": "electric_bike", "name": "efb4447f87f0acfbbecc513a1363da2d", "fusion_lon": 0.0, "is_reserved": 0, "lon": -76.98756183333333, "fusion_lat": 0.0, "is_disabled": 0, "bike_id": "efb4447f87f0acfbbecc513a1363da2d", "lat": 38.94559566666667, "rental_uris": {"ios": "https://dc.lft.to/lastmile_qr_scan", "android": "https://dc.lft.to/lastmile_qr_scan"}}, {"type": "electric_scooter", "name": "c779d9909623291791e262f5312b4a0a", "fusion_lon": 0.0, "is_reserved": 0, "lon": -77.033387, "fusion_lat": 0.0, "is_disabled": 0, "bike_id": "c779d9909623291791e262f5312b4a0a", "lat": 38.921589166666664, "rental_uris": {"ios": "https://dc.lft.to/lastmile_qr_scan", "android": "https://dc.lft.to/lastmile_qr_scan"}}, {"type": "electric_scooter", "name": "ba708623f987f44537f2f3ab1a92df25", "fusion_lon": 0.0, "is_reserved": 0, "lon": -77.03440366666666, "fusion_lat": 0.0, "is_disabled": 0, "bike_id": "ba708623f987f44537f2f3ab1a92df25", "lat": 38.90356766666667, "rental_uris": {"ios": "https://dc.lft.to/lastmile_qr_scan", "android": "https://dc.lft.to/lastmile_qr_scan"}}, {"type": "electric_scooter", "name": "6e37e6e241bbed885b4f7346d4bb1b3d", "fusion_lon": 0.0, "is_reserved": 0, "lon": -77.03848483333333, "fusion_lat": 0.0, "is_disabled": 0, "bike_id": "6e37e6e241bbed885b4f7346d4bb1b3d", "lat": 38.90627633333333, "rental_uris": {"ios": "https://dc.lft.to/lastmile_qr_scan", "android": "https://dc.lft.to/lastmile_qr_scan"}}, {"type": "electric_bike", "name": "5fc89d8145e709212484b215869005cd", "fusion_lon": 0.0, "is_reserved": 0, "lon": -77.11864183333333, "fusion_lat": 0.0, "is_disabled": 0, "bike_id": "5fc89d8145e709212484b215869005cd", "lat": 38.8589655, "rental_uris": {"ios": "https://dc.lft.to/lastmile_qr_scan", "android": "https://dc.lft.to/lastmile_qr_scan"}}, {"type": "electric_scooter", "name": "cfb0aace4bc4471265a4853b246a5ce4", "fusion_lon": 0.0, "is_reserved": 0, "lon": -76.95749, "fusion_lat": 0.0, "is_disabled": 0, "bike_id": "cfb0aace4bc4471265a4853b246a5ce4", "lat": 38.88456683333333, "rental_uris": {"ios": "https://dc.lft.to/lastmile_qr_scan", "android": "https://dc.lft.to/lastmile_qr_scan"}}, {"type": "electric_scooter", "name": "4aa44846deb823fbc98fe3db6ea9c1d0", "fusion_lon": 0.0, "is_reserved": 0, "lon": -77.03859716666666, "fusion_lat": 0.0, "is_disabled": 0, "bike_id": "4aa44846deb823fbc98fe3db6ea9c1d0", "lat": 38.9171455, "rental_uris": {"ios": "https://dc.lft.to/lastmile_qr_scan", "android": "https://dc.lft.to/lastmile_qr_scan"}}, {"type": "electric_scooter", "name": "717c67deed5fc3050381495ecee40d4d", "fusion_lon": 0.0, "is_reserved": 0, "lon": -77.05087083333333, "fusion_lat": 0.0, "is_disabled": 0, "bike_id": "717c67deed5fc3050381495ecee40d4d", "lat": 38.923449166666664, "rental_uris": {"ios": "https://dc.lft.to/lastmile_qr_scan", "android": "https://dc.lft.to/lastmile_qr_scan"}}, {"type": "electric_scooter", "name": "b2d3426fc44e3c636674f31518fbebcb", "fusion_lon": 0.0, "is_reserved": 0, "lon": -76.99693033333334, "fusion_lat": 0.0, "is_disabled": 0, "bike_id": "b2d3426fc44e3c636674f31518fbebcb", "lat": 38.908364, "rental_uris": {"ios": "https://dc.lft.to/lastmile_qr_scan", "android": "https://dc.lft.to/lastmile_qr_scan"}}, {"type": "electric_scooter", "name": "a794d8bdbc9ae7bc8b92db87ad2c42bb", "fusion_lon": 0.0, "is_reserved": 0, "lon": -77.052297, "fusion_lat": 0.0, "is_disabled": 0, "bike_id": "a794d8bdbc9ae7bc8b92db87ad2c42bb", "lat": 38.92467933333333, "rental_uris": {"ios": "https://dc.lft.to/lastmile_qr_scan", "android": "https://dc.lft.to/lastmile_qr_scan"}}, {"type": "electric_scooter", "name": "263e99702474e731932d6c6afa93511a", "fusion_lon": 0.0, "is_reserved": 0, "lon": -76.9848765, "fusion_lat": 0.0, "is_disabled": 0, "bike_id": "263e99702474e731932d6c6afa93511a", "lat": 38.90441333333333, "rental_uris": {"ios": "https://dc.lft.to/lastmile_qr_scan", "android": "https://dc.lft.to/lastmile_qr_scan"}}, {"type": "electric_scooter", "name": "4b9ba00a269eda99c307757a8f4f9ed0", "fusion_lon": 0.0, "is_reserved": 0, "lon": -77.03171833333333, "fusion_lat": 0.0, "is_disabled": 0, "bike_id": "4b9ba00a269eda99c307757a8f4f9ed0", "lat": 38.9163225, "rental_uris": {"ios": "https://dc.lft.to/lastmile_qr_scan", "android": "https://dc.lft.to/lastmile_qr_scan"}}, {"type": "electric_scooter", "name": "99343cf65eff036119171b4f31645cc1", "fusion_lon": 0.0, "is_reserved": 0, "lon": -77.00577316666667, "fusion_lat": 0.0, "is_disabled": 0, "bike_id": "99343cf65eff036119171b4f31645cc1", "lat": 38.90556633333333, "rental_uris": {"ios": "https://dc.lft.to/lastmile_qr_scan", "android": "https://dc.lft.to/lastmile_qr_scan"}}, {"type": "electric_scooter", "name": "0c808402a490fdbcb3dbe0cbd9704b0d", "fusion_lon": 0.0, "is_reserved": 0, "lon": -77.016263, "fusion_lat": 0.0, "is_disabled": 0, "bike_id": "0c808402a490fdbcb3dbe0cbd9704b0d", "lat": 38.899836, "rental_uris": {"ios": "https://dc.lft.to/lastmile_qr_scan", "android": "https://dc.lft.to/lastmile_qr_scan"}}, {"type": "electric_scooter", "name": "a75755b82000d693801111e697c9c805", "fusion_lon": 0.0, "is_reserved": 0, "lon": -77.02114116666667, "fusion_lat": 0.0, "is_disabled": 0, "bike_id": "a75755b82000d693801111e697c9c805", "lat": 38.94078283333333, "rental_uris": {"ios": "https://dc.lft.to/lastmile_qr_scan", "android": "https://dc.lft.to/lastmile_qr_scan"}}, {"type": "electric_scooter", "name": "5a449b9d801500163b69186ee3a81d43", "fusion_lon": 0.0, "is_reserved": 0, "lon": -77.03629166666667, "fusion_lat": 0.0, "is_disabled": 0, "bike_id": "5a449b9d801500163b69186ee3a81d43", "lat": 38.902682, "rental_uris": {"ios": "https://dc.lft.to/lastmile_qr_scan", "android": "https://dc.lft.to/lastmile_qr_scan"}}, {"type": "electric_scooter", "name": "d06c75d74dc5b1dfc323937eb8976119", "fusion_lon": 0.0, "is_reserved": 0, "lon": -77.0297645, "fusion_lat": 0.0, "is_disabled": 0, "bike_id": "d06c75d74dc5b1dfc323937eb8976119", "lat": 38.896346666666666, "rental_uris": {"ios": "https://dc.lft.to/lastmile_qr_scan", "android": "https://dc.lft.to/lastmile_qr_scan"}}, {"type": "electric_scooter", "name": "ce8da21bc36814154e778cf588b5d8be", "fusion_lon": 0.0, "is_reserved": 0, "lon": -77.02724516666666, "fusion_lat": 0.0, "is_disabled": 0, "bike_id": "ce8da21bc36814154e778cf588b5d8be", "lat": 38.951828166666665, "rental_uris": {"ios": "https://dc.lft.to/lastmile_qr_scan", "android": "https://dc.lft.to/lastmile_qr_scan"}}, {"type": "electric_scooter", "name": "0b6eab743106206ab139ef5323d60485", "fusion_lon": 0.0, "is_reserved": 0, "lon": -76.98071316666666, "fusion_lat": 0.0, "is_disabled": 0, "bike_id": "0b6eab743106206ab139ef5323d60485", "lat": 38.90021, "rental_uris": {"ios": "https://dc.lft.to/lastmile_qr_scan", "android": "https://dc.lft.to/lastmile_qr_scan"}}, {"type": "electric_scooter", "name": "ff1a4563776bfad6a1fc7014af9c92e3", "fusion_lon": 0.0, "is_reserved": 0, "lon": -77.039216, "fusion_lat": 0.0, "is_disabled": 0, "bike_id": "ff1a4563776bfad6a1fc7014af9c92e3", "lat": 38.903620333333336, "rental_uris": {"ios": "https://dc.lft.to/lastmile_qr_scan", "android": "https://dc.lft.to/lastmile_qr_scan"}}, {"type": "electric_scooter", "name": "2d25d319fe727af8ceb037429de6f85e", "fusion_lon": 0.0, "is_reserved": 0, "lon": -77.04323933333333, "fusion_lat": 0.0, "is_disabled": 0, "bike_id": "2d25d319fe727af8ceb037429de6f85e", "lat": 38.903653166666665, "rental_uris": {"ios": "https://dc.lft.to/lastmile_qr_scan", "android": "https://dc.lft.to/lastmile_qr_scan"}}, {"type": "electric_scooter", "name": "115d091471371e9ac4ff596451b88c87", "fusion_lon": 0.0, "is_reserved": 0, "lon": -77.03315533333334, "fusion_lat": 0.0, "is_disabled": 0, "bike_id": "115d091471371e9ac4ff596451b88c87", "lat": 38.908253333333334, "rental_uris": {"ios": "https://dc.lft.to/lastmile_qr_scan", "android": "https://dc.lft.to/lastmile_qr_scan"}}, {"type": "electric_scooter", "name": "09a35fa6d7b396e32a45b319b848f1b3", "fusion_lon": 0.0, "is_reserved": 0, "lon": -77.05662316666667, "fusion_lat": 0.0, "is_disabled": 0, "bike_id": "09a35fa6d7b396e32a45b319b848f1b3", "lat": 38.895452166666665, "rental_uris": {"ios": "https://dc.lft.to/lastmile_qr_scan", "android": "https://dc.lft.to/lastmile_qr_scan"}}, {"type": "electric_scooter", "name": "550205d6d7553a0a81c81e8880b0d1d2", "fusion_lon": 0.0, "is_reserved": 0, "lon": -77.02108483333333, "fusion_lat": 0.0, "is_disabled": 0, "bike_id": "550205d6d7553a0a81c81e8880b0d1d2", "lat": 38.9111005, "rental_uris": {"ios": "https://dc.lft.to/lastmile_qr_scan", "android": "https://dc.lft.to/lastmile_qr_scan"}}, {"type": "electric_bike", "name": "5f58c508c9aafbf68aff9612a5df0773", "fusion_lon": 0.0, "is_reserved": 0, "lon": -77.0297655, "fusion_lat": 0.0, "is_disabled": 0, "bike_id": "5f58c508c9aafbf68aff9612a5df0773", "lat": 38.93703683333333, "rental_uris": {"ios": "https://dc.lft.to/lastmile_qr_scan", "android": "https://dc.lft.to/lastmile_qr_scan"}}, {"type": "electric_scooter", "name": "96c10c823e64529dae0a1cafee6849de", "fusion_lon": 0.0, "is_reserved": 0, "lon": -77.04205366666666, "fusion_lat": 0.0, "is_disabled": 0, "bike_id": "96c10c823e64529dae0a1cafee6849de", "lat": 38.905983, "rental_uris": {"ios": "https://dc.lft.to/lastmile_qr_scan", "android": "https://dc.lft.to/lastmile_qr_scan"}}, {"type": "electric_scooter", "name": "8256a032e6b52295473e29ca273fb04d", "fusion_lon": 0.0, "is_reserved": 0, "lon": -77.07410366666667, "fusion_lat": 0.0, "is_disabled": 0, "bike_id": "8256a032e6b52295473e29ca273fb04d", "lat": 38.908268166666666, "rental_uris": {"ios": "https://dc.lft.to/lastmile_qr_scan", "android": "https://dc.lft.to/lastmile_qr_scan"}}, {"type": "electric_bike", "name": "3184439565014bd601c93be933f08136", "fusion_lon": 0.0, "is_reserved": 0, "lon": -77.04024816666667, "fusion_lat": 0.0, "is_disabled": 0, "bike_id": "3184439565014bd601c93be933f08136", "lat": 38.90847383333333, "rental_uris": {"ios": "https://dc.lft.to/lastmile_qr_scan", "android": "https://dc.lft.to/lastmile_qr_scan"}}, {"type": "electric_scooter", "name": "66504befd0c635ac71e01faf80296634", "fusion_lon": 0.0, "is_reserved": 0, "lon": -77.067558, "fusion_lat": 0.0, "is_disabled": 0, "bike_id": "66504befd0c635ac71e01faf80296634", "lat": 38.936182333333335, "rental_uris": {"ios": "https://dc.lft.to/lastmile_qr_scan", "android": "https://dc.lft.to/lastmile_qr_scan"}}, {"type": "electric_scooter", "name": "daae3bf3012c084817758012dcf5a836", "fusion_lon": 0.0, "is_reserved": 0, "lon": -77.04405583333333, "fusion_lat": 0.0, "is_disabled": 0, "bike_id": "daae3bf3012c084817758012dcf5a836", "lat": 38.89740783333333, "rental_uris": {"ios": "https://dc.lft.to/lastmile_qr_scan", "android": "https://dc.lft.to/lastmile_qr_scan"}}, {"type": "electric_scooter", "name": "07e9649370b8de2ffb6729104e83bbbf", "fusion_lon": 0.0, "is_reserved": 0, "lon": -77.04476116666666, "fusion_lat": 0.0, "is_disabled": 0, "bike_id": "07e9649370b8de2ffb6729104e83bbbf", "lat": 38.91086116666666, "rental_uris": {"ios": "https://dc.lft.to/lastmile_qr_scan", "android": "https://dc.lft.to/lastmile_qr_scan"}}, {"type": "electric_scooter", "name": "1def1d08b7e662aa88cd085633657c90", "fusion_lon": 0.0, "is_reserved": 0, "lon": -77.0343055, "fusion_lat": 0.0, "is_disabled": 0, "bike_id": "1def1d08b7e662aa88cd085633657c90", "lat": 38.90403516666667, "rental_uris": {"ios": "https://dc.lft.to/lastmile_qr_scan", "android": "https://dc.lft.to/lastmile_qr_scan"}}, {"type": "electric_scooter", "name": "2184a391c52f6ccbda9e89c31d04b469", "fusion_lon": 0.0, "is_reserved": 0, "lon": -77.03107983333334, "fusion_lat": 0.0, "is_disabled": 0, "bike_id": "2184a391c52f6ccbda9e89c31d04b469", "lat": 38.904617, "rental_uris": {"ios": "https://dc.lft.to/lastmile_qr_scan", "android": "https://dc.lft.to/lastmile_qr_scan"}}, {"type": "electric_bike", "name": "8ab72f8bcff498d8753873e250d22e66", "fusion_lon": 0.0, "is_reserved": 0, "lon": -77.1392915, "fusion_lat": 0.0, "is_disabled": 0, "bike_id": "8ab72f8bcff498d8753873e250d22e66", "lat": 38.87294166666667, "rental_uris": {"ios": "https://dc.lft.to/lastmile_qr_scan", "android": "https://dc.lft.to/lastmile_qr_scan"}}, {"type": "electric_scooter", "name": "34a5467aff9e595255a1676800d2159f", "fusion_lon": 0.0, "is_reserved": 0, "lon": -77.048054, "fusion_lat": 0.0, "is_disabled": 0, "bike_id": "34a5467aff9e595255a1676800d2159f", "lat": 38.89219883333333, "rental_uris": {"ios": "https://dc.lft.to/lastmile_qr_scan", "android": "https://dc.lft.to/lastmile_qr_scan"}}, {"type": "electric_bike", "name": "96dadac7cdded77f136a565f6874a850", "fusion_lon": 0.0, "is_reserved": 0, "lon": -77.1246495, "fusion_lat": 0.0, "is_disabled": 0, "bike_id": "96dadac7cdded77f136a565f6874a850", "lat": 38.853756, "rental_uris": {"ios": "https://dc.lft.to/lastmile_qr_scan", "android": "https://dc.lft.to/lastmile_qr_scan"}}, {"type": "electric_scooter", "name": "fd37b2fe10a280ddb7371b86cd38de09", "fusion_lon": 0.0, "is_reserved": 0, "lon": -77.020207, "fusion_lat": 0.0, "is_disabled": 0, "bike_id": "fd37b2fe10a280ddb7371b86cd38de09", "lat": 38.92448066666667, "rental_uris": {"ios": "https://dc.lft.to/lastmile_qr_scan", "android": "https://dc.lft.to/lastmile_qr_scan"}}, {"type": "electric_scooter", "name": "68c20eff121034642fccd925b8cf4965", "fusion_lon": 0.0, "is_reserved": 0, "lon": -77.02888766666666, "fusion_lat": 0.0, "is_disabled": 0, "bike_id": "68c20eff121034642fccd925b8cf4965", "lat": 38.91948283333333, "rental_uris": {"ios": "https://dc.lft.to/lastmile_qr_scan", "android": "https://dc.lft.to/lastmile_qr_scan"}}, {"type": "electric_scooter", "name": "f95e3c611a059f5e6231ea48ed7a03a0", "fusion_lon": 0.0, "is_reserved": 0, "lon": -77.04309566666667, "fusion_lat": 0.0, "is_disabled": 0, "bike_id": "f95e3c611a059f5e6231ea48ed7a03a0", "lat": 38.89221583333333, "rental_uris": {"ios": "https://dc.lft.to/lastmile_qr_scan", "android": "https://dc.lft.to/lastmile_qr_scan"}}, {"type": "electric_scooter", "name": "b781337b897d03644fec95ffe273d8a1", "fusion_lon": 0.0, "is_reserved": 0, "lon": -76.96504116666667, "fusion_lat": 0.0, "is_disabled": 0, "bike_id": "b781337b897d03644fec95ffe273d8a1", "lat": 38.876458666666664, "rental_uris": {"ios": "https://dc.lft.to/lastmile_qr_scan", "android": "https://dc.lft.to/lastmile_qr_scan"}}, {"type": "electric_scooter", "name": "c99fdc15cfcced011e1053e1b24d9b71", "fusion_lon": 0.0, "is_reserved": 0, "lon": -77.01510666666667, "fusion_lat": 0.0, "is_disabled": 0, "bike_id": "c99fdc15cfcced011e1053e1b24d9b71", "lat": 38.95841083333333, "rental_uris": {"ios": "https://dc.lft.to/lastmile_qr_scan", "android": "https://dc.lft.to/lastmile_qr_scan"}}, {"type": "electric_scooter", "name": "6c3d85749c018aa693ec712d8f75a9b1", "fusion_lon": 0.0, "is_reserved": 0, "lon": -77.02518583333334, "fusion_lat": 0.0, "is_disabled": 0, "bike_id": "6c3d85749c018aa693ec712d8f75a9b1", "lat": 38.92150433333333, "rental_uris": {"ios": "https://dc.lft.to/lastmile_qr_scan", "android": "https://dc.lft.to/lastmile_qr_scan"}}, {"type": "electric_scooter", "name": "598c1d3a4fedfbff5e67a7fd035f9960", "fusion_lon": 0.0, "is_reserved": 0, "lon": -77.02720633333334, "fusion_lat": 0.0, "is_disabled": 0, "bike_id": "598c1d3a4fedfbff5e67a7fd035f9960", "lat": 38.95133783333333, "rental_uris": {"ios": "https://dc.lft.to/lastmile_qr_scan", "android": "https://dc.lft.to/lastmile_qr_scan"}}, {"type": "electric_bike", "name": "566c18ca5c589c375f966926f4dfb1dc", "fusion_lon": 0.0, "is_reserved": 0, "lon": -77.03076766666666, "fusion_lat": 0.0, "is_disabled": 0, "bike_id": "566c18ca5c589c375f966926f4dfb1dc", "lat": 39.04224683333333, "rental_uris": {"ios": "https://dc.lft.to/lastmile_qr_scan", "android": "https://dc.lft.to/lastmile_qr_scan"}}, {"type": "electric_scooter", "name": "64c17f063a3e7b17a39a2b2a65010266", "fusion_lon": 0.0, "is_reserved": 0, "lon": -77.03196583333333, "fusion_lat": 0.0, "is_disabled": 0, "bike_id": "64c17f063a3e7b17a39a2b2a65010266", "lat": 38.93058466666667, "rental_uris": {"ios": "https://dc.lft.to/lastmile_qr_scan", "android": "https://dc.lft.to/lastmile_qr_scan"}}, {"type": "electric_scooter", "name": "1330e241842115d69bb752a6127fa432", "fusion_lon": 0.0, "is_reserved": 0, "lon": -77.02010016666667, "fusion_lat": 0.0, "is_disabled": 0, "bike_id": "1330e241842115d69bb752a6127fa432", "lat": 38.91117966666667, "rental_uris": {"ios": "https://dc.lft.to/lastmile_qr_scan", "android": "https://dc.lft.to/lastmile_qr_scan"}}, {"type": "electric_scooter", "name": "d1a338ac524ce0e0ca84da1b383d80e7", "fusion_lon": 0.0, "is_reserved": 0, "lon": -77.01230533333333, "fusion_lat": 0.0, "is_disabled": 0, "bike_id": "d1a338ac524ce0e0ca84da1b383d80e7", "lat": 38.8697605, "rental_uris": {"ios": "https://dc.lft.to/lastmile_qr_scan", "android": "https://dc.lft.to/lastmile_qr_scan"}}, {"type": "electric_bike", "name": "a4324db2161ef599b766e7d171f26958", "fusion_lon": 0.0, "is_reserved": 0, "lon": -76.99354266666667, "fusion_lat": 0.0, "is_disabled": 0, "bike_id": "a4324db2161ef599b766e7d171f26958", "lat": 38.955067666666665, "rental_uris": {"ios": "https://dc.lft.to/lastmile_qr_scan", "android": "https://dc.lft.to/lastmile_qr_scan"}}, {"type": "electric_scooter", "name": "fca16b20731b2f98302d7c6e063bf0b8", "fusion_lon": 0.0, "is_reserved": 0, "lon": -76.99957833333333, "fusion_lat": 0.0, "is_disabled": 0, "bike_id": "fca16b20731b2f98302d7c6e063bf0b8", "lat": 38.9032385, "rental_uris": {"ios": "https://dc.lft.to/lastmile_qr_scan", "android": "https://dc.lft.to/lastmile_qr_scan"}}, {"type": "electric_scooter", "name": "965ee84cf57c94eef384a84643d724e5", "fusion_lon": 0.0, "is_reserved": 0, "lon": -77.02515233333334, "fusion_lat": 0.0, "is_disabled": 0, "bike_id": "965ee84cf57c94eef384a84643d724e5", "lat": 38.94207183333333, "rental_uris": {"ios": "https://dc.lft.to/lastmile_qr_scan", "android": "https://dc.lft.to/lastmile_qr_scan"}}, {"type": "electric_bike", "name": "ecf82c1e523bc9b27cfffcde4d286fec", "fusion_lon": 0.0, "is_reserved": 0, "lon": -77.08396316666666, "fusion_lat": 0.0, "is_disabled": 0, "bike_id": "ecf82c1e523bc9b27cfffcde4d286fec", "lat": 38.928864833333336, "rental_uris": {"ios": "https://dc.lft.to/lastmile_qr_scan", "android": "https://dc.lft.to/lastmile_qr_scan"}}, {"type": "electric_scooter", "name": "372ab808866e0a31a7ad810dfb076730", "fusion_lon": 0.0, "is_reserved": 0, "lon": -77.0217025, "fusion_lat": 0.0, "is_disabled": 0, "bike_id": "372ab808866e0a31a7ad810dfb076730", "lat": 38.8939765, "rental_uris": {"ios": "https://dc.lft.to/lastmile_qr_scan", "android": "https://dc.lft.to/lastmile_qr_scan"}}, {"type": "electric_scooter", "name": "6bc54a3b6c5f4df5c7086c5e82159c79", "fusion_lon": 0.0, "is_reserved": 0, "lon": -77.048249, "fusion_lat": 0.0, "is_disabled": 0, "bike_id": "6bc54a3b6c5f4df5c7086c5e82159c79", "lat": 38.91888216666667, "rental_uris": {"ios": "https://dc.lft.to/lastmile_qr_scan", "android": "https://dc.lft.to/lastmile_qr_scan"}}, {"type": "electric_bike", "name": "a7be92d8d52b04661ee7ed86187b0125", "fusion_lon": 0.0, "is_reserved": 0, "lon": -76.97677083333333, "fusion_lat": 0.0, "is_disabled": 0, "bike_id": "a7be92d8d52b04661ee7ed86187b0125", "lat": 38.95249833333333, "rental_uris": {"ios": "https://dc.lft.to/lastmile_qr_scan", "android": "https://dc.lft.to/lastmile_qr_scan"}}, {"type": "electric_scooter", "name": "f891d4a459ab2a6d67c363980539b8bc", "fusion_lon": 0.0, "is_reserved": 0, "lon": -77.02212, "fusion_lat": 0.0, "is_disabled": 0, "bike_id": "f891d4a459ab2a6d67c363980539b8bc", "lat": 38.92048416666667, "rental_uris": {"ios": "https://dc.lft.to/lastmile_qr_scan", "android": "https://dc.lft.to/lastmile_qr_scan"}}, {"type": "electric_scooter", "name": "d032bc34669a8a97fe65503ce0ab53d3", "fusion_lon": 0.0, "is_reserved": 0, "lon": -77.01013083333333, "fusion_lat": 0.0, "is_disabled": 0, "bike_id": "d032bc34669a8a97fe65503ce0ab53d3", "lat": 38.90644833333333, "rental_uris": {"ios": "https://dc.lft.to/lastmile_qr_scan", "android": "https://dc.lft.to/lastmile_qr_scan"}}, {"type": "electric_scooter", "name": "7061b08c78a494e6d12ac014567021d4", "fusion_lon": 0.0, "is_reserved": 0, "lon": -77.01512666666666, "fusion_lat": 0.0, "is_disabled": 0, "bike_id": "7061b08c78a494e6d12ac014567021d4", "lat": 38.9677845, "rental_uris": {"ios": "https://dc.lft.to/lastmile_qr_scan", "android": "https://dc.lft.to/lastmile_qr_scan"}}, {"type": "electric_scooter", "name": "2e1831854c750b829bce991b62c359bb", "fusion_lon": 0.0, "is_reserved": 0, "lon": -77.04011883333334, "fusion_lat": 0.0, "is_disabled": 0, "bike_id": "2e1831854c750b829bce991b62c359bb", "lat": 38.9010065, "rental_uris": {"ios": "https://dc.lft.to/lastmile_qr_scan", "android": "https://dc.lft.to/lastmile_qr_scan"}}, {"type": "electric_scooter", "name": "62d592638a5a7b37ba9a749f3db46e97", "fusion_lon": 0.0, "is_reserved": 0, "lon": -76.98607466666667, "fusion_lat": 0.0, "is_disabled": 0, "bike_id": "62d592638a5a7b37ba9a749f3db46e97", "lat": 38.86692983333333, "rental_uris": {"ios": "https://dc.lft.to/lastmile_qr_scan", "android": "https://dc.lft.to/lastmile_qr_scan"}}, {"type": "electric_scooter", "name": "8b050f6e3fb228aaeb494ac45906ef98", "fusion_lon": 0.0, "is_reserved": 0, "lon": -77.03198666666667, "fusion_lat": 0.0, "is_disabled": 0, "bike_id": "8b050f6e3fb228aaeb494ac45906ef98", "lat": 38.89752266666667, "rental_uris": {"ios": "https://dc.lft.to/lastmile_qr_scan", "android": "https://dc.lft.to/lastmile_qr_scan"}}, {"type": "electric_scooter", "name": "2e62f767f6575579952b5cfdbaff85f4", "fusion_lon": 0.0, "is_reserved": 0, "lon": -76.93186666666666, "fusion_lat": 0.0, "is_disabled": 0, "bike_id": "2e62f767f6575579952b5cfdbaff85f4", "lat": 38.898759166666665, "rental_uris": {"ios": "https://dc.lft.to/lastmile_qr_scan", "android": "https://dc.lft.to/lastmile_qr_scan"}}, {"type": "electric_scooter", "name": "7224bed5f8ae605b0887dfb97303e46a", "fusion_lon": 0.0, "is_reserved": 0, "lon": -77.02368566666667, "fusion_lat": 0.0, "is_disabled": 0, "bike_id": "7224bed5f8ae605b0887dfb97303e46a", "lat": 38.915442166666665, "rental_uris": {"ios": "https://dc.lft.to/lastmile_qr_scan", "android": "https://dc.lft.to/lastmile_qr_scan"}}, {"type": "electric_bike", "name": "b516f8c641839448a6d84cf33e0b3f10", "fusion_lon": 0.0, "is_reserved": 0, "lon": -76.99749166666666, "fusion_lat": 0.0, "is_disabled": 0, "bike_id": "b516f8c641839448a6d84cf33e0b3f10", "lat": 38.83789633333333, "rental_uris": {"ios": "https://dc.lft.to/lastmile_qr_scan", "android": "https://dc.lft.to/lastmile_qr_scan"}}, {"type": "electric_scooter", "name": "8259e94a3429cf6550f52dc89d738fb2", "fusion_lon": 0.0, "is_reserved": 0, "lon": -77.0070005, "fusion_lat": 0.0, "is_disabled": 0, "bike_id": "8259e94a3429cf6550f52dc89d738fb2", "lat": 38.87932516666667, "rental_uris": {"ios": "https://dc.lft.to/lastmile_qr_scan", "android": "https://dc.lft.to/lastmile_qr_scan"}}, {"type": "electric_scooter", "name": "e2e3b566ab06c55cacd581aca3af648d", "fusion_lon": 0.0, "is_reserved": 0, "lon": -76.99341733333333, "fusion_lat": 0.0, "is_disabled": 0, "bike_id": "e2e3b566ab06c55cacd581aca3af648d", "lat": 38.910363833333335, "rental_uris": {"ios": "https://dc.lft.to/lastmile_qr_scan", "android": "https://dc.lft.to/lastmile_qr_scan"}}, {"type": "electric_scooter", "name": "e6c2d02300abe534ef035c08d1047f11", "fusion_lon": 0.0, "is_reserved": 0, "lon": -77.02517466666667, "fusion_lat": 0.0, "is_disabled": 0, "bike_id": "e6c2d02300abe534ef035c08d1047f11", "lat": 38.93854116666667, "rental_uris": {"ios": "https://dc.lft.to/lastmile_qr_scan", "android": "https://dc.lft.to/lastmile_qr_scan"}}, {"type": "electric_scooter", "name": "1a8414386919ca0107997a1c5b126cdc", "fusion_lon": 0.0, "is_reserved": 0, "lon": -77.0215205, "fusion_lat": 0.0, "is_disabled": 0, "bike_id": "1a8414386919ca0107997a1c5b126cdc", "lat": 38.9247415, "rental_uris": {"ios": "https://dc.lft.to/lastmile_qr_scan", "android": "https://dc.lft.to/lastmile_qr_scan"}}, {"type": "electric_scooter", "name": "44ffc8de08a2b7fe1c309d8c4a6074e1", "fusion_lon": 0.0, "is_reserved": 0, "lon": -77.03218266666667, "fusion_lat": 0.0, "is_disabled": 0, "bike_id": "44ffc8de08a2b7fe1c309d8c4a6074e1", "lat": 38.91995133333333, "rental_uris": {"ios": "https://dc.lft.to/lastmile_qr_scan", "android": "https://dc.lft.to/lastmile_qr_scan"}}, {"type": "electric_scooter", "name": "2958b8dd942083eab7ce1f40c473bda4", "fusion_lon": 0.0, "is_reserved": 0, "lon": -77.04792783333333, "fusion_lat": 0.0, "is_disabled": 0, "bike_id": "2958b8dd942083eab7ce1f40c473bda4", "lat": 38.90461483333333, "rental_uris": {"ios": "https://dc.lft.to/lastmile_qr_scan", "android": "https://dc.lft.to/lastmile_qr_scan"}}, {"type": "electric_scooter", "name": "0ba4d6a623b7b82903bc6399229e58bc", "fusion_lon": 0.0, "is_reserved": 0, "lon": -77.029877, "fusion_lat": 0.0, "is_disabled": 0, "bike_id": "0ba4d6a623b7b82903bc6399229e58bc", "lat": 38.920561, "rental_uris": {"ios": "https://dc.lft.to/lastmile_qr_scan", "android": "https://dc.lft.to/lastmile_qr_scan"}}, {"type": "electric_scooter", "name": "c582d5f65a9cb2fc183e24f99750f0a0", "fusion_lon": 0.0, "is_reserved": 0, "lon": -77.0465445, "fusion_lat": 0.0, "is_disabled": 0, "bike_id": "c582d5f65a9cb2fc183e24f99750f0a0", "lat": 38.8962175, "rental_uris": {"ios": "https://dc.lft.to/lastmile_qr_scan", "android": "https://dc.lft.to/lastmile_qr_scan"}}, {"type": "electric_bike", "name": "03084538faddad379ca8259eaf56c5bc", "fusion_lon": 0.0, "is_reserved": 0, "lon": -77.06693883333334, "fusion_lat": 0.0, "is_disabled": 0, "bike_id": "03084538faddad379ca8259eaf56c5bc", "lat": 38.84563583333333, "rental_uris": {"ios": "https://dc.lft.to/lastmile_qr_scan", "android": "https://dc.lft.to/lastmile_qr_scan"}}, {"type": "electric_scooter", "name": "67961d304f94a0fb7d0ab700eb4a2076", "fusion_lon": 0.0, "is_reserved": 0, "lon": -77.031488, "fusion_lat": 0.0, "is_disabled": 0, "bike_id": "67961d304f94a0fb7d0ab700eb4a2076", "lat": 38.914164166666666, "rental_uris": {"ios": "https://dc.lft.to/lastmile_qr_scan", "android": "https://dc.lft.to/lastmile_qr_scan"}}, {"type": "electric_bike", "name": "037f4ba4f78f4ed8f5a703e69d3d43ce", "fusion_lon": 0.0, "is_reserved": 0, "lon": -77.11578066666667, "fusion_lat": 0.0, "is_disabled": 0, "bike_id": "037f4ba4f78f4ed8f5a703e69d3d43ce", "lat": 38.99343016666667, "rental_uris": {"ios": "https://dc.lft.to/lastmile_qr_scan", "android": "https://dc.lft.to/lastmile_qr_scan"}}, {"type": "electric_scooter", "name": "e617297d40163cb6ee177fa7ff346624", "fusion_lon": 0.0, "is_reserved": 0, "lon": -77.024876, "fusion_lat": 0.0, "is_disabled": 0, "bike_id": "e617297d40163cb6ee177fa7ff346624", "lat": 38.9418325, "rental_uris": {"ios": "https://dc.lft.to/lastmile_qr_scan", "android": "https://dc.lft.to/lastmile_qr_scan"}}, {"type": "electric_bike", "name": "64caff67c981decafd1a1a940e395707", "fusion_lon": 0.0, "is_reserved": 0, "lon": -77.05957533333333, "fusion_lat": 0.0, "is_disabled": 0, "bike_id": "64caff67c981decafd1a1a940e395707", "lat": 38.806973666666664, "rental_uris": {"ios": "https://dc.lft.to/lastmile_qr_scan", "android": "https://dc.lft.to/lastmile_qr_scan"}}, {"type": "electric_bike", "name": "2128cd17703c19ec3bd05c4ee7a065cf", "fusion_lon": 0.0, "is_reserved": 0, "lon": -77.23327783333333, "fusion_lat": 0.0, "is_disabled": 0, "bike_id": "2128cd17703c19ec3bd05c4ee7a065cf", "lat": 38.8727865, "rental_uris": {"ios": "https://dc.lft.to/lastmile_qr_scan", "android": "https://dc.lft.to/lastmile_qr_scan"}}, {"type": "electric_scooter", "name": "e9ac98032924cf231ca8c654117ab313", "fusion_lon": 0.0, "is_reserved": 0, "lon": -76.94157466666667, "fusion_lat": 0.0, "is_disabled": 0, "bike_id": "e9ac98032924cf231ca8c654117ab313", "lat": 38.90824666666666, "rental_uris": {"ios": "https://dc.lft.to/lastmile_qr_scan", "android": "https://dc.lft.to/lastmile_qr_scan"}}, {"type": "electric_scooter", "name": "d3ffabc85f6502abe30a90056fe4b663", "fusion_lon": 0.0, "is_reserved": 0, "lon": -76.99234616666666, "fusion_lat": 0.0, "is_disabled": 0, "bike_id": "d3ffabc85f6502abe30a90056fe4b663", "lat": 38.908211, "rental_uris": {"ios": "https://dc.lft.to/lastmile_qr_scan", "android": "https://dc.lft.to/lastmile_qr_scan"}}, {"type": "electric_scooter", "name": "677b01cf1f857f38956e3c4cecb9db8a", "fusion_lon": 0.0, "is_reserved": 0, "lon": -77.034793, "fusion_lat": 0.0, "is_disabled": 0, "bike_id": "677b01cf1f857f38956e3c4cecb9db8a", "lat": 38.903658666666665, "rental_uris": {"ios": "https://dc.lft.to/lastmile_qr_scan", "android": "https://dc.lft.to/lastmile_qr_scan"}}, {"type": "electric_scooter", "name": "c075e0f000b5c62104ad3b29fbe5def1", "fusion_lon": 0.0, "is_reserved": 0, "lon": -77.051136, "fusion_lat": 0.0, "is_disabled": 0, "bike_id": "c075e0f000b5c62104ad3b29fbe5def1", "lat": 38.902119666666664, "rental_uris": {"ios": "https://dc.lft.to/lastmile_qr_scan", "android": "https://dc.lft.to/lastmile_qr_scan"}}, {"type": "electric_scooter", "name": "8c481e81d3b46bc24cd9113a5c122962", "fusion_lon": 0.0, "is_reserved": 0, "lon": -77.04129566666667, "fusion_lat": 0.0, "is_disabled": 0, "bike_id": "8c481e81d3b46bc24cd9113a5c122962", "lat": 38.91377816666667, "rental_uris": {"ios": "https://dc.lft.to/lastmile_qr_scan", "android": "https://dc.lft.to/lastmile_qr_scan"}}, {"type": "electric_scooter", "name": "f4c9df2a356c8b28ca7210503f07161e", "fusion_lon": 0.0, "is_reserved": 0, "lon": -77.02595133333334, "fusion_lat": 0.0, "is_disabled": 0, "bike_id": "f4c9df2a356c8b28ca7210503f07161e", "lat": 38.916915833333334, "rental_uris": {"ios": "https://dc.lft.to/lastmile_qr_scan", "android": "https://dc.lft.to/lastmile_qr_scan"}}, {"type": "electric_scooter", "name": "9578f038221a0a3cf554c514bb8c1195", "fusion_lon": 0.0, "is_reserved": 0, "lon": -77.00670933333333, "fusion_lat": 0.0, "is_disabled": 0, "bike_id": "9578f038221a0a3cf554c514bb8c1195", "lat": 38.90007966666667, "rental_uris": {"ios": "https://dc.lft.to/lastmile_qr_scan", "android": "https://dc.lft.to/lastmile_qr_scan"}}, {"type": "electric_scooter", "name": "3823fcc8ce413b1a3b159d66aebf3c47", "fusion_lon": 0.0, "is_reserved": 0, "lon": -77.03994416666667, "fusion_lat": 0.0, "is_disabled": 0, "bike_id": "3823fcc8ce413b1a3b159d66aebf3c47", "lat": 38.927256166666666, "rental_uris": {"ios": "https://dc.lft.to/lastmile_qr_scan", "android": "https://dc.lft.to/lastmile_qr_scan"}}, {"type": "electric_scooter", "name": "38006ea048b5f9db448295544552e3bc", "fusion_lon": 0.0, "is_reserved": 0, "lon": -77.04012533333334, "fusion_lat": 0.0, "is_disabled": 0, "bike_id": "38006ea048b5f9db448295544552e3bc", "lat": 38.901042333333336, "rental_uris": {"ios": "https://dc.lft.to/lastmile_qr_scan", "android": "https://dc.lft.to/lastmile_qr_scan"}}, {"type": "electric_scooter", "name": "daee9324f434a7427b1eb82318ef8d24", "fusion_lon": 0.0, "is_reserved": 0, "lon": -76.94876366666666, "fusion_lat": 0.0, "is_disabled": 0, "bike_id": "daee9324f434a7427b1eb82318ef8d24", "lat": 38.895510333333334, "rental_uris": {"ios": "https://dc.lft.to/lastmile_qr_scan", "android": "https://dc.lft.to/lastmile_qr_scan"}}, {"type": "electric_scooter", "name": "248b05e1f3aedbf08dff64da6a113256", "fusion_lon": 0.0, "is_reserved": 0, "lon": -77.03210083333333, "fusion_lat": 0.0, "is_disabled": 0, "bike_id": "248b05e1f3aedbf08dff64da6a113256", "lat": 38.91789283333333, "rental_uris": {"ios": "https://dc.lft.to/lastmile_qr_scan", "android": "https://dc.lft.to/lastmile_qr_scan"}}, {"type": "electric_scooter", "name": "aa59bff3f379cd2be5512a4e8ae3ab82", "fusion_lon": 0.0, "is_reserved": 0, "lon": -77.06919716666667, "fusion_lat": 0.0, "is_disabled": 0, "bike_id": "aa59bff3f379cd2be5512a4e8ae3ab82", "lat": 38.9063765, "rental_uris": {"ios": "https://dc.lft.to/lastmile_qr_scan", "android": "https://dc.lft.to/lastmile_qr_scan"}}, {"type": "electric_scooter", "name": "0eebc4fdb46e0a596f2a33b24544f1ce", "fusion_lon": 0.0, "is_reserved": 0, "lon": -77.05998616666666, "fusion_lat": 0.0, "is_disabled": 0, "bike_id": "0eebc4fdb46e0a596f2a33b24544f1ce", "lat": 38.901416833333336, "rental_uris": {"ios": "https://dc.lft.to/lastmile_qr_scan", "android": "https://dc.lft.to/lastmile_qr_scan"}}, {"type": "electric_scooter", "name": "6334c60bc7737b56be67d4286b76b18c", "fusion_lon": 0.0, "is_reserved": 0, "lon": -77.0494645, "fusion_lat": 0.0, "is_disabled": 0, "bike_id": "6334c60bc7737b56be67d4286b76b18c", "lat": 38.89751366666667, "rental_uris": {"ios": "https://dc.lft.to/lastmile_qr_scan", "android": "https://dc.lft.to/lastmile_qr_scan"}}, {"type": "electric_scooter", "name": "1d0ed78a90045d159454733a74bbb5a6", "fusion_lon": 0.0, "is_reserved": 0, "lon": -77.04342416666667, "fusion_lat": 0.0, "is_disabled": 0, "bike_id": "1d0ed78a90045d159454733a74bbb5a6", "lat": 38.90023716666666, "rental_uris": {"ios": "https://dc.lft.to/lastmile_qr_scan", "android": "https://dc.lft.to/lastmile_qr_scan"}}, {"type": "electric_scooter", "name": "eaef1b6dae72b6d399a48b5e59de7a0b", "fusion_lon": 0.0, "is_reserved": 0, "lon": -76.97996033333334, "fusion_lat": 0.0, "is_disabled": 0, "bike_id": "eaef1b6dae72b6d399a48b5e59de7a0b", "lat": 38.904484333333336, "rental_uris": {"ios": "https://dc.lft.to/lastmile_qr_scan", "android": "https://dc.lft.to/lastmile_qr_scan"}}, {"type": "electric_scooter", "name": "f1ca0dec5184c5fbff751ac42fe8216b", "fusion_lon": 0.0, "is_reserved": 0, "lon": -77.02066766666667, "fusion_lat": 0.0, "is_disabled": 0, "bike_id": "f1ca0dec5184c5fbff751ac42fe8216b", "lat": 38.935329333333335, "rental_uris": {"ios": "https://dc.lft.to/lastmile_qr_scan", "android": "https://dc.lft.to/lastmile_qr_scan"}}, {"type": "electric_scooter", "name": "8df01459ea26a0aca18d0b42b7d3b969", "fusion_lon": 0.0, "is_reserved": 0, "lon": -77.03830866666667, "fusion_lat": 0.0, "is_disabled": 0, "bike_id": "8df01459ea26a0aca18d0b42b7d3b969", "lat": 38.9028805, "rental_uris": {"ios": "https://dc.lft.to/lastmile_qr_scan", "android": "https://dc.lft.to/lastmile_qr_scan"}}, {"type": "electric_scooter", "name": "5949659f325d6c73c3396829a6443ab3", "fusion_lon": 0.0, "is_reserved": 0, "lon": -77.04271716666666, "fusion_lat": 0.0, "is_disabled": 0, "bike_id": "5949659f325d6c73c3396829a6443ab3", "lat": 38.921934666666665, "rental_uris": {"ios": "https://dc.lft.to/lastmile_qr_scan", "android": "https://dc.lft.to/lastmile_qr_scan"}}, {"type": "electric_scooter", "name": "2680e00355ea686531716c48427232d1", "fusion_lon": 0.0, "is_reserved": 0, "lon": -77.03182916666667, "fusion_lat": 0.0, "is_disabled": 0, "bike_id": "2680e00355ea686531716c48427232d1", "lat": 38.910198666666666, "rental_uris": {"ios": "https://dc.lft.to/lastmile_qr_scan", "android": "https://dc.lft.to/lastmile_qr_scan"}}, {"type": "electric_scooter", "name": "448771877fc7462c13096e9953cab2f7", "fusion_lon": 0.0, "is_reserved": 0, "lon": -77.03480066666667, "fusion_lat": 0.0, "is_disabled": 0, "bike_id": "448771877fc7462c13096e9953cab2f7", "lat": 38.909613666666665, "rental_uris": {"ios": "https://dc.lft.to/lastmile_qr_scan", "android": "https://dc.lft.to/lastmile_qr_scan"}}, {"type": "electric_scooter", "name": "44a5e53f3f59fb5bd5567ff9fb5b2666", "fusion_lon": 0.0, "is_reserved": 0, "lon": -77.03592016666667, "fusion_lat": 0.0, "is_disabled": 0, "bike_id": "44a5e53f3f59fb5bd5567ff9fb5b2666", "lat": 38.90970866666667, "rental_uris": {"ios": "https://dc.lft.to/lastmile_qr_scan", "android": "https://dc.lft.to/lastmile_qr_scan"}}, {"type": "electric_bike", "name": "2567cc412f7c53be3d214cf199a7ef36", "fusion_lon": 0.0, "is_reserved": 0, "lon": -77.00036083333333, "fusion_lat": 0.0, "is_disabled": 0, "bike_id": "2567cc412f7c53be3d214cf199a7ef36", "lat": 38.96807183333333, "rental_uris": {"ios": "https://dc.lft.to/lastmile_qr_scan", "android": "https://dc.lft.to/lastmile_qr_scan"}}, {"type": "electric_bike", "name": "5dc56930f6c2aa658d98f02e8c0bc887", "fusion_lon": 0.0, "is_reserved": 0, "lon": -77.09467083333334, "fusion_lat": 0.0, "is_disabled": 0, "bike_id": "5dc56930f6c2aa658d98f02e8c0bc887", "lat": 38.807646, "rental_uris": {"ios": "https://dc.lft.to/lastmile_qr_scan", "android": "https://dc.lft.to/lastmile_qr_scan"}}, {"type": "electric_scooter", "name": "b01efad65e900616c72904f9d7b978eb", "fusion_lon": 0.0, "is_reserved": 0, "lon": -77.046589, "fusion_lat": 0.0, "is_disabled": 0, "bike_id": "b01efad65e900616c72904f9d7b978eb", "lat": 38.897637333333336, "rental_uris": {"ios": "https://dc.lft.to/lastmile_qr_scan", "android": "https://dc.lft.to/lastmile_qr_scan"}}, {"type": "electric_scooter", "name": "5de48dade72dd0df372552639397d541", "fusion_lon": 0.0, "is_reserved": 0, "lon": -77.0283815, "fusion_lat": 0.0, "is_disabled": 0, "bike_id": "5de48dade72dd0df372552639397d541", "lat": 38.887334, "rental_uris": {"ios": "https://dc.lft.to/lastmile_qr_scan", "android": "https://dc.lft.to/lastmile_qr_scan"}}, {"type": "electric_scooter", "name": "82bf19e96e030ae90e5f5c8fd2671243", "fusion_lon": 0.0, "is_reserved": 0, "lon": -77.03777133333334, "fusion_lat": 0.0, "is_disabled": 0, "bike_id": "82bf19e96e030ae90e5f5c8fd2671243", "lat": 38.92525933333334, "rental_uris": {"ios": "https://dc.lft.to/lastmile_qr_scan", "android": "https://dc.lft.to/lastmile_qr_scan"}}, {"type": "electric_scooter", "name": "505c3db4a6bf7866dbacb0947ffe9487", "fusion_lon": 0.0, "is_reserved": 0, "lon": -77.03258566666666, "fusion_lat": 0.0, "is_disabled": 0, "bike_id": "505c3db4a6bf7866dbacb0947ffe9487", "lat": 38.89542983333333, "rental_uris": {"ios": "https://dc.lft.to/lastmile_qr_scan", "android": "https://dc.lft.to/lastmile_qr_scan"}}, {"type": "electric_scooter", "name": "216630ce8c71df8ea4df2ee02025f301", "fusion_lon": 0.0, "is_reserved": 0, "lon": -77.03169933333334, "fusion_lat": 0.0, "is_disabled": 0, "bike_id": "216630ce8c71df8ea4df2ee02025f301", "lat": 38.88465216666667, "rental_uris": {"ios": "https://dc.lft.to/lastmile_qr_scan", "android": "https://dc.lft.to/lastmile_qr_scan"}}, {"type": "electric_scooter", "name": "99e56808d5be77d771881d7740e9e94c", "fusion_lon": 0.0, "is_reserved": 0, "lon": -77.01282883333333, "fusion_lat": 0.0, "is_disabled": 0, "bike_id": "99e56808d5be77d771881d7740e9e94c", "lat": 38.900976166666666, "rental_uris": {"ios": "https://dc.lft.to/lastmile_qr_scan", "android": "https://dc.lft.to/lastmile_qr_scan"}}, {"type": "electric_scooter", "name": "bf953195d3c5b0a69f217cbe48240db0", "fusion_lon": 0.0, "is_reserved": 0, "lon": -76.97545633333333, "fusion_lat": 0.0, "is_disabled": 0, "bike_id": "bf953195d3c5b0a69f217cbe48240db0", "lat": 38.90323266666667, "rental_uris": {"ios": "https://dc.lft.to/lastmile_qr_scan", "android": "https://dc.lft.to/lastmile_qr_scan"}}, {"type": "electric_scooter", "name": "5966f70d7fc601429472697e4500acd9", "fusion_lon": 0.0, "is_reserved": 0, "lon": -76.98589066666666, "fusion_lat": 0.0, "is_disabled": 0, "bike_id": "5966f70d7fc601429472697e4500acd9", "lat": 38.866987, "rental_uris": {"ios": "https://dc.lft.to/lastmile_qr_scan", "android": "https://dc.lft.to/lastmile_qr_scan"}}, {"type": "electric_scooter", "name": "8b0668a8cd9d20e1dda532b5f4b1e102", "fusion_lon": 0.0, "is_reserved": 0, "lon": -77.0435365, "fusion_lat": 0.0, "is_disabled": 0, "bike_id": "8b0668a8cd9d20e1dda532b5f4b1e102", "lat": 38.9012615, "rental_uris": {"ios": "https://dc.lft.to/lastmile_qr_scan", "android": "https://dc.lft.to/lastmile_qr_scan"}}, {"type": "electric_scooter", "name": "1431eceafb830c27b715741ef27e722d", "fusion_lon": 0.0, "is_reserved": 0, "lon": -77.01405166666666, "fusion_lat": 0.0, "is_disabled": 0, "bike_id": "1431eceafb830c27b715741ef27e722d", "lat": 38.928427, "rental_uris": {"ios": "https://dc.lft.to/lastmile_qr_scan", "android": "https://dc.lft.to/lastmile_qr_scan"}}, {"type": "electric_scooter", "name": "abad43aa3b0729214ce953c42659e4c4", "fusion_lon": 0.0, "is_reserved": 0, "lon": -76.9816745, "fusion_lat": 0.0, "is_disabled": 0, "bike_id": "abad43aa3b0729214ce953c42659e4c4", "lat": 38.89862316666667, "rental_uris": {"ios": "https://dc.lft.to/lastmile_qr_scan", "android": "https://dc.lft.to/lastmile_qr_scan"}}, {"type": "electric_scooter", "name": "cb91cd9be498a282b484de18c6399739", "fusion_lon": 0.0, "is_reserved": 0, "lon": -77.03659883333333, "fusion_lat": 0.0, "is_disabled": 0, "bike_id": "cb91cd9be498a282b484de18c6399739", "lat": 38.92241933333333, "rental_uris": {"ios": "https://dc.lft.to/lastmile_qr_scan", "android": "https://dc.lft.to/lastmile_qr_scan"}}, {"type": "electric_bike", "name": "00e9a5627db225b3a94040f59f431c7d", "fusion_lon": 0.0, "is_reserved": 0, "lon": -77.06174283333333, "fusion_lat": 0.0, "is_disabled": 0, "bike_id": "00e9a5627db225b3a94040f59f431c7d", "lat": 38.807082, "rental_uris": {"ios": "https://dc.lft.to/lastmile_qr_scan", "android": "https://dc.lft.to/lastmile_qr_scan"}}, {"type": "electric_scooter", "name": "f67b1b0f5a9fdf1cfe9eafa0189f527b", "fusion_lon": 0.0, "is_reserved": 0, "lon": -77.02995333333334, "fusion_lat": 0.0, "is_disabled": 0, "bike_id": "f67b1b0f5a9fdf1cfe9eafa0189f527b", "lat": 38.901268, "rental_uris": {"ios": "https://dc.lft.to/lastmile_qr_scan", "android": "https://dc.lft.to/lastmile_qr_scan"}}, {"type": "electric_bike", "name": "d3a3b85df646610d4875e98a4b77b9b2", "fusion_lon": 0.0, "is_reserved": 0, "lon": -77.02118783333333, "fusion_lat": 0.0, "is_disabled": 0, "bike_id": "d3a3b85df646610d4875e98a4b77b9b2", "lat": 38.93630366666667, "rental_uris": {"ios": "https://dc.lft.to/lastmile_qr_scan", "android": "https://dc.lft.to/lastmile_qr_scan"}}, {"type": "electric_scooter", "name": "2a6b6e49dc98dcc9d0a9821a12b8133f", "fusion_lon": 0.0, "is_reserved": 0, "lon": -77.03939833333334, "fusion_lat": 0.0, "is_disabled": 0, "bike_id": "2a6b6e49dc98dcc9d0a9821a12b8133f", "lat": 38.920894, "rental_uris": {"ios": "https://dc.lft.to/lastmile_qr_scan", "android": "https://dc.lft.to/lastmile_qr_scan"}}, {"type": "electric_scooter", "name": "aa3afdcd4f97b63c8da8314c181c1088", "fusion_lon": 0.0, "is_reserved": 0, "lon": -76.95584533333333, "fusion_lat": 0.0, "is_disabled": 0, "bike_id": "aa3afdcd4f97b63c8da8314c181c1088", "lat": 38.886246, "rental_uris": {"ios": "https://dc.lft.to/lastmile_qr_scan", "android": "https://dc.lft.to/lastmile_qr_scan"}}, {"type": "electric_scooter", "name": "76ba47b69191069bb08d0bdb47afaf08", "fusion_lon": 0.0, "is_reserved": 0, "lon": -76.996962, "fusion_lat": 0.0, "is_disabled": 0, "bike_id": "76ba47b69191069bb08d0bdb47afaf08", "lat": 38.8842985, "rental_uris": {"ios": "https://dc.lft.to/lastmile_qr_scan", "android": "https://dc.lft.to/lastmile_qr_scan"}}, {"type": "electric_scooter", "name": "937e1659ed8aa0695101e7367b42ee8b", "fusion_lon": 0.0, "is_reserved": 0, "lon": -77.03864683333333, "fusion_lat": 0.0, "is_disabled": 0, "bike_id": "937e1659ed8aa0695101e7367b42ee8b", "lat": 38.90377733333333, "rental_uris": {"ios": "https://dc.lft.to/lastmile_qr_scan", "android": "https://dc.lft.to/lastmile_qr_scan"}}, {"type": "electric_scooter", "name": "847710aaf5bdf7f1bf33e8bd3368d19a", "fusion_lon": 0.0, "is_reserved": 0, "lon": -77.02809016666667, "fusion_lat": 0.0, "is_disabled": 0, "bike_id": "847710aaf5bdf7f1bf33e8bd3368d19a", "lat": 38.91751166666667, "rental_uris": {"ios": "https://dc.lft.to/lastmile_qr_scan", "android": "https://dc.lft.to/lastmile_qr_scan"}}, {"type": "electric_scooter", "name": "0a35f630961c005a00295a507a6bf213", "fusion_lon": 0.0, "is_reserved": 0, "lon": -77.0382605, "fusion_lat": 0.0, "is_disabled": 0, "bike_id": "0a35f630961c005a00295a507a6bf213", "lat": 38.9073265, "rental_uris": {"ios": "https://dc.lft.to/lastmile_qr_scan", "android": "https://dc.lft.to/lastmile_qr_scan"}}, {"type": "electric_scooter", "name": "fe39bcf0e5bfa31ab4d882553313eddd", "fusion_lon": 0.0, "is_reserved": 0, "lon": -77.009415, "fusion_lat": 0.0, "is_disabled": 0, "bike_id": "fe39bcf0e5bfa31ab4d882553313eddd", "lat": 38.87468666666667, "rental_uris": {"ios": "https://dc.lft.to/lastmile_qr_scan", "android": "https://dc.lft.to/lastmile_qr_scan"}}, {"type": "electric_scooter", "name": "b043008a46f050f8c8b57796ea4af2c8", "fusion_lon": 0.0, "is_reserved": 0, "lon": -77.02953483333333, "fusion_lat": 0.0, "is_disabled": 0, "bike_id": "b043008a46f050f8c8b57796ea4af2c8", "lat": 38.91676016666667, "rental_uris": {"ios": "https://dc.lft.to/lastmile_qr_scan", "android": "https://dc.lft.to/lastmile_qr_scan"}}, {"type": "electric_scooter", "name": "12a0407fe09112a7e909ce7425d42b0e", "fusion_lon": 0.0, "is_reserved": 0, "lon": -77.03999533333334, "fusion_lat": 0.0, "is_disabled": 0, "bike_id": "12a0407fe09112a7e909ce7425d42b0e", "lat": 38.9343245, "rental_uris": {"ios": "https://dc.lft.to/lastmile_qr_scan", "android": "https://dc.lft.to/lastmile_qr_scan"}}, {"type": "electric_scooter", "name": "4de1bdc96bdf38dee938f50fe98b94dc", "fusion_lon": 0.0, "is_reserved": 0, "lon": -77.0318615, "fusion_lat": 0.0, "is_disabled": 0, "bike_id": "4de1bdc96bdf38dee938f50fe98b94dc", "lat": 38.913501833333335, "rental_uris": {"ios": "https://dc.lft.to/lastmile_qr_scan", "android": "https://dc.lft.to/lastmile_qr_scan"}}, {"type": "electric_scooter", "name": "1b2d6bcb2544fa692b3e2c7f285fe549", "fusion_lon": 0.0, "is_reserved": 0, "lon": -77.00345716666666, "fusion_lat": 0.0, "is_disabled": 0, "bike_id": "1b2d6bcb2544fa692b3e2c7f285fe549", "lat": 38.88594466666667, "rental_uris": {"ios": "https://dc.lft.to/lastmile_qr_scan", "android": "https://dc.lft.to/lastmile_qr_scan"}}, {"type": "electric_scooter", "name": "5e7791844400b23c6eb4d7622bd06042", "fusion_lon": 0.0, "is_reserved": 0, "lon": -77.02364366666667, "fusion_lat": 0.0, "is_disabled": 0, "bike_id": "5e7791844400b23c6eb4d7622bd06042", "lat": 38.892244166666664, "rental_uris": {"ios": "https://dc.lft.to/lastmile_qr_scan", "android": "https://dc.lft.to/lastmile_qr_scan"}}, {"type": "electric_bike", "name": "6bc8a8fe6c72c95f4765c5e8426ef8ec", "fusion_lon": 0.0, "is_reserved": 0, "lon": -77.078893, "fusion_lat": 0.0, "is_disabled": 0, "bike_id": "6bc8a8fe6c72c95f4765c5e8426ef8ec", "lat": 38.862814666666665, "rental_uris": {"ios": "https://dc.lft.to/lastmile_qr_scan", "android": "https://dc.lft.to/lastmile_qr_scan"}}, {"type": "electric_bike", "name": "165e5a99fe908094dedd34faf6996003", "fusion_lon": 0.0, "is_reserved": 0, "lon": -77.02680016666666, "fusion_lat": 0.0, "is_disabled": 0, "bike_id": "165e5a99fe908094dedd34faf6996003", "lat": 38.996001166666666, "rental_uris": {"ios": "https://dc.lft.to/lastmile_qr_scan", "android": "https://dc.lft.to/lastmile_qr_scan"}}, {"type": "electric_scooter", "name": "2a11a364e08f7985728630bcbe5c15de", "fusion_lon": 0.0, "is_reserved": 0, "lon": -76.93159416666667, "fusion_lat": 0.0, "is_disabled": 0, "bike_id": "2a11a364e08f7985728630bcbe5c15de", "lat": 38.9082825, "rental_uris": {"ios": "https://dc.lft.to/lastmile_qr_scan", "android": "https://dc.lft.to/lastmile_qr_scan"}}, {"type": "electric_scooter", "name": "5d4213466811f66c4299b1bef354765e", "fusion_lon": 0.0, "is_reserved": 0, "lon": -76.97828916666667, "fusion_lat": 0.0, "is_disabled": 0, "bike_id": "5d4213466811f66c4299b1bef354765e", "lat": 38.90768033333333, "rental_uris": {"ios": "https://dc.lft.to/lastmile_qr_scan", "android": "https://dc.lft.to/lastmile_qr_scan"}}, {"type": "electric_scooter", "name": "0267eb0ac20d8977251136c84edd6904", "fusion_lon": 0.0, "is_reserved": 0, "lon": -77.03331383333334, "fusion_lat": 0.0, "is_disabled": 0, "bike_id": "0267eb0ac20d8977251136c84edd6904", "lat": 38.901164333333334, "rental_uris": {"ios": "https://dc.lft.to/lastmile_qr_scan", "android": "https://dc.lft.to/lastmile_qr_scan"}}, {"type": "electric_scooter", "name": "a6550b79db57d32e863aa0fe53421404", "fusion_lon": 0.0, "is_reserved": 0, "lon": -77.04691516666666, "fusion_lat": 0.0, "is_disabled": 0, "bike_id": "a6550b79db57d32e863aa0fe53421404", "lat": 38.90081, "rental_uris": {"ios": "https://dc.lft.to/lastmile_qr_scan", "android": "https://dc.lft.to/lastmile_qr_scan"}}, {"type": "electric_scooter", "name": "f4eed71e839a64773c3cba97ae63f1e1", "fusion_lon": 0.0, "is_reserved": 0, "lon": -77.0230205, "fusion_lat": 0.0, "is_disabled": 0, "bike_id": "f4eed71e839a64773c3cba97ae63f1e1", "lat": 38.915854333333336, "rental_uris": {"ios": "https://dc.lft.to/lastmile_qr_scan", "android": "https://dc.lft.to/lastmile_qr_scan"}}, {"type": "electric_scooter", "name": "73c16671d0577c30b199c565971c277c", "fusion_lon": 0.0, "is_reserved": 0, "lon": -77.035988, "fusion_lat": 0.0, "is_disabled": 0, "bike_id": "73c16671d0577c30b199c565971c277c", "lat": 38.9169495, "rental_uris": {"ios": "https://dc.lft.to/lastmile_qr_scan", "android": "https://dc.lft.to/lastmile_qr_scan"}}, {"type": "electric_scooter", "name": "5e67ab139c80f98bf01fa3649a3bd92b", "fusion_lon": 0.0, "is_reserved": 0, "lon": -77.0274455, "fusion_lat": 0.0, "is_disabled": 0, "bike_id": "5e67ab139c80f98bf01fa3649a3bd92b", "lat": 38.95204116666667, "rental_uris": {"ios": "https://dc.lft.to/lastmile_qr_scan", "android": "https://dc.lft.to/lastmile_qr_scan"}}, {"type": "electric_scooter", "name": "a0288accb533f8132222086d668e2836", "fusion_lon": 0.0, "is_reserved": 0, "lon": -76.9874155, "fusion_lat": 0.0, "is_disabled": 0, "bike_id": "a0288accb533f8132222086d668e2836", "lat": 38.91897266666667, "rental_uris": {"ios": "https://dc.lft.to/lastmile_qr_scan", "android": "https://dc.lft.to/lastmile_qr_scan"}}, {"type": "electric_scooter", "name": "1c24884a051e8a7cc189386ca49d188b", "fusion_lon": 0.0, "is_reserved": 0, "lon": -77.049823, "fusion_lat": 0.0, "is_disabled": 0, "bike_id": "1c24884a051e8a7cc189386ca49d188b", "lat": 38.900991166666664, "rental_uris": {"ios": "https://dc.lft.to/lastmile_qr_scan", "android": "https://dc.lft.to/lastmile_qr_scan"}}, {"type": "electric_scooter", "name": "86758d436405a0c782f49b86b37e4e0f", "fusion_lon": 0.0, "is_reserved": 0, "lon": -76.97741383333333, "fusion_lat": 0.0, "is_disabled": 0, "bike_id": "86758d436405a0c782f49b86b37e4e0f", "lat": 38.86474166666667, "rental_uris": {"ios": "https://dc.lft.to/lastmile_qr_scan", "android": "https://dc.lft.to/lastmile_qr_scan"}}, {"type": "electric_bike", "name": "e327871887f79be1ee123143960c8662", "fusion_lon": 0.0, "is_reserved": 0, "lon": -76.9331195, "fusion_lat": 0.0, "is_disabled": 0, "bike_id": "e327871887f79be1ee123143960c8662", "lat": 38.90839416666667, "rental_uris": {"ios": "https://dc.lft.to/lastmile_qr_scan", "android": "https://dc.lft.to/lastmile_qr_scan"}}, {"type": "electric_bike", "name": "3069bc83726c076d6b8d684769753ffc", "fusion_lon": 0.0, "is_reserved": 0, "lon": -76.91216366666667, "fusion_lat": 0.0, "is_disabled": 0, "bike_id": "3069bc83726c076d6b8d684769753ffc", "lat": 38.90316083333333, "rental_uris": {"ios": "https://dc.lft.to/lastmile_qr_scan", "android": "https://dc.lft.to/lastmile_qr_scan"}}, {"type": "electric_bike", "name": "b181af30a50f5d2cd5ce81f3bf3083ab", "fusion_lon": 0.0, "is_reserved": 0, "lon": -77.0791135, "fusion_lat": 0.0, "is_disabled": 0, "bike_id": "b181af30a50f5d2cd5ce81f3bf3083ab", "lat": 38.83827816666667, "rental_uris": {"ios": "https://dc.lft.to/lastmile_qr_scan", "android": "https://dc.lft.to/lastmile_qr_scan"}}, {"type": "electric_scooter", "name": "620f40f935c1aae81d834827dd112baf", "fusion_lon": 0.0, "is_reserved": 0, "lon": -77.04447316666666, "fusion_lat": 0.0, "is_disabled": 0, "bike_id": "620f40f935c1aae81d834827dd112baf", "lat": 38.918747833333335, "rental_uris": {"ios": "https://dc.lft.to/lastmile_qr_scan", "android": "https://dc.lft.to/lastmile_qr_scan"}}, {"type": "electric_scooter", "name": "fefc0a0e1850ed1a4404b995e5143038", "fusion_lon": 0.0, "is_reserved": 0, "lon": -77.00892616666667, "fusion_lat": 0.0, "is_disabled": 0, "bike_id": "fefc0a0e1850ed1a4404b995e5143038", "lat": 38.88499733333333, "rental_uris": {"ios": "https://dc.lft.to/lastmile_qr_scan", "android": "https://dc.lft.to/lastmile_qr_scan"}}, {"type": "electric_scooter", "name": "e2c15f5bb35ae63a23451121ad519a0d", "fusion_lon": 0.0, "is_reserved": 0, "lon": -76.9975605, "fusion_lat": 0.0, "is_disabled": 0, "bike_id": "e2c15f5bb35ae63a23451121ad519a0d", "lat": 38.885120666666666, "rental_uris": {"ios": "https://dc.lft.to/lastmile_qr_scan", "android": "https://dc.lft.to/lastmile_qr_scan"}}, {"type": "electric_scooter", "name": "9bef858c2c35dc79f1415b45aa586f9e", "fusion_lon": 0.0, "is_reserved": 0, "lon": -77.02913283333334, "fusion_lat": 0.0, "is_disabled": 0, "bike_id": "9bef858c2c35dc79f1415b45aa586f9e", "lat": 38.940314666666666, "rental_uris": {"ios": "https://dc.lft.to/lastmile_qr_scan", "android": "https://dc.lft.to/lastmile_qr_scan"}}, {"type": "electric_scooter", "name": "4b24920809144c99ddc2e20972a92b31", "fusion_lon": 0.0, "is_reserved": 0, "lon": -76.95397966666667, "fusion_lat": 0.0, "is_disabled": 0, "bike_id": "4b24920809144c99ddc2e20972a92b31", "lat": 38.88404116666667, "rental_uris": {"ios": "https://dc.lft.to/lastmile_qr_scan", "android": "https://dc.lft.to/lastmile_qr_scan"}}, {"type": "electric_scooter", "name": "7bf351d4c1bad220043a983294942bd6", "fusion_lon": 0.0, "is_reserved": 0, "lon": -77.00352216666667, "fusion_lat": 0.0, "is_disabled": 0, "bike_id": "7bf351d4c1bad220043a983294942bd6", "lat": 38.8926735, "rental_uris": {"ios": "https://dc.lft.to/lastmile_qr_scan", "android": "https://dc.lft.to/lastmile_qr_scan"}}, {"type": "electric_scooter", "name": "9ae764ad55543a83ff7d21b8248dcc36", "fusion_lon": 0.0, "is_reserved": 0, "lon": -77.04333616666666, "fusion_lat": 0.0, "is_disabled": 0, "bike_id": "9ae764ad55543a83ff7d21b8248dcc36", "lat": 38.902546666666666, "rental_uris": {"ios": "https://dc.lft.to/lastmile_qr_scan", "android": "https://dc.lft.to/lastmile_qr_scan"}}, {"type": "electric_scooter", "name": "98be3ebaff9faf3c8596071f5ff5d4c3", "fusion_lon": 0.0, "is_reserved": 0, "lon": -77.0071225, "fusion_lat": 0.0, "is_disabled": 0, "bike_id": "98be3ebaff9faf3c8596071f5ff5d4c3", "lat": 38.884946, "rental_uris": {"ios": "https://dc.lft.to/lastmile_qr_scan", "android": "https://dc.lft.to/lastmile_qr_scan"}}, {"type": "electric_scooter", "name": "00dbd9b8047ca2e218745c4841d380d6", "fusion_lon": 0.0, "is_reserved": 0, "lon": -77.00211066666667, "fusion_lat": 0.0, "is_disabled": 0, "bike_id": "00dbd9b8047ca2e218745c4841d380d6", "lat": 38.900768, "rental_uris": {"ios": "https://dc.lft.to/lastmile_qr_scan", "android": "https://dc.lft.to/lastmile_qr_scan"}}, {"type": "electric_scooter", "name": "af8e01fbb84fc0fa44422e59bb134c08", "fusion_lon": 0.0, "is_reserved": 0, "lon": -76.9925315, "fusion_lat": 0.0, "is_disabled": 0, "bike_id": "af8e01fbb84fc0fa44422e59bb134c08", "lat": 38.882667166666664, "rental_uris": {"ios": "https://dc.lft.to/lastmile_qr_scan", "android": "https://dc.lft.to/lastmile_qr_scan"}}, {"type": "electric_bike", "name": "040fef1cbd18b12ba968b9501471d15f", "fusion_lon": 0.0, "is_reserved": 0, "lon": -77.009184, "fusion_lat": 0.0, "is_disabled": 0, "bike_id": "040fef1cbd18b12ba968b9501471d15f", "lat": 38.82788166666667, "rental_uris": {"ios": "https://dc.lft.to/lastmile_qr_scan", "android": "https://dc.lft.to/lastmile_qr_scan"}}, {"type": "electric_scooter", "name": "dba92ac5a08b942d407347a4976c1d31", "fusion_lon": 0.0, "is_reserved": 0, "lon": -77.02504166666667, "fusion_lat": 0.0, "is_disabled": 0, "bike_id": "dba92ac5a08b942d407347a4976c1d31", "lat": 38.911017, "rental_uris": {"ios": "https://dc.lft.to/lastmile_qr_scan", "android": "https://dc.lft.to/lastmile_qr_scan"}}, {"type": "electric_scooter", "name": "b5f3e42b2834fa0900ea7243a5dbe96d", "fusion_lon": 0.0, "is_reserved": 0, "lon": -77.03606083333334, "fusion_lat": 0.0, "is_disabled": 0, "bike_id": "b5f3e42b2834fa0900ea7243a5dbe96d", "lat": 38.92845616666666, "rental_uris": {"ios": "https://dc.lft.to/lastmile_qr_scan", "android": "https://dc.lft.to/lastmile_qr_scan"}}, {"type": "electric_scooter", "name": "9d1608b00784ecd84bb06f7e6604b07d", "fusion_lon": 0.0, "is_reserved": 0, "lon": -77.0112175, "fusion_lat": 0.0, "is_disabled": 0, "bike_id": "9d1608b00784ecd84bb06f7e6604b07d", "lat": 38.89878133333333, "rental_uris": {"ios": "https://dc.lft.to/lastmile_qr_scan", "android": "https://dc.lft.to/lastmile_qr_scan"}}, {"type": "electric_scooter", "name": "eb8ec72f25451422d1e89b41a144f21f", "fusion_lon": 0.0, "is_reserved": 0, "lon": -77.00582816666666, "fusion_lat": 0.0, "is_disabled": 0, "bike_id": "eb8ec72f25451422d1e89b41a144f21f", "lat": 38.90266483333333, "rental_uris": {"ios": "https://dc.lft.to/lastmile_qr_scan", "android": "https://dc.lft.to/lastmile_qr_scan"}}, {"type": "electric_scooter", "name": "f3a2297176150e6ad745174bdb032cd3", "fusion_lon": 0.0, "is_reserved": 0, "lon": -77.00806133333333, "fusion_lat": 0.0, "is_disabled": 0, "bike_id": "f3a2297176150e6ad745174bdb032cd3", "lat": 38.87923416666667, "rental_uris": {"ios": "https://dc.lft.to/lastmile_qr_scan", "android": "https://dc.lft.to/lastmile_qr_scan"}}, {"type": "electric_scooter", "name": "50ec803fa4bf70b54b495a4f2eafeb06", "fusion_lon": 0.0, "is_reserved": 0, "lon": -77.042385, "fusion_lat": 0.0, "is_disabled": 0, "bike_id": "50ec803fa4bf70b54b495a4f2eafeb06", "lat": 38.907108, "rental_uris": {"ios": "https://dc.lft.to/lastmile_qr_scan", "android": "https://dc.lft.to/lastmile_qr_scan"}}, {"type": "electric_scooter", "name": "c5c2e6eabdb1a035f94998ce762cab0b", "fusion_lon": 0.0, "is_reserved": 0, "lon": -77.03221333333333, "fusion_lat": 0.0, "is_disabled": 0, "bike_id": "c5c2e6eabdb1a035f94998ce762cab0b", "lat": 38.9199485, "rental_uris": {"ios": "https://dc.lft.to/lastmile_qr_scan", "android": "https://dc.lft.to/lastmile_qr_scan"}}, {"type": "electric_scooter", "name": "d03431cd2328a5316bc25889d26fcf25", "fusion_lon": 0.0, "is_reserved": 0, "lon": -76.98481366666667, "fusion_lat": 0.0, "is_disabled": 0, "bike_id": "d03431cd2328a5316bc25889d26fcf25", "lat": 38.90508833333333, "rental_uris": {"ios": "https://dc.lft.to/lastmile_qr_scan", "android": "https://dc.lft.to/lastmile_qr_scan"}}, {"type": "electric_scooter", "name": "d17939ad78e5b65c7bba3517687f6ddd", "fusion_lon": 0.0, "is_reserved": 0, "lon": -76.97439866666667, "fusion_lat": 0.0, "is_disabled": 0, "bike_id": "d17939ad78e5b65c7bba3517687f6ddd", "lat": 38.864073166666664, "rental_uris": {"ios": "https://dc.lft.to/lastmile_qr_scan", "android": "https://dc.lft.to/lastmile_qr_scan"}}, {"type": "electric_scooter", "name": "2d462fdd9fe7bb660eeabaf5ef8e04a6", "fusion_lon": 0.0, "is_reserved": 0, "lon": -77.04501283333333, "fusion_lat": 0.0, "is_disabled": 0, "bike_id": "2d462fdd9fe7bb660eeabaf5ef8e04a6", "lat": 38.89223833333333, "rental_uris": {"ios": "https://dc.lft.to/lastmile_qr_scan", "android": "https://dc.lft.to/lastmile_qr_scan"}}, {"type": "electric_scooter", "name": "8fa35372aa9f910d829b5d436d12b2ce", "fusion_lon": 0.0, "is_reserved": 0, "lon": -76.968917, "fusion_lat": 0.0, "is_disabled": 0, "bike_id": "8fa35372aa9f910d829b5d436d12b2ce", "lat": 38.86070633333333, "rental_uris": {"ios": "https://dc.lft.to/lastmile_qr_scan", "android": "https://dc.lft.to/lastmile_qr_scan"}}, {"type": "electric_bike", "name": "6075a28d4263edbea4d863457c249728", "fusion_lon": 0.0, "is_reserved": 0, "lon": -76.97209166666667, "fusion_lat": 0.0, "is_disabled": 0, "bike_id": "6075a28d4263edbea4d863457c249728", "lat": 38.94779366666667, "rental_uris": {"ios": "https://dc.lft.to/lastmile_qr_scan", "android": "https://dc.lft.to/lastmile_qr_scan"}}, {"type": "electric_scooter", "name": "d1d5b891509224c2744163e180469aa8", "fusion_lon": 0.0, "is_reserved": 0, "lon": -77.03650566666667, "fusion_lat": 0.0, "is_disabled": 0, "bike_id": "d1d5b891509224c2744163e180469aa8", "lat": 38.9025695, "rental_uris": {"ios": "https://dc.lft.to/lastmile_qr_scan", "android": "https://dc.lft.to/lastmile_qr_scan"}}, {"type": "electric_scooter", "name": "c49c6797fb2f716835f7662a8c42f157", "fusion_lon": 0.0, "is_reserved": 0, "lon": -77.04662216666667, "fusion_lat": 0.0, "is_disabled": 0, "bike_id": "c49c6797fb2f716835f7662a8c42f157", "lat": 38.90571933333333, "rental_uris": {"ios": "https://dc.lft.to/lastmile_qr_scan", "android": "https://dc.lft.to/lastmile_qr_scan"}}, {"type": "electric_scooter", "name": "d2fbcba364a1f7865ce11e0721a69329", "fusion_lon": 0.0, "is_reserved": 0, "lon": -77.03222166666667, "fusion_lat": 0.0, "is_disabled": 0, "bike_id": "d2fbcba364a1f7865ce11e0721a69329", "lat": 38.89231933333333, "rental_uris": {"ios": "https://dc.lft.to/lastmile_qr_scan", "android": "https://dc.lft.to/lastmile_qr_scan"}}, {"type": "electric_scooter", "name": "7b564c05037b84d9440368593a2eafdc", "fusion_lon": 0.0, "is_reserved": 0, "lon": -77.03436466666666, "fusion_lat": 0.0, "is_disabled": 0, "bike_id": "7b564c05037b84d9440368593a2eafdc", "lat": 38.91693766666667, "rental_uris": {"ios": "https://dc.lft.to/lastmile_qr_scan", "android": "https://dc.lft.to/lastmile_qr_scan"}}, {"type": "electric_scooter", "name": "13b93d5f0e2508625ea91f0c6bb4e8f1", "fusion_lon": 0.0, "is_reserved": 0, "lon": -77.0400285, "fusion_lat": 0.0, "is_disabled": 0, "bike_id": "13b93d5f0e2508625ea91f0c6bb4e8f1", "lat": 38.907809666666665, "rental_uris": {"ios": "https://dc.lft.to/lastmile_qr_scan", "android": "https://dc.lft.to/lastmile_qr_scan"}},