{"data": {"bikes": [{"fusion_lat": 0.0, "type": "electric_scooter", "name": "5561cf7cf17ede86bec29b58fbeea8ca", "fusion_lon": 0.0, "bike_id": "5561cf7cf17ede86bec29b58fbeea8ca", "is_reserved": 0, "rental_uris": {"android": "https://dc.lft.to/lastmile_qr_scan", "ios": "https://dc.lft.to/lastmile_qr_scan"}, "lat": 38.911220166666666, "is_disabled": 0, "lon": -77.0219805}, {"fusion_lat": 0.0, "type": "electric_bike", "name": "f14bed9bf1d8a0d0b02d2cd526664822", "fusion_lon": 0.0, "bike_id": "f14bed9bf1d8a0d0b02d2cd526664822", "is_reserved": 0, "rental_uris": {"android": "https://dc.lft.to/lastmile_qr_scan", "ios": "https://dc.lft.to/lastmile_qr_scan"}, "lat": 38.95323166666667, "is_disabled": 0, "lon": -76.9543495}, {"fusion_lat": 0.0, "type": "electric_scooter", "name": "3cc98b6e7c519781661a203cc4b2d420", "fusion_lon": 0.0, "bike_id": "3cc98b6e7c519781661a203cc4b2d420", "is_reserved": 0, "rental_uris": {"android": "https://dc.lft.to/lastmile_qr_scan", "ios": "https://dc.lft.to/lastmile_qr_scan"}, "lat": 38.909723166666666, "is_disabled": 0, "lon": -77.03444516666667}, {"fusion_lat": 0.0, "type": "electric_scooter", "name": "059117be31d53d19297c8d9df1e80f18", "fusion_lon": 0.0, "bike_id": "059117be31d53d19297c8d9df1e80f18", "is_reserved": 0, "rental_uris": {"android": "https://dc.lft.to/lastmile_qr_scan", "ios": "https://dc.lft.to/lastmile_qr_scan"}, "lat": 38.892270833333335, "is_disabled": 0, "lon": -77.05002}, {"fusion_lat": 0.0, "type": "electric_scooter", "name": "45832a2ad9410ad52fed954db487951a", "fusion_lon": 0.0, "bike_id": "45832a2ad9410ad52fed954db487951a", "is_reserved": 0, "rental_uris": {"android": "https://dc.lft.to/lastmile_qr_scan", "ios": "https://dc.lft.to/lastmile_qr_scan"}, "lat": 38.952807666666665, "is_disabled": 0, "lon": -77.068533}, {"fusion_lat": 0.0, "type": "electric_scooter", "name": "f6ab0dc2719fbadcd86a5704df73b31d", "fusion_lon": 0.0, "bike_id": "f6ab0dc2719fbadcd86a5704df73b31d", "is_reserved": 0, "rental_uris": {"android": "https://dc.lft.to/lastmile_qr_scan", "ios": "https://dc.lft.to/lastmile_qr_scan"}, "lat": 38.926138, "is_disabled": 0, "lon": -77.04332533333333}, {"fusion_lat": 0.0, "type": "electric_scooter", "name": "74adbdc38fe7532d734420782dab6d97", "fusion_lon": 0.0, "bike_id": "74adbdc38fe7532d734420782dab6d97", "is_reserved": 0, "rental_uris": {"android": "https://dc.lft.to/lastmile_qr_scan", "ios": "https://dc.lft.to/lastmile_qr_scan"}, "lat": 38.8963305, "is_disabled": 0, "lon": -77.03207616666667}, {"fusion_lat": 0.0, "type": "electric_scooter", "name": "1c6a1077fc019c4314ff54bfe166cafe", "fusion_lon": 0.0, "bike_id": "1c6a1077fc019c4314ff54bfe166cafe", "is_reserved": 0, "rental_uris": {"android": "https://dc.lft.to/lastmile_qr_scan", "ios": "https://dc.lft.to/lastmile_qr_scan"}, "lat": 38.924817, "is_disabled": 0, "lon": -77.02672883333334}, {"fusion_lat": 0.0, "type": "electric_scooter", "name": "b850329aa187ff2ebb6c5c0e371f7cad", "fusion_lon": 0.0, "bike_id": "b850329aa187ff2ebb6c5c0e371f7cad", "is_reserved": 0, "rental_uris": {"android": "https://dc.lft.to/lastmile_qr_scan", "ios": "https://dc.lft.to/lastmile_qr_scan"}, "lat": 38.924569166666664, "is_disabled": 0, "lon": -77.02980016666666}, {"fusion_lat": 0.0, "type": "electric_scooter", "name": "6091454d425ba44e6887fb3d41c6736a", "fusion_lon": 0.0, "bike_id": "6091454d425ba44e6887fb3d41c6736a", "is_reserved": 0, "rental_uris": {"android": "https://dc.lft.to/lastmile_qr_scan", "ios": "https://dc.lft.to/lastmile_qr_scan"}, "lat": 38.951827333333334, "is_disabled": 0, "lon": -77.0261835}, {"fusion_lat": 0.0, "type": "electric_scooter", "name": "5b343f4a3f92f758e9ec244ed72f529c", "fusion_lon": 0.0, "bike_id": "5b343f4a3f92f758e9ec244ed72f529c", "is_reserved": 0, "rental_uris": {"android": "https://dc.lft.to/lastmile_qr_scan", "ios": "https://dc.lft.to/lastmile_qr_scan"}, "lat": 38.92159083333333, "is_disabled": 0, "lon": -77.03378416666666}, {"fusion_lat": 0.0, "type": "electric_scooter", "name": "4a8bb9bc66232a78c934ed01d892329b", "fusion_lon": 0.0, "bike_id": "4a8bb9bc66232a78c934ed01d892329b", "is_reserved": 0, "rental_uris": {"android": "https://dc.lft.to/lastmile_qr_scan", "ios": "https://dc.lft.to/lastmile_qr_scan"}, "lat": 38.889156666666665, "is_disabled": 0, "lon": -77.04910066666666}, {"fusion_lat": 0.0, "type": "electric_scooter", "name": "6a8ed0bb522284ae1497cfe9954f54b5", "fusion_lon": 0.0, "bike_id": "6a8ed0bb522284ae1497cfe9954f54b5", "is_reserved": 0, "rental_uris": {"android": "https://dc.lft.to/lastmile_qr_scan", "ios": "https://dc.lft.to/lastmile_qr_scan"}, "lat": 38.903068833333336, "is_disabled": 0, "lon": -77.05054466666667}, {"fusion_lat": 0.0, "type": "electric_scooter", "name": "b5f08a65248300b6d0a6c9564486fb4d", "fusion_lon": 0.0, "bike_id": "b5f08a65248300b6d0a6c9564486fb4d", "is_reserved": 0, "rental_uris": {"android": "https://dc.lft.to/lastmile_qr_scan", "ios": "https://dc.lft.to/lastmile_qr_scan"}, "lat": 38.9168155, "is_disabled": 0, "lon": -77.03693983333334}, {"fusion_lat": 0.0, "type": "electric_scooter", "name": "f063339a3e6a746131827bb41360ad7d", "fusion_lon": 0.0, "bike_id": "f063339a3e6a746131827bb41360ad7d", "is_reserved": 0, "rental_uris": {"android": "https://dc.lft.to/lastmile_qr_scan", "ios": "https://dc.lft.to/lastmile_qr_scan"}, "lat": 38.9183945, "is_disabled": 0, "lon": -77.059529}, {"fusion_lat": 0.0, "type": "electric_bike", "name": "8bf1a8564f57cd7ac6489320e40aa577", "fusion_lon": 0.0, "bike_id": "8bf1a8564f57cd7ac6489320e40aa577", "is_reserved": 0, "rental_uris": {"android": "https://dc.lft.to/lastmile_qr_scan", "ios": "https://dc.lft.to/lastmile_qr_scan"}, "lat": 38.932306, "is_disabled": 0, "lon": -77.181236}, {"fusion_lat": 0.0, "type": "electric_scooter", "name": "74b387ec6058e40c41fa9a85b9a56ebb", "fusion_lon": 0.0, "bike_id": "74b387ec6058e40c41fa9a85b9a56ebb", "is_reserved": 0, "rental_uris": {"android": "https://dc.lft.to/lastmile_qr_scan", "ios": "https://dc.lft.to/lastmile_qr_scan"}, "lat": 38.91372616666666, "is_disabled": 0, "lon": -77.03138383333334}, {"fusion_lat": 0.0, "type": "electric_scooter", "name": "fb1b4f62d7bac4569b7ebf7eb165a1db", "fusion_lon": 0.0, "bike_id": "fb1b4f62d7bac4569b7ebf7eb165a1db", "is_reserved": 0, "rental_uris": {"android": "https://dc.lft.to/lastmile_qr_scan", "ios": "https://dc.lft.to/lastmile_qr_scan"}, "lat": 38.8989945, "is_disabled": 0, "lon": -76.99389483333333}, {"fusion_lat": 0.0, "type": "electric_scooter", "name": "605647edc6e6b7489e3c6b9e8606d475", "fusion_lon": 0.0, "bike_id": "605647edc6e6b7489e3c6b9e8606d475", "is_reserved": 0, "rental_uris": {"android": "https://dc.lft.to/lastmile_qr_scan", "ios": "https://dc.lft.to/lastmile_qr_scan"}, "lat": 38.916266, "is_disabled": 0, "lon": -77.04789916666667}, {"fusion_lat": 0.0, "type": "electric_scooter", "name": "8db3aafb3157f4a3a7662ee4b9eebc0e", "fusion_lon": 0.0, "bike_id": "8db3aafb3157f4a3a7662ee4b9eebc0e", "is_reserved": 0, "rental_uris": {"android": "https://dc.lft.to/lastmile_qr_scan", "ios": "https://dc.lft.to/lastmile_qr_scan"}, "lat": 38.8980565, "is_disabled": 0, "lon": -77.02690266666667}, {"fusion_lat": 0.0, "type": "electric_scooter", "name": "579cd3ce4f5b95994cddc445ecace10c", "fusion_lon": 0.0, "bike_id": "579cd3ce4f5b95994cddc445ecace10c", "is_reserved": 0, "rental_uris": {"android": "https://dc.lft.to/lastmile_qr_scan", "ios": "https://dc.lft.to/lastmile_qr_scan"}, "lat": 38.88303666666667, "is_disabled": 0, "lon": -76.97866283333333}, {"fusion_lat": 0.0, "type": "electric_scooter", "name": "ca83421ef8686ce9cac61179a343c4cf", "fusion_lon": 0.0, "bike_id": "ca83421ef8686ce9cac61179a343c4cf", "is_reserved": 0, "rental_uris": {"android": "https://dc.lft.to/lastmile_qr_scan", "ios": "https://dc.lft.to/lastmile_qr_scan"}, "lat": 38.915554, "is_disabled": 0, "lon": -77.03125833333333}, {"fusion_lat": 0.0, "type": "electric_scooter", "name": "870365c97fbc65fb0c23675d1246dc1f", "fusion_lon": 0.0, "bike_id": "870365c97fbc65fb0c23675d1246dc1f", "is_reserved": 0, "rental_uris": {"android": "https://dc.lft.to/lastmile_qr_scan", "ios": "https://dc.lft.to/lastmile_qr_scan"}, "lat": 38.899193833333335, "is_disabled": 0, "lon": -76.93381383333333}, {"fusion_lat": 0.0, "type": "electric_scooter", "name": "0f1c8f624a37145efade1fd4910799ac", "fusion_lon": 0.0, "bike_id": "0f1c8f624a37145efade1fd4910799ac", "is_reserved": 0, "rental_uris": {"android": "https://dc.lft.to/lastmile_qr_scan", "ios": "https://dc.lft.to/lastmile_qr_scan"}, "lat": 38.8925115, "is_disabled": 0, "lon": -77.046624}, {"fusion_lat": 0.0, "type": "electric_scooter", "name": "64ce921f5fa382b152b634e105c121c2", "fusion_lon": 0.0, "bike_id": "64ce921f5fa382b152b634e105c121c2", "is_reserved": 0, "rental_uris": {"android": "https://dc.lft.to/lastmile_qr_scan", "ios": "https://dc.lft.to/lastmile_qr_scan"}, "lat": 38.915546, "is_disabled": 0, "lon": -77.04177433333334}, {"fusion_lat": 0.0, "type": "electric_scooter", "name": "e0f83140a26e9b15f04314395be747f3", "fusion_lon": 0.0, "bike_id": "e0f83140a26e9b15f04314395be747f3", "is_reserved": 0, "rental_uris": {"android": "https://dc.lft.to/lastmile_qr_scan", "ios": "https://dc.lft.to/lastmile_qr_scan"}, "lat": 38.89224, "is_disabled": 0, "lon": -77.023487}, {"fusion_lat": 0.0, "type": "electric_bike", "name": "212ba61b18e5da23c0ff8988045b6041", "fusion_lon": 0.0, "bike_id": "212ba61b18e5da23c0ff8988045b6041", "is_reserved": 0, "rental_uris": {"android": "https://dc.lft.to/lastmile_qr_scan", "ios": "https://dc.lft.to/lastmile_qr_scan"}, "lat": 39.06294033333333, "is_disabled": 0, "lon": -77.049814}, {"fusion_lat": 0.0, "type": "electric_scooter", "name": "1845216dad5393aabdcd7e0ff2d92b8c", "fusion_lon": 0.0, "bike_id": "1845216dad5393aabdcd7e0ff2d92b8c", "is_reserved": 0, "rental_uris": {"android": "https://dc.lft.to/lastmile_qr_scan", "ios": "https://dc.lft.to/lastmile_qr_scan"}, "lat": 38.92114633333333, "is_disabled": 0, "lon": -77.03664383333333}, {"fusion_lat": 0.0, "type": "electric_scooter", "name": "25a971ef0519b19bfb1d60c3a3c6e2f0", "fusion_lon": 0.0, "bike_id": "25a971ef0519b19bfb1d60c3a3c6e2f0", "is_reserved": 0, "rental_uris": {"android": "https://dc.lft.to/lastmile_qr_scan", "ios": "https://dc.lft.to/lastmile_qr_scan"}, "lat": 38.9275395, "is_disabled": 0, "lon": -77.03277233333333}, {"fusion_lat": 0.0, "type": "electric_scooter", "name": "dc69508e965f1705e89c3256e1de34e7", "fusion_lon": 0.0, "bike_id": "dc69508e965f1705e89c3256e1de34e7", "is_reserved": 0, "rental_uris": {"android": "https://dc.lft.to/lastmile_qr_scan", "ios": "https://dc.lft.to/lastmile_qr_scan"}, "lat": 38.89915166666667, "is_disabled": 0, "lon": -76.93376433333333}, {"fusion_lat": 0.0, "type": "electric_scooter", "name": "7e9b750df1d1826b55369966e195ae59", "fusion_lon": 0.0, "bike_id": "7e9b750df1d1826b55369966e195ae59", "is_reserved": 0, "rental_uris": {"android": "https://dc.lft.to/lastmile_qr_scan", "ios": "https://dc.lft.to/lastmile_qr_scan"}, "lat": 38.939822, "is_disabled": 0, "lon": -77.02977416666667}, {"fusion_lat": 0.0, "type": "electric_scooter", "name": "c057014e0d0d1a024986d6eede13be26", "fusion_lon": 0.0, "bike_id": "c057014e0d0d1a024986d6eede13be26", "is_reserved": 0, "rental_uris": {"android": "https://dc.lft.to/lastmile_qr_scan", "ios": "https://dc.lft.to/lastmile_qr_scan"}, "lat": 38.916804, "is_disabled": 0, "lon": -77.036661}, {"fusion_lat": 0.0, "type": "electric_scooter", "name": "763039bb60de20d2973875613139971a", "fusion_lon": 0.0, "bike_id": "763039bb60de20d2973875613139971a", "is_reserved": 0, "rental_uris": {"android": "https://dc.lft.to/lastmile_qr_scan", "ios": "https://dc.lft.to/lastmile_qr_scan"}, "lat": 38.907247, "is_disabled": 0, "lon": -77.03478316666667}, {"fusion_lat": 0.0, "type": "electric_scooter", "name": "5f5a6433b4dad99cba99c7facf47d868", "fusion_lon": 0.0, "bike_id": "5f5a6433b4dad99cba99c7facf47d868", "is_reserved": 0, "rental_uris": {"android": "https://dc.lft.to/lastmile_qr_scan", "ios": "https://dc.lft.to/lastmile_qr_scan"}, "lat": 38.924459, "is_disabled": 0, "lon": -77.041099}, {"fusion_lat": 0.0, "type": "electric_scooter", "name": "1b9d9b40d45f42990801d2837d649777", "fusion_lon": 0.0, "bike_id": "1b9d9b40d45f42990801d2837d649777", "is_reserved": 0, "rental_uris": {"android": "https://dc.lft.to/lastmile_qr_scan", "ios": "https://dc.lft.to/lastmile_qr_scan"}, "lat": 38.9009565, "is_disabled": 0, "lon": -77.04764716666666}, {"fusion_lat": 0.0, "type": "electric_scooter", "name": "dcaef72e47f0e72b5ae5c7a1a6e098ae", "fusion_lon": 0.0, "bike_id": "dcaef72e47f0e72b5ae5c7a1a6e098ae", "is_reserved": 0, "rental_uris": {"android": "https://dc.lft.to/lastmile_qr_scan", "ios": "https://dc.lft.to/lastmile_qr_scan"}, "lat": 38.91683833333333, "is_disabled": 0, "lon": -77.0281405}, {"fusion_lat": 0.0, "type": "electric_scooter", "name": "baaafda59f55efc27e3dc05fb0e0bc9b", "fusion_lon": 0.0, "bike_id": "baaafda59f55efc27e3dc05fb0e0bc9b", "is_reserved": 0, "rental_uris": {"android": "https://dc.lft.to/lastmile_qr_scan", "ios": "https://dc.lft.to/lastmile_qr_scan"}, "lat": 38.909572, "is_disabled": 0, "lon": -77.054806}, {"fusion_lat": 0.0, "type": "electric_bike", "name": "529c5f5964bde071cd5519f7fd8f3a7f", "fusion_lon": 0.0, "bike_id": "529c5f5964bde071cd5519f7fd8f3a7f", "is_reserved": 0, "rental_uris": {"android": "https://dc.lft.to/lastmile_qr_scan", "ios": "https://dc.lft.to/lastmile_qr_scan"}, "lat": 38.9027245, "is_disabled": 0, "lon": -76.929252}, {"fusion_lat": 0.0, "type": "electric_scooter", "name": "7a2938a0dcac0cca552b2ed31819e948", "fusion_lon": 0.0, "bike_id": "7a2938a0dcac0cca552b2ed31819e948", "is_reserved": 0, "rental_uris": {"android": "https://dc.lft.to/lastmile_qr_scan", "ios": "https://dc.lft.to/lastmile_qr_scan"}, "lat": 38.911689, "is_disabled": 0, "lon": -77.02955533333333}, {"fusion_lat": 0.0, "type": "electric_scooter", "name": "7c3dbaf9700cb656c02fecc53aa31335", "fusion_lon": 0.0, "bike_id": "7c3dbaf9700cb656c02fecc53aa31335", "is_reserved": 0, "rental_uris": {"android": "https://dc.lft.to/lastmile_qr_scan", "ios": "https://dc.lft.to/lastmile_qr_scan"}, "lat": 38.89224216666667, "is_disabled": 0, "lon": -77.04374583333333}, {"fusion_lat": 0.0, "type": "electric_bike", "name": "1f0990669b5910812c94f27df85b7042", "fusion_lon": 0.0, "bike_id": "1f0990669b5910812c94f27df85b7042", "is_reserved": 0, "rental_uris": {"android": "https://dc.lft.to/lastmile_qr_scan", "ios": "https://dc.lft.to/lastmile_qr_scan"}, "lat": 39.042354833333334, "is_disabled": 0, "lon": -76.99736066666667}, {"fusion_lat": 0.0, "type": "electric_scooter", "name": "c6af2ee0d0069bc9b65b2ce417a44ff7", "fusion_lon": 0.0, "bike_id": "c6af2ee0d0069bc9b65b2ce417a44ff7", "is_reserved": 0, "rental_uris": {"android": "https://dc.lft.to/lastmile_qr_scan", "ios": "https://dc.lft.to/lastmile_qr_scan"}, "lat": 38.90961816666667, "is_disabled": 0, "lon": -77.00814883333334}, {"fusion_lat": 0.0, "type": "electric_scooter", "name": "6caa65b2c4febf218a1980055b4c0b82", "fusion_lon": 0.0, "bike_id": "6caa65b2c4febf218a1980055b4c0b82", "is_reserved": 0, "rental_uris": {"android": "https://dc.lft.to/lastmile_qr_scan", "ios": "https://dc.lft.to/lastmile_qr_scan"}, "lat": 38.900454333333336, "is_disabled": 0, "lon": -77.0294835}, {"fusion_lat": 0.0, "type": "electric_scooter", "name": "ca3586a17e7774582aed8cd39a3fb641", "fusion_lon": 0.0, "bike_id": "ca3586a17e7774582aed8cd39a3fb641", "is_reserved": 0, "rental_uris": {"android": "https://dc.lft.to/lastmile_qr_scan", "ios": "https://dc.lft.to/lastmile_qr_scan"}, "lat": 38.8767895, "is_disabled": 0, "lon": -76.99827633333334}, {"fusion_lat": 0.0, "type": "electric_scooter", "name": "0e8a6a0ffbf04d15f104b7edf5b49543", "fusion_lon": 0.0, "bike_id": "0e8a6a0ffbf04d15f104b7edf5b49543", "is_reserved": 0, "rental_uris": {"android": "https://dc.lft.to/lastmile_qr_scan", "ios": "https://dc.lft.to/lastmile_qr_scan"}, "lat": 38.918443833333335, "is_disabled": 0, "lon": -77.0449535}, {"fusion_lat": 0.0, "type": "electric_scooter", "name": "7a89ac3959b07453fad5f95fe1895cf4", "fusion_lon": 0.0, "bike_id": "7a89ac3959b07453fad5f95fe1895cf4", "is_reserved": 0, "rental_uris": {"android": "https://dc.lft.to/lastmile_qr_scan", "ios": "https://dc.lft.to/lastmile_qr_scan"}, "lat": 38.8942655, "is_disabled": 0, "lon": -76.9111725}, {"fusion_lat": 0.0, "type": "electric_scooter", "name": "08ec2da21cb85f2dc50d1be04bd8a007", "fusion_lon": 0.0, "bike_id": "08ec2da21cb85f2dc50d1be04bd8a007", "is_reserved": 0, "rental_uris": {"android": "https://dc.lft.to/lastmile_qr_scan", "ios": "https://dc.lft.to/lastmile_qr_scan"}, "lat": 38.9418195, "is_disabled": 0, "lon": -77.02532816666667}, {"fusion_lat": 0.0, "type": "electric_scooter", "name": "452b5cf07e06aa02855a104f1b7e4d46", "fusion_lon": 0.0, "bike_id": "452b5cf07e06aa02855a104f1b7e4d46", "is_reserved": 0, "rental_uris": {"android": "https://dc.lft.to/lastmile_qr_scan", "ios": "https://dc.lft.to/lastmile_qr_scan"}, "lat": 38.916297, "is_disabled": 0, "lon": -77.03139016666667}, {"fusion_lat": 0.0, "type": "electric_scooter", "name": "b27f5cdb9e7f4e2eb07b4c36a67206ec", "fusion_lon": 0.0, "bike_id": "b27f5cdb9e7f4e2eb07b4c36a67206ec", "is_reserved": 0, "rental_uris": {"android": "https://dc.lft.to/lastmile_qr_scan", "ios": "https://dc.lft.to/lastmile_qr_scan"}, "lat": 38.9073395, "is_disabled": 0, "lon": -77.05046933333334}, {"fusion_lat": 0.0, "type": "electric_scooter", "name": "0a27df0a1182783b317c9bd754d14ce9", "fusion_lon": 0.0, "bike_id": "0a27df0a1182783b317c9bd754d14ce9", "is_reserved": 0, "rental_uris": {"android": "https://dc.lft.to/lastmile_qr_scan", "ios": "https://dc.lft.to/lastmile_qr_scan"}, "lat": 38.92246383333333, "is_disabled": 0, "lon": -77.02997083333334}, {"fusion_lat": 0.0, "type": "electric_scooter", "name": "1bc87028c1024d55076cbfe0de9a9241", "fusion_lon": 0.0, "bike_id": "1bc87028c1024d55076cbfe0de9a9241", "is_reserved": 0, "rental_uris": {"android": "https://dc.lft.to/lastmile_qr_scan", "ios": "https://dc.lft.to/lastmile_qr_scan"}, "lat": 38.88363866666667, "is_disabled": 0, "lon": -76.94153216666666}, {"fusion_lat": 0.0, "type": "electric_scooter", "name": "2b0ee3961c37cf64bc915efc749364db", "fusion_lon": 0.0, "bike_id": "2b0ee3961c37cf64bc915efc749364db", "is_reserved": 0, "rental_uris": {"android": "https://dc.lft.to/lastmile_qr_scan", "ios": "https://dc.lft.to/lastmile_qr_scan"}, "lat": 38.92575733333334, "is_disabled": 0, "lon": -77.04011433333334}, {"fusion_lat": 0.0, "type": "electric_scooter", "name": "62e97e7913427ac0f333cb37204580ee", "fusion_lon": 0.0, "bike_id": "62e97e7913427ac0f333cb37204580ee", "is_reserved": 0, "rental_uris": {"android": "https://dc.lft.to/lastmile_qr_scan", "ios": "https://dc.lft.to/lastmile_qr_scan"}, "lat": 38.89389666666667, "is_disabled": 0, "lon": -77.02253683333333}, {"fusion_lat": 0.0, "type": "electric_scooter", "name": "f358485ae292f972197f53ba67b09b02", "fusion_lon": 0.0, "bike_id": "f358485ae292f972197f53ba67b09b02", "is_reserved": 0, "rental_uris": {"android": "https://dc.lft.to/lastmile_qr_scan", "ios": "https://dc.lft.to/lastmile_qr_scan"}, "lat": 38.90285733333333, "is_disabled": 0, "lon": -77.04523183333333}, {"fusion_lat": 0.0, "type": "electric_scooter", "name": "1ef34b423fb260d5a112f5dbaaee2791", "fusion_lon": 0.0, "bike_id": "1ef34b423fb260d5a112f5dbaaee2791", "is_reserved": 0, "rental_uris": {"android": "https://dc.lft.to/lastmile_qr_scan", "ios": "https://dc.lft.to/lastmile_qr_scan"}, "lat": 38.913560333333336, "is_disabled": 0, "lon": -77.02004116666667}, {"fusion_lat": 0.0, "type": "electric_scooter", "name": "f261f132e9df5d05efec22b11f1bce09", "fusion_lon": 0.0, "bike_id": "f261f132e9df5d05efec22b11f1bce09", "is_reserved": 0, "rental_uris": {"android": "https://dc.lft.to/lastmile_qr_scan", "ios": "https://dc.lft.to/lastmile_qr_scan"}, "lat": 38.91701966666667, "is_disabled": 0, "lon": -77.035205}, {"fusion_lat": 0.0, "type": "electric_scooter", "name": "ee0337f7d671f480862a771eec7499f4", "fusion_lon": 0.0, "bike_id": "ee0337f7d671f480862a771eec7499f4", "is_reserved": 0, "rental_uris": {"android": "https://dc.lft.to/lastmile_qr_scan", "ios": "https://dc.lft.to/lastmile_qr_scan"}, "lat": 38.914403, "is_disabled": 0, "lon": -77.00458316666666}, {"fusion_lat": 0.0, "type": "electric_scooter", "name": "a89451cfbdfceaea7fb84b612916b541", "fusion_lon": 0.0, "bike_id": "a89451cfbdfceaea7fb84b612916b541", "is_reserved": 0, "rental_uris": {"android": "https://dc.lft.to/lastmile_qr_scan", "ios": "https://dc.lft.to/lastmile_qr_scan"}, "lat": 38.8792335, "is_disabled": 0, "lon": -77.01349233333333}, {"fusion_lat": 0.0, "type": "electric_scooter", "name": "303f38371caeb3e897ad8da45eaecb6f", "fusion_lon": 0.0, "bike_id": "303f38371caeb3e897ad8da45eaecb6f", "is_reserved": 0, "rental_uris": {"android": "https://dc.lft.to/lastmile_qr_scan", "ios": "https://dc.lft.to/lastmile_qr_scan"}, "lat": 38.84997366666666, "is_disabled": 0, "lon": -76.983442}, {"fusion_lat": 0.0, "type": "electric_scooter", "name": "13c8fa0836c348ec1a9310c7d3922e12", "fusion_lon": 0.0, "bike_id": "13c8fa0836c348ec1a9310c7d3922e12", "is_reserved": 0, "rental_uris": {"android": "https://dc.lft.to/lastmile_qr_scan", "ios": "https://dc.lft.to/lastmile_qr_scan"}, "lat": 38.913046666666666, "is_disabled": 0, "lon": -77.0385365}, {"fusion_lat": 0.0, "type": "electric_scooter", "name": "0bcb448f25791b7c1dd1d4ab407658a4", "fusion_lon": 0.0, "bike_id": "0bcb448f25791b7c1dd1d4ab407658a4", "is_reserved": 0, "rental_uris": {"android": "https://dc.lft.to/lastmile_qr_scan", "ios": "https://dc.lft.to/lastmile_qr_scan"}, "lat": 38.86683333333333, "is_disabled": 0, "lon": -76.98597816666667}, {"fusion_lat": 0.0, "type": "electric_bike", "name": "0cace4c0ac7fbfe4468064990465827c", "fusion_lon": 0.0, "bike_id": "0cace4c0ac7fbfe4468064990465827c", "is_reserved": 0, "rental_uris": {"android": "https://dc.lft.to/lastmile_qr_scan", "ios": "https://dc.lft.to/lastmile_qr_scan"}, "lat": 38.92740333333333, "is_disabled": 0, "lon": -77.036371}, {"fusion_lat": 0.0, "type": "electric_scooter", "name": "9b200a0cb33d0c1898360cbadb022203", "fusion_lon": 0.0, "bike_id": "9b200a0cb33d0c1898360cbadb022203", "is_reserved": 0, "rental_uris": {"android": "https://dc.lft.to/lastmile_qr_scan", "ios": "https://dc.lft.to/lastmile_qr_scan"}, "lat": 38.90774, "is_disabled": 0, "lon": -77.073149}, {"fusion_lat": 0.0, "type": "electric_scooter", "name": "a8d7f85d16c83d4dd3f9e32950dacb04", "fusion_lon": 0.0, "bike_id": "a8d7f85d16c83d4dd3f9e32950dacb04", "is_reserved": 0, "rental_uris": {"android": "https://dc.lft.to/lastmile_qr_scan", "ios": "https://dc.lft.to/lastmile_qr_scan"}, "lat": 38.9308985, "is_disabled": 0, "lon": -77.02500183333333}, {"fusion_lat": 0.0, "type": "electric_scooter", "name": "b2122489916961421935bd545a2330b9", "fusion_lon": 0.0, "bike_id": "b2122489916961421935bd545a2330b9", "is_reserved": 0, "rental_uris": {"android": "https://dc.lft.to/lastmile_qr_scan", "ios": "https://dc.lft.to/lastmile_qr_scan"}, "lat": 38.90971583333334, "is_disabled": 0, "lon": -77.046971}, {"fusion_lat": 0.0, "type": "electric_scooter", "name": "630f39fd00784a7e5de89ba3c69c61f1", "fusion_lon": 0.0, "bike_id": "630f39fd00784a7e5de89ba3c69c61f1", "is_reserved": 0, "rental_uris": {"android": "https://dc.lft.to/lastmile_qr_scan", "ios": "https://dc.lft.to/lastmile_qr_scan"}, "lat": 38.901794333333335, "is_disabled": 0, "lon": -76.928661}, {"fusion_lat": 0.0, "type": "electric_scooter", "name": "523b2904fb2984c918d14f29b6afc24a", "fusion_lon": 0.0, "bike_id": "523b2904fb2984c918d14f29b6afc24a", "is_reserved": 0, "rental_uris": {"android": "https://dc.lft.to/lastmile_qr_scan", "ios": "https://dc.lft.to/lastmile_qr_scan"}, "lat": 38.926838333333336, "is_disabled": 0, "lon": -77.02252616666667}, {"fusion_lat": 0.0, "type": "electric_scooter", "name": "9c89becdc456a5e6842eda0d982e902c", "fusion_lon": 0.0, "bike_id": "9c89becdc456a5e6842eda0d982e902c", "is_reserved": 0, "rental_uris": {"android": "https://dc.lft.to/lastmile_qr_scan", "ios": "https://dc.lft.to/lastmile_qr_scan"}, "lat": 38.88714866666667, "is_disabled": 0, "lon": -76.983503}, {"fusion_lat": 0.0, "type": "electric_scooter", "name": "33019537f8b44b9b6138e2fac1dd4a11", "fusion_lon": 0.0, "bike_id": "33019537f8b44b9b6138e2fac1dd4a11", "is_reserved": 0, "rental_uris": {"android": "https://dc.lft.to/lastmile_qr_scan", "ios": "https://dc.lft.to/lastmile_qr_scan"}, "lat": 38.907298, "is_disabled": 0, "lon": -77.034544}, {"fusion_lat": 0.0, "type": "electric_scooter", "name": "12408a878f958a92136f2835e9dc4029", "fusion_lon": 0.0, "bike_id": "12408a878f958a92136f2835e9dc4029", "is_reserved": 0, "rental_uris": {"android": "https://dc.lft.to/lastmile_qr_scan", "ios": "https://dc.lft.to/lastmile_qr_scan"}, "lat": 38.9248085, "is_disabled": 0, "lon": -77.0214165}, {"fusion_lat": 0.0, "type": "electric_scooter", "name": "00067554d0faecbd7cf4bba9994b6e12", "fusion_lon": 0.0, "bike_id": "00067554d0faecbd7cf4bba9994b6e12", "is_reserved": 0, "rental_uris": {"android": "https://dc.lft.to/lastmile_qr_scan", "ios": "https://dc.lft.to/lastmile_qr_scan"}, "lat": 38.911891833333335, "is_disabled": 0, "lon": -77.035252}, {"fusion_lat": 0.0, "type": "electric_scooter", "name": "c3fd04f36ce8f42581da9bae2539d720", "fusion_lon": 0.0, "bike_id": "c3fd04f36ce8f42581da9bae2539d720", "is_reserved": 0, "rental_uris": {"android": "https://dc.lft.to/lastmile_qr_scan", "ios": "https://dc.lft.to/lastmile_qr_scan"}, "lat": 38.91010966666666, "is_disabled": 0, "lon": -77.02102816666667}, {"fusion_lat": 0.0, "type": "electric_scooter", "name": "13e01083bd7b7ceb8637986f5694d692", "fusion_lon": 0.0, "bike_id": "13e01083bd7b7ceb8637986f5694d692", "is_reserved": 0, "rental_uris": {"android": "https://dc.lft.to/lastmile_qr_scan", "ios": "https://dc.lft.to/lastmile_qr_scan"}, "lat": 38.8922715, "is_disabled": 0, "lon": -77.04898683333333}, {"fusion_lat": 0.0, "type": "electric_scooter", "name": "aac710a7bf8c10150e3f818264d9338d", "fusion_lon": 0.0, "bike_id": "aac710a7bf8c10150e3f818264d9338d", "is_reserved": 0, "rental_uris": {"android": "https://dc.lft.to/lastmile_qr_scan", "ios": "https://dc.lft.to/lastmile_qr_scan"}, "lat": 38.91209116666667, "is_disabled": 0, "lon": -77.038468}, {"fusion_lat": 0.0, "type": "electric_scooter", "name": "b45ce031529672edc55cb17dc2c98327", "fusion_lon": 0.0, "bike_id": "b45ce031529672edc55cb17dc2c98327", "is_reserved": 0, "rental_uris": {"android": "https://dc.lft.to/lastmile_qr_scan", "ios": "https://dc.lft.to/lastmile_qr_scan"}, "lat": 38.9097295, "is_disabled": 0, "lon": -77.03453366666666}, {"fusion_lat": 0.0, "type": "electric_scooter", "name": "d3637417c320f475b486e84fde8bf3ff", "fusion_lon": 0.0, "bike_id": "d3637417c320f475b486e84fde8bf3ff", "is_reserved": 0, "rental_uris": {"android": "https://dc.lft.to/lastmile_qr_scan", "ios": "https://dc.lft.to/lastmile_qr_scan"}, "lat": 38.895476, "is_disabled": 0, "lon": -77.05663066666666}, {"fusion_lat": 0.0, "type": "electric_scooter", "name": "eebb69758bc80d0cce87508c164a7056", "fusion_lon": 0.0, "bike_id": "eebb69758bc80d0cce87508c164a7056", "is_reserved": 0, "rental_uris": {"android": "https://dc.lft.to/lastmile_qr_scan", "ios": "https://dc.lft.to/lastmile_qr_scan"}, "lat": 38.88133, "is_disabled": 0, "lon": -77.01672666666667}, {"fusion_lat": 0.0, "type": "electric_scooter", "name": "bb786021f7e238a3fdb7849284b70664", "fusion_lon": 0.0, "bike_id": "bb786021f7e238a3fdb7849284b70664", "is_reserved": 0, "rental_uris": {"android": "https://dc.lft.to/lastmile_qr_scan", "ios": "https://dc.lft.to/lastmile_qr_scan"}, "lat": 38.927000166666666, "is_disabled": 0, "lon": -77.03633516666666}, {"fusion_lat": 0.0, "type": "electric_scooter", "name": "49f05111c1071b3c22628d09cff8fbd4", "fusion_lon": 0.0, "bike_id": "49f05111c1071b3c22628d09cff8fbd4", "is_reserved": 0, "rental_uris": {"android": "https://dc.lft.to/lastmile_qr_scan", "ios": "https://dc.lft.to/lastmile_qr_scan"}, "lat": 38.90565466666666, "is_disabled": 0, "lon": -77.02986216666666}, {"fusion_lat": 0.0, "type": "electric_scooter", "name": "86e5a0598044e326af7ea42b28f42d69", "fusion_lon": 0.0, "bike_id": "86e5a0598044e326af7ea42b28f42d69", "is_reserved": 0, "rental_uris": {"android": "https://dc.lft.to/lastmile_qr_scan", "ios": "https://dc.lft.to/lastmile_qr_scan"}, "lat": 38.912446333333335, "is_disabled": 0, "lon": -77.04158683333333}, {"fusion_lat": 0.0, "type": "electric_bike", "name": "1e1bca52a893e8f889257c178241a537", "fusion_lon": 0.0, "bike_id": "1e1bca52a893e8f889257c178241a537", "is_reserved": 0, "rental_uris": {"android": "https://dc.lft.to/lastmile_qr_scan", "ios": "https://dc.lft.to/lastmile_qr_scan"}, "lat": 38.823795, "is_disabled": 0, "lon": -77.00224266666666}, {"fusion_lat": 0.0, "type": "electric_scooter", "name": "13366056a48b10e3d2ed902d626beeb1", "fusion_lon": 0.0, "bike_id": "13366056a48b10e3d2ed902d626beeb1", "is_reserved": 0, "rental_uris": {"android": "https://dc.lft.to/lastmile_qr_scan", "ios": "https://dc.lft.to/lastmile_qr_scan"}, "lat": 38.9507545, "is_disabled": 0, "lon": -76.99567083333334}, {"fusion_lat": 0.0, "type": "electric_scooter", "name": "badbc6b1ec809c8b7dd42323d0ba8007", "fusion_lon": 0.0, "bike_id": "badbc6b1ec809c8b7dd42323d0ba8007", "is_reserved": 0, "rental_uris": {"android": "https://dc.lft.to/lastmile_qr_scan", "ios": "https://dc.lft.to/lastmile_qr_scan"}, "lat": 38.92378516666667, "is_disabled": 0, "lon": -77.03106683333333}, {"fusion_lat": 0.0, "type": "electric_scooter", "name": "79456052a2cb79e25ecaf9ee7fd74884", "fusion_lon": 0.0, "bike_id": "79456052a2cb79e25ecaf9ee7fd74884", "is_reserved": 0, "rental_uris": {"android": "https://dc.lft.to/lastmile_qr_scan", "ios": "https://dc.lft.to/lastmile_qr_scan"}, "lat": 38.89715916666667, "is_disabled": 0, "lon": -77.02692466666667}, {"fusion_lat": 0.0, "type": "electric_bike", "name": "d75397bfb06b3d91f00bd21ff8984782", "fusion_lon": 0.0, "bike_id": "d75397bfb06b3d91f00bd21ff8984782", "is_reserved": 0, "rental_uris": {"android": "https://dc.lft.to/lastmile_qr_scan", "ios": "https://dc.lft.to/lastmile_qr_scan"}, "lat": 38.953537, "is_disabled": 0, "lon": -76.98091966666667}, {"fusion_lat": 0.0, "type": "electric_scooter", "name": "94c2bb5c4c28d9a0ced4d2600091759e", "fusion_lon": 0.0, "bike_id": "94c2bb5c4c28d9a0ced4d2600091759e", "is_reserved": 0, "rental_uris": {"android": "https://dc.lft.to/lastmile_qr_scan", "ios": "https://dc.lft.to/lastmile_qr_scan"}, "lat": 38.927945, "is_disabled": 0, "lon": -77.0260195}, {"fusion_lat": 0.0, "type": "electric_scooter", "name": "c91731891154c21b8c7e97a2fa08dde5", "fusion_lon": 0.0, "bike_id": "c91731891154c21b8c7e97a2fa08dde5", "is_reserved": 0, "rental_uris": {"android": "https://dc.lft.to/lastmile_qr_scan", "ios": "https://dc.lft.to/lastmile_qr_scan"}, "lat": 38.917105166666666, "is_disabled": 0, "lon": -77.03505916666667}, {"fusion_lat": 0.0, "type": "electric_scooter", "name": "ee356f7aeae8c03c47da2281a4f160b2", "fusion_lon": 0.0, "bike_id": "ee356f7aeae8c03c47da2281a4f160b2", "is_reserved": 0, "rental_uris": {"android": "https://dc.lft.to/lastmile_qr_scan", "ios": "https://dc.lft.to/lastmile_qr_scan"}, "lat": 38.893306833333334, "is_disabled": 0, "lon": -77.012049}, {"fusion_lat": 0.0, "type": "electric_scooter", "name": "89cbbadd9b2a763a580fe5abe3d15d5a", "fusion_lon": 0.0, "bike_id": "89cbbadd9b2a763a580fe5abe3d15d5a", "is_reserved": 0, "rental_uris": {"android": "https://dc.lft.to/lastmile_qr_scan", "ios": "https://dc.lft.to/lastmile_qr_scan"}, "lat": 38.88814033333333, "is_disabled": 0, "lon": -76.93342733333333}, {"fusion_lat": 0.0, "type": "electric_scooter", "name": "0d62544dd744ea4f35191a960db3d068", "fusion_lon": 0.0, "bike_id": "0d62544dd744ea4f35191a960db3d068", "is_reserved": 0, "rental_uris": {"android": "https://dc.lft.to/lastmile_qr_scan", "ios": "https://dc.lft.to/lastmile_qr_scan"}, "lat": 38.8923315, "is_disabled": 0, "lon": -77.03181083333334}, {"fusion_lat": 0.0, "type": "electric_scooter", "name": "1c3c1a4142506b845a2b7686ab97af2a", "fusion_lon": 0.0, "bike_id": "1c3c1a4142506b845a2b7686ab97af2a", "is_reserved": 0, "rental_uris": {"android": "https://dc.lft.to/lastmile_qr_scan", "ios": "https://dc.lft.to/lastmile_qr_scan"}, "lat": 38.87316333333333, "is_disabled": 0, "lon": -77.00584833333333}, {"fusion_lat": 0.0, "type": "electric_scooter", "name": "8d9b6c66f7531be7cb5cab2a5f5bbaa0", "fusion_lon": 0.0, "bike_id": "8d9b6c66f7531be7cb5cab2a5f5bbaa0", "is_reserved": 0, "rental_uris": {"android": "https://dc.lft.to/lastmile_qr_scan", "ios": "https://dc.lft.to/lastmile_qr_scan"}, "lat": 38.897223833333335, "is_disabled": 0, "lon": -77.02702633333334}, {"fusion_lat": 0.0, "type": "electric_scooter", "name": "776f9b548e345ef957018575049ddf27", "fusion_lon": 0.0, "bike_id": "776f9b548e345ef957018575049ddf27", "is_reserved": 0, "rental_uris": {"android": "https://dc.lft.to/lastmile_qr_scan", "ios": "https://dc.lft.to/lastmile_qr_scan"}, "lat": 38.92112933333333, "is_disabled": 0, "lon": -77.0421715}, {"fusion_lat": 0.0, "type": "electric_scooter", "name": "6a4665b4dcf9b9d4156a3e7450585b4d", "fusion_lon": 0.0, "bike_id": "6a4665b4dcf9b9d4156a3e7450585b4d", "is_reserved": 0, "rental_uris": {"android": "https://dc.lft.to/lastmile_qr_scan", "ios": "https://dc.lft.to/lastmile_qr_scan"}, "lat": 38.896879, "is_disabled": 0, "lon": -77.0049625}, {"fusion_lat": 0.0, "type": "electric_scooter", "name": "dfe827c9b8f123361fed93652efa3c15", "fusion_lon": 0.0, "bike_id": "dfe827c9b8f123361fed93652efa3c15", "is_reserved": 0, "rental_uris": {"android": "https://dc.lft.to/lastmile_qr_scan", "ios": "https://dc.lft.to/lastmile_qr_scan"}, "lat": 38.917192666666665, "is_disabled": 0, "lon": -77.02538583333333}, {"fusion_lat": 0.0, "type": "electric_scooter", "name": "12cb5a516fd3f27c1523d9648ba30d09", "fusion_lon": 0.0, "bike_id": "12cb5a516fd3f27c1523d9648ba30d09", "is_reserved": 0, "rental_uris": {"android": "https://dc.lft.to/lastmile_qr_scan", "ios": "https://dc.lft.to/lastmile_qr_scan"}, "lat": 38.928669, "is_disabled": 0, "lon": -77.03306416666666}, {"fusion_lat": 0.0, "type": "electric_scooter", "name": "ca46a1490a6129234b52db728ff0380c", "fusion_lon": 0.0, "bike_id": "ca46a1490a6129234b52db728ff0380c", "is_reserved": 0, "rental_uris": {"android": "https://dc.lft.to/lastmile_qr_scan", "ios": "https://dc.lft.to/lastmile_qr_scan"}, "lat": 38.909685333333336, "is_disabled": 0, "lon": -77.024204}, {"fusion_lat": 0.0, "type": "electric_scooter", "name": "601f46bed9a948542f52d6470153ab03", "fusion_lon": 0.0, "bike_id": "601f46bed9a948542f52d6470153ab03", "is_reserved": 0, "rental_uris": {"android": "https://dc.lft.to/lastmile_qr_scan", "ios": "https://dc.lft.to/lastmile_qr_scan"}, "lat": 38.933778333333336, "is_disabled": 0, "lon": -77.02359116666666}, {"fusion_lat": 0.0, "type": "electric_scooter", "name": "28997a1271b382813b3bc64f3cbe849e", "fusion_lon": 0.0, "bike_id": "28997a1271b382813b3bc64f3cbe849e", "is_reserved": 0, "rental_uris": {"android": "https://dc.lft.to/lastmile_qr_scan", "ios": "https://dc.lft.to/lastmile_qr_scan"}, "lat": 38.866469333333335, "is_disabled": 0, "lon": -76.985362}, {"fusion_lat": 0.0, "type": "electric_scooter", "name": "360e6f2b8b85f7e05b04b0ba74ce01df", "fusion_lon": 0.0, "bike_id": "360e6f2b8b85f7e05b04b0ba74ce01df", "is_reserved": 0, "rental_uris": {"android": "https://dc.lft.to/lastmile_qr_scan", "ios": "https://dc.lft.to/lastmile_qr_scan"}, "lat": 38.91036583333333, "is_disabled": 0, "lon": -77.0428435}, {"fusion_lat": 0.0, "type": "electric_scooter", "name": "1f6d8e7b4c0edb996e5d92758aa1c798", "fusion_lon": 0.0, "bike_id": "1f6d8e7b4c0edb996e5d92758aa1c798", "is_reserved": 0, "rental_uris": {"android": "https://dc.lft.to/lastmile_qr_scan", "ios": "https://dc.lft.to/lastmile_qr_scan"}, "lat": 38.92444616666667, "is_disabled": 0, "lon": -77.04109}, {"fusion_lat": 0.0, "type": "electric_scooter", "name": "c323657f12f0b1438185aa729cf08a4b", "fusion_lon": 0.0, "bike_id": "c323657f12f0b1438185aa729cf08a4b", "is_reserved": 0, "rental_uris": {"android": "https://dc.lft.to/lastmile_qr_scan", "ios": "https://dc.lft.to/lastmile_qr_scan"}, "lat": 38.9239395, "is_disabled": 0, "lon": -77.07334}, {"fusion_lat": 0.0, "type": "electric_scooter", "name": "ddc4f0f7b9c8f953fa904ea8691da161", "fusion_lon": 0.0, "bike_id": "ddc4f0f7b9c8f953fa904ea8691da161", "is_reserved": 0, "rental_uris": {"android": "https://dc.lft.to/lastmile_qr_scan", "ios": "https://dc.lft.to/lastmile_qr_scan"}, "lat": 38.905718666666665, "is_disabled": 0, "lon": -77.02765033333333}, {"fusion_lat": 0.0, "type": "electric_scooter", "name": "1eb447bd976e267dbe1eeebeeaddea5c", "fusion_lon": 0.0, "bike_id": "1eb447bd976e267dbe1eeebeeaddea5c", "is_reserved": 0, "rental_uris": {"android": "https://dc.lft.to/lastmile_qr_scan", "ios": "https://dc.lft.to/lastmile_qr_scan"}, "lat": 38.885186833333336, "is_disabled": 0, "lon": -77.016091}, {"fusion_lat": 0.0, "type": "electric_scooter", "name": "5ee819e7b1f0a8147ece227be1c699ef", "fusion_lon": 0.0, "bike_id": "5ee819e7b1f0a8147ece227be1c699ef", "is_reserved": 0, "rental_uris": {"android": "https://dc.lft.to/lastmile_qr_scan", "ios": "https://dc.lft.to/lastmile_qr_scan"}, "lat": 38.923322666666664, "is_disabled": 0, "lon": -77.0361105}, {"fusion_lat": 0.0, "type": "electric_scooter", "name": "303fa7c361419605f7d7ed7fa66aa7bb", "fusion_lon": 0.0, "bike_id": "303fa7c361419605f7d7ed7fa66aa7bb", "is_reserved": 0, "rental_uris": {"android": "https://dc.lft.to/lastmile_qr_scan", "ios": "https://dc.lft.to/lastmile_qr_scan"}, "lat": 38.909637333333336, "is_disabled": 0, "lon": -77.03426283333333}, {"fusion_lat": 0.0, "type": "electric_scooter", "name": "60e0d18175b24c23dde50a530b541481", "fusion_lon": 0.0, "bike_id": "60e0d18175b24c23dde50a530b541481", "is_reserved": 0, "rental_uris": {"android": "https://dc.lft.to/lastmile_qr_scan", "ios": "https://dc.lft.to/lastmile_qr_scan"}, "lat": 38.88766866666667, "is_disabled": 0, "lon": -77.0177305}, {"fusion_lat": 0.0, "type": "electric_scooter", "name": "4941d4a2a05f9d5b6c129cea8b5e2013", "fusion_lon": 0.0, "bike_id": "4941d4a2a05f9d5b6c129cea8b5e2013", "is_reserved": 0, "rental_uris": {"android": "https://dc.lft.to/lastmile_qr_scan", "ios": "https://dc.lft.to/lastmile_qr_scan"}, "lat": 38.892223333333334, "is_disabled": 0, "lon": -77.03342433333333}, {"fusion_lat": 0.0, "type": "electric_scooter", "name": "4cbe23b28f2495c7e9d4f1f8ac2aa74d", "fusion_lon": 0.0, "bike_id": "4cbe23b28f2495c7e9d4f1f8ac2aa74d", "is_reserved": 0, "rental_uris": {"android": "https://dc.lft.to/lastmile_qr_scan", "ios": "https://dc.lft.to/lastmile_qr_scan"}, "lat": 38.866969833333336, "is_disabled": 0, "lon": -76.98713783333334}, {"fusion_lat": 0.0, "type": "electric_scooter", "name": "a4511e40bcadcb588aae14333ec9f5ff", "fusion_lon": 0.0, "bike_id": "a4511e40bcadcb588aae14333ec9f5ff", "is_reserved": 0, "rental_uris": {"android": "https://dc.lft.to/lastmile_qr_scan", "ios": "https://dc.lft.to/lastmile_qr_scan"}, "lat": 38.904801166666665, "is_disabled": 0, "lon": -77.0393015}, {"fusion_lat": 0.0, "type": "electric_scooter", "name": "fa120138fe1de0f42b933029ba62ec0b", "fusion_lon": 0.0, "bike_id": "fa120138fe1de0f42b933029ba62ec0b", "is_reserved": 0, "rental_uris": {"android": "https://dc.lft.to/lastmile_qr_scan", "ios": "https://dc.lft.to/lastmile_qr_scan"}, "lat": 38.89223283333333, "is_disabled": 0, "lon": -77.03180666666667}, {"fusion_lat": 0.0, "type": "electric_scooter", "name": "53029a252cfe2cb19f0316ba159b7031", "fusion_lon": 0.0, "bike_id": "53029a252cfe2cb19f0316ba159b7031", "is_reserved": 0, "rental_uris": {"android": "https://dc.lft.to/lastmile_qr_scan", "ios": "https://dc.lft.to/lastmile_qr_scan"}, "lat": 38.8835675, "is_disabled": 0, "lon": -76.994828}, {"fusion_lat": 0.0, "type": "electric_scooter", "name": "330cecee0f4fe6bdca5ecb9b5e5acc23", "fusion_lon": 0.0, "bike_id": "330cecee0f4fe6bdca5ecb9b5e5acc23", "is_reserved": 0, "rental_uris": {"android": "https://dc.lft.to/lastmile_qr_scan", "ios": "https://dc.lft.to/lastmile_qr_scan"}, "lat": 38.921999166666666, "is_disabled": 0, "lon": -77.0297815}, {"fusion_lat": 0.0, "type": "electric_scooter", "name": "5f578028f384af1844638c6fe09ad4fa", "fusion_lon": 0.0, "bike_id": "5f578028f384af1844638c6fe09ad4fa", "is_reserved": 0, "rental_uris": {"android": "https://dc.lft.to/lastmile_qr_scan", "ios": "https://dc.lft.to/lastmile_qr_scan"}, "lat": 38.913405166666664, "is_disabled": 0, "lon": -77.00923516666667}, {"fusion_lat": 0.0, "type": "electric_scooter", "name": "01913e970426e148eb36f801de19b255", "fusion_lon": 0.0, "bike_id": "01913e970426e148eb36f801de19b255", "is_reserved": 0, "rental_uris": {"android": "https://dc.lft.to/lastmile_qr_scan", "ios": "https://dc.lft.to/lastmile_qr_scan"}, "lat": 38.916858833333336, "is_disabled": 0, "lon": -77.02952366666666}, {"fusion_lat": 0.0, "type": "electric_scooter", "name": "1dc58d381641745a16fbab8b4db6a19a", "fusion_lon": 0.0, "bike_id": "1dc58d381641745a16fbab8b4db6a19a", "is_reserved": 0, "rental_uris": {"android": "https://dc.lft.to/lastmile_qr_scan", "ios": "https://dc.lft.to/lastmile_qr_scan"}, "lat": 38.90544716666667, "is_disabled": 0, "lon": -77.05040566666666}, {"fusion_lat": 0.0, "type": "electric_bike", "name": "bb2ff17f5454631eae21d7915baf01ee", "fusion_lon": 0.0, "bike_id": "bb2ff17f5454631eae21d7915baf01ee", "is_reserved": 0, "rental_uris": {"android": "https://dc.lft.to/lastmile_qr_scan", "ios": "https://dc.lft.to/lastmile_qr_scan"}, "lat": 38.88048116666667, "is_disabled": 0, "lon": -77.0113055}, {"fusion_lat": 0.0, "type": "electric_scooter", "name": "3a15c374a7f82c543b395547b2c641c7", "fusion_lon": 0.0, "bike_id": "3a15c374a7f82c543b395547b2c641c7", "is_reserved": 0, "rental_uris": {"android": "https://dc.lft.to/lastmile_qr_scan", "ios": "https://dc.lft.to/lastmile_qr_scan"}, "lat": 38.93189483333333, "is_disabled": 0, "lon": -77.03830816666667}, {"fusion_lat": 0.0, "type": "electric_scooter", "name": "c8114deab55b5eb4138b6f77bc04aa64", "fusion_lon": 0.0, "bike_id": "c8114deab55b5eb4138b6f77bc04aa64", "is_reserved": 0, "rental_uris": {"android": "https://dc.lft.to/lastmile_qr_scan", "ios": "https://dc.lft.to/lastmile_qr_scan"}, "lat": 38.921494, "is_disabled": 0, "lon": -77.03880883333333}, {"fusion_lat": 0.0, "type": "electric_scooter", "name": "680d315022b1bbf56b1f2acdb17ced59", "fusion_lon": 0.0, "bike_id": "680d315022b1bbf56b1f2acdb17ced59", "is_reserved": 0, "rental_uris": {"android": "https://dc.lft.to/lastmile_qr_scan", "ios": "https://dc.lft.to/lastmile_qr_scan"}, "lat": 38.929133, "is_disabled": 0, "lon": -77.02192516666666}, {"fusion_lat": 0.0, "type": "electric_scooter", "name": "2b926e8908ab657ba26a30d03e865e64", "fusion_lon": 0.0, "bike_id": "2b926e8908ab657ba26a30d03e865e64", "is_reserved": 0, "rental_uris": {"android": "https://dc.lft.to/lastmile_qr_scan", "ios": "https://dc.lft.to/lastmile_qr_scan"}, "lat": 38.899108166666664, "is_disabled": 0, "lon": -76.9337455}, {"fusion_lat": 0.0, "type": "electric_scooter", "name": "52301700c180f945ff51033e2f59881a", "fusion_lon": 0.0, "bike_id": "52301700c180f945ff51033e2f59881a", "is_reserved": 0, "rental_uris": {"android": "https://dc.lft.to/lastmile_qr_scan", "ios": "https://dc.lft.to/lastmile_qr_scan"}, "lat": 38.914044, "is_disabled": 0, "lon": -77.0201845}, {"fusion_lat": 0.0, "type": "electric_scooter", "name": "4fe8773b0b47b09568b27382bbfcad9c", "fusion_lon": 0.0, "bike_id": "4fe8773b0b47b09568b27382bbfcad9c", "is_reserved": 0, "rental_uris": {"android": "https://dc.lft.to/lastmile_qr_scan", "ios": "https://dc.lft.to/lastmile_qr_scan"}, "lat": 38.896052833333336, "is_disabled": 0, "lon": -77.044723}, {"fusion_lat": 0.0, "type": "electric_scooter", "name": "7815f025ab66d20b3973526ad07a0a22", "fusion_lon": 0.0, "bike_id": "7815f025ab66d20b3973526ad07a0a22", "is_reserved": 0, "rental_uris": {"android": "https://dc.lft.to/lastmile_qr_scan", "ios": "https://dc.lft.to/lastmile_qr_scan"}, "lat": 38.91702333333333, "is_disabled": 0, "lon": -77.0239025}, {"fusion_lat": 0.0, "type": "electric_scooter", "name": "834688af2ce2a85d61bfd12f00a12379", "fusion_lon": 0.0, "bike_id": "834688af2ce2a85d61bfd12f00a12379", "is_reserved": 0, "rental_uris": {"android": "https://dc.lft.to/lastmile_qr_scan", "ios": "https://dc.lft.to/lastmile_qr_scan"}, "lat": 38.89747533333333, "is_disabled": 0, "lon": -77.04315333333334}, {"fusion_lat": 0.0, "type": "electric_bike", "name": "ce7136e6fe9085395b2fc67bc6804c64", "fusion_lon": 0.0, "bike_id": "ce7136e6fe9085395b2fc67bc6804c64", "is_reserved": 0, "rental_uris": {"android": "https://dc.lft.to/lastmile_qr_scan", "ios": "https://dc.lft.to/lastmile_qr_scan"}, "lat": 38.918918, "is_disabled": 0, "lon": -77.070385}, {"fusion_lat": 0.0, "type": "electric_scooter", "name": "aa11957a13d6e5867a9dd632bb4c15ea", "fusion_lon": 0.0, "bike_id": "aa11957a13d6e5867a9dd632bb4c15ea", "is_reserved": 0, "rental_uris": {"android": "https://dc.lft.to/lastmile_qr_scan", "ios": "https://dc.lft.to/lastmile_qr_scan"}, "lat": 38.92002466666667, "is_disabled": 0, "lon": -77.0321015}, {"fusion_lat": 0.0, "type": "electric_scooter", "name": "e2688646c33b969e6f67c277b506100e", "fusion_lon": 0.0, "bike_id": "e2688646c33b969e6f67c277b506100e", "is_reserved": 0, "rental_uris": {"android": "https://dc.lft.to/lastmile_qr_scan", "ios": "https://dc.lft.to/lastmile_qr_scan"}, "lat": 38.907289666666664, "is_disabled": 0, "lon": -77.031946}, {"fusion_lat": 0.0, "type": "electric_scooter", "name": "7613e5254c746166f5196894516f2fb6", "fusion_lon": 0.0, "bike_id": "7613e5254c746166f5196894516f2fb6", "is_reserved": 0, "rental_uris": {"android": "https://dc.lft.to/lastmile_qr_scan", "ios": "https://dc.lft.to/lastmile_qr_scan"}, "lat": 38.928717, "is_disabled": 0, "lon": -77.01373266666667}, {"fusion_lat": 0.0, "type": "electric_scooter", "name": "52e344f614fed56e66b00705e0d605e4", "fusion_lon": 0.0, "bike_id": "52e344f614fed56e66b00705e0d605e4", "is_reserved": 0, "rental_uris": {"android": "https://dc.lft.to/lastmile_qr_scan", "ios": "https://dc.lft.to/lastmile_qr_scan"}, "lat": 38.921348333333334, "is_disabled": 0, "lon": -77.03661916666667}, {"fusion_lat": 0.0, "type": "electric_scooter", "name": "ba66f2f602a431737a47758f79360e17", "fusion_lon": 0.0, "bike_id": "ba66f2f602a431737a47758f79360e17", "is_reserved": 0, "rental_uris": {"android": "https://dc.lft.to/lastmile_qr_scan", "ios": "https://dc.lft.to/lastmile_qr_scan"}, "lat": 38.88052666666667, "is_disabled": 0, "lon": -76.932225}, {"fusion_lat": 0.0, "type": "electric_scooter", "name": "ecb78eea873fa97ac184bec589df10d1", "fusion_lon": 0.0, "bike_id": "ecb78eea873fa97ac184bec589df10d1", "is_reserved": 0, "rental_uris": {"android": "https://dc.lft.to/lastmile_qr_scan", "ios": "https://dc.lft.to/lastmile_qr_scan"}, "lat": 38.862582333333336, "is_disabled": 0, "lon": -76.99608633333334}, {"fusion_lat": 0.0, "type": "electric_scooter", "name": "e0865103a189802895d5a29daf7b79ae", "fusion_lon": 0.0, "bike_id": "e0865103a189802895d5a29daf7b79ae", "is_reserved": 0, "rental_uris": {"android": "https://dc.lft.to/lastmile_qr_scan", "ios": "https://dc.lft.to/lastmile_qr_scan"}, "lat": 38.911335, "is_disabled": 0, "lon": -77.02692383333333}, {"fusion_lat": 0.0, "type": "electric_scooter", "name": "4040bd319ce59ae9fd9e541a1701472c", "fusion_lon": 0.0, "bike_id": "4040bd319ce59ae9fd9e541a1701472c", "is_reserved": 0, "rental_uris": {"android": "https://dc.lft.to/lastmile_qr_scan", "ios": "https://dc.lft.to/lastmile_qr_scan"}, "lat": 38.89715833333333, "is_disabled": 0, "lon": -77.02695866666667}, {"fusion_lat": 0.0, "type": "electric_scooter", "name": "143db69b0bf9dd576be6fe05a0739c1a", "fusion_lon": 0.0, "bike_id": "143db69b0bf9dd576be6fe05a0739c1a", "is_reserved": 0, "rental_uris": {"android": "https://dc.lft.to/lastmile_qr_scan", "ios": "https://dc.lft.to/lastmile_qr_scan"}, "lat": 38.90648783333334, "is_disabled": 0, "lon": -77.04877183333333}, {"fusion_lat": 0.0, "type": "electric_scooter", "name": "b4e24a5912f84bf027c3aceb2c564835", "fusion_lon": 0.0, "bike_id": "b4e24a5912f84bf027c3aceb2c564835", "is_reserved": 0, "rental_uris": {"android": "https://dc.lft.to/lastmile_qr_scan", "ios": "https://dc.lft.to/lastmile_qr_scan"}, "lat": 38.921733, "is_disabled": 0, "lon": -77.03271416666666}, {"fusion_lat": 0.0, "type": "electric_scooter", "name": "318a4acae58e8656760cabe8c335ff55", "fusion_lon": 0.0, "bike_id": "318a4acae58e8656760cabe8c335ff55", "is_reserved": 0, "rental_uris": {"android": "https://dc.lft.to/lastmile_qr_scan", "ios": "https://dc.lft.to/lastmile_qr_scan"}, "lat": 38.92108066666667, "is_disabled": 0, "lon": -77.0333275}, {"fusion_lat": 0.0, "type": "electric_scooter", "name": "b8c27ba73d7b84282fc08e5931486424", "fusion_lon": 0.0, "bike_id": "b8c27ba73d7b84282fc08e5931486424", "is_reserved": 0, "rental_uris": {"android": "https://dc.lft.to/lastmile_qr_scan", "ios": "https://dc.lft.to/lastmile_qr_scan"}, "lat": 38.9190905, "is_disabled": 0, "lon": -77.03442266666667}, {"fusion_lat": 0.0, "type": "electric_scooter", "name": "5b910ac2c7593602333725d97052b5b7", "fusion_lon": 0.0, "bike_id": "5b910ac2c7593602333725d97052b5b7", "is_reserved": 0, "rental_uris": {"android": "https://dc.lft.to/lastmile_qr_scan", "ios": "https://dc.lft.to/lastmile_qr_scan"}, "lat": 38.86652183333333, "is_disabled": 0, "lon": -76.98529066666667}, {"fusion_lat": 0.0, "type": "electric_scooter", "name": "135fea332587c0defdbf554e1a3722e4", "fusion_lon": 0.0, "bike_id": "135fea332587c0defdbf554e1a3722e4", "is_reserved": 0, "rental_uris": {"android": "https://dc.lft.to/lastmile_qr_scan", "ios": "https://dc.lft.to/lastmile_qr_scan"}, "lat": 38.9568485, "is_disabled": 0, "lon": -77.0326485}, {"fusion_lat": 0.0, "type": "electric_scooter", "name": "99e5a1ac295aeba2ac58d345874904e7", "fusion_lon": 0.0, "bike_id": "99e5a1ac295aeba2ac58d345874904e7", "is_reserved": 0, "rental_uris": {"android": "https://dc.lft.to/lastmile_qr_scan", "ios": "https://dc.lft.to/lastmile_qr_scan"}, "lat": 38.87456316666667, "is_disabled": 0, "lon": -77.0054385}, {"fusion_lat": 0.0, "type": "electric_scooter", "name": "0e6cdb528385b746b0d3e979075a5609", "fusion_lon": 0.0, "bike_id": "0e6cdb528385b746b0d3e979075a5609", "is_reserved": 0, "rental_uris": {"android": "https://dc.lft.to/lastmile_qr_scan", "ios": "https://dc.lft.to/lastmile_qr_scan"}, "lat": 38.934, "is_disabled": 0, "lon": -77.02210916666667}, {"fusion_lat": 0.0, "type": "electric_scooter", "name": "df3f06da8b958d08ebb7d28ba49a6682", "fusion_lon": 0.0, "bike_id": "df3f06da8b958d08ebb7d28ba49a6682", "is_reserved": 0, "rental_uris": {"android": "https://dc.lft.to/lastmile_qr_scan", "ios": "https://dc.lft.to/lastmile_qr_scan"}, "lat": 38.863699, "is_disabled": 0, "lon": -76.99057416666666}, {"fusion_lat": 0.0, "type": "electric_scooter", "name": "a5378936a4020ea99524c9a04be1674b", "fusion_lon": 0.0, "bike_id": "a5378936a4020ea99524c9a04be1674b", "is_reserved": 0, "rental_uris": {"android": "https://dc.lft.to/lastmile_qr_scan", "ios": "https://dc.lft.to/lastmile_qr_scan"}, "lat": 38.89294783333333, "is_disabled": 0, "lon": -77.01233}, {"fusion_lat": 0.0, "type": "electric_scooter", "name": "88bd36320250e6faa1d5cf95138a96be", "fusion_lon": 0.0, "bike_id": "88bd36320250e6faa1d5cf95138a96be", "is_reserved": 0, "rental_uris": {"android": "https://dc.lft.to/lastmile_qr_scan", "ios": "https://dc.lft.to/lastmile_qr_scan"}, "lat": 38.9248655, "is_disabled": 0, "lon": -77.057576}, {"fusion_lat": 0.0, "type": "electric_scooter", "name": "dc44cfcc845795a6ce044c33f031d6ba", "fusion_lon": 0.0, "bike_id": "dc44cfcc845795a6ce044c33f031d6ba", "is_reserved": 0, "rental_uris": {"android": "https://dc.lft.to/lastmile_qr_scan", "ios": "https://dc.lft.to/lastmile_qr_scan"}, "lat": 38.926466, "is_disabled": 0, "lon": -77.03471033333334}, {"fusion_lat": 0.0, "type": "electric_scooter", "name": "e4a15748d2a103a3cf7d5618364c9e7c", "fusion_lon": 0.0, "bike_id": "e4a15748d2a103a3cf7d5618364c9e7c", "is_reserved": 0, "rental_uris": {"android": "https://dc.lft.to/lastmile_qr_scan", "ios": "https://dc.lft.to/lastmile_qr_scan"}, "lat": 38.89252833333333, "is_disabled": 0, "lon": -77.04662366666666}, {"fusion_lat": 0.0, "type": "electric_scooter", "name": "e4c5736edc915d807ee20f775ff03a91", "fusion_lon": 0.0, "bike_id": "e4c5736edc915d807ee20f775ff03a91", "is_reserved": 0, "rental_uris": {"android": "https://dc.lft.to/lastmile_qr_scan", "ios": "https://dc.lft.to/lastmile_qr_scan"}, "lat": 38.94124216666667, "is_disabled": 0, "lon": -77.015354}, {"fusion_lat": 0.0, "type": "electric_scooter", "name": "228c948393d76ede0652ecb46b07261b", "fusion_lon": 0.0, "bike_id": "228c948393d76ede0652ecb46b07261b", "is_reserved": 0, "rental_uris": {"android": "https://dc.lft.to/lastmile_qr_scan", "ios": "https://dc.lft.to/lastmile_qr_scan"}, "lat": 38.918685833333335, "is_disabled": 0, "lon": -77.04829583333333}, {"fusion_lat": 0.0, "type": "electric_scooter", "name": "6c338ce9552e5a8c8cf8ed1ceabbd211", "fusion_lon": 0.0, "bike_id": "6c338ce9552e5a8c8cf8ed1ceabbd211", "is_reserved": 0, "rental_uris": {"android": "https://dc.lft.to/lastmile_qr_scan", "ios": "https://dc.lft.to/lastmile_qr_scan"}, "lat": 38.9057605, "is_disabled": 0, "lon": -77.02593366666666}, {"fusion_lat": 0.0, "type": "electric_scooter", "name": "68b2cd86ad2ef147db6155d9e6361d22", "fusion_lon": 0.0, "bike_id": "68b2cd86ad2ef147db6155d9e6361d22", "is_reserved": 0, "rental_uris": {"android": "https://dc.lft.to/lastmile_qr_scan", "ios": "https://dc.lft.to/lastmile_qr_scan"}, "lat": 38.9662575, "is_disabled": 0, "lon": -77.03507116666667}, {"fusion_lat": 0.0, "type": "electric_scooter", "name": "b747d5cad8bf88392ccc5d25280ea091", "fusion_lon": 0.0, "bike_id": "b747d5cad8bf88392ccc5d25280ea091", "is_reserved": 0, "rental_uris": {"android": "https://dc.lft.to/lastmile_qr_scan", "ios": "https://dc.lft.to/lastmile_qr_scan"}, "lat": 38.921615833333334, "is_disabled": 0, "lon": -77.03380383333334}, {"fusion_lat": 0.0, "type": "electric_scooter", "name": "d2169d70080dad7611d64060f1c786eb", "fusion_lon": 0.0, "bike_id": "d2169d70080dad7611d64060f1c786eb", "is_reserved": 0, "rental_uris": {"android": "https://dc.lft.to/lastmile_qr_scan", "ios": "https://dc.lft.to/lastmile_qr_scan"}, "lat": 38.927936333333335, "is_disabled": 0, "lon": -77.02120516666666}, {"fusion_lat": 0.0, "type": "electric_scooter", "name": "5fb968b0d9bbec418a4d0f6f7c589477", "fusion_lon": 0.0, "bike_id": "5fb968b0d9bbec418a4d0f6f7c589477", "is_reserved": 0, "rental_uris": {"android": "https://dc.lft.to/lastmile_qr_scan", "ios": "https://dc.lft.to/lastmile_qr_scan"}, "lat": 38.91942233333333, "is_disabled": 0, "lon": -77.02289516666667}, {"fusion_lat": 0.0, "type": "electric_scooter", "name": "b18ad40d2e7f8468b696045b0c71b54c", "fusion_lon": 0.0, "bike_id": "b18ad40d2e7f8468b696045b0c71b54c", "is_reserved": 0, "rental_uris": {"android": "https://dc.lft.to/lastmile_qr_scan", "ios": "https://dc.lft.to/lastmile_qr_scan"}, "lat": 38.93878, "is_disabled": 0, "lon": -77.02376333333333}, {"fusion_lat": 0.0, "type": "electric_bike", "name": "2dafe73fd22b569f775ef4860ffe715c", "fusion_lon": 0.0, "bike_id": "2dafe73fd22b569f775ef4860ffe715c", "is_reserved": 0, "rental_uris": {"android": "https://dc.lft.to/lastmile_qr_scan", "ios": "https://dc.lft.to/lastmile_qr_scan"}, "lat": 38.857722833333334, "is_disabled": 0, "lon": -76.98770283333333}, {"fusion_lat": 0.0, "type": "electric_bike", "name": "633b7cab2c62a3e7387d2a8e363182b4", "fusion_lon": 0.0, "bike_id": "633b7cab2c62a3e7387d2a8e363182b4", "is_reserved": 0, "rental_uris": {"android": "https://dc.lft.to/lastmile_qr_scan", "ios": "https://dc.lft.to/lastmile_qr_scan"}, "lat": 38.8544075, "is_disabled": 0, "lon": -77.08328016666667}, {"fusion_lat": 0.0, "type": "electric_scooter", "name": "6491a16901198581f4ad1e609d736367", "fusion_lon": 0.0, "bike_id": "6491a16901198581f4ad1e609d736367", "is_reserved": 0, "rental_uris": {"android": "https://dc.lft.to/lastmile_qr_scan", "ios": "https://dc.lft.to/lastmile_qr_scan"}, "lat": 38.886855833333335, "is_disabled": 0, "lon": -76.95466266666666}, {"fusion_lat": 0.0, "type": "electric_scooter", "name": "a2c8c6c7028c3a6bfa598e257a32317e", "fusion_lon": 0.0, "bike_id": "a2c8c6c7028c3a6bfa598e257a32317e", "is_reserved": 0, "rental_uris": {"android": "https://dc.lft.to/lastmile_qr_scan", "ios": "https://dc.lft.to/lastmile_qr_scan"}, "lat": 38.908860833333335, "is_disabled": 0, "lon": -76.985412}, {"fusion_lat": 0.0, "type": "electric_scooter", "name": "02c40976fde526874a07abe6f4d23247", "fusion_lon": 0.0, "bike_id": "02c40976fde526874a07abe6f4d23247", "is_reserved": 0, "rental_uris": {"android": "https://dc.lft.to/lastmile_qr_scan", "ios": "https://dc.lft.to/lastmile_qr_scan"}, "lat": 38.86503033333334, "is_disabled": 0, "lon": -76.99001683333333}, {"fusion_lat": 0.0, "type": "electric_scooter", "name": "3e48a671baa55dd1d89f6575b4b9f59a", "fusion_lon": 0.0, "bike_id": "3e48a671baa55dd1d89f6575b4b9f59a", "is_reserved": 0, "rental_uris": {"android": "https://dc.lft.to/lastmile_qr_scan", "ios": "https://dc.lft.to/lastmile_qr_scan"}, "lat": 38.88744166666667, "is_disabled": 0, "lon": -77.02733483333333}, {"fusion_lat": 0.0, "type": "electric_scooter", "name": "9cc7c33e3939fdd2e7fd70208a519637", "fusion_lon": 0.0, "bike_id": "9cc7c33e3939fdd2e7fd70208a519637", "is_reserved": 0, "rental_uris": {"android": "https://dc.lft.to/lastmile_qr_scan", "ios": "https://dc.lft.to/lastmile_qr_scan"}, "lat": 38.92984916666666, "is_disabled": 0, "lon": -77.03656766666667}, {"fusion_lat": 0.0, "type": "electric_scooter", "name": "42fd863b3860e07e46436f685fb899ab", "fusion_lon": 0.0, "bike_id": "42fd863b3860e07e46436f685fb899ab", "is_reserved": 0, "rental_uris": {"android": "https://dc.lft.to/lastmile_qr_scan", "ios": "https://dc.lft.to/lastmile_qr_scan"}, "lat": 38.892222333333336, "is_disabled": 0, "lon": -77.03145}, {"fusion_lat": 0.0, "type": "electric_scooter", "name": "8ecbe43a680e46612690867f789ef4ae", "fusion_lon": 0.0, "bike_id": "8ecbe43a680e46612690867f789ef4ae", "is_reserved": 0, "rental_uris": {"android": "https://dc.lft.to/lastmile_qr_scan", "ios": "https://dc.lft.to/lastmile_qr_scan"}, "lat": 38.925805833333335, "is_disabled": 0, "lon": -77.02613033333333}, {"fusion_lat": 0.0, "type": "electric_scooter", "name": "14f636f195304585e3a61a1b90962521", "fusion_lon": 0.0, "bike_id": "14f636f195304585e3a61a1b90962521", "is_reserved": 0, "rental_uris": {"android": "https://dc.lft.to/lastmile_qr_scan", "ios": "https://dc.lft.to/lastmile_qr_scan"}, "lat": 38.907339, "is_disabled": 0, "lon": -77.03180966666666}, {"fusion_lat": 0.0, "type": "electric_scooter", "name": "dbfb587de8f7ebc6958ec2563066a2b6", "fusion_lon": 0.0, "bike_id": "dbfb587de8f7ebc6958ec2563066a2b6", "is_reserved": 0, "rental_uris": {"android": "https://dc.lft.to/lastmile_qr_scan", "ios": "https://dc.lft.to/lastmile_qr_scan"}, "lat": 38.910564, "is_disabled": 0, "lon": -77.05319183333333}, {"fusion_lat": 0.0, "type": "electric_scooter", "name": "db87fbc88173593423b894ed9ec03335", "fusion_lon": 0.0, "bike_id": "db87fbc88173593423b894ed9ec03335", "is_reserved": 0, "rental_uris": {"android": "https://dc.lft.to/lastmile_qr_scan", "ios": "https://dc.lft.to/lastmile_qr_scan"}, "lat": 38.930871833333335, "is_disabled": 0, "lon": -77.03761416666667}, {"fusion_lat": 0.0, "type": "electric_scooter", "name": "715bb1e4e6f53f87c63d57bcf5415aa1", "fusion_lon": 0.0, "bike_id": "715bb1e4e6f53f87c63d57bcf5415aa1", "is_reserved": 0, "rental_uris": {"android": "https://dc.lft.to/lastmile_qr_scan", "ios": "https://dc.lft.to/lastmile_qr_scan"}, "lat": 38.834929833333334, "is_disabled": 0, "lon": -77.00676733333333}, {"fusion_lat": 0.0, "type": "electric_scooter", "name": "e2d85fb36d66032da3546150f7862e6d", "fusion_lon": 0.0, "bike_id": "e2d85fb36d66032da3546150f7862e6d", "is_reserved": 0, "rental_uris": {"android": "https://dc.lft.to/lastmile_qr_scan", "ios": "https://dc.lft.to/lastmile_qr_scan"}, "lat": 38.894914666666665, "is_disabled": 0, "lon": -77.01092133333333}, {"fusion_lat": 0.0, "type": "electric_bike", "name": "fec40420113e05b2911b28f2e9982a30", "fusion_lon": 0.0, "bike_id": "fec40420113e05b2911b28f2e9982a30", "is_reserved": 0, "rental_uris": {"android": "https://dc.lft.to/lastmile_qr_scan", "ios": "https://dc.lft.to/lastmile_qr_scan"}, "lat": 38.842690833333336, "is_disabled": 0, "lon": -76.98845083333333}, {"fusion_lat": 0.0, "type": "electric_scooter", "name": "9594ec8d0620cb98b73ecd9e7686a783", "fusion_lon": 0.0, "bike_id": "9594ec8d0620cb98b73ecd9e7686a783", "is_reserved": 0, "rental_uris": {"android": "https://dc.lft.to/lastmile_qr_scan", "ios": "https://dc.lft.to/lastmile_qr_scan"}, "lat": 38.8901615, "is_disabled": 0, "lon": -76.93734833333333}, {"fusion_lat": 0.0, "type": "electric_scooter", "name": "eafdf7b6f7aec08a056bf1aa686346c0", "fusion_lon": 0.0, "bike_id": "eafdf7b6f7aec08a056bf1aa686346c0", "is_reserved": 0, "rental_uris": {"android": "https://dc.lft.to/lastmile_qr_scan", "ios": "https://dc.lft.to/lastmile_qr_scan"}, "lat": 38.918661166666666, "is_disabled": 0, "lon": -77.04176516666666}, {"fusion_lat": 0.0, "type": "electric_scooter", "name": "14e1545923ed4f783a715180df7024f4", "fusion_lon": 0.0, "bike_id": "14e1545923ed4f783a715180df7024f4", "is_reserved": 0, "rental_uris": {"android": "https://dc.lft.to/lastmile_qr_scan", "ios": "https://dc.lft.to/lastmile_qr_scan"}, "lat": 38.881421, "is_disabled": 0, "lon": -76.99494383333334}, {"fusion_lat": 0.0, "type": "electric_bike", "name": "11145637d89bdc3993ac6b76df262c9a", "fusion_lon": 0.0, "bike_id": "11145637d89bdc3993ac6b76df262c9a", "is_reserved": 0, "rental_uris": {"android": "https://dc.lft.to/lastmile_qr_scan", "ios": "https://dc.lft.to/lastmile_qr_scan"}, "lat": 38.9367985, "is_disabled": 0, "lon": -77.03333816666667}, {"fusion_lat": 0.0, "type": "electric_bike", "name": "c3f23cbc95d61b5d0d06c052cee89289", "fusion_lon": 0.0, "bike_id": "c3f23cbc95d61b5d0d06c052cee89289", "is_reserved": 0, "rental_uris": {"android": "https://dc.lft.to/lastmile_qr_scan", "ios": "https://dc.lft.to/lastmile_qr_scan"}, "lat": 38.911744166666665, "is_disabled": 0, "lon": -77.08814066666666}, {"fusion_lat": 0.0, "type": "electric_bike", "name": "fd258955bf12e0775b0980651a279b10", "fusion_lon": 0.0, "bike_id": "fd258955bf12e0775b0980651a279b10", "is_reserved": 0, "rental_uris": {"android": "https://dc.lft.to/lastmile_qr_scan", "ios": "https://dc.lft.to/lastmile_qr_scan"}, "lat": 38.97689233333333, "is_disabled": 0, "lon": -77.09304333333333}, {"fusion_lat": 0.0, "type": "electric_scooter", "name": "e619a4c491a01ba0ffdf5c252e321618", "fusion_lon": 0.0, "bike_id": "e619a4c491a01ba0ffdf5c252e321618", "is_reserved": 0, "rental_uris": {"android": "https://dc.lft.to/lastmile_qr_scan", "ios": "https://dc.lft.to/lastmile_qr_scan"}, "lat": 38.900385166666666, "is_disabled": 0, "lon": -77.0320135}, {"fusion_lat": 0.0, "type": "electric_scooter", "name": "41ea147bc2ded9870ca03d308b307150", "fusion_lon": 0.0, "bike_id": "41ea147bc2ded9870ca03d308b307150", "is_reserved": 0, "rental_uris": {"android": "https://dc.lft.to/lastmile_qr_scan", "ios": "https://dc.lft.to/lastmile_qr_scan"}, "lat": 38.899129, "is_disabled": 0, "lon": -76.93369216666666}, {"fusion_lat": 0.0, "type": "electric_scooter", "name": "da96100509281427a7e3b1145e622e77", "fusion_lon": 0.0, "bike_id": "da96100509281427a7e3b1145e622e77", "is_reserved": 0, "rental_uris": {"android": "https://dc.lft.to/lastmile_qr_scan", "ios": "https://dc.lft.to/lastmile_qr_scan"}, "lat": 38.91913683333333, "is_disabled": 0, "lon": -77.02404933333334}, {"fusion_lat": 0.0, "type": "electric_scooter", "name": "2b021a46d101d0689a1a40077392accc", "fusion_lon": 0.0, "bike_id": "2b021a46d101d0689a1a40077392accc", "is_reserved": 0, "rental_uris": {"android": "https://dc.lft.to/lastmile_qr_scan", "ios": "https://dc.lft.to/lastmile_qr_scan"}, "lat": 38.9103605, "is_disabled": 0, "lon": -77.04099066666667}, {"fusion_lat": 0.0, "type": "electric_scooter", "name": "d3be713d59ab43bdc5267bdd86099b86", "fusion_lon": 0.0, "bike_id": "d3be713d59ab43bdc5267bdd86099b86", "is_reserved": 0, "rental_uris": {"android": "https://dc.lft.to/lastmile_qr_scan", "ios": "https://dc.lft.to/lastmile_qr_scan"}, "lat": 38.892237333333334, "is_disabled": 0, "lon": -77.0487005}, {"fusion_lat": 0.0, "type": "electric_bike", "name": "214143203ce9373a19bf8622fcbbe2c3", "fusion_lon": 0.0, "bike_id": "214143203ce9373a19bf8622fcbbe2c3", "is_reserved": 0, "rental_uris": {"android": "https://dc.lft.to/lastmile_qr_scan", "ios": "https://dc.lft.to/lastmile_qr_scan"}, "lat": 38.9363135, "is_disabled": 0, "lon": -77.03333333333333}, {"fusion_lat": 0.0, "type": "electric_scooter", "name": "6cd2e3a50d0c7ed89e3cd6b4d6cdefbb", "fusion_lon": 0.0, "bike_id": "6cd2e3a50d0c7ed89e3cd6b4d6cdefbb", "is_reserved": 0, "rental_uris": {"android": "https://dc.lft.to/lastmile_qr_scan", "ios": "https://dc.lft.to/lastmile_qr_scan"}, "lat": 38.908623, "is_disabled": 0, "lon": -77.043052}, {"fusion_lat": 0.0, "type": "electric_scooter", "name": "a959c4d8da42e81b465a58a51bb90d08", "fusion_lon": 0.0, "bike_id": "a959c4d8da42e81b465a58a51bb90d08", "is_reserved": 0, "rental_uris": {"android": "https://dc.lft.to/lastmile_qr_scan", "ios": "https://dc.lft.to/lastmile_qr_scan"}, "lat": 38.921476, "is_disabled": 0, "lon": -77.03379083333333}, {"fusion_lat": 0.0, "type": "electric_scooter", "name": "9d087ff3b4b6b6d789533e7a19d60ca4", "fusion_lon": 0.0, "bike_id": "9d087ff3b4b6b6d789533e7a19d60ca4", "is_reserved": 0, "rental_uris": {"android": "https://dc.lft.to/lastmile_qr_scan", "ios": "https://dc.lft.to/lastmile_qr_scan"}, "lat": 38.92448316666667, "is_disabled": 0, "lon": -77.057611}, {"fusion_lat": 0.0, "type": "electric_scooter", "name": "df22fa656c52d9b2b05ce6c59a40179e", "fusion_lon": 0.0, "bike_id": "df22fa656c52d9b2b05ce6c59a40179e", "is_reserved": 0, "rental_uris": {"android": "https://dc.lft.to/lastmile_qr_scan", "ios": "https://dc.lft.to/lastmile_qr_scan"}, "lat": 38.914492833333334, "is_disabled": 0, "lon": -77.06713583333334}, {"fusion_lat": 0.0, "type": "electric_scooter", "name": "18d03836722f62751a91ccea53e73732", "fusion_lon": 0.0, "bike_id": "18d03836722f62751a91ccea53e73732", "is_reserved": 0, "rental_uris": {"android": "https://dc.lft.to/lastmile_qr_scan", "ios": "https://dc.lft.to/lastmile_qr_scan"}, "lat": 38.92551233333333, "is_disabled": 0, "lon": -77.02961316666666}, {"fusion_lat": 0.0, "type": "electric_scooter", "name": "8c818a113dab43ddb37c28f98887e919", "fusion_lon": 0.0, "bike_id": "8c818a113dab43ddb37c28f98887e919", "is_reserved": 0, "rental_uris": {"android": "https://dc.lft.to/lastmile_qr_scan", "ios": "https://dc.lft.to/lastmile_qr_scan"}, "lat": 38.911238, "is_disabled": 0, "lon": -77.04367116666667}, {"fusion_lat": 0.0, "type": "electric_scooter", "name": "aef27b4a81a9e0e5b7b9e2011cc9fcf2", "fusion_lon": 0.0, "bike_id": "aef27b4a81a9e0e5b7b9e2011cc9fcf2", "is_reserved": 0, "rental_uris": {"android": "https://dc.lft.to/lastmile_qr_scan", "ios": "https://dc.lft.to/lastmile_qr_scan"}, "lat": 38.912739333333334, "is_disabled": 0, "lon": -77.04757883333333}, {"fusion_lat": 0.0, "type": "electric_bike", "name": "8b9bad6812b232e24563ad7aa8443212", "fusion_lon": 0.0, "bike_id": "8b9bad6812b232e24563ad7aa8443212", "is_reserved": 0, "rental_uris": {"android": "https://dc.lft.to/lastmile_qr_scan", "ios": "https://dc.lft.to/lastmile_qr_scan"}, "lat": 39.05785983333333, "is_disabled": 0, "lon": -77.15022716666667}, {"fusion_lat": 0.0, "type": "electric_scooter", "name": "c78a2cc962b2edf4dd91de8204f71b25", "fusion_lon": 0.0, "bike_id": "c78a2cc962b2edf4dd91de8204f71b25", "is_reserved": 0, "rental_uris": {"android": "https://dc.lft.to/lastmile_qr_scan", "ios": "https://dc.lft.to/lastmile_qr_scan"}, "lat": 38.912716333333336, "is_disabled": 0, "lon": -77.04424766666666}, {"fusion_lat": 0.0, "type": "electric_scooter", "name": "16c164338976da35debabd84f5728881", "fusion_lon": 0.0, "bike_id": "16c164338976da35debabd84f5728881", "is_reserved": 0, "rental_uris": {"android": "https://dc.lft.to/lastmile_qr_scan", "ios": "https://dc.lft.to/lastmile_qr_scan"}, "lat": 38.933790333333334, "is_disabled": 0, "lon": -77.0296595}, {"fusion_lat": 0.0, "type": "electric_scooter", "name": "e802a1e31920ad88e1d8690ce1202973", "fusion_lon": 0.0, "bike_id": "e802a1e31920ad88e1d8690ce1202973", "is_reserved": 0, "rental_uris": {"android": "https://dc.lft.to/lastmile_qr_scan", "ios": "https://dc.lft.to/lastmile_qr_scan"}, "lat": 38.91705066666667, "is_disabled": 0, "lon": -77.03422366666666}, {"fusion_lat": 0.0, "type": "electric_scooter", "name": "d0c34ea3bd52913cc1b08a651c3ec058", "fusion_lon": 0.0, "bike_id": "d0c34ea3bd52913cc1b08a651c3ec058", "is_reserved": 0, "rental_uris": {"android": "https://dc.lft.to/lastmile_qr_scan", "ios": "https://dc.lft.to/lastmile_qr_scan"}, "lat": 38.92582016666667, "is_disabled": 0, "lon": -77.03988733333334}, {"fusion_lat": 0.0, "type": "electric_scooter", "name": "84cdce827bca9558d8dd91042e4f9284", "fusion_lon": 0.0, "bike_id": "84cdce827bca9558d8dd91042e4f9284", "is_reserved": 0, "rental_uris": {"android": "https://dc.lft.to/lastmile_qr_scan", "ios": "https://dc.lft.to/lastmile_qr_scan"}, "lat": 38.92882066666667, "is_disabled": 0, "lon": -77.03661433333333}, {"fusion_lat": 0.0, "type": "electric_scooter", "name": "6e2b3aeab61eecac6201bd4426eea03d", "fusion_lon": 0.0, "bike_id": "6e2b3aeab61eecac6201bd4426eea03d", "is_reserved": 0, "rental_uris": {"android": "https://dc.lft.to/lastmile_qr_scan", "ios": "https://dc.lft.to/lastmile_qr_scan"}, "lat": 38.92423633333333, "is_disabled": 0, "lon": -77.05179116666666}, {"fusion_lat": 0.0, "type": "electric_bike", "name": "f1bea8e142c06a40dec781668dc02397", "fusion_lon": 0.0, "bike_id": "f1bea8e142c06a40dec781668dc02397", "is_reserved": 0, "rental_uris": {"android": "https://dc.lft.to/lastmile_qr_scan", "ios": "https://dc.lft.to/lastmile_qr_scan"}, "lat": 38.968993, "is_disabled": 0, "lon": -76.99491866666666}, {"fusion_lat": 0.0, "type": "electric_scooter", "name": "a941337d9136608742b1b8ecf57c8ce7", "fusion_lon": 0.0, "bike_id": "a941337d9136608742b1b8ecf57c8ce7", "is_reserved": 0, "rental_uris": {"android": "https://dc.lft.to/lastmile_qr_scan", "ios": "https://dc.lft.to/lastmile_qr_scan"}, "lat": 38.934449, "is_disabled": 0, "lon": -77.029837}, {"fusion_lat": 0.0, "type": "electric_scooter", "name": "b47dfe46075937516aa869ac6c894a59", "fusion_lon": 0.0, "bike_id": "b47dfe46075937516aa869ac6c894a59", "is_reserved": 0, "rental_uris": {"android": "https://dc.lft.to/lastmile_qr_scan", "ios": "https://dc.lft.to/lastmile_qr_scan"}, "lat": 38.908726333333334, "is_disabled": 0, "lon": -77.08595683333333}, {"fusion_lat": 0.0, "type": "electric_scooter", "name": "4a6ab9a57bfee023c63b292670054149", "fusion_lon": 0.0, "bike_id": "4a6ab9a57bfee023c63b292670054149", "is_reserved": 0, "rental_uris": {"android": "https://dc.lft.to/lastmile_qr_scan", "ios": "https://dc.lft.to/lastmile_qr_scan"}, "lat": 38.92344216666667, "is_disabled": 0, "lon": -77.03417033333334}, {"fusion_lat": 0.0, "type": "electric_bike", "name": "9b98b2a1928f7fba999f38f1358cb699", "fusion_lon": 0.0, "bike_id": "9b98b2a1928f7fba999f38f1358cb699", "is_reserved": 0, "rental_uris": {"android": "https://dc.lft.to/lastmile_qr_scan", "ios": "https://dc.lft.to/lastmile_qr_scan"}, "lat": 38.866207, "is_disabled": 0, "lon": -76.94573366666667}, {"fusion_lat": 0.0, "type": "electric_bike", "name": "cab9f9cc92041f26cbcce39490f41a46", "fusion_lon": 0.0, "bike_id": "cab9f9cc92041f26cbcce39490f41a46", "is_reserved": 0, "rental_uris": {"android": "https://dc.lft.to/lastmile_qr_scan", "ios": "https://dc.lft.to/lastmile_qr_scan"}, "lat": 38.963187166666664, "is_disabled": 0, "lon": -76.97358283333334}, {"fusion_lat": 0.0, "type": "electric_scooter", "name": "922aacb9b2b5a2c028ecc6030954a00e", "fusion_lon": 0.0, "bike_id": "922aacb9b2b5a2c028ecc6030954a00e", "is_reserved": 0, "rental_uris": {"android": "https://dc.lft.to/lastmile_qr_scan", "ios": "https://dc.lft.to/lastmile_qr_scan"}, "lat": 38.922464, "is_disabled": 0, "lon": -77.0308055}, {"fusion_lat": 0.0, "type": "electric_scooter", "name": "b531f13361a2ac1e0a1ee1dd630f4c98", "fusion_lon": 0.0, "bike_id": "b531f13361a2ac1e0a1ee1dd630f4c98", "is_reserved": 0, "rental_uris": {"android": "https://dc.lft.to/lastmile_qr_scan", "ios": "https://dc.lft.to/lastmile_qr_scan"}, "lat": 38.920529333333334, "is_disabled": 0, "lon": -77.03390133333333}, {"fusion_lat": 0.0, "type": "electric_scooter", "name": "8769aa201ed0035356b4750b010374c0", "fusion_lon": 0.0, "bike_id": "8769aa201ed0035356b4750b010374c0", "is_reserved": 0, "rental_uris": {"android": "https://dc.lft.to/lastmile_qr_scan", "ios": "https://dc.lft.to/lastmile_qr_scan"}, "lat": 38.898422, "is_disabled": 0, "lon": -76.946428}, {"fusion_lat": 0.0, "type": "electric_scooter", "name": "04d7f8f5e117c327d4300a3dea82f9d6", "fusion_lon": 0.0, "bike_id": "04d7f8f5e117c327d4300a3dea82f9d6", "is_reserved": 0, "rental_uris": {"android": "https://dc.lft.to/lastmile_qr_scan", "ios": "https://dc.lft.to/lastmile_qr_scan"}, "lat": 38.88917216666667, "is_disabled": 0, "lon": -76.9913505}, {"fusion_lat": 0.0, "type": "electric_bike", "name": "26f4edcad316a367643ec58eca07fe91", "fusion_lon": 0.0, "bike_id": "26f4edcad316a367643ec58eca07fe91", "is_reserved": 0, "rental_uris": {"android": "https://dc.lft.to/lastmile_qr_scan", "ios": "https://dc.lft.to/lastmile_qr_scan"}, "lat": 38.973930333333335, "is_disabled": 0, "lon": -77.06455483333333}, {"fusion_lat": 0.0, "type": "electric_scooter", "name": "b7b827a28879f103bc150e6f704114dc", "fusion_lon": 0.0, "bike_id": "b7b827a28879f103bc150e6f704114dc", "is_reserved": 0, "rental_uris": {"android": "https://dc.lft.to/lastmile_qr_scan", "ios": "https://dc.lft.to/lastmile_qr_scan"}, "lat": 38.917542, "is_disabled": 0, "lon": -77.01498983333333}, {"fusion_lat": 0.0, "type": "electric_scooter", "name": "9f25038a040d3cdf9a524b3b0e985453", "fusion_lon": 0.0, "bike_id": "9f25038a040d3cdf9a524b3b0e985453", "is_reserved": 0, "rental_uris": {"android": "https://dc.lft.to/lastmile_qr_scan", "ios": "https://dc.lft.to/lastmile_qr_scan"}, "lat": 38.92675, "is_disabled": 0, "lon": -77.028611}, {"fusion_lat": 0.0, "type": "electric_scooter", "name": "7800d9ce1a3da2cebe436ba61c433588", "fusion_lon": 0.0, "bike_id": "7800d9ce1a3da2cebe436ba61c433588", "is_reserved": 0, "rental_uris": {"android": "https://dc.lft.to/lastmile_qr_scan", "ios": "https://dc.lft.to/lastmile_qr_scan"}, "lat": 38.936088833333336, "is_disabled": 0, "lon": -77.05892933333334}, {"fusion_lat": 0.0, "type": "electric_scooter", "name": "8d709c95ee695c819fb0ca7301a37c85", "fusion_lon": 0.0, "bike_id": "8d709c95ee695c819fb0ca7301a37c85", "is_reserved": 0, "rental_uris": {"android": "https://dc.lft.to/lastmile_qr_scan", "ios": "https://dc.lft.to/lastmile_qr_scan"}, "lat": 38.91556666666666, "is_disabled": 0, "lon": -77.03177016666666}, {"fusion_lat": 0.0, "type": "electric_scooter", "name": "3a078b1b16fe1478b53bb490ee02cf2e", "fusion_lon": 0.0, "bike_id": "3a078b1b16fe1478b53bb490ee02cf2e", "is_reserved": 0, "rental_uris": {"android": "https://dc.lft.to/lastmile_qr_scan", "ios": "https://dc.lft.to/lastmile_qr_scan"}, "lat": 38.9080125, "is_disabled": 0, "lon": -76.987369}, {"fusion_lat": 0.0, "type": "electric_scooter", "name": "f5b958e435299d9fd26e0e9e5a869734", "fusion_lon": 0.0, "bike_id": "f5b958e435299d9fd26e0e9e5a869734", "is_reserved": 0, "rental_uris": {"android": "https://dc.lft.to/lastmile_qr_scan", "ios": "https://dc.lft.to/lastmile_qr_scan"}, "lat": 38.89963733333333, "is_disabled": 0, "lon": -77.04213633333333}, {"fusion_lat": 0.0, "type": "electric_scooter", "name": "16bdb3c27d1b2853643db4a336dba8a4", "fusion_lon": 0.0, "bike_id": "16bdb3c27d1b2853643db4a336dba8a4", "is_reserved": 0, "rental_uris": {"android": "https://dc.lft.to/lastmile_qr_scan", "ios": "https://dc.lft.to/lastmile_qr_scan"}, "lat": 38.93437433333333, "is_disabled": 0, "lon": -77.0365875}, {"fusion_lat": 0.0, "type": "electric_scooter", "name": "da0414c1a716c16001b42b03a8a66638", "fusion_lon": 0.0, "bike_id": "da0414c1a716c16001b42b03a8a66638", "is_reserved": 0, "rental_uris": {"android": "https://dc.lft.to/lastmile_qr_scan", "ios": "https://dc.lft.to/lastmile_qr_scan"}, "lat": 38.892261166666664, "is_disabled": 0, "lon": -77.04336183333334}, {"fusion_lat": 0.0, "type": "electric_scooter", "name": "994c89d20b1b2bca15e81eb603e0ed1b", "fusion_lon": 0.0, "bike_id": "994c89d20b1b2bca15e81eb603e0ed1b", "is_reserved": 0, "rental_uris": {"android": "https://dc.lft.to/lastmile_qr_scan", "ios": "https://dc.lft.to/lastmile_qr_scan"}, "lat": 38.928270833333336, "is_disabled": 0, "lon": -77.01409483333333}, {"fusion_lat": 0.0, "type": "electric_scooter", "name": "af3b2f67441ad67ca0ea08ceb47ba3bf", "fusion_lon": 0.0, "bike_id": "af3b2f67441ad67ca0ea08ceb47ba3bf", "is_reserved": 0, "rental_uris": {"android": "https://dc.lft.to/lastmile_qr_scan", "ios": "https://dc.lft.to/lastmile_qr_scan"}, "lat": 38.909697, "is_disabled": 0, "lon": -77.03468033333333}, {"fusion_lat": 0.0, "type": "electric_scooter", "name": "bc7436642b21c3da77208979faec798e", "fusion_lon": 0.0, "bike_id": "bc7436642b21c3da77208979faec798e", "is_reserved": 0, "rental_uris": {"android": "https://dc.lft.to/lastmile_qr_scan", "ios": "https://dc.lft.to/lastmile_qr_scan"}, "lat": 38.903463, "is_disabled": 0, "lon": -77.040362}, {"fusion_lat": 0.0, "type": "electric_scooter", "name": "4a06e7ffb70f6137637a2f4ae84e79e9", "fusion_lon": 0.0, "bike_id": "4a06e7ffb70f6137637a2f4ae84e79e9", "is_reserved": 0, "rental_uris": {"android": "https://dc.lft.to/lastmile_qr_scan", "ios": "https://dc.lft.to/lastmile_qr_scan"}, "lat": 38.924308333333336, "is_disabled": 0, "lon": -77.01948566666667}, {"fusion_lat": 0.0, "type": "electric_scooter", "name": "44459ba24228e97815c22b193798cb90", "fusion_lon": 0.0, "bike_id": "44459ba24228e97815c22b193798cb90", "is_reserved": 0, "rental_uris": {"android": "https://dc.lft.to/lastmile_qr_scan", "ios": "https://dc.lft.to/lastmile_qr_scan"}, "lat": 38.90849633333333, "is_disabled": 0, "lon": -77.04346333333334}, {"fusion_lat": 0.0, "type": "electric_scooter", "name": "e0cb72f1b6c379cc571b51b5aea750f9", "fusion_lon": 0.0, "bike_id": "e0cb72f1b6c379cc571b51b5aea750f9", "is_reserved": 0, "rental_uris": {"android": "https://dc.lft.to/lastmile_qr_scan", "ios": "https://dc.lft.to/lastmile_qr_scan"}, "lat": 38.89885816666666, "is_disabled": 0, "lon": -77.052999}, {"fusion_lat": 0.0, "type": "electric_scooter", "name": "e892b53390609b8c281d35807eda247b", "fusion_lon": 0.0, "bike_id": "e892b53390609b8c281d35807eda247b", "is_reserved": 0, "rental_uris": {"android": "https://dc.lft.to/lastmile_qr_scan", "ios": "https://dc.lft.to/lastmile_qr_scan"}, "lat": 38.923758, "is_disabled": 0, "lon": -77.030942}, {"fusion_lat": 0.0, "type": "electric_scooter", "name": "1226fd29563f18af84ad97685afb5e77", "fusion_lon": 0.0, "bike_id": "1226fd29563f18af84ad97685afb5e77", "is_reserved": 0, "rental_uris": {"android": "https://dc.lft.to/lastmile_qr_scan", "ios": "https://dc.lft.to/lastmile_qr_scan"}, "lat": 38.91483866666667, "is_disabled": 0, "lon": -77.025832}, {"fusion_lat": 0.0, "type": "electric_scooter", "name": "79b89507ef70d5f3cb7ed01d36888624", "fusion_lon": 0.0, "bike_id": "79b89507ef70d5f3cb7ed01d36888624", "is_reserved": 0, "rental_uris": {"android": "https://dc.lft.to/lastmile_qr_scan", "ios": "https://dc.lft.to/lastmile_qr_scan"}, "lat": 38.92358133333333, "is_disabled": 0, "lon": -77.05064433333334}, {"fusion_lat": 0.0, "type": "electric_bike", "name": "f80e2ca6ab1bdc0f030e955efb4749b7", "fusion_lon": 0.0, "bike_id": "f80e2ca6ab1bdc0f030e955efb4749b7", "is_reserved": 0, "rental_uris": {"android": "https://dc.lft.to/lastmile_qr_scan", "ios": "https://dc.lft.to/lastmile_qr_scan"}, "lat": 39.055025666666666, "is_disabled": 0, "lon": -77.04650333333333}, {"fusion_lat": 0.0, "type": "electric_scooter", "name": "1f82a7b97387d792a3a544c6a3da2006", "fusion_lon": 0.0, "bike_id": "1f82a7b97387d792a3a544c6a3da2006", "is_reserved": 0, "rental_uris": {"android": "https://dc.lft.to/lastmile_qr_scan", "ios": "https://dc.lft.to/lastmile_qr_scan"}, "lat": 38.94945533333333, "is_disabled": 0, "lon": -77.02451216666667}, {"fusion_lat": 0.0, "type": "electric_bike", "name": "9ce35edbb0f1c88bf143874d0b4569c0", "fusion_lon": 0.0, "bike_id": "9ce35edbb0f1c88bf143874d0b4569c0", "is_reserved": 0, "rental_uris": {"android": "https://dc.lft.to/lastmile_qr_scan", "ios": "https://dc.lft.to/lastmile_qr_scan"}, "lat": 38.929668166666666, "is_disabled": 0, "lon": -77.18565883333333}, {"fusion_lat": 0.0, "type": "electric_scooter", "name": "79bfd6a613ad9e2b664ca7e9b99769b1", "fusion_lon": 0.0, "bike_id": "79bfd6a613ad9e2b664ca7e9b99769b1", "is_reserved": 0, "rental_uris": {"android": "https://dc.lft.to/lastmile_qr_scan", "ios": "https://dc.lft.to/lastmile_qr_scan"}, "lat": 38.90278033333333, "is_disabled": 0, "lon": -77.0396745}, {"fusion_lat": 0.0, "type": "electric_scooter", "name": "d5108121cb157853088c5ca21e3130e3", "fusion_lon": 0.0, "bike_id": "d5108121cb157853088c5ca21e3130e3", "is_reserved": 0, "rental_uris": {"android": "https://dc.lft.to/lastmile_qr_scan", "ios": "https://dc.lft.to/lastmile_qr_scan"}, "lat": 38.960234666666665, "is_disabled": 0, "lon": -77.00053583333333}, {"fusion_lat": 0.0, "type": "electric_bike", "name": "a415200e60d2c3c3d0ff2d0816c83b0e", "fusion_lon": 0.0, "bike_id": "a415200e60d2c3c3d0ff2d0816c83b0e", "is_reserved": 0, "rental_uris": {"android": "https://dc.lft.to/lastmile_qr_scan", "ios": "https://dc.lft.to/lastmile_qr_scan"}, "lat": 38.95438033333333, "is_disabled": 0, "lon": -76.98909916666666}, {"fusion_lat": 0.0, "type": "electric_bike", "name": "31157df8537cc6082747a6944d1bee8a", "fusion_lon": 0.0, "bike_id": "31157df8537cc6082747a6944d1bee8a", "is_reserved": 0, "rental_uris": {"android": "https://dc.lft.to/lastmile_qr_scan", "ios": "https://dc.lft.to/lastmile_qr_scan"}, "lat": 38.931692, "is_disabled": 0, "lon": -76.88395733333333}, {"fusion_lat": 0.0, "type": "electric_bike", "name": "4f98b29e3b0ed2e1a5cf1812c5add6ac", "fusion_lon": 0.0, "bike_id": "4f98b29e3b0ed2e1a5cf1812c5add6ac", "is_reserved": 0, "rental_uris": {"android": "https://dc.lft.to/lastmile_qr_scan", "ios": "https://dc.lft.to/lastmile_qr_scan"}, "lat": 38.953293333333335, "is_disabled": 0, "lon": -76.98245766666666}, {"fusion_lat": 0.0, "type": "electric_bike", "name": "b6b3fe28fc378ddef2efbc0591486224", "fusion_lon": 0.0, "bike_id": "b6b3fe28fc378ddef2efbc0591486224", "is_reserved": 0, "rental_uris": {"android": "https://dc.lft.to/lastmile_qr_scan", "ios": "https://dc.lft.to/lastmile_qr_scan"}, "lat": 38.86487016666667, "is_disabled": 0, "lon": -76.97748216666666}, {"fusion_lat": 0.0, "type": "electric_scooter", "name": "0515c9eb958dcf98725bd12378331119", "fusion_lon": 0.0, "bike_id": "0515c9eb958dcf98725bd12378331119", "is_reserved": 0, "rental_uris": {"android": "https://dc.lft.to/lastmile_qr_scan", "ios": "https://dc.lft.to/lastmile_qr_scan"}, "lat": 38.9224575, "is_disabled": 0, "lon": -77.0212385}, {"fusion_lat": 0.0, "type": "electric_scooter", "name": "11d1649cfb19c152540c1b3739e78f44", "fusion_lon": 0.0, "bike_id": "11d1649cfb19c152540c1b3739e78f44", "is_reserved": 0, "rental_uris": {"android": "https://dc.lft.to/lastmile_qr_scan", "ios": "https://dc.lft.to/lastmile_qr_scan"}, "lat": 38.86536783333333, "is_disabled": 0, "lon": -76.98708366666666}, {"fusion_lat": 0.0, "type": "electric_scooter", "name": "0ee0a19c2e4250ee74ce0f2b2c983a26", "fusion_lon": 0.0, "bike_id": "0ee0a19c2e4250ee74ce0f2b2c983a26", "is_reserved": 0, "rental_uris": {"android": "https://dc.lft.to/lastmile_qr_scan", "ios": "https://dc.lft.to/lastmile_qr_scan"}, "lat": 38.92098933333333, "is_disabled": 0, "lon": -77.03169666666666}, {"fusion_lat": 0.0, "type": "electric_scooter", "name": "f9df72912998f6481b2218d2d0debe89", "fusion_lon": 0.0, "bike_id": "f9df72912998f6481b2218d2d0debe89", "is_reserved": 0, "rental_uris": {"android": "https://dc.lft.to/lastmile_qr_scan", "ios": "https://dc.lft.to/lastmile_qr_scan"}, "lat": 38.941991, "is_disabled": 0, "lon": -77.025139}, {"fusion_lat": 0.0, "type": "electric_scooter", "name": "34da790c51fc3e5870a3a5fa35f2ae48", "fusion_lon": 0.0, "bike_id": "34da790c51fc3e5870a3a5fa35f2ae48", "is_reserved": 0, "rental_uris": {"android": "https://dc.lft.to/lastmile_qr_scan", "ios": "https://dc.lft.to/lastmile_qr_scan"}, "lat": 38.892939, "is_disabled": 0, "lon": -77.012307}, {"fusion_lat": 0.0, "type": "electric_bike", "name": "deffbf7d29a6c7d401edc4cb2d4cb8cb", "fusion_lon": 0.0, "bike_id": "deffbf7d29a6c7d401edc4cb2d4cb8cb", "is_reserved": 0, "rental_uris": {"android": "https://dc.lft.to/lastmile_qr_scan", "ios": "https://dc.lft.to/lastmile_qr_scan"}, "lat": 38.9101255, "is_disabled": 0, "lon": -77.22798416666667}, {"fusion_lat": 0.0, "type": "electric_scooter", "name": "d17fba2e1824a8ae32714360d5d989c3", "fusion_lon": 0.0, "bike_id": "d17fba2e1824a8ae32714360d5d989c3", "is_reserved": 0, "rental_uris": {"android": "https://dc.lft.to/lastmile_qr_scan", "ios": "https://dc.lft.to/lastmile_qr_scan"}, "lat": 38.92740633333333, "is_disabled": 0, "lon": -77.03562916666667}, {"fusion_lat": 0.0, "type": "electric_scooter", "name": "bd52322ab250ff7497089506d4e911d6", "fusion_lon": 0.0, "bike_id": "bd52322ab250ff7497089506d4e911d6", "is_reserved": 0, "rental_uris": {"android": "https://dc.lft.to/lastmile_qr_scan", "ios": "https://dc.lft.to/lastmile_qr_scan"}, "lat": 38.918539, "is_disabled": 0, "lon": -77.01669966666667}, {"fusion_lat": 0.0, "type": "electric_bike", "name": "78fa06b00bc21172301c576d69d0d0e7", "fusion_lon": 0.0, "bike_id": "78fa06b00bc21172301c576d69d0d0e7", "is_reserved": 0, "rental_uris": {"android": "https://dc.lft.to/lastmile_qr_scan", "ios": "https://dc.lft.to/lastmile_qr_scan"}, "lat": 38.87281016666667, "is_disabled": 0, "lon": -77.23320933333333}, {"fusion_lat": 0.0, "type": "electric_scooter", "name": "0b1a44afc562a6a8a693bca9b09b5002", "fusion_lon": 0.0, "bike_id": "0b1a44afc562a6a8a693bca9b09b5002", "is_reserved": 0, "rental_uris": {"android": "https://dc.lft.to/lastmile_qr_scan", "ios": "https://dc.lft.to/lastmile_qr_scan"}, "lat": 38.9214695, "is_disabled": 0, "lon": -77.04222366666667}, {"fusion_lat": 0.0, "type": "electric_scooter", "name": "13b3936d9991968f7b419e0bf4e45c39", "fusion_lon": 0.0, "bike_id": "13b3936d9991968f7b419e0bf4e45c39", "is_reserved": 0, "rental_uris": {"android": "https://dc.lft.to/lastmile_qr_scan", "ios": "https://dc.lft.to/lastmile_qr_scan"}, "lat": 38.89848216666667, "is_disabled": 0, "lon": -77.03927366666667}, {"fusion_lat": 0.0, "type": "electric_scooter", "name": "cd6e6aab573cc5104747bc2028a2e766", "fusion_lon": 0.0, "bike_id": "cd6e6aab573cc5104747bc2028a2e766", "is_reserved": 0, "rental_uris": {"android": "https://dc.lft.to/lastmile_qr_scan", "ios": "https://dc.lft.to/lastmile_qr_scan"}, "lat": 38.8669865, "is_disabled": 0, "lon": -76.98593716666667}, {"fusion_lat": 0.0, "type": "electric_bike", "name": "3fa201e56c883264ba0a63168a1078ea", "fusion_lon": 0.0, "bike_id": "3fa201e56c883264ba0a63168a1078ea", "is_reserved": 0, "rental_uris": {"android": "https://dc.lft.to/lastmile_qr_scan", "ios": "https://dc.lft.to/lastmile_qr_scan"}, "lat": 38.94229333333333, "is_disabled": 0, "lon": -76.96623233333334}, {"fusion_lat": 0.0, "type": "electric_scooter", "name": "bbddbf3a28a8a4ad90c5689c541cf2b3", "fusion_lon": 0.0, "bike_id": "bbddbf3a28a8a4ad90c5689c541cf2b3", "is_reserved": 0, "rental_uris": {"android": "https://dc.lft.to/lastmile_qr_scan", "ios": "https://dc.lft.to/lastmile_qr_scan"}, "lat": 38.887278333333335, "is_disabled": 0, "lon": -77.02822566666667}, {"fusion_lat": 0.0, "type": "electric_scooter", "name": "41ffb8eb8b106ff0b9392abc51dd5545", "fusion_lon": 0.0, "bike_id": "41ffb8eb8b106ff0b9392abc51dd5545", "is_reserved": 0, "rental_uris": {"android": "https://dc.lft.to/lastmile_qr_scan", "ios": "https://dc.lft.to/lastmile_qr_scan"}, "lat": 38.892210666666664, "is_disabled": 0, "lon": -77.02236783333333}, {"fusion_lat": 0.0, "type": "electric_scooter", "name": "97a06e99c4a3028a3d5715384b8d7fbc", "fusion_lon": 0.0, "bike_id": "97a06e99c4a3028a3d5715384b8d7fbc", "is_reserved": 0, "rental_uris": {"android": "https://dc.lft.to/lastmile_qr_scan", "ios": "https://dc.lft.to/lastmile_qr_scan"}, "lat": 38.92341733333333, "is_disabled": 0, "lon": -77.03526683333334}, {"fusion_lat": 0.0, "type": "electric_scooter", "name": "9e32101b2211ac2c20356e984d7d5d32", "fusion_lon": 0.0, "bike_id": "9e32101b2211ac2c20356e984d7d5d32", "is_reserved": 0, "rental_uris": {"android": "https://dc.lft.to/lastmile_qr_scan", "ios": "https://dc.lft.to/lastmile_qr_scan"}, "lat": 38.903925666666666, "is_disabled": 0, "lon": -77.01761866666666}, {"fusion_lat": 0.0, "type": "electric_scooter", "name": "0294c7c53598cc19cffbde13fb688370", "fusion_lon": 0.0, "bike_id": "0294c7c53598cc19cffbde13fb688370", "is_reserved": 0, "rental_uris": {"android": "https://dc.lft.to/lastmile_qr_scan", "ios": "https://dc.lft.to/lastmile_qr_scan"}, "lat": 38.924403833333336, "is_disabled": 0, "lon": -77.040265}, {"fusion_lat": 0.0, "type": "electric_scooter", "name": "1e7d4b2125977d7289bde9c97e3a52ea", "fusion_lon": 0.0, "bike_id": "1e7d4b2125977d7289bde9c97e3a52ea", "is_reserved": 0, "rental_uris": {"android": "https://dc.lft.to/lastmile_qr_scan", "ios": "https://dc.lft.to/lastmile_qr_scan"}, "lat": 38.86505733333333, "is_disabled": 0, "lon": -76.99004033333334}, {"fusion_lat": 0.0, "type": "electric_scooter", "name": "5a81d941d29dfc734431008a23d72816", "fusion_lon": 0.0, "bike_id": "5a81d941d29dfc734431008a23d72816", "is_reserved": 0, "rental_uris": {"android": "https://dc.lft.to/lastmile_qr_scan", "ios": "https://dc.lft.to/lastmile_qr_scan"}, "lat": 38.8930865, "is_disabled": 0, "lon": -76.92915}, {"fusion_lat": 0.0, "type": "electric_scooter", "name": "76cd62976eef6b759df43f642ac5ab59", "fusion_lon": 0.0, "bike_id": "76cd62976eef6b759df43f642ac5ab59", "is_reserved": 0, "rental_uris": {"android": "https://dc.lft.to/lastmile_qr_scan", "ios": "https://dc.lft.to/lastmile_qr_scan"}, "lat": 38.9076065, "is_disabled": 0, "lon": -77.00092966666666}, {"fusion_lat": 0.0, "type": "electric_scooter", "name": "5a209691f59676587268d9d1432af4a6", "fusion_lon": 0.0, "bike_id": "5a209691f59676587268d9d1432af4a6", "is_reserved": 0, "rental_uris": {"android": "https://dc.lft.to/lastmile_qr_scan", "ios": "https://dc.lft.to/lastmile_qr_scan"}, "lat": 38.892484833333334, "is_disabled": 0, "lon": -77.03958466666667}, {"fusion_lat": 0.0, "type": "electric_bike", "name": "b8f4a291cfa1aede79f6f3ba617571af", "fusion_lon": 0.0, "bike_id": "b8f4a291cfa1aede79f6f3ba617571af", "is_reserved": 0, "rental_uris": {"android": "https://dc.lft.to/lastmile_qr_scan", "ios": "https://dc.lft.to/lastmile_qr_scan"}, "lat": 38.81201733333333, "is_disabled": 0, "lon": -77.10839783333333}, {"fusion_lat": 0.0, "type": "electric_scooter", "name": "2b67374672960dc5e6b63e11b9a55490", "fusion_lon": 0.0, "bike_id": "2b67374672960dc5e6b63e11b9a55490", "is_reserved": 0, "rental_uris": {"android": "https://dc.lft.to/lastmile_qr_scan", "ios": "https://dc.lft.to/lastmile_qr_scan"}, "lat": 38.927527, "is_disabled": 0, "lon": -77.03278966666667}, {"fusion_lat": 0.0, "type": "electric_scooter", "name": "6ce5600346167c2ce16914b46d870bd8", "fusion_lon": 0.0, "bike_id": "6ce5600346167c2ce16914b46d870bd8", "is_reserved": 0, "rental_uris": {"android": "https://dc.lft.to/lastmile_qr_scan", "ios": "https://dc.lft.to/lastmile_qr_scan"}, "lat": 38.926626666666664, "is_disabled": 0, "lon": -77.0228085}, {"fusion_lat": 0.0, "type": "electric_scooter", "name": "0b6aeffa6c357e25a3653431fcfec91f", "fusion_lon": 0.0, "bike_id": "0b6aeffa6c357e25a3653431fcfec91f", "is_reserved": 0, "rental_uris": {"android": "https://dc.lft.to/lastmile_qr_scan", "ios": "https://dc.lft.to/lastmile_qr_scan"}, "lat": 38.927418333333335, "is_disabled": 0, "lon": -77.02265783333333}, {"fusion_lat": 0.0, "type": "electric_scooter", "name": "8a1f9d2deae60155a0635b2a0a763c2c", "fusion_lon": 0.0, "bike_id": "8a1f9d2deae60155a0635b2a0a763c2c", "is_reserved": 0, "rental_uris": {"android": "https://dc.lft.to/lastmile_qr_scan", "ios": "https://dc.lft.to/lastmile_qr_scan"}, "lat": 38.89550233333333, "is_disabled": 0, "lon": -77.009131}, {"fusion_lat": 0.0, "type": "electric_scooter", "name": "281e9ba224c02e780c5884ed17de9e21", "fusion_lon": 0.0, "bike_id": "281e9ba224c02e780c5884ed17de9e21", "is_reserved": 0, "rental_uris": {"android": "https://dc.lft.to/lastmile_qr_scan", "ios": "https://dc.lft.to/lastmile_qr_scan"}, "lat": 38.898298833333335, "is_disabled": 0, "lon": -77.03321966666667}, {"fusion_lat": 0.0, "type": "electric_scooter", "name": "6fc1b65214d579da6198bddbed774c3d", "fusion_lon": 0.0, "bike_id": "6fc1b65214d579da6198bddbed774c3d", "is_reserved": 0, "rental_uris": {"android": "https://dc.lft.to/lastmile_qr_scan", "ios": "https://dc.lft.to/lastmile_qr_scan"}, "lat": 38.902068666666665, "is_disabled": 0, "lon": -77.02365466666667}, {"fusion_lat": 0.0, "type": "electric_scooter", "name": "772df248f7dbe39586a4798a68032e50", "fusion_lon": 0.0, "bike_id": "772df248f7dbe39586a4798a68032e50", "is_reserved": 0, "rental_uris": {"android": "https://dc.lft.to/lastmile_qr_scan", "ios": "https://dc.lft.to/lastmile_qr_scan"}, "lat": 38.911137333333336, "is_disabled": 0, "lon": -77.01904733333333}, {"fusion_lat": 0.0, "type": "electric_bike", "name": "0a666f71cb215f170f57f24ed572908a", "fusion_lon": 0.0, "bike_id": "0a666f71cb215f170f57f24ed572908a", "is_reserved": 0, "rental_uris": {"android": "https://dc.lft.to/lastmile_qr_scan", "ios": "https://dc.lft.to/lastmile_qr_scan"}, "lat": 38.948046166666664, "is_disabled": 0, "lon": -76.95970616666666}, {"fusion_lat": 0.0, "type": "electric_scooter", "name": "92864feb5c818e1087b7690fae77eaf2", "fusion_lon": 0.0, "bike_id": "92864feb5c818e1087b7690fae77eaf2", "is_reserved": 0, "rental_uris": {"android": "https://dc.lft.to/lastmile_qr_scan", "ios": "https://dc.lft.to/lastmile_qr_scan"}, "lat": 38.9006825, "is_disabled": 0, "lon": -77.04536566666667}, {"fusion_lat": 0.0, "type": "electric_scooter", "name": "56cbf606fcb4b65b98a9ba0f62009982", "fusion_lon": 0.0, "bike_id": "56cbf606fcb4b65b98a9ba0f62009982", "is_reserved": 0, "rental_uris": {"android": "https://dc.lft.to/lastmile_qr_scan", "ios": "https://dc.lft.to/lastmile_qr_scan"}, "lat": 38.92041016666667, "is_disabled": 0, "lon": -77.03640183333333}, {"fusion_lat": 0.0, "type": "electric_scooter", "name": "9ae0d80d010fecf38bf2902c8e22468b", "fusion_lon": 0.0, "bike_id": "9ae0d80d010fecf38bf2902c8e22468b", "is_reserved": 0, "rental_uris": {"android": "https://dc.lft.to/lastmile_qr_scan", "ios": "https://dc.lft.to/lastmile_qr_scan"}, "lat": 38.90248066666667, "is_disabled": 0, "lon": -77.03981183333333}, {"fusion_lat": 0.0, "type": "electric_scooter", "name": "bd8eb1824165b5a8a77f28acda4dc235", "fusion_lon": 0.0, "bike_id": "bd8eb1824165b5a8a77f28acda4dc235", "is_reserved": 0, "rental_uris": {"android": "https://dc.lft.to/lastmile_qr_scan", "ios": "https://dc.lft.to/lastmile_qr_scan"}, "lat": 38.9431215, "is_disabled": 0, "lon": -77.0172965}, {"fusion_lat": 0.0, "type": "electric_scooter", "name": "7870884ee96ffd9df384af31aa1f09d2", "fusion_lon": 0.0, "bike_id": "7870884ee96ffd9df384af31aa1f09d2", "is_reserved": 0, "rental_uris": {"android": "https://dc.lft.to/lastmile_qr_scan", "ios": "https://dc.lft.to/lastmile_qr_scan"}, "lat": 38.898499666666666, "is_disabled": 0, "lon": -76.990295}, {"fusion_lat": 0.0, "type": "electric_scooter", "name": "d6807ce069c13fb042b1d0edf6c61a45", "fusion_lon": 0.0, "bike_id": "d6807ce069c13fb042b1d0edf6c61a45", "is_reserved": 0, "rental_uris": {"android": "https://dc.lft.to/lastmile_qr_scan", "ios": "https://dc.lft.to/lastmile_qr_scan"}, "lat": 38.93422116666667, "is_disabled": 0, "lon": -77.044076}, {"fusion_lat": 0.0, "type": "electric_scooter", "name": "825a775c32288e6f443010aaa51ae928", "fusion_lon": 0.0, "bike_id": "825a775c32288e6f443010aaa51ae928", "is_reserved": 0, "rental_uris": {"android": "https://dc.lft.to/lastmile_qr_scan", "ios": "https://dc.lft.to/lastmile_qr_scan"}, "lat": 38.907311666666665, "is_disabled": 0, "lon": -77.03189983333333}, {"fusion_lat": 0.0, "type": "electric_scooter", "name": "b5a8457fe69f8c5b50970bf5a98c5f89", "fusion_lon": 0.0, "bike_id": "b5a8457fe69f8c5b50970bf5a98c5f89", "is_reserved": 0, "rental_uris": {"android": "https://dc.lft.to/lastmile_qr_scan", "ios": "https://dc.lft.to/lastmile_qr_scan"}, "lat": 38.90624183333333, "is_disabled": 0, "lon": -77.05130516666667}, {"fusion_lat": 0.0, "type": "electric_scooter", "name": "be9b992d5c0d9aa3d151788061185350", "fusion_lon": 0.0, "bike_id": "be9b992d5c0d9aa3d151788061185350", "is_reserved": 0, "rental_uris": {"android": "https://dc.lft.to/lastmile_qr_scan", "ios": "https://dc.lft.to/lastmile_qr_scan"}, "lat": 38.90738, "is_disabled": 0, "lon": -77.04204683333333}, {"fusion_lat": 0.0, "type": "electric_scooter", "name": "3b26cd5fe9401d502ef65ca0757169df", "fusion_lon": 0.0, "bike_id": "3b26cd5fe9401d502ef65ca0757169df", "is_reserved": 0, "rental_uris": {"android": "https://dc.lft.to/lastmile_qr_scan", "ios": "https://dc.lft.to/lastmile_qr_scan"}, "lat": 38.915880333333334, "is_disabled": 0, "lon": -77.0351545}, {"fusion_lat": 0.0, "type": "electric_bike", "name": "75b574c5ba9a9251381bd96ac0c53af9", "fusion_lon": 0.0, "bike_id": "75b574c5ba9a9251381bd96ac0c53af9", "is_reserved": 0, "rental_uris": {"android": "https://dc.lft.to/lastmile_qr_scan", "ios": "https://dc.lft.to/lastmile_qr_scan"}, "lat": 38.82332133333333, "is_disabled": 0, "lon": -77.05627916666667}, {"fusion_lat": 0.0, "type": "electric_scooter", "name": "dd55337821ae4b71b43ce75de59d8a46", "fusion_lon": 0.0, "bike_id": "dd55337821ae4b71b43ce75de59d8a46", "is_reserved": 0, "rental_uris": {"android": "https://dc.lft.to/lastmile_qr_scan", "ios": "https://dc.lft.to/lastmile_qr_scan"}, "lat": 38.90108516666667, "is_disabled": 0, "lon": -77.04482083333333}, {"fusion_lat": 0.0, "type": "electric_scooter", "name": "ff6f6a7e60bc7aae1f83c9e5c5b62cd7", "fusion_lon": 0.0, "bike_id": "ff6f6a7e60bc7aae1f83c9e5c5b62cd7", "is_reserved": 0, "rental_uris": {"android": "https://dc.lft.to/lastmile_qr_scan", "ios": "https://dc.lft.to/lastmile_qr_scan"}, "lat": 38.902102, "is_disabled": 0, "lon": -77.0235875}, {"fusion_lat": 0.0, "type": "electric_scooter", "name": "e9c26c7699cd7ed11d3e019feb89d855", "fusion_lon": 0.0, "bike_id": "e9c26c7699cd7ed11d3e019feb89d855", "is_reserved": 0, "rental_uris": {"android": "https://dc.lft.to/lastmile_qr_scan", "ios": "https://dc.lft.to/lastmile_qr_scan"}, "lat": 38.94208366666667, "is_disabled": 0, "lon": -77.02514483333333}, {"fusion_lat": 0.0, "type": "electric_scooter", "name": "3a8dca7baeba95c5f49dcae5cb081377", "fusion_lon": 0.0, "bike_id": "3a8dca7baeba95c5f49dcae5cb081377", "is_reserved": 0, "rental_uris": {"android": "https://dc.lft.to/lastmile_qr_scan", "ios": "https://dc.lft.to/lastmile_qr_scan"}, "lat": 38.925870333333336, "is_disabled": 0, "lon": -77.03748316666666}, {"fusion_lat": 0.0, "type": "electric_scooter", "name": "42e507f404be74fcdd846a1254fc9ba7", "fusion_lon": 0.0, "bike_id": "42e507f404be74fcdd846a1254fc9ba7", "is_reserved": 0, "rental_uris": {"android": "https://dc.lft.to/lastmile_qr_scan", "ios": "https://dc.lft.to/lastmile_qr_scan"}, "lat": 38.8922685, "is_disabled": 0, "lon": -77.02779733333334}, {"fusion_lat": 0.0, "type": "electric_scooter", "name": "9d94ef2c1f2bd9c0a6fa85d155777907", "fusion_lon": 0.0, "bike_id": "9d94ef2c1f2bd9c0a6fa85d155777907", "is_reserved": 0, "rental_uris": {"android": "https://dc.lft.to/lastmile_qr_scan", "ios": "https://dc.lft.to/lastmile_qr_scan"}, "lat": 38.939811666666664, "is_disabled": 0, "lon": -77.03258266666667}, {"fusion_lat": 0.0, "type": "electric_scooter", "name": "b22cc1d5d3cebd2a28417033c4ebfc67", "fusion_lon": 0.0, "bike_id": "b22cc1d5d3cebd2a28417033c4ebfc67", "is_reserved": 0, "rental_uris": {"android": "https://dc.lft.to/lastmile_qr_scan", "ios": "https://dc.lft.to/lastmile_qr_scan"}, "lat": 38.93606716666667, "is_disabled": 0, "lon": -77.0291745},