{"data": {"bikes": [{"lat": 38.9056535, "is_reserved": 0, "lon": -77.046598, "fusion_lon": 0.0, "fusion_lat": 0.0, "is_disabled": 0, "type": "electric_scooter", "bike_id": "19d68af97a64a2d152da74cff0b87e98", "rental_uris": {"android": "https://dc.lft.to/lastmile_qr_scan", "ios": "https://dc.lft.to/lastmile_qr_scan"}, "name": "19d68af97a64a2d152da74cff0b87e98"}, {"lat": 38.8996955, "is_reserved": 0, "lon": -77.02233433333333, "fusion_lon": 0.0, "fusion_lat": 0.0, "is_disabled": 0, "type": "electric_scooter", "bike_id": "af07ffbfe3eb67b2d5366c88cf38da4e", "rental_uris": {"android": "https://dc.lft.to/lastmile_qr_scan", "ios": "https://dc.lft.to/lastmile_qr_scan"}, "name": "af07ffbfe3eb67b2d5366c88cf38da4e"}, {"lat": 38.92450616666667, "is_reserved": 0, "lon": -77.03404866666666, "fusion_lon": 0.0, "fusion_lat": 0.0, "is_disabled": 0, "type": "electric_scooter", "bike_id": "9e4e47c0c392a90d27b396c23cbf2843", "rental_uris": {"android": "https://dc.lft.to/lastmile_qr_scan", "ios": "https://dc.lft.to/lastmile_qr_scan"}, "name": "9e4e47c0c392a90d27b396c23cbf2843"}, {"lat": 38.92175616666667, "is_reserved": 0, "lon": -77.02104716666666, "fusion_lon": 0.0, "fusion_lat": 0.0, "is_disabled": 0, "type": "electric_scooter", "bike_id": "14115a153e1f94f5221774aaa37b0765", "rental_uris": {"android": "https://dc.lft.to/lastmile_qr_scan", "ios": "https://dc.lft.to/lastmile_qr_scan"}, "name": "14115a153e1f94f5221774aaa37b0765"}, {"lat": 38.90113266666667, "is_reserved": 0, "lon": -77.03179716666666, "fusion_lon": 0.0, "fusion_lat": 0.0, "is_disabled": 0, "type": "electric_scooter", "bike_id": "d2250c1b2571d7cdf90824f2e8d16015", "rental_uris": {"android": "https://dc.lft.to/lastmile_qr_scan", "ios": "https://dc.lft.to/lastmile_qr_scan"}, "name": "d2250c1b2571d7cdf90824f2e8d16015"}, {"lat": 38.914051, "is_reserved": 0, "lon": -77.02006933333334, "fusion_lon": 0.0, "fusion_lat": 0.0, "is_disabled": 0, "type": "electric_scooter", "bike_id": "7c76852eade3bbaf1676cba8ba6afc19", "rental_uris": {"android": "https://dc.lft.to/lastmile_qr_scan", "ios": "https://dc.lft.to/lastmile_qr_scan"}, "name": "7c76852eade3bbaf1676cba8ba6afc19"}, {"lat": 38.90285216666667, "is_reserved": 0, "lon": -77.04003666666667, "fusion_lon": 0.0, "fusion_lat": 0.0, "is_disabled": 0, "type": "electric_scooter", "bike_id": "a9b1b263bff3d50ff732b4d51e3ef41a", "rental_uris": {"android": "https://dc.lft.to/lastmile_qr_scan", "ios": "https://dc.lft.to/lastmile_qr_scan"}, "name": "a9b1b263bff3d50ff732b4d51e3ef41a"}, {"lat": 38.92108, "is_reserved": 0, "lon": -77.02201983333333, "fusion_lon": 0.0, "fusion_lat": 0.0, "is_disabled": 0, "type": "electric_scooter", "bike_id": "caec4cdb5e54a1fecd6a6794c64f55c4", "rental_uris": {"android": "https://dc.lft.to/lastmile_qr_scan", "ios": "https://dc.lft.to/lastmile_qr_scan"}, "name": "caec4cdb5e54a1fecd6a6794c64f55c4"}, {"lat": 38.921673, "is_reserved": 0, "lon": -77.0351905, "fusion_lon": 0.0, "fusion_lat": 0.0, "is_disabled": 0, "type": "electric_scooter", "bike_id": "6d13e479144b74060bcb22dff2b3814f", "rental_uris": {"android": "https://dc.lft.to/lastmile_qr_scan", "ios": "https://dc.lft.to/lastmile_qr_scan"}, "name": "6d13e479144b74060bcb22dff2b3814f"}, {"lat": 38.900583833333336, "is_reserved": 0, "lon": -77.0453895, "fusion_lon": 0.0, "fusion_lat": 0.0, "is_disabled": 0, "type": "electric_scooter", "bike_id": "740b568e06deea3299d304414440612e", "rental_uris": {"android": "https://dc.lft.to/lastmile_qr_scan", "ios": "https://dc.lft.to/lastmile_qr_scan"}, "name": "740b568e06deea3299d304414440612e"}, {"lat": 38.855287, "is_reserved": 0, "lon": -77.11408716666666, "fusion_lon": 0.0, "fusion_lat": 0.0, "is_disabled": 0, "type": "electric_bike", "bike_id": "defd55c5a4422aa5aaea02fbf4a65c2d", "rental_uris": {"android": "https://dc.lft.to/lastmile_qr_scan", "ios": "https://dc.lft.to/lastmile_qr_scan"}, "name": "defd55c5a4422aa5aaea02fbf4a65c2d"}, {"lat": 38.90798933333333, "is_reserved": 0, "lon": -77.03642983333333, "fusion_lon": 0.0, "fusion_lat": 0.0, "is_disabled": 0, "type": "electric_scooter", "bike_id": "fc1060c167e74386436abe15d4f0b5bb", "rental_uris": {"android": "https://dc.lft.to/lastmile_qr_scan", "ios": "https://dc.lft.to/lastmile_qr_scan"}, "name": "fc1060c167e74386436abe15d4f0b5bb"}, {"lat": 38.841499166666665, "is_reserved": 0, "lon": -77.11465366666667, "fusion_lon": 0.0, "fusion_lat": 0.0, "is_disabled": 0, "type": "electric_bike", "bike_id": "c11afb1aad96dada7d6e0cefad78cce3", "rental_uris": {"android": "https://dc.lft.to/lastmile_qr_scan", "ios": "https://dc.lft.to/lastmile_qr_scan"}, "name": "c11afb1aad96dada7d6e0cefad78cce3"}, {"lat": 38.89828333333333, "is_reserved": 0, "lon": -77.033302, "fusion_lon": 0.0, "fusion_lat": 0.0, "is_disabled": 0, "type": "electric_scooter", "bike_id": "9566e0d53d82ca890f7bf89bd8c70256", "rental_uris": {"android": "https://dc.lft.to/lastmile_qr_scan", "ios": "https://dc.lft.to/lastmile_qr_scan"}, "name": "9566e0d53d82ca890f7bf89bd8c70256"}, {"lat": 38.99198033333333, "is_reserved": 0, "lon": -76.94442333333333, "fusion_lon": 0.0, "fusion_lat": 0.0, "is_disabled": 0, "type": "electric_bike", "bike_id": "1387e11331bd2d275dc23281893f510c", "rental_uris": {"android": "https://dc.lft.to/lastmile_qr_scan", "ios": "https://dc.lft.to/lastmile_qr_scan"}, "name": "1387e11331bd2d275dc23281893f510c"}, {"lat": 38.857843333333335, "is_reserved": 0, "lon": -77.12019033333333, "fusion_lon": 0.0, "fusion_lat": 0.0, "is_disabled": 0, "type": "electric_bike", "bike_id": "8eec1e40455b64fbffef7d17494f00cc", "rental_uris": {"android": "https://dc.lft.to/lastmile_qr_scan", "ios": "https://dc.lft.to/lastmile_qr_scan"}, "name": "8eec1e40455b64fbffef7d17494f00cc"}, {"lat": 38.911693, "is_reserved": 0, "lon": -77.07266816666667, "fusion_lon": 0.0, "fusion_lat": 0.0, "is_disabled": 0, "type": "electric_scooter", "bike_id": "a5623ae7e186c9df7c11f21656fe4ee1", "rental_uris": {"android": "https://dc.lft.to/lastmile_qr_scan", "ios": "https://dc.lft.to/lastmile_qr_scan"}, "name": "a5623ae7e186c9df7c11f21656fe4ee1"}, {"lat": 38.9204975, "is_reserved": 0, "lon": -77.0418955, "fusion_lon": 0.0, "fusion_lat": 0.0, "is_disabled": 0, "type": "electric_scooter", "bike_id": "6d1792df8452aecdd61566c34935bd6f", "rental_uris": {"android": "https://dc.lft.to/lastmile_qr_scan", "ios": "https://dc.lft.to/lastmile_qr_scan"}, "name": "6d1792df8452aecdd61566c34935bd6f"}, {"lat": 38.82366733333333, "is_reserved": 0, "lon": -77.002132, "fusion_lon": 0.0, "fusion_lat": 0.0, "is_disabled": 0, "type": "electric_bike", "bike_id": "1adbe84f0f5d080541498e47b8e606c3", "rental_uris": {"android": "https://dc.lft.to/lastmile_qr_scan", "ios": "https://dc.lft.to/lastmile_qr_scan"}, "name": "1adbe84f0f5d080541498e47b8e606c3"}, {"lat": 38.9024765, "is_reserved": 0, "lon": -77.0372675, "fusion_lon": 0.0, "fusion_lat": 0.0, "is_disabled": 0, "type": "electric_scooter", "bike_id": "ea5d664f318ead0ee1a2d1f770a0d72a", "rental_uris": {"android": "https://dc.lft.to/lastmile_qr_scan", "ios": "https://dc.lft.to/lastmile_qr_scan"}, "name": "ea5d664f318ead0ee1a2d1f770a0d72a"}, {"lat": 38.9116065, "is_reserved": 0, "lon": -77.00181916666666, "fusion_lon": 0.0, "fusion_lat": 0.0, "is_disabled": 0, "type": "electric_scooter", "bike_id": "4b1908e28efcdb078324379e7d96f83e", "rental_uris": {"android": "https://dc.lft.to/lastmile_qr_scan", "ios": "https://dc.lft.to/lastmile_qr_scan"}, "name": "4b1908e28efcdb078324379e7d96f83e"}, {"lat": 38.85936133333333, "is_reserved": 0, "lon": -77.11826116666667, "fusion_lon": 0.0, "fusion_lat": 0.0, "is_disabled": 0, "type": "electric_bike", "bike_id": "721898dea0928fe79e85c3bdeb5cf05f", "rental_uris": {"android": "https://dc.lft.to/lastmile_qr_scan", "ios": "https://dc.lft.to/lastmile_qr_scan"}, "name": "721898dea0928fe79e85c3bdeb5cf05f"}, {"lat": 38.923791333333334, "is_reserved": 0, "lon": -77.01926033333334, "fusion_lon": 0.0, "fusion_lat": 0.0, "is_disabled": 0, "type": "electric_scooter", "bike_id": "22850e81f9a29efd5671f7a302d4aaa2", "rental_uris": {"android": "https://dc.lft.to/lastmile_qr_scan", "ios": "https://dc.lft.to/lastmile_qr_scan"}, "name": "22850e81f9a29efd5671f7a302d4aaa2"}, {"lat": 38.924421833333334, "is_reserved": 0, "lon": -77.03358916666667, "fusion_lon": 0.0, "fusion_lat": 0.0, "is_disabled": 0, "type": "electric_scooter", "bike_id": "27e44b7ae6ee6f60816d4aa76fa27ecf", "rental_uris": {"android": "https://dc.lft.to/lastmile_qr_scan", "ios": "https://dc.lft.to/lastmile_qr_scan"}, "name": "27e44b7ae6ee6f60816d4aa76fa27ecf"}, {"lat": 38.878822666666665, "is_reserved": 0, "lon": -77.101133, "fusion_lon": 0.0, "fusion_lat": 0.0, "is_disabled": 0, "type": "electric_bike", "bike_id": "893c2051a595a8377caf283cf9854176", "rental_uris": {"android": "https://dc.lft.to/lastmile_qr_scan", "ios": "https://dc.lft.to/lastmile_qr_scan"}, "name": "893c2051a595a8377caf283cf9854176"}, {"lat": 38.87474016666667, "is_reserved": 0, "lon": -76.99976883333333, "fusion_lon": 0.0, "fusion_lat": 0.0, "is_disabled": 0, "type": "electric_scooter", "bike_id": "3e3749f950a61cbf2e54a8d65cf8962f", "rental_uris": {"android": "https://dc.lft.to/lastmile_qr_scan", "ios": "https://dc.lft.to/lastmile_qr_scan"}, "name": "3e3749f950a61cbf2e54a8d65cf8962f"}, {"lat": 38.873986, "is_reserved": 0, "lon": -77.00025733333334, "fusion_lon": 0.0, "fusion_lat": 0.0, "is_disabled": 0, "type": "electric_scooter", "bike_id": "e9d37addc6294ae71132c895a9314fe6", "rental_uris": {"android": "https://dc.lft.to/lastmile_qr_scan", "ios": "https://dc.lft.to/lastmile_qr_scan"}, "name": "e9d37addc6294ae71132c895a9314fe6"}, {"lat": 38.900347, "is_reserved": 0, "lon": -77.01224516666667, "fusion_lon": 0.0, "fusion_lat": 0.0, "is_disabled": 0, "type": "electric_scooter", "bike_id": "c390bd2fe14241994484911fb1167d11", "rental_uris": {"android": "https://dc.lft.to/lastmile_qr_scan", "ios": "https://dc.lft.to/lastmile_qr_scan"}, "name": "c390bd2fe14241994484911fb1167d11"}, {"lat": 38.9064895, "is_reserved": 0, "lon": -77.038003, "fusion_lon": 0.0, "fusion_lat": 0.0, "is_disabled": 0, "type": "electric_scooter", "bike_id": "d5e55d7a162dea1a4457d23d849355c2", "rental_uris": {"android": "https://dc.lft.to/lastmile_qr_scan", "ios": "https://dc.lft.to/lastmile_qr_scan"}, "name": "d5e55d7a162dea1a4457d23d849355c2"}, {"lat": 38.859665, "is_reserved": 0, "lon": -76.99159383333334, "fusion_lon": 0.0, "fusion_lat": 0.0, "is_disabled": 0, "type": "electric_scooter", "bike_id": "beafa80ff11c3ef109bbdb76eb3353fa", "rental_uris": {"android": "https://dc.lft.to/lastmile_qr_scan", "ios": "https://dc.lft.to/lastmile_qr_scan"}, "name": "beafa80ff11c3ef109bbdb76eb3353fa"}, {"lat": 38.98507766666667, "is_reserved": 0, "lon": -76.98209066666666, "fusion_lon": 0.0, "fusion_lat": 0.0, "is_disabled": 0, "type": "electric_bike", "bike_id": "7d67e244b8efe2e5f132da0d0eb6bc61", "rental_uris": {"android": "https://dc.lft.to/lastmile_qr_scan", "ios": "https://dc.lft.to/lastmile_qr_scan"}, "name": "7d67e244b8efe2e5f132da0d0eb6bc61"}, {"lat": 38.9418335, "is_reserved": 0, "lon": -77.02487183333334, "fusion_lon": 0.0, "fusion_lat": 0.0, "is_disabled": 0, "type": "electric_scooter", "bike_id": "b6cdf891bbb904a2a0cb46d158521722", "rental_uris": {"android": "https://dc.lft.to/lastmile_qr_scan", "ios": "https://dc.lft.to/lastmile_qr_scan"}, "name": "b6cdf891bbb904a2a0cb46d158521722"}, {"lat": 38.902927166666665, "is_reserved": 0, "lon": -77.03347116666667, "fusion_lon": 0.0, "fusion_lat": 0.0, "is_disabled": 0, "type": "electric_scooter", "bike_id": "a5ec94759e885e1f0e8f6ef008e0f630", "rental_uris": {"android": "https://dc.lft.to/lastmile_qr_scan", "ios": "https://dc.lft.to/lastmile_qr_scan"}, "name": "a5ec94759e885e1f0e8f6ef008e0f630"}, {"lat": 38.956473, "is_reserved": 0, "lon": -77.0196335, "fusion_lon": 0.0, "fusion_lat": 0.0, "is_disabled": 0, "type": "electric_scooter", "bike_id": "27fbac86c548decc95d03ace79d17b3a", "rental_uris": {"android": "https://dc.lft.to/lastmile_qr_scan", "ios": "https://dc.lft.to/lastmile_qr_scan"}, "name": "27fbac86c548decc95d03ace79d17b3a"}, {"lat": 38.86028183333333, "is_reserved": 0, "lon": -76.96707549999999, "fusion_lon": 0.0, "fusion_lat": 0.0, "is_disabled": 0, "type": "electric_scooter", "bike_id": "051fb5151bedad788d74c5d55991d866", "rental_uris": {"android": "https://dc.lft.to/lastmile_qr_scan", "ios": "https://dc.lft.to/lastmile_qr_scan"}, "name": "051fb5151bedad788d74c5d55991d866"}, {"lat": 38.90041316666667, "is_reserved": 0, "lon": -77.01666916666667, "fusion_lon": 0.0, "fusion_lat": 0.0, "is_disabled": 0, "type": "electric_scooter", "bike_id": "1575f483f915374238aec38c8f56538d", "rental_uris": {"android": "https://dc.lft.to/lastmile_qr_scan", "ios": "https://dc.lft.to/lastmile_qr_scan"}, "name": "1575f483f915374238aec38c8f56538d"}, {"lat": 38.877146, "is_reserved": 0, "lon": -77.01780916666667, "fusion_lon": 0.0, "fusion_lat": 0.0, "is_disabled": 0, "type": "electric_scooter", "bike_id": "354eed10edd4670e69fa629979f897a7", "rental_uris": {"android": "https://dc.lft.to/lastmile_qr_scan", "ios": "https://dc.lft.to/lastmile_qr_scan"}, "name": "354eed10edd4670e69fa629979f897a7"}, {"lat": 38.946204, "is_reserved": 0, "lon": -77.02531766666667, "fusion_lon": 0.0, "fusion_lat": 0.0, "is_disabled": 0, "type": "electric_scooter", "bike_id": "c0e2ff5de959b677ba8f204397c817d8", "rental_uris": {"android": "https://dc.lft.to/lastmile_qr_scan", "ios": "https://dc.lft.to/lastmile_qr_scan"}, "name": "c0e2ff5de959b677ba8f204397c817d8"}, {"lat": 38.95099116666667, "is_reserved": 0, "lon": -77.09714283333334, "fusion_lon": 0.0, "fusion_lat": 0.0, "is_disabled": 0, "type": "electric_scooter", "bike_id": "9d2cebf8f4b640ad8f8f500b70296be2", "rental_uris": {"android": "https://dc.lft.to/lastmile_qr_scan", "ios": "https://dc.lft.to/lastmile_qr_scan"}, "name": "9d2cebf8f4b640ad8f8f500b70296be2"}, {"lat": 38.9000145, "is_reserved": 0, "lon": -77.02715683333334, "fusion_lon": 0.0, "fusion_lat": 0.0, "is_disabled": 0, "type": "electric_scooter", "bike_id": "308f7c59198d5d52f037308252ed9dc4", "rental_uris": {"android": "https://dc.lft.to/lastmile_qr_scan", "ios": "https://dc.lft.to/lastmile_qr_scan"}, "name": "308f7c59198d5d52f037308252ed9dc4"}, {"lat": 38.906402, "is_reserved": 0, "lon": -77.04169933333333, "fusion_lon": 0.0, "fusion_lat": 0.0, "is_disabled": 0, "type": "electric_scooter", "bike_id": "5b9586048557d42be2244c4ef35edcfe", "rental_uris": {"android": "https://dc.lft.to/lastmile_qr_scan", "ios": "https://dc.lft.to/lastmile_qr_scan"}, "name": "5b9586048557d42be2244c4ef35edcfe"}, {"lat": 38.901767166666666, "is_reserved": 0, "lon": -77.04725416666666, "fusion_lon": 0.0, "fusion_lat": 0.0, "is_disabled": 0, "type": "electric_scooter", "bike_id": "4656006c6dc92d02e4d415ce22ce6b52", "rental_uris": {"android": "https://dc.lft.to/lastmile_qr_scan", "ios": "https://dc.lft.to/lastmile_qr_scan"}, "name": "4656006c6dc92d02e4d415ce22ce6b52"}, {"lat": 38.900700666666665, "is_reserved": 0, "lon": -76.9962045, "fusion_lon": 0.0, "fusion_lat": 0.0, "is_disabled": 0, "type": "electric_scooter", "bike_id": "6a6d9d51ab1ae0068beec8280f6bda69", "rental_uris": {"android": "https://dc.lft.to/lastmile_qr_scan", "ios": "https://dc.lft.to/lastmile_qr_scan"}, "name": "6a6d9d51ab1ae0068beec8280f6bda69"}, {"lat": 38.915697333333334, "is_reserved": 0, "lon": -77.01582083333334, "fusion_lon": 0.0, "fusion_lat": 0.0, "is_disabled": 0, "type": "electric_scooter", "bike_id": "8f6449c8f44609e41feedf5e3f8bd482", "rental_uris": {"android": "https://dc.lft.to/lastmile_qr_scan", "ios": "https://dc.lft.to/lastmile_qr_scan"}, "name": "8f6449c8f44609e41feedf5e3f8bd482"}, {"lat": 38.91386966666666, "is_reserved": 0, "lon": -77.0170405, "fusion_lon": 0.0, "fusion_lat": 0.0, "is_disabled": 0, "type": "electric_scooter", "bike_id": "a1a9e8c7d766a9a88d9ab3d105a4f22d", "rental_uris": {"android": "https://dc.lft.to/lastmile_qr_scan", "ios": "https://dc.lft.to/lastmile_qr_scan"}, "name": "a1a9e8c7d766a9a88d9ab3d105a4f22d"}, {"lat": 38.91289666666667, "is_reserved": 0, "lon": -77.02382716666666, "fusion_lon": 0.0, "fusion_lat": 0.0, "is_disabled": 0, "type": "electric_scooter", "bike_id": "ac0be5b53805697a1bcc8cbf44a0b13c", "rental_uris": {"android": "https://dc.lft.to/lastmile_qr_scan", "ios": "https://dc.lft.to/lastmile_qr_scan"}, "name": "ac0be5b53805697a1bcc8cbf44a0b13c"}, {"lat": 38.918307, "is_reserved": 0, "lon": -77.0320605, "fusion_lon": 0.0, "fusion_lat": 0.0, "is_disabled": 0, "type": "electric_scooter", "bike_id": "fa60a6087c4f067a32cb1754c19591a4", "rental_uris": {"android": "https://dc.lft.to/lastmile_qr_scan", "ios": "https://dc.lft.to/lastmile_qr_scan"}, "name": "fa60a6087c4f067a32cb1754c19591a4"}, {"lat": 38.90033066666667, "is_reserved": 0, "lon": -76.98740716666667, "fusion_lon": 0.0, "fusion_lat": 0.0, "is_disabled": 0, "type": "electric_scooter", "bike_id": "158c294f026cd1ae377abef28f30ebb3", "rental_uris": {"android": "https://dc.lft.to/lastmile_qr_scan", "ios": "https://dc.lft.to/lastmile_qr_scan"}, "name": "158c294f026cd1ae377abef28f30ebb3"}, {"lat": 38.9037385, "is_reserved": 0, "lon": -77.040226, "fusion_lon": 0.0, "fusion_lat": 0.0, "is_disabled": 0, "type": "electric_scooter", "bike_id": "bd14a614d07fc219c44c760ebb3f5cb7", "rental_uris": {"android": "https://dc.lft.to/lastmile_qr_scan", "ios": "https://dc.lft.to/lastmile_qr_scan"}, "name": "bd14a614d07fc219c44c760ebb3f5cb7"}, {"lat": 38.896676666666664, "is_reserved": 0, "lon": -76.93208183333333, "fusion_lon": 0.0, "fusion_lat": 0.0, "is_disabled": 0, "type": "electric_scooter", "bike_id": "24cfc6bcae350d67043ed70e3cd73159", "rental_uris": {"android": "https://dc.lft.to/lastmile_qr_scan", "ios": "https://dc.lft.to/lastmile_qr_scan"}, "name": "24cfc6bcae350d67043ed70e3cd73159"}, {"lat": 38.918979, "is_reserved": 0, "lon": -77.03642866666667, "fusion_lon": 0.0, "fusion_lat": 0.0, "is_disabled": 0, "type": "electric_scooter", "bike_id": "38e92b7363af8b286781e039849183f3", "rental_uris": {"android": "https://dc.lft.to/lastmile_qr_scan", "ios": "https://dc.lft.to/lastmile_qr_scan"}, "name": "38e92b7363af8b286781e039849183f3"}, {"lat": 38.90564083333334, "is_reserved": 0, "lon": -77.04363016666667, "fusion_lon": 0.0, "fusion_lat": 0.0, "is_disabled": 0, "type": "electric_scooter", "bike_id": "c4f2b5338a973684e97dedc32047929d", "rental_uris": {"android": "https://dc.lft.to/lastmile_qr_scan", "ios": "https://dc.lft.to/lastmile_qr_scan"}, "name": "c4f2b5338a973684e97dedc32047929d"}, {"lat": 38.92977666666667, "is_reserved": 0, "lon": -77.02346833333333, "fusion_lon": 0.0, "fusion_lat": 0.0, "is_disabled": 0, "type": "electric_scooter", "bike_id": "ec918f64684fc170119e300e6f2ab2eb", "rental_uris": {"android": "https://dc.lft.to/lastmile_qr_scan", "ios": "https://dc.lft.to/lastmile_qr_scan"}, "name": "ec918f64684fc170119e300e6f2ab2eb"}, {"lat": 38.9655025, "is_reserved": 0, "lon": -77.03627, "fusion_lon": 0.0, "fusion_lat": 0.0, "is_disabled": 0, "type": "electric_scooter", "bike_id": "17abac307cef22cae6b96a49e3f0a1b7", "rental_uris": {"android": "https://dc.lft.to/lastmile_qr_scan", "ios": "https://dc.lft.to/lastmile_qr_scan"}, "name": "17abac307cef22cae6b96a49e3f0a1b7"}, {"lat": 38.902519166666664, "is_reserved": 0, "lon": -77.0398085, "fusion_lon": 0.0, "fusion_lat": 0.0, "is_disabled": 0, "type": "electric_scooter", "bike_id": "59f3f8fb92b88d8303f22af98aa215fc", "rental_uris": {"android": "https://dc.lft.to/lastmile_qr_scan", "ios": "https://dc.lft.to/lastmile_qr_scan"}, "name": "59f3f8fb92b88d8303f22af98aa215fc"}, {"lat": 38.9242125, "is_reserved": 0, "lon": -77.01939316666666, "fusion_lon": 0.0, "fusion_lat": 0.0, "is_disabled": 0, "type": "electric_scooter", "bike_id": "408ee1ac78be5f8c37df8ad1642b133e", "rental_uris": {"android": "https://dc.lft.to/lastmile_qr_scan", "ios": "https://dc.lft.to/lastmile_qr_scan"}, "name": "408ee1ac78be5f8c37df8ad1642b133e"}, {"lat": 38.91930833333333, "is_reserved": 0, "lon": -77.07071533333334, "fusion_lon": 0.0, "fusion_lat": 0.0, "is_disabled": 0, "type": "electric_scooter", "bike_id": "19d970b9b92b06e24bded74394b1f1b1", "rental_uris": {"android": "https://dc.lft.to/lastmile_qr_scan", "ios": "https://dc.lft.to/lastmile_qr_scan"}, "name": "19d970b9b92b06e24bded74394b1f1b1"}, {"lat": 38.8837225, "is_reserved": 0, "lon": -76.99498633333333, "fusion_lon": 0.0, "fusion_lat": 0.0, "is_disabled": 0, "type": "electric_scooter", "bike_id": "dc335fd4e21500a92372ac2424d34c83", "rental_uris": {"android": "https://dc.lft.to/lastmile_qr_scan", "ios": "https://dc.lft.to/lastmile_qr_scan"}, "name": "dc335fd4e21500a92372ac2424d34c83"}, {"lat": 38.91505, "is_reserved": 0, "lon": -77.0463425, "fusion_lon": 0.0, "fusion_lat": 0.0, "is_disabled": 0, "type": "electric_scooter", "bike_id": "279972dcb9ca5c73d15045650284876c", "rental_uris": {"android": "https://dc.lft.to/lastmile_qr_scan", "ios": "https://dc.lft.to/lastmile_qr_scan"}, "name": "279972dcb9ca5c73d15045650284876c"}, {"lat": 38.899432166666664, "is_reserved": 0, "lon": -77.04156566666667, "fusion_lon": 0.0, "fusion_lat": 0.0, "is_disabled": 0, "type": "electric_scooter", "bike_id": "69973d9e34bda441d837b2b3ccd73ead", "rental_uris": {"android": "https://dc.lft.to/lastmile_qr_scan", "ios": "https://dc.lft.to/lastmile_qr_scan"}, "name": "69973d9e34bda441d837b2b3ccd73ead"}, {"lat": 38.92539033333333, "is_reserved": 0, "lon": -77.0353335, "fusion_lon": 0.0, "fusion_lat": 0.0, "is_disabled": 0, "type": "electric_scooter", "bike_id": "e07beadecfa3ee9abd4b41795d5047a9", "rental_uris": {"android": "https://dc.lft.to/lastmile_qr_scan", "ios": "https://dc.lft.to/lastmile_qr_scan"}, "name": "e07beadecfa3ee9abd4b41795d5047a9"}, {"lat": 38.90535416666667, "is_reserved": 0, "lon": -77.0414485, "fusion_lon": 0.0, "fusion_lat": 0.0, "is_disabled": 0, "type": "electric_scooter", "bike_id": "dbbb0eeb47bebb5369cbf4f0564e40f9", "rental_uris": {"android": "https://dc.lft.to/lastmile_qr_scan", "ios": "https://dc.lft.to/lastmile_qr_scan"}, "name": "dbbb0eeb47bebb5369cbf4f0564e40f9"}, {"lat": 38.90222083333333, "is_reserved": 0, "lon": -77.046441, "fusion_lon": 0.0, "fusion_lat": 0.0, "is_disabled": 0, "type": "electric_scooter", "bike_id": "d197bbaa6af814b8b866af313b6099b4", "rental_uris": {"android": "https://dc.lft.to/lastmile_qr_scan", "ios": "https://dc.lft.to/lastmile_qr_scan"}, "name": "d197bbaa6af814b8b866af313b6099b4"}, {"lat": 38.915502333333336, "is_reserved": 0, "lon": -77.02416266666667, "fusion_lon": 0.0, "fusion_lat": 0.0, "is_disabled": 0, "type": "electric_scooter", "bike_id": "6bd1c0e1ee64b5dcf15d824d6e7a613e", "rental_uris": {"android": "https://dc.lft.to/lastmile_qr_scan", "ios": "https://dc.lft.to/lastmile_qr_scan"}, "name": "6bd1c0e1ee64b5dcf15d824d6e7a613e"}, {"lat": 38.905442666666666, "is_reserved": 0, "lon": -77.0324095, "fusion_lon": 0.0, "fusion_lat": 0.0, "is_disabled": 0, "type": "electric_scooter", "bike_id": "ac975b3e69eecb399e36ff4a929bb8fd", "rental_uris": {"android": "https://dc.lft.to/lastmile_qr_scan", "ios": "https://dc.lft.to/lastmile_qr_scan"}, "name": "ac975b3e69eecb399e36ff4a929bb8fd"}, {"lat": 38.91399883333333, "is_reserved": 0, "lon": -77.0215285, "fusion_lon": 0.0, "fusion_lat": 0.0, "is_disabled": 0, "type": "electric_scooter", "bike_id": "db8b30dc7ad02808a03d08a0d4c072f6", "rental_uris": {"android": "https://dc.lft.to/lastmile_qr_scan", "ios": "https://dc.lft.to/lastmile_qr_scan"}, "name": "db8b30dc7ad02808a03d08a0d4c072f6"}, {"lat": 38.92098933333333, "is_reserved": 0, "lon": -77.04199633333333, "fusion_lon": 0.0, "fusion_lat": 0.0, "is_disabled": 0, "type": "electric_scooter", "bike_id": "2a98b3b1aa9fdb2c3bac02df7dcf1fa3", "rental_uris": {"android": "https://dc.lft.to/lastmile_qr_scan", "ios": "https://dc.lft.to/lastmile_qr_scan"}, "name": "2a98b3b1aa9fdb2c3bac02df7dcf1fa3"}, {"lat": 38.9433365, "is_reserved": 0, "lon": -77.060614, "fusion_lon": 0.0, "fusion_lat": 0.0, "is_disabled": 0, "type": "electric_scooter", "bike_id": "00404f8166ca47d2f3c2eb6fc832f40c", "rental_uris": {"android": "https://dc.lft.to/lastmile_qr_scan", "ios": "https://dc.lft.to/lastmile_qr_scan"}, "name": "00404f8166ca47d2f3c2eb6fc832f40c"}, {"lat": 38.908651666666664, "is_reserved": 0, "lon": -77.0245385, "fusion_lon": 0.0, "fusion_lat": 0.0, "is_disabled": 0, "type": "electric_scooter", "bike_id": "0cef21e84524a0e05160627e8ac9955c", "rental_uris": {"android": "https://dc.lft.to/lastmile_qr_scan", "ios": "https://dc.lft.to/lastmile_qr_scan"}, "name": "0cef21e84524a0e05160627e8ac9955c"}, {"lat": 38.912432, "is_reserved": 0, "lon": -77.02213466666667, "fusion_lon": 0.0, "fusion_lat": 0.0, "is_disabled": 0, "type": "electric_scooter", "bike_id": "77e5d7995e16aec975917fa93d3963a1", "rental_uris": {"android": "https://dc.lft.to/lastmile_qr_scan", "ios": "https://dc.lft.to/lastmile_qr_scan"}, "name": "77e5d7995e16aec975917fa93d3963a1"}, {"lat": 38.9033285, "is_reserved": 0, "lon": -77.0109915, "fusion_lon": 0.0, "fusion_lat": 0.0, "is_disabled": 0, "type": "electric_scooter", "bike_id": "077e44c13c29553f22683f8d1e3dfdb2", "rental_uris": {"android": "https://dc.lft.to/lastmile_qr_scan", "ios": "https://dc.lft.to/lastmile_qr_scan"}, "name": "077e44c13c29553f22683f8d1e3dfdb2"}, {"lat": 39.056325, "is_reserved": 0, "lon": -77.12526366666667, "fusion_lon": 0.0, "fusion_lat": 0.0, "is_disabled": 0, "type": "electric_bike", "bike_id": "b5a17881ba57537ae64b77fdbb6d9f0d", "rental_uris": {"android": "https://dc.lft.to/lastmile_qr_scan", "ios": "https://dc.lft.to/lastmile_qr_scan"}, "name": "b5a17881ba57537ae64b77fdbb6d9f0d"}, {"lat": 38.8613395, "is_reserved": 0, "lon": -76.97163783333333, "fusion_lon": 0.0, "fusion_lat": 0.0, "is_disabled": 0, "type": "electric_scooter", "bike_id": "d91bfccf6f55c6c27c26d96b4485a697", "rental_uris": {"android": "https://dc.lft.to/lastmile_qr_scan", "ios": "https://dc.lft.to/lastmile_qr_scan"}, "name": "d91bfccf6f55c6c27c26d96b4485a697"}, {"lat": 38.93818133333333, "is_reserved": 0, "lon": -77.071626, "fusion_lon": 0.0, "fusion_lat": 0.0, "is_disabled": 0, "type": "electric_scooter", "bike_id": "62e07d1aa6d0205da6ab8ba6cbd6c099", "rental_uris": {"android": "https://dc.lft.to/lastmile_qr_scan", "ios": "https://dc.lft.to/lastmile_qr_scan"}, "name": "62e07d1aa6d0205da6ab8ba6cbd6c099"}, {"lat": 38.89860866666667, "is_reserved": 0, "lon": -76.94638283333333, "fusion_lon": 0.0, "fusion_lat": 0.0, "is_disabled": 0, "type": "electric_scooter", "bike_id": "f3bcc6abb936a18e4a04f60cca265de4", "rental_uris": {"android": "https://dc.lft.to/lastmile_qr_scan", "ios": "https://dc.lft.to/lastmile_qr_scan"}, "name": "f3bcc6abb936a18e4a04f60cca265de4"}, {"lat": 38.90401766666667, "is_reserved": 0, "lon": -77.06504133333334, "fusion_lon": 0.0, "fusion_lat": 0.0, "is_disabled": 0, "type": "electric_scooter", "bike_id": "5c4570f5586c7b115c2b96739f92dd94", "rental_uris": {"android": "https://dc.lft.to/lastmile_qr_scan", "ios": "https://dc.lft.to/lastmile_qr_scan"}, "name": "5c4570f5586c7b115c2b96739f92dd94"}, {"lat": 38.92941483333333, "is_reserved": 0, "lon": -77.02318033333333, "fusion_lon": 0.0, "fusion_lat": 0.0, "is_disabled": 0, "type": "electric_scooter", "bike_id": "fc38ba15201727b9afe18cd1f0b4e9c5", "rental_uris": {"android": "https://dc.lft.to/lastmile_qr_scan", "ios": "https://dc.lft.to/lastmile_qr_scan"}, "name": "fc38ba15201727b9afe18cd1f0b4e9c5"}, {"lat": 38.93361733333333, "is_reserved": 0, "lon": -77.057311, "fusion_lon": 0.0, "fusion_lat": 0.0, "is_disabled": 0, "type": "electric_scooter", "bike_id": "a3c395ddfd77d8010f4a82ac9c349ce1", "rental_uris": {"android": "https://dc.lft.to/lastmile_qr_scan", "ios": "https://dc.lft.to/lastmile_qr_scan"}, "name": "a3c395ddfd77d8010f4a82ac9c349ce1"}, {"lat": 38.88031466666666, "is_reserved": 0, "lon": -77.02498266666667, "fusion_lon": 0.0, "fusion_lat": 0.0, "is_disabled": 0, "type": "electric_scooter", "bike_id": "fc9a4837fcc0e4d073a01530637100cf", "rental_uris": {"android": "https://dc.lft.to/lastmile_qr_scan", "ios": "https://dc.lft.to/lastmile_qr_scan"}, "name": "fc9a4837fcc0e4d073a01530637100cf"}, {"lat": 38.903475666666665, "is_reserved": 0, "lon": -77.03549116666667, "fusion_lon": 0.0, "fusion_lat": 0.0, "is_disabled": 0, "type": "electric_scooter", "bike_id": "17102337791a75419cf1e77a7562ad32", "rental_uris": {"android": "https://dc.lft.to/lastmile_qr_scan", "ios": "https://dc.lft.to/lastmile_qr_scan"}, "name": "17102337791a75419cf1e77a7562ad32"}, {"lat": 38.85891016666667, "is_reserved": 0, "lon": -77.1186225, "fusion_lon": 0.0, "fusion_lat": 0.0, "is_disabled": 0, "type": "electric_bike", "bike_id": "f8ab274d68f08bc55ded56a21243032a", "rental_uris": {"android": "https://dc.lft.to/lastmile_qr_scan", "ios": "https://dc.lft.to/lastmile_qr_scan"}, "name": "f8ab274d68f08bc55ded56a21243032a"}, {"lat": 38.8851265, "is_reserved": 0, "lon": -77.00228583333333, "fusion_lon": 0.0, "fusion_lat": 0.0, "is_disabled": 0, "type": "electric_scooter", "bike_id": "dbcfa0adb3e15c7c0bb41cb7cd6964b6", "rental_uris": {"android": "https://dc.lft.to/lastmile_qr_scan", "ios": "https://dc.lft.to/lastmile_qr_scan"}, "name": "dbcfa0adb3e15c7c0bb41cb7cd6964b6"}, {"lat": 38.90132466666667, "is_reserved": 0, "lon": -77.0324545, "fusion_lon": 0.0, "fusion_lat": 0.0, "is_disabled": 0, "type": "electric_scooter", "bike_id": "b44ecd126b004c7e638aa441ada5a1c1", "rental_uris": {"android": "https://dc.lft.to/lastmile_qr_scan", "ios": "https://dc.lft.to/lastmile_qr_scan"}, "name": "b44ecd126b004c7e638aa441ada5a1c1"}, {"lat": 38.8973435, "is_reserved": 0, "lon": -77.00947633333334, "fusion_lon": 0.0, "fusion_lat": 0.0, "is_disabled": 0, "type": "electric_scooter", "bike_id": "bf36e8ad1d81a997b3d0b71d2c8967e5", "rental_uris": {"android": "https://dc.lft.to/lastmile_qr_scan", "ios": "https://dc.lft.to/lastmile_qr_scan"}, "name": "bf36e8ad1d81a997b3d0b71d2c8967e5"}, {"lat": 38.919982833333336, "is_reserved": 0, "lon": -77.03276966666667, "fusion_lon": 0.0, "fusion_lat": 0.0, "is_disabled": 0, "type": "electric_scooter", "bike_id": "52e84364ed8d88d5e70de171d19946e6", "rental_uris": {"android": "https://dc.lft.to/lastmile_qr_scan", "ios": "https://dc.lft.to/lastmile_qr_scan"}, "name": "52e84364ed8d88d5e70de171d19946e6"}, {"lat": 38.903076166666665, "is_reserved": 0, "lon": -77.016324, "fusion_lon": 0.0, "fusion_lat": 0.0, "is_disabled": 0, "type": "electric_scooter", "bike_id": "341463d48875f1d7a6bbdf5f75b63cb4", "rental_uris": {"android": "https://dc.lft.to/lastmile_qr_scan", "ios": "https://dc.lft.to/lastmile_qr_scan"}, "name": "341463d48875f1d7a6bbdf5f75b63cb4"}, {"lat": 38.87464583333333, "is_reserved": 0, "lon": -77.00489966666666, "fusion_lon": 0.0, "fusion_lat": 0.0, "is_disabled": 0, "type": "electric_scooter", "bike_id": "ce6d4b7412271bd79e310e8674b9bef8", "rental_uris": {"android": "https://dc.lft.to/lastmile_qr_scan", "ios": "https://dc.lft.to/lastmile_qr_scan"}, "name": "ce6d4b7412271bd79e310e8674b9bef8"}, {"lat": 38.866885333333336, "is_reserved": 0, "lon": -76.98543283333333, "fusion_lon": 0.0, "fusion_lat": 0.0, "is_disabled": 0, "type": "electric_scooter", "bike_id": "aebcca9f4d60e429d65108dd297b0261", "rental_uris": {"android": "https://dc.lft.to/lastmile_qr_scan", "ios": "https://dc.lft.to/lastmile_qr_scan"}, "name": "aebcca9f4d60e429d65108dd297b0261"}, {"lat": 38.93531133333333, "is_reserved": 0, "lon": -77.0235365, "fusion_lon": 0.0, "fusion_lat": 0.0, "is_disabled": 0, "type": "electric_scooter", "bike_id": "a7156474ac7a51f974ca9c8f28a328dc", "rental_uris": {"android": "https://dc.lft.to/lastmile_qr_scan", "ios": "https://dc.lft.to/lastmile_qr_scan"}, "name": "a7156474ac7a51f974ca9c8f28a328dc"}, {"lat": 38.93903816666667, "is_reserved": 0, "lon": -77.08488033333333, "fusion_lon": 0.0, "fusion_lat": 0.0, "is_disabled": 0, "type": "electric_scooter", "bike_id": "c25961e43374a178fbcebdc6eb00f543", "rental_uris": {"android": "https://dc.lft.to/lastmile_qr_scan", "ios": "https://dc.lft.to/lastmile_qr_scan"}, "name": "c25961e43374a178fbcebdc6eb00f543"}, {"lat": 38.917385833333334, "is_reserved": 0, "lon": -77.03183816666666, "fusion_lon": 0.0, "fusion_lat": 0.0, "is_disabled": 0, "type": "electric_scooter", "bike_id": "18b904d1a8c7e5b100b7fa6030d1c66e", "rental_uris": {"android": "https://dc.lft.to/lastmile_qr_scan", "ios": "https://dc.lft.to/lastmile_qr_scan"}, "name": "18b904d1a8c7e5b100b7fa6030d1c66e"}, {"lat": 38.900232333333335, "is_reserved": 0, "lon": -77.0068055, "fusion_lon": 0.0, "fusion_lat": 0.0, "is_disabled": 0, "type": "electric_scooter", "bike_id": "2c61a4a904acf47e1ca16941b3fbba85", "rental_uris": {"android": "https://dc.lft.to/lastmile_qr_scan", "ios": "https://dc.lft.to/lastmile_qr_scan"}, "name": "2c61a4a904acf47e1ca16941b3fbba85"}, {"lat": 38.900799666666664, "is_reserved": 0, "lon": -77.01219966666666, "fusion_lon": 0.0, "fusion_lat": 0.0, "is_disabled": 0, "type": "electric_scooter", "bike_id": "0c075b5d1d4f1b5e90b6aa4d51df6c3c", "rental_uris": {"android": "https://dc.lft.to/lastmile_qr_scan", "ios": "https://dc.lft.to/lastmile_qr_scan"}, "name": "0c075b5d1d4f1b5e90b6aa4d51df6c3c"}, {"lat": 38.906460333333335, "is_reserved": 0, "lon": -77.042036, "fusion_lon": 0.0, "fusion_lat": 0.0, "is_disabled": 0, "type": "electric_scooter", "bike_id": "c662cbf9689bd39b21c80ea6f7bd7e5f", "rental_uris": {"android": "https://dc.lft.to/lastmile_qr_scan", "ios": "https://dc.lft.to/lastmile_qr_scan"}, "name": "c662cbf9689bd39b21c80ea6f7bd7e5f"}, {"lat": 38.874681, "is_reserved": 0, "lon": -76.99995783333334, "fusion_lon": 0.0, "fusion_lat": 0.0, "is_disabled": 0, "type": "electric_scooter", "bike_id": "3600928ddbca74bb5e18ef07e1e39ed8", "rental_uris": {"android": "https://dc.lft.to/lastmile_qr_scan", "ios": "https://dc.lft.to/lastmile_qr_scan"}, "name": "3600928ddbca74bb5e18ef07e1e39ed8"}, {"lat": 38.91260583333333, "is_reserved": 0, "lon": -77.0314715, "fusion_lon": 0.0, "fusion_lat": 0.0, "is_disabled": 0, "type": "electric_scooter", "bike_id": "85d42da85025df13eb6362025c1ea837", "rental_uris": {"android": "https://dc.lft.to/lastmile_qr_scan", "ios": "https://dc.lft.to/lastmile_qr_scan"}, "name": "85d42da85025df13eb6362025c1ea837"}, {"lat": 38.89269266666667, "is_reserved": 0, "lon": -77.00129583333333, "fusion_lon": 0.0, "fusion_lat": 0.0, "is_disabled": 0, "type": "electric_scooter", "bike_id": "9589b122e3ef1cdf5d094647eae1a717", "rental_uris": {"android": "https://dc.lft.to/lastmile_qr_scan", "ios": "https://dc.lft.to/lastmile_qr_scan"}, "name": "9589b122e3ef1cdf5d094647eae1a717"}, {"lat": 38.9170005, "is_reserved": 0, "lon": -77.02304666666667, "fusion_lon": 0.0, "fusion_lat": 0.0, "is_disabled": 0, "type": "electric_scooter", "bike_id": "b91672a08d194ed9c111b14112d7dc1f", "rental_uris": {"android": "https://dc.lft.to/lastmile_qr_scan", "ios": "https://dc.lft.to/lastmile_qr_scan"}, "name": "b91672a08d194ed9c111b14112d7dc1f"}, {"lat": 38.914071666666665, "is_reserved": 0, "lon": -77.01474083333333, "fusion_lon": 0.0, "fusion_lat": 0.0, "is_disabled": 0, "type": "electric_scooter", "bike_id": "5697e8cfa10d890d309b1c1fb10107df", "rental_uris": {"android": "https://dc.lft.to/lastmile_qr_scan", "ios": "https://dc.lft.to/lastmile_qr_scan"}, "name": "5697e8cfa10d890d309b1c1fb10107df"}, {"lat": 38.901757, "is_reserved": 0, "lon": -77.0161335, "fusion_lon": 0.0, "fusion_lat": 0.0, "is_disabled": 0, "type": "electric_scooter", "bike_id": "83d2f4fb2ad816fbe807a916f2c531ae", "rental_uris": {"android": "https://dc.lft.to/lastmile_qr_scan", "ios": "https://dc.lft.to/lastmile_qr_scan"}, "name": "83d2f4fb2ad816fbe807a916f2c531ae"}, {"lat": 38.902264833333334, "is_reserved": 0, "lon": -77.04569066666667, "fusion_lon": 0.0, "fusion_lat": 0.0, "is_disabled": 0, "type": "electric_scooter", "bike_id": "140806a9a2046b5886c9a8399018deb9", "rental_uris": {"android": "https://dc.lft.to/lastmile_qr_scan", "ios": "https://dc.lft.to/lastmile_qr_scan"}, "name": "140806a9a2046b5886c9a8399018deb9"}, {"lat": 38.925062, "is_reserved": 0, "lon": -77.0227465, "fusion_lon": 0.0, "fusion_lat": 0.0, "is_disabled": 0, "type": "electric_scooter", "bike_id": "f8ec8eed177775fe780ebcf690194f7f", "rental_uris": {"android": "https://dc.lft.to/lastmile_qr_scan", "ios": "https://dc.lft.to/lastmile_qr_scan"}, "name": "f8ec8eed177775fe780ebcf690194f7f"}, {"lat": 38.90264966666667, "is_reserved": 0, "lon": -77.0383925, "fusion_lon": 0.0, "fusion_lat": 0.0, "is_disabled": 0, "type": "electric_scooter", "bike_id": "3cbcb6b39ad45d06f6c83f24c1115d9d", "rental_uris": {"android": "https://dc.lft.to/lastmile_qr_scan", "ios": "https://dc.lft.to/lastmile_qr_scan"}, "name": "3cbcb6b39ad45d06f6c83f24c1115d9d"}, {"lat": 38.90051166666667, "is_reserved": 0, "lon": -77.0507555, "fusion_lon": 0.0, "fusion_lat": 0.0, "is_disabled": 0, "type": "electric_scooter", "bike_id": "e6c9382826c99cdb0fe5ec2869de6c97", "rental_uris": {"android": "https://dc.lft.to/lastmile_qr_scan", "ios": "https://dc.lft.to/lastmile_qr_scan"}, "name": "e6c9382826c99cdb0fe5ec2869de6c97"}, {"lat": 38.864299833333334, "is_reserved": 0, "lon": -76.98003083333333, "fusion_lon": 0.0, "fusion_lat": 0.0, "is_disabled": 0, "type": "electric_scooter", "bike_id": "66c305fcabc9c6c714fce6a4d517ed7f", "rental_uris": {"android": "https://dc.lft.to/lastmile_qr_scan", "ios": "https://dc.lft.to/lastmile_qr_scan"}, "name": "66c305fcabc9c6c714fce6a4d517ed7f"}, {"lat": 38.91931983333333, "is_reserved": 0, "lon": -77.02512416666667, "fusion_lon": 0.0, "fusion_lat": 0.0, "is_disabled": 0, "type": "electric_scooter", "bike_id": "7b7452066b86631c9f315af4591e04a6", "rental_uris": {"android": "https://dc.lft.to/lastmile_qr_scan", "ios": "https://dc.lft.to/lastmile_qr_scan"}, "name": "7b7452066b86631c9f315af4591e04a6"}, {"lat": 38.923664, "is_reserved": 0, "lon": -77.00047533333333, "fusion_lon": 0.0, "fusion_lat": 0.0, "is_disabled": 0, "type": "electric_scooter", "bike_id": "cd022a4d8ae44e2ecf8c87e973ee053b", "rental_uris": {"android": "https://dc.lft.to/lastmile_qr_scan", "ios": "https://dc.lft.to/lastmile_qr_scan"}, "name": "cd022a4d8ae44e2ecf8c87e973ee053b"}, {"lat": 38.866795, "is_reserved": 0, "lon": -76.9857095, "fusion_lon": 0.0, "fusion_lat": 0.0, "is_disabled": 0, "type": "electric_scooter", "bike_id": "a7d7c29533bd36f2776d78bbfcbd4c10", "rental_uris": {"android": "https://dc.lft.to/lastmile_qr_scan", "ios": "https://dc.lft.to/lastmile_qr_scan"}, "name": "a7d7c29533bd36f2776d78bbfcbd4c10"}, {"lat": 38.98968433333334, "is_reserved": 0, "lon": -77.02381, "fusion_lon": 0.0, "fusion_lat": 0.0, "is_disabled": 0, "type": "electric_bike", "bike_id": "5fb7c2f51d04bbcf34b289310cc42838", "rental_uris": {"android": "https://dc.lft.to/lastmile_qr_scan", "ios": "https://dc.lft.to/lastmile_qr_scan"}, "name": "5fb7c2f51d04bbcf34b289310cc42838"}, {"lat": 38.89740883333333, "is_reserved": 0, "lon": -76.97977, "fusion_lon": 0.0, "fusion_lat": 0.0, "is_disabled": 0, "type": "electric_scooter", "bike_id": "e7b04dbf852286fc2772182e4646c311", "rental_uris": {"android": "https://dc.lft.to/lastmile_qr_scan", "ios": "https://dc.lft.to/lastmile_qr_scan"}, "name": "e7b04dbf852286fc2772182e4646c311"}, {"lat": 38.91858783333333, "is_reserved": 0, "lon": -77.04174283333333, "fusion_lon": 0.0, "fusion_lat": 0.0, "is_disabled": 0, "type": "electric_scooter", "bike_id": "b88ad6532f5f1c1540b60a7a4371eaaa", "rental_uris": {"android": "https://dc.lft.to/lastmile_qr_scan", "ios": "https://dc.lft.to/lastmile_qr_scan"}, "name": "b88ad6532f5f1c1540b60a7a4371eaaa"}, {"lat": 38.9348275, "is_reserved": 0, "lon": -77.07274833333334, "fusion_lon": 0.0, "fusion_lat": 0.0, "is_disabled": 0, "type": "electric_scooter", "bike_id": "34fdc1cdd4104d0af0378e56bf32df86", "rental_uris": {"android": "https://dc.lft.to/lastmile_qr_scan", "ios": "https://dc.lft.to/lastmile_qr_scan"}, "name": "34fdc1cdd4104d0af0378e56bf32df86"}, {"lat": 38.921332166666666, "is_reserved": 0, "lon": -77.01808566666666, "fusion_lon": 0.0, "fusion_lat": 0.0, "is_disabled": 0, "type": "electric_scooter", "bike_id": "e659d88a5e05dbaf9568aacb833ab87a", "rental_uris": {"android": "https://dc.lft.to/lastmile_qr_scan", "ios": "https://dc.lft.to/lastmile_qr_scan"}, "name": "e659d88a5e05dbaf9568aacb833ab87a"}, {"lat": 38.9050665, "is_reserved": 0, "lon": -77.04177033333333, "fusion_lon": 0.0, "fusion_lat": 0.0, "is_disabled": 0, "type": "electric_scooter", "bike_id": "c0ac2c91c388b40c0ec0382708b1c870", "rental_uris": {"android": "https://dc.lft.to/lastmile_qr_scan", "ios": "https://dc.lft.to/lastmile_qr_scan"}, "name": "c0ac2c91c388b40c0ec0382708b1c870"}, {"lat": 38.90133466666666, "is_reserved": 0, "lon": -77.04674316666667, "fusion_lon": 0.0, "fusion_lat": 0.0, "is_disabled": 0, "type": "electric_scooter", "bike_id": "9ae3b15bf2e447609b332d39caa0673a", "rental_uris": {"android": "https://dc.lft.to/lastmile_qr_scan", "ios": "https://dc.lft.to/lastmile_qr_scan"}, "name": "9ae3b15bf2e447609b332d39caa0673a"}, {"lat": 38.930816166666666, "is_reserved": 0, "lon": -77.0248275, "fusion_lon": 0.0, "fusion_lat": 0.0, "is_disabled": 0, "type": "electric_scooter", "bike_id": "0ba2ba8f952be56fe0717ef30fab7440", "rental_uris": {"android": "https://dc.lft.to/lastmile_qr_scan", "ios": "https://dc.lft.to/lastmile_qr_scan"}, "name": "0ba2ba8f952be56fe0717ef30fab7440"}, {"lat": 38.925308666666666, "is_reserved": 0, "lon": -77.05068733333333, "fusion_lon": 0.0, "fusion_lat": 0.0, "is_disabled": 0, "type": "electric_scooter", "bike_id": "1965f1559bc34036341ced9ffd1fe709", "rental_uris": {"android": "https://dc.lft.to/lastmile_qr_scan", "ios": "https://dc.lft.to/lastmile_qr_scan"}, "name": "1965f1559bc34036341ced9ffd1fe709"}, {"lat": 38.91553733333333, "is_reserved": 0, "lon": -77.02134216666667, "fusion_lon": 0.0, "fusion_lat": 0.0, "is_disabled": 0, "type": "electric_scooter", "bike_id": "3cfe4c040bcb116894e6a8a44301c25d", "rental_uris": {"android": "https://dc.lft.to/lastmile_qr_scan", "ios": "https://dc.lft.to/lastmile_qr_scan"}, "name": "3cfe4c040bcb116894e6a8a44301c25d"}, {"lat": 38.90582933333334, "is_reserved": 0, "lon": -77.043309, "fusion_lon": 0.0, "fusion_lat": 0.0, "is_disabled": 0, "type": "electric_scooter", "bike_id": "97378246be33f469737275d6b3ee50bc", "rental_uris": {"android": "https://dc.lft.to/lastmile_qr_scan", "ios": "https://dc.lft.to/lastmile_qr_scan"}, "name": "97378246be33f469737275d6b3ee50bc"}, {"lat": 38.90262366666666, "is_reserved": 0, "lon": -77.03827016666666, "fusion_lon": 0.0, "fusion_lat": 0.0, "is_disabled": 0, "type": "electric_scooter", "bike_id": "71607ceb916a24a614092e313c844826", "rental_uris": {"android": "https://dc.lft.to/lastmile_qr_scan", "ios": "https://dc.lft.to/lastmile_qr_scan"}, "name": "71607ceb916a24a614092e313c844826"}, {"lat": 38.903659, "is_reserved": 0, "lon": -76.98602283333334, "fusion_lon": 0.0, "fusion_lat": 0.0, "is_disabled": 0, "type": "electric_scooter", "bike_id": "6e9841c78fde05779ccdf280daf97728", "rental_uris": {"android": "https://dc.lft.to/lastmile_qr_scan", "ios": "https://dc.lft.to/lastmile_qr_scan"}, "name": "6e9841c78fde05779ccdf280daf97728"}, {"lat": 38.8535515, "is_reserved": 0, "lon": -77.1346775, "fusion_lon": 0.0, "fusion_lat": 0.0, "is_disabled": 0, "type": "electric_bike", "bike_id": "28fea64471297752ae6c845994e4ba48", "rental_uris": {"android": "https://dc.lft.to/lastmile_qr_scan", "ios": "https://dc.lft.to/lastmile_qr_scan"}, "name": "28fea64471297752ae6c845994e4ba48"}, {"lat": 38.90125883333333, "is_reserved": 0, "lon": -77.03255666666666, "fusion_lon": 0.0, "fusion_lat": 0.0, "is_disabled": 0, "type": "electric_scooter", "bike_id": "3de526ebdd47da7fc55769c021f45b02", "rental_uris": {"android": "https://dc.lft.to/lastmile_qr_scan", "ios": "https://dc.lft.to/lastmile_qr_scan"}, "name": "3de526ebdd47da7fc55769c021f45b02"}, {"lat": 38.89392983333333, "is_reserved": 0, "lon": -77.02346183333333, "fusion_lon": 0.0, "fusion_lat": 0.0, "is_disabled": 0, "type": "electric_scooter", "bike_id": "ef95818c9ebaa47aed690b2b9263cca9", "rental_uris": {"android": "https://dc.lft.to/lastmile_qr_scan", "ios": "https://dc.lft.to/lastmile_qr_scan"}, "name": "ef95818c9ebaa47aed690b2b9263cca9"}, {"lat": 38.928588500000004, "is_reserved": 0, "lon": -77.02174283333333, "fusion_lon": 0.0, "fusion_lat": 0.0, "is_disabled": 0, "type": "electric_scooter", "bike_id": "ec540ea97bef4902244c7a3c86c497f2", "rental_uris": {"android": "https://dc.lft.to/lastmile_qr_scan", "ios": "https://dc.lft.to/lastmile_qr_scan"}, "name": "ec540ea97bef4902244c7a3c86c497f2"}, {"lat": 38.92388566666666, "is_reserved": 0, "lon": -77.04451883333333, "fusion_lon": 0.0, "fusion_lat": 0.0, "is_disabled": 0, "type": "electric_scooter", "bike_id": "90602a0f5f7bb79889a2e465d1b43da7", "rental_uris": {"android": "https://dc.lft.to/lastmile_qr_scan", "ios": "https://dc.lft.to/lastmile_qr_scan"}, "name": "90602a0f5f7bb79889a2e465d1b43da7"}, {"lat": 38.89902333333333, "is_reserved": 0, "lon": -76.93369666666666, "fusion_lon": 0.0, "fusion_lat": 0.0, "is_disabled": 0, "type": "electric_scooter", "bike_id": "14d534cd44a016407b9dffef6b02fc24", "rental_uris": {"android": "https://dc.lft.to/lastmile_qr_scan", "ios": "https://dc.lft.to/lastmile_qr_scan"}, "name": "14d534cd44a016407b9dffef6b02fc24"}, {"lat": 38.90442483333333, "is_reserved": 0, "lon": -77.04850366666666, "fusion_lon": 0.0, "fusion_lat": 0.0, "is_disabled": 0, "type": "electric_scooter", "bike_id": "d4dd3f20629b0cbee36734fb9c9bb22b", "rental_uris": {"android": "https://dc.lft.to/lastmile_qr_scan", "ios": "https://dc.lft.to/lastmile_qr_scan"}, "name": "d4dd3f20629b0cbee36734fb9c9bb22b"}, {"lat": 38.91923716666667, "is_reserved": 0, "lon": -77.03361566666666, "fusion_lon": 0.0, "fusion_lat": 0.0, "is_disabled": 0, "type": "electric_scooter", "bike_id": "92418de28580bea28841b4facee7f469", "rental_uris": {"android": "https://dc.lft.to/lastmile_qr_scan", "ios": "https://dc.lft.to/lastmile_qr_scan"}, "name": "92418de28580bea28841b4facee7f469"}, {"lat": 38.9175475, "is_reserved": 0, "lon": -77.012164, "fusion_lon": 0.0, "fusion_lat": 0.0, "is_disabled": 0, "type": "electric_scooter", "bike_id": "e9b0c813e260e66519ed4dd3b169d120", "rental_uris": {"android": "https://dc.lft.to/lastmile_qr_scan", "ios": "https://dc.lft.to/lastmile_qr_scan"}, "name": "e9b0c813e260e66519ed4dd3b169d120"}, {"lat": 38.904430166666664, "is_reserved": 0, "lon": -76.980038, "fusion_lon": 0.0, "fusion_lat": 0.0, "is_disabled": 0, "type": "electric_scooter", "bike_id": "4005a7c902c7181b1cfd99e42a1ddb2b", "rental_uris": {"android": "https://dc.lft.to/lastmile_qr_scan", "ios": "https://dc.lft.to/lastmile_qr_scan"}, "name": "4005a7c902c7181b1cfd99e42a1ddb2b"}, {"lat": 38.909787333333334, "is_reserved": 0, "lon": -76.99496866666667, "fusion_lon": 0.0, "fusion_lat": 0.0, "is_disabled": 0, "type": "electric_scooter", "bike_id": "2f86e7ea3590d10abda1f89d61d5cec1", "rental_uris": {"android": "https://dc.lft.to/lastmile_qr_scan", "ios": "https://dc.lft.to/lastmile_qr_scan"}, "name": "2f86e7ea3590d10abda1f89d61d5cec1"}, {"lat": 38.920247833333335, "is_reserved": 0, "lon": -77.03166283333333, "fusion_lon": 0.0, "fusion_lat": 0.0, "is_disabled": 0, "type": "electric_scooter", "bike_id": "17780b629dab459fc83263a124da60b4", "rental_uris": {"android": "https://dc.lft.to/lastmile_qr_scan", "ios": "https://dc.lft.to/lastmile_qr_scan"}, "name": "17780b629dab459fc83263a124da60b4"}, {"lat": 38.92245483333333, "is_reserved": 0, "lon": -76.980836, "fusion_lon": 0.0, "fusion_lat": 0.0, "is_disabled": 0, "type": "electric_scooter", "bike_id": "fdf6f677c4813afd1532914da930a8d2", "rental_uris": {"android": "https://dc.lft.to/lastmile_qr_scan", "ios": "https://dc.lft.to/lastmile_qr_scan"}, "name": "fdf6f677c4813afd1532914da930a8d2"}, {"lat": 38.93531483333334, "is_reserved": 0, "lon": -77.02349183333334, "fusion_lon": 0.0, "fusion_lat": 0.0, "is_disabled": 0, "type": "electric_scooter", "bike_id": "03142b2463cf4f253d8dd17d481d03b6", "rental_uris": {"android": "https://dc.lft.to/lastmile_qr_scan", "ios": "https://dc.lft.to/lastmile_qr_scan"}, "name": "03142b2463cf4f253d8dd17d481d03b6"}, {"lat": 38.91695033333333, "is_reserved": 0, "lon": -77.0119625, "fusion_lon": 0.0, "fusion_lat": 0.0, "is_disabled": 0, "type": "electric_bike", "bike_id": "3e1585e517792d7af72a624493dc42a5", "rental_uris": {"android": "https://dc.lft.to/lastmile_qr_scan", "ios": "https://dc.lft.to/lastmile_qr_scan"}, "name": "3e1585e517792d7af72a624493dc42a5"}, {"lat": 38.919283166666666, "is_reserved": 0, "lon": -77.03097816666667, "fusion_lon": 0.0, "fusion_lat": 0.0, "is_disabled": 0, "type": "electric_scooter", "bike_id": "1e44fea1c4c6d6c94434fa31ddcfbd61", "rental_uris": {"android": "https://dc.lft.to/lastmile_qr_scan", "ios": "https://dc.lft.to/lastmile_qr_scan"}, "name": "1e44fea1c4c6d6c94434fa31ddcfbd61"}, {"lat": 38.908678333333334, "is_reserved": 0, "lon": -76.93339533333334, "fusion_lon": 0.0, "fusion_lat": 0.0, "is_disabled": 0, "type": "electric_scooter", "bike_id": "7a57006f32a40b952474264d9c7efcfa", "rental_uris": {"android": "https://dc.lft.to/lastmile_qr_scan", "ios": "https://dc.lft.to/lastmile_qr_scan"}, "name": "7a57006f32a40b952474264d9c7efcfa"}, {"lat": 38.898283166666666, "is_reserved": 0, "lon": -77.03322233333333, "fusion_lon": 0.0, "fusion_lat": 0.0, "is_disabled": 0, "type": "electric_scooter", "bike_id": "cc917cd7f182fd84c25fd2eb19c6a288", "rental_uris": {"android": "https://dc.lft.to/lastmile_qr_scan", "ios": "https://dc.lft.to/lastmile_qr_scan"}, "name": "cc917cd7f182fd84c25fd2eb19c6a288"}, {"lat": 38.91055866666667, "is_reserved": 0, "lon": -77.03307433333333, "fusion_lon": 0.0, "fusion_lat": 0.0, "is_disabled": 0, "type": "electric_scooter", "bike_id": "d882b512612d0e65aee957893268212c", "rental_uris": {"android": "https://dc.lft.to/lastmile_qr_scan", "ios": "https://dc.lft.to/lastmile_qr_scan"}, "name": "d882b512612d0e65aee957893268212c"}, {"lat": 38.9072825, "is_reserved": 0, "lon": -77.03212483333333, "fusion_lon": 0.0, "fusion_lat": 0.0, "is_disabled": 0, "type": "electric_scooter", "bike_id": "388e2a76f37dfe06d4cd5496e8c15944", "rental_uris": {"android": "https://dc.lft.to/lastmile_qr_scan", "ios": "https://dc.lft.to/lastmile_qr_scan"}, "name": "388e2a76f37dfe06d4cd5496e8c15944"}, {"lat": 38.90845383333333, "is_reserved": 0, "lon": -77.04536733333333, "fusion_lon": 0.0, "fusion_lat": 0.0, "is_disabled": 0, "type": "electric_scooter", "bike_id": "c195c7506277a8a3db9aa74890a0764a", "rental_uris": {"android": "https://dc.lft.to/lastmile_qr_scan", "ios": "https://dc.lft.to/lastmile_qr_scan"}, "name": "c195c7506277a8a3db9aa74890a0764a"}, {"lat": 38.9351395, "is_reserved": 0, "lon": -77.03287333333333, "fusion_lon": 0.0, "fusion_lat": 0.0, "is_disabled": 0, "type": "electric_scooter", "bike_id": "beff82a018125f10478f7a7eee7b3ee3", "rental_uris": {"android": "https://dc.lft.to/lastmile_qr_scan", "ios": "https://dc.lft.to/lastmile_qr_scan"}, "name": "beff82a018125f10478f7a7eee7b3ee3"}, {"lat": 38.89956, "is_reserved": 0, "lon": -76.97531283333333, "fusion_lon": 0.0, "fusion_lat": 0.0, "is_disabled": 0, "type": "electric_scooter", "bike_id": "8d8cfbf1485174011dfab88c26e553ae", "rental_uris": {"android": "https://dc.lft.to/lastmile_qr_scan", "ios": "https://dc.lft.to/lastmile_qr_scan"}, "name": "8d8cfbf1485174011dfab88c26e553ae"}, {"lat": 38.901261166666664, "is_reserved": 0, "lon": -77.05399366666667, "fusion_lon": 0.0, "fusion_lat": 0.0, "is_disabled": 0, "type": "electric_scooter", "bike_id": "ed00748e40109950f5e9fbb304d9d259", "rental_uris": {"android": "https://dc.lft.to/lastmile_qr_scan", "ios": "https://dc.lft.to/lastmile_qr_scan"}, "name": "ed00748e40109950f5e9fbb304d9d259"}, {"lat": 38.923276666666666, "is_reserved": 0, "lon": -77.01957766666666, "fusion_lon": 0.0, "fusion_lat": 0.0, "is_disabled": 0, "type": "electric_scooter", "bike_id": "3f361f62c0120e6194ba757d017689b4", "rental_uris": {"android": "https://dc.lft.to/lastmile_qr_scan", "ios": "https://dc.lft.to/lastmile_qr_scan"}, "name": "3f361f62c0120e6194ba757d017689b4"}, {"lat": 38.925768, "is_reserved": 0, "lon": -77.05423466666667, "fusion_lon": 0.0, "fusion_lat": 0.0, "is_disabled": 0, "type": "electric_scooter", "bike_id": "0200fd6e79e9fcdf3f6e7e1e4ff73a59", "rental_uris": {"android": "https://dc.lft.to/lastmile_qr_scan", "ios": "https://dc.lft.to/lastmile_qr_scan"}, "name": "0200fd6e79e9fcdf3f6e7e1e4ff73a59"}, {"lat": 38.87572766666667, "is_reserved": 0, "lon": -77.00576916666667, "fusion_lon": 0.0, "fusion_lat": 0.0, "is_disabled": 0, "type": "electric_scooter", "bike_id": "a9023c65905bb240f64b08f3c2bbeeca", "rental_uris": {"android": "https://dc.lft.to/lastmile_qr_scan", "ios": "https://dc.lft.to/lastmile_qr_scan"}, "name": "a9023c65905bb240f64b08f3c2bbeeca"}, {"lat": 38.84613316666667, "is_reserved": 0, "lon": -76.96909883333333, "fusion_lon": 0.0, "fusion_lat": 0.0, "is_disabled": 0, "type": "electric_bike", "bike_id": "b7c91d69f3fa9b36af53d32de6e368f3", "rental_uris": {"android": "https://dc.lft.to/lastmile_qr_scan", "ios": "https://dc.lft.to/lastmile_qr_scan"}, "name": "b7c91d69f3fa9b36af53d32de6e368f3"}, {"lat": 38.85951583333333, "is_reserved": 0, "lon": -76.9857665, "fusion_lon": 0.0, "fusion_lat": 0.0, "is_disabled": 0, "type": "electric_scooter", "bike_id": "d45ae062bba62f3692a4699a8adf4863", "rental_uris": {"android": "https://dc.lft.to/lastmile_qr_scan", "ios": "https://dc.lft.to/lastmile_qr_scan"}, "name": "d45ae062bba62f3692a4699a8adf4863"}, {"lat": 38.93782066666667, "is_reserved": 0, "lon": -77.033391, "fusion_lon": 0.0, "fusion_lat": 0.0, "is_disabled": 0, "type": "electric_scooter", "bike_id": "4b38ee1bddbfa9680aee42b8659a8382", "rental_uris": {"android": "https://dc.lft.to/lastmile_qr_scan", "ios": "https://dc.lft.to/lastmile_qr_scan"}, "name": "4b38ee1bddbfa9680aee42b8659a8382"}, {"lat": 38.912536333333335, "is_reserved": 0, "lon": -77.03233216666666, "fusion_lon": 0.0, "fusion_lat": 0.0, "is_disabled": 0, "type": "electric_scooter", "bike_id": "f9ab677f9472eb1039f21ead27c44c50", "rental_uris": {"android": "https://dc.lft.to/lastmile_qr_scan", "ios": "https://dc.lft.to/lastmile_qr_scan"}, "name": "f9ab677f9472eb1039f21ead27c44c50"}, {"lat": 38.9202905, "is_reserved": 0, "lon": -77.00303316666667, "fusion_lon": 0.0, "fusion_lat": 0.0, "is_disabled": 0, "type": "electric_scooter", "bike_id": "42db46ea6cea007862eb3f510e0d3b5d", "rental_uris": {"android": "https://dc.lft.to/lastmile_qr_scan", "ios": "https://dc.lft.to/lastmile_qr_scan"}, "name": "42db46ea6cea007862eb3f510e0d3b5d"}, {"lat": 38.884887166666665, "is_reserved": 0, "lon": -77.007098, "fusion_lon": 0.0, "fusion_lat": 0.0, "is_disabled": 0, "type": "electric_scooter", "bike_id": "1e312375ebca5ff3cd21103dd6218f69", "rental_uris": {"android": "https://dc.lft.to/lastmile_qr_scan", "ios": "https://dc.lft.to/lastmile_qr_scan"}, "name": "1e312375ebca5ff3cd21103dd6218f69"}, {"lat": 38.8972135, "is_reserved": 0, "lon": -77.04621416666667, "fusion_lon": 0.0, "fusion_lat": 0.0, "is_disabled": 0, "type": "electric_scooter", "bike_id": "a82127725d7aef08ce314d7aa3de96bc", "rental_uris": {"android": "https://dc.lft.to/lastmile_qr_scan", "ios": "https://dc.lft.to/lastmile_qr_scan"}, "name": "a82127725d7aef08ce314d7aa3de96bc"}, {"lat": 38.92134933333333, "is_reserved": 0, "lon": -77.01798416666666, "fusion_lon": 0.0, "fusion_lat": 0.0, "is_disabled": 0, "type": "electric_scooter", "bike_id": "336c0ff6f3c86dbdd1cef28a9acbb893", "rental_uris": {"android": "https://dc.lft.to/lastmile_qr_scan", "ios": "https://dc.lft.to/lastmile_qr_scan"}, "name": "336c0ff6f3c86dbdd1cef28a9acbb893"}, {"lat": 38.98767983333333, "is_reserved": 0, "lon": -77.14052683333334, "fusion_lon": 0.0, "fusion_lat": 0.0, "is_disabled": 0, "type": "electric_bike", "bike_id": "b65ce5757cd8ca3f89c06ee255ac333e", "rental_uris": {"android": "https://dc.lft.to/lastmile_qr_scan", "ios": "https://dc.lft.to/lastmile_qr_scan"}, "name": "b65ce5757cd8ca3f89c06ee255ac333e"}, {"lat": 38.86725416666667, "is_reserved": 0, "lon": -76.986987, "fusion_lon": 0.0, "fusion_lat": 0.0, "is_disabled": 0, "type": "electric_scooter", "bike_id": "e114779e1088c40f009302c91b14cfde", "rental_uris": {"android": "https://dc.lft.to/lastmile_qr_scan", "ios": "https://dc.lft.to/lastmile_qr_scan"}, "name": "e114779e1088c40f009302c91b14cfde"}, {"lat": 38.92484733333333, "is_reserved": 0, "lon": -77.03178666666666, "fusion_lon": 0.0, "fusion_lat": 0.0, "is_disabled": 0, "type": "electric_scooter", "bike_id": "26689d62a9736a151f7239e3a6f69348", "rental_uris": {"android": "https://dc.lft.to/lastmile_qr_scan", "ios": "https://dc.lft.to/lastmile_qr_scan"}, "name": "26689d62a9736a151f7239e3a6f69348"}, {"lat": 38.91490533333333, "is_reserved": 0, "lon": -77.04154516666667, "fusion_lon": 0.0, "fusion_lat": 0.0, "is_disabled": 0, "type": "electric_scooter", "bike_id": "392cd9360b28287b196441341340004c", "rental_uris": {"android": "https://dc.lft.to/lastmile_qr_scan", "ios": "https://dc.lft.to/lastmile_qr_scan"}, "name": "392cd9360b28287b196441341340004c"}, {"lat": 38.84639083333333, "is_reserved": 0, "lon": -76.99129583333334, "fusion_lon": 0.0, "fusion_lat": 0.0, "is_disabled": 0, "type": "electric_scooter", "bike_id": "10ad5d8962c882e1fb00d398e8339179", "rental_uris": {"android": "https://dc.lft.to/lastmile_qr_scan", "ios": "https://dc.lft.to/lastmile_qr_scan"}, "name": "10ad5d8962c882e1fb00d398e8339179"}, {"lat": 38.82171666666667, "is_reserved": 0, "lon": -76.99514266666667, "fusion_lon": 0.0, "fusion_lat": 0.0, "is_disabled": 0, "type": "electric_bike", "bike_id": "2a116f0686c07b0c7e747a056cead91c", "rental_uris": {"android": "https://dc.lft.to/lastmile_qr_scan", "ios": "https://dc.lft.to/lastmile_qr_scan"}, "name": "2a116f0686c07b0c7e747a056cead91c"}, {"lat": 38.91711683333333, "is_reserved": 0, "lon": -77.02462566666667, "fusion_lon": 0.0, "fusion_lat": 0.0, "is_disabled": 0, "type": "electric_scooter", "bike_id": "f5a8de11e585b985174b34fa668720c6", "rental_uris": {"android": "https://dc.lft.to/lastmile_qr_scan", "ios": "https://dc.lft.to/lastmile_qr_scan"}, "name": "f5a8de11e585b985174b34fa668720c6"}, {"lat": 38.8524875, "is_reserved": 0, "lon": -77.10783583333334, "fusion_lon": 0.0, "fusion_lat": 0.0, "is_disabled": 0, "type": "electric_bike", "bike_id": "12e7a896f7771e1597324013d19c70fd", "rental_uris": {"android": "https://dc.lft.to/lastmile_qr_scan", "ios": "https://dc.lft.to/lastmile_qr_scan"}, "name": "12e7a896f7771e1597324013d19c70fd"}, {"lat": 38.866897, "is_reserved": 0, "lon": -76.98541466666667, "fusion_lon": 0.0, "fusion_lat": 0.0, "is_disabled": 0, "type": "electric_scooter", "bike_id": "3393b0cf9d8d99d8895de5501cc6a0a8", "rental_uris": {"android": "https://dc.lft.to/lastmile_qr_scan", "ios": "https://dc.lft.to/lastmile_qr_scan"}, "name": "3393b0cf9d8d99d8895de5501cc6a0a8"}, {"lat": 38.909068833333336, "is_reserved": 0, "lon": -76.997744, "fusion_lon": 0.0, "fusion_lat": 0.0, "is_disabled": 0, "type": "electric_scooter", "bike_id": "e3852ef6462ea67a35809213256b52fa", "rental_uris": {"android": "https://dc.lft.to/lastmile_qr_scan", "ios": "https://dc.lft.to/lastmile_qr_scan"}, "name": "e3852ef6462ea67a35809213256b52fa"}, {"lat": 38.92353716666667, "is_reserved": 0, "lon": -77.04252716666667, "fusion_lon": 0.0, "fusion_lat": 0.0, "is_disabled": 0, "type": "electric_scooter", "bike_id": "7aab10edcd1f7ffb98acbb45c031038f", "rental_uris": {"android": "https://dc.lft.to/lastmile_qr_scan", "ios": "https://dc.lft.to/lastmile_qr_scan"}, "name": "7aab10edcd1f7ffb98acbb45c031038f"}, {"lat": 38.899531333333336, "is_reserved": 0, "lon": -77.04478033333334, "fusion_lon": 0.0, "fusion_lat": 0.0, "is_disabled": 0, "type": "electric_scooter", "bike_id": "10f45309583afaba62df16545f2d85fb", "rental_uris": {"android": "https://dc.lft.to/lastmile_qr_scan", "ios": "https://dc.lft.to/lastmile_qr_scan"}, "name": "10f45309583afaba62df16545f2d85fb"}, {"lat": 38.905638, "is_reserved": 0, "lon": -77.005643, "fusion_lon": 0.0, "fusion_lat": 0.0, "is_disabled": 0, "type": "electric_scooter", "bike_id": "44a9af8964788964d91dda0681eb77f1", "rental_uris": {"android": "https://dc.lft.to/lastmile_qr_scan", "ios": "https://dc.lft.to/lastmile_qr_scan"}, "name": "44a9af8964788964d91dda0681eb77f1"}, {"lat": 38.884765333333334, "is_reserved": 0, "lon": -77.015247, "fusion_lon": 0.0, "fusion_lat": 0.0, "is_disabled": 0, "type": "electric_scooter", "bike_id": "34ee7c8414b362b5856e50d3975801bc", "rental_uris": {"android": "https://dc.lft.to/lastmile_qr_scan", "ios": "https://dc.lft.to/lastmile_qr_scan"}, "name": "34ee7c8414b362b5856e50d3975801bc"}, {"lat": 38.9233835, "is_reserved": 0, "lon": -77.05039133333334, "fusion_lon": 0.0, "fusion_lat": 0.0, "is_disabled": 0, "type": "electric_scooter", "bike_id": "79721ae27f4375f00966cc08cdc5a8b5", "rental_uris": {"android": "https://dc.lft.to/lastmile_qr_scan", "ios": "https://dc.lft.to/lastmile_qr_scan"}, "name": "79721ae27f4375f00966cc08cdc5a8b5"}, {"lat": 38.890076666666666, "is_reserved": 0, "lon": -77.03322133333333, "fusion_lon": 0.0, "fusion_lat": 0.0, "is_disabled": 0, "type": "electric_scooter", "bike_id": "3bfed05a29d0712f8362c787074fd74c", "rental_uris": {"android": "https://dc.lft.to/lastmile_qr_scan", "ios": "https://dc.lft.to/lastmile_qr_scan"}, "name": "3bfed05a29d0712f8362c787074fd74c"}, {"lat": 38.92876416666667, "is_reserved": 0, "lon": -77.03740266666667, "fusion_lon": 0.0, "fusion_lat": 0.0, "is_disabled": 0, "type": "electric_scooter", "bike_id": "901df0f9264b4aba7325cdfe7cdf5cc0", "rental_uris": {"android": "https://dc.lft.to/lastmile_qr_scan", "ios": "https://dc.lft.to/lastmile_qr_scan"}, "name": "901df0f9264b4aba7325cdfe7cdf5cc0"}, {"lat": 38.9181155, "is_reserved": 0, "lon": -77.03979983333333, "fusion_lon": 0.0, "fusion_lat": 0.0, "is_disabled": 0, "type": "electric_scooter", "bike_id": "4a7ad9bae03b9c6a36638e692bac6975", "rental_uris": {"android": "https://dc.lft.to/lastmile_qr_scan", "ios": "https://dc.lft.to/lastmile_qr_scan"}, "name": "4a7ad9bae03b9c6a36638e692bac6975"}, {"lat": 38.87173716666667, "is_reserved": 0, "lon": -77.00679783333334, "fusion_lon": 0.0, "fusion_lat": 0.0, "is_disabled": 0, "type": "electric_scooter", "bike_id": "d63297c8a4a0063e780a535ce0f5a8a2", "rental_uris": {"android": "https://dc.lft.to/lastmile_qr_scan", "ios": "https://dc.lft.to/lastmile_qr_scan"}, "name": "d63297c8a4a0063e780a535ce0f5a8a2"}, {"lat": 38.877459, "is_reserved": 0, "lon": -76.99750483333334, "fusion_lon": 0.0, "fusion_lat": 0.0, "is_disabled": 0, "type": "electric_scooter", "bike_id": "b157fd3e42560a6e3417321e464b0dd4", "rental_uris": {"android": "https://dc.lft.to/lastmile_qr_scan", "ios": "https://dc.lft.to/lastmile_qr_scan"}, "name": "b157fd3e42560a6e3417321e464b0dd4"}, {"lat": 38.9141375, "is_reserved": 0, "lon": -77.02120133333334, "fusion_lon": 0.0, "fusion_lat": 0.0, "is_disabled": 0, "type": "electric_scooter", "bike_id": "8aafc630969825b32ed775df808dd7ba", "rental_uris": {"android": "https://dc.lft.to/lastmile_qr_scan", "ios": "https://dc.lft.to/lastmile_qr_scan"}, "name": "8aafc630969825b32ed775df808dd7ba"}, {"lat": 38.898300166666665, "is_reserved": 0, "lon": -76.946323, "fusion_lon": 0.0, "fusion_lat": 0.0, "is_disabled": 0, "type": "electric_scooter", "bike_id": "0230a0464985a689c152070822e22166", "rental_uris": {"android": "https://dc.lft.to/lastmile_qr_scan", "ios": "https://dc.lft.to/lastmile_qr_scan"}, "name": "0230a0464985a689c152070822e22166"}, {"lat": 38.90948733333333, "is_reserved": 0, "lon": -77.04418183333334, "fusion_lon": 0.0, "fusion_lat": 0.0, "is_disabled": 0, "type": "electric_scooter", "bike_id": "1fa542e9df3503f00a56b9130406f97e", "rental_uris": {"android": "https://dc.lft.to/lastmile_qr_scan", "ios": "https://dc.lft.to/lastmile_qr_scan"}, "name": "1fa542e9df3503f00a56b9130406f97e"}, {"lat": 38.8935955, "is_reserved": 0, "lon": -76.94934183333334, "fusion_lon": 0.0, "fusion_lat": 0.0, "is_disabled": 0, "type": "electric_scooter", "bike_id": "165812e89b03702094f7395b68f285b4", "rental_uris": {"android": "https://dc.lft.to/lastmile_qr_scan", "ios": "https://dc.lft.to/lastmile_qr_scan"}, "name": "165812e89b03702094f7395b68f285b4"}, {"lat": 38.8819155, "is_reserved": 0, "lon": -77.02082716666666, "fusion_lon": 0.0, "fusion_lat": 0.0, "is_disabled": 0, "type": "electric_scooter", "bike_id": "a9783c9cc2be339780cb578c727a5504", "rental_uris": {"android": "https://dc.lft.to/lastmile_qr_scan", "ios": "https://dc.lft.to/lastmile_qr_scan"}, "name": "a9783c9cc2be339780cb578c727a5504"}, {"lat": 38.9085595, "is_reserved": 0, "lon": -77.00383166666667, "fusion_lon": 0.0, "fusion_lat": 0.0, "is_disabled": 0, "type": "electric_scooter", "bike_id": "53939dc7fe85072a18a7a9a5abffd73b", "rental_uris": {"android": "https://dc.lft.to/lastmile_qr_scan", "ios": "https://dc.lft.to/lastmile_qr_scan"}, "name": "53939dc7fe85072a18a7a9a5abffd73b"}, {"lat": 38.900129666666665, "is_reserved": 0, "lon": -76.98595466666667, "fusion_lon": 0.0, "fusion_lat": 0.0, "is_disabled": 0, "type": "electric_scooter", "bike_id": "3fb6cba890c8519637fe18b01d77c97d", "rental_uris": {"android": "https://dc.lft.to/lastmile_qr_scan", "ios": "https://dc.lft.to/lastmile_qr_scan"}, "name": "3fb6cba890c8519637fe18b01d77c97d"}, {"lat": 38.87827683333333, "is_reserved": 0, "lon": -77.00198616666667, "fusion_lon": 0.0, "fusion_lat": 0.0, "is_disabled": 0, "type": "electric_scooter", "bike_id": "8275d65401099002ee6ab943d2cbba51", "rental_uris": {"android": "https://dc.lft.to/lastmile_qr_scan", "ios": "https://dc.lft.to/lastmile_qr_scan"}, "name": "8275d65401099002ee6ab943d2cbba51"}, {"lat": 38.9028355, "is_reserved": 0, "lon": -77.03830483333333, "fusion_lon": 0.0, "fusion_lat": 0.0, "is_disabled": 0, "type": "electric_scooter", "bike_id": "e4e903f1b02f796eee66e3ec170790ce", "rental_uris": {"android": "https://dc.lft.to/lastmile_qr_scan", "ios": "https://dc.lft.to/lastmile_qr_scan"}, "name": "e4e903f1b02f796eee66e3ec170790ce"}, {"lat": 38.89861283333333, "is_reserved": 0, "lon": -76.9463975, "fusion_lon": 0.0, "fusion_lat": 0.0, "is_disabled": 0, "type": "electric_scooter", "bike_id": "b5a48d3e1ca085e51d7d9fc917d96d91", "rental_uris": {"android": "https://dc.lft.to/lastmile_qr_scan", "ios": "https://dc.lft.to/lastmile_qr_scan"}, "name": "b5a48d3e1ca085e51d7d9fc917d96d91"}, {"lat": 38.90361766666667, "is_reserved": 0, "lon": -77.04521483333333, "fusion_lon": 0.0, "fusion_lat": 0.0, "is_disabled": 0, "type": "electric_scooter", "bike_id": "f9de75454494729cf27df34434d8eb98", "rental_uris": {"android": "https://dc.lft.to/lastmile_qr_scan", "ios": "https://dc.lft.to/lastmile_qr_scan"}, "name": "f9de75454494729cf27df34434d8eb98"}, {"lat": 38.876256166666664, "is_reserved": 0, "lon": -76.96529116666666, "fusion_lon": 0.0, "fusion_lat": 0.0, "is_disabled": 0, "type": "electric_scooter", "bike_id": "fc14378d8dc853e0ec7471dfbec1e2ed", "rental_uris": {"android": "https://dc.lft.to/lastmile_qr_scan", "ios": "https://dc.lft.to/lastmile_qr_scan"}, "name": "fc14378d8dc853e0ec7471dfbec1e2ed"}, {"lat": 38.91761366666667, "is_reserved": 0, "lon": -77.04426533333333, "fusion_lon": 0.0, "fusion_lat": 0.0, "is_disabled": 0, "type": "electric_bike", "bike_id": "b3562fff71c607ef4002f5c3d2372117", "rental_uris": {"android": "https://dc.lft.to/lastmile_qr_scan", "ios": "https://dc.lft.to/lastmile_qr_scan"}, "name": "b3562fff71c607ef4002f5c3d2372117"}, {"lat": 38.910177, "is_reserved": 0, "lon": -77.00911933333333, "fusion_lon": 0.0, "fusion_lat": 0.0, "is_disabled": 0, "type": "electric_scooter", "bike_id": "4596f4c4de647e2eaa8922807ec07d83", "rental_uris": {"android": "https://dc.lft.to/lastmile_qr_scan", "ios": "https://dc.lft.to/lastmile_qr_scan"}, "name": "4596f4c4de647e2eaa8922807ec07d83"}, {"lat": 38.9229295, "is_reserved": 0, "lon": -77.04142133333333, "fusion_lon": 0.0, "fusion_lat": 0.0, "is_disabled": 0, "type": "electric_scooter", "bike_id": "9ee5acad0dd313a6404cb99bf464030e", "rental_uris": {"android": "https://dc.lft.to/lastmile_qr_scan", "ios": "https://dc.lft.to/lastmile_qr_scan"}, "name": "9ee5acad0dd313a6404cb99bf464030e"}, {"lat": 38.910624, "is_reserved": 0, "lon": -77.01985566666667, "fusion_lon": 0.0, "fusion_lat": 0.0, "is_disabled": 0, "type": "electric_bike", "bike_id": "cbcbe448080900a9cd9b426858a23e3f", "rental_uris": {"android": "https://dc.lft.to/lastmile_qr_scan", "ios": "https://dc.lft.to/lastmile_qr_scan"}, "name": "cbcbe448080900a9cd9b426858a23e3f"}, {"lat": 38.903825166666664, "is_reserved": 0, "lon": -77.035812, "fusion_lon": 0.0, "fusion_lat": 0.0, "is_disabled": 0, "type": "electric_scooter", "bike_id": "db183995f6664eca4219a96558632ba0", "rental_uris": {"android": "https://dc.lft.to/lastmile_qr_scan", "ios": "https://dc.lft.to/lastmile_qr_scan"}, "name": "db183995f6664eca4219a96558632ba0"}, {"lat": 38.931828833333334, "is_reserved": 0, "lon": -77.00088166666667, "fusion_lon": 0.0, "fusion_lat": 0.0, "is_disabled": 0, "type": "electric_scooter", "bike_id": "4002560745348da8097c961c687efd78", "rental_uris": {"android": "https://dc.lft.to/lastmile_qr_scan", "ios": "https://dc.lft.to/lastmile_qr_scan"}, "name": "4002560745348da8097c961c687efd78"}, {"lat": 38.902415833333336, "is_reserved": 0, "lon": -77.02934433333333, "fusion_lon": 0.0, "fusion_lat": 0.0, "is_disabled": 0, "type": "electric_scooter", "bike_id": "c39ce6538724935fbedc5a10b1dbc148", "rental_uris": {"android": "https://dc.lft.to/lastmile_qr_scan", "ios": "https://dc.lft.to/lastmile_qr_scan"}, "name": "c39ce6538724935fbedc5a10b1dbc148"}, {"lat": 38.815111333333334, "is_reserved": 0, "lon": -77.126577, "fusion_lon": 0.0, "fusion_lat": 0.0, "is_disabled": 0, "type": "electric_bike", "bike_id": "b22351b239d440b9555eb6ad68296d18", "rental_uris": {"android": "https://dc.lft.to/lastmile_qr_scan", "ios": "https://dc.lft.to/lastmile_qr_scan"}, "name": "b22351b239d440b9555eb6ad68296d18"}, {"lat": 38.794701, "is_reserved": 0, "lon": -76.992429, "fusion_lon": 0.0, "fusion_lat": 0.0, "is_disabled": 0, "type": "electric_bike", "bike_id": "3c3a0ced44bde0f71dc80f53aaad2757", "rental_uris": {"android": "https://dc.lft.to/lastmile_qr_scan", "ios": "https://dc.lft.to/lastmile_qr_scan"}, "name": "3c3a0ced44bde0f71dc80f53aaad2757"}, {"lat": 38.873926, "is_reserved": 0, "lon": -77.0015125, "fusion_lon": 0.0, "fusion_lat": 0.0, "is_disabled": 0, "type": "electric_scooter", "bike_id": "c84467fecd0eefc5e00a12acc6a397c1", "rental_uris": {"android": "https://dc.lft.to/lastmile_qr_scan", "ios": "https://dc.lft.to/lastmile_qr_scan"}, "name": "c84467fecd0eefc5e00a12acc6a397c1"}, {"lat": 38.90967216666667, "is_reserved": 0, "lon": -77.044572, "fusion_lon": 0.0, "fusion_lat": 0.0, "is_disabled": 0, "type": "electric_scooter", "bike_id": "9f032ca6fd127f23030382ec4c38b28b", "rental_uris": {"android": "https://dc.lft.to/lastmile_qr_scan", "ios": "https://dc.lft.to/lastmile_qr_scan"}, "name": "9f032ca6fd127f23030382ec4c38b28b"}, {"lat": 38.895837666666665, "is_reserved": 0, "lon": -76.981786, "fusion_lon": 0.0, "fusion_lat": 0.0, "is_disabled": 0, "type": "electric_scooter", "bike_id": "1a3b0db7e549e8b96519cb9f6a445c7c", "rental_uris": {"android": "https://dc.lft.to/lastmile_qr_scan", "ios": "https://dc.lft.to/lastmile_qr_scan"}, "name": "1a3b0db7e549e8b96519cb9f6a445c7c"}, {"lat": 38.92920183333333, "is_reserved": 0, "lon": -77.03279383333333, "fusion_lon": 0.0, "fusion_lat": 0.0, "is_disabled": 0, "type": "electric_bike", "bike_id": "909ad32367614936b274e9e3103791d9", "rental_uris": {"android": "https://dc.lft.to/lastmile_qr_scan", "ios": "https://dc.lft.to/lastmile_qr_scan"}, "name": "909ad32367614936b274e9e3103791d9"}, {"lat": 38.92463716666666, "is_reserved": 0, "lon": -77.02219266666667, "fusion_lon": 0.0, "fusion_lat": 0.0, "is_disabled": 0, "type": "electric_scooter", "bike_id": "b66896eab93f4b0ded77e4df0741ca56", "rental_uris": {"android": "https://dc.lft.to/lastmile_qr_scan", "ios": "https://dc.lft.to/lastmile_qr_scan"}, "name": "b66896eab93f4b0ded77e4df0741ca56"}, {"lat": 38.90139, "is_reserved": 0, "lon": -77.04022966666666, "fusion_lon": 0.0, "fusion_lat": 0.0, "is_disabled": 0, "type": "electric_scooter", "bike_id": "fa39fc027c84bf88315a3c58dc193eb1", "rental_uris": {"android": "https://dc.lft.to/lastmile_qr_scan", "ios": "https://dc.lft.to/lastmile_qr_scan"}, "name": "fa39fc027c84bf88315a3c58dc193eb1"}, {"lat": 38.866907499999996, "is_reserved": 0, "lon": -76.985427, "fusion_lon": 0.0, "fusion_lat": 0.0, "is_disabled": 0, "type": "electric_scooter", "bike_id": "28ccd00d2059b4876cb862f0671497dd", "rental_uris": {"android": "https://dc.lft.to/lastmile_qr_scan", "ios": "https://dc.lft.to/lastmile_qr_scan"}, "name": "28ccd00d2059b4876cb862f0671497dd"}, {"lat": 38.898664, "is_reserved": 0, "lon": -76.9463855, "fusion_lon": 0.0, "fusion_lat": 0.0, "is_disabled": 0, "type": "electric_scooter", "bike_id": "a47118fcdc40061c9b019664f2daff5b", "rental_uris": {"android": "https://dc.lft.to/lastmile_qr_scan", "ios": "https://dc.lft.to/lastmile_qr_scan"}, "name": "a47118fcdc40061c9b019664f2daff5b"}, {"lat": 38.916210166666666, "is_reserved": 0, "lon": -77.03171516666667, "fusion_lon": 0.0, "fusion_lat": 0.0, "is_disabled": 0, "type": "electric_scooter", "bike_id": "122b7774eec70499ac4ce5d4c5fe6c10", "rental_uris": {"android": "https://dc.lft.to/lastmile_qr_scan", "ios": "https://dc.lft.to/lastmile_qr_scan"}, "name": "122b7774eec70499ac4ce5d4c5fe6c10"}, {"lat": 38.92387566666667, "is_reserved": 0, "lon": -77.01968683333334, "fusion_lon": 0.0, "fusion_lat": 0.0, "is_disabled": 0, "type": "electric_scooter", "bike_id": "7c6f7e1196b0530c8ddaeae06a52cdea", "rental_uris": {"android": "https://dc.lft.to/lastmile_qr_scan", "ios": "https://dc.lft.to/lastmile_qr_scan"}, "name": "7c6f7e1196b0530c8ddaeae06a52cdea"}, {"lat": 38.879136833333334, "is_reserved": 0, "lon": -77.02151666666667, "fusion_lon": 0.0, "fusion_lat": 0.0, "is_disabled": 0, "type": "electric_scooter", "bike_id": "1b18f1a8eb4d9a5bbf9837f0ee1dd3df", "rental_uris": {"android": "https://dc.lft.to/lastmile_qr_scan", "ios": "https://dc.lft.to/lastmile_qr_scan"}, "name": "1b18f1a8eb4d9a5bbf9837f0ee1dd3df"}, {"lat": 38.902316166666665, "is_reserved": 0, "lon": -77.05455083333334, "fusion_lon": 0.0, "fusion_lat": 0.0, "is_disabled": 0, "type": "electric_scooter", "bike_id": "c36cf76afee1b3dac1ef7d97433bb43d", "rental_uris": {"android": "https://dc.lft.to/lastmile_qr_scan", "ios": "https://dc.lft.to/lastmile_qr_scan"}, "name": "c36cf76afee1b3dac1ef7d97433bb43d"}, {"lat": 38.894268333333336, "is_reserved": 0, "lon": -77.02094683333333, "fusion_lon": 0.0, "fusion_lat": 0.0, "is_disabled": 0, "type": "electric_scooter", "bike_id": "457b23f559a9b5bfc456b4cba45781c1", "rental_uris": {"android": "https://dc.lft.to/lastmile_qr_scan", "ios": "https://dc.lft.to/lastmile_qr_scan"}, "name": "457b23f559a9b5bfc456b4cba45781c1"}, {"lat": 38.921536833333334, "is_reserved": 0, "lon": -77.0331585, "fusion_lon": 0.0, "fusion_lat": 0.0, "is_disabled": 0, "type": "electric_scooter", "bike_id": "39deb2c36852ea9f2326c0dc965db59f", "rental_uris": {"android": "https://dc.lft.to/lastmile_qr_scan", "ios": "https://dc.lft.to/lastmile_qr_scan"}, "name": "39deb2c36852ea9f2326c0dc965db59f"}, {"lat": 38.90872566666667, "is_reserved": 0, "lon": -76.99791433333333, "fusion_lon": 0.0, "fusion_lat": 0.0, "is_disabled": 0, "type": "electric_scooter", "bike_id": "c1e619cd14e41b711b2610faab446850", "rental_uris": {"android": "https://dc.lft.to/lastmile_qr_scan", "ios": "https://dc.lft.to/lastmile_qr_scan"}, "name": "c1e619cd14e41b711b2610faab446850"}, {"lat": 38.93702183333333, "is_reserved": 0, "lon": -77.05598683333334, "fusion_lon": 0.0, "fusion_lat": 0.0, "is_disabled": 0, "type": "electric_scooter", "bike_id": "0a470cf30c685716434025d5171d48c9", "rental_uris": {"android": "https://dc.lft.to/lastmile_qr_scan", "ios": "https://dc.lft.to/lastmile_qr_scan"}, "name": "0a470cf30c685716434025d5171d48c9"}, {"lat": 38.904293, "is_reserved": 0, "lon": -76.98276033333333, "fusion_lon": 0.0, "fusion_lat": 0.0, "is_disabled": 0, "type": "electric_scooter", "bike_id": "5ff0eec8e5334db6edb4ec86f3b10050", "rental_uris": {"android": "https://dc.lft.to/lastmile_qr_scan", "ios": "https://dc.lft.to/lastmile_qr_scan"}, "name": "5ff0eec8e5334db6edb4ec86f3b10050"}, {"lat": 38.90969783333333, "is_reserved": 0, "lon": -77.04243566666666, "fusion_lon": 0.0, "fusion_lat": 0.0, "is_disabled": 0, "type": "electric_scooter", "bike_id": "bacb57d4c8a9222aa267e92ae0c66ddd", "rental_uris": {"android": "https://dc.lft.to/lastmile_qr_scan", "ios": "https://dc.lft.to/lastmile_qr_scan"}, "name": "bacb57d4c8a9222aa267e92ae0c66ddd"}, {"lat": 38.894631333333336, "is_reserved": 0, "lon": -77.0034395, "fusion_lon": 0.0, "fusion_lat": 0.0, "is_disabled": 0, "type": "electric_scooter", "bike_id": "7133f512996d2e34da23627c823617ef", "rental_uris": {"android": "https://dc.lft.to/lastmile_qr_scan", "ios": "https://dc.lft.to/lastmile_qr_scan"}, "name": "7133f512996d2e34da23627c823617ef"}, {"lat": 38.90718233333333, "is_reserved": 0, "lon": -77.0298625, "fusion_lon": 0.0, "fusion_lat": 0.0, "is_disabled": 0, "type": "electric_scooter", "bike_id": "4cecceb6d1eb788c8e545fb69e49e6c4", "rental_uris": {"android": "https://dc.lft.to/lastmile_qr_scan", "ios": "https://dc.lft.to/lastmile_qr_scan"}, "name": "4cecceb6d1eb788c8e545fb69e49e6c4"}, {"lat": 38.90947166666667, "is_reserved": 0, "lon": -77.04162016666666, "fusion_lon": 0.0, "fusion_lat": 0.0, "is_disabled": 0, "type": "electric_bike", "bike_id": "432cc710d9f0e88526fd326dbca77cb6", "rental_uris": {"android": "https://dc.lft.to/lastmile_qr_scan", "ios": "https://dc.lft.to/lastmile_qr_scan"}, "name": "432cc710d9f0e88526fd326dbca77cb6"}, {"lat": 38.9141775, "is_reserved": 0, "lon": -77.02275166666666, "fusion_lon": 0.0, "fusion_lat": 0.0, "is_disabled": 0, "type": "electric_scooter", "bike_id": "6d82b4918085b4a52c37a29937c619ab", "rental_uris": {"android": "https://dc.lft.to/lastmile_qr_scan", "ios": "https://dc.lft.to/lastmile_qr_scan"}, "name": "6d82b4918085b4a52c37a29937c619ab"}, {"lat": 38.920521666666666, "is_reserved": 0, "lon": -77.041855, "fusion_lon": 0.0, "fusion_lat": 0.0, "is_disabled": 0, "type": "electric_scooter", "bike_id": "4ea0914b56bbae6b3b27171d1d869b00", "rental_uris": {"android": "https://dc.lft.to/lastmile_qr_scan", "ios": "https://dc.lft.to/lastmile_qr_scan"}, "name": "4ea0914b56bbae6b3b27171d1d869b00"}, {"lat": 38.9251925, "is_reserved": 0, "lon": -77.05128783333333, "fusion_lon": 0.0, "fusion_lat": 0.0, "is_disabled": 0, "type": "electric_scooter", "bike_id": "1b5c021f951a8ea86996e58b02cbfb5a", "rental_uris": {"android": "https://dc.lft.to/lastmile_qr_scan", "ios": "https://dc.lft.to/lastmile_qr_scan"}, "name": "1b5c021f951a8ea86996e58b02cbfb5a"}, {"lat": 38.909074833333335, "is_reserved": 0, "lon": -77.03197083333333, "fusion_lon": 0.0, "fusion_lat": 0.0, "is_disabled": 0, "type": "electric_scooter", "bike_id": "ae06d558eada9063cb58a771e1484f38", "rental_uris": {"android": "https://dc.lft.to/lastmile_qr_scan", "ios": "https://dc.lft.to/lastmile_qr_scan"}, "name": "ae06d558eada9063cb58a771e1484f38"}, {"lat": 38.9095065, "is_reserved": 0, "lon": -77.0547065, "fusion_lon": 0.0, "fusion_lat": 0.0, "is_disabled": 0, "type": "electric_scooter", "bike_id": "92e3277be011cb41f8fb4efece240cf3", "rental_uris": {"android": "https://dc.lft.to/lastmile_qr_scan", "ios": "https://dc.lft.to/lastmile_qr_scan"}, "name": "92e3277be011cb41f8fb4efece240cf3"}, {"lat": 38.88401566666667, "is_reserved": 0, "lon": -76.96052116666667, "fusion_lon": 0.0, "fusion_lat": 0.0, "is_disabled": 0, "type": "electric_bike", "bike_id": "7558e563f5160ddfb46958c86a358a96", "rental_uris": {"android": "https://dc.lft.to/lastmile_qr_scan", "ios": "https://dc.lft.to/lastmile_qr_scan"}, "name": "7558e563f5160ddfb46958c86a358a96"}, {"lat": 38.90251716666667, "is_reserved": 0, "lon": -77.03842916666666, "fusion_lon": 0.0, "fusion_lat": 0.0, "is_disabled": 0, "type": "electric_scooter", "bike_id": "dbf5b6215501ed085b116ff5362069cb", "rental_uris": {"android": "https://dc.lft.to/lastmile_qr_scan", "ios": "https://dc.lft.to/lastmile_qr_scan"}, "name": "dbf5b6215501ed085b116ff5362069cb"}, {"lat": 38.918153833333335, "is_reserved": 0, "lon": -77.03977116666667, "fusion_lon": 0.0, "fusion_lat": 0.0, "is_disabled": 0, "type": "electric_scooter", "bike_id": "22a671ee36888a3114999a93ac44ba98", "rental_uris": {"android": "https://dc.lft.to/lastmile_qr_scan", "ios": "https://dc.lft.to/lastmile_qr_scan"}, "name": "22a671ee36888a3114999a93ac44ba98"}, {"lat": 39.05122266666667, "is_reserved": 0, "lon": -77.11735116666667, "fusion_lon": 0.0, "fusion_lat": 0.0, "is_disabled": 0, "type": "electric_bike", "bike_id": "b2983d0995386dbf0c5e515e3923bc6a", "rental_uris": {"android": "https://dc.lft.to/lastmile_qr_scan", "ios": "https://dc.lft.to/lastmile_qr_scan"}, "name": "b2983d0995386dbf0c5e515e3923bc6a"}, {"lat": 38.90117433333333, "is_reserved": 0, "lon": -77.03253516666666, "fusion_lon": 0.0, "fusion_lat": 0.0, "is_disabled": 0, "type": "electric_scooter", "bike_id": "a5f782a8c7354a00164965573d0f4e1f", "rental_uris": {"android": "https://dc.lft.to/lastmile_qr_scan", "ios": "https://dc.lft.to/lastmile_qr_scan"}, "name": "a5f782a8c7354a00164965573d0f4e1f"}, {"lat": 38.8910535, "is_reserved": 0, "lon": -77.00192833333334, "fusion_lon": 0.0, "fusion_lat": 0.0, "is_disabled": 0, "type": "electric_scooter", "bike_id": "5975c62ada0bc0f86301004361f36353", "rental_uris": {"android": "https://dc.lft.to/lastmile_qr_scan", "ios": "https://dc.lft.to/lastmile_qr_scan"}, "name": "5975c62ada0bc0f86301004361f36353"}, {"lat": 38.992281, "is_reserved": 0, "lon": -77.03584883333333, "fusion_lon": 0.0, "fusion_lat": 0.0, "is_disabled": 0, "type": "electric_scooter", "bike_id": "33187172a7c5c238f9a0374042d4a7ca", "rental_uris": {"android": "https://dc.lft.to/lastmile_qr_scan", "ios": "https://dc.lft.to/lastmile_qr_scan"}, "name": "33187172a7c5c238f9a0374042d4a7ca"}, {"lat": 38.91713083333333, "is_reserved": 0, "lon": -77.04022183333333, "fusion_lon": 0.0, "fusion_lat": 0.0, "is_disabled": 0, "type": "electric_scooter", "bike_id": "ddda212751f5c042a7308c90a110376a", "rental_uris": {"android": "https://dc.lft.to/lastmile_qr_scan", "ios": "https://dc.lft.to/lastmile_qr_scan"}, "name": "ddda212751f5c042a7308c90a110376a"}, {"lat": 38.91706633333333, "is_reserved": 0, "lon": -77.03336416666667, "fusion_lon": 0.0, "fusion_lat": 0.0, "is_disabled": 0, "type": "electric_scooter", "bike_id": "50b8984bcb4d38825af9c302dbfaf3b6", "rental_uris": {"android": "https://dc.lft.to/lastmile_qr_scan", "ios": "https://dc.lft.to/lastmile_qr_scan"}, "name": "50b8984bcb4d38825af9c302dbfaf3b6"}, {"lat": 38.922431333333336, "is_reserved": 0, "lon": -77.03060533333333, "fusion_lon": 0.0, "fusion_lat": 0.0, "is_disabled": 0, "type": "electric_scooter", "bike_id": "04177be435591211d07a02937300545f", "rental_uris": {"android": "https://dc.lft.to/lastmile_qr_scan", "ios": "https://dc.lft.to/lastmile_qr_scan"}, "name": "04177be435591211d07a02937300545f"}, {"lat": 38.921669666666666, "is_reserved": 0, "lon": -77.03518283333334, "fusion_lon": 0.0, "fusion_lat": 0.0, "is_disabled": 0, "type": "electric_scooter", "bike_id": "ebb7fc9a4e6614844c14acd9d7fac5ac", "rental_uris": {"android": "https://dc.lft.to/lastmile_qr_scan", "ios": "https://dc.lft.to/lastmile_qr_scan"}, "name": "ebb7fc9a4e6614844c14acd9d7fac5ac"}, {"lat": 38.88747633333333, "is_reserved": 0, "lon": -77.0173005, "fusion_lon": 0.0, "fusion_lat": 0.0, "is_disabled": 0, "type": "electric_scooter", "bike_id": "41a03f7ba7721072f11424775fdf08fd", "rental_uris": {"android": "https://dc.lft.to/lastmile_qr_scan", "ios": "https://dc.lft.to/lastmile_qr_scan"}, "name": "41a03f7ba7721072f11424775fdf08fd"}, {"lat": 38.905592, "is_reserved": 0, "lon": -77.04151283333333, "fusion_lon": 0.0, "fusion_lat": 0.0, "is_disabled": 0, "type": "electric_scooter", "bike_id": "55ce4e35e7b958d3959d869f7ecfe4db", "rental_uris": {"android": "https://dc.lft.to/lastmile_qr_scan", "ios": "https://dc.lft.to/lastmile_qr_scan"}, "name": "55ce4e35e7b958d3959d869f7ecfe4db"}, {"lat": 38.89737983333333, "is_reserved": 0, "lon": -76.9204345, "fusion_lon": 0.0, "fusion_lat": 0.0, "is_disabled": 0, "type": "electric_bike", "bike_id": "35d6d14f7b791b9658098ff55c7989d5", "rental_uris": {"android": "https://dc.lft.to/lastmile_qr_scan", "ios": "https://dc.lft.to/lastmile_qr_scan"}, "name": "35d6d14f7b791b9658098ff55c7989d5"}, {"lat": 38.92742166666667, "is_reserved": 0, "lon": -77.03235666666667, "fusion_lon": 0.0, "fusion_lat": 0.0, "is_disabled": 0, "type": "electric_scooter", "bike_id": "10d14654b25c5d518a19dd9b59b7b917", "rental_uris": {"android": "https://dc.lft.to/lastmile_qr_scan", "ios": "https://dc.lft.to/lastmile_qr_scan"}, "name": "10d14654b25c5d518a19dd9b59b7b917"}, {"lat": 38.91493466666667, "is_reserved": 0, "lon": -77.018546, "fusion_lon": 0.0, "fusion_lat": 0.0, "is_disabled": 0, "type": "electric_scooter", "bike_id": "645c712be632637d42eacff6d92bbe48", "rental_uris": {"android": "https://dc.lft.to/lastmile_qr_scan", "ios": "https://dc.lft.to/lastmile_qr_scan"}, "name": "645c712be632637d42eacff6d92bbe48"}, {"lat": 38.89618633333333, "is_reserved": 0, "lon": -77.0277475, "fusion_lon": 0.0, "fusion_lat": 0.0, "is_disabled": 0, "type": "electric_scooter", "bike_id": "ef28dca986ca91714f1500b30c475bd6", "rental_uris": {"android": "https://dc.lft.to/lastmile_qr_scan", "ios": "https://dc.lft.to/lastmile_qr_scan"}, "name": "ef28dca986ca91714f1500b30c475bd6"}, {"lat": 38.90828583333333, "is_reserved": 0, "lon": -77.03300633333333, "fusion_lon": 0.0, "fusion_lat": 0.0, "is_disabled": 0, "type": "electric_scooter", "bike_id": "e7250c9a41b39faac2266e13dee0e166", "rental_uris": {"android": "https://dc.lft.to/lastmile_qr_scan", "ios": "https://dc.lft.to/lastmile_qr_scan"}, "name": "e7250c9a41b39faac2266e13dee0e166"}, {"lat": 38.912523666666665, "is_reserved": 0, "lon": -77.03399816666666, "fusion_lon": 0.0, "fusion_lat": 0.0, "is_disabled": 0, "type": "electric_scooter", "bike_id": "c16c3924270aa3ceb648732a63314a0b", "rental_uris": {"android": "https://dc.lft.to/lastmile_qr_scan", "ios": "https://dc.lft.to/lastmile_qr_scan"}, "name": "c16c3924270aa3ceb648732a63314a0b"}, {"lat": 38.91418633333333, "is_reserved": 0, "lon": -77.00218716666667, "fusion_lon": 0.0, "fusion_lat": 0.0, "is_disabled": 0, "type": "electric_scooter", "bike_id": "9b10335df33c90762baf711021332999", "rental_uris": {"android": "https://dc.lft.to/lastmile_qr_scan", "ios": "https://dc.lft.to/lastmile_qr_scan"}, "name": "9b10335df33c90762baf711021332999"}, {"lat": 38.920698333333334, "is_reserved": 0, "lon": -77.0420425, "fusion_lon": 0.0, "fusion_lat": 0.0, "is_disabled": 0, "type": "electric_scooter", "bike_id": "34650c0575384b1e7759c21b85fc68a4", "rental_uris": {"android": "https://dc.lft.to/lastmile_qr_scan", "ios": "https://dc.lft.to/lastmile_qr_scan"}, "name": "34650c0575384b1e7759c21b85fc68a4"}, {"lat": 38.9163795, "is_reserved": 0, "lon": -77.08860783333333, "fusion_lon": 0.0, "fusion_lat": 0.0, "is_disabled": 0, "type": "electric_scooter", "bike_id": "80c326ae3bfcd74557d493293f626047", "rental_uris": {"android": "https://dc.lft.to/lastmile_qr_scan", "ios": "https://dc.lft.to/lastmile_qr_scan"}, "name": "80c326ae3bfcd74557d493293f626047"}, {"lat": 38.939518, "is_reserved": 0, "lon": -77.072466, "fusion_lon": 0.0, "fusion_lat": 0.0, "is_disabled": 0, "type": "electric_scooter", "bike_id": "e9a21bc2475238056fdac6fea34881da", "rental_uris": {"android": "https://dc.lft.to/lastmile_qr_scan", "ios": "https://dc.lft.to/lastmile_qr_scan"}, "name": "e9a21bc2475238056fdac6fea34881da"}, {"lat": 38.8871525, "is_reserved": 0, "lon": -77.01774516666667, "fusion_lon": 0.0, "fusion_lat": 0.0, "is_disabled": 0, "type": "electric_scooter", "bike_id": "d09c04e46ac7d93f55ccf221bb4d468d", "rental_uris": {"android": "https://dc.lft.to/lastmile_qr_scan", "ios": "https://dc.lft.to/lastmile_qr_scan"}, "name": "d09c04e46ac7d93f55ccf221bb4d468d"}, {"lat": 38.874725166666664, "is_reserved": 0, "lon": -77.0056565, "fusion_lon": 0.0, "fusion_lat": 0.0, "is_disabled": 0, "type": "electric_scooter", "bike_id": "b244b2ff32e82b89f5aadab6138ad835", "rental_uris": {"android": "https://dc.lft.to/lastmile_qr_scan", "ios": "https://dc.lft.to/lastmile_qr_scan"}, "name": "b244b2ff32e82b89f5aadab6138ad835"}, {"lat": 38.8839955, "is_reserved": 0, "lon": -77.01957183333333, "fusion_lon": 0.0, "fusion_lat": 0.0, "is_disabled": 0, "type": "electric_scooter", "bike_id": "7bedb5f725e6e460432675b980e10595", "rental_uris": {"android": "https://dc.lft.to/lastmile_qr_scan", "ios": "https://dc.lft.to/lastmile_qr_scan"}, "name": "7bedb5f725e6e460432675b980e10595"}, {"lat": 38.898420333333334, "is_reserved": 0, "lon": -76.94253016666667, "fusion_lon": 0.0, "fusion_lat": 0.0, "is_disabled": 0, "type": "electric_scooter", "bike_id": "152e24505711d57f9ea7ab74f7021c5f", "rental_uris": {"android": "https://dc.lft.to/lastmile_qr_scan", "ios": "https://dc.lft.to/lastmile_qr_scan"}, "name": "152e24505711d57f9ea7ab74f7021c5f"}, {"lat": 38.888472, "is_reserved": 0, "lon": -76.92680883333334, "fusion_lon": 0.0, "fusion_lat": 0.0, "is_disabled": 0, "type": "electric_scooter", "bike_id": "5b6e2b44071eb01c34f717d9006d16ad", "rental_uris": {"android": "https://dc.lft.to/lastmile_qr_scan", "ios": "https://dc.lft.to/lastmile_qr_scan"}, "name": "5b6e2b44071eb01c34f717d9006d16ad"}, {"lat": 38.87859866666667, "is_reserved": 0, "lon": -76.96982416666667, "fusion_lon": 0.0, "fusion_lat": 0.0, "is_disabled": 0, "type": "electric_scooter", "bike_id": "a61092424ab8eadeb9f0044ac5bfb7b2", "rental_uris": {"android": "https://dc.lft.to/lastmile_qr_scan", "ios": "https://dc.lft.to/lastmile_qr_scan"}, "name": "a61092424ab8eadeb9f0044ac5bfb7b2"}, {"lat": 38.897300666666666, "is_reserved": 0, "lon": -77.04876166666666, "fusion_lon": 0.0, "fusion_lat": 0.0, "is_disabled": 0, "type": "electric_scooter", "bike_id": "35d520ae88213236ae670f53b26b1a4f", "rental_uris": {"android": "https://dc.lft.to/lastmile_qr_scan", "ios": "https://dc.lft.to/lastmile_qr_scan"}, "name": "35d520ae88213236ae670f53b26b1a4f"}, {"lat": 38.874202333333336, "is_reserved": 0, "lon": -76.969217, "fusion_lon": 0.0, "fusion_lat": 0.0, "is_disabled": 0, "type": "electric_scooter", "bike_id": "e2d2eddd69376ba1ca01ab7d7fff4456", "rental_uris": {"android": "https://dc.lft.to/lastmile_qr_scan", "ios": "https://dc.lft.to/lastmile_qr_scan"}, "name": "e2d2eddd69376ba1ca01ab7d7fff4456"}, {"lat": 38.92604, "is_reserved": 0, "lon": -77.03661833333334, "fusion_lon": 0.0, "fusion_lat": 0.0, "is_disabled": 0, "type": "electric_scooter", "bike_id": "792a409164555643d0d062cfacf1e14e", "rental_uris": {"android": "https://dc.lft.to/lastmile_qr_scan", "ios": "https://dc.lft.to/lastmile_qr_scan"}, "name": "792a409164555643d0d062cfacf1e14e"}, {"lat": 38.89879883333333, "is_reserved": 0, "lon": -77.01995566666666, "fusion_lon": 0.0, "fusion_lat": 0.0, "is_disabled": 0, "type": "electric_scooter", "bike_id": "6efdacb1e4f33e6686e83e4a7dbb9aa9", "rental_uris": {"android": "https://dc.lft.to/lastmile_qr_scan", "ios": "https://dc.lft.to/lastmile_qr_scan"}, "name": "6efdacb1e4f33e6686e83e4a7dbb9aa9"}, {"lat": 38.91958266666666, "is_reserved": 0, "lon": -77.00311066666667, "fusion_lon": 0.0, "fusion_lat": 0.0, "is_disabled": 0, "type": "electric_scooter", "bike_id": "0fa8d1034ae84119e168bf8ae69d920c", "rental_uris": {"android": "https://dc.lft.to/lastmile_qr_scan", "ios": "https://dc.lft.to/lastmile_qr_scan"}, "name": "0fa8d1034ae84119e168bf8ae69d920c"}, {"lat": 38.886816333333336, "is_reserved": 0, "lon": -77.00067816666666, "fusion_lon": 0.0, "fusion_lat": 0.0, "is_disabled": 0, "type": "electric_scooter", "bike_id": "32d33181eaf9850409e40948e930d79f", "rental_uris": {"android": "https://dc.lft.to/lastmile_qr_scan", "ios": "https://dc.lft.to/lastmile_qr_scan"}, "name": "32d33181eaf9850409e40948e930d79f"}, {"lat": 38.9186735, "is_reserved": 0, "lon": -77.02466733333333, "fusion_lon": 0.0, "fusion_lat": 0.0, "is_disabled": 0, "type": "electric_scooter", "bike_id": "2616b2d9185f42a75f73beb2eada57ca", "rental_uris": {"android": "https://dc.lft.to/lastmile_qr_scan", "ios": "https://dc.lft.to/lastmile_qr_scan"}, "name": "2616b2d9185f42a75f73beb2eada57ca"}, {"lat": 38.862232166666665, "is_reserved": 0, "lon": -76.99460766666667, "fusion_lon": 0.0, "fusion_lat": 0.0, "is_disabled": 0, "type": "electric_scooter", "bike_id": "49d7d584497b6ad8747272d6f30c49b0", "rental_uris": {"android": "https://dc.lft.to/lastmile_qr_scan", "ios": "https://dc.lft.to/lastmile_qr_scan"}, "name": "49d7d584497b6ad8747272d6f30c49b0"}, {"lat": 38.916580333333336, "is_reserved": 0, "lon": -77.02377866666667, "fusion_lon": 0.0, "fusion_lat": 0.0, "is_disabled": 0, "type": "electric_scooter", "bike_id": "4a4cb89f7c3f7e7b1680e2e2b6410e75", "rental_uris": {"android": "https://dc.lft.to/lastmile_qr_scan", "ios": "https://dc.lft.to/lastmile_qr_scan"}, "name": "4a4cb89f7c3f7e7b1680e2e2b6410e75"}, {"lat": 38.90248733333333, "is_reserved": 0, "lon": -77.01735433333333, "fusion_lon": 0.0, "fusion_lat": 0.0, "is_disabled": 0, "type": "electric_scooter", "bike_id": "ecc76a5bca840d261311aa279cd1fc86", "rental_uris": {"android": "https://dc.lft.to/lastmile_qr_scan", "ios": "https://dc.lft.to/lastmile_qr_scan"}, "name": "ecc76a5bca840d261311aa279cd1fc86"}, {"lat": 38.917666833333335, "is_reserved": 0, "lon": -77.04555333333333, "fusion_lon": 0.0, "fusion_lat": 0.0, "is_disabled": 0, "type": "electric_scooter", "bike_id": "f87c7aa5e085356d4e191aa7914db02a", "rental_uris": {"android": "https://dc.lft.to/lastmile_qr_scan", "ios": "https://dc.lft.to/lastmile_qr_scan"}, "name": "f87c7aa5e085356d4e191aa7914db02a"}, {"lat": 38.93354766666667, "is_reserved": 0, "lon": -77.04118033333333, "fusion_lon": 0.0, "fusion_lat": 0.0, "is_disabled": 0, "type": "electric_scooter", "bike_id": "c55b1f5e2e59414fc8bd46be746dc640", "rental_uris": {"android": "https://dc.lft.to/lastmile_qr_scan", "ios": "https://dc.lft.to/lastmile_qr_scan"}, "name": "c55b1f5e2e59414fc8bd46be746dc640"}, {"lat": 38.93019, "is_reserved": 0, "lon": -77.019891, "fusion_lon": 0.0, "fusion_lat": 0.0, "is_disabled": 0, "type": "electric_scooter", "bike_id": "a99261350d761cca4f93e291b78a4160", "rental_uris": {"android": "https://dc.lft.to/lastmile_qr_scan", "ios": "https://dc.lft.to/lastmile_qr_scan"}, "name": "a99261350d761cca4f93e291b78a4160"}, {"lat": 38.930741833333336, "is_reserved": 0, "lon": -77.01994933333333, "fusion_lon": 0.0, "fusion_lat": 0.0, "is_disabled": 0, "type": "electric_scooter", "bike_id": "241f609cd094d3177c2beecd1c87055d", "rental_uris": {"android": "https://dc.lft.to/lastmile_qr_scan", "ios": "https://dc.lft.to/lastmile_qr_scan"}, "name": "241f609cd094d3177c2beecd1c87055d"}, {"lat": 38.907129833333336, "is_reserved": 0, "lon": -77.01465516666667, "fusion_lon": 0.0, "fusion_lat": 0.0, "is_disabled": 0, "type": "electric_scooter", "bike_id": "9dddec8f5e63af3bf0e695a6ef4a01e7", "rental_uris": {"android": "https://dc.lft.to/lastmile_qr_scan", "ios": "https://dc.lft.to/lastmile_qr_scan"}, "name": "9dddec8f5e63af3bf0e695a6ef4a01e7"}, {"lat": 38.8990925, "is_reserved": 0, "lon": -77.02798166666666, "fusion_lon": 0.0, "fusion_lat": 0.0, "is_disabled": 0, "type": "electric_scooter", "bike_id": "59b49c660e277133a6f2ada86c4398ac", "rental_uris": {"android": "https://dc.lft.to/lastmile_qr_scan", "ios": "https://dc.lft.to/lastmile_qr_scan"}, "name": "59b49c660e277133a6f2ada86c4398ac"}, {"lat": 38.917129, "is_reserved": 0, "lon": -77.02457316666667, "fusion_lon": 0.0, "fusion_lat": 0.0, "is_disabled": 0, "type": "electric_scooter", "bike_id": "103f3a6019ee064424d9027899560316", "rental_uris": {"android": "https://dc.lft.to/lastmile_qr_scan", "ios": "https://dc.lft.to/lastmile_qr_scan"}, "name": "103f3a6019ee064424d9027899560316"}, {"lat": 38.89541666666667, "is_reserved": 0, "lon": -76.982444, "fusion_lon": 0.0, "fusion_lat": 0.0, "is_disabled": 0, "type": "electric_scooter", "bike_id": "53175eed0b86324187ca57b34b35f81b", "rental_uris": {"android": "https://dc.lft.to/lastmile_qr_scan", "ios": "https://dc.lft.to/lastmile_qr_scan"}, "name": "53175eed0b86324187ca57b34b35f81b"}, {"lat": 38.900403, "is_reserved": 0, "lon": -76.9984235, "fusion_lon": 0.0, "fusion_lat": 0.0, "is_disabled": 0, "type": "electric_scooter", "bike_id": "3711fcc8683c66e2686862f90458ca1d", "rental_uris": {"android": "https://dc.lft.to/lastmile_qr_scan", "ios": "https://dc.lft.to/lastmile_qr_scan"}, "name": "3711fcc8683c66e2686862f90458ca1d"}, {"lat": 38.900793, "is_reserved": 0, "lon": -77.02710866666666, "fusion_lon": 0.0, "fusion_lat": 0.0, "is_disabled": 0, "type": "electric_scooter", "bike_id": "7cdfeba664289b56e51787411a841d5d", "rental_uris": {"android": "https://dc.lft.to/lastmile_qr_scan", "ios": "https://dc.lft.to/lastmile_qr_scan"}, "name": "7cdfeba664289b56e51787411a841d5d"}, {"lat": 38.90235416666667, "is_reserved": 0, "lon": -77.02952166666667, "fusion_lon": 0.0, "fusion_lat": 0.0, "is_disabled": 0, "type": "electric_scooter", "bike_id": "e22d596c9fc48dcfa40b45c77cf53334", "rental_uris": {"android": "https://dc.lft.to/lastmile_qr_scan", "ios": "https://dc.lft.to/lastmile_qr_scan"}, "name": "e22d596c9fc48dcfa40b45c77cf53334"}, {"lat": 38.89724066666667, "is_reserved": 0, "lon": -77.02505316666667, "fusion_lon": 0.0, "fusion_lat": 0.0, "is_disabled": 0, "type": "electric_scooter", "bike_id": "d691cf70340b275d15eb8adf5efa7fb4", "rental_uris": {"android": "https://dc.lft.to/lastmile_qr_scan", "ios": "https://dc.lft.to/lastmile_qr_scan"}, "name": "d691cf70340b275d15eb8adf5efa7fb4"}, {"lat": 38.91105566666667, "is_reserved": 0, "lon": -77.02226916666666, "fusion_lon": 0.0, "fusion_lat": 0.0, "is_disabled": 0, "type": "electric_scooter", "bike_id": "e91f71f87bb5c37330acf04625bdd485", "rental_uris": {"android": "https://dc.lft.to/lastmile_qr_scan", "ios": "https://dc.lft.to/lastmile_qr_scan"}, "name": "e91f71f87bb5c37330acf04625bdd485"}, {"lat": 38.90169566666667, "is_reserved": 0, "lon": -76.9265335, "fusion_lon": 0.0, "fusion_lat": 0.0, "is_disabled": 0, "type": "electric_scooter", "bike_id": "7919fbaf38865a527b5e94739ce5f79b", "rental_uris": {"android": "https://dc.lft.to/lastmile_qr_scan", "ios": "https://dc.lft.to/lastmile_qr_scan"}, "name": "7919fbaf38865a527b5e94739ce5f79b"}, {"lat": 38.923629, "is_reserved": 0, "lon": -77.01954866666667, "fusion_lon": 0.0, "fusion_lat": 0.0, "is_disabled": 0, "type": "electric_scooter", "bike_id": "2430cac061866105669286411a3638a3", "rental_uris": {"android": "https://dc.lft.to/lastmile_qr_scan", "ios": "https://dc.lft.to/lastmile_qr_scan"}, "name": "2430cac061866105669286411a3638a3"}, {"lat": 38.97367283333333, "is_reserved": 0, "lon": -77.01852883333333, "fusion_lon": 0.0, "fusion_lat": 0.0, "is_disabled": 0, "type": "electric_scooter", "bike_id": "1ac2adab5eccaa9ac04886c46573d1cd", "rental_uris": {"android": "https://dc.lft.to/lastmile_qr_scan", "ios": "https://dc.lft.to/lastmile_qr_scan"}, "name": "1ac2adab5eccaa9ac04886c46573d1cd"}, {"lat": 38.92031083333333, "is_reserved": 0, "lon": -77.010247, "fusion_lon": 0.0, "fusion_lat": 0.0, "is_disabled": 0, "type": "electric_scooter", "bike_id": "2b132b82efcffc8094c19f17da99aab4", "rental_uris": {"android": "https://dc.lft.to/lastmile_qr_scan", "ios": "https://dc.lft.to/lastmile_qr_scan"}, "name": "2b132b82efcffc8094c19f17da99aab4"}, {"lat": 38.90566283333333, "is_reserved": 0, "lon": -77.02502816666667, "fusion_lon": 0.0, "fusion_lat": 0.0, "is_disabled": 0, "type": "electric_scooter", "bike_id": "18204efd2013fccf4bfc43a81b85ccd1", "rental_uris": {"android": "https://dc.lft.to/lastmile_qr_scan", "ios": "https://dc.lft.to/lastmile_qr_scan"}, "name": "18204efd2013fccf4bfc43a81b85ccd1"}, {"lat": 38.9169725, "is_reserved": 0, "lon": -77.01196816666666, "fusion_lon": 0.0, "fusion_lat": 0.0, "is_disabled": 0, "type": "electric_scooter", "bike_id": "655977d661a1a0d0e40b28469c91a634", "rental_uris": {"android": "https://dc.lft.to/lastmile_qr_scan", "ios": "https://dc.lft.to/lastmile_qr_scan"}, "name": "655977d661a1a0d0e40b28469c91a634"}, {"lat": 38.9204175, "is_reserved": 0, "lon": -77.03358216666666, "fusion_lon": 0.0, "fusion_lat": 0.0, "is_disabled": 0, "type": "electric_scooter", "bike_id": "2b09c1189feec989fcd951c34365ff0c", "rental_uris": {"android": "https://dc.lft.to/lastmile_qr_scan", "ios": "https://dc.lft.to/lastmile_qr_scan"}, "name": "2b09c1189feec989fcd951c34365ff0c"},