{"data": {"bikes": [{"lat": 38.90870533333333, "is_disabled": 0, "type": "electric_scooter", "lon": -77.046625, "bike_id": "178b1c31dc79a8f3f4548ea8fe34d6ea", "fusion_lat": 0.0, "name": "178b1c31dc79a8f3f4548ea8fe34d6ea", "is_reserved": 0, "rental_uris": {"android": "https://dc.lft.to/lastmile_qr_scan", "ios": "https://dc.lft.to/lastmile_qr_scan"}, "fusion_lon": 0.0}, {"lat": 38.85979433333333, "is_disabled": 0, "type": "electric_bike", "lon": -77.056255, "bike_id": "68ffb976b34de455697ac62d3effab0b", "fusion_lat": 0.0, "name": "68ffb976b34de455697ac62d3effab0b", "is_reserved": 0, "rental_uris": {"android": "https://dc.lft.to/lastmile_qr_scan", "ios": "https://dc.lft.to/lastmile_qr_scan"}, "fusion_lon": 0.0}, {"lat": 38.92866016666667, "is_disabled": 0, "type": "electric_bike", "lon": -77.03686733333333, "bike_id": "f5713a9081a4737e86d4b921d0fe205a", "fusion_lat": 0.0, "name": "f5713a9081a4737e86d4b921d0fe205a", "is_reserved": 0, "rental_uris": {"android": "https://dc.lft.to/lastmile_qr_scan", "ios": "https://dc.lft.to/lastmile_qr_scan"}, "fusion_lon": 0.0}, {"lat": 38.917824833333334, "is_disabled": 0, "type": "electric_scooter", "lon": -77.04099333333333, "bike_id": "6b050143a0f5a3184f4744f387170c3d", "fusion_lat": 0.0, "name": "6b050143a0f5a3184f4744f387170c3d", "is_reserved": 0, "rental_uris": {"android": "https://dc.lft.to/lastmile_qr_scan", "ios": "https://dc.lft.to/lastmile_qr_scan"}, "fusion_lon": 0.0}, {"lat": 38.915990666666666, "is_disabled": 0, "type": "electric_scooter", "lon": -77.02386266666667, "bike_id": "5124fade969467f16925e6b6b346d978", "fusion_lat": 0.0, "name": "5124fade969467f16925e6b6b346d978", "is_reserved": 0, "rental_uris": {"android": "https://dc.lft.to/lastmile_qr_scan", "ios": "https://dc.lft.to/lastmile_qr_scan"}, "fusion_lon": 0.0}, {"lat": 38.91405783333333, "is_disabled": 0, "type": "electric_scooter", "lon": -77.02058333333333, "bike_id": "fe3c5b2590be568c13285e01bddf34c8", "fusion_lat": 0.0, "name": "fe3c5b2590be568c13285e01bddf34c8", "is_reserved": 0, "rental_uris": {"android": "https://dc.lft.to/lastmile_qr_scan", "ios": "https://dc.lft.to/lastmile_qr_scan"}, "fusion_lon": 0.0}, {"lat": 38.919887, "is_disabled": 0, "type": "electric_scooter", "lon": -76.97304266666667, "bike_id": "f3a70acec2ee7cca71e46a5ca53ed997", "fusion_lat": 0.0, "name": "f3a70acec2ee7cca71e46a5ca53ed997", "is_reserved": 0, "rental_uris": {"android": "https://dc.lft.to/lastmile_qr_scan", "ios": "https://dc.lft.to/lastmile_qr_scan"}, "fusion_lon": 0.0}, {"lat": 38.965610166666664, "is_disabled": 0, "type": "electric_bike", "lon": -77.022976, "bike_id": "b6d8eaf356cd658d3e06a48858105c82", "fusion_lat": 0.0, "name": "b6d8eaf356cd658d3e06a48858105c82", "is_reserved": 0, "rental_uris": {"android": "https://dc.lft.to/lastmile_qr_scan", "ios": "https://dc.lft.to/lastmile_qr_scan"}, "fusion_lon": 0.0}, {"lat": 38.91361, "is_disabled": 0, "type": "electric_scooter", "lon": -77.015208, "bike_id": "f46bd57d3cc5db643475748bbbdffe7e", "fusion_lat": 0.0, "name": "f46bd57d3cc5db643475748bbbdffe7e", "is_reserved": 0, "rental_uris": {"android": "https://dc.lft.to/lastmile_qr_scan", "ios": "https://dc.lft.to/lastmile_qr_scan"}, "fusion_lon": 0.0}, {"lat": 38.96027266666667, "is_disabled": 0, "type": "electric_scooter", "lon": -77.02828583333333, "bike_id": "6537fac81ec66b2f8aea4e7d8ee8bb37", "fusion_lat": 0.0, "name": "6537fac81ec66b2f8aea4e7d8ee8bb37", "is_reserved": 0, "rental_uris": {"android": "https://dc.lft.to/lastmile_qr_scan", "ios": "https://dc.lft.to/lastmile_qr_scan"}, "fusion_lon": 0.0}, {"lat": 38.908587833333335, "is_disabled": 0, "type": "electric_scooter", "lon": -77.03854666666666, "bike_id": "ad127d615bafdf6324a65dc8ac112683", "fusion_lat": 0.0, "name": "ad127d615bafdf6324a65dc8ac112683", "is_reserved": 0, "rental_uris": {"android": "https://dc.lft.to/lastmile_qr_scan", "ios": "https://dc.lft.to/lastmile_qr_scan"}, "fusion_lon": 0.0}, {"lat": 38.912689666666665, "is_disabled": 0, "type": "electric_scooter", "lon": -77.00484816666666, "bike_id": "099c5167b390b6c0abf8c56def323d80", "fusion_lat": 0.0, "name": "099c5167b390b6c0abf8c56def323d80", "is_reserved": 0, "rental_uris": {"android": "https://dc.lft.to/lastmile_qr_scan", "ios": "https://dc.lft.to/lastmile_qr_scan"}, "fusion_lon": 0.0}, {"lat": 38.90455683333333, "is_disabled": 0, "type": "electric_scooter", "lon": -77.007211, "bike_id": "4f1b85d31a31d6cebdca2443f89d7e78", "fusion_lat": 0.0, "name": "4f1b85d31a31d6cebdca2443f89d7e78", "is_reserved": 0, "rental_uris": {"android": "https://dc.lft.to/lastmile_qr_scan", "ios": "https://dc.lft.to/lastmile_qr_scan"}, "fusion_lon": 0.0}, {"lat": 38.90424383333333, "is_disabled": 0, "type": "electric_scooter", "lon": -76.99068533333333, "bike_id": "2be91cede42dcdfbbf8cb813eeb01075", "fusion_lat": 0.0, "name": "2be91cede42dcdfbbf8cb813eeb01075", "is_reserved": 0, "rental_uris": {"android": "https://dc.lft.to/lastmile_qr_scan", "ios": "https://dc.lft.to/lastmile_qr_scan"}, "fusion_lon": 0.0}, {"lat": 38.91463866666667, "is_disabled": 0, "type": "electric_scooter", "lon": -77.03182516666666, "bike_id": "5f1a5a0581cc5fdbcc8c207ee0184359", "fusion_lat": 0.0, "name": "5f1a5a0581cc5fdbcc8c207ee0184359", "is_reserved": 0, "rental_uris": {"android": "https://dc.lft.to/lastmile_qr_scan", "ios": "https://dc.lft.to/lastmile_qr_scan"}, "fusion_lon": 0.0}, {"lat": 38.9014245, "is_disabled": 0, "type": "electric_scooter", "lon": -76.9805305, "bike_id": "0bcab581626bdb64a39903e542855d3b", "fusion_lat": 0.0, "name": "0bcab581626bdb64a39903e542855d3b", "is_reserved": 0, "rental_uris": {"android": "https://dc.lft.to/lastmile_qr_scan", "ios": "https://dc.lft.to/lastmile_qr_scan"}, "fusion_lon": 0.0}, {"lat": 38.84611366666667, "is_disabled": 0, "type": "electric_bike", "lon": -76.96906483333333, "bike_id": "ab0d47d1e001846d8a1130f47ef5ed37", "fusion_lat": 0.0, "name": "ab0d47d1e001846d8a1130f47ef5ed37", "is_reserved": 0, "rental_uris": {"android": "https://dc.lft.to/lastmile_qr_scan", "ios": "https://dc.lft.to/lastmile_qr_scan"}, "fusion_lon": 0.0}, {"lat": 38.91977966666666, "is_disabled": 0, "type": "electric_scooter", "lon": -77.000205, "bike_id": "8460b0cc82d278b5cfc97c3fc45f5ad4", "fusion_lat": 0.0, "name": "8460b0cc82d278b5cfc97c3fc45f5ad4", "is_reserved": 0, "rental_uris": {"android": "https://dc.lft.to/lastmile_qr_scan", "ios": "https://dc.lft.to/lastmile_qr_scan"}, "fusion_lon": 0.0}, {"lat": 38.934125, "is_disabled": 0, "type": "electric_bike", "lon": -77.025021, "bike_id": "4b886ded069663f0dbbfeb5ee8b2a25d", "fusion_lat": 0.0, "name": "4b886ded069663f0dbbfeb5ee8b2a25d", "is_reserved": 0, "rental_uris": {"android": "https://dc.lft.to/lastmile_qr_scan", "ios": "https://dc.lft.to/lastmile_qr_scan"}, "fusion_lon": 0.0}, {"lat": 38.886781, "is_disabled": 0, "type": "electric_scooter", "lon": -76.98557216666667, "bike_id": "0db8ce54a93d356bdd4ca7ebe3bae966", "fusion_lat": 0.0, "name": "0db8ce54a93d356bdd4ca7ebe3bae966", "is_reserved": 0, "rental_uris": {"android": "https://dc.lft.to/lastmile_qr_scan", "ios": "https://dc.lft.to/lastmile_qr_scan"}, "fusion_lon": 0.0}, {"lat": 38.95709316666667, "is_disabled": 0, "type": "electric_scooter", "lon": -77.02399183333333, "bike_id": "c98d5fdbfab247afd2e787667d201bed", "fusion_lat": 0.0, "name": "c98d5fdbfab247afd2e787667d201bed", "is_reserved": 0, "rental_uris": {"android": "https://dc.lft.to/lastmile_qr_scan", "ios": "https://dc.lft.to/lastmile_qr_scan"}, "fusion_lon": 0.0}, {"lat": 38.934326666666664, "is_disabled": 0, "type": "electric_scooter", "lon": -76.96508883333334, "bike_id": "ec5f07ddc78bbb348985586b116d0c6c", "fusion_lat": 0.0, "name": "ec5f07ddc78bbb348985586b116d0c6c", "is_reserved": 0, "rental_uris": {"android": "https://dc.lft.to/lastmile_qr_scan", "ios": "https://dc.lft.to/lastmile_qr_scan"}, "fusion_lon": 0.0}, {"lat": 38.937598333333334, "is_disabled": 0, "type": "electric_scooter", "lon": -77.03278433333334, "bike_id": "af19e3b43b6c9b80a0c556bb67230d2c", "fusion_lat": 0.0, "name": "af19e3b43b6c9b80a0c556bb67230d2c", "is_reserved": 0, "rental_uris": {"android": "https://dc.lft.to/lastmile_qr_scan", "ios": "https://dc.lft.to/lastmile_qr_scan"}, "fusion_lon": 0.0}, {"lat": 38.88549533333333, "is_disabled": 0, "type": "electric_bike", "lon": -77.117838, "bike_id": "585bd3de7dff1018366fd567fd04711c", "fusion_lat": 0.0, "name": "585bd3de7dff1018366fd567fd04711c", "is_reserved": 0, "rental_uris": {"android": "https://dc.lft.to/lastmile_qr_scan", "ios": "https://dc.lft.to/lastmile_qr_scan"}, "fusion_lon": 0.0}, {"lat": 38.858539666666665, "is_disabled": 0, "type": "electric_scooter", "lon": -76.99559816666667, "bike_id": "b0201cafa87d4e42d72cf61007497e1c", "fusion_lat": 0.0, "name": "b0201cafa87d4e42d72cf61007497e1c", "is_reserved": 0, "rental_uris": {"android": "https://dc.lft.to/lastmile_qr_scan", "ios": "https://dc.lft.to/lastmile_qr_scan"}, "fusion_lon": 0.0}, {"lat": 38.919603, "is_disabled": 0, "type": "electric_scooter", "lon": -77.01439716666667, "bike_id": "396a6a929181a1a2381f9333bdf4bc29", "fusion_lat": 0.0, "name": "396a6a929181a1a2381f9333bdf4bc29", "is_reserved": 0, "rental_uris": {"android": "https://dc.lft.to/lastmile_qr_scan", "ios": "https://dc.lft.to/lastmile_qr_scan"}, "fusion_lon": 0.0}, {"lat": 38.898242333333336, "is_disabled": 0, "type": "electric_scooter", "lon": -77.033175, "bike_id": "344610673f0fdb5014a43dc46121682b", "fusion_lat": 0.0, "name": "344610673f0fdb5014a43dc46121682b", "is_reserved": 0, "rental_uris": {"android": "https://dc.lft.to/lastmile_qr_scan", "ios": "https://dc.lft.to/lastmile_qr_scan"}, "fusion_lon": 0.0}, {"lat": 38.87671683333333, "is_disabled": 0, "type": "electric_scooter", "lon": -77.017576, "bike_id": "904bfbbeb6b96d08b516d3e872a4606e", "fusion_lat": 0.0, "name": "904bfbbeb6b96d08b516d3e872a4606e", "is_reserved": 0, "rental_uris": {"android": "https://dc.lft.to/lastmile_qr_scan", "ios": "https://dc.lft.to/lastmile_qr_scan"}, "fusion_lon": 0.0}, {"lat": 38.887161, "is_disabled": 0, "type": "electric_bike", "lon": -77.13303866666666, "bike_id": "fdbbfd4cbdee59a3f00c836762a94c9f", "fusion_lat": 0.0, "name": "fdbbfd4cbdee59a3f00c836762a94c9f", "is_reserved": 0, "rental_uris": {"android": "https://dc.lft.to/lastmile_qr_scan", "ios": "https://dc.lft.to/lastmile_qr_scan"}, "fusion_lon": 0.0}, {"lat": 38.884597166666666, "is_disabled": 0, "type": "electric_scooter", "lon": -76.92951933333333, "bike_id": "2e82bdf7e67af5c7aa9911a374b58123", "fusion_lat": 0.0, "name": "2e82bdf7e67af5c7aa9911a374b58123", "is_reserved": 0, "rental_uris": {"android": "https://dc.lft.to/lastmile_qr_scan", "ios": "https://dc.lft.to/lastmile_qr_scan"}, "fusion_lon": 0.0}, {"lat": 38.99883783333333, "is_disabled": 0, "type": "electric_bike", "lon": -77.02860466666667, "bike_id": "bbb04e2c8c93d942b3808bf13d01ef3c", "fusion_lat": 0.0, "name": "bbb04e2c8c93d942b3808bf13d01ef3c", "is_reserved": 0, "rental_uris": {"android": "https://dc.lft.to/lastmile_qr_scan", "ios": "https://dc.lft.to/lastmile_qr_scan"}, "fusion_lon": 0.0}, {"lat": 38.920787, "is_disabled": 0, "type": "electric_scooter", "lon": -77.04548983333333, "bike_id": "eb6c0f9ec771bf374685fd6ecab135a2", "fusion_lat": 0.0, "name": "eb6c0f9ec771bf374685fd6ecab135a2", "is_reserved": 0, "rental_uris": {"android": "https://dc.lft.to/lastmile_qr_scan", "ios": "https://dc.lft.to/lastmile_qr_scan"}, "fusion_lon": 0.0}, {"lat": 38.89744916666667, "is_disabled": 0, "type": "electric_scooter", "lon": -77.0468165, "bike_id": "bdf0781ef787708a80810abb7c90b9d0", "fusion_lat": 0.0, "name": "bdf0781ef787708a80810abb7c90b9d0", "is_reserved": 0, "rental_uris": {"android": "https://dc.lft.to/lastmile_qr_scan", "ios": "https://dc.lft.to/lastmile_qr_scan"}, "fusion_lon": 0.0}, {"lat": 38.905954, "is_disabled": 0, "type": "electric_scooter", "lon": -76.98631616666667, "bike_id": "646ad7d9e9fd7fdce8633fa217c9cf0a", "fusion_lat": 0.0, "name": "646ad7d9e9fd7fdce8633fa217c9cf0a", "is_reserved": 0, "rental_uris": {"android": "https://dc.lft.to/lastmile_qr_scan", "ios": "https://dc.lft.to/lastmile_qr_scan"}, "fusion_lon": 0.0}, {"lat": 38.89693333333334, "is_disabled": 0, "type": "electric_scooter", "lon": -77.05027283333334, "bike_id": "d56cbe622401385e75363bd9326a9ffc", "fusion_lat": 0.0, "name": "d56cbe622401385e75363bd9326a9ffc", "is_reserved": 0, "rental_uris": {"android": "https://dc.lft.to/lastmile_qr_scan", "ios": "https://dc.lft.to/lastmile_qr_scan"}, "fusion_lon": 0.0}, {"lat": 38.92110666666667, "is_disabled": 0, "type": "electric_scooter", "lon": -77.03658966666667, "bike_id": "c55a49356878f7dd1a7c92ebd0544b46", "fusion_lat": 0.0, "name": "c55a49356878f7dd1a7c92ebd0544b46", "is_reserved": 0, "rental_uris": {"android": "https://dc.lft.to/lastmile_qr_scan", "ios": "https://dc.lft.to/lastmile_qr_scan"}, "fusion_lon": 0.0}, {"lat": 38.92707933333333, "is_disabled": 0, "type": "electric_bike", "lon": -77.03733, "bike_id": "6f3507b4598bae301174164b66ae695f", "fusion_lat": 0.0, "name": "6f3507b4598bae301174164b66ae695f", "is_reserved": 0, "rental_uris": {"android": "https://dc.lft.to/lastmile_qr_scan", "ios": "https://dc.lft.to/lastmile_qr_scan"}, "fusion_lon": 0.0}, {"lat": 38.91126466666667, "is_disabled": 0, "type": "electric_scooter", "lon": -77.03200233333334, "bike_id": "2ee0f9a17113e15e2f58f271ec0a77d6", "fusion_lat": 0.0, "name": "2ee0f9a17113e15e2f58f271ec0a77d6", "is_reserved": 0, "rental_uris": {"android": "https://dc.lft.to/lastmile_qr_scan", "ios": "https://dc.lft.to/lastmile_qr_scan"}, "fusion_lon": 0.0}, {"lat": 38.920565333333336, "is_disabled": 0, "type": "electric_scooter", "lon": -77.033877, "bike_id": "55c36028f3f64987c49221e81a6ce269", "fusion_lat": 0.0, "name": "55c36028f3f64987c49221e81a6ce269", "is_reserved": 0, "rental_uris": {"android": "https://dc.lft.to/lastmile_qr_scan", "ios": "https://dc.lft.to/lastmile_qr_scan"}, "fusion_lon": 0.0}, {"lat": 38.898965833333335, "is_disabled": 0, "type": "electric_scooter", "lon": -76.9842375, "bike_id": "49ed8a7ab791e2ee949840cbd2443167", "fusion_lat": 0.0, "name": "49ed8a7ab791e2ee949840cbd2443167", "is_reserved": 0, "rental_uris": {"android": "https://dc.lft.to/lastmile_qr_scan", "ios": "https://dc.lft.to/lastmile_qr_scan"}, "fusion_lon": 0.0}, {"lat": 38.8973735, "is_disabled": 0, "type": "electric_scooter", "lon": -76.94718916666666, "bike_id": "e7cfc3ffdd946c61e5ea9abc7f004405", "fusion_lat": 0.0, "name": "e7cfc3ffdd946c61e5ea9abc7f004405", "is_reserved": 0, "rental_uris": {"android": "https://dc.lft.to/lastmile_qr_scan", "ios": "https://dc.lft.to/lastmile_qr_scan"}, "fusion_lon": 0.0}, {"lat": 38.95356783333333, "is_disabled": 0, "type": "electric_bike", "lon": -76.98093983333334, "bike_id": "f526a24f4895c16c193bd6b8bf76861d", "fusion_lat": 0.0, "name": "f526a24f4895c16c193bd6b8bf76861d", "is_reserved": 0, "rental_uris": {"android": "https://dc.lft.to/lastmile_qr_scan", "ios": "https://dc.lft.to/lastmile_qr_scan"}, "fusion_lon": 0.0}, {"lat": 38.91560116666667, "is_disabled": 0, "type": "electric_scooter", "lon": -77.0316355, "bike_id": "c281f769372a5c7a4c24debca6981096", "fusion_lat": 0.0, "name": "c281f769372a5c7a4c24debca6981096", "is_reserved": 0, "rental_uris": {"android": "https://dc.lft.to/lastmile_qr_scan", "ios": "https://dc.lft.to/lastmile_qr_scan"}, "fusion_lon": 0.0}, {"lat": 38.90377316666667, "is_disabled": 0, "type": "electric_scooter", "lon": -77.058078, "bike_id": "4349e0c534297b4983eb56ec9b69f87b", "fusion_lat": 0.0, "name": "4349e0c534297b4983eb56ec9b69f87b", "is_reserved": 0, "rental_uris": {"android": "https://dc.lft.to/lastmile_qr_scan", "ios": "https://dc.lft.to/lastmile_qr_scan"}, "fusion_lon": 0.0}, {"lat": 38.92710366666667, "is_disabled": 0, "type": "electric_scooter", "lon": -77.02406816666667, "bike_id": "0af80551ac9e7319d7debf0629a082cf", "fusion_lat": 0.0, "name": "0af80551ac9e7319d7debf0629a082cf", "is_reserved": 0, "rental_uris": {"android": "https://dc.lft.to/lastmile_qr_scan", "ios": "https://dc.lft.to/lastmile_qr_scan"}, "fusion_lon": 0.0}, {"lat": 38.91423066666667, "is_disabled": 0, "type": "electric_scooter", "lon": -77.03529516666667, "bike_id": "08a6a189df400e1ef40d3388f06eaebc", "fusion_lat": 0.0, "name": "08a6a189df400e1ef40d3388f06eaebc", "is_reserved": 0, "rental_uris": {"android": "https://dc.lft.to/lastmile_qr_scan", "ios": "https://dc.lft.to/lastmile_qr_scan"}, "fusion_lon": 0.0}, {"lat": 38.893315333333334, "is_disabled": 0, "type": "electric_bike", "lon": -76.9211575, "bike_id": "254516367ea9292fcecfe803e1c287de", "fusion_lat": 0.0, "name": "254516367ea9292fcecfe803e1c287de", "is_reserved": 0, "rental_uris": {"android": "https://dc.lft.to/lastmile_qr_scan", "ios": "https://dc.lft.to/lastmile_qr_scan"}, "fusion_lon": 0.0}, {"lat": 38.91822466666667, "is_disabled": 0, "type": "electric_scooter", "lon": -77.02609066666666, "bike_id": "6e78eae6c8f3ff4e487b71257198742e", "fusion_lat": 0.0, "name": "6e78eae6c8f3ff4e487b71257198742e", "is_reserved": 0, "rental_uris": {"android": "https://dc.lft.to/lastmile_qr_scan", "ios": "https://dc.lft.to/lastmile_qr_scan"}, "fusion_lon": 0.0}, {"lat": 38.9194655, "is_disabled": 0, "type": "electric_scooter", "lon": -77.04531683333333, "bike_id": "879fe0f82e21ffb28598e7fe5a5ea03e", "fusion_lat": 0.0, "name": "879fe0f82e21ffb28598e7fe5a5ea03e", "is_reserved": 0, "rental_uris": {"android": "https://dc.lft.to/lastmile_qr_scan", "ios": "https://dc.lft.to/lastmile_qr_scan"}, "fusion_lon": 0.0}, {"lat": 38.95615766666667, "is_disabled": 0, "type": "electric_scooter", "lon": -77.027593, "bike_id": "4332027bcb3bcab0ddf86aa0d6855707", "fusion_lat": 0.0, "name": "4332027bcb3bcab0ddf86aa0d6855707", "is_reserved": 0, "rental_uris": {"android": "https://dc.lft.to/lastmile_qr_scan", "ios": "https://dc.lft.to/lastmile_qr_scan"}, "fusion_lon": 0.0}, {"lat": 38.927642666666664, "is_disabled": 0, "type": "electric_scooter", "lon": -77.03217516666666, "bike_id": "3ce5f330c21d82cd6d1f55984c8d4a63", "fusion_lat": 0.0, "name": "3ce5f330c21d82cd6d1f55984c8d4a63", "is_reserved": 0, "rental_uris": {"android": "https://dc.lft.to/lastmile_qr_scan", "ios": "https://dc.lft.to/lastmile_qr_scan"}, "fusion_lon": 0.0}, {"lat": 38.924819666666664, "is_disabled": 0, "type": "electric_scooter", "lon": -77.02840816666667, "bike_id": "4b61a594ec7c21ce35a4bdb7467c6b42", "fusion_lat": 0.0, "name": "4b61a594ec7c21ce35a4bdb7467c6b42", "is_reserved": 0, "rental_uris": {"android": "https://dc.lft.to/lastmile_qr_scan", "ios": "https://dc.lft.to/lastmile_qr_scan"}, "fusion_lon": 0.0}, {"lat": 38.89828166666667, "is_disabled": 0, "type": "electric_scooter", "lon": -76.99693616666667, "bike_id": "84e1df3a95db362271388dd2ef213914", "fusion_lat": 0.0, "name": "84e1df3a95db362271388dd2ef213914", "is_reserved": 0, "rental_uris": {"android": "https://dc.lft.to/lastmile_qr_scan", "ios": "https://dc.lft.to/lastmile_qr_scan"}, "fusion_lon": 0.0}, {"lat": 38.88639233333333, "is_disabled": 0, "type": "electric_bike", "lon": -76.95468383333333, "bike_id": "46cfa8bcbe32b01523cad55aca4ab9e2", "fusion_lat": 0.0, "name": "46cfa8bcbe32b01523cad55aca4ab9e2", "is_reserved": 0, "rental_uris": {"android": "https://dc.lft.to/lastmile_qr_scan", "ios": "https://dc.lft.to/lastmile_qr_scan"}, "fusion_lon": 0.0}, {"lat": 38.9013815, "is_disabled": 0, "type": "electric_scooter", "lon": -77.02891716666667, "bike_id": "e55e91d121c8d5853c6d78a66a573cfc", "fusion_lat": 0.0, "name": "e55e91d121c8d5853c6d78a66a573cfc", "is_reserved": 0, "rental_uris": {"android": "https://dc.lft.to/lastmile_qr_scan", "ios": "https://dc.lft.to/lastmile_qr_scan"}, "fusion_lon": 0.0}, {"lat": 38.91176683333333, "is_disabled": 0, "type": "electric_scooter", "lon": -77.06095416666666, "bike_id": "61b4a38b90fdde97e3b70a839615725f", "fusion_lat": 0.0, "name": "61b4a38b90fdde97e3b70a839615725f", "is_reserved": 0, "rental_uris": {"android": "https://dc.lft.to/lastmile_qr_scan", "ios": "https://dc.lft.to/lastmile_qr_scan"}, "fusion_lon": 0.0}, {"lat": 39.05636366666667, "is_disabled": 0, "type": "electric_bike", "lon": -77.12527416666667, "bike_id": "bb1df4799739ea3ec3f5a82c364217f9", "fusion_lat": 0.0, "name": "bb1df4799739ea3ec3f5a82c364217f9", "is_reserved": 0, "rental_uris": {"android": "https://dc.lft.to/lastmile_qr_scan", "ios": "https://dc.lft.to/lastmile_qr_scan"}, "fusion_lon": 0.0}, {"lat": 38.927378166666664, "is_disabled": 0, "type": "electric_scooter", "lon": -77.03445883333333, "bike_id": "14aee19d95f35a457be3f0c2a8cdf36e", "fusion_lat": 0.0, "name": "14aee19d95f35a457be3f0c2a8cdf36e", "is_reserved": 0, "rental_uris": {"android": "https://dc.lft.to/lastmile_qr_scan", "ios": "https://dc.lft.to/lastmile_qr_scan"}, "fusion_lon": 0.0}, {"lat": 38.95287483333333, "is_disabled": 0, "type": "electric_bike", "lon": -76.94592166666666, "bike_id": "9419db35acde677396d907d60b60f205", "fusion_lat": 0.0, "name": "9419db35acde677396d907d60b60f205", "is_reserved": 0, "rental_uris": {"android": "https://dc.lft.to/lastmile_qr_scan", "ios": "https://dc.lft.to/lastmile_qr_scan"}, "fusion_lon": 0.0}, {"lat": 38.939446833333335, "is_disabled": 0, "type": "electric_scooter", "lon": -77.03668, "bike_id": "f0b3895383914dc16f1664d421fd7359", "fusion_lat": 0.0, "name": "f0b3895383914dc16f1664d421fd7359", "is_reserved": 0, "rental_uris": {"android": "https://dc.lft.to/lastmile_qr_scan", "ios": "https://dc.lft.to/lastmile_qr_scan"}, "fusion_lon": 0.0}, {"lat": 38.897388166666666, "is_disabled": 0, "type": "electric_scooter", "lon": -77.04688166666666, "bike_id": "9462946cbcf7c080b1a63783e49dd011", "fusion_lat": 0.0, "name": "9462946cbcf7c080b1a63783e49dd011", "is_reserved": 0, "rental_uris": {"android": "https://dc.lft.to/lastmile_qr_scan", "ios": "https://dc.lft.to/lastmile_qr_scan"}, "fusion_lon": 0.0}, {"lat": 38.918614, "is_disabled": 0, "type": "electric_scooter", "lon": -77.04578566666666, "bike_id": "c3310859d78c1f0562e61b8725cd9935", "fusion_lat": 0.0, "name": "c3310859d78c1f0562e61b8725cd9935", "is_reserved": 0, "rental_uris": {"android": "https://dc.lft.to/lastmile_qr_scan", "ios": "https://dc.lft.to/lastmile_qr_scan"}, "fusion_lon": 0.0}, {"lat": 38.9170945, "is_disabled": 0, "type": "electric_scooter", "lon": -77.001103, "bike_id": "d0b91d976bd2df36c4c175d55f6dbde9", "fusion_lat": 0.0, "name": "d0b91d976bd2df36c4c175d55f6dbde9", "is_reserved": 0, "rental_uris": {"android": "https://dc.lft.to/lastmile_qr_scan", "ios": "https://dc.lft.to/lastmile_qr_scan"}, "fusion_lon": 0.0}, {"lat": 38.899704, "is_disabled": 0, "type": "electric_scooter", "lon": -77.0570275, "bike_id": "39f2ae29061ef177df271acc7b54c67c", "fusion_lat": 0.0, "name": "39f2ae29061ef177df271acc7b54c67c", "is_reserved": 0, "rental_uris": {"android": "https://dc.lft.to/lastmile_qr_scan", "ios": "https://dc.lft.to/lastmile_qr_scan"}, "fusion_lon": 0.0}, {"lat": 38.91703416666667, "is_disabled": 0, "type": "electric_scooter", "lon": -77.0312705, "bike_id": "4d7e2c63f914429e7598f21235addb89", "fusion_lat": 0.0, "name": "4d7e2c63f914429e7598f21235addb89", "is_reserved": 0, "rental_uris": {"android": "https://dc.lft.to/lastmile_qr_scan", "ios": "https://dc.lft.to/lastmile_qr_scan"}, "fusion_lon": 0.0}, {"lat": 38.92764416666667, "is_disabled": 0, "type": "electric_scooter", "lon": -77.03218216666667, "bike_id": "9e39640fc4ffe02574cd609a5c0bfe5d", "fusion_lat": 0.0, "name": "9e39640fc4ffe02574cd609a5c0bfe5d", "is_reserved": 0, "rental_uris": {"android": "https://dc.lft.to/lastmile_qr_scan", "ios": "https://dc.lft.to/lastmile_qr_scan"}, "fusion_lon": 0.0}, {"lat": 38.920086166666664, "is_disabled": 0, "type": "electric_scooter", "lon": -77.038771, "bike_id": "9beb0448d54add3f6c84c86e179061c7", "fusion_lat": 0.0, "name": "9beb0448d54add3f6c84c86e179061c7", "is_reserved": 0, "rental_uris": {"android": "https://dc.lft.to/lastmile_qr_scan", "ios": "https://dc.lft.to/lastmile_qr_scan"}, "fusion_lon": 0.0}, {"lat": 38.898719, "is_disabled": 0, "type": "electric_scooter", "lon": -77.02388983333333, "bike_id": "80dee45564c35a9f070ea1fde3116150", "fusion_lat": 0.0, "name": "80dee45564c35a9f070ea1fde3116150", "is_reserved": 0, "rental_uris": {"android": "https://dc.lft.to/lastmile_qr_scan", "ios": "https://dc.lft.to/lastmile_qr_scan"}, "fusion_lon": 0.0}, {"lat": 38.895584666666664, "is_disabled": 0, "type": "electric_scooter", "lon": -76.93079483333334, "bike_id": "8f59dde45b9d15d85a3f6d41cf12a4ee", "fusion_lat": 0.0, "name": "8f59dde45b9d15d85a3f6d41cf12a4ee", "is_reserved": 0, "rental_uris": {"android": "https://dc.lft.to/lastmile_qr_scan", "ios": "https://dc.lft.to/lastmile_qr_scan"}, "fusion_lon": 0.0}, {"lat": 38.9016765, "is_disabled": 0, "type": "electric_scooter", "lon": -77.02383183333333, "bike_id": "4574a8c8586bbe75a8a486ff8057da05", "fusion_lat": 0.0, "name": "4574a8c8586bbe75a8a486ff8057da05", "is_reserved": 0, "rental_uris": {"android": "https://dc.lft.to/lastmile_qr_scan", "ios": "https://dc.lft.to/lastmile_qr_scan"}, "fusion_lon": 0.0}, {"lat": 38.9396075, "is_disabled": 0, "type": "electric_bike", "lon": -77.36089316666667, "bike_id": "2d549f5c620521679f54a062d98aa884", "fusion_lat": 0.0, "name": "2d549f5c620521679f54a062d98aa884", "is_reserved": 0, "rental_uris": {"android": "https://dc.lft.to/lastmile_qr_scan", "ios": "https://dc.lft.to/lastmile_qr_scan"}, "fusion_lon": 0.0}, {"lat": 38.926579833333335, "is_disabled": 0, "type": "electric_scooter", "lon": -77.024317, "bike_id": "58a6327026637b70f671653d719f140d", "fusion_lat": 0.0, "name": "58a6327026637b70f671653d719f140d", "is_reserved": 0, "rental_uris": {"android": "https://dc.lft.to/lastmile_qr_scan", "ios": "https://dc.lft.to/lastmile_qr_scan"}, "fusion_lon": 0.0}, {"lat": 38.860602166666666, "is_disabled": 0, "type": "electric_scooter", "lon": -76.98507883333333, "bike_id": "fe91c9222dec9f20da57396caef48957", "fusion_lat": 0.0, "name": "fe91c9222dec9f20da57396caef48957", "is_reserved": 0, "rental_uris": {"android": "https://dc.lft.to/lastmile_qr_scan", "ios": "https://dc.lft.to/lastmile_qr_scan"}, "fusion_lon": 0.0}, {"lat": 38.84300983333333, "is_disabled": 0, "type": "electric_scooter", "lon": -76.99946066666666, "bike_id": "613a86de6c1f4c120093e83224e8f405", "fusion_lat": 0.0, "name": "613a86de6c1f4c120093e83224e8f405", "is_reserved": 0, "rental_uris": {"android": "https://dc.lft.to/lastmile_qr_scan", "ios": "https://dc.lft.to/lastmile_qr_scan"}, "fusion_lon": 0.0}, {"lat": 38.89623133333333, "is_disabled": 0, "type": "electric_scooter", "lon": -77.04492333333333, "bike_id": "cb5cb72f946f021e651b0a41d2ed422b", "fusion_lat": 0.0, "name": "cb5cb72f946f021e651b0a41d2ed422b", "is_reserved": 0, "rental_uris": {"android": "https://dc.lft.to/lastmile_qr_scan", "ios": "https://dc.lft.to/lastmile_qr_scan"}, "fusion_lon": 0.0}, {"lat": 38.950748, "is_disabled": 0, "type": "electric_scooter", "lon": -77.06657166666666, "bike_id": "64156ac264d893e4b8bd4a9334e01f83", "fusion_lat": 0.0, "name": "64156ac264d893e4b8bd4a9334e01f83", "is_reserved": 0, "rental_uris": {"android": "https://dc.lft.to/lastmile_qr_scan", "ios": "https://dc.lft.to/lastmile_qr_scan"}, "fusion_lon": 0.0}, {"lat": 38.89843833333333, "is_disabled": 0, "type": "electric_scooter", "lon": -77.0243275, "bike_id": "85a918f4971fc666591cd327f5bc5d0a", "fusion_lat": 0.0, "name": "85a918f4971fc666591cd327f5bc5d0a", "is_reserved": 0, "rental_uris": {"android": "https://dc.lft.to/lastmile_qr_scan", "ios": "https://dc.lft.to/lastmile_qr_scan"}, "fusion_lon": 0.0}, {"lat": 38.94094533333333, "is_disabled": 0, "type": "electric_scooter", "lon": -77.03275366666666, "bike_id": "ce5495cc4ad1a6d47f10dcc1516f11df", "fusion_lat": 0.0, "name": "ce5495cc4ad1a6d47f10dcc1516f11df", "is_reserved": 0, "rental_uris": {"android": "https://dc.lft.to/lastmile_qr_scan", "ios": "https://dc.lft.to/lastmile_qr_scan"}, "fusion_lon": 0.0}, {"lat": 38.876315166666664, "is_disabled": 0, "type": "electric_scooter", "lon": -76.96523416666666, "bike_id": "3c1967014963d99954c3c9f2905f5db2", "fusion_lat": 0.0, "name": "3c1967014963d99954c3c9f2905f5db2", "is_reserved": 0, "rental_uris": {"android": "https://dc.lft.to/lastmile_qr_scan", "ios": "https://dc.lft.to/lastmile_qr_scan"}, "fusion_lon": 0.0}, {"lat": 38.9377425, "is_disabled": 0, "type": "electric_scooter", "lon": -77.02370466666666, "bike_id": "435474a82522fcfc28839b8f95bc052d", "fusion_lat": 0.0, "name": "435474a82522fcfc28839b8f95bc052d", "is_reserved": 0, "rental_uris": {"android": "https://dc.lft.to/lastmile_qr_scan", "ios": "https://dc.lft.to/lastmile_qr_scan"}, "fusion_lon": 0.0}, {"lat": 38.92603116666667, "is_disabled": 0, "type": "electric_scooter", "lon": -77.0343425, "bike_id": "3ba16e97559468a80f7b2e766fa63f07", "fusion_lat": 0.0, "name": "3ba16e97559468a80f7b2e766fa63f07", "is_reserved": 0, "rental_uris": {"android": "https://dc.lft.to/lastmile_qr_scan", "ios": "https://dc.lft.to/lastmile_qr_scan"}, "fusion_lon": 0.0}, {"lat": 38.905028, "is_disabled": 0, "type": "electric_scooter", "lon": -77.02944316666667, "bike_id": "7a691b98d6b6bb7ed8ff2cf7478870b7", "fusion_lat": 0.0, "name": "7a691b98d6b6bb7ed8ff2cf7478870b7", "is_reserved": 0, "rental_uris": {"android": "https://dc.lft.to/lastmile_qr_scan", "ios": "https://dc.lft.to/lastmile_qr_scan"}, "fusion_lon": 0.0}, {"lat": 38.90732633333333, "is_disabled": 0, "type": "electric_scooter", "lon": -77.04781716666666, "bike_id": "1d69768cd1a472cefd5c48168bcbf4f3", "fusion_lat": 0.0, "name": "1d69768cd1a472cefd5c48168bcbf4f3", "is_reserved": 0, "rental_uris": {"android": "https://dc.lft.to/lastmile_qr_scan", "ios": "https://dc.lft.to/lastmile_qr_scan"}, "fusion_lon": 0.0}, {"lat": 38.91678366666667, "is_disabled": 0, "type": "electric_scooter", "lon": -77.02712533333333, "bike_id": "c6551eb9b3b8bfde24fafa89bccebce6", "fusion_lat": 0.0, "name": "c6551eb9b3b8bfde24fafa89bccebce6", "is_reserved": 0, "rental_uris": {"android": "https://dc.lft.to/lastmile_qr_scan", "ios": "https://dc.lft.to/lastmile_qr_scan"}, "fusion_lon": 0.0}, {"lat": 38.9192825, "is_disabled": 0, "type": "electric_scooter", "lon": -77.0248255, "bike_id": "360fac6edd1aaaa9d80131733da314e5", "fusion_lat": 0.0, "name": "360fac6edd1aaaa9d80131733da314e5", "is_reserved": 0, "rental_uris": {"android": "https://dc.lft.to/lastmile_qr_scan", "ios": "https://dc.lft.to/lastmile_qr_scan"}, "fusion_lon": 0.0}, {"lat": 38.897483666666666, "is_disabled": 0, "type": "electric_scooter", "lon": -77.04458633333333, "bike_id": "99ed0f7a6fd72c355b3457a283caed68", "fusion_lat": 0.0, "name": "99ed0f7a6fd72c355b3457a283caed68", "is_reserved": 0, "rental_uris": {"android": "https://dc.lft.to/lastmile_qr_scan", "ios": "https://dc.lft.to/lastmile_qr_scan"}, "fusion_lon": 0.0}, {"lat": 38.914070833333334, "is_disabled": 0, "type": "electric_scooter", "lon": -77.03249566666666, "bike_id": "75044150a70acb45e94a03a863c8575b", "fusion_lat": 0.0, "name": "75044150a70acb45e94a03a863c8575b", "is_reserved": 0, "rental_uris": {"android": "https://dc.lft.to/lastmile_qr_scan", "ios": "https://dc.lft.to/lastmile_qr_scan"}, "fusion_lon": 0.0}, {"lat": 38.855153666666666, "is_disabled": 0, "type": "electric_bike", "lon": -77.1201375, "bike_id": "2140eedfb82e4e95175f923d4b66a693", "fusion_lat": 0.0, "name": "2140eedfb82e4e95175f923d4b66a693", "is_reserved": 0, "rental_uris": {"android": "https://dc.lft.to/lastmile_qr_scan", "ios": "https://dc.lft.to/lastmile_qr_scan"}, "fusion_lon": 0.0}, {"lat": 38.8965585, "is_disabled": 0, "type": "electric_scooter", "lon": -77.02307166666667, "bike_id": "d3aa95375c492f51fe264763cfdd15ea", "fusion_lat": 0.0, "name": "d3aa95375c492f51fe264763cfdd15ea", "is_reserved": 0, "rental_uris": {"android": "https://dc.lft.to/lastmile_qr_scan", "ios": "https://dc.lft.to/lastmile_qr_scan"}, "fusion_lon": 0.0}, {"lat": 39.00382366666667, "is_disabled": 0, "type": "electric_bike", "lon": -77.0128575, "bike_id": "52e10f59cb6bc5522e7cc8123258c7db", "fusion_lat": 0.0, "name": "52e10f59cb6bc5522e7cc8123258c7db", "is_reserved": 0, "rental_uris": {"android": "https://dc.lft.to/lastmile_qr_scan", "ios": "https://dc.lft.to/lastmile_qr_scan"}, "fusion_lon": 0.0}, {"lat": 38.916157166666665, "is_disabled": 0, "type": "electric_scooter", "lon": -77.0487235, "bike_id": "b269b9ab2eec1f89080dafb415519a25", "fusion_lat": 0.0, "name": "b269b9ab2eec1f89080dafb415519a25", "is_reserved": 0, "rental_uris": {"android": "https://dc.lft.to/lastmile_qr_scan", "ios": "https://dc.lft.to/lastmile_qr_scan"}, "fusion_lon": 0.0}, {"lat": 38.90640916666667, "is_disabled": 0, "type": "electric_scooter", "lon": -77.01365783333334, "bike_id": "6ac0795896e077bcce826df6a115e893", "fusion_lat": 0.0, "name": "6ac0795896e077bcce826df6a115e893", "is_reserved": 0, "rental_uris": {"android": "https://dc.lft.to/lastmile_qr_scan", "ios": "https://dc.lft.to/lastmile_qr_scan"}, "fusion_lon": 0.0}, {"lat": 38.940461166666665, "is_disabled": 0, "type": "electric_scooter", "lon": -77.028957, "bike_id": "b310bbd2938bf36919be624b17e04421", "fusion_lat": 0.0, "name": "b310bbd2938bf36919be624b17e04421", "is_reserved": 0, "rental_uris": {"android": "https://dc.lft.to/lastmile_qr_scan", "ios": "https://dc.lft.to/lastmile_qr_scan"}, "fusion_lon": 0.0}, {"lat": 38.90732116666667, "is_disabled": 0, "type": "electric_scooter", "lon": -77.00107883333334, "bike_id": "7fe34f80e87adb38752d6936b8437704", "fusion_lat": 0.0, "name": "7fe34f80e87adb38752d6936b8437704", "is_reserved": 0, "rental_uris": {"android": "https://dc.lft.to/lastmile_qr_scan", "ios": "https://dc.lft.to/lastmile_qr_scan"}, "fusion_lon": 0.0}, {"lat": 38.90247266666667, "is_disabled": 0, "type": "electric_scooter", "lon": -76.98959966666666, "bike_id": "f8aeb0b99936c4ecff21640c43e2a697", "fusion_lat": 0.0, "name": "f8aeb0b99936c4ecff21640c43e2a697", "is_reserved": 0, "rental_uris": {"android": "https://dc.lft.to/lastmile_qr_scan", "ios": "https://dc.lft.to/lastmile_qr_scan"}, "fusion_lon": 0.0}, {"lat": 38.81221166666667, "is_disabled": 0, "type": "electric_bike", "lon": -77.10982683333333, "bike_id": "bc72afbabe309ee2ef947eb431b6a438", "fusion_lat": 0.0, "name": "bc72afbabe309ee2ef947eb431b6a438", "is_reserved": 0, "rental_uris": {"android": "https://dc.lft.to/lastmile_qr_scan", "ios": "https://dc.lft.to/lastmile_qr_scan"}, "fusion_lon": 0.0}, {"lat": 38.845939, "is_disabled": 0, "type": "electric_bike", "lon": -77.07678966666667, "bike_id": "e7ed77fbc895a264e456215c80dc0ed4", "fusion_lat": 0.0, "name": "e7ed77fbc895a264e456215c80dc0ed4", "is_reserved": 0, "rental_uris": {"android": "https://dc.lft.to/lastmile_qr_scan", "ios": "https://dc.lft.to/lastmile_qr_scan"}, "fusion_lon": 0.0}, {"lat": 38.8661975, "is_disabled": 0, "type": "electric_scooter", "lon": -76.98666, "bike_id": "6b017db5e49564c27117976511cd86ac", "fusion_lat": 0.0, "name": "6b017db5e49564c27117976511cd86ac", "is_reserved": 0, "rental_uris": {"android": "https://dc.lft.to/lastmile_qr_scan", "ios": "https://dc.lft.to/lastmile_qr_scan"}, "fusion_lon": 0.0}, {"lat": 38.932021666666664, "is_disabled": 0, "type": "electric_bike", "lon": -77.03876233333334, "bike_id": "7d1946fdf7740fa8e1746a1c7dfb0b61", "fusion_lat": 0.0, "name": "7d1946fdf7740fa8e1746a1c7dfb0b61", "is_reserved": 0, "rental_uris": {"android": "https://dc.lft.to/lastmile_qr_scan", "ios": "https://dc.lft.to/lastmile_qr_scan"}, "fusion_lon": 0.0}, {"lat": 38.880479333333334, "is_disabled": 0, "type": "electric_scooter", "lon": -77.005575, "bike_id": "895512a07a365fd865b277caee5a23a7", "fusion_lat": 0.0, "name": "895512a07a365fd865b277caee5a23a7", "is_reserved": 0, "rental_uris": {"android": "https://dc.lft.to/lastmile_qr_scan", "ios": "https://dc.lft.to/lastmile_qr_scan"}, "fusion_lon": 0.0}, {"lat": 38.90839316666667, "is_disabled": 0, "type": "electric_scooter", "lon": -77.02950166666666, "bike_id": "ee7b21ba1e4c3bbf5f064c6597c6acce", "fusion_lat": 0.0, "name": "ee7b21ba1e4c3bbf5f064c6597c6acce", "is_reserved": 0, "rental_uris": {"android": "https://dc.lft.to/lastmile_qr_scan", "ios": "https://dc.lft.to/lastmile_qr_scan"}, "fusion_lon": 0.0}, {"lat": 38.892249166666666, "is_disabled": 0, "type": "electric_scooter", "lon": -77.02796266666667, "bike_id": "1cca5deccddadf3fa0d1f4cb7e790729", "fusion_lat": 0.0, "name": "1cca5deccddadf3fa0d1f4cb7e790729", "is_reserved": 0, "rental_uris": {"android": "https://dc.lft.to/lastmile_qr_scan", "ios": "https://dc.lft.to/lastmile_qr_scan"}, "fusion_lon": 0.0}, {"lat": 38.90046266666667, "is_disabled": 0, "type": "electric_scooter", "lon": -76.98823366666667, "bike_id": "36aebedda4e96473ce43c752fa9bb9f0", "fusion_lat": 0.0, "name": "36aebedda4e96473ce43c752fa9bb9f0", "is_reserved": 0, "rental_uris": {"android": "https://dc.lft.to/lastmile_qr_scan", "ios": "https://dc.lft.to/lastmile_qr_scan"}, "fusion_lon": 0.0}, {"lat": 38.90682483333333, "is_disabled": 0, "type": "electric_scooter", "lon": -77.03640366666667, "bike_id": "640a6ab0466f8789473279d134bc313f", "fusion_lat": 0.0, "name": "640a6ab0466f8789473279d134bc313f", "is_reserved": 0, "rental_uris": {"android": "https://dc.lft.to/lastmile_qr_scan", "ios": "https://dc.lft.to/lastmile_qr_scan"}, "fusion_lon": 0.0}, {"lat": 38.89767833333333, "is_disabled": 0, "type": "electric_bike", "lon": -76.90449633333333, "bike_id": "3037891bebfa6f3368dd11f4fd66b83b", "fusion_lat": 0.0, "name": "3037891bebfa6f3368dd11f4fd66b83b", "is_reserved": 0, "rental_uris": {"android": "https://dc.lft.to/lastmile_qr_scan", "ios": "https://dc.lft.to/lastmile_qr_scan"}, "fusion_lon": 0.0}, {"lat": 38.89995166666667, "is_disabled": 0, "type": "electric_scooter", "lon": -77.05092316666666, "bike_id": "e97a59b1a722734c72ba75436fe2af7e", "fusion_lat": 0.0, "name": "e97a59b1a722734c72ba75436fe2af7e", "is_reserved": 0, "rental_uris": {"android": "https://dc.lft.to/lastmile_qr_scan", "ios": "https://dc.lft.to/lastmile_qr_scan"}, "fusion_lon": 0.0}, {"lat": 38.88518583333333, "is_disabled": 0, "type": "electric_scooter", "lon": -77.00266733333333, "bike_id": "75784eb572a8c5f1796ebc2c85d9e4e9", "fusion_lat": 0.0, "name": "75784eb572a8c5f1796ebc2c85d9e4e9", "is_reserved": 0, "rental_uris": {"android": "https://dc.lft.to/lastmile_qr_scan", "ios": "https://dc.lft.to/lastmile_qr_scan"}, "fusion_lon": 0.0}, {"lat": 38.8663005, "is_disabled": 0, "type": "electric_scooter", "lon": -76.98711833333333, "bike_id": "248d1d2a2131f1209833bc284ebd5d81", "fusion_lat": 0.0, "name": "248d1d2a2131f1209833bc284ebd5d81", "is_reserved": 0, "rental_uris": {"android": "https://dc.lft.to/lastmile_qr_scan", "ios": "https://dc.lft.to/lastmile_qr_scan"}, "fusion_lon": 0.0}, {"lat": 38.842770333333334, "is_disabled": 0, "type": "electric_bike", "lon": -76.9884675, "bike_id": "86b05d23bbe512f7ef5b086c45a6023c", "fusion_lat": 0.0, "name": "86b05d23bbe512f7ef5b086c45a6023c", "is_reserved": 0, "rental_uris": {"android": "https://dc.lft.to/lastmile_qr_scan", "ios": "https://dc.lft.to/lastmile_qr_scan"}, "fusion_lon": 0.0}, {"lat": 38.9563785, "is_disabled": 0, "type": "electric_bike", "lon": -76.93881933333333, "bike_id": "9910964a5ba5033769ede5526e05112d", "fusion_lat": 0.0, "name": "9910964a5ba5033769ede5526e05112d", "is_reserved": 0, "rental_uris": {"android": "https://dc.lft.to/lastmile_qr_scan", "ios": "https://dc.lft.to/lastmile_qr_scan"}, "fusion_lon": 0.0}, {"lat": 38.915361833333336, "is_disabled": 0, "type": "electric_scooter", "lon": -77.01356933333334, "bike_id": "ce0bac9c6c7928375e875c5b0201bf09", "fusion_lat": 0.0, "name": "ce0bac9c6c7928375e875c5b0201bf09", "is_reserved": 0, "rental_uris": {"android": "https://dc.lft.to/lastmile_qr_scan", "ios": "https://dc.lft.to/lastmile_qr_scan"}, "fusion_lon": 0.0}, {"lat": 38.944308166666666, "is_disabled": 0, "type": "electric_scooter", "lon": -77.063063, "bike_id": "10a1502481a7f1b336b2d6f96e1ffaa6", "fusion_lat": 0.0, "name": "10a1502481a7f1b336b2d6f96e1ffaa6", "is_reserved": 0, "rental_uris": {"android": "https://dc.lft.to/lastmile_qr_scan", "ios": "https://dc.lft.to/lastmile_qr_scan"}, "fusion_lon": 0.0}, {"lat": 38.90563366666667, "is_disabled": 0, "type": "electric_scooter", "lon": -77.00587366666667, "bike_id": "c033fe0a2d71b2f640dab6f2d77b6202", "fusion_lat": 0.0, "name": "c033fe0a2d71b2f640dab6f2d77b6202", "is_reserved": 0, "rental_uris": {"android": "https://dc.lft.to/lastmile_qr_scan", "ios": "https://dc.lft.to/lastmile_qr_scan"}, "fusion_lon": 0.0}, {"lat": 38.901417, "is_disabled": 0, "type": "electric_scooter", "lon": -77.0007025, "bike_id": "906a5ddb613f8f4997b924d8f46c20b2", "fusion_lat": 0.0, "name": "906a5ddb613f8f4997b924d8f46c20b2", "is_reserved": 0, "rental_uris": {"android": "https://dc.lft.to/lastmile_qr_scan", "ios": "https://dc.lft.to/lastmile_qr_scan"}, "fusion_lon": 0.0}, {"lat": 38.917900333333336, "is_disabled": 0, "type": "electric_scooter", "lon": -77.02393116666667, "bike_id": "2c812a5d57168e411f113aa1d3083193", "fusion_lat": 0.0, "name": "2c812a5d57168e411f113aa1d3083193", "is_reserved": 0, "rental_uris": {"android": "https://dc.lft.to/lastmile_qr_scan", "ios": "https://dc.lft.to/lastmile_qr_scan"}, "fusion_lon": 0.0}, {"lat": 38.906166999999996, "is_disabled": 0, "type": "electric_scooter", "lon": -77.01283816666667, "bike_id": "15ed3181d6551a07abcb97af63c039df", "fusion_lat": 0.0, "name": "15ed3181d6551a07abcb97af63c039df", "is_reserved": 0, "rental_uris": {"android": "https://dc.lft.to/lastmile_qr_scan", "ios": "https://dc.lft.to/lastmile_qr_scan"}, "fusion_lon": 0.0}, {"lat": 38.89995483333333, "is_disabled": 0, "type": "electric_scooter", "lon": -77.00603416666667, "bike_id": "5f2ea4d41db481d6920eba4c8fba251d", "fusion_lat": 0.0, "name": "5f2ea4d41db481d6920eba4c8fba251d", "is_reserved": 0, "rental_uris": {"android": "https://dc.lft.to/lastmile_qr_scan", "ios": "https://dc.lft.to/lastmile_qr_scan"}, "fusion_lon": 0.0}, {"lat": 38.935862, "is_disabled": 0, "type": "electric_bike", "lon": -77.10683233333333, "bike_id": "7572416c8dd96656ac1a3e57adb8d17f", "fusion_lat": 0.0, "name": "7572416c8dd96656ac1a3e57adb8d17f", "is_reserved": 0, "rental_uris": {"android": "https://dc.lft.to/lastmile_qr_scan", "ios": "https://dc.lft.to/lastmile_qr_scan"}, "fusion_lon": 0.0}, {"lat": 38.944331, "is_disabled": 0, "type": "electric_scooter", "lon": -77.06304166666666, "bike_id": "872496eff2558006df490d111b742c30", "fusion_lat": 0.0, "name": "872496eff2558006df490d111b742c30", "is_reserved": 0, "rental_uris": {"android": "https://dc.lft.to/lastmile_qr_scan", "ios": "https://dc.lft.to/lastmile_qr_scan"}, "fusion_lon": 0.0}, {"lat": 38.9235705, "is_disabled": 0, "type": "electric_scooter", "lon": -77.0414475, "bike_id": "c2cc997d932094991bd44c853adf5857", "fusion_lat": 0.0, "name": "c2cc997d932094991bd44c853adf5857", "is_reserved": 0, "rental_uris": {"android": "https://dc.lft.to/lastmile_qr_scan", "ios": "https://dc.lft.to/lastmile_qr_scan"}, "fusion_lon": 0.0}, {"lat": 38.88891983333333, "is_disabled": 0, "type": "electric_scooter", "lon": -76.93153466666666, "bike_id": "993a31d10b59e98b071716a785634a3b", "fusion_lat": 0.0, "name": "993a31d10b59e98b071716a785634a3b", "is_reserved": 0, "rental_uris": {"android": "https://dc.lft.to/lastmile_qr_scan", "ios": "https://dc.lft.to/lastmile_qr_scan"}, "fusion_lon": 0.0}, {"lat": 38.90037616666667, "is_disabled": 0, "type": "electric_scooter", "lon": -76.99035733333334, "bike_id": "4b5b8119735b2305bdd357e5cf2d3caa", "fusion_lat": 0.0, "name": "4b5b8119735b2305bdd357e5cf2d3caa", "is_reserved": 0, "rental_uris": {"android": "https://dc.lft.to/lastmile_qr_scan", "ios": "https://dc.lft.to/lastmile_qr_scan"}, "fusion_lon": 0.0}, {"lat": 38.919904833333334, "is_disabled": 0, "type": "electric_scooter", "lon": -77.01214116666667, "bike_id": "6ab14e5c60721cc2f743dd45969afe6c", "fusion_lat": 0.0, "name": "6ab14e5c60721cc2f743dd45969afe6c", "is_reserved": 0, "rental_uris": {"android": "https://dc.lft.to/lastmile_qr_scan", "ios": "https://dc.lft.to/lastmile_qr_scan"}, "fusion_lon": 0.0}, {"lat": 38.88319416666667, "is_disabled": 0, "type": "electric_scooter", "lon": -77.00939916666667, "bike_id": "2d5a35d7ef5c96d9949e434113e5df07", "fusion_lat": 0.0, "name": "2d5a35d7ef5c96d9949e434113e5df07", "is_reserved": 0, "rental_uris": {"android": "https://dc.lft.to/lastmile_qr_scan", "ios": "https://dc.lft.to/lastmile_qr_scan"}, "fusion_lon": 0.0}, {"lat": 38.915878166666666, "is_disabled": 0, "type": "electric_bike", "lon": -77.03184833333333, "bike_id": "5ec09c074dd62c2f4d4d44f4c6efbae1", "fusion_lat": 0.0, "name": "5ec09c074dd62c2f4d4d44f4c6efbae1", "is_reserved": 0, "rental_uris": {"android": "https://dc.lft.to/lastmile_qr_scan", "ios": "https://dc.lft.to/lastmile_qr_scan"}, "fusion_lon": 0.0}, {"lat": 38.92253783333334, "is_disabled": 0, "type": "electric_scooter", "lon": -77.019715, "bike_id": "5766956c16dabe02b56d167f740c1e76", "fusion_lat": 0.0, "name": "5766956c16dabe02b56d167f740c1e76", "is_reserved": 0, "rental_uris": {"android": "https://dc.lft.to/lastmile_qr_scan", "ios": "https://dc.lft.to/lastmile_qr_scan"}, "fusion_lon": 0.0}, {"lat": 38.930747, "is_disabled": 0, "type": "electric_scooter", "lon": -77.0217565, "bike_id": "6e97dd98f1c1a4a4782c4382aa02aa21", "fusion_lat": 0.0, "name": "6e97dd98f1c1a4a4782c4382aa02aa21", "is_reserved": 0, "rental_uris": {"android": "https://dc.lft.to/lastmile_qr_scan", "ios": "https://dc.lft.to/lastmile_qr_scan"}, "fusion_lon": 0.0}, {"lat": 38.906956666666666, "is_disabled": 0, "type": "electric_scooter", "lon": -77.04374916666667, "bike_id": "9410aa0ac053059a36ead7d23d9d5fde", "fusion_lat": 0.0, "name": "9410aa0ac053059a36ead7d23d9d5fde", "is_reserved": 0, "rental_uris": {"android": "https://dc.lft.to/lastmile_qr_scan", "ios": "https://dc.lft.to/lastmile_qr_scan"}, "fusion_lon": 0.0}, {"lat": 38.90378916666667, "is_disabled": 0, "type": "electric_scooter", "lon": -77.0388345, "bike_id": "a901e8cf71b981d98a866a74409e10c2", "fusion_lat": 0.0, "name": "a901e8cf71b981d98a866a74409e10c2", "is_reserved": 0, "rental_uris": {"android": "https://dc.lft.to/lastmile_qr_scan", "ios": "https://dc.lft.to/lastmile_qr_scan"}, "fusion_lon": 0.0}, {"lat": 38.90523733333333, "is_disabled": 0, "type": "electric_scooter", "lon": -77.0644265, "bike_id": "81b474803123a2e6e761f3d00dd0928d", "fusion_lat": 0.0, "name": "81b474803123a2e6e761f3d00dd0928d", "is_reserved": 0, "rental_uris": {"android": "https://dc.lft.to/lastmile_qr_scan", "ios": "https://dc.lft.to/lastmile_qr_scan"}, "fusion_lon": 0.0}, {"lat": 38.9025485, "is_disabled": 0, "type": "electric_scooter", "lon": -77.02061416666666, "bike_id": "7a65b8fa13382094d50d5c4e7f98badc", "fusion_lat": 0.0, "name": "7a65b8fa13382094d50d5c4e7f98badc", "is_reserved": 0, "rental_uris": {"android": "https://dc.lft.to/lastmile_qr_scan", "ios": "https://dc.lft.to/lastmile_qr_scan"}, "fusion_lon": 0.0}, {"lat": 38.93412566666667, "is_disabled": 0, "type": "electric_scooter", "lon": -77.02038783333333, "bike_id": "cc3da2a0c2c60ebe4ba3bc55c59e12a1", "fusion_lat": 0.0, "name": "cc3da2a0c2c60ebe4ba3bc55c59e12a1", "is_reserved": 0, "rental_uris": {"android": "https://dc.lft.to/lastmile_qr_scan", "ios": "https://dc.lft.to/lastmile_qr_scan"}, "fusion_lon": 0.0}, {"lat": 38.9522325, "is_disabled": 0, "type": "electric_scooter", "lon": -77.06887516666667, "bike_id": "0fbb0f5ab9e22c2edee26d20f91377cc", "fusion_lat": 0.0, "name": "0fbb0f5ab9e22c2edee26d20f91377cc", "is_reserved": 0, "rental_uris": {"android": "https://dc.lft.to/lastmile_qr_scan", "ios": "https://dc.lft.to/lastmile_qr_scan"}, "fusion_lon": 0.0}, {"lat": 38.8715155, "is_disabled": 0, "type": "electric_bike", "lon": -76.9366815, "bike_id": "9dad7ba82a047a8d148bb4429bca1342", "fusion_lat": 0.0, "name": "9dad7ba82a047a8d148bb4429bca1342", "is_reserved": 0, "rental_uris": {"android": "https://dc.lft.to/lastmile_qr_scan", "ios": "https://dc.lft.to/lastmile_qr_scan"}, "fusion_lon": 0.0}, {"lat": 38.9317555, "is_disabled": 0, "type": "electric_scooter", "lon": -77.02815266666667, "bike_id": "d4f3f49d31d1062843ccd8aa9a3e2172", "fusion_lat": 0.0, "name": "d4f3f49d31d1062843ccd8aa9a3e2172", "is_reserved": 0, "rental_uris": {"android": "https://dc.lft.to/lastmile_qr_scan", "ios": "https://dc.lft.to/lastmile_qr_scan"}, "fusion_lon": 0.0}, {"lat": 38.91932716666667, "is_disabled": 0, "type": "electric_scooter", "lon": -77.04153783333334, "bike_id": "aec3ace4618a191bbe8ed147ca9514a9", "fusion_lat": 0.0, "name": "aec3ace4618a191bbe8ed147ca9514a9", "is_reserved": 0, "rental_uris": {"android": "https://dc.lft.to/lastmile_qr_scan", "ios": "https://dc.lft.to/lastmile_qr_scan"}, "fusion_lon": 0.0}, {"lat": 38.908189166666666, "is_disabled": 0, "type": "electric_scooter", "lon": -76.99710016666667, "bike_id": "e5562c6cdf5b6d7db59a582541f5be66", "fusion_lat": 0.0, "name": "e5562c6cdf5b6d7db59a582541f5be66", "is_reserved": 0, "rental_uris": {"android": "https://dc.lft.to/lastmile_qr_scan", "ios": "https://dc.lft.to/lastmile_qr_scan"}, "fusion_lon": 0.0}, {"lat": 38.9662635, "is_disabled": 0, "type": "electric_bike", "lon": -76.97666166666667, "bike_id": "2780c5c63a56bb756b6076c3d4d1a6db", "fusion_lat": 0.0, "name": "2780c5c63a56bb756b6076c3d4d1a6db", "is_reserved": 0, "rental_uris": {"android": "https://dc.lft.to/lastmile_qr_scan", "ios": "https://dc.lft.to/lastmile_qr_scan"}, "fusion_lon": 0.0}, {"lat": 38.9507655, "is_disabled": 0, "type": "electric_bike", "lon": -77.01193783333333, "bike_id": "29be9e62eb03c45a5bf7e0c441f221f3", "fusion_lat": 0.0, "name": "29be9e62eb03c45a5bf7e0c441f221f3", "is_reserved": 0, "rental_uris": {"android": "https://dc.lft.to/lastmile_qr_scan", "ios": "https://dc.lft.to/lastmile_qr_scan"}, "fusion_lon": 0.0}, {"lat": 38.898386, "is_disabled": 0, "type": "electric_scooter", "lon": -77.0303055, "bike_id": "9731855000fc4048b828f0ed0ddfb87e", "fusion_lat": 0.0, "name": "9731855000fc4048b828f0ed0ddfb87e", "is_reserved": 0, "rental_uris": {"android": "https://dc.lft.to/lastmile_qr_scan", "ios": "https://dc.lft.to/lastmile_qr_scan"}, "fusion_lon": 0.0}, {"lat": 38.937492666666664, "is_disabled": 0, "type": "electric_scooter", "lon": -77.03614683333333, "bike_id": "d3494004db2fc65b70da19995499829a", "fusion_lat": 0.0, "name": "d3494004db2fc65b70da19995499829a", "is_reserved": 0, "rental_uris": {"android": "https://dc.lft.to/lastmile_qr_scan", "ios": "https://dc.lft.to/lastmile_qr_scan"}, "fusion_lon": 0.0}, {"lat": 38.9162, "is_disabled": 0, "type": "electric_scooter", "lon": -77.031507, "bike_id": "72eee984db78459b965ced4d67f2d868", "fusion_lat": 0.0, "name": "72eee984db78459b965ced4d67f2d868", "is_reserved": 0, "rental_uris": {"android": "https://dc.lft.to/lastmile_qr_scan", "ios": "https://dc.lft.to/lastmile_qr_scan"}, "fusion_lon": 0.0}, {"lat": 38.940919666666666, "is_disabled": 0, "type": "electric_scooter", "lon": -77.06128383333333, "bike_id": "818b970b9c4a3b1545f628279236e5f1", "fusion_lat": 0.0, "name": "818b970b9c4a3b1545f628279236e5f1", "is_reserved": 0, "rental_uris": {"android": "https://dc.lft.to/lastmile_qr_scan", "ios": "https://dc.lft.to/lastmile_qr_scan"}, "fusion_lon": 0.0}, {"lat": 38.949057333333336, "is_disabled": 0, "type": "electric_bike", "lon": -76.97237216666667, "bike_id": "63e38516e29ea17712b40afc7e62f206", "fusion_lat": 0.0, "name": "63e38516e29ea17712b40afc7e62f206", "is_reserved": 0, "rental_uris": {"android": "https://dc.lft.to/lastmile_qr_scan", "ios": "https://dc.lft.to/lastmile_qr_scan"}, "fusion_lon": 0.0}, {"lat": 38.93086516666666, "is_disabled": 0, "type": "electric_scooter", "lon": -77.03133883333334, "bike_id": "3536dba3c151d42e757b82cef45c2cbb", "fusion_lat": 0.0, "name": "3536dba3c151d42e757b82cef45c2cbb", "is_reserved": 0, "rental_uris": {"android": "https://dc.lft.to/lastmile_qr_scan", "ios": "https://dc.lft.to/lastmile_qr_scan"}, "fusion_lon": 0.0}, {"lat": 38.906927833333334, "is_disabled": 0, "type": "electric_bike", "lon": -77.03589066666666, "bike_id": "9bde303a1f8adda71a24ba873aceea86", "fusion_lat": 0.0, "name": "9bde303a1f8adda71a24ba873aceea86", "is_reserved": 0, "rental_uris": {"android": "https://dc.lft.to/lastmile_qr_scan", "ios": "https://dc.lft.to/lastmile_qr_scan"}, "fusion_lon": 0.0}, {"lat": 38.90389416666667, "is_disabled": 0, "type": "electric_scooter", "lon": -77.044469, "bike_id": "f9c6e03c0c2740abdcb0435d6753561b", "fusion_lat": 0.0, "name": "f9c6e03c0c2740abdcb0435d6753561b", "is_reserved": 0, "rental_uris": {"android": "https://dc.lft.to/lastmile_qr_scan", "ios": "https://dc.lft.to/lastmile_qr_scan"}, "fusion_lon": 0.0}, {"lat": 38.939881666666665, "is_disabled": 0, "type": "electric_scooter", "lon": -77.028875, "bike_id": "79db7cd8cf56aa4c004288cfcd4fabd8", "fusion_lat": 0.0, "name": "79db7cd8cf56aa4c004288cfcd4fabd8", "is_reserved": 0, "rental_uris": {"android": "https://dc.lft.to/lastmile_qr_scan", "ios": "https://dc.lft.to/lastmile_qr_scan"}, "fusion_lon": 0.0}, {"lat": 38.924059166666666, "is_disabled": 0, "type": "electric_scooter", "lon": -77.02689883333333, "bike_id": "420eb1634010774f73db2bcbf148585f", "fusion_lat": 0.0, "name": "420eb1634010774f73db2bcbf148585f", "is_reserved": 0, "rental_uris": {"android": "https://dc.lft.to/lastmile_qr_scan", "ios": "https://dc.lft.to/lastmile_qr_scan"}, "fusion_lon": 0.0}, {"lat": 39.00009683333333, "is_disabled": 0, "type": "electric_bike", "lon": -76.9107855, "bike_id": "2a01dcde7a6108ebf30ec39dea483179", "fusion_lat": 0.0, "name": "2a01dcde7a6108ebf30ec39dea483179", "is_reserved": 0, "rental_uris": {"android": "https://dc.lft.to/lastmile_qr_scan", "ios": "https://dc.lft.to/lastmile_qr_scan"}, "fusion_lon": 0.0}, {"lat": 38.828781666666664, "is_disabled": 0, "type": "electric_bike", "lon": -77.11214966666667, "bike_id": "d5dc821b17fa5552b212dd759a8ce011", "fusion_lat": 0.0, "name": "d5dc821b17fa5552b212dd759a8ce011", "is_reserved": 0, "rental_uris": {"android": "https://dc.lft.to/lastmile_qr_scan", "ios": "https://dc.lft.to/lastmile_qr_scan"}, "fusion_lon": 0.0}, {"lat": 38.90974683333334, "is_disabled": 0, "type": "electric_scooter", "lon": -76.99722716666666, "bike_id": "8b75bd207189f1f306242c08b1b6f3a5", "fusion_lat": 0.0, "name": "8b75bd207189f1f306242c08b1b6f3a5", "is_reserved": 0, "rental_uris": {"android": "https://dc.lft.to/lastmile_qr_scan", "ios": "https://dc.lft.to/lastmile_qr_scan"}, "fusion_lon": 0.0}, {"lat": 38.956194833333335, "is_disabled": 0, "type": "electric_scooter", "lon": -77.0279055, "bike_id": "8721104c4da87f8025cff7f13c786992", "fusion_lat": 0.0, "name": "8721104c4da87f8025cff7f13c786992", "is_reserved": 0, "rental_uris": {"android": "https://dc.lft.to/lastmile_qr_scan", "ios": "https://dc.lft.to/lastmile_qr_scan"}, "fusion_lon": 0.0}, {"lat": 38.86661433333333, "is_disabled": 0, "type": "electric_scooter", "lon": -76.988809, "bike_id": "00e7136299c8b39ac41e3b880d1608d4", "fusion_lat": 0.0, "name": "00e7136299c8b39ac41e3b880d1608d4", "is_reserved": 0, "rental_uris": {"android": "https://dc.lft.to/lastmile_qr_scan", "ios": "https://dc.lft.to/lastmile_qr_scan"}, "fusion_lon": 0.0}, {"lat": 38.90564616666666, "is_disabled": 0, "type": "electric_scooter", "lon": -77.0059555, "bike_id": "c9212c88a050c2e4dab02643c637da18", "fusion_lat": 0.0, "name": "c9212c88a050c2e4dab02643c637da18", "is_reserved": 0, "rental_uris": {"android": "https://dc.lft.to/lastmile_qr_scan", "ios": "https://dc.lft.to/lastmile_qr_scan"}, "fusion_lon": 0.0}, {"lat": 38.903895, "is_disabled": 0, "type": "electric_scooter", "lon": -77.02151716666667, "bike_id": "17ad1608d6edad5fe773f51d2bca4db3", "fusion_lat": 0.0, "name": "17ad1608d6edad5fe773f51d2bca4db3", "is_reserved": 0, "rental_uris": {"android": "https://dc.lft.to/lastmile_qr_scan", "ios": "https://dc.lft.to/lastmile_qr_scan"}, "fusion_lon": 0.0}, {"lat": 38.871308166666665, "is_disabled": 0, "type": "electric_scooter", "lon": -77.007793, "bike_id": "b8550c96ebaf2c6673322dab9c5c4753", "fusion_lat": 0.0, "name": "b8550c96ebaf2c6673322dab9c5c4753", "is_reserved": 0, "rental_uris": {"android": "https://dc.lft.to/lastmile_qr_scan", "ios": "https://dc.lft.to/lastmile_qr_scan"}, "fusion_lon": 0.0}, {"lat": 38.9360695, "is_disabled": 0, "type": "electric_scooter", "lon": -77.0586155, "bike_id": "6eb59f582eaf37d9b9f8907f2ca27f19", "fusion_lat": 0.0, "name": "6eb59f582eaf37d9b9f8907f2ca27f19", "is_reserved": 0, "rental_uris": {"android": "https://dc.lft.to/lastmile_qr_scan", "ios": "https://dc.lft.to/lastmile_qr_scan"}, "fusion_lon": 0.0}, {"lat": 38.909623333333336, "is_disabled": 0, "type": "electric_scooter", "lon": -77.047979, "bike_id": "d64a22dca91e4e392369cc99551e3e90", "fusion_lat": 0.0, "name": "d64a22dca91e4e392369cc99551e3e90", "is_reserved": 0, "rental_uris": {"android": "https://dc.lft.to/lastmile_qr_scan", "ios": "https://dc.lft.to/lastmile_qr_scan"}, "fusion_lon": 0.0}, {"lat": 38.86530066666667, "is_disabled": 0, "type": "electric_scooter", "lon": -76.99026766666667, "bike_id": "ebaefb8b8906fe5036654274187deb88", "fusion_lat": 0.0, "name": "ebaefb8b8906fe5036654274187deb88", "is_reserved": 0, "rental_uris": {"android": "https://dc.lft.to/lastmile_qr_scan", "ios": "https://dc.lft.to/lastmile_qr_scan"}, "fusion_lon": 0.0}, {"lat": 38.906533, "is_disabled": 0, "type": "electric_scooter", "lon": -77.0294925, "bike_id": "a8e8ed19aa4b778cf666cbc6dff2aca4", "fusion_lat": 0.0, "name": "a8e8ed19aa4b778cf666cbc6dff2aca4", "is_reserved": 0, "rental_uris": {"android": "https://dc.lft.to/lastmile_qr_scan", "ios": "https://dc.lft.to/lastmile_qr_scan"}, "fusion_lon": 0.0}, {"lat": 38.86490233333333, "is_disabled": 0, "type": "electric_bike", "lon": -77.05694283333334, "bike_id": "1f893742af620f2baa58f243e4a8a724", "fusion_lat": 0.0, "name": "1f893742af620f2baa58f243e4a8a724", "is_reserved": 0, "rental_uris": {"android": "https://dc.lft.to/lastmile_qr_scan", "ios": "https://dc.lft.to/lastmile_qr_scan"}, "fusion_lon": 0.0}, {"lat": 38.863751, "is_disabled": 0, "type": "electric_scooter", "lon": -76.99062116666667, "bike_id": "731c09734b291fa9e3c46684e3d93623", "fusion_lat": 0.0, "name": "731c09734b291fa9e3c46684e3d93623", "is_reserved": 0, "rental_uris": {"android": "https://dc.lft.to/lastmile_qr_scan", "ios": "https://dc.lft.to/lastmile_qr_scan"}, "fusion_lon": 0.0}, {"lat": 38.91907, "is_disabled": 0, "type": "electric_scooter", "lon": -77.04628866666667, "bike_id": "9f42b96f8956453489fcf27a2dcfe568", "fusion_lat": 0.0, "name": "9f42b96f8956453489fcf27a2dcfe568", "is_reserved": 0, "rental_uris": {"android": "https://dc.lft.to/lastmile_qr_scan", "ios": "https://dc.lft.to/lastmile_qr_scan"}, "fusion_lon": 0.0}, {"lat": 38.9121275, "is_disabled": 0, "type": "electric_scooter", "lon": -77.0384445, "bike_id": "e1b752c8f048884b4142ad975714fadc", "fusion_lat": 0.0, "name": "e1b752c8f048884b4142ad975714fadc", "is_reserved": 0, "rental_uris": {"android": "https://dc.lft.to/lastmile_qr_scan", "ios": "https://dc.lft.to/lastmile_qr_scan"}, "fusion_lon": 0.0}, {"lat": 38.903869, "is_disabled": 0, "type": "electric_scooter", "lon": -77.043477, "bike_id": "c9c63b5e9e28c2e29ccd22754439fa95", "fusion_lat": 0.0, "name": "c9c63b5e9e28c2e29ccd22754439fa95", "is_reserved": 0, "rental_uris": {"android": "https://dc.lft.to/lastmile_qr_scan", "ios": "https://dc.lft.to/lastmile_qr_scan"}, "fusion_lon": 0.0}, {"lat": 38.92019466666667, "is_disabled": 0, "type": "electric_scooter", "lon": -77.04205216666666, "bike_id": "e040450988e3480aff36d8845dda1644", "fusion_lat": 0.0, "name": "e040450988e3480aff36d8845dda1644", "is_reserved": 0, "rental_uris": {"android": "https://dc.lft.to/lastmile_qr_scan", "ios": "https://dc.lft.to/lastmile_qr_scan"}, "fusion_lon": 0.0}, {"lat": 38.942741166666664, "is_disabled": 0, "type": "electric_scooter", "lon": -77.03254233333334, "bike_id": "b812a8ad4610ffe1bb87bfca4c4b1c6d", "fusion_lat": 0.0, "name": "b812a8ad4610ffe1bb87bfca4c4b1c6d", "is_reserved": 0, "rental_uris": {"android": "https://dc.lft.to/lastmile_qr_scan", "ios": "https://dc.lft.to/lastmile_qr_scan"}, "fusion_lon": 0.0}, {"lat": 38.896166666666666, "is_disabled": 0, "type": "electric_scooter", "lon": -76.95591066666667, "bike_id": "97c91b9f2a46f64bf6c27bccfb2c5f0a", "fusion_lat": 0.0, "name": "97c91b9f2a46f64bf6c27bccfb2c5f0a", "is_reserved": 0, "rental_uris": {"android": "https://dc.lft.to/lastmile_qr_scan", "ios": "https://dc.lft.to/lastmile_qr_scan"}, "fusion_lon": 0.0}, {"lat": 38.91058566666667, "is_disabled": 0, "type": "electric_scooter", "lon": -77.0457325, "bike_id": "dc887334d3274f45afb5e50d7c584767", "fusion_lat": 0.0, "name": "dc887334d3274f45afb5e50d7c584767", "is_reserved": 0, "rental_uris": {"android": "https://dc.lft.to/lastmile_qr_scan", "ios": "https://dc.lft.to/lastmile_qr_scan"}, "fusion_lon": 0.0}, {"lat": 38.92422583333333, "is_disabled": 0, "type": "electric_scooter", "lon": -77.03540933333333, "bike_id": "46f1b42801b75bcca835ebcfcabc0260", "fusion_lat": 0.0, "name": "46f1b42801b75bcca835ebcfcabc0260", "is_reserved": 0, "rental_uris": {"android": "https://dc.lft.to/lastmile_qr_scan", "ios": "https://dc.lft.to/lastmile_qr_scan"}, "fusion_lon": 0.0}, {"lat": 38.9084075, "is_disabled": 0, "type": "electric_scooter", "lon": -77.02812733333333, "bike_id": "95dfcf4e186719e925d4e58739712d80", "fusion_lat": 0.0, "name": "95dfcf4e186719e925d4e58739712d80", "is_reserved": 0, "rental_uris": {"android": "https://dc.lft.to/lastmile_qr_scan", "ios": "https://dc.lft.to/lastmile_qr_scan"}, "fusion_lon": 0.0}, {"lat": 38.91885, "is_disabled": 0, "type": "electric_scooter", "lon": -77.039061, "bike_id": "5309914adb4d89fb7358e0adfabe0c2d", "fusion_lat": 0.0, "name": "5309914adb4d89fb7358e0adfabe0c2d", "is_reserved": 0, "rental_uris": {"android": "https://dc.lft.to/lastmile_qr_scan", "ios": "https://dc.lft.to/lastmile_qr_scan"}, "fusion_lon": 0.0}, {"lat": 38.886701333333335, "is_disabled": 0, "type": "electric_bike", "lon": -77.16228883333333, "bike_id": "366fa74047779661310674c911e0759f", "fusion_lat": 0.0, "name": "366fa74047779661310674c911e0759f", "is_reserved": 0, "rental_uris": {"android": "https://dc.lft.to/lastmile_qr_scan", "ios": "https://dc.lft.to/lastmile_qr_scan"}, "fusion_lon": 0.0}, {"lat": 38.9014155, "is_disabled": 0, "type": "electric_scooter", "lon": -77.04164166666666, "bike_id": "29b01ebba33bb01ad11b441ca5b99ed4", "fusion_lat": 0.0, "name": "29b01ebba33bb01ad11b441ca5b99ed4", "is_reserved": 0, "rental_uris": {"android": "https://dc.lft.to/lastmile_qr_scan", "ios": "https://dc.lft.to/lastmile_qr_scan"}, "fusion_lon": 0.0}, {"lat": 38.92836366666667, "is_disabled": 0, "type": "electric_scooter", "lon": -77.0140475, "bike_id": "7990938571cc821bce6435dd0134c6bc", "fusion_lat": 0.0, "name": "7990938571cc821bce6435dd0134c6bc", "is_reserved": 0, "rental_uris": {"android": "https://dc.lft.to/lastmile_qr_scan", "ios": "https://dc.lft.to/lastmile_qr_scan"}, "fusion_lon": 0.0}, {"lat": 38.921564833333335, "is_disabled": 0, "type": "electric_scooter", "lon": -77.04205816666666, "bike_id": "10610f8a1f6f67727b4aafa9727ea7df", "fusion_lat": 0.0, "name": "10610f8a1f6f67727b4aafa9727ea7df", "is_reserved": 0, "rental_uris": {"android": "https://dc.lft.to/lastmile_qr_scan", "ios": "https://dc.lft.to/lastmile_qr_scan"}, "fusion_lon": 0.0}, {"lat": 38.90306183333333, "is_disabled": 0, "type": "electric_scooter", "lon": -77.0465295, "bike_id": "3d2d69db04aaa52a4ebd06726408aafc", "fusion_lat": 0.0, "name": "3d2d69db04aaa52a4ebd06726408aafc", "is_reserved": 0, "rental_uris": {"android": "https://dc.lft.to/lastmile_qr_scan", "ios": "https://dc.lft.to/lastmile_qr_scan"}, "fusion_lon": 0.0}, {"lat": 38.9140855, "is_disabled": 0, "type": "electric_scooter", "lon": -77.03056916666667, "bike_id": "814aa2bbc1a887c1163998e63718008c", "fusion_lat": 0.0, "name": "814aa2bbc1a887c1163998e63718008c", "is_reserved": 0, "rental_uris": {"android": "https://dc.lft.to/lastmile_qr_scan", "ios": "https://dc.lft.to/lastmile_qr_scan"}, "fusion_lon": 0.0}, {"lat": 38.9047435, "is_disabled": 0, "type": "electric_scooter", "lon": -77.00778016666666, "bike_id": "11583ed2efb9a845fa69128f19071593", "fusion_lat": 0.0, "name": "11583ed2efb9a845fa69128f19071593", "is_reserved": 0, "rental_uris": {"android": "https://dc.lft.to/lastmile_qr_scan", "ios": "https://dc.lft.to/lastmile_qr_scan"}, "fusion_lon": 0.0}, {"lat": 38.90156133333333, "is_disabled": 0, "type": "electric_scooter", "lon": -77.04161566666667, "bike_id": "b265df1d15bf1d21736cb89f7706ad46", "fusion_lat": 0.0, "name": "b265df1d15bf1d21736cb89f7706ad46", "is_reserved": 0, "rental_uris": {"android": "https://dc.lft.to/lastmile_qr_scan", "ios": "https://dc.lft.to/lastmile_qr_scan"}, "fusion_lon": 0.0}, {"lat": 38.906933333333335, "is_disabled": 0, "type": "electric_scooter", "lon": -77.06359833333333, "bike_id": "9873d4ab00833cf548e20bcf9e7ead2d", "fusion_lat": 0.0, "name": "9873d4ab00833cf548e20bcf9e7ead2d", "is_reserved": 0, "rental_uris": {"android": "https://dc.lft.to/lastmile_qr_scan", "ios": "https://dc.lft.to/lastmile_qr_scan"}, "fusion_lon": 0.0}, {"lat": 38.8639135, "is_disabled": 0, "type": "electric_bike", "lon": -76.9899085, "bike_id": "e4683b2a16ff56d37dfad8944485b37a", "fusion_lat": 0.0, "name": "e4683b2a16ff56d37dfad8944485b37a", "is_reserved": 0, "rental_uris": {"android": "https://dc.lft.to/lastmile_qr_scan", "ios": "https://dc.lft.to/lastmile_qr_scan"}, "fusion_lon": 0.0}, {"lat": 38.8899985, "is_disabled": 0, "type": "electric_scooter", "lon": -77.04895833333333, "bike_id": "8f22429dfc536f62cad5a2c696de45ec", "fusion_lat": 0.0, "name": "8f22429dfc536f62cad5a2c696de45ec", "is_reserved": 0, "rental_uris": {"android": "https://dc.lft.to/lastmile_qr_scan", "ios": "https://dc.lft.to/lastmile_qr_scan"}, "fusion_lon": 0.0}, {"lat": 38.93082533333333, "is_disabled": 0, "type": "electric_scooter", "lon": -77.02790233333333, "bike_id": "1ac507cc8d612334523247df643b062d", "fusion_lat": 0.0, "name": "1ac507cc8d612334523247df643b062d", "is_reserved": 0, "rental_uris": {"android": "https://dc.lft.to/lastmile_qr_scan", "ios": "https://dc.lft.to/lastmile_qr_scan"}, "fusion_lon": 0.0}, {"lat": 38.9519835, "is_disabled": 0, "type": "electric_bike", "lon": -76.96721516666666, "bike_id": "16553c534f983e833c9f1d607d93554b", "fusion_lat": 0.0, "name": "16553c534f983e833c9f1d607d93554b", "is_reserved": 0, "rental_uris": {"android": "https://dc.lft.to/lastmile_qr_scan", "ios": "https://dc.lft.to/lastmile_qr_scan"}, "fusion_lon": 0.0}, {"lat": 38.92794683333334, "is_disabled": 0, "type": "electric_scooter", "lon": -77.05523533333333, "bike_id": "7dbffeae607bee407f9c8e1561ed4171", "fusion_lat": 0.0, "name": "7dbffeae607bee407f9c8e1561ed4171", "is_reserved": 0, "rental_uris": {"android": "https://dc.lft.to/lastmile_qr_scan", "ios": "https://dc.lft.to/lastmile_qr_scan"}, "fusion_lon": 0.0}, {"lat": 38.901039833333336, "is_disabled": 0, "type": "electric_scooter", "lon": -76.98482916666667, "bike_id": "3ba9131cfe75c5b596e163e5af1f4dc8", "fusion_lat": 0.0, "name": "3ba9131cfe75c5b596e163e5af1f4dc8", "is_reserved": 0, "rental_uris": {"android": "https://dc.lft.to/lastmile_qr_scan", "ios": "https://dc.lft.to/lastmile_qr_scan"}, "fusion_lon": 0.0}, {"lat": 38.933183666666665, "is_disabled": 0, "type": "electric_scooter", "lon": -77.03286466666667, "bike_id": "aee44b4030ba2fe453d558340bd13fdf", "fusion_lat": 0.0, "name": "aee44b4030ba2fe453d558340bd13fdf", "is_reserved": 0, "rental_uris": {"android": "https://dc.lft.to/lastmile_qr_scan", "ios": "https://dc.lft.to/lastmile_qr_scan"}, "fusion_lon": 0.0}, {"lat": 38.903622666666664, "is_disabled": 0, "type": "electric_scooter", "lon": -77.01093566666667, "bike_id": "33c48f95be18ff3111b1e45541acdd54", "fusion_lat": 0.0, "name": "33c48f95be18ff3111b1e45541acdd54", "is_reserved": 0, "rental_uris": {"android": "https://dc.lft.to/lastmile_qr_scan", "ios": "https://dc.lft.to/lastmile_qr_scan"}, "fusion_lon": 0.0}, {"lat": 39.00008066666667, "is_disabled": 0, "type": "electric_bike", "lon": -76.91078066666667, "bike_id": "1c8b225025980fec610ea13aa9f09946", "fusion_lat": 0.0, "name": "1c8b225025980fec610ea13aa9f09946", "is_reserved": 0, "rental_uris": {"android": "https://dc.lft.to/lastmile_qr_scan", "ios": "https://dc.lft.to/lastmile_qr_scan"}, "fusion_lon": 0.0}, {"lat": 38.8533085, "is_disabled": 0, "type": "electric_bike", "lon": -76.9800075, "bike_id": "0ff9072480ac5217978d9e2c1219158d", "fusion_lat": 0.0, "name": "0ff9072480ac5217978d9e2c1219158d", "is_reserved": 0, "rental_uris": {"android": "https://dc.lft.to/lastmile_qr_scan", "ios": "https://dc.lft.to/lastmile_qr_scan"}, "fusion_lon": 0.0}, {"lat": 38.9171, "is_disabled": 0, "type": "electric_scooter", "lon": -77.04023966666666, "bike_id": "dd446557c404d73126e81ef97ee5dbd8", "fusion_lat": 0.0, "name": "dd446557c404d73126e81ef97ee5dbd8", "is_reserved": 0, "rental_uris": {"android": "https://dc.lft.to/lastmile_qr_scan", "ios": "https://dc.lft.to/lastmile_qr_scan"}, "fusion_lon": 0.0}, {"lat": 38.88373583333333, "is_disabled": 0, "type": "electric_scooter", "lon": -77.02456133333334, "bike_id": "ed85220ff0757f7bdadb20f067c51a4d", "fusion_lat": 0.0, "name": "ed85220ff0757f7bdadb20f067c51a4d", "is_reserved": 0, "rental_uris": {"android": "https://dc.lft.to/lastmile_qr_scan", "ios": "https://dc.lft.to/lastmile_qr_scan"}, "fusion_lon": 0.0}, {"lat": 38.92321866666666, "is_disabled": 0, "type": "electric_scooter", "lon": -77.04365933333334, "bike_id": "fcdb8dbce752e4bf5f959354be9009b6", "fusion_lat": 0.0, "name": "fcdb8dbce752e4bf5f959354be9009b6", "is_reserved": 0, "rental_uris": {"android": "https://dc.lft.to/lastmile_qr_scan", "ios": "https://dc.lft.to/lastmile_qr_scan"}, "fusion_lon": 0.0}, {"lat": 38.91553916666667, "is_disabled": 0, "type": "electric_scooter", "lon": -77.04171216666667, "bike_id": "99e3229c83e725acd87b9f4a003834a8", "fusion_lat": 0.0, "name": "99e3229c83e725acd87b9f4a003834a8", "is_reserved": 0, "rental_uris": {"android": "https://dc.lft.to/lastmile_qr_scan", "ios": "https://dc.lft.to/lastmile_qr_scan"}, "fusion_lon": 0.0}, {"lat": 38.916023, "is_disabled": 0, "type": "electric_scooter", "lon": -77.02693666666667, "bike_id": "a21ccfd327dc7735b87cfe29d505020e", "fusion_lat": 0.0, "name": "a21ccfd327dc7735b87cfe29d505020e", "is_reserved": 0, "rental_uris": {"android": "https://dc.lft.to/lastmile_qr_scan", "ios": "https://dc.lft.to/lastmile_qr_scan"}, "fusion_lon": 0.0}, {"lat": 38.882668833333334, "is_disabled": 0, "type": "electric_scooter", "lon": -76.9882395, "bike_id": "0f40e6a910c6d7f0fa29a757c0a3bfa7", "fusion_lat": 0.0, "name": "0f40e6a910c6d7f0fa29a757c0a3bfa7", "is_reserved": 0, "rental_uris": {"android": "https://dc.lft.to/lastmile_qr_scan", "ios": "https://dc.lft.to/lastmile_qr_scan"}, "fusion_lon": 0.0}, {"lat": 38.910675499999996, "is_disabled": 0, "type": "electric_scooter", "lon": -77.0291525, "bike_id": "a7e96090005dc4bed5b874bd2ed97a07", "fusion_lat": 0.0, "name": "a7e96090005dc4bed5b874bd2ed97a07", "is_reserved": 0, "rental_uris": {"android": "https://dc.lft.to/lastmile_qr_scan", "ios": "https://dc.lft.to/lastmile_qr_scan"}, "fusion_lon": 0.0}, {"lat": 38.929863, "is_disabled": 0, "type": "electric_scooter", "lon": -77.0382685, "bike_id": "5d254f9465a0d27aab74d3e6fba309d2", "fusion_lat": 0.0, "name": "5d254f9465a0d27aab74d3e6fba309d2", "is_reserved": 0, "rental_uris": {"android": "https://dc.lft.to/lastmile_qr_scan", "ios": "https://dc.lft.to/lastmile_qr_scan"}, "fusion_lon": 0.0}, {"lat": 38.933310166666665, "is_disabled": 0, "type": "electric_scooter", "lon": -77.0570025, "bike_id": "12bb259d73a259f1f751962599418d74", "fusion_lat": 0.0, "name": "12bb259d73a259f1f751962599418d74", "is_reserved": 0, "rental_uris": {"android": "https://dc.lft.to/lastmile_qr_scan", "ios": "https://dc.lft.to/lastmile_qr_scan"}, "fusion_lon": 0.0}, {"lat": 38.903742666666666, "is_disabled": 0, "type": "electric_scooter", "lon": -77.0412455, "bike_id": "545a9e1e3ccb3277f46dfbacfbd373c6", "fusion_lat": 0.0, "name": "545a9e1e3ccb3277f46dfbacfbd373c6", "is_reserved": 0, "rental_uris": {"android": "https://dc.lft.to/lastmile_qr_scan", "ios": "https://dc.lft.to/lastmile_qr_scan"}, "fusion_lon": 0.0}, {"lat": 38.905052166666664, "is_disabled": 0, "type": "electric_scooter", "lon": -77.0449685, "bike_id": "1bb95ac611eedb5285d7dd00293ec134", "fusion_lat": 0.0, "name": "1bb95ac611eedb5285d7dd00293ec134", "is_reserved": 0, "rental_uris": {"android": "https://dc.lft.to/lastmile_qr_scan", "ios": "https://dc.lft.to/lastmile_qr_scan"}, "fusion_lon": 0.0}, {"lat": 38.85650283333333, "is_disabled": 0, "type": "electric_bike", "lon": -77.11248033333334, "bike_id": "e86d9caf42033f58295e42c8d70c00de", "fusion_lat": 0.0, "name": "e86d9caf42033f58295e42c8d70c00de", "is_reserved": 0, "rental_uris": {"android": "https://dc.lft.to/lastmile_qr_scan", "ios": "https://dc.lft.to/lastmile_qr_scan"}, "fusion_lon": 0.0}, {"lat": 38.911748, "is_disabled": 0, "type": "electric_scooter", "lon": -77.03860416666667, "bike_id": "e4e59055890d5373b39845f1397a97ca", "fusion_lat": 0.0, "name": "e4e59055890d5373b39845f1397a97ca", "is_reserved": 0, "rental_uris": {"android": "https://dc.lft.to/lastmile_qr_scan", "ios": "https://dc.lft.to/lastmile_qr_scan"}, "fusion_lon": 0.0}, {"lat": 38.90240166666667, "is_disabled": 0, "type": "electric_scooter", "lon": -77.05334266666667, "bike_id": "eebcb8d0ac49b0ea38b9f3687ba37099", "fusion_lat": 0.0, "name": "eebcb8d0ac49b0ea38b9f3687ba37099", "is_reserved": 0, "rental_uris": {"android": "https://dc.lft.to/lastmile_qr_scan", "ios": "https://dc.lft.to/lastmile_qr_scan"}, "fusion_lon": 0.0}, {"lat": 38.89819716666667, "is_disabled": 0, "type": "electric_scooter", "lon": -77.03138316666667, "bike_id": "3d4c53d11ef7b644c401883866bfdb9f", "fusion_lat": 0.0, "name": "3d4c53d11ef7b644c401883866bfdb9f", "is_reserved": 0, "rental_uris": {"android": "https://dc.lft.to/lastmile_qr_scan", "ios": "https://dc.lft.to/lastmile_qr_scan"}, "fusion_lon": 0.0}, {"lat": 38.86984016666667, "is_disabled": 0, "type": "electric_bike", "lon": -76.95987766666667, "bike_id": "4cfa5e50d7c06237e7fda3c46c0902fb", "fusion_lat": 0.0, "name": "4cfa5e50d7c06237e7fda3c46c0902fb", "is_reserved": 0, "rental_uris": {"android": "https://dc.lft.to/lastmile_qr_scan", "ios": "https://dc.lft.to/lastmile_qr_scan"}, "fusion_lon": 0.0}, {"lat": 38.90796016666667, "is_disabled": 0, "type": "electric_scooter", "lon": -77.03675683333333, "bike_id": "3d569ec66bace89f11c72613f2d1289a", "fusion_lat": 0.0, "name": "3d569ec66bace89f11c72613f2d1289a", "is_reserved": 0, "rental_uris": {"android": "https://dc.lft.to/lastmile_qr_scan", "ios": "https://dc.lft.to/lastmile_qr_scan"}, "fusion_lon": 0.0}, {"lat": 38.90964833333334, "is_disabled": 0, "type": "electric_bike", "lon": -77.03565266666666, "bike_id": "cbbda445fef0aea949e4eff5a2282b12", "fusion_lat": 0.0, "name": "cbbda445fef0aea949e4eff5a2282b12", "is_reserved": 0, "rental_uris": {"android": "https://dc.lft.to/lastmile_qr_scan", "ios": "https://dc.lft.to/lastmile_qr_scan"}, "fusion_lon": 0.0}, {"lat": 38.931036666666664, "is_disabled": 0, "type": "electric_scooter", "lon": -77.02456733333334, "bike_id": "717409ac23851dc9d2283043d91ee685", "fusion_lat": 0.0, "name": "717409ac23851dc9d2283043d91ee685", "is_reserved": 0, "rental_uris": {"android": "https://dc.lft.to/lastmile_qr_scan", "ios": "https://dc.lft.to/lastmile_qr_scan"}, "fusion_lon": 0.0}, {"lat": 38.922994833333334, "is_disabled": 0, "type": "electric_scooter", "lon": -77.03656283333333, "bike_id": "6a4c236404807697effa142faa111bd5", "fusion_lat": 0.0, "name": "6a4c236404807697effa142faa111bd5", "is_reserved": 0, "rental_uris": {"android": "https://dc.lft.to/lastmile_qr_scan", "ios": "https://dc.lft.to/lastmile_qr_scan"}, "fusion_lon": 0.0}, {"lat": 38.895129, "is_disabled": 0, "type": "electric_scooter", "lon": -77.01133133333333, "bike_id": "ef9373b6c52aac1fc911be4502c3665e", "fusion_lat": 0.0, "name": "ef9373b6c52aac1fc911be4502c3665e", "is_reserved": 0, "rental_uris": {"android": "https://dc.lft.to/lastmile_qr_scan", "ios": "https://dc.lft.to/lastmile_qr_scan"}, "fusion_lon": 0.0}, {"lat": 38.973118, "is_disabled": 0, "type": "electric_scooter", "lon": -77.027056, "bike_id": "9e9f0ff1c568c187f0c6ba98c6ba99b7", "fusion_lat": 0.0, "name": "9e9f0ff1c568c187f0c6ba98c6ba99b7", "is_reserved": 0, "rental_uris": {"android": "https://dc.lft.to/lastmile_qr_scan", "ios": "https://dc.lft.to/lastmile_qr_scan"}, "fusion_lon": 0.0}, {"lat": 38.98500966666667, "is_disabled": 0, "type": "electric_bike", "lon": -76.98197216666667, "bike_id": "8c9c631a63c1808501f0532db1b0b19a", "fusion_lat": 0.0, "name": "8c9c631a63c1808501f0532db1b0b19a", "is_reserved": 0, "rental_uris": {"android": "https://dc.lft.to/lastmile_qr_scan", "ios": "https://dc.lft.to/lastmile_qr_scan"}, "fusion_lon": 0.0}, {"lat": 38.898497, "is_disabled": 0, "type": "electric_scooter", "lon": -77.039578, "bike_id": "1e2350a156b9f57c6756468cb1171db8", "fusion_lat": 0.0, "name": "1e2350a156b9f57c6756468cb1171db8", "is_reserved": 0, "rental_uris": {"android": "https://dc.lft.to/lastmile_qr_scan", "ios": "https://dc.lft.to/lastmile_qr_scan"}, "fusion_lon": 0.0}, {"lat": 38.938829, "is_disabled": 0, "type": "electric_scooter", "lon": -77.03283283333333, "bike_id": "d31943dcc62e609b468633c8ad80a156", "fusion_lat": 0.0, "name": "d31943dcc62e609b468633c8ad80a156", "is_reserved": 0, "rental_uris": {"android": "https://dc.lft.to/lastmile_qr_scan", "ios": "https://dc.lft.to/lastmile_qr_scan"}, "fusion_lon": 0.0}, {"lat": 38.82268066666666, "is_disabled": 0, "type": "electric_bike", "lon": -77.0581275, "bike_id": "36a3dcb5541ef712f07a581757486505", "fusion_lat": 0.0, "name": "36a3dcb5541ef712f07a581757486505", "is_reserved": 0, "rental_uris": {"android": "https://dc.lft.to/lastmile_qr_scan", "ios": "https://dc.lft.to/lastmile_qr_scan"}, "fusion_lon": 0.0}, {"lat": 38.858971833333335, "is_disabled": 0, "type": "electric_scooter", "lon": -76.99433866666666, "bike_id": "0b0a76e5aee1f1cd6386111c61010b2a", "fusion_lat": 0.0, "name": "0b0a76e5aee1f1cd6386111c61010b2a", "is_reserved": 0, "rental_uris": {"android": "https://dc.lft.to/lastmile_qr_scan", "ios": "https://dc.lft.to/lastmile_qr_scan"}, "fusion_lon": 0.0}, {"lat": 38.908356833333336, "is_disabled": 0, "type": "electric_scooter", "lon": -76.99694116666667, "bike_id": "1380eedea1926c1f40169f64fd90f983", "fusion_lat": 0.0, "name": "1380eedea1926c1f40169f64fd90f983", "is_reserved": 0, "rental_uris": {"android": "https://dc.lft.to/lastmile_qr_scan", "ios": "https://dc.lft.to/lastmile_qr_scan"}, "fusion_lon": 0.0}, {"lat": 38.8997505, "is_disabled": 0, "type": "electric_scooter", "lon": -77.02104266666667, "bike_id": "923008f52f36088b0602690b13b7ba1f", "fusion_lat": 0.0, "name": "923008f52f36088b0602690b13b7ba1f", "is_reserved": 0, "rental_uris": {"android": "https://dc.lft.to/lastmile_qr_scan", "ios": "https://dc.lft.to/lastmile_qr_scan"}, "fusion_lon": 0.0}, {"lat": 38.901602833333335, "is_disabled": 0, "type": "electric_scooter", "lon": -77.048285, "bike_id": "9213b2ef1133310d7f453546779e1f50", "fusion_lat": 0.0, "name": "9213b2ef1133310d7f453546779e1f50", "is_reserved": 0, "rental_uris": {"android": "https://dc.lft.to/lastmile_qr_scan", "ios": "https://dc.lft.to/lastmile_qr_scan"}, "fusion_lon": 0.0}, {"lat": 38.8923305, "is_disabled": 0, "type": "electric_scooter", "lon": -77.049956, "bike_id": "cf10a9e1f0a1ca0c5b591333ef6d397e", "fusion_lat": 0.0, "name": "cf10a9e1f0a1ca0c5b591333ef6d397e", "is_reserved": 0, "rental_uris": {"android": "https://dc.lft.to/lastmile_qr_scan", "ios": "https://dc.lft.to/lastmile_qr_scan"}, "fusion_lon": 0.0}, {"lat": 38.865267333333335, "is_disabled": 0, "type": "electric_scooter", "lon": -76.99032666666666, "bike_id": "9546562f08c7c038c8e751b34110461f", "fusion_lat": 0.0, "name": "9546562f08c7c038c8e751b34110461f", "is_reserved": 0, "rental_uris": {"android": "https://dc.lft.to/lastmile_qr_scan", "ios": "https://dc.lft.to/lastmile_qr_scan"}, "fusion_lon": 0.0}, {"lat": 38.94181366666667, "is_disabled": 0, "type": "electric_scooter", "lon": -77.03650816666666, "bike_id": "516b2ba559615517786cc6ec4fd176bd", "fusion_lat": 0.0, "name": "516b2ba559615517786cc6ec4fd176bd", "is_reserved": 0, "rental_uris": {"android": "https://dc.lft.to/lastmile_qr_scan", "ios": "https://dc.lft.to/lastmile_qr_scan"}, "fusion_lon": 0.0}, {"lat": 38.8706675, "is_disabled": 0, "type": "electric_scooter", "lon": -77.008382, "bike_id": "aa7be42cfc8519f46fff764f2c16c1d1", "fusion_lat": 0.0, "name": "aa7be42cfc8519f46fff764f2c16c1d1", "is_reserved": 0, "rental_uris": {"android": "https://dc.lft.to/lastmile_qr_scan", "ios": "https://dc.lft.to/lastmile_qr_scan"}, "fusion_lon": 0.0}, {"lat": 38.89624583333333, "is_disabled": 0, "type": "electric_scooter", "lon": -77.03211283333333, "bike_id": "d106a9432b28a9001a296bb35207bbcb", "fusion_lat": 0.0, "name": "d106a9432b28a9001a296bb35207bbcb", "is_reserved": 0, "rental_uris": {"android": "https://dc.lft.to/lastmile_qr_scan", "ios": "https://dc.lft.to/lastmile_qr_scan"}, "fusion_lon": 0.0}, {"lat": 38.862142166666665, "is_disabled": 0, "type": "electric_bike", "lon": -76.9977825, "bike_id": "fa3ac8c157f82f31e208f16e30a7fc6b", "fusion_lat": 0.0, "name": "fa3ac8c157f82f31e208f16e30a7fc6b", "is_reserved": 0, "rental_uris": {"android": "https://dc.lft.to/lastmile_qr_scan", "ios": "https://dc.lft.to/lastmile_qr_scan"}, "fusion_lon": 0.0}, {"lat": 38.90612616666667, "is_disabled": 0, "type": "electric_scooter", "lon": -77.05856733333333, "bike_id": "ec190c3135f10dbf9102cc7cc1004c84", "fusion_lat": 0.0, "name": "ec190c3135f10dbf9102cc7cc1004c84", "is_reserved": 0, "rental_uris": {"android": "https://dc.lft.to/lastmile_qr_scan", "ios": "https://dc.lft.to/lastmile_qr_scan"}, "fusion_lon": 0.0}, {"lat": 38.895345166666665, "is_disabled": 0, "type": "electric_scooter", "lon": -77.01118583333333, "bike_id": "1ae7aa28bdc469c54cf4fc609d52507a", "fusion_lat": 0.0, "name": "1ae7aa28bdc469c54cf4fc609d52507a", "is_reserved": 0, "rental_uris": {"android": "https://dc.lft.to/lastmile_qr_scan", "ios": "https://dc.lft.to/lastmile_qr_scan"}, "fusion_lon": 0.0}, {"lat": 38.892026666666666, "is_disabled": 0, "type": "electric_bike", "lon": -76.970522, "bike_id": "3c393eba5964e8175692eac7bf73f26a", "fusion_lat": 0.0, "name": "3c393eba5964e8175692eac7bf73f26a", "is_reserved": 0, "rental_uris": {"android": "https://dc.lft.to/lastmile_qr_scan", "ios": "https://dc.lft.to/lastmile_qr_scan"}, "fusion_lon": 0.0}, {"lat": 38.884276666666665, "is_disabled": 0, "type": "electric_bike", "lon": -76.98084233333333, "bike_id": "1eefcf66c118c0bc78b76c1496161f5f", "fusion_lat": 0.0, "name": "1eefcf66c118c0bc78b76c1496161f5f", "is_reserved": 0, "rental_uris": {"android": "https://dc.lft.to/lastmile_qr_scan", "ios": "https://dc.lft.to/lastmile_qr_scan"}, "fusion_lon": 0.0}, {"lat": 38.90711666666667, "is_disabled": 0, "type": "electric_scooter", "lon": -77.04401783333333, "bike_id": "f3b1f50aa426a487d7d178c0e2048dc8", "fusion_lat": 0.0, "name": "f3b1f50aa426a487d7d178c0e2048dc8", "is_reserved": 0, "rental_uris": {"android": "https://dc.lft.to/lastmile_qr_scan", "ios": "https://dc.lft.to/lastmile_qr_scan"}, "fusion_lon": 0.0}, {"lat": 38.903071833333335, "is_disabled": 0, "type": "electric_scooter", "lon": -77.0332145, "bike_id": "e8ff2a76a90182908ebdc2da6025b22f", "fusion_lat": 0.0, "name": "e8ff2a76a90182908ebdc2da6025b22f", "is_reserved": 0, "rental_uris": {"android": "https://dc.lft.to/lastmile_qr_scan", "ios": "https://dc.lft.to/lastmile_qr_scan"}, "fusion_lon": 0.0}, {"lat": 38.909043, "is_disabled": 0, "type": "electric_scooter", "lon": -77.0862185, "bike_id": "66e517786d4cba4a63e1731d4e0d0acb", "fusion_lat": 0.0, "name": "66e517786d4cba4a63e1731d4e0d0acb", "is_reserved": 0, "rental_uris": {"android": "https://dc.lft.to/lastmile_qr_scan", "ios": "https://dc.lft.to/lastmile_qr_scan"}, "fusion_lon": 0.0}, {"lat": 38.930145, "is_disabled": 0, "type": "electric_scooter", "lon": -76.9949645, "bike_id": "771f3f31d957c5af36d4e121eda6613f", "fusion_lat": 0.0, "name": "771f3f31d957c5af36d4e121eda6613f", "is_reserved": 0, "rental_uris": {"android": "https://dc.lft.to/lastmile_qr_scan", "ios": "https://dc.lft.to/lastmile_qr_scan"}, "fusion_lon": 0.0}, {"lat": 38.91862966666667, "is_disabled": 0, "type": "electric_scooter", "lon": -77.07424483333334, "bike_id": "02e1e4de085977fd3c2c4cfd226a1daf", "fusion_lat": 0.0, "name": "02e1e4de085977fd3c2c4cfd226a1daf", "is_reserved": 0, "rental_uris": {"android": "https://dc.lft.to/lastmile_qr_scan", "ios": "https://dc.lft.to/lastmile_qr_scan"}, "fusion_lon": 0.0}, {"lat": 38.87922483333333, "is_disabled": 0, "type": "electric_scooter", "lon": -77.00712333333334, "bike_id": "29663f611fea49c5f4e8d3b123664b01", "fusion_lat": 0.0, "name": "29663f611fea49c5f4e8d3b123664b01", "is_reserved": 0, "rental_uris": {"android": "https://dc.lft.to/lastmile_qr_scan", "ios": "https://dc.lft.to/lastmile_qr_scan"}, "fusion_lon": 0.0}, {"lat": 38.91451466666667, "is_disabled": 0, "type": "electric_scooter", "lon": -77.038425, "bike_id": "096b1bae8ead9592e170c8a663b2c3b7", "fusion_lat": 0.0, "name": "096b1bae8ead9592e170c8a663b2c3b7", "is_reserved": 0, "rental_uris": {"android": "https://dc.lft.to/lastmile_qr_scan", "ios": "https://dc.lft.to/lastmile_qr_scan"}, "fusion_lon": 0.0}, {"lat": 38.929956833333335, "is_disabled": 0, "type": "electric_bike", "lon": -77.02311616666667, "bike_id": "9380eca82072e625b5aebc258b103ce1", "fusion_lat": 0.0, "name": "9380eca82072e625b5aebc258b103ce1", "is_reserved": 0, "rental_uris": {"android": "https://dc.lft.to/lastmile_qr_scan", "ios": "https://dc.lft.to/lastmile_qr_scan"}, "fusion_lon": 0.0}, {"lat": 38.934843666666666, "is_disabled": 0, "type": "electric_scooter", "lon": -77.03657433333333, "bike_id": "c83b85d18955a258c42c82298f3e7eb7", "fusion_lat": 0.0, "name": "c83b85d18955a258c42c82298f3e7eb7", "is_reserved": 0, "rental_uris": {"android": "https://dc.lft.to/lastmile_qr_scan", "ios": "https://dc.lft.to/lastmile_qr_scan"}, "fusion_lon": 0.0}, {"lat": 38.923685, "is_disabled": 0, "type": "electric_scooter", "lon": -77.0767615, "bike_id": "34f898685f3e98b667ed4f24e4d3ee15", "fusion_lat": 0.0, "name": "34f898685f3e98b667ed4f24e4d3ee15", "is_reserved": 0, "rental_uris": {"android": "https://dc.lft.to/lastmile_qr_scan", "ios": "https://dc.lft.to/lastmile_qr_scan"}, "fusion_lon": 0.0}, {"lat": 38.9296675, "is_disabled": 0, "type": "electric_scooter", "lon": -77.02812216666666, "bike_id": "27077b8d657f4c33d0e0220f3d009fb6", "fusion_lat": 0.0, "name": "27077b8d657f4c33d0e0220f3d009fb6", "is_reserved": 0, "rental_uris": {"android": "https://dc.lft.to/lastmile_qr_scan", "ios": "https://dc.lft.to/lastmile_qr_scan"}, "fusion_lon": 0.0}, {"lat": 38.892929, "is_disabled": 0, "type": "electric_bike", "lon": -77.0014155, "bike_id": "8b6642c7a9bfdab905afac9bd9c70bed", "fusion_lat": 0.0, "name": "8b6642c7a9bfdab905afac9bd9c70bed", "is_reserved": 0, "rental_uris": {"android": "https://dc.lft.to/lastmile_qr_scan", "ios": "https://dc.lft.to/lastmile_qr_scan"}, "fusion_lon": 0.0}, {"lat": 38.907555333333335, "is_disabled": 0, "type": "electric_scooter", "lon": -77.00098966666667, "bike_id": "fb6a53554959fa5cff65ae41226d9be1", "fusion_lat": 0.0, "name": "fb6a53554959fa5cff65ae41226d9be1", "is_reserved": 0, "rental_uris": {"android": "https://dc.lft.to/lastmile_qr_scan", "ios": "https://dc.lft.to/lastmile_qr_scan"}, "fusion_lon": 0.0}, {"lat": 38.89226016666667, "is_disabled": 0, "type": "electric_scooter", "lon": -76.93294416666667, "bike_id": "a539855e0b1f6c16a1fec45d4ca14f48", "fusion_lat": 0.0, "name": "a539855e0b1f6c16a1fec45d4ca14f48", "is_reserved": 0, "rental_uris": {"android": "https://dc.lft.to/lastmile_qr_scan", "ios": "https://dc.lft.to/lastmile_qr_scan"}, "fusion_lon": 0.0}, {"lat": 38.908617, "is_disabled": 0, "type": "electric_scooter", "lon": -77.023987, "bike_id": "f25412b54622b02dd2e8026466746f4f", "fusion_lat": 0.0, "name": "f25412b54622b02dd2e8026466746f4f", "is_reserved": 0, "rental_uris": {"android": "https://dc.lft.to/lastmile_qr_scan", "ios": "https://dc.lft.to/lastmile_qr_scan"}, "fusion_lon": 0.0}, {"lat": 38.889733666666665, "is_disabled": 0, "type": "electric_scooter", "lon": -76.93735216666667, "bike_id": "ddbfeda8bfb5495c5be579aebdb014a6", "fusion_lat": 0.0, "name": "ddbfeda8bfb5495c5be579aebdb014a6", "is_reserved": 0, "rental_uris": {"android": "https://dc.lft.to/lastmile_qr_scan", "ios": "https://dc.lft.to/lastmile_qr_scan"}, "fusion_lon": 0.0}, {"lat": 38.874650833333334, "is_disabled": 0, "type": "electric_scooter", "lon": -77.004903, "bike_id": "fe3e5c3d1add7144cb3d97cee8bc90a9", "fusion_lat": 0.0, "name": "fe3e5c3d1add7144cb3d97cee8bc90a9", "is_reserved": 0, "rental_uris": {"android": "https://dc.lft.to/lastmile_qr_scan", "ios": "https://dc.lft.to/lastmile_qr_scan"}, "fusion_lon": 0.0}, {"lat": 38.884343666666666, "is_disabled": 0, "type": "electric_scooter", "lon": -76.95752016666667, "bike_id": "b476e5dd39e83fac24a80086c148b349", "fusion_lat": 0.0, "name": "b476e5dd39e83fac24a80086c148b349", "is_reserved": 0, "rental_uris": {"android": "https://dc.lft.to/lastmile_qr_scan", "ios": "https://dc.lft.to/lastmile_qr_scan"}, "fusion_lon": 0.0}, {"lat": 38.89994983333333, "is_disabled": 0, "type": "electric_scooter", "lon": -77.0549435, "bike_id": "b9c5b582f610b7efd52499f1a434bb99", "fusion_lat": 0.0, "name": "b9c5b582f610b7efd52499f1a434bb99", "is_reserved": 0, "rental_uris": {"android": "https://dc.lft.to/lastmile_qr_scan", "ios": "https://dc.lft.to/lastmile_qr_scan"}, "fusion_lon": 0.0}, {"lat": 38.964998333333334, "is_disabled": 0, "type": "electric_bike", "lon": -77.06488816666666, "bike_id": "d09b850af0385ada0f45e274b03217ee", "fusion_lat": 0.0, "name": "d09b850af0385ada0f45e274b03217ee", "is_reserved": 0, "rental_uris": {"android": "https://dc.lft.to/lastmile_qr_scan", "ios": "https://dc.lft.to/lastmile_qr_scan"}, "fusion_lon": 0.0}, {"lat": 38.904103166666665, "is_disabled": 0, "type": "electric_scooter", "lon": -77.04396516666667, "bike_id": "ca76d7550ca17cf22c4ad4a6f5d0e7ab", "fusion_lat": 0.0, "name": "ca76d7550ca17cf22c4ad4a6f5d0e7ab", "is_reserved": 0, "rental_uris": {"android": "https://dc.lft.to/lastmile_qr_scan", "ios": "https://dc.lft.to/lastmile_qr_scan"}, "fusion_lon": 0.0}, {"lat": 38.907392, "is_disabled": 0, "type": "electric_scooter", "lon": -77.02531166666667, "bike_id": "486df129a775467a1349ba4a8b216d70", "fusion_lat": 0.0, "name": "486df129a775467a1349ba4a8b216d70", "is_reserved": 0, "rental_uris": {"android": "https://dc.lft.to/lastmile_qr_scan", "ios": "https://dc.lft.to/lastmile_qr_scan"}, "fusion_lon": 0.0}, {"lat": 38.866639666666664, "is_disabled": 0, "type": "electric_scooter", "lon": -76.98899733333333, "bike_id": "174fb9e283c2bb7e4a30fb8c06706933", "fusion_lat": 0.0, "name": "174fb9e283c2bb7e4a30fb8c06706933", "is_reserved": 0, "rental_uris": {"android": "https://dc.lft.to/lastmile_qr_scan", "ios": "https://dc.lft.to/lastmile_qr_scan"}, "fusion_lon": 0.0}, {"lat": 38.9322145, "is_disabled": 0, "type": "electric_scooter", "lon": -77.0272985, "bike_id": "129709c041e27387d32876b9d5bfac95", "fusion_lat": 0.0, "name": "129709c041e27387d32876b9d5bfac95", "is_reserved": 0, "rental_uris": {"android": "https://dc.lft.to/lastmile_qr_scan", "ios": "https://dc.lft.to/lastmile_qr_scan"}, "fusion_lon": 0.0}, {"lat": 38.8662, "is_disabled": 0, "type": "electric_bike", "lon": -76.9457115, "bike_id": "def936733f177eb347958195ec88960d", "fusion_lat": 0.0, "name": "def936733f177eb347958195ec88960d", "is_reserved": 0, "rental_uris": {"android": "https://dc.lft.to/lastmile_qr_scan", "ios": "https://dc.lft.to/lastmile_qr_scan"}, "fusion_lon": 0.0}, {"lat": 38.89882816666667, "is_disabled": 0, "type": "electric_scooter", "lon": -77.02300316666667, "bike_id": "d7d74680e7a587c5c51c5d3a0e6bbae1", "fusion_lat": 0.0, "name": "d7d74680e7a587c5c51c5d3a0e6bbae1", "is_reserved": 0, "rental_uris": {"android": "https://dc.lft.to/lastmile_qr_scan", "ios": "https://dc.lft.to/lastmile_qr_scan"}, "fusion_lon": 0.0}, {"lat": 38.91228783333333, "is_disabled": 0, "type": "electric_scooter", "lon": -77.004522, "bike_id": "553b594aacf2e08748bfb2eb7f4b7a8a", "fusion_lat": 0.0, "name": "553b594aacf2e08748bfb2eb7f4b7a8a", "is_reserved": 0, "rental_uris": {"android": "https://dc.lft.to/lastmile_qr_scan", "ios": "https://dc.lft.to/lastmile_qr_scan"}, "fusion_lon": 0.0}, {"lat": 38.88517233333334, "is_disabled": 0, "type": "electric_scooter", "lon": -77.02100933333334, "bike_id": "262944b8f51d0dff46a96222e732333a", "fusion_lat": 0.0, "name": "262944b8f51d0dff46a96222e732333a", "is_reserved": 0, "rental_uris": {"android": "https://dc.lft.to/lastmile_qr_scan", "ios": "https://dc.lft.to/lastmile_qr_scan"}, "fusion_lon": 0.0}, {"lat": 38.802314333333335, "is_disabled": 0, "type": "electric_bike", "lon": -77.07917, "bike_id": "effaf615540f82e637429fe411589ff2", "fusion_lat": 0.0, "name": "effaf615540f82e637429fe411589ff2", "is_reserved": 0, "rental_uris": {"android": "https://dc.lft.to/lastmile_qr_scan", "ios": "https://dc.lft.to/lastmile_qr_scan"}, "fusion_lon": 0.0}, {"lat": 38.857934166666666, "is_disabled": 0, "type": "electric_bike", "lon": -76.98743066666667, "bike_id": "95acd3e54a9b11ca58fd3062717843d7", "fusion_lat": 0.0, "name": "95acd3e54a9b11ca58fd3062717843d7", "is_reserved": 0, "rental_uris": {"android": "https://dc.lft.to/lastmile_qr_scan", "ios": "https://dc.lft.to/lastmile_qr_scan"}, "fusion_lon": 0.0}, {"lat": 38.9112435, "is_disabled": 0, "type": "electric_scooter", "lon": -77.03827716666666, "bike_id": "b8fc8f4ce2eafc929dc51e298639e3d8", "fusion_lat": 0.0, "name": "b8fc8f4ce2eafc929dc51e298639e3d8", "is_reserved": 0, "rental_uris": {"android": "https://dc.lft.to/lastmile_qr_scan", "ios": "https://dc.lft.to/lastmile_qr_scan"}, "fusion_lon": 0.0}, {"lat": 38.89297283333333, "is_disabled": 0, "type": "electric_scooter", "lon": -77.00202233333333, "bike_id": "ac5e0d0653c20d0f816d078e17074a59", "fusion_lat": 0.0, "name": "ac5e0d0653c20d0f816d078e17074a59", "is_reserved": 0, "rental_uris": {"android": "https://dc.lft.to/lastmile_qr_scan", "ios": "https://dc.lft.to/lastmile_qr_scan"}, "fusion_lon": 0.0}, {"lat": 38.91762816666667, "is_disabled": 0, "type": "electric_scooter", "lon": -77.02405633333333, "bike_id": "97a841c80c169f49418b289d583588bb", "fusion_lat": 0.0, "name": "97a841c80c169f49418b289d583588bb", "is_reserved": 0, "rental_uris": {"android": "https://dc.lft.to/lastmile_qr_scan", "ios": "https://dc.lft.to/lastmile_qr_scan"}, "fusion_lon": 0.0}, {"lat": 38.89822916666667, "is_disabled": 0, "type": "electric_scooter", "lon": -77.03303066666666, "bike_id": "c42bcdde2a6e9a1fd2a6422ba00a3346", "fusion_lat": 0.0, "name": "c42bcdde2a6e9a1fd2a6422ba00a3346", "is_reserved": 0, "rental_uris": {"android": "https://dc.lft.to/lastmile_qr_scan", "ios": "https://dc.lft.to/lastmile_qr_scan"}, "fusion_lon": 0.0}, {"lat": 38.9146875, "is_disabled": 0, "type": "electric_scooter", "lon": -77.032113, "bike_id": "302118d6f29b71af6714fc4435ee67fb", "fusion_lat": 0.0, "name": "302118d6f29b71af6714fc4435ee67fb", "is_reserved": 0, "rental_uris": {"android": "https://dc.lft.to/lastmile_qr_scan", "ios": "https://dc.lft.to/lastmile_qr_scan"}, "fusion_lon": 0.0}, {"lat": 38.917534, "is_disabled": 0, "type": "electric_scooter", "lon": -77.03988033333333, "bike_id": "3bab444735afe808a37d0c9af709d15e", "fusion_lat": 0.0, "name": "3bab444735afe808a37d0c9af709d15e", "is_reserved": 0, "rental_uris": {"android": "https://dc.lft.to/lastmile_qr_scan", "ios": "https://dc.lft.to/lastmile_qr_scan"}, "fusion_lon": 0.0}, {"lat": 38.93560266666667, "is_disabled": 0, "type": "electric_scooter", "lon": -77.05874883333334, "bike_id": "84503c92523b471decc27fc8af868e35", "fusion_lat": 0.0, "name": "84503c92523b471decc27fc8af868e35", "is_reserved": 0, "rental_uris": {"android": "https://dc.lft.to/lastmile_qr_scan", "ios": "https://dc.lft.to/lastmile_qr_scan"}, "fusion_lon": 0.0}, {"lat": 38.92203966666667, "is_disabled": 0, "type": "electric_scooter", "lon": -77.0425565, "bike_id": "96b264033840352b87ddf6e323eba924", "fusion_lat": 0.0, "name": "96b264033840352b87ddf6e323eba924", "is_reserved": 0, "rental_uris": {"android": "https://dc.lft.to/lastmile_qr_scan", "ios": "https://dc.lft.to/lastmile_qr_scan"}, "fusion_lon": 0.0}, {"lat": 38.922070166666664, "is_disabled": 0, "type": "electric_scooter", "lon": -77.04010933333333, "bike_id": "6931f7298eb37d7e0fc5351b144779ce", "fusion_lat": 0.0, "name": "6931f7298eb37d7e0fc5351b144779ce", "is_reserved": 0, "rental_uris": {"android": "https://dc.lft.to/lastmile_qr_scan", "ios": "https://dc.lft.to/lastmile_qr_scan"}, "fusion_lon": 0.0}, {"lat": 38.916611, "is_disabled": 0, "type": "electric_bike", "lon": -77.04722166666667, "bike_id": "ec75b013b760c947ad553cba99e33c70", "fusion_lat": 0.0, "name": "ec75b013b760c947ad553cba99e33c70", "is_reserved": 0, "rental_uris": {"android": "https://dc.lft.to/lastmile_qr_scan", "ios": "https://dc.lft.to/lastmile_qr_scan"}, "fusion_lon": 0.0}, {"lat": 38.896069833333335, "is_disabled": 0, "type": "electric_scooter", "lon": -77.01224816666667, "bike_id": "41f3001f855f24f6bf81ae355fa21c93", "fusion_lat": 0.0, "name": "41f3001f855f24f6bf81ae355fa21c93", "is_reserved": 0, "rental_uris": {"android": "https://dc.lft.to/lastmile_qr_scan", "ios": "https://dc.lft.to/lastmile_qr_scan"}, "fusion_lon": 0.0}, {"lat": 38.867163166666664, "is_disabled": 0, "type": "electric_scooter", "lon": -76.98724416666667, "bike_id": "d1c912456023640cdc5b7fded6b8578d", "fusion_lat": 0.0, "name": "d1c912456023640cdc5b7fded6b8578d", "is_reserved": 0, "rental_uris": {"android": "https://dc.lft.to/lastmile_qr_scan", "ios": "https://dc.lft.to/lastmile_qr_scan"}, "fusion_lon": 0.0}, {"lat": 38.90870683333333, "is_disabled": 0, "type": "electric_scooter", "lon": -77.046592, "bike_id": "b706e8b09ab2661546f9c1d44cb08f1c", "fusion_lat": 0.0, "name": "b706e8b09ab2661546f9c1d44cb08f1c", "is_reserved": 0, "rental_uris": {"android": "https://dc.lft.to/lastmile_qr_scan", "ios": "https://dc.lft.to/lastmile_qr_scan"}, "fusion_lon": 0.0}, {"lat": 38.9003995, "is_disabled": 0, "type": "electric_scooter", "lon": -76.99676216666667, "bike_id": "83ed8efe3aba997df6ab5f2ed9e4331b", "fusion_lat": 0.0, "name": "83ed8efe3aba997df6ab5f2ed9e4331b", "is_reserved": 0, "rental_uris": {"android": "https://dc.lft.to/lastmile_qr_scan", "ios": "https://dc.lft.to/lastmile_qr_scan"}, "fusion_lon": 0.0}, {"lat": 38.89503366666667, "is_disabled": 0, "type": "electric_scooter", "lon": -77.02191383333333, "bike_id": "804dee31f246c8c712d1fee7afa01ae0", "fusion_lat": 0.0, "name": "804dee31f246c8c712d1fee7afa01ae0", "is_reserved": 0, "rental_uris": {"android": "https://dc.lft.to/lastmile_qr_scan", "ios": "https://dc.lft.to/lastmile_qr_scan"}, "fusion_lon": 0.0}, {"lat": 38.889728833333336, "is_disabled": 0, "type": "electric_scooter", "lon": -76.97934616666667, "bike_id": "dd8c179df642610c840c0d900517887b", "fusion_lat": 0.0, "name": "dd8c179df642610c840c0d900517887b", "is_reserved": 0, "rental_uris": {"android": "https://dc.lft.to/lastmile_qr_scan", "ios": "https://dc.lft.to/lastmile_qr_scan"}, "fusion_lon": 0.0}, {"lat": 38.91742466666667, "is_disabled": 0, "type": "electric_scooter", "lon": -77.02115933333333, "bike_id": "df5d38e3c6acd9e3c013e9749bf63f6e", "fusion_lat": 0.0, "name": "df5d38e3c6acd9e3c013e9749bf63f6e", "is_reserved": 0, "rental_uris": {"android": "https://dc.lft.to/lastmile_qr_scan", "ios": "https://dc.lft.to/lastmile_qr_scan"}, "fusion_lon": 0.0}, {"lat": 38.86457383333333, "is_disabled": 0, "type": "electric_bike", "lon": -76.94547866666667, "bike_id": "e1d181fa9244d783b964a5d6c631d6a7", "fusion_lat": 0.0, "name": "e1d181fa9244d783b964a5d6c631d6a7", "is_reserved": 0, "rental_uris": {"android": "https://dc.lft.to/lastmile_qr_scan", "ios": "https://dc.lft.to/lastmile_qr_scan"}, "fusion_lon": 0.0}, {"lat": 38.87147233333334, "is_disabled": 0, "type": "electric_bike", "lon": -76.93701566666667, "bike_id": "4eb8cb8000c67d72ade447a73e12abfd", "fusion_lat": 0.0, "name": "4eb8cb8000c67d72ade447a73e12abfd", "is_reserved": 0, "rental_uris": {"android": "https://dc.lft.to/lastmile_qr_scan", "ios": "https://dc.lft.to/lastmile_qr_scan"}, "fusion_lon": 0.0}, {"lat": 38.909273, "is_disabled": 0, "type": "electric_scooter", "lon": -76.99904166666667, "bike_id": "1f644ee317a816a2b4860931437a617c", "fusion_lat": 0.0, "name": "1f644ee317a816a2b4860931437a617c", "is_reserved": 0, "rental_uris": {"android": "https://dc.lft.to/lastmile_qr_scan", "ios": "https://dc.lft.to/lastmile_qr_scan"}, "fusion_lon": 0.0},