{"data": {"bikes": [{"is_reserved": 0, "type": "electric_scooter", "fusion_lat": 0.0, "is_disabled": 0, "rental_uris": {"ios": "https://dc.lft.to/lastmile_qr_scan", "android": "https://dc.lft.to/lastmile_qr_scan"}, "bike_id": "7705f9c2603e2342afb8e521cc7dedca", "lat": 38.915008666666665, "name": "7705f9c2603e2342afb8e521cc7dedca", "lon": -77.03215666666667, "fusion_lon": 0.0}, {"is_reserved": 0, "type": "electric_bike", "fusion_lat": 0.0, "is_disabled": 0, "rental_uris": {"ios": "https://dc.lft.to/lastmile_qr_scan", "android": "https://dc.lft.to/lastmile_qr_scan"}, "bike_id": "bce4f4b708e511f8779b9279abf47f4d", "lat": 38.92567183333333, "name": "bce4f4b708e511f8779b9279abf47f4d", "lon": -77.04036183333334, "fusion_lon": 0.0}, {"is_reserved": 0, "type": "electric_scooter", "fusion_lat": 0.0, "is_disabled": 0, "rental_uris": {"ios": "https://dc.lft.to/lastmile_qr_scan", "android": "https://dc.lft.to/lastmile_qr_scan"}, "bike_id": "890a817c6693bcd6dac97273cb7809de", "lat": 38.909686666666666, "name": "890a817c6693bcd6dac97273cb7809de", "lon": -77.02209266666667, "fusion_lon": 0.0}, {"is_reserved": 0, "type": "electric_scooter", "fusion_lat": 0.0, "is_disabled": 0, "rental_uris": {"ios": "https://dc.lft.to/lastmile_qr_scan", "android": "https://dc.lft.to/lastmile_qr_scan"}, "bike_id": "7ed97f54e9eaa442c09ecccbc966a084", "lat": 38.91821766666666, "name": "7ed97f54e9eaa442c09ecccbc966a084", "lon": -77.02423983333334, "fusion_lon": 0.0}, {"is_reserved": 0, "type": "electric_scooter", "fusion_lat": 0.0, "is_disabled": 0, "rental_uris": {"ios": "https://dc.lft.to/lastmile_qr_scan", "android": "https://dc.lft.to/lastmile_qr_scan"}, "bike_id": "2c0b7eb2f74f8f713607b187a06d0eb6", "lat": 38.92752183333333, "name": "2c0b7eb2f74f8f713607b187a06d0eb6", "lon": -77.02625366666666, "fusion_lon": 0.0}, {"is_reserved": 0, "type": "electric_scooter", "fusion_lat": 0.0, "is_disabled": 0, "rental_uris": {"ios": "https://dc.lft.to/lastmile_qr_scan", "android": "https://dc.lft.to/lastmile_qr_scan"}, "bike_id": "b71bdc6104ca835c374d5266cb5ae607", "lat": 38.92319416666667, "name": "b71bdc6104ca835c374d5266cb5ae607", "lon": -77.01951483333333, "fusion_lon": 0.0}, {"is_reserved": 0, "type": "electric_scooter", "fusion_lat": 0.0, "is_disabled": 0, "rental_uris": {"ios": "https://dc.lft.to/lastmile_qr_scan", "android": "https://dc.lft.to/lastmile_qr_scan"}, "bike_id": "7046665d0b3aee1220151f07318c672b", "lat": 38.90252733333333, "name": "7046665d0b3aee1220151f07318c672b", "lon": -77.02788783333334, "fusion_lon": 0.0}, {"is_reserved": 0, "type": "electric_scooter", "fusion_lat": 0.0, "is_disabled": 0, "rental_uris": {"ios": "https://dc.lft.to/lastmile_qr_scan", "android": "https://dc.lft.to/lastmile_qr_scan"}, "bike_id": "483ff755dd45f5b97ee64e52ebee6ebf", "lat": 38.923147, "name": "483ff755dd45f5b97ee64e52ebee6ebf", "lon": -77.04512133333333, "fusion_lon": 0.0}, {"is_reserved": 0, "type": "electric_scooter", "fusion_lat": 0.0, "is_disabled": 0, "rental_uris": {"ios": "https://dc.lft.to/lastmile_qr_scan", "android": "https://dc.lft.to/lastmile_qr_scan"}, "bike_id": "577c179d8d10df1710054355c9937bf1", "lat": 38.918624333333334, "name": "577c179d8d10df1710054355c9937bf1", "lon": -77.025984, "fusion_lon": 0.0}, {"is_reserved": 0, "type": "electric_scooter", "fusion_lat": 0.0, "is_disabled": 0, "rental_uris": {"ios": "https://dc.lft.to/lastmile_qr_scan", "android": "https://dc.lft.to/lastmile_qr_scan"}, "bike_id": "83679b68ad591a39f7f0527dd67252c1", "lat": 38.92108783333333, "name": "83679b68ad591a39f7f0527dd67252c1", "lon": -77.03042933333333, "fusion_lon": 0.0}, {"is_reserved": 0, "type": "electric_scooter", "fusion_lat": 0.0, "is_disabled": 0, "rental_uris": {"ios": "https://dc.lft.to/lastmile_qr_scan", "android": "https://dc.lft.to/lastmile_qr_scan"}, "bike_id": "8c2c3d3b835578e8fbdbf93d52a605e1", "lat": 38.9057505, "name": "8c2c3d3b835578e8fbdbf93d52a605e1", "lon": -76.97625433333333, "fusion_lon": 0.0}, {"is_reserved": 0, "type": "electric_bike", "fusion_lat": 0.0, "is_disabled": 0, "rental_uris": {"ios": "https://dc.lft.to/lastmile_qr_scan", "android": "https://dc.lft.to/lastmile_qr_scan"}, "bike_id": "15f60b4183075d538cef313496e376c1", "lat": 38.87993783333334, "name": "15f60b4183075d538cef313496e376c1", "lon": -76.98546516666667, "fusion_lon": 0.0}, {"is_reserved": 0, "type": "electric_scooter", "fusion_lat": 0.0, "is_disabled": 0, "rental_uris": {"ios": "https://dc.lft.to/lastmile_qr_scan", "android": "https://dc.lft.to/lastmile_qr_scan"}, "bike_id": "a176814327c5112b93390412a78b4569", "lat": 38.935116, "name": "a176814327c5112b93390412a78b4569", "lon": -77.05698333333333, "fusion_lon": 0.0}, {"is_reserved": 0, "type": "electric_scooter", "fusion_lat": 0.0, "is_disabled": 0, "rental_uris": {"ios": "https://dc.lft.to/lastmile_qr_scan", "android": "https://dc.lft.to/lastmile_qr_scan"}, "bike_id": "6d5de013417023a81eeec8aaade440a2", "lat": 38.92166016666667, "name": "6d5de013417023a81eeec8aaade440a2", "lon": -77.040339, "fusion_lon": 0.0}, {"is_reserved": 0, "type": "electric_scooter", "fusion_lat": 0.0, "is_disabled": 0, "rental_uris": {"ios": "https://dc.lft.to/lastmile_qr_scan", "android": "https://dc.lft.to/lastmile_qr_scan"}, "bike_id": "7c4f4d6fd174a25e2c72ee416f957625", "lat": 38.92343133333333, "name": "7c4f4d6fd174a25e2c72ee416f957625", "lon": -77.05786366666666, "fusion_lon": 0.0}, {"is_reserved": 0, "type": "electric_scooter", "fusion_lat": 0.0, "is_disabled": 0, "rental_uris": {"ios": "https://dc.lft.to/lastmile_qr_scan", "android": "https://dc.lft.to/lastmile_qr_scan"}, "bike_id": "2ddce03979670fb71bf266276c6b78f4", "lat": 38.909068833333336, "name": "2ddce03979670fb71bf266276c6b78f4", "lon": -77.0351325, "fusion_lon": 0.0}, {"is_reserved": 0, "type": "electric_scooter", "fusion_lat": 0.0, "is_disabled": 0, "rental_uris": {"ios": "https://dc.lft.to/lastmile_qr_scan", "android": "https://dc.lft.to/lastmile_qr_scan"}, "bike_id": "cf470e1ebb4c5c47477db3d53416729e", "lat": 38.874591333333335, "name": "cf470e1ebb4c5c47477db3d53416729e", "lon": -77.004886, "fusion_lon": 0.0}, {"is_reserved": 0, "type": "electric_scooter", "fusion_lat": 0.0, "is_disabled": 0, "rental_uris": {"ios": "https://dc.lft.to/lastmile_qr_scan", "android": "https://dc.lft.to/lastmile_qr_scan"}, "bike_id": "8d28ef253568a1c74f42e6a7a654e691", "lat": 38.909743166666665, "name": "8d28ef253568a1c74f42e6a7a654e691", "lon": -77.02287333333334, "fusion_lon": 0.0}, {"is_reserved": 0, "type": "electric_bike", "fusion_lat": 0.0, "is_disabled": 0, "rental_uris": {"ios": "https://dc.lft.to/lastmile_qr_scan", "android": "https://dc.lft.to/lastmile_qr_scan"}, "bike_id": "69e969c7ee9f0f804b74372402340345", "lat": 38.83158516666667, "name": "69e969c7ee9f0f804b74372402340345", "lon": -76.99588983333334, "fusion_lon": 0.0}, {"is_reserved": 0, "type": "electric_scooter", "fusion_lat": 0.0, "is_disabled": 0, "rental_uris": {"ios": "https://dc.lft.to/lastmile_qr_scan", "android": "https://dc.lft.to/lastmile_qr_scan"}, "bike_id": "3d5e598fede99b199e4710d179e704be", "lat": 38.8764235, "name": "3d5e598fede99b199e4710d179e704be", "lon": -76.992929, "fusion_lon": 0.0}, {"is_reserved": 0, "type": "electric_scooter", "fusion_lat": 0.0, "is_disabled": 0, "rental_uris": {"ios": "https://dc.lft.to/lastmile_qr_scan", "android": "https://dc.lft.to/lastmile_qr_scan"}, "bike_id": "36f2b828e0a730fab46bd5de801ecff9", "lat": 38.917425333333334, "name": "36f2b828e0a730fab46bd5de801ecff9", "lon": -77.017743, "fusion_lon": 0.0}, {"is_reserved": 0, "type": "electric_scooter", "fusion_lat": 0.0, "is_disabled": 0, "rental_uris": {"ios": "https://dc.lft.to/lastmile_qr_scan", "android": "https://dc.lft.to/lastmile_qr_scan"}, "bike_id": "51ab0ecd36face5e0394e8986d7a1626", "lat": 38.925946833333334, "name": "51ab0ecd36face5e0394e8986d7a1626", "lon": -77.02390316666667, "fusion_lon": 0.0}, {"is_reserved": 0, "type": "electric_scooter", "fusion_lat": 0.0, "is_disabled": 0, "rental_uris": {"ios": "https://dc.lft.to/lastmile_qr_scan", "android": "https://dc.lft.to/lastmile_qr_scan"}, "bike_id": "a16133b90a075490c2e0595980b0cad3", "lat": 38.9111575, "name": "a16133b90a075490c2e0595980b0cad3", "lon": -77.03839783333333, "fusion_lon": 0.0}, {"is_reserved": 0, "type": "electric_scooter", "fusion_lat": 0.0, "is_disabled": 0, "rental_uris": {"ios": "https://dc.lft.to/lastmile_qr_scan", "android": "https://dc.lft.to/lastmile_qr_scan"}, "bike_id": "d30089d11c54c44e9c74251f7ba73a54", "lat": 38.881234, "name": "d30089d11c54c44e9c74251f7ba73a54", "lon": -76.99340416666666, "fusion_lon": 0.0}, {"is_reserved": 0, "type": "electric_scooter", "fusion_lat": 0.0, "is_disabled": 0, "rental_uris": {"ios": "https://dc.lft.to/lastmile_qr_scan", "android": "https://dc.lft.to/lastmile_qr_scan"}, "bike_id": "3d632dad2360b99417b3498c72fd35ea", "lat": 38.906011666666664, "name": "3d632dad2360b99417b3498c72fd35ea", "lon": -77.02111966666666, "fusion_lon": 0.0}, {"is_reserved": 0, "type": "electric_scooter", "fusion_lat": 0.0, "is_disabled": 0, "rental_uris": {"ios": "https://dc.lft.to/lastmile_qr_scan", "android": "https://dc.lft.to/lastmile_qr_scan"}, "bike_id": "5a0cd5e63e9d81203419e9a99b61b5d8", "lat": 38.886612666666664, "name": "5a0cd5e63e9d81203419e9a99b61b5d8", "lon": -76.985652, "fusion_lon": 0.0}, {"is_reserved": 0, "type": "electric_bike", "fusion_lat": 0.0, "is_disabled": 0, "rental_uris": {"ios": "https://dc.lft.to/lastmile_qr_scan", "android": "https://dc.lft.to/lastmile_qr_scan"}, "bike_id": "aa90c51ee3e863de401f234a68a39c26", "lat": 38.8158515, "name": "aa90c51ee3e863de401f234a68a39c26", "lon": -77.04941033333333, "fusion_lon": 0.0}, {"is_reserved": 0, "type": "electric_scooter", "fusion_lat": 0.0, "is_disabled": 0, "rental_uris": {"ios": "https://dc.lft.to/lastmile_qr_scan", "android": "https://dc.lft.to/lastmile_qr_scan"}, "bike_id": "d3406e3913c5b36ca621d9ae0ff18237", "lat": 38.85514083333333, "name": "d3406e3913c5b36ca621d9ae0ff18237", "lon": -76.99146216666666, "fusion_lon": 0.0}, {"is_reserved": 0, "type": "electric_scooter", "fusion_lat": 0.0, "is_disabled": 0, "rental_uris": {"ios": "https://dc.lft.to/lastmile_qr_scan", "android": "https://dc.lft.to/lastmile_qr_scan"}, "bike_id": "b0355ca7fb4468036b16c95237041785", "lat": 38.894736, "name": "b0355ca7fb4468036b16c95237041785", "lon": -76.99358883333333, "fusion_lon": 0.0}, {"is_reserved": 0, "type": "electric_scooter", "fusion_lat": 0.0, "is_disabled": 0, "rental_uris": {"ios": "https://dc.lft.to/lastmile_qr_scan", "android": "https://dc.lft.to/lastmile_qr_scan"}, "bike_id": "bb0bcbb54be287a16540de881ab51a24", "lat": 38.90200083333333, "name": "bb0bcbb54be287a16540de881ab51a24", "lon": -77.02373416666667, "fusion_lon": 0.0}, {"is_reserved": 0, "type": "electric_scooter", "fusion_lat": 0.0, "is_disabled": 0, "rental_uris": {"ios": "https://dc.lft.to/lastmile_qr_scan", "android": "https://dc.lft.to/lastmile_qr_scan"}, "bike_id": "45659ac3be9200e27c4cfe7a213df465", "lat": 38.934250666666664, "name": "45659ac3be9200e27c4cfe7a213df465", "lon": -77.04407666666667, "fusion_lon": 0.0}, {"is_reserved": 0, "type": "electric_scooter", "fusion_lat": 0.0, "is_disabled": 0, "rental_uris": {"ios": "https://dc.lft.to/lastmile_qr_scan", "android": "https://dc.lft.to/lastmile_qr_scan"}, "bike_id": "185dcc650ce86ea26c35d091f2e88d80", "lat": 38.922037333333336, "name": "185dcc650ce86ea26c35d091f2e88d80", "lon": -77.03296233333333, "fusion_lon": 0.0}, {"is_reserved": 0, "type": "electric_scooter", "fusion_lat": 0.0, "is_disabled": 0, "rental_uris": {"ios": "https://dc.lft.to/lastmile_qr_scan", "android": "https://dc.lft.to/lastmile_qr_scan"}, "bike_id": "b4361afbebede67cc0e0dab41c9e0a54", "lat": 38.898306833333336, "name": "b4361afbebede67cc0e0dab41c9e0a54", "lon": -76.94634966666666, "fusion_lon": 0.0}, {"is_reserved": 0, "type": "electric_scooter", "fusion_lat": 0.0, "is_disabled": 0, "rental_uris": {"ios": "https://dc.lft.to/lastmile_qr_scan", "android": "https://dc.lft.to/lastmile_qr_scan"}, "bike_id": "a030da10efa305565ec37be6a389bcfe", "lat": 38.922871, "name": "a030da10efa305565ec37be6a389bcfe", "lon": -77.01993133333333, "fusion_lon": 0.0}, {"is_reserved": 0, "type": "electric_scooter", "fusion_lat": 0.0, "is_disabled": 0, "rental_uris": {"ios": "https://dc.lft.to/lastmile_qr_scan", "android": "https://dc.lft.to/lastmile_qr_scan"}, "bike_id": "a1decf691df73061945bae1a43d6580c", "lat": 38.92829416666667, "name": "a1decf691df73061945bae1a43d6580c", "lon": -77.03716016666667, "fusion_lon": 0.0}, {"is_reserved": 0, "type": "electric_scooter", "fusion_lat": 0.0, "is_disabled": 0, "rental_uris": {"ios": "https://dc.lft.to/lastmile_qr_scan", "android": "https://dc.lft.to/lastmile_qr_scan"}, "bike_id": "b8388a39864679c9f45b544393be785d", "lat": 38.904945, "name": "b8388a39864679c9f45b544393be785d", "lon": -77.02804183333333, "fusion_lon": 0.0}, {"is_reserved": 0, "type": "electric_scooter", "fusion_lat": 0.0, "is_disabled": 0, "rental_uris": {"ios": "https://dc.lft.to/lastmile_qr_scan", "android": "https://dc.lft.to/lastmile_qr_scan"}, "bike_id": "1135e0baaa3dda4744e3ab696e1d4e26", "lat": 38.876309666666664, "name": "1135e0baaa3dda4744e3ab696e1d4e26", "lon": -77.009617, "fusion_lon": 0.0}, {"is_reserved": 0, "type": "electric_scooter", "fusion_lat": 0.0, "is_disabled": 0, "rental_uris": {"ios": "https://dc.lft.to/lastmile_qr_scan", "android": "https://dc.lft.to/lastmile_qr_scan"}, "bike_id": "7c31b5bb1638282b8de7be1a899f6015", "lat": 38.89843616666667, "name": "7c31b5bb1638282b8de7be1a899f6015", "lon": -77.039236, "fusion_lon": 0.0}, {"is_reserved": 0, "type": "electric_scooter", "fusion_lat": 0.0, "is_disabled": 0, "rental_uris": {"ios": "https://dc.lft.to/lastmile_qr_scan", "android": "https://dc.lft.to/lastmile_qr_scan"}, "bike_id": "d1747ad5cf18a322447e8af6ae01128d", "lat": 38.91466066666667, "name": "d1747ad5cf18a322447e8af6ae01128d", "lon": -77.00212983333333, "fusion_lon": 0.0}, {"is_reserved": 0, "type": "electric_scooter", "fusion_lat": 0.0, "is_disabled": 0, "rental_uris": {"ios": "https://dc.lft.to/lastmile_qr_scan", "android": "https://dc.lft.to/lastmile_qr_scan"}, "bike_id": "d198bd9471a4c02d867162e4bd3a0e52", "lat": 38.9300675, "name": "d198bd9471a4c02d867162e4bd3a0e52", "lon": -77.03797683333333, "fusion_lon": 0.0}, {"is_reserved": 0, "type": "electric_scooter", "fusion_lat": 0.0, "is_disabled": 0, "rental_uris": {"ios": "https://dc.lft.to/lastmile_qr_scan", "android": "https://dc.lft.to/lastmile_qr_scan"}, "bike_id": "10e847ede12a4f0a96211bc218a60eef", "lat": 38.89338733333334, "name": "10e847ede12a4f0a96211bc218a60eef", "lon": -76.928923, "fusion_lon": 0.0}, {"is_reserved": 0, "type": "electric_scooter", "fusion_lat": 0.0, "is_disabled": 0, "rental_uris": {"ios": "https://dc.lft.to/lastmile_qr_scan", "android": "https://dc.lft.to/lastmile_qr_scan"}, "bike_id": "4c03472a2e131ed5509ef33e27d2e9b0", "lat": 38.899619333333334, "name": "4c03472a2e131ed5509ef33e27d2e9b0", "lon": -77.01505566666667, "fusion_lon": 0.0}, {"is_reserved": 0, "type": "electric_scooter", "fusion_lat": 0.0, "is_disabled": 0, "rental_uris": {"ios": "https://dc.lft.to/lastmile_qr_scan", "android": "https://dc.lft.to/lastmile_qr_scan"}, "bike_id": "0381bcdb9f7787da004c70053afe7c17", "lat": 38.91716266666667, "name": "0381bcdb9f7787da004c70053afe7c17", "lon": -77.0345945, "fusion_lon": 0.0}, {"is_reserved": 0, "type": "electric_scooter", "fusion_lat": 0.0, "is_disabled": 0, "rental_uris": {"ios": "https://dc.lft.to/lastmile_qr_scan", "android": "https://dc.lft.to/lastmile_qr_scan"}, "bike_id": "28dde1c73fe5d86cb9e2e00ae74cd3ed", "lat": 38.93764, "name": "28dde1c73fe5d86cb9e2e00ae74cd3ed", "lon": -77.02660766666666, "fusion_lon": 0.0}, {"is_reserved": 0, "type": "electric_scooter", "fusion_lat": 0.0, "is_disabled": 0, "rental_uris": {"ios": "https://dc.lft.to/lastmile_qr_scan", "android": "https://dc.lft.to/lastmile_qr_scan"}, "bike_id": "91cbc4ad43e095e2b02e17193c8c761a", "lat": 38.94275833333333, "name": "91cbc4ad43e095e2b02e17193c8c761a", "lon": -77.08196983333333, "fusion_lon": 0.0}, {"is_reserved": 0, "type": "electric_scooter", "fusion_lat": 0.0, "is_disabled": 0, "rental_uris": {"ios": "https://dc.lft.to/lastmile_qr_scan", "android": "https://dc.lft.to/lastmile_qr_scan"}, "bike_id": "bb5d07c0d7f6b6109cc6cac12ccc2a9b", "lat": 38.9563665, "name": "bb5d07c0d7f6b6109cc6cac12ccc2a9b", "lon": -77.03630216666667, "fusion_lon": 0.0}, {"is_reserved": 0, "type": "electric_scooter", "fusion_lat": 0.0, "is_disabled": 0, "rental_uris": {"ios": "https://dc.lft.to/lastmile_qr_scan", "android": "https://dc.lft.to/lastmile_qr_scan"}, "bike_id": "07f058529a6b7b27e95be1b600efc50b", "lat": 38.912522833333334, "name": "07f058529a6b7b27e95be1b600efc50b", "lon": -77.00993466666667, "fusion_lon": 0.0}, {"is_reserved": 0, "type": "electric_scooter", "fusion_lat": 0.0, "is_disabled": 0, "rental_uris": {"ios": "https://dc.lft.to/lastmile_qr_scan", "android": "https://dc.lft.to/lastmile_qr_scan"}, "bike_id": "939e035a9f90521e65604bba2016ba6b", "lat": 38.90022466666667, "name": "939e035a9f90521e65604bba2016ba6b", "lon": -77.01994733333333, "fusion_lon": 0.0}, {"is_reserved": 0, "type": "electric_scooter", "fusion_lat": 0.0, "is_disabled": 0, "rental_uris": {"ios": "https://dc.lft.to/lastmile_qr_scan", "android": "https://dc.lft.to/lastmile_qr_scan"}, "bike_id": "8392785a85bd2ec8997d777f9b6a75f5", "lat": 38.90719566666667, "name": "8392785a85bd2ec8997d777f9b6a75f5", "lon": -77.04770233333333, "fusion_lon": 0.0}, {"is_reserved": 0, "type": "electric_scooter", "fusion_lat": 0.0, "is_disabled": 0, "rental_uris": {"ios": "https://dc.lft.to/lastmile_qr_scan", "android": "https://dc.lft.to/lastmile_qr_scan"}, "bike_id": "0919e35fbcc85de19c6d71dd3fc1ea21", "lat": 38.89734083333333, "name": "0919e35fbcc85de19c6d71dd3fc1ea21", "lon": -77.00753033333334, "fusion_lon": 0.0}, {"is_reserved": 0, "type": "electric_bike", "fusion_lat": 0.0, "is_disabled": 0, "rental_uris": {"ios": "https://dc.lft.to/lastmile_qr_scan", "android": "https://dc.lft.to/lastmile_qr_scan"}, "bike_id": "c28199949aab950d9822b57efb34c1fb", "lat": 39.010681166666664, "name": "c28199949aab950d9822b57efb34c1fb", "lon": -76.92244633333334, "fusion_lon": 0.0}, {"is_reserved": 0, "type": "electric_scooter", "fusion_lat": 0.0, "is_disabled": 0, "rental_uris": {"ios": "https://dc.lft.to/lastmile_qr_scan", "android": "https://dc.lft.to/lastmile_qr_scan"}, "bike_id": "b25a58c21a7b7edbbf6dc13b7f1a3887", "lat": 38.93131183333333, "name": "b25a58c21a7b7edbbf6dc13b7f1a3887", "lon": -77.0219835, "fusion_lon": 0.0}, {"is_reserved": 0, "type": "electric_scooter", "fusion_lat": 0.0, "is_disabled": 0, "rental_uris": {"ios": "https://dc.lft.to/lastmile_qr_scan", "android": "https://dc.lft.to/lastmile_qr_scan"}, "bike_id": "574feb78e0ab45a7d20798d3d25a9ee1", "lat": 38.87369916666667, "name": "574feb78e0ab45a7d20798d3d25a9ee1", "lon": -77.00188483333334, "fusion_lon": 0.0}, {"is_reserved": 0, "type": "electric_scooter", "fusion_lat": 0.0, "is_disabled": 0, "rental_uris": {"ios": "https://dc.lft.to/lastmile_qr_scan", "android": "https://dc.lft.to/lastmile_qr_scan"}, "bike_id": "5b3654c55156c326f14a6d95c5d27ed5", "lat": 38.91861633333333, "name": "5b3654c55156c326f14a6d95c5d27ed5", "lon": -77.01538933333333, "fusion_lon": 0.0}, {"is_reserved": 0, "type": "electric_scooter", "fusion_lat": 0.0, "is_disabled": 0, "rental_uris": {"ios": "https://dc.lft.to/lastmile_qr_scan", "android": "https://dc.lft.to/lastmile_qr_scan"}, "bike_id": "62d428073730a79c365549f4333e71d0", "lat": 38.92246216666667, "name": "62d428073730a79c365549f4333e71d0", "lon": -77.036663, "fusion_lon": 0.0}, {"is_reserved": 0, "type": "electric_scooter", "fusion_lat": 0.0, "is_disabled": 0, "rental_uris": {"ios": "https://dc.lft.to/lastmile_qr_scan", "android": "https://dc.lft.to/lastmile_qr_scan"}, "bike_id": "4430f9cfe3cccaae5091350d76c8cd70", "lat": 38.87843433333333, "name": "4430f9cfe3cccaae5091350d76c8cd70", "lon": -76.9313265, "fusion_lon": 0.0}, {"is_reserved": 0, "type": "electric_scooter", "fusion_lat": 0.0, "is_disabled": 0, "rental_uris": {"ios": "https://dc.lft.to/lastmile_qr_scan", "android": "https://dc.lft.to/lastmile_qr_scan"}, "bike_id": "f1a64e7b1d504ddc01a338e871d5804e", "lat": 38.901924, "name": "f1a64e7b1d504ddc01a338e871d5804e", "lon": -76.98837766666666, "fusion_lon": 0.0}, {"is_reserved": 0, "type": "electric_scooter", "fusion_lat": 0.0, "is_disabled": 0, "rental_uris": {"ios": "https://dc.lft.to/lastmile_qr_scan", "android": "https://dc.lft.to/lastmile_qr_scan"}, "bike_id": "f6932b8b8ec4177b1752cd00edd5dabe", "lat": 38.9573825, "name": "f6932b8b8ec4177b1752cd00edd5dabe", "lon": -77.023245, "fusion_lon": 0.0}, {"is_reserved": 0, "type": "electric_scooter", "fusion_lat": 0.0, "is_disabled": 0, "rental_uris": {"ios": "https://dc.lft.to/lastmile_qr_scan", "android": "https://dc.lft.to/lastmile_qr_scan"}, "bike_id": "fd3ec6eb6ae2e422ffc45088c4df2d89", "lat": 38.926156166666665, "name": "fd3ec6eb6ae2e422ffc45088c4df2d89", "lon": -77.02161266666667, "fusion_lon": 0.0}, {"is_reserved": 0, "type": "electric_scooter", "fusion_lat": 0.0, "is_disabled": 0, "rental_uris": {"ios": "https://dc.lft.to/lastmile_qr_scan", "android": "https://dc.lft.to/lastmile_qr_scan"}, "bike_id": "8ea4b12d17ea6fdbd4741db7de68ce75", "lat": 38.9154005, "name": "8ea4b12d17ea6fdbd4741db7de68ce75", "lon": -77.07543366666667, "fusion_lon": 0.0}, {"is_reserved": 0, "type": "electric_scooter", "fusion_lat": 0.0, "is_disabled": 0, "rental_uris": {"ios": "https://dc.lft.to/lastmile_qr_scan", "android": "https://dc.lft.to/lastmile_qr_scan"}, "bike_id": "2a173b0e42895a0cb1f2b7823e78cc80", "lat": 38.912498666666664, "name": "2a173b0e42895a0cb1f2b7823e78cc80", "lon": -77.04790483333333, "fusion_lon": 0.0}, {"is_reserved": 0, "type": "electric_scooter", "fusion_lat": 0.0, "is_disabled": 0, "rental_uris": {"ios": "https://dc.lft.to/lastmile_qr_scan", "android": "https://dc.lft.to/lastmile_qr_scan"}, "bike_id": "abc553eff9d97963a3f03011016eda8e", "lat": 38.9345625, "name": "abc553eff9d97963a3f03011016eda8e", "lon": -77.02805116666667, "fusion_lon": 0.0}, {"is_reserved": 0, "type": "electric_scooter", "fusion_lat": 0.0, "is_disabled": 0, "rental_uris": {"ios": "https://dc.lft.to/lastmile_qr_scan", "android": "https://dc.lft.to/lastmile_qr_scan"}, "bike_id": "2924d994ce88b9015a7abc9f29934200", "lat": 38.93326783333333, "name": "2924d994ce88b9015a7abc9f29934200", "lon": -77.02399416666667, "fusion_lon": 0.0}, {"is_reserved": 0, "type": "electric_scooter", "fusion_lat": 0.0, "is_disabled": 0, "rental_uris": {"ios": "https://dc.lft.to/lastmile_qr_scan", "android": "https://dc.lft.to/lastmile_qr_scan"}, "bike_id": "b51dafa6b9cde55e02d0791d61b17582", "lat": 38.923383333333334, "name": "b51dafa6b9cde55e02d0791d61b17582", "lon": -77.035003, "fusion_lon": 0.0}, {"is_reserved": 0, "type": "electric_scooter", "fusion_lat": 0.0, "is_disabled": 0, "rental_uris": {"ios": "https://dc.lft.to/lastmile_qr_scan", "android": "https://dc.lft.to/lastmile_qr_scan"}, "bike_id": "47f5838135ee199e94b2ca18092df128", "lat": 38.893639, "name": "47f5838135ee199e94b2ca18092df128", "lon": -77.044778, "fusion_lon": 0.0}, {"is_reserved": 0, "type": "electric_bike", "fusion_lat": 0.0, "is_disabled": 0, "rental_uris": {"ios": "https://dc.lft.to/lastmile_qr_scan", "android": "https://dc.lft.to/lastmile_qr_scan"}, "bike_id": "542c8ae3494e6df87d4be8e3fe67c1b4", "lat": 39.00452083333333, "name": "542c8ae3494e6df87d4be8e3fe67c1b4", "lon": -76.901192, "fusion_lon": 0.0}, {"is_reserved": 0, "type": "electric_scooter", "fusion_lat": 0.0, "is_disabled": 0, "rental_uris": {"ios": "https://dc.lft.to/lastmile_qr_scan", "android": "https://dc.lft.to/lastmile_qr_scan"}, "bike_id": "26abbf7d9fc37c79baac028d7f1edeeb", "lat": 38.905387833333336, "name": "26abbf7d9fc37c79baac028d7f1edeeb", "lon": -76.97550616666666, "fusion_lon": 0.0}, {"is_reserved": 0, "type": "electric_scooter", "fusion_lat": 0.0, "is_disabled": 0, "rental_uris": {"ios": "https://dc.lft.to/lastmile_qr_scan", "android": "https://dc.lft.to/lastmile_qr_scan"}, "bike_id": "9a342f7fad929c4d5a21fbe4e2b36717", "lat": 38.8764615, "name": "9a342f7fad929c4d5a21fbe4e2b36717", "lon": -77.0008355, "fusion_lon": 0.0}, {"is_reserved": 0, "type": "electric_bike", "fusion_lat": 0.0, "is_disabled": 0, "rental_uris": {"ios": "https://dc.lft.to/lastmile_qr_scan", "android": "https://dc.lft.to/lastmile_qr_scan"}, "bike_id": "1be23c0b59fe822817d94c2bed44bc61", "lat": 38.950328666666664, "name": "1be23c0b59fe822817d94c2bed44bc61", "lon": -77.012703, "fusion_lon": 0.0}, {"is_reserved": 0, "type": "electric_scooter", "fusion_lat": 0.0, "is_disabled": 0, "rental_uris": {"ios": "https://dc.lft.to/lastmile_qr_scan", "android": "https://dc.lft.to/lastmile_qr_scan"}, "bike_id": "a4c9ba2b431d5c2ccb7d013c0a10296f", "lat": 38.9397445, "name": "a4c9ba2b431d5c2ccb7d013c0a10296f", "lon": -77.03252366666666, "fusion_lon": 0.0}, {"is_reserved": 0, "type": "electric_scooter", "fusion_lat": 0.0, "is_disabled": 0, "rental_uris": {"ios": "https://dc.lft.to/lastmile_qr_scan", "android": "https://dc.lft.to/lastmile_qr_scan"}, "bike_id": "a3e3721d5cb7d4f72751fcdc8d67523f", "lat": 38.897377666666664, "name": "a3e3721d5cb7d4f72751fcdc8d67523f", "lon": -77.04372333333333, "fusion_lon": 0.0}, {"is_reserved": 0, "type": "electric_scooter", "fusion_lat": 0.0, "is_disabled": 0, "rental_uris": {"ios": "https://dc.lft.to/lastmile_qr_scan", "android": "https://dc.lft.to/lastmile_qr_scan"}, "bike_id": "d0064836c59873f0293f8f0b6598f1f7", "lat": 38.91715833333333, "name": "d0064836c59873f0293f8f0b6598f1f7", "lon": -77.0920815, "fusion_lon": 0.0}, {"is_reserved": 0, "type": "electric_scooter", "fusion_lat": 0.0, "is_disabled": 0, "rental_uris": {"ios": "https://dc.lft.to/lastmile_qr_scan", "android": "https://dc.lft.to/lastmile_qr_scan"}, "bike_id": "61638575b33f6f7bd83daea613bdc942", "lat": 38.885726166666664, "name": "61638575b33f6f7bd83daea613bdc942", "lon": -77.00035366666667, "fusion_lon": 0.0}, {"is_reserved": 0, "type": "electric_scooter", "fusion_lat": 0.0, "is_disabled": 0, "rental_uris": {"ios": "https://dc.lft.to/lastmile_qr_scan", "android": "https://dc.lft.to/lastmile_qr_scan"}, "bike_id": "ab82cdaeff20cdf3aff928441f647bf7", "lat": 38.91058133333333, "name": "ab82cdaeff20cdf3aff928441f647bf7", "lon": -77.026606, "fusion_lon": 0.0}, {"is_reserved": 0, "type": "electric_bike", "fusion_lat": 0.0, "is_disabled": 0, "rental_uris": {"ios": "https://dc.lft.to/lastmile_qr_scan", "android": "https://dc.lft.to/lastmile_qr_scan"}, "bike_id": "d2b8030cf53c6a096895b6a6be2ec61f", "lat": 38.94519, "name": "d2b8030cf53c6a096895b6a6be2ec61f", "lon": -76.9680405, "fusion_lon": 0.0}, {"is_reserved": 0, "type": "electric_scooter", "fusion_lat": 0.0, "is_disabled": 0, "rental_uris": {"ios": "https://dc.lft.to/lastmile_qr_scan", "android": "https://dc.lft.to/lastmile_qr_scan"}, "bike_id": "1ee4eec23d936ecf30625bef68b8e803", "lat": 38.919419833333336, "name": "1ee4eec23d936ecf30625bef68b8e803", "lon": -77.00215683333333, "fusion_lon": 0.0}, {"is_reserved": 0, "type": "electric_scooter", "fusion_lat": 0.0, "is_disabled": 0, "rental_uris": {"ios": "https://dc.lft.to/lastmile_qr_scan", "android": "https://dc.lft.to/lastmile_qr_scan"}, "bike_id": "0e94d99baf5f620c45d7f9c441e5e549", "lat": 38.939682166666664, "name": "0e94d99baf5f620c45d7f9c441e5e549", "lon": -77.0343165, "fusion_lon": 0.0}, {"is_reserved": 0, "type": "electric_scooter", "fusion_lat": 0.0, "is_disabled": 0, "rental_uris": {"ios": "https://dc.lft.to/lastmile_qr_scan", "android": "https://dc.lft.to/lastmile_qr_scan"}, "bike_id": "c73f8185256702a8b1fb358fde85cbe7", "lat": 38.92376983333333, "name": "c73f8185256702a8b1fb358fde85cbe7", "lon": -77.04088566666667, "fusion_lon": 0.0}, {"is_reserved": 0, "type": "electric_scooter", "fusion_lat": 0.0, "is_disabled": 0, "rental_uris": {"ios": "https://dc.lft.to/lastmile_qr_scan", "android": "https://dc.lft.to/lastmile_qr_scan"}, "bike_id": "eb7b0f2b6c0e235e51b01ef455f3ecf0", "lat": 38.9223965, "name": "eb7b0f2b6c0e235e51b01ef455f3ecf0", "lon": -77.03520633333333, "fusion_lon": 0.0}, {"is_reserved": 0, "type": "electric_scooter", "fusion_lat": 0.0, "is_disabled": 0, "rental_uris": {"ios": "https://dc.lft.to/lastmile_qr_scan", "android": "https://dc.lft.to/lastmile_qr_scan"}, "bike_id": "a3f71cb3543d14c2aa74f42293b199da", "lat": 38.91728, "name": "a3f71cb3543d14c2aa74f42293b199da", "lon": -77.0261015, "fusion_lon": 0.0}, {"is_reserved": 0, "type": "electric_scooter", "fusion_lat": 0.0, "is_disabled": 0, "rental_uris": {"ios": "https://dc.lft.to/lastmile_qr_scan", "android": "https://dc.lft.to/lastmile_qr_scan"}, "bike_id": "c4be8d9277fb2f1d02211e93d68baa49", "lat": 38.924104, "name": "c4be8d9277fb2f1d02211e93d68baa49", "lon": -77.03541933333334, "fusion_lon": 0.0}, {"is_reserved": 0, "type": "electric_scooter", "fusion_lat": 0.0, "is_disabled": 0, "rental_uris": {"ios": "https://dc.lft.to/lastmile_qr_scan", "android": "https://dc.lft.to/lastmile_qr_scan"}, "bike_id": "13f8ab10868023e9c226ac172ea31116", "lat": 38.92121016666667, "name": "13f8ab10868023e9c226ac172ea31116", "lon": -77.01215166666667, "fusion_lon": 0.0}, {"is_reserved": 0, "type": "electric_bike", "fusion_lat": 0.0, "is_disabled": 0, "rental_uris": {"ios": "https://dc.lft.to/lastmile_qr_scan", "android": "https://dc.lft.to/lastmile_qr_scan"}, "bike_id": "36fd3b8a265722f46ddfb21a8186187c", "lat": 38.91672233333333, "name": "36fd3b8a265722f46ddfb21a8186187c", "lon": -77.00044, "fusion_lon": 0.0}, {"is_reserved": 0, "type": "electric_scooter", "fusion_lat": 0.0, "is_disabled": 0, "rental_uris": {"ios": "https://dc.lft.to/lastmile_qr_scan", "android": "https://dc.lft.to/lastmile_qr_scan"}, "bike_id": "32977f216a04843f1040767915b17b9e", "lat": 38.932509, "name": "32977f216a04843f1040767915b17b9e", "lon": -77.03281316666667, "fusion_lon": 0.0}, {"is_reserved": 0, "type": "electric_scooter", "fusion_lat": 0.0, "is_disabled": 0, "rental_uris": {"ios": "https://dc.lft.to/lastmile_qr_scan", "android": "https://dc.lft.to/lastmile_qr_scan"}, "bike_id": "f03ac6a9beb90345d9b95a21fb9b1c1e", "lat": 38.92996183333333, "name": "f03ac6a9beb90345d9b95a21fb9b1c1e", "lon": -77.021708, "fusion_lon": 0.0}, {"is_reserved": 0, "type": "electric_scooter", "fusion_lat": 0.0, "is_disabled": 0, "rental_uris": {"ios": "https://dc.lft.to/lastmile_qr_scan", "android": "https://dc.lft.to/lastmile_qr_scan"}, "bike_id": "aff7bcd265410cdce78b21e8315ba14f", "lat": 38.918655333333334, "name": "aff7bcd265410cdce78b21e8315ba14f", "lon": -77.0355075, "fusion_lon": 0.0}, {"is_reserved": 0, "type": "electric_scooter", "fusion_lat": 0.0, "is_disabled": 0, "rental_uris": {"ios": "https://dc.lft.to/lastmile_qr_scan", "android": "https://dc.lft.to/lastmile_qr_scan"}, "bike_id": "8965654f69c7d394c1ae67ffb5ad70c0", "lat": 38.935892833333334, "name": "8965654f69c7d394c1ae67ffb5ad70c0", "lon": -77.0742905, "fusion_lon": 0.0}, {"is_reserved": 0, "type": "electric_scooter", "fusion_lat": 0.0, "is_disabled": 0, "rental_uris": {"ios": "https://dc.lft.to/lastmile_qr_scan", "android": "https://dc.lft.to/lastmile_qr_scan"}, "bike_id": "724a0fd993e33e545e05fa5cd5c2d337", "lat": 38.89340683333333, "name": "724a0fd993e33e545e05fa5cd5c2d337", "lon": -76.98555816666666, "fusion_lon": 0.0}, {"is_reserved": 0, "type": "electric_scooter", "fusion_lat": 0.0, "is_disabled": 0, "rental_uris": {"ios": "https://dc.lft.to/lastmile_qr_scan", "android": "https://dc.lft.to/lastmile_qr_scan"}, "bike_id": "fe6c96cc199b44230f195114bb63548d", "lat": 38.877410166666664, "name": "fe6c96cc199b44230f195114bb63548d", "lon": -77.00590266666667, "fusion_lon": 0.0}, {"is_reserved": 0, "type": "electric_scooter", "fusion_lat": 0.0, "is_disabled": 0, "rental_uris": {"ios": "https://dc.lft.to/lastmile_qr_scan", "android": "https://dc.lft.to/lastmile_qr_scan"}, "bike_id": "d152f6fd22bbb69655de8c665f092bfe", "lat": 38.9279695, "name": "d152f6fd22bbb69655de8c665f092bfe", "lon": -77.03700833333333, "fusion_lon": 0.0}, {"is_reserved": 0, "type": "electric_scooter", "fusion_lat": 0.0, "is_disabled": 0, "rental_uris": {"ios": "https://dc.lft.to/lastmile_qr_scan", "android": "https://dc.lft.to/lastmile_qr_scan"}, "bike_id": "1c0fbf5d0993127063f05971d3dee557", "lat": 38.91705483333333, "name": "1c0fbf5d0993127063f05971d3dee557", "lon": -77.04044066666667, "fusion_lon": 0.0}, {"is_reserved": 0, "type": "electric_scooter", "fusion_lat": 0.0, "is_disabled": 0, "rental_uris": {"ios": "https://dc.lft.to/lastmile_qr_scan", "android": "https://dc.lft.to/lastmile_qr_scan"}, "bike_id": "53b06a334c55c8c05831d6e9cb5192c4", "lat": 38.87070716666667, "name": "53b06a334c55c8c05831d6e9cb5192c4", "lon": -76.98130666666667, "fusion_lon": 0.0}, {"is_reserved": 0, "type": "electric_scooter", "fusion_lat": 0.0, "is_disabled": 0, "rental_uris": {"ios": "https://dc.lft.to/lastmile_qr_scan", "android": "https://dc.lft.to/lastmile_qr_scan"}, "bike_id": "cd6ccae43094df113d19a0f5d9eb9e38", "lat": 38.922435666666665, "name": "cd6ccae43094df113d19a0f5d9eb9e38", "lon": -77.02817016666667, "fusion_lon": 0.0}, {"is_reserved": 0, "type": "electric_scooter", "fusion_lat": 0.0, "is_disabled": 0, "rental_uris": {"ios": "https://dc.lft.to/lastmile_qr_scan", "android": "https://dc.lft.to/lastmile_qr_scan"}, "bike_id": "28c42c088e12f572ff60d45b3dcd61c9", "lat": 38.90403366666666, "name": "28c42c088e12f572ff60d45b3dcd61c9", "lon": -77.02001683333333, "fusion_lon": 0.0}, {"is_reserved": 0, "type": "electric_scooter", "fusion_lat": 0.0, "is_disabled": 0, "rental_uris": {"ios": "https://dc.lft.to/lastmile_qr_scan", "android": "https://dc.lft.to/lastmile_qr_scan"}, "bike_id": "f446293686a5ddbc6b2cb16a2f07d269", "lat": 38.90744766666667, "name": "f446293686a5ddbc6b2cb16a2f07d269", "lon": -76.9991725, "fusion_lon": 0.0}, {"is_reserved": 0, "type": "electric_scooter", "fusion_lat": 0.0, "is_disabled": 0, "rental_uris": {"ios": "https://dc.lft.to/lastmile_qr_scan", "android": "https://dc.lft.to/lastmile_qr_scan"}, "bike_id": "10789ee20e6ebc41182a373896aaa98a", "lat": 38.899590833333335, "name": "10789ee20e6ebc41182a373896aaa98a", "lon": -77.04832883333333, "fusion_lon": 0.0}, {"is_reserved": 0, "type": "electric_scooter", "fusion_lat": 0.0, "is_disabled": 0, "rental_uris": {"ios": "https://dc.lft.to/lastmile_qr_scan", "android": "https://dc.lft.to/lastmile_qr_scan"}, "bike_id": "ed5d084d7f35bc1e289c54ab17a44b7f", "lat": 38.89319183333333, "name": "ed5d084d7f35bc1e289c54ab17a44b7f", "lon": -77.019673, "fusion_lon": 0.0}, {"is_reserved": 0, "type": "electric_scooter", "fusion_lat": 0.0, "is_disabled": 0, "rental_uris": {"ios": "https://dc.lft.to/lastmile_qr_scan", "android": "https://dc.lft.to/lastmile_qr_scan"}, "bike_id": "3e73abbbeb8dc06b266313f81bebf08d", "lat": 38.898194333333336, "name": "3e73abbbeb8dc06b266313f81bebf08d", "lon": -77.0466695, "fusion_lon": 0.0}, {"is_reserved": 0, "type": "electric_scooter", "fusion_lat": 0.0, "is_disabled": 0, "rental_uris": {"ios": "https://dc.lft.to/lastmile_qr_scan", "android": "https://dc.lft.to/lastmile_qr_scan"}, "bike_id": "262519f6fe899fe2faf9f0ad1a9581e5", "lat": 38.909557166666666, "name": "262519f6fe899fe2faf9f0ad1a9581e5", "lon": -77.023834, "fusion_lon": 0.0}, {"is_reserved": 0, "type": "electric_scooter", "fusion_lat": 0.0, "is_disabled": 0, "rental_uris": {"ios": "https://dc.lft.to/lastmile_qr_scan", "android": "https://dc.lft.to/lastmile_qr_scan"}, "bike_id": "1f193f57adaa3ed589bb4730220b9417", "lat": 38.93532233333333, "name": "1f193f57adaa3ed589bb4730220b9417", "lon": -77.05447666666667, "fusion_lon": 0.0}, {"is_reserved": 0, "type": "electric_scooter", "fusion_lat": 0.0, "is_disabled": 0, "rental_uris": {"ios": "https://dc.lft.to/lastmile_qr_scan", "android": "https://dc.lft.to/lastmile_qr_scan"}, "bike_id": "08c3b103fcee7a7c4143dd0ba51e0512", "lat": 38.90787516666666, "name": "08c3b103fcee7a7c4143dd0ba51e0512", "lon": -77.00960333333333, "fusion_lon": 0.0}, {"is_reserved": 0, "type": "electric_scooter", "fusion_lat": 0.0, "is_disabled": 0, "rental_uris": {"ios": "https://dc.lft.to/lastmile_qr_scan", "android": "https://dc.lft.to/lastmile_qr_scan"}, "bike_id": "713372f515bb38bad16246c5999aa68c", "lat": 38.909349666666664, "name": "713372f515bb38bad16246c5999aa68c", "lon": -76.999178, "fusion_lon": 0.0}, {"is_reserved": 0, "type": "electric_scooter", "fusion_lat": 0.0, "is_disabled": 0, "rental_uris": {"ios": "https://dc.lft.to/lastmile_qr_scan", "android": "https://dc.lft.to/lastmile_qr_scan"}, "bike_id": "e8c64959fbaaf542bc856e97ce9f31d5", "lat": 38.93421716666667, "name": "e8c64959fbaaf542bc856e97ce9f31d5", "lon": -77.03288466666666, "fusion_lon": 0.0}, {"is_reserved": 0, "type": "electric_scooter", "fusion_lat": 0.0, "is_disabled": 0, "rental_uris": {"ios": "https://dc.lft.to/lastmile_qr_scan", "android": "https://dc.lft.to/lastmile_qr_scan"}, "bike_id": "e021f0637296c7a7f54e4add5b5c1308", "lat": 38.8794615, "name": "e021f0637296c7a7f54e4add5b5c1308", "lon": -77.00585133333334, "fusion_lon": 0.0}, {"is_reserved": 0, "type": "electric_scooter", "fusion_lat": 0.0, "is_disabled": 0, "rental_uris": {"ios": "https://dc.lft.to/lastmile_qr_scan", "android": "https://dc.lft.to/lastmile_qr_scan"}, "bike_id": "42d3c59b6c09a282cab0b130dadeed7b", "lat": 38.899553166666664, "name": "42d3c59b6c09a282cab0b130dadeed7b", "lon": -77.04761616666667, "fusion_lon": 0.0}, {"is_reserved": 0, "type": "electric_scooter", "fusion_lat": 0.0, "is_disabled": 0, "rental_uris": {"ios": "https://dc.lft.to/lastmile_qr_scan", "android": "https://dc.lft.to/lastmile_qr_scan"}, "bike_id": "e2088e1ce212b0912ddcfdf4f84aa16f", "lat": 38.88726416666667, "name": "e2088e1ce212b0912ddcfdf4f84aa16f", "lon": -76.98377466666666, "fusion_lon": 0.0}, {"is_reserved": 0, "type": "electric_scooter", "fusion_lat": 0.0, "is_disabled": 0, "rental_uris": {"ios": "https://dc.lft.to/lastmile_qr_scan", "android": "https://dc.lft.to/lastmile_qr_scan"}, "bike_id": "b1651a666ddda556cf4ba8932bd2ed84", "lat": 38.9562725, "name": "b1651a666ddda556cf4ba8932bd2ed84", "lon": -77.02238566666666, "fusion_lon": 0.0}, {"is_reserved": 0, "type": "electric_scooter", "fusion_lat": 0.0, "is_disabled": 0, "rental_uris": {"ios": "https://dc.lft.to/lastmile_qr_scan", "android": "https://dc.lft.to/lastmile_qr_scan"}, "bike_id": "887d7d2aaec55a2bc55d0f719ec7ea5b", "lat": 38.91803016666667, "name": "887d7d2aaec55a2bc55d0f719ec7ea5b", "lon": -77.03338566666666, "fusion_lon": 0.0}, {"is_reserved": 0, "type": "electric_scooter", "fusion_lat": 0.0, "is_disabled": 0, "rental_uris": {"ios": "https://dc.lft.to/lastmile_qr_scan", "android": "https://dc.lft.to/lastmile_qr_scan"}, "bike_id": "da60ab32d0e26179ccfb97d0c640b440", "lat": 38.8858155, "name": "da60ab32d0e26179ccfb97d0c640b440", "lon": -77.0122725, "fusion_lon": 0.0}, {"is_reserved": 0, "type": "electric_scooter", "fusion_lat": 0.0, "is_disabled": 0, "rental_uris": {"ios": "https://dc.lft.to/lastmile_qr_scan", "android": "https://dc.lft.to/lastmile_qr_scan"}, "bike_id": "835b8b09299d57fb0ee371e6e393784f", "lat": 38.90076716666667, "name": "835b8b09299d57fb0ee371e6e393784f", "lon": -77.013357, "fusion_lon": 0.0}, {"is_reserved": 0, "type": "electric_bike", "fusion_lat": 0.0, "is_disabled": 0, "rental_uris": {"ios": "https://dc.lft.to/lastmile_qr_scan", "android": "https://dc.lft.to/lastmile_qr_scan"}, "bike_id": "a4309d47941258c647a9a2d6ddbadba9", "lat": 38.82431316666667, "name": "a4309d47941258c647a9a2d6ddbadba9", "lon": -77.12043516666667, "fusion_lon": 0.0}, {"is_reserved": 0, "type": "electric_scooter", "fusion_lat": 0.0, "is_disabled": 0, "rental_uris": {"ios": "https://dc.lft.to/lastmile_qr_scan", "android": "https://dc.lft.to/lastmile_qr_scan"}, "bike_id": "2d64337b041cb06114f4d2f6860930ba", "lat": 38.9104215, "name": "2d64337b041cb06114f4d2f6860930ba", "lon": -77.010258, "fusion_lon": 0.0}, {"is_reserved": 0, "type": "electric_scooter", "fusion_lat": 0.0, "is_disabled": 0, "rental_uris": {"ios": "https://dc.lft.to/lastmile_qr_scan", "android": "https://dc.lft.to/lastmile_qr_scan"}, "bike_id": "6ba5278e16b836baf7c1641f7843ab61", "lat": 38.930607333333334, "name": "6ba5278e16b836baf7c1641f7843ab61", "lon": -77.03670383333333, "fusion_lon": 0.0}, {"is_reserved": 0, "type": "electric_scooter", "fusion_lat": 0.0, "is_disabled": 0, "rental_uris": {"ios": "https://dc.lft.to/lastmile_qr_scan", "android": "https://dc.lft.to/lastmile_qr_scan"}, "bike_id": "4a6481618481c4dcb7bdde065c7c8a64", "lat": 38.91159866666667, "name": "4a6481618481c4dcb7bdde065c7c8a64", "lon": -77.0448685, "fusion_lon": 0.0}, {"is_reserved": 0, "type": "electric_scooter", "fusion_lat": 0.0, "is_disabled": 0, "rental_uris": {"ios": "https://dc.lft.to/lastmile_qr_scan", "android": "https://dc.lft.to/lastmile_qr_scan"}, "bike_id": "2f175a5fb3c1e20f74159707d0212cf1", "lat": 38.90006666666667, "name": "2f175a5fb3c1e20f74159707d0212cf1", "lon": -77.0039335, "fusion_lon": 0.0}, {"is_reserved": 0, "type": "electric_bike", "fusion_lat": 0.0, "is_disabled": 0, "rental_uris": {"ios": "https://dc.lft.to/lastmile_qr_scan", "android": "https://dc.lft.to/lastmile_qr_scan"}, "bike_id": "cd9a261fc18c55e287820ea4d111ab91", "lat": 38.865643, "name": "cd9a261fc18c55e287820ea4d111ab91", "lon": -76.97476533333334, "fusion_lon": 0.0}, {"is_reserved": 0, "type": "electric_bike", "fusion_lat": 0.0, "is_disabled": 0, "rental_uris": {"ios": "https://dc.lft.to/lastmile_qr_scan", "android": "https://dc.lft.to/lastmile_qr_scan"}, "bike_id": "23beb0ffca26806e889dc6d6c51c35ed", "lat": 38.82210633333333, "name": "23beb0ffca26806e889dc6d6c51c35ed", "lon": -76.97705066666667, "fusion_lon": 0.0}, {"is_reserved": 0, "type": "electric_bike", "fusion_lat": 0.0, "is_disabled": 0, "rental_uris": {"ios": "https://dc.lft.to/lastmile_qr_scan", "android": "https://dc.lft.to/lastmile_qr_scan"}, "bike_id": "1f63e3e8bd828b38a72f7f441f5aa049", "lat": 38.880309833333335, "name": "1f63e3e8bd828b38a72f7f441f5aa049", "lon": -76.9862595, "fusion_lon": 0.0}, {"is_reserved": 0, "type": "electric_scooter", "fusion_lat": 0.0, "is_disabled": 0, "rental_uris": {"ios": "https://dc.lft.to/lastmile_qr_scan", "android": "https://dc.lft.to/lastmile_qr_scan"}, "bike_id": "2fbb1f6d197dafca87c41e0aec5a7aa9", "lat": 38.9147085, "name": "2fbb1f6d197dafca87c41e0aec5a7aa9", "lon": -77.00212366666666, "fusion_lon": 0.0}, {"is_reserved": 0, "type": "electric_scooter", "fusion_lat": 0.0, "is_disabled": 0, "rental_uris": {"ios": "https://dc.lft.to/lastmile_qr_scan", "android": "https://dc.lft.to/lastmile_qr_scan"}, "bike_id": "603777fd13362e7d4139304b3dbd5853", "lat": 38.916924333333334, "name": "603777fd13362e7d4139304b3dbd5853", "lon": -77.05302333333333, "fusion_lon": 0.0}, {"is_reserved": 0, "type": "electric_scooter", "fusion_lat": 0.0, "is_disabled": 0, "rental_uris": {"ios": "https://dc.lft.to/lastmile_qr_scan", "android": "https://dc.lft.to/lastmile_qr_scan"}, "bike_id": "d26d3f108f803bf2bb4e764f304059ef", "lat": 38.91721366666667, "name": "d26d3f108f803bf2bb4e764f304059ef", "lon": -77.06835, "fusion_lon": 0.0}, {"is_reserved": 0, "type": "electric_scooter", "fusion_lat": 0.0, "is_disabled": 0, "rental_uris": {"ios": "https://dc.lft.to/lastmile_qr_scan", "android": "https://dc.lft.to/lastmile_qr_scan"}, "bike_id": "bf31bc767ae72027e69bce238471a906", "lat": 38.91963483333333, "name": "bf31bc767ae72027e69bce238471a906", "lon": -77.02405483333334, "fusion_lon": 0.0}, {"is_reserved": 0, "type": "electric_scooter", "fusion_lat": 0.0, "is_disabled": 0, "rental_uris": {"ios": "https://dc.lft.to/lastmile_qr_scan", "android": "https://dc.lft.to/lastmile_qr_scan"}, "bike_id": "c54c9a90dfbc4e1ffaca84823b786109", "lat": 38.896650666666666, "name": "c54c9a90dfbc4e1ffaca84823b786109", "lon": -77.04341916666667, "fusion_lon": 0.0}, {"is_reserved": 0, "type": "electric_scooter", "fusion_lat": 0.0, "is_disabled": 0, "rental_uris": {"ios": "https://dc.lft.to/lastmile_qr_scan", "android": "https://dc.lft.to/lastmile_qr_scan"}, "bike_id": "b229f30806ad2cefae098a42f2c34919", "lat": 38.917237166666666, "name": "b229f30806ad2cefae098a42f2c34919", "lon": -77.04589083333333, "fusion_lon": 0.0}, {"is_reserved": 0, "type": "electric_scooter", "fusion_lat": 0.0, "is_disabled": 0, "rental_uris": {"ios": "https://dc.lft.to/lastmile_qr_scan", "android": "https://dc.lft.to/lastmile_qr_scan"}, "bike_id": "94c36c8f6b6ea8562b6931f76e51436d", "lat": 38.929534333333336, "name": "94c36c8f6b6ea8562b6931f76e51436d", "lon": -77.03289433333333, "fusion_lon": 0.0}, {"is_reserved": 0, "type": "electric_scooter", "fusion_lat": 0.0, "is_disabled": 0, "rental_uris": {"ios": "https://dc.lft.to/lastmile_qr_scan", "android": "https://dc.lft.to/lastmile_qr_scan"}, "bike_id": "86ce540706d2d6700a2620b2767a5177", "lat": 38.906051166666664, "name": "86ce540706d2d6700a2620b2767a5177", "lon": -77.05842266666667, "fusion_lon": 0.0}, {"is_reserved": 0, "type": "electric_scooter", "fusion_lat": 0.0, "is_disabled": 0, "rental_uris": {"ios": "https://dc.lft.to/lastmile_qr_scan", "android": "https://dc.lft.to/lastmile_qr_scan"}, "bike_id": "6e8732740cf6aa0eec52d6f32942e9c8", "lat": 38.9144, "name": "6e8732740cf6aa0eec52d6f32942e9c8", "lon": -77.0034825, "fusion_lon": 0.0}, {"is_reserved": 0, "type": "electric_bike", "fusion_lat": 0.0, "is_disabled": 0, "rental_uris": {"ios": "https://dc.lft.to/lastmile_qr_scan", "android": "https://dc.lft.to/lastmile_qr_scan"}, "bike_id": "1a364c1add869190ebd94aca268f3b92", "lat": 38.99999283333333, "name": "1a364c1add869190ebd94aca268f3b92", "lon": -76.91810216666667, "fusion_lon": 0.0}, {"is_reserved": 0, "type": "electric_bike", "fusion_lat": 0.0, "is_disabled": 0, "rental_uris": {"ios": "https://dc.lft.to/lastmile_qr_scan", "android": "https://dc.lft.to/lastmile_qr_scan"}, "bike_id": "9cf45ac28e705adee9b9f61c8042a074", "lat": 38.950888666666664, "name": "9cf45ac28e705adee9b9f61c8042a074", "lon": -77.01232183333333, "fusion_lon": 0.0}, {"is_reserved": 0, "type": "electric_scooter", "fusion_lat": 0.0, "is_disabled": 0, "rental_uris": {"ios": "https://dc.lft.to/lastmile_qr_scan", "android": "https://dc.lft.to/lastmile_qr_scan"}, "bike_id": "51b496236ce4f58fab34fc07f9eda38e", "lat": 38.9014185, "name": "51b496236ce4f58fab34fc07f9eda38e", "lon": -77.03200483333333, "fusion_lon": 0.0}, {"is_reserved": 0, "type": "electric_scooter", "fusion_lat": 0.0, "is_disabled": 0, "rental_uris": {"ios": "https://dc.lft.to/lastmile_qr_scan", "android": "https://dc.lft.to/lastmile_qr_scan"}, "bike_id": "b6d6880eb7ae5947945301b85c1166cd", "lat": 38.895457, "name": "b6d6880eb7ae5947945301b85c1166cd", "lon": -76.98340666666667, "fusion_lon": 0.0}, {"is_reserved": 0, "type": "electric_scooter", "fusion_lat": 0.0, "is_disabled": 0, "rental_uris": {"ios": "https://dc.lft.to/lastmile_qr_scan", "android": "https://dc.lft.to/lastmile_qr_scan"}, "bike_id": "d43b32e61a801ab4e18310ed4d98f108", "lat": 38.918074, "name": "d43b32e61a801ab4e18310ed4d98f108", "lon": -77.034347, "fusion_lon": 0.0}, {"is_reserved": 0, "type": "electric_scooter", "fusion_lat": 0.0, "is_disabled": 0, "rental_uris": {"ios": "https://dc.lft.to/lastmile_qr_scan", "android": "https://dc.lft.to/lastmile_qr_scan"}, "bike_id": "0874b31fde21ee8a3985711fa34f2f2b", "lat": 38.90587283333333, "name": "0874b31fde21ee8a3985711fa34f2f2b", "lon": -77.0470715, "fusion_lon": 0.0}, {"is_reserved": 0, "type": "electric_scooter", "fusion_lat": 0.0, "is_disabled": 0, "rental_uris": {"ios": "https://dc.lft.to/lastmile_qr_scan", "android": "https://dc.lft.to/lastmile_qr_scan"}, "bike_id": "9411afc9559c7e58c247148df4b13345", "lat": 38.908715666666666, "name": "9411afc9559c7e58c247148df4b13345", "lon": -77.07153066666666, "fusion_lon": 0.0}, {"is_reserved": 0, "type": "electric_scooter", "fusion_lat": 0.0, "is_disabled": 0, "rental_uris": {"ios": "https://dc.lft.to/lastmile_qr_scan", "android": "https://dc.lft.to/lastmile_qr_scan"}, "bike_id": "8b60ca67c2260b656a546f018700fa4d", "lat": 38.892373166666665, "name": "8b60ca67c2260b656a546f018700fa4d", "lon": -77.0500315, "fusion_lon": 0.0}, {"is_reserved": 0, "type": "electric_scooter", "fusion_lat": 0.0, "is_disabled": 0, "rental_uris": {"ios": "https://dc.lft.to/lastmile_qr_scan", "android": "https://dc.lft.to/lastmile_qr_scan"}, "bike_id": "a48cdf381d774624af4e33ecc39fdf1d", "lat": 38.8936125, "name": "a48cdf381d774624af4e33ecc39fdf1d", "lon": -76.941109, "fusion_lon": 0.0}, {"is_reserved": 0, "type": "electric_scooter", "fusion_lat": 0.0, "is_disabled": 0, "rental_uris": {"ios": "https://dc.lft.to/lastmile_qr_scan", "android": "https://dc.lft.to/lastmile_qr_scan"}, "bike_id": "148d39025e4ebc6c15219474f9245b25", "lat": 38.92622133333333, "name": "148d39025e4ebc6c15219474f9245b25", "lon": -77.04154033333333, "fusion_lon": 0.0}, {"is_reserved": 0, "type": "electric_scooter", "fusion_lat": 0.0, "is_disabled": 0, "rental_uris": {"ios": "https://dc.lft.to/lastmile_qr_scan", "android": "https://dc.lft.to/lastmile_qr_scan"}, "bike_id": "090de454eec9231328c110c19fd181c9", "lat": 38.921702833333335, "name": "090de454eec9231328c110c19fd181c9", "lon": -77.043649, "fusion_lon": 0.0}, {"is_reserved": 0, "type": "electric_bike", "fusion_lat": 0.0, "is_disabled": 0, "rental_uris": {"ios": "https://dc.lft.to/lastmile_qr_scan", "android": "https://dc.lft.to/lastmile_qr_scan"}, "bike_id": "3122993ff1cb8f37d5c8aafc5c695d98", "lat": 38.87176016666667, "name": "3122993ff1cb8f37d5c8aafc5c695d98", "lon": -77.23395183333334, "fusion_lon": 0.0}, {"is_reserved": 0, "type": "electric_bike", "fusion_lat": 0.0, "is_disabled": 0, "rental_uris": {"ios": "https://dc.lft.to/lastmile_qr_scan", "android": "https://dc.lft.to/lastmile_qr_scan"}, "bike_id": "b13049a9910e23bb5baa010f59491b52", "lat": 38.80738983333333, "name": "b13049a9910e23bb5baa010f59491b52", "lon": -77.09685733333333, "fusion_lon": 0.0}, {"is_reserved": 0, "type": "electric_scooter", "fusion_lat": 0.0, "is_disabled": 0, "rental_uris": {"ios": "https://dc.lft.to/lastmile_qr_scan", "android": "https://dc.lft.to/lastmile_qr_scan"}, "bike_id": "799978e0a2a9768b57c8add99530b3ee", "lat": 38.89733233333333, "name": "799978e0a2a9768b57c8add99530b3ee", "lon": -77.041593, "fusion_lon": 0.0}, {"is_reserved": 0, "type": "electric_scooter", "fusion_lat": 0.0, "is_disabled": 0, "rental_uris": {"ios": "https://dc.lft.to/lastmile_qr_scan", "android": "https://dc.lft.to/lastmile_qr_scan"}, "bike_id": "dbbd79503366eca247bc36da58d7a748", "lat": 38.8784925, "name": "dbbd79503366eca247bc36da58d7a748", "lon": -77.0057565, "fusion_lon": 0.0}, {"is_reserved": 0, "type": "electric_bike", "fusion_lat": 0.0, "is_disabled": 0, "rental_uris": {"ios": "https://dc.lft.to/lastmile_qr_scan", "android": "https://dc.lft.to/lastmile_qr_scan"}, "bike_id": "b566e43fdeab535b32aacedcdc308811", "lat": 38.915479833333336, "name": "b566e43fdeab535b32aacedcdc308811", "lon": -76.98360216666667, "fusion_lon": 0.0}, {"is_reserved": 0, "type": "electric_scooter", "fusion_lat": 0.0, "is_disabled": 0, "rental_uris": {"ios": "https://dc.lft.to/lastmile_qr_scan", "android": "https://dc.lft.to/lastmile_qr_scan"}, "bike_id": "a38c36d2a802803ba8d058bf30066682", "lat": 38.920616833333334, "name": "a38c36d2a802803ba8d058bf30066682", "lon": -77.04402983333334, "fusion_lon": 0.0}, {"is_reserved": 0, "type": "electric_scooter", "fusion_lat": 0.0, "is_disabled": 0, "rental_uris": {"ios": "https://dc.lft.to/lastmile_qr_scan", "android": "https://dc.lft.to/lastmile_qr_scan"}, "bike_id": "61ed99a855f53bb97672dafea0bcbc7e", "lat": 38.923208333333335, "name": "61ed99a855f53bb97672dafea0bcbc7e", "lon": -77.024354, "fusion_lon": 0.0}, {"is_reserved": 0, "type": "electric_scooter", "fusion_lat": 0.0, "is_disabled": 0, "rental_uris": {"ios": "https://dc.lft.to/lastmile_qr_scan", "android": "https://dc.lft.to/lastmile_qr_scan"}, "bike_id": "d98bc3d8c08b87ce817f30cb91240521", "lat": 38.920191833333334, "name": "d98bc3d8c08b87ce817f30cb91240521", "lon": -77.0713925, "fusion_lon": 0.0}, {"is_reserved": 0, "type": "electric_scooter", "fusion_lat": 0.0, "is_disabled": 0, "rental_uris": {"ios": "https://dc.lft.to/lastmile_qr_scan", "android": "https://dc.lft.to/lastmile_qr_scan"}, "bike_id": "c6476d24de316b290d4f4546e8656bbf", "lat": 38.92104916666667, "name": "c6476d24de316b290d4f4546e8656bbf", "lon": -77.04570616666666, "fusion_lon": 0.0}, {"is_reserved": 0, "type": "electric_scooter", "fusion_lat": 0.0, "is_disabled": 0, "rental_uris": {"ios": "https://dc.lft.to/lastmile_qr_scan", "android": "https://dc.lft.to/lastmile_qr_scan"}, "bike_id": "ac70aa0e89f6111ea7644cb0091ce1ca", "lat": 38.9105025, "name": "ac70aa0e89f6111ea7644cb0091ce1ca", "lon": -77.04357933333333, "fusion_lon": 0.0}, {"is_reserved": 0, "type": "electric_scooter", "fusion_lat": 0.0, "is_disabled": 0, "rental_uris": {"ios": "https://dc.lft.to/lastmile_qr_scan", "android": "https://dc.lft.to/lastmile_qr_scan"}, "bike_id": "83f69ce0f7926554c50e24a56f629703", "lat": 38.919132833333336, "name": "83f69ce0f7926554c50e24a56f629703", "lon": -77.01168466666667, "fusion_lon": 0.0}, {"is_reserved": 0, "type": "electric_scooter", "fusion_lat": 0.0, "is_disabled": 0, "rental_uris": {"ios": "https://dc.lft.to/lastmile_qr_scan", "android": "https://dc.lft.to/lastmile_qr_scan"}, "bike_id": "258617060539abf6aba1353269046f89", "lat": 38.898678, "name": "258617060539abf6aba1353269046f89", "lon": -77.046613, "fusion_lon": 0.0}, {"is_reserved": 0, "type": "electric_scooter", "fusion_lat": 0.0, "is_disabled": 0, "rental_uris": {"ios": "https://dc.lft.to/lastmile_qr_scan", "android": "https://dc.lft.to/lastmile_qr_scan"}, "bike_id": "232aa01a33767d6eb3811021f62b22b5", "lat": 38.894267, "name": "232aa01a33767d6eb3811021f62b22b5", "lon": -77.0447545, "fusion_lon": 0.0}, {"is_reserved": 0, "type": "electric_scooter", "fusion_lat": 0.0, "is_disabled": 0, "rental_uris": {"ios": "https://dc.lft.to/lastmile_qr_scan", "android": "https://dc.lft.to/lastmile_qr_scan"}, "bike_id": "38bd3c314afa037b63a7edf9645380f8", "lat": 38.927937166666666, "name": "38bd3c314afa037b63a7edf9645380f8", "lon": -77.03152216666666, "fusion_lon": 0.0}, {"is_reserved": 0, "type": "electric_scooter", "fusion_lat": 0.0, "is_disabled": 0, "rental_uris": {"ios": "https://dc.lft.to/lastmile_qr_scan", "android": "https://dc.lft.to/lastmile_qr_scan"}, "bike_id": "38850f9cd1470ab93dd7a5ec469f48fd", "lat": 38.886056333333336, "name": "38850f9cd1470ab93dd7a5ec469f48fd", "lon": -77.0033865, "fusion_lon": 0.0}, {"is_reserved": 0, "type": "electric_scooter", "fusion_lat": 0.0, "is_disabled": 0, "rental_uris": {"ios": "https://dc.lft.to/lastmile_qr_scan", "android": "https://dc.lft.to/lastmile_qr_scan"}, "bike_id": "649653e8204fe147dfaa91b028530e13", "lat": 38.87660266666666, "name": "649653e8204fe147dfaa91b028530e13", "lon": -77.00340366666667, "fusion_lon": 0.0}, {"is_reserved": 0, "type": "electric_scooter", "fusion_lat": 0.0, "is_disabled": 0, "rental_uris": {"ios": "https://dc.lft.to/lastmile_qr_scan", "android": "https://dc.lft.to/lastmile_qr_scan"}, "bike_id": "b55c6e9b66b6b89faae608bab0848c18", "lat": 38.931948, "name": "b55c6e9b66b6b89faae608bab0848c18", "lon": -77.01988316666667, "fusion_lon": 0.0}, {"is_reserved": 0, "type": "electric_scooter", "fusion_lat": 0.0, "is_disabled": 0, "rental_uris": {"ios": "https://dc.lft.to/lastmile_qr_scan", "android": "https://dc.lft.to/lastmile_qr_scan"}, "bike_id": "8980133c17642522ac561e460cc6e1e0", "lat": 38.88175, "name": "8980133c17642522ac561e460cc6e1e0", "lon": -77.01753216666667, "fusion_lon": 0.0}, {"is_reserved": 0, "type": "electric_scooter", "fusion_lat": 0.0, "is_disabled": 0, "rental_uris": {"ios": "https://dc.lft.to/lastmile_qr_scan", "android": "https://dc.lft.to/lastmile_qr_scan"}, "bike_id": "4fdb0a6fea2ccfd46caa63946952674d", "lat": 38.915648166666664, "name": "4fdb0a6fea2ccfd46caa63946952674d", "lon": -77.040952, "fusion_lon": 0.0}, {"is_reserved": 0, "type": "electric_scooter", "fusion_lat": 0.0, "is_disabled": 0, "rental_uris": {"ios": "https://dc.lft.to/lastmile_qr_scan", "android": "https://dc.lft.to/lastmile_qr_scan"}, "bike_id": "c8d35d03f04a76ff0b8bf6562112ac24", "lat": 38.913518, "name": "c8d35d03f04a76ff0b8bf6562112ac24", "lon": -77.0435325, "fusion_lon": 0.0}, {"is_reserved": 0, "type": "electric_scooter", "fusion_lat": 0.0, "is_disabled": 0, "rental_uris": {"ios": "https://dc.lft.to/lastmile_qr_scan", "android": "https://dc.lft.to/lastmile_qr_scan"}, "bike_id": "11066f07889fa100bd28986d373af60a", "lat": 38.9203865, "name": "11066f07889fa100bd28986d373af60a", "lon": -77.01967666666667, "fusion_lon": 0.0}, {"is_reserved": 0, "type": "electric_scooter", "fusion_lat": 0.0, "is_disabled": 0, "rental_uris": {"ios": "https://dc.lft.to/lastmile_qr_scan", "android": "https://dc.lft.to/lastmile_qr_scan"}, "bike_id": "e3a1c0a1a54d6521dfc9747731ca8f28", "lat": 38.8794295, "name": "e3a1c0a1a54d6521dfc9747731ca8f28", "lon": -77.01002933333334, "fusion_lon": 0.0}, {"is_reserved": 0, "type": "electric_scooter", "fusion_lat": 0.0, "is_disabled": 0, "rental_uris": {"ios": "https://dc.lft.to/lastmile_qr_scan", "android": "https://dc.lft.to/lastmile_qr_scan"}, "bike_id": "e4c84d6e15fb55efd44688ab320fe742", "lat": 38.92676316666667, "name": "e4c84d6e15fb55efd44688ab320fe742", "lon": -77.02694, "fusion_lon": 0.0}, {"is_reserved": 0, "type": "electric_scooter", "fusion_lat": 0.0, "is_disabled": 0, "rental_uris": {"ios": "https://dc.lft.to/lastmile_qr_scan", "android": "https://dc.lft.to/lastmile_qr_scan"}, "bike_id": "ea34e39f5b8266032275c04c18f756bf", "lat": 38.9073475, "name": "ea34e39f5b8266032275c04c18f756bf", "lon": -77.003653, "fusion_lon": 0.0}, {"is_reserved": 0, "type": "electric_scooter", "fusion_lat": 0.0, "is_disabled": 0, "rental_uris": {"ios": "https://dc.lft.to/lastmile_qr_scan", "android": "https://dc.lft.to/lastmile_qr_scan"}, "bike_id": "f1c630a4cc7e510aeecca227ab156a41", "lat": 38.87421833333333, "name": "f1c630a4cc7e510aeecca227ab156a41", "lon": -76.971807, "fusion_lon": 0.0}, {"is_reserved": 0, "type": "electric_scooter", "fusion_lat": 0.0, "is_disabled": 0, "rental_uris": {"ios": "https://dc.lft.to/lastmile_qr_scan", "android": "https://dc.lft.to/lastmile_qr_scan"}, "bike_id": "a5c70c45f8623f54d8dfe432151e8899", "lat": 38.90123, "name": "a5c70c45f8623f54d8dfe432151e8899", "lon": -77.04991166666667, "fusion_lon": 0.0}, {"is_reserved": 0, "type": "electric_scooter", "fusion_lat": 0.0, "is_disabled": 0, "rental_uris": {"ios": "https://dc.lft.to/lastmile_qr_scan", "android": "https://dc.lft.to/lastmile_qr_scan"}, "bike_id": "4ccb0cc33b0eccb054c7fd5f0c551f10", "lat": 38.8922475, "name": "4ccb0cc33b0eccb054c7fd5f0c551f10", "lon": -77.04369266666667, "fusion_lon": 0.0}, {"is_reserved": 0, "type": "electric_scooter", "fusion_lat": 0.0, "is_disabled": 0, "rental_uris": {"ios": "https://dc.lft.to/lastmile_qr_scan", "android": "https://dc.lft.to/lastmile_qr_scan"}, "bike_id": "68ef2dff06f59eba27327746171c62ed", "lat": 38.9340035, "name": "68ef2dff06f59eba27327746171c62ed", "lon": -77.0738505, "fusion_lon": 0.0}, {"is_reserved": 0, "type": "electric_scooter", "fusion_lat": 0.0, "is_disabled": 0, "rental_uris": {"ios": "https://dc.lft.to/lastmile_qr_scan", "android": "https://dc.lft.to/lastmile_qr_scan"}, "bike_id": "5d2bd593fef24ef99e6ee3a55c04ea65", "lat": 38.92230766666667, "name": "5d2bd593fef24ef99e6ee3a55c04ea65", "lon": -76.97533033333333, "fusion_lon": 0.0}, {"is_reserved": 0, "type": "electric_scooter", "fusion_lat": 0.0, "is_disabled": 0, "rental_uris": {"ios": "https://dc.lft.to/lastmile_qr_scan", "android": "https://dc.lft.to/lastmile_qr_scan"}, "bike_id": "2f0e380df747f179d50eb86c092af794", "lat": 38.9266495, "name": "2f0e380df747f179d50eb86c092af794", "lon": -77.02721516666666, "fusion_lon": 0.0}, {"is_reserved": 0, "type": "electric_scooter", "fusion_lat": 0.0, "is_disabled": 0, "rental_uris": {"ios": "https://dc.lft.to/lastmile_qr_scan", "android": "https://dc.lft.to/lastmile_qr_scan"}, "bike_id": "01b7df7b4954ae0bf6236ea19c3b2259", "lat": 38.900759666666666, "name": "01b7df7b4954ae0bf6236ea19c3b2259", "lon": -77.04361216666666, "fusion_lon": 0.0}, {"is_reserved": 0, "type": "electric_scooter", "fusion_lat": 0.0, "is_disabled": 0, "rental_uris": {"ios": "https://dc.lft.to/lastmile_qr_scan", "android": "https://dc.lft.to/lastmile_qr_scan"}, "bike_id": "0d31d2792a58def27d73f062bf61d22e", "lat": 38.920563666666666, "name": "0d31d2792a58def27d73f062bf61d22e", "lon": -77.03468533333333, "fusion_lon": 0.0}, {"is_reserved": 0, "type": "electric_scooter", "fusion_lat": 0.0, "is_disabled": 0, "rental_uris": {"ios": "https://dc.lft.to/lastmile_qr_scan", "android": "https://dc.lft.to/lastmile_qr_scan"}, "bike_id": "4c8862a74a146114e206407f08702cfb", "lat": 38.93858433333333, "name": "4c8862a74a146114e206407f08702cfb", "lon": -77.0782635, "fusion_lon": 0.0}, {"is_reserved": 0, "type": "electric_scooter", "fusion_lat": 0.0, "is_disabled": 0, "rental_uris": {"ios": "https://dc.lft.to/lastmile_qr_scan", "android": "https://dc.lft.to/lastmile_qr_scan"}, "bike_id": "532edee737d103e5d319acd88fa62e1e", "lat": 38.933277833333335, "name": "532edee737d103e5d319acd88fa62e1e", "lon": -77.02399383333334, "fusion_lon": 0.0}, {"is_reserved": 0, "type": "electric_scooter", "fusion_lat": 0.0, "is_disabled": 0, "rental_uris": {"ios": "https://dc.lft.to/lastmile_qr_scan", "android": "https://dc.lft.to/lastmile_qr_scan"}, "bike_id": "41919ee6bce494e32ebf6d1fc2d07ed6", "lat": 38.944898, "name": "41919ee6bce494e32ebf6d1fc2d07ed6", "lon": -77.00737916666667, "fusion_lon": 0.0}, {"is_reserved": 0, "type": "electric_scooter", "fusion_lat": 0.0, "is_disabled": 0, "rental_uris": {"ios": "https://dc.lft.to/lastmile_qr_scan", "android": "https://dc.lft.to/lastmile_qr_scan"}, "bike_id": "12573e754f2213eafa96527f08c217f6", "lat": 38.90172783333333, "name": "12573e754f2213eafa96527f08c217f6", "lon": -76.929474, "fusion_lon": 0.0}, {"is_reserved": 0, "type": "electric_scooter", "fusion_lat": 0.0, "is_disabled": 0, "rental_uris": {"ios": "https://dc.lft.to/lastmile_qr_scan", "android": "https://dc.lft.to/lastmile_qr_scan"}, "bike_id": "e9f4013caaf4123e525b9f1e558129c5", "lat": 38.9221045, "name": "e9f4013caaf4123e525b9f1e558129c5", "lon": -77.01847116666667, "fusion_lon": 0.0}, {"is_reserved": 0, "type": "electric_scooter", "fusion_lat": 0.0, "is_disabled": 0, "rental_uris": {"ios": "https://dc.lft.to/lastmile_qr_scan", "android": "https://dc.lft.to/lastmile_qr_scan"}, "bike_id": "5882926c457ac362a5aac48ecde0d19d", "lat": 38.902677, "name": "5882926c457ac362a5aac48ecde0d19d", "lon": -77.039173, "fusion_lon": 0.0}, {"is_reserved": 0, "type": "electric_scooter", "fusion_lat": 0.0, "is_disabled": 0, "rental_uris": {"ios": "https://dc.lft.to/lastmile_qr_scan", "android": "https://dc.lft.to/lastmile_qr_scan"}, "bike_id": "1f739b314b5303420f43d7921d65ece2", "lat": 38.901071, "name": "1f739b314b5303420f43d7921d65ece2", "lon": -77.0344755, "fusion_lon": 0.0}, {"is_reserved": 0, "type": "electric_scooter", "fusion_lat": 0.0, "is_disabled": 0, "rental_uris": {"ios": "https://dc.lft.to/lastmile_qr_scan", "android": "https://dc.lft.to/lastmile_qr_scan"}, "bike_id": "40979e76d713a4f44513524882a993e6", "lat": 38.89458183333333, "name": "40979e76d713a4f44513524882a993e6", "lon": -77.0273445, "fusion_lon": 0.0}, {"is_reserved": 0, "type": "electric_bike", "fusion_lat": 0.0, "is_disabled": 0, "rental_uris": {"ios": "https://dc.lft.to/lastmile_qr_scan", "android": "https://dc.lft.to/lastmile_qr_scan"}, "bike_id": "98322b01879ca05f2ec2c82cd8bab847", "lat": 38.882806, "name": "98322b01879ca05f2ec2c82cd8bab847", "lon": -76.93241266666666, "fusion_lon": 0.0}, {"is_reserved": 0, "type": "electric_scooter", "fusion_lat": 0.0, "is_disabled": 0, "rental_uris": {"ios": "https://dc.lft.to/lastmile_qr_scan", "android": "https://dc.lft.to/lastmile_qr_scan"}, "bike_id": "ae4bf203576a898aabd80153037f8b9b", "lat": 38.89226033333333, "name": "ae4bf203576a898aabd80153037f8b9b", "lon": -77.0448645, "fusion_lon": 0.0}, {"is_reserved": 0, "type": "electric_scooter", "fusion_lat": 0.0, "is_disabled": 0, "rental_uris": {"ios": "https://dc.lft.to/lastmile_qr_scan", "android": "https://dc.lft.to/lastmile_qr_scan"}, "bike_id": "271493efbe382177f4314e434de725da", "lat": 38.920306, "name": "271493efbe382177f4314e434de725da", "lon": -77.04188733333334, "fusion_lon": 0.0}, {"is_reserved": 0, "type": "electric_scooter", "fusion_lat": 0.0, "is_disabled": 0, "rental_uris": {"ios": "https://dc.lft.to/lastmile_qr_scan", "android": "https://dc.lft.to/lastmile_qr_scan"}, "bike_id": "cff0be70136bd7dd16237e389de71649", "lat": 38.9198095, "name": "cff0be70136bd7dd16237e389de71649", "lon": -77.07114366666667, "fusion_lon": 0.0}, {"is_reserved": 0, "type": "electric_scooter", "fusion_lat": 0.0, "is_disabled": 0, "rental_uris": {"ios": "https://dc.lft.to/lastmile_qr_scan", "android": "https://dc.lft.to/lastmile_qr_scan"}, "bike_id": "52c8e31d6517e354398021816a434462", "lat": 38.91256416666667, "name": "52c8e31d6517e354398021816a434462", "lon": -77.03879666666667, "fusion_lon": 0.0}, {"is_reserved": 0, "type": "electric_scooter", "fusion_lat": 0.0, "is_disabled": 0, "rental_uris": {"ios": "https://dc.lft.to/lastmile_qr_scan", "android": "https://dc.lft.to/lastmile_qr_scan"}, "bike_id": "c71da5f846ed84a91479b745c75a8aba", "lat": 38.9282285, "name": "c71da5f846ed84a91479b745c75a8aba", "lon": -77.02159966666666, "fusion_lon": 0.0}, {"is_reserved": 0, "type": "electric_scooter", "fusion_lat": 0.0, "is_disabled": 0, "rental_uris": {"ios": "https://dc.lft.to/lastmile_qr_scan", "android": "https://dc.lft.to/lastmile_qr_scan"}, "bike_id": "d3a85daea6276a7181952e26919bbc84", "lat": 38.9196155, "name": "d3a85daea6276a7181952e26919bbc84", "lon": -77.02400883333334, "fusion_lon": 0.0}, {"is_reserved": 0, "type": "electric_scooter", "fusion_lat": 0.0, "is_disabled": 0, "rental_uris": {"ios": "https://dc.lft.to/lastmile_qr_scan", "android": "https://dc.lft.to/lastmile_qr_scan"}, "bike_id": "cba8c5288693507e0dada608636433fe", "lat": 38.9308755, "name": "cba8c5288693507e0dada608636433fe", "lon": -77.03212733333334, "fusion_lon": 0.0}, {"is_reserved": 0, "type": "electric_scooter", "fusion_lat": 0.0, "is_disabled": 0, "rental_uris": {"ios": "https://dc.lft.to/lastmile_qr_scan", "android": "https://dc.lft.to/lastmile_qr_scan"}, "bike_id": "3f2a515803b674510bf138229a160d63", "lat": 38.93992883333333, "name": "3f2a515803b674510bf138229a160d63", "lon": -77.02881983333333, "fusion_lon": 0.0}, {"is_reserved": 0, "type": "electric_scooter", "fusion_lat": 0.0, "is_disabled": 0, "rental_uris": {"ios": "https://dc.lft.to/lastmile_qr_scan", "android": "https://dc.lft.to/lastmile_qr_scan"}, "bike_id": "389f2e5189f5f6d85e9949e5b62ef567", "lat": 38.87885416666667, "name": "389f2e5189f5f6d85e9949e5b62ef567", "lon": -76.965404, "fusion_lon": 0.0}, {"is_reserved": 0, "type": "electric_scooter", "fusion_lat": 0.0, "is_disabled": 0, "rental_uris": {"ios": "https://dc.lft.to/lastmile_qr_scan", "android": "https://dc.lft.to/lastmile_qr_scan"}, "bike_id": "6c399b7d96995df2e01b2a68873b5d79", "lat": 38.90184416666666, "name": "6c399b7d96995df2e01b2a68873b5d79", "lon": -76.97672316666667, "fusion_lon": 0.0}, {"is_reserved": 0, "type": "electric_scooter", "fusion_lat": 0.0, "is_disabled": 0, "rental_uris": {"ios": "https://dc.lft.to/lastmile_qr_scan", "android": "https://dc.lft.to/lastmile_qr_scan"}, "bike_id": "ed501956a7704b161207401695caad26", "lat": 38.899345, "name": "ed501956a7704b161207401695caad26", "lon": -76.93764566666667, "fusion_lon": 0.0}, {"is_reserved": 0, "type": "electric_scooter", "fusion_lat": 0.0, "is_disabled": 0, "rental_uris": {"ios": "https://dc.lft.to/lastmile_qr_scan", "android": "https://dc.lft.to/lastmile_qr_scan"}, "bike_id": "b35d2dbeb8cf966de95b9b0df3072869", "lat": 38.928542, "name": "b35d2dbeb8cf966de95b9b0df3072869", "lon": -77.01423633333333, "fusion_lon": 0.0}, {"is_reserved": 0, "type": "electric_bike", "fusion_lat": 0.0, "is_disabled": 0, "rental_uris": {"ios": "https://dc.lft.to/lastmile_qr_scan", "android": "https://dc.lft.to/lastmile_qr_scan"}, "bike_id": "4b650fa1b0e221e0db3cc07cceb82014", "lat": 39.03476466666667, "name": "4b650fa1b0e221e0db3cc07cceb82014", "lon": -77.04106333333333, "fusion_lon": 0.0}, {"is_reserved": 0, "type": "electric_scooter", "fusion_lat": 0.0, "is_disabled": 0, "rental_uris": {"ios": "https://dc.lft.to/lastmile_qr_scan", "android": "https://dc.lft.to/lastmile_qr_scan"}, "bike_id": "aab741709fb4fa95667b1c447cf4146a", "lat": 38.910082, "name": "aab741709fb4fa95667b1c447cf4146a", "lon": -77.044245, "fusion_lon": 0.0}, {"is_reserved": 0, "type": "electric_scooter", "fusion_lat": 0.0, "is_disabled": 0, "rental_uris": {"ios": "https://dc.lft.to/lastmile_qr_scan", "android": "https://dc.lft.to/lastmile_qr_scan"}, "bike_id": "4c468f7700cc11cd661749282b2ca09d", "lat": 38.9077415, "name": "4c468f7700cc11cd661749282b2ca09d", "lon": -77.023981, "fusion_lon": 0.0}, {"is_reserved": 0, "type": "electric_scooter", "fusion_lat": 0.0, "is_disabled": 0, "rental_uris": {"ios": "https://dc.lft.to/lastmile_qr_scan", "android": "https://dc.lft.to/lastmile_qr_scan"}, "bike_id": "63b27f36ec5aab57dfd289943aca9a9c", "lat": 38.9207015, "name": "63b27f36ec5aab57dfd289943aca9a9c", "lon": -77.04377166666667, "fusion_lon": 0.0}, {"is_reserved": 0, "type": "electric_scooter", "fusion_lat": 0.0, "is_disabled": 0, "rental_uris": {"ios": "https://dc.lft.to/lastmile_qr_scan", "android": "https://dc.lft.to/lastmile_qr_scan"}, "bike_id": "da571ad4b7fb938ca7501fadc5eec768", "lat": 38.903016, "name": "da571ad4b7fb938ca7501fadc5eec768", "lon": -76.998417, "fusion_lon": 0.0}, {"is_reserved": 0, "type": "electric_scooter", "fusion_lat": 0.0, "is_disabled": 0, "rental_uris": {"ios": "https://dc.lft.to/lastmile_qr_scan", "android": "https://dc.lft.to/lastmile_qr_scan"}, "bike_id": "e2a685585844e184d495c6e0828dbdb1", "lat": 38.92483633333333, "name": "e2a685585844e184d495c6e0828dbdb1", "lon": -77.02552066666667, "fusion_lon": 0.0}, {"is_reserved": 0, "type": "electric_scooter", "fusion_lat": 0.0, "is_disabled": 0, "rental_uris": {"ios": "https://dc.lft.to/lastmile_qr_scan", "android": "https://dc.lft.to/lastmile_qr_scan"}, "bike_id": "5ee9d964e4fd24a49fb8095663c848b1", "lat": 38.88008033333333, "name": "5ee9d964e4fd24a49fb8095663c848b1", "lon": -76.99835533333334, "fusion_lon": 0.0}, {"is_reserved": 0, "type": "electric_scooter", "fusion_lat": 0.0, "is_disabled": 0, "rental_uris": {"ios": "https://dc.lft.to/lastmile_qr_scan", "android": "https://dc.lft.to/lastmile_qr_scan"}, "bike_id": "19a429730175197b995bcb1581f5060c", "lat": 38.895078833333336, "name": "19a429730175197b995bcb1581f5060c", "lon": -76.94885166666667, "fusion_lon": 0.0}, {"is_reserved": 0, "type": "electric_scooter", "fusion_lat": 0.0, "is_disabled": 0, "rental_uris": {"ios": "https://dc.lft.to/lastmile_qr_scan", "android": "https://dc.lft.to/lastmile_qr_scan"}, "bike_id": "a96d5e6b98d29911ba4df28d1144c8af", "lat": 38.940019166666666, "name": "a96d5e6b98d29911ba4df28d1144c8af", "lon": -77.077391, "fusion_lon": 0.0}, {"is_reserved": 0, "type": "electric_scooter", "fusion_lat": 0.0, "is_disabled": 0, "rental_uris": {"ios": "https://dc.lft.to/lastmile_qr_scan", "android": "https://dc.lft.to/lastmile_qr_scan"}, "bike_id": "71cf4806f0cdf8976d48849790b9781c", "lat": 38.903641, "name": "71cf4806f0cdf8976d48849790b9781c", "lon": -76.97817783333333, "fusion_lon": 0.0}, {"is_reserved": 0, "type": "electric_scooter", "fusion_lat": 0.0, "is_disabled": 0, "rental_uris": {"ios": "https://dc.lft.to/lastmile_qr_scan", "android": "https://dc.lft.to/lastmile_qr_scan"}, "bike_id": "261f783e9a6af4aff439b051252697e3", "lat": 38.93005083333333, "name": "261f783e9a6af4aff439b051252697e3", "lon": -77.02117066666666, "fusion_lon": 0.0}, {"is_reserved": 0, "type": "electric_scooter", "fusion_lat": 0.0, "is_disabled": 0, "rental_uris": {"ios": "https://dc.lft.to/lastmile_qr_scan", "android": "https://dc.lft.to/lastmile_qr_scan"}, "bike_id": "cc0d85f0679f00a55b9e89f9ad75c835", "lat": 38.952247, "name": "cc0d85f0679f00a55b9e89f9ad75c835", "lon": -77.06891466666667, "fusion_lon": 0.0}, {"is_reserved": 0, "type": "electric_scooter", "fusion_lat": 0.0, "is_disabled": 0, "rental_uris": {"ios": "https://dc.lft.to/lastmile_qr_scan", "android": "https://dc.lft.to/lastmile_qr_scan"}, "bike_id": "f35b7c4671d27845e9840edb80eaa08b", "lat": 38.9432605, "name": "f35b7c4671d27845e9840edb80eaa08b", "lon": -77.01312466666667, "fusion_lon": 0.0}, {"is_reserved": 0, "type": "electric_scooter", "fusion_lat": 0.0, "is_disabled": 0, "rental_uris": {"ios": "https://dc.lft.to/lastmile_qr_scan", "android": "https://dc.lft.to/lastmile_qr_scan"}, "bike_id": "427e91dbd9e47aa0e06e43e8f523a4c7", "lat": 38.8999425, "name": "427e91dbd9e47aa0e06e43e8f523a4c7", "lon": -77.025832, "fusion_lon": 0.0}, {"is_reserved": 0, "type": "electric_scooter", "fusion_lat": 0.0, "is_disabled": 0, "rental_uris": {"ios": "https://dc.lft.to/lastmile_qr_scan", "android": "https://dc.lft.to/lastmile_qr_scan"}, "bike_id": "00738000d19e8efa8bf51ad98641b965", "lat": 38.9369805, "name": "00738000d19e8efa8bf51ad98641b965", "lon": -77.05600933333334, "fusion_lon": 0.0}, {"is_reserved": 0, "type": "electric_scooter", "fusion_lat": 0.0, "is_disabled": 0, "rental_uris": {"ios": "https://dc.lft.to/lastmile_qr_scan", "android": "https://dc.lft.to/lastmile_qr_scan"}, "bike_id": "aabdd8aa47a1c211a11f7a13b2a50fe1", "lat": 38.89328916666667, "name": "aabdd8aa47a1c211a11f7a13b2a50fe1", "lon": -76.9392695, "fusion_lon": 0.0}, {"is_reserved": 0, "type": "electric_scooter", "fusion_lat": 0.0, "is_disabled": 0, "rental_uris": {"ios": "https://dc.lft.to/lastmile_qr_scan", "android": "https://dc.lft.to/lastmile_qr_scan"}, "bike_id": "204d78aba9493ec9103e255fbabb85a6", "lat": 38.912661, "name": "204d78aba9493ec9103e255fbabb85a6", "lon": -77.01017333333333, "fusion_lon": 0.0}, {"is_reserved": 0, "type": "electric_scooter", "fusion_lat": 0.0, "is_disabled": 0, "rental_uris": {"ios": "https://dc.lft.to/lastmile_qr_scan", "android": "https://dc.lft.to/lastmile_qr_scan"}, "bike_id": "7ba5340c5be8c05efcf038699774c0b3", "lat": 38.90859733333333, "name": "7ba5340c5be8c05efcf038699774c0b3", "lon": -77.04169166666667, "fusion_lon": 0.0}, {"is_reserved": 0, "type": "electric_scooter", "fusion_lat": 0.0, "is_disabled": 0, "rental_uris": {"ios": "https://dc.lft.to/lastmile_qr_scan", "android": "https://dc.lft.to/lastmile_qr_scan"}, "bike_id": "d6eee99f41460a2ad616973fd8dc3bb3", "lat": 38.885838166666666, "name": "d6eee99f41460a2ad616973fd8dc3bb3", "lon": -77.01227683333333, "fusion_lon": 0.0}, {"is_reserved": 0, "type": "electric_bike", "fusion_lat": 0.0, "is_disabled": 0, "rental_uris": {"ios": "https://dc.lft.to/lastmile_qr_scan", "android": "https://dc.lft.to/lastmile_qr_scan"}, "bike_id": "03804f4538ea990a62e4da5344fde015", "lat": 38.956896, "name": "03804f4538ea990a62e4da5344fde015", "lon": -77.02234133333333, "fusion_lon": 0.0}, {"is_reserved": 0, "type": "electric_scooter", "fusion_lat": 0.0, "is_disabled": 0, "rental_uris": {"ios": "https://dc.lft.to/lastmile_qr_scan", "android": "https://dc.lft.to/lastmile_qr_scan"}, "bike_id": "016a1e210e6d1c35b741b23d46b0a576", "lat": 38.9525695, "name": "016a1e210e6d1c35b741b23d46b0a576", "lon": -77.02074783333333, "fusion_lon": 0.0}, {"is_reserved": 0, "type": "electric_scooter", "fusion_lat": 0.0, "is_disabled": 0, "rental_uris": {"ios": "https://dc.lft.to/lastmile_qr_scan", "android": "https://dc.lft.to/lastmile_qr_scan"}, "bike_id": "2038497282b8f4152e5162a9f9cd4f9b", "lat": 38.92359166666667, "name": "2038497282b8f4152e5162a9f9cd4f9b", "lon": -77.0524165, "fusion_lon": 0.0}, {"is_reserved": 0, "type": "electric_scooter", "fusion_lat": 0.0, "is_disabled": 0, "rental_uris": {"ios": "https://dc.lft.to/lastmile_qr_scan", "android": "https://dc.lft.to/lastmile_qr_scan"}, "bike_id": "875885009ba2bb1a5c73dd2af84979d0", "lat": 38.91562066666667, "name": "875885009ba2bb1a5c73dd2af84979d0", "lon": -77.04009716666667, "fusion_lon": 0.0}, {"is_reserved": 0, "type": "electric_scooter", "fusion_lat": 0.0, "is_disabled": 0, "rental_uris": {"ios": "https://dc.lft.to/lastmile_qr_scan", "android": "https://dc.lft.to/lastmile_qr_scan"}, "bike_id": "7aa00fdd38960e15b39ab8d13dfc8b09", "lat": 38.8991075, "name": "7aa00fdd38960e15b39ab8d13dfc8b09", "lon": -77.02311633333333, "fusion_lon": 0.0}, {"is_reserved": 0, "type": "electric_scooter", "fusion_lat": 0.0, "is_disabled": 0, "rental_uris": {"ios": "https://dc.lft.to/lastmile_qr_scan", "android": "https://dc.lft.to/lastmile_qr_scan"}, "bike_id": "ae8fbc4ba9d5ac5c4b313eac458123a0", "lat": 38.912803833333335, "name": "ae8fbc4ba9d5ac5c4b313eac458123a0", "lon": -77.03661033333333, "fusion_lon": 0.0}, {"is_reserved": 0, "type": "electric_bike", "fusion_lat": 0.0, "is_disabled": 0, "rental_uris": {"ios": "https://dc.lft.to/lastmile_qr_scan", "android": "https://dc.lft.to/lastmile_qr_scan"}, "bike_id": "fd9da66ad460706d00e0a871a88571b1", "lat": 38.87666983333333, "name": "fd9da66ad460706d00e0a871a88571b1", "lon": -77.01451233333333, "fusion_lon": 0.0}, {"is_reserved": 0, "type": "electric_scooter", "fusion_lat": 0.0, "is_disabled": 0, "rental_uris": {"ios": "https://dc.lft.to/lastmile_qr_scan", "android": "https://dc.lft.to/lastmile_qr_scan"}, "bike_id": "35d70bde356a670d699cf6c5772e3933", "lat": 38.904114, "name": "35d70bde356a670d699cf6c5772e3933", "lon": -76.97332866666666, "fusion_lon": 0.0}, {"is_reserved": 0, "type": "electric_scooter", "fusion_lat": 0.0, "is_disabled": 0, "rental_uris": {"ios": "https://dc.lft.to/lastmile_qr_scan", "android": "https://dc.lft.to/lastmile_qr_scan"}, "bike_id": "6f5e75553df93e949b14e20e3b4b4379", "lat": 38.9676125, "name": "6f5e75553df93e949b14e20e3b4b4379", "lon": -77.03425016666667, "fusion_lon": 0.0}, {"is_reserved": 0, "type": "electric_scooter", "fusion_lat": 0.0, "is_disabled": 0, "rental_uris": {"ios": "https://dc.lft.to/lastmile_qr_scan", "android": "https://dc.lft.to/lastmile_qr_scan"}, "bike_id": "0ba603e10e1e62c13283059b1e53451a", "lat": 38.90947466666667, "name": "0ba603e10e1e62c13283059b1e53451a", "lon": -77.01530166666667, "fusion_lon": 0.0}, {"is_reserved": 0, "type": "electric_scooter", "fusion_lat": 0.0, "is_disabled": 0, "rental_uris": {"ios": "https://dc.lft.to/lastmile_qr_scan", "android": "https://dc.lft.to/lastmile_qr_scan"}, "bike_id": "634da2d68af922d5f4d597151c5d35ae", "lat": 38.9275155, "name": "634da2d68af922d5f4d597151c5d35ae", "lon": -77.02375233333333, "fusion_lon": 0.0}, {"is_reserved": 0, "type": "electric_bike", "fusion_lat": 0.0, "is_disabled": 0, "rental_uris": {"ios": "https://dc.lft.to/lastmile_qr_scan", "android": "https://dc.lft.to/lastmile_qr_scan"}, "bike_id": "a9ac3532d03545aaf7183bb782fbe741", "lat": 38.815436166666665, "name": "a9ac3532d03545aaf7183bb782fbe741", "lon": -77.04648133333333, "fusion_lon": 0.0}, {"is_reserved": 0, "type": "electric_scooter", "fusion_lat": 0.0, "is_disabled": 0, "rental_uris": {"ios": "https://dc.lft.to/lastmile_qr_scan", "android": "https://dc.lft.to/lastmile_qr_scan"}, "bike_id": "b126a2d27651624b0bfa19857a080025", "lat": 38.930240166666664, "name": "b126a2d27651624b0bfa19857a080025", "lon": -77.03786733333334, "fusion_lon": 0.0}, {"is_reserved": 0, "type": "electric_scooter", "fusion_lat": 0.0, "is_disabled": 0, "rental_uris": {"ios": "https://dc.lft.to/lastmile_qr_scan", "android": "https://dc.lft.to/lastmile_qr_scan"}, "bike_id": "95c8a1dc8aa64f1934e2095af5e5ea75", "lat": 38.917104, "name": "95c8a1dc8aa64f1934e2095af5e5ea75", "lon": -77.04593983333334, "fusion_lon": 0.0}, {"is_reserved": 0, "type": "electric_scooter", "fusion_lat": 0.0, "is_disabled": 0, "rental_uris": {"ios": "https://dc.lft.to/lastmile_qr_scan", "android": "https://dc.lft.to/lastmile_qr_scan"}, "bike_id": "8852bddb8eeb3daf767aaf76311b3b07", "lat": 38.90689966666667, "name": "8852bddb8eeb3daf767aaf76311b3b07", "lon": -77.0271515, "fusion_lon": 0.0}, {"is_reserved": 0, "type": "electric_scooter", "fusion_lat": 0.0, "is_disabled": 0, "rental_uris": {"ios": "https://dc.lft.to/lastmile_qr_scan", "android": "https://dc.lft.to/lastmile_qr_scan"}, "bike_id": "bbfc084c980eed6a8e560eb6c416e1d0", "lat": 38.90036466666667, "name": "bbfc084c980eed6a8e560eb6c416e1d0", "lon": -77.05034066666667, "fusion_lon": 0.0}, {"is_reserved": 0, "type": "electric_scooter", "fusion_lat": 0.0, "is_disabled": 0, "rental_uris": {"ios": "https://dc.lft.to/lastmile_qr_scan", "android": "https://dc.lft.to/lastmile_qr_scan"}, "bike_id": "4705c0cd6a58b391b23fe884a26bd6b3", "lat": 38.91715083333333, "name": "4705c0cd6a58b391b23fe884a26bd6b3", "lon": -77.03862316666667, "fusion_lon": 0.0}, {"is_reserved": 0, "type": "electric_scooter", "fusion_lat": 0.0, "is_disabled": 0, "rental_uris": {"ios": "https://dc.lft.to/lastmile_qr_scan", "android": "https://dc.lft.to/lastmile_qr_scan"}, "bike_id": "d77595c37f1d45a49a6583d61c4697ca", "lat": 38.930076166666666, "name": "d77595c37f1d45a49a6583d61c4697ca", "lon": -77.04047866666667, "fusion_lon": 0.0}, {"is_reserved": 0, "type": "electric_scooter", "fusion_lat": 0.0, "is_disabled": 0, "rental_uris": {"ios": "https://dc.lft.to/lastmile_qr_scan", "android": "https://dc.lft.to/lastmile_qr_scan"}, "bike_id": "d7003f49c12227dd27e774e7c49b4695", "lat": 38.92381616666667, "name": "d7003f49c12227dd27e774e7c49b4695", "lon": -77.0411625, "fusion_lon": 0.0}, {"is_reserved": 0, "type": "electric_scooter", "fusion_lat": 0.0, "is_disabled": 0, "rental_uris": {"ios": "https://dc.lft.to/lastmile_qr_scan", "android": "https://dc.lft.to/lastmile_qr_scan"}, "bike_id": "b2e1133d9871ad6ee5ba53bb502b6b75", "lat": 38.9095215, "name": "b2e1133d9871ad6ee5ba53bb502b6b75", "lon": -76.9957675, "fusion_lon": 0.0}, {"is_reserved": 0, "type": "electric_scooter", "fusion_lat": 0.0, "is_disabled": 0, "rental_uris": {"ios": "https://dc.lft.to/lastmile_qr_scan", "android": "https://dc.lft.to/lastmile_qr_scan"}, "bike_id": "ca9cb02c64a2e745b10c8a6369655324", "lat": 38.924874, "name": "ca9cb02c64a2e745b10c8a6369655324", "lon": -77.021377, "fusion_lon": 0.0}, {"is_reserved": 0, "type": "electric_scooter", "fusion_lat": 0.0, "is_disabled": 0, "rental_uris": {"ios": "https://dc.lft.to/lastmile_qr_scan", "android": "https://dc.lft.to/lastmile_qr_scan"}, "bike_id": "91304ab454a402e45a9c6a710e5ccd38", "lat": 38.908294, "name": "91304ab454a402e45a9c6a710e5ccd38", "lon": -77.043682, "fusion_lon": 0.0}, {"is_reserved": 0, "type": "electric_scooter", "fusion_lat": 0.0, "is_disabled": 0, "rental_uris": {"ios": "https://dc.lft.to/lastmile_qr_scan", "android": "https://dc.lft.to/lastmile_qr_scan"}, "bike_id": "c0d2859691bce3de0a7a6979b2f0d68b", "lat": 38.90616883333333, "name": "c0d2859691bce3de0a7a6979b2f0d68b", "lon": -77.00927216666666, "fusion_lon": 0.0}, {"is_reserved": 0, "type": "electric_scooter", "fusion_lat": 0.0, "is_disabled": 0, "rental_uris": {"ios": "https://dc.lft.to/lastmile_qr_scan", "android": "https://dc.lft.to/lastmile_qr_scan"}, "bike_id": "ab3f781b2423f18c27ff2616e3c80339", "lat": 38.932621, "name": "ab3f781b2423f18c27ff2616e3c80339", "lon": -77.03263383333334, "fusion_lon": 0.0}, {"is_reserved": 0, "type": "electric_scooter", "fusion_lat": 0.0, "is_disabled": 0, "rental_uris": {"ios": "https://dc.lft.to/lastmile_qr_scan", "android": "https://dc.lft.to/lastmile_qr_scan"}, "bike_id": "fe1d99da4a4c9d5aff55acbb27e13e4b", "lat": 38.92571566666667, "name": "fe1d99da4a4c9d5aff55acbb27e13e4b", "lon": -77.029866, "fusion_lon": 0.0}, {"is_reserved": 0, "type": "electric_bike", "fusion_lat": 0.0, "is_disabled": 0, "rental_uris": {"ios": "https://dc.lft.to/lastmile_qr_scan", "android": "https://dc.lft.to/lastmile_qr_scan"}, "bike_id": "a981ab79a514709bfd40ddd188f865a0", "lat": 38.850627833333334, "name": "a981ab79a514709bfd40ddd188f865a0", "lon": -76.95831483333333, "fusion_lon": 0.0}, {"is_reserved": 0, "type": "electric_scooter", "fusion_lat": 0.0, "is_disabled": 0, "rental_uris": {"ios": "https://dc.lft.to/lastmile_qr_scan", "android": "https://dc.lft.to/lastmile_qr_scan"}, "bike_id": "03d38a40cd7bbdc94e1f2a6ee89caf58", "lat": 38.930988166666666, "name": "03d38a40cd7bbdc94e1f2a6ee89caf58", "lon": -77.02474666666667, "fusion_lon": 0.0}, {"is_reserved": 0, "type": "electric_scooter", "fusion_lat": 0.0, "is_disabled": 0, "rental_uris": {"ios": "https://dc.lft.to/lastmile_qr_scan", "android": "https://dc.lft.to/lastmile_qr_scan"}, "bike_id": "cb04827abf574bb25904b8529681c842", "lat": 38.86079133333333, "name": "cb04827abf574bb25904b8529681c842", "lon": -76.98377716666667, "fusion_lon": 0.0}, {"is_reserved": 0, "type": "electric_scooter", "fusion_lat": 0.0, "is_disabled": 0, "rental_uris": {"ios": "https://dc.lft.to/lastmile_qr_scan", "android": "https://dc.lft.to/lastmile_qr_scan"}, "bike_id": "ca6252b791a9230988711b8a8a8d71b6", "lat": 38.885807666666665, "name": "ca6252b791a9230988711b8a8a8d71b6", "lon": -77.01215166666667, "fusion_lon": 0.0}, {"is_reserved": 0, "type": "electric_scooter", "fusion_lat": 0.0, "is_disabled": 0, "rental_uris": {"ios": "https://dc.lft.to/lastmile_qr_scan", "android": "https://dc.lft.to/lastmile_qr_scan"}, "bike_id": "6b96b606ee459bacf5129ae1ea02f56e", "lat": 38.896440166666665, "name": "6b96b606ee459bacf5129ae1ea02f56e", "lon": -77.04649733333333, "fusion_lon": 0.0}, {"is_reserved": 0, "type": "electric_scooter", "fusion_lat": 0.0, "is_disabled": 0, "rental_uris": {"ios": "https://dc.lft.to/lastmile_qr_scan", "android": "https://dc.lft.to/lastmile_qr_scan"}, "bike_id": "fdbbf0f6bc7a7c02fba1020cb1582af6", "lat": 38.90435816666667, "name": "fdbbf0f6bc7a7c02fba1020cb1582af6", "lon": -76.9973125, "fusion_lon": 0.0}, {"is_reserved": 0, "type": "electric_scooter", "fusion_lat": 0.0, "is_disabled": 0, "rental_uris": {"ios": "https://dc.lft.to/lastmile_qr_scan", "android": "https://dc.lft.to/lastmile_qr_scan"}, "bike_id": "f07b4c870905f6af218ea2894210f089", "lat": 38.9260805, "name": "f07b4c870905f6af218ea2894210f089", "lon": -77.0241395, "fusion_lon": 0.0}, {"is_reserved": 0, "type": "electric_scooter", "fusion_lat": 0.0, "is_disabled": 0, "rental_uris": {"ios": "https://dc.lft.to/lastmile_qr_scan", "android": "https://dc.lft.to/lastmile_qr_scan"}, "bike_id": "50f88be957931ad0134400147312302c", "lat": 38.887157333333334, "name": "50f88be957931ad0134400147312302c", "lon": -76.98380983333334, "fusion_lon": 0.0}, {"is_reserved": 0, "type": "electric_scooter", "fusion_lat": 0.0, "is_disabled": 0, "rental_uris": {"ios": "https://dc.lft.to/lastmile_qr_scan", "android": "https://dc.lft.to/lastmile_qr_scan"}, "bike_id": "e701ad7a85a817965d7aa3dfb60c84b8", "lat": 38.8769265, "name": "e701ad7a85a817965d7aa3dfb60c84b8", "lon": -76.9962755, "fusion_lon": 0.0}, {"is_reserved": 0, "type": "electric_scooter", "fusion_lat": 0.0, "is_disabled": 0, "rental_uris": {"ios": "https://dc.lft.to/lastmile_qr_scan", "android": "https://dc.lft.to/lastmile_qr_scan"}, "bike_id": "085dbec7eced053e94c4effb24703111", "lat": 38.91674783333333, "name": "085dbec7eced053e94c4effb24703111", "lon": -77.015692, "fusion_lon": 0.0}, {"is_reserved": 0, "type": "electric_scooter", "fusion_lat": 0.0, "is_disabled": 0, "rental_uris": {"ios": "https://dc.lft.to/lastmile_qr_scan", "android": "https://dc.lft.to/lastmile_qr_scan"}, "bike_id": "00c3e5920b6900cc9e463b7224d3e618", "lat": 38.89054733333333, "name": "00c3e5920b6900cc9e463b7224d3e618", "lon": -76.99194716666666, "fusion_lon": 0.0}, {"is_reserved": 0, "type": "electric_scooter", "fusion_lat": 0.0, "is_disabled": 0, "rental_uris": {"ios": "https://dc.lft.to/lastmile_qr_scan", "android": "https://dc.lft.to/lastmile_qr_scan"}, "bike_id": "cd2d1ec2cfeaec40c2fdbb9898ad4b5a", "lat": 38.9018525, "name": "cd2d1ec2cfeaec40c2fdbb9898ad4b5a", "lon": -76.97670733333334, "fusion_lon": 0.0}, {"is_reserved": 0, "type": "electric_scooter", "fusion_lat": 0.0, "is_disabled": 0, "rental_uris": {"ios": "https://dc.lft.to/lastmile_qr_scan", "android": "https://dc.lft.to/lastmile_qr_scan"}, "bike_id": "68403d5ba666f45e90780a151b9a7afa", "lat": 38.93083883333333, "name": "68403d5ba666f45e90780a151b9a7afa", "lon": -77.0268275, "fusion_lon": 0.0}, {"is_reserved": 0, "type": "electric_scooter", "fusion_lat": 0.0, "is_disabled": 0, "rental_uris": {"ios": "https://dc.lft.to/lastmile_qr_scan", "android": "https://dc.lft.to/lastmile_qr_scan"}, "bike_id": "81a3c7ad150b150e479a32f0fb2ef67c", "lat": 38.87922583333334, "name": "81a3c7ad150b150e479a32f0fb2ef67c", "lon": -77.01702783333333, "fusion_lon": 0.0}, {"is_reserved": 0, "type": "electric_scooter", "fusion_lat": 0.0, "is_disabled": 0, "rental_uris": {"ios": "https://dc.lft.to/lastmile_qr_scan", "android": "https://dc.lft.to/lastmile_qr_scan"}, "bike_id": "f7d0f973fa9d00621fa7bdf32c56330f", "lat": 38.91549216666667, "name": "f7d0f973fa9d00621fa7bdf32c56330f", "lon": -77.03850633333333, "fusion_lon": 0.0}, {"is_reserved": 0, "type": "electric_scooter", "fusion_lat": 0.0, "is_disabled": 0, "rental_uris": {"ios": "https://dc.lft.to/lastmile_qr_scan", "android": "https://dc.lft.to/lastmile_qr_scan"}, "bike_id": "88b4ef720145447e877038066b907e8e", "lat": 38.93250466666667, "name": "88b4ef720145447e877038066b907e8e", "lon": -77.0327755, "fusion_lon": 0.0}, {"is_reserved": 0, "type": "electric_scooter", "fusion_lat": 0.0, "is_disabled": 0, "rental_uris": {"ios": "https://dc.lft.to/lastmile_qr_scan", "android": "https://dc.lft.to/lastmile_qr_scan"}, "bike_id": "45fba6e64246ba3042a14d22cbfc4bca", "lat": 38.873795333333334, "name": "45fba6e64246ba3042a14d22cbfc4bca", "lon": -77.0012995, "fusion_lon": 0.0}, {"is_reserved": 0, "type": "electric_scooter", "fusion_lat": 0.0, "is_disabled": 0, "rental_uris": {"ios": "https://dc.lft.to/lastmile_qr_scan", "android": "https://dc.lft.to/lastmile_qr_scan"}, "bike_id": "2e92e104bf0eac684d58cdb05e7cb3fd", "lat": 38.92856583333333, "name": "2e92e104bf0eac684d58cdb05e7cb3fd", "lon": -77.01413083333334, "fusion_lon": 0.0}, {"is_reserved": 0, "type": "electric_bike", "fusion_lat": 0.0, "is_disabled": 0, "rental_uris": {"ios": "https://dc.lft.to/lastmile_qr_scan", "android": "https://dc.lft.to/lastmile_qr_scan"}, "bike_id": "f377ba5d43dbbb6d5398bc9d44cd3e5d", "lat": 38.86438116666667, "name": "f377ba5d43dbbb6d5398bc9d44cd3e5d", "lon": -76.96996166666666, "fusion_lon": 0.0}, {"is_reserved": 0, "type": "electric_scooter", "fusion_lat": 0.0, "is_disabled": 0, "rental_uris": {"ios": "https://dc.lft.to/lastmile_qr_scan", "android": "https://dc.lft.to/lastmile_qr_scan"}, "bike_id": "77bf66f7bd1f9e0ab83a4320dd77d05e", "lat": 38.9169415, "name": "77bf66f7bd1f9e0ab83a4320dd77d05e", "lon": -77.00498083333333, "fusion_lon": 0.0}, {"is_reserved": 0, "type": "electric_scooter", "fusion_lat": 0.0, "is_disabled": 0, "rental_uris": {"ios": "https://dc.lft.to/lastmile_qr_scan", "android": "https://dc.lft.to/lastmile_qr_scan"}, "bike_id": "9b6748884e9bbe3faa0fca5185ab5b39", "lat": 38.9055275, "name": "9b6748884e9bbe3faa0fca5185ab5b39", "lon": -77.006647, "fusion_lon": 0.0}, {"is_reserved": 0, "type": "electric_scooter", "fusion_lat": 0.0, "is_disabled": 0, "rental_uris": {"ios": "https://dc.lft.to/lastmile_qr_scan", "android": "https://dc.lft.to/lastmile_qr_scan"}, "bike_id": "33534d7627ef4a11012f46bebce58f88", "lat": 38.878558166666664, "name": "33534d7627ef4a11012f46bebce58f88", "lon": -77.00703733333333, "fusion_lon": 0.0}, {"is_reserved": 0, "type": "electric_scooter", "fusion_lat": 0.0, "is_disabled": 0, "rental_uris": {"ios": "https://dc.lft.to/lastmile_qr_scan", "android": "https://dc.lft.to/lastmile_qr_scan"}, "bike_id": "8ceeda525fd7b028a31b03b1864565fc", "lat": 38.9210445, "name": "8ceeda525fd7b028a31b03b1864565fc", "lon": -77.04707983333333, "fusion_lon": 0.0}, {"is_reserved": 0, "type": "electric_scooter", "fusion_lat": 0.0, "is_disabled": 0, "rental_uris": {"ios": "https://dc.lft.to/lastmile_qr_scan", "android": "https://dc.lft.to/lastmile_qr_scan"}, "bike_id": "c36b6815691923dfc742f2075024fef5", "lat": 38.929698333333334, "name": "c36b6815691923dfc742f2075024fef5", "lon": -77.0234435, "fusion_lon": 0.0}, {"is_reserved": 0, "type": "electric_scooter", "fusion_lat": 0.0, "is_disabled": 0, "rental_uris": {"ios": "https://dc.lft.to/lastmile_qr_scan", "android": "https://dc.lft.to/lastmile_qr_scan"}, "bike_id": "3090ba2b720f5598f0e2094292247129", "lat": 38.914718666666666, "name": "3090ba2b720f5598f0e2094292247129", "lon": -77.009224, "fusion_lon": 0.0}, {"is_reserved": 0, "type": "electric_scooter", "fusion_lat": 0.0, "is_disabled": 0, "rental_uris": {"ios": "https://dc.lft.to/lastmile_qr_scan", "android": "https://dc.lft.to/lastmile_qr_scan"}, "bike_id": "8570ae966771a9d25d2b5c9f392b24fd", "lat": 38.8985235, "name": "8570ae966771a9d25d2b5c9f392b24fd", "lon": -76.99482616666667, "fusion_lon": 0.0}, {"is_reserved": 0, "type": "electric_scooter", "fusion_lat": 0.0, "is_disabled": 0, "rental_uris": {"ios": "https://dc.lft.to/lastmile_qr_scan", "android": "https://dc.lft.to/lastmile_qr_scan"}, "bike_id": "e404b6160f75c1b4b7aac77877e74e3e", "lat": 38.897762666666665, "name": "e404b6160f75c1b4b7aac77877e74e3e", "lon": -77.0122275, "fusion_lon": 0.0}, {"is_reserved": 0, "type": "electric_scooter", "fusion_lat": 0.0, "is_disabled": 0, "rental_uris": {"ios": "https://dc.lft.to/lastmile_qr_scan", "android": "https://dc.lft.to/lastmile_qr_scan"}, "bike_id": "9f00248f7fde654cb5318753b57d2948", "lat": 38.9146105, "name": "9f00248f7fde654cb5318753b57d2948", "lon": -77.0228485, "fusion_lon": 0.0}, {"is_reserved": 0, "type": "electric_bike", "fusion_lat": 0.0, "is_disabled": 0, "rental_uris": {"ios": "https://dc.lft.to/lastmile_qr_scan", "android": "https://dc.lft.to/lastmile_qr_scan"}, "bike_id": "c1f33d1c890b548ccb89c17d1a281f24", "lat": 38.865125, "name": "c1f33d1c890b548ccb89c17d1a281f24", "lon": -76.97343066666667, "fusion_lon": 0.0}, {"is_reserved": 0, "type": "electric_scooter", "fusion_lat": 0.0, "is_disabled": 0, "rental_uris": {"ios": "https://dc.lft.to/lastmile_qr_scan", "android": "https://dc.lft.to/lastmile_qr_scan"}, "bike_id": "fb14eb20f511a2cc96814eb86da23c30", "lat": 38.919379, "name": "fb14eb20f511a2cc96814eb86da23c30", "lon": -77.02509766666667, "fusion_lon": 0.0}, {"is_reserved": 0, "type": "electric_bike", "fusion_lat": 0.0, "is_disabled": 0, "rental_uris": {"ios": "https://dc.lft.to/lastmile_qr_scan", "android": "https://dc.lft.to/lastmile_qr_scan"}, "bike_id": "024450877646cd00e908cceee6e6d60f", "lat": 38.877402333333336, "name": "024450877646cd00e908cceee6e6d60f", "lon": -77.14872916666667, "fusion_lon": 0.0}, {"is_reserved": 0, "type": "electric_scooter", "fusion_lat": 0.0, "is_disabled": 0, "rental_uris": {"ios": "https://dc.lft.to/lastmile_qr_scan", "android": "https://dc.lft.to/lastmile_qr_scan"}, "bike_id": "40ef5427491ea7f1053ea73753b2be2a", "lat": 38.87819833333333, "name": "40ef5427491ea7f1053ea73753b2be2a", "lon": -77.00857316666666, "fusion_lon": 0.0}, {"is_reserved": 0, "type": "electric_scooter", "fusion_lat": 0.0, "is_disabled": 0, "rental_uris": {"ios": "https://dc.lft.to/lastmile_qr_scan", "android": "https://dc.lft.to/lastmile_qr_scan"}, "bike_id": "9bd7f8696e6fdcfdffcca8975fff49fc", "lat": 38.885230666666665, "name": "9bd7f8696e6fdcfdffcca8975fff49fc", "lon": -76.99626133333334, "fusion_lon": 0.0}, {"is_reserved": 0, "type": "electric_scooter", "fusion_lat": 0.0, "is_disabled": 0, "rental_uris": {"ios": "https://dc.lft.to/lastmile_qr_scan", "android": "https://dc.lft.to/lastmile_qr_scan"}, "bike_id": "250adc98b9b6973faf18174f7dbed7bb", "lat": 38.9056525, "name": "250adc98b9b6973faf18174f7dbed7bb", "lon": -77.031136, "fusion_lon": 0.0}, {"is_reserved": 0, "type": "electric_bike", "fusion_lat": 0.0, "is_disabled": 0, "rental_uris": {"ios": "https://dc.lft.to/lastmile_qr_scan", "android": "https://dc.lft.to/lastmile_qr_scan"}, "bike_id": "6f2235b6767f9971c9b3bb194d3a7a95", "lat": 39.00533466666667, "name": "6f2235b6767f9971c9b3bb194d3a7a95", "lon": -77.10404466666667, "fusion_lon": 0.0}, {"is_reserved": 0, "type": "electric_bike", "fusion_lat": 0.0, "is_disabled": 0, "rental_uris": {"ios": "https://dc.lft.to/lastmile_qr_scan", "android": "https://dc.lft.to/lastmile_qr_scan"}, "bike_id": "45f931ccb1f3af6a0e136cfa29c9d692", "lat": 38.830675166666666, "name": "45f931ccb1f3af6a0e136cfa29c9d692", "lon": -77.04082266666667, "fusion_lon": 0.0}, {"is_reserved": 0, "type": "electric_scooter", "fusion_lat": 0.0, "is_disabled": 0, "rental_uris": {"ios": "https://dc.lft.to/lastmile_qr_scan", "android": "https://dc.lft.to/lastmile_qr_scan"}, "bike_id": "fa840741b223200b714945ec5f874900", "lat": 38.906462833333336, "name": "fa840741b223200b714945ec5f874900", "lon": -77.01843116666667, "fusion_lon": 0.0}, {"is_reserved": 0, "type": "electric_scooter", "fusion_lat": 0.0, "is_disabled": 0, "rental_uris": {"ios": "https://dc.lft.to/lastmile_qr_scan", "android": "https://dc.lft.to/lastmile_qr_scan"}, "bike_id": "17ff67fb755419ff4093e4054ad264d2", "lat": 38.89223616666666, "name": "17ff67fb755419ff4093e4054ad264d2", "lon": -77.04493, "fusion_lon": 0.0}, {"is_reserved": 0, "type": "electric_scooter", "fusion_lat": 0.0, "is_disabled": 0, "rental_uris": {"ios": "https://dc.lft.to/lastmile_qr_scan", "android": "https://dc.lft.to/lastmile_qr_scan"}, "bike_id": "89005cec98cd0fc5c643f0f67badb07c", "lat": 38.8985915, "name": "89005cec98cd0fc5c643f0f67badb07c", "lon": -76.94646216666666, "fusion_lon": 0.0}, {"is_reserved": 0, "type": "electric_scooter", "fusion_lat": 0.0, "is_disabled": 0, "rental_uris": {"ios": "https://dc.lft.to/lastmile_qr_scan", "android": "https://dc.lft.to/lastmile_qr_scan"}, "bike_id": "f1d720cbc034b336f528621c789c5a34", "lat": 38.87069066666667, "name": "f1d720cbc034b336f528621c789c5a34", "lon": -76.97943266666667, "fusion_lon": 0.0}, {"is_reserved": 0, "type": "electric_scooter", "fusion_lat": 0.0, "is_disabled": 0, "rental_uris": {"ios": "https://dc.lft.to/lastmile_qr_scan", "android": "https://dc.lft.to/lastmile_qr_scan"}, "bike_id": "30b1754628dece4773aaf7f443ca1d65", "lat": 38.935667333333335, "name": "30b1754628dece4773aaf7f443ca1d65", "lon": -77.02852933333334, "fusion_lon": 0.0}, {"is_reserved": 0, "type": "electric_scooter", "fusion_lat": 0.0, "is_disabled": 0, "rental_uris": {"ios": "https://dc.lft.to/lastmile_qr_scan", "android": "https://dc.lft.to/lastmile_qr_scan"}, "bike_id": "0762e96a8ed3c49b28348721333cb8a1", "lat": 38.90344733333333, "name": "0762e96a8ed3c49b28348721333cb8a1", "lon": -77.02607383333333, "fusion_lon": 0.0}, {"is_reserved": 0, "type": "electric_scooter", "fusion_lat": 0.0, "is_disabled": 0, "rental_uris": {"ios": "https://dc.lft.to/lastmile_qr_scan", "android": "https://dc.lft.to/lastmile_qr_scan"}, "bike_id": "ca57c53028ea3fcfc3887f760a8fe6dc", "lat": 38.89671166666667, "name": "ca57c53028ea3fcfc3887f760a8fe6dc", "lon": -77.05023516666667, "fusion_lon": 0.0}, {"is_reserved": 0, "type": "electric_bike", "fusion_lat": 0.0, "is_disabled": 0, "rental_uris": {"ios": "https://dc.lft.to/lastmile_qr_scan", "android": "https://dc.lft.to/lastmile_qr_scan"}, "bike_id": "ac8308f2df52d15561035a0a38a284fd", "lat": 39.00383, "name": "ac8308f2df52d15561035a0a38a284fd", "lon": -77.01288266666667, "fusion_lon": 0.0}, {"is_reserved": 0, "type": "electric_scooter", "fusion_lat": 0.0, "is_disabled": 0, "rental_uris": {"ios": "https://dc.lft.to/lastmile_qr_scan", "android": "https://dc.lft.to/lastmile_qr_scan"}, "bike_id": "a14a1ff67c310ec7cb4f81b3fe3499bf", "lat": 38.8974395, "name": "a14a1ff67c310ec7cb4f81b3fe3499bf", "lon": -77.048213, "fusion_lon": 0.0}, {"is_reserved": 0, "type": "electric_scooter", "fusion_lat": 0.0, "is_disabled": 0, "rental_uris": {"ios": "https://dc.lft.to/lastmile_qr_scan", "android": "https://dc.lft.to/lastmile_qr_scan"}, "bike_id": "c99cf784a0bca73037f40ae1fc8fd96f", "lat": 38.9073605, "name": "c99cf784a0bca73037f40ae1fc8fd96f", "lon": -77.0452545, "fusion_lon": 0.0}, {"is_reserved": 0, "type": "electric_scooter", "fusion_lat": 0.0, "is_disabled": 0, "rental_uris": {"ios": "https://dc.lft.to/lastmile_qr_scan", "android": "https://dc.lft.to/lastmile_qr_scan"}, "bike_id": "e309f808d1e823dd44ee3b7c573f086c", "lat": 38.935346833333334, "name": "e309f808d1e823dd44ee3b7c573f086c", "lon": -77.0348865, "fusion_lon": 0.0}, {"is_reserved": 0, "type": "electric_scooter", "fusion_lat": 0.0, "is_disabled": 0, "rental_uris": {"ios": "https://dc.lft.to/lastmile_qr_scan", "android": "https://dc.lft.to/lastmile_qr_scan"},