{"data": {"bikes": [{"is_disabled": 0, "is_reserved": 0, "fusion_lat": 0.0, "lat": 39.0053305, "fusion_lon": 0.0, "rental_uris": {"ios": "https://dc.lft.to/lastmile_qr_scan", "android": "https://dc.lft.to/lastmile_qr_scan"}, "lon": -77.10403533333333, "bike_id": "4b02243a414c99a9aa7901cdb8416325", "type": "electric_bike", "name": "4b02243a414c99a9aa7901cdb8416325"}, {"is_disabled": 0, "is_reserved": 0, "fusion_lat": 0.0, "lat": 38.88101966666667, "fusion_lon": 0.0, "rental_uris": {"ios": "https://dc.lft.to/lastmile_qr_scan", "android": "https://dc.lft.to/lastmile_qr_scan"}, "lon": -77.0123815, "bike_id": "720b453f1b32b8141f28b6ccab122971", "type": "electric_scooter", "name": "720b453f1b32b8141f28b6ccab122971"}, {"is_disabled": 0, "is_reserved": 0, "fusion_lat": 0.0, "lat": 38.8985905, "fusion_lon": 0.0, "rental_uris": {"ios": "https://dc.lft.to/lastmile_qr_scan", "android": "https://dc.lft.to/lastmile_qr_scan"}, "lon": -77.04878583333333, "bike_id": "72423b5a094bc8a2ba92a2666cdf4122", "type": "electric_scooter", "name": "72423b5a094bc8a2ba92a2666cdf4122"}, {"is_disabled": 0, "is_reserved": 0, "fusion_lat": 0.0, "lat": 38.87738216666666, "fusion_lon": 0.0, "rental_uris": {"ios": "https://dc.lft.to/lastmile_qr_scan", "android": "https://dc.lft.to/lastmile_qr_scan"}, "lon": -77.14873416666667, "bike_id": "88336d24d3b2ac8eb6f37b3f3504ed7b", "type": "electric_bike", "name": "88336d24d3b2ac8eb6f37b3f3504ed7b"}, {"is_disabled": 0, "is_reserved": 0, "fusion_lat": 0.0, "lat": 38.921914666666666, "fusion_lon": 0.0, "rental_uris": {"ios": "https://dc.lft.to/lastmile_qr_scan", "android": "https://dc.lft.to/lastmile_qr_scan"}, "lon": -76.99702616666667, "bike_id": "6266cf2b03ca19fd13568dfa2181c207", "type": "electric_scooter", "name": "6266cf2b03ca19fd13568dfa2181c207"}, {"is_disabled": 0, "is_reserved": 0, "fusion_lat": 0.0, "lat": 38.90016516666667, "fusion_lon": 0.0, "rental_uris": {"ios": "https://dc.lft.to/lastmile_qr_scan", "android": "https://dc.lft.to/lastmile_qr_scan"}, "lon": -77.01216133333334, "bike_id": "15837bf3dc55d3064669dd7576231790", "type": "electric_scooter", "name": "15837bf3dc55d3064669dd7576231790"}, {"is_disabled": 0, "is_reserved": 0, "fusion_lat": 0.0, "lat": 38.885222, "fusion_lon": 0.0, "rental_uris": {"ios": "https://dc.lft.to/lastmile_qr_scan", "android": "https://dc.lft.to/lastmile_qr_scan"}, "lon": -76.9960375, "bike_id": "08de38f09fb4651ddba1b33e5993d329", "type": "electric_scooter", "name": "08de38f09fb4651ddba1b33e5993d329"}, {"is_disabled": 0, "is_reserved": 0, "fusion_lat": 0.0, "lat": 38.9244745, "fusion_lon": 0.0, "rental_uris": {"ios": "https://dc.lft.to/lastmile_qr_scan", "android": "https://dc.lft.to/lastmile_qr_scan"}, "lon": -77.02133716666667, "bike_id": "e306a2b4be7404fd6ebafdf23fea7f96", "type": "electric_scooter", "name": "e306a2b4be7404fd6ebafdf23fea7f96"}, {"is_disabled": 0, "is_reserved": 0, "fusion_lat": 0.0, "lat": 38.910074, "fusion_lon": 0.0, "rental_uris": {"ios": "https://dc.lft.to/lastmile_qr_scan", "android": "https://dc.lft.to/lastmile_qr_scan"}, "lon": -77.04429016666667, "bike_id": "f2722119319389b018ed46fc6ba2daf1", "type": "electric_scooter", "name": "f2722119319389b018ed46fc6ba2daf1"}, {"is_disabled": 0, "is_reserved": 0, "fusion_lat": 0.0, "lat": 38.93077266666667, "fusion_lon": 0.0, "rental_uris": {"ios": "https://dc.lft.to/lastmile_qr_scan", "android": "https://dc.lft.to/lastmile_qr_scan"}, "lon": -77.07769283333333, "bike_id": "dd13e2f599784915d067407cf5f46083", "type": "electric_scooter", "name": "dd13e2f599784915d067407cf5f46083"}, {"is_disabled": 0, "is_reserved": 0, "fusion_lat": 0.0, "lat": 38.925778333333334, "fusion_lon": 0.0, "rental_uris": {"ios": "https://dc.lft.to/lastmile_qr_scan", "android": "https://dc.lft.to/lastmile_qr_scan"}, "lon": -76.9949085, "bike_id": "b421ca861497803db532064a63bd1c6d", "type": "electric_scooter", "name": "b421ca861497803db532064a63bd1c6d"}, {"is_disabled": 0, "is_reserved": 0, "fusion_lat": 0.0, "lat": 38.8922795, "fusion_lon": 0.0, "rental_uris": {"ios": "https://dc.lft.to/lastmile_qr_scan", "android": "https://dc.lft.to/lastmile_qr_scan"}, "lon": -77.05005766666666, "bike_id": "4616dccc643de1a2326232ab0c805cc3", "type": "electric_scooter", "name": "4616dccc643de1a2326232ab0c805cc3"}, {"is_disabled": 0, "is_reserved": 0, "fusion_lat": 0.0, "lat": 39.003797666666664, "fusion_lon": 0.0, "rental_uris": {"ios": "https://dc.lft.to/lastmile_qr_scan", "android": "https://dc.lft.to/lastmile_qr_scan"}, "lon": -77.012893, "bike_id": "581d0bb21bcf94b0111f3160fa1600bb", "type": "electric_bike", "name": "581d0bb21bcf94b0111f3160fa1600bb"}, {"is_disabled": 0, "is_reserved": 0, "fusion_lat": 0.0, "lat": 38.920359166666664, "fusion_lon": 0.0, "rental_uris": {"ios": "https://dc.lft.to/lastmile_qr_scan", "android": "https://dc.lft.to/lastmile_qr_scan"}, "lon": -76.9795705, "bike_id": "aebbc8ae3c49e7d3e464744b4eb3abcb", "type": "electric_bike", "name": "aebbc8ae3c49e7d3e464744b4eb3abcb"}, {"is_disabled": 0, "is_reserved": 0, "fusion_lat": 0.0, "lat": 38.939697, "fusion_lon": 0.0, "rental_uris": {"ios": "https://dc.lft.to/lastmile_qr_scan", "android": "https://dc.lft.to/lastmile_qr_scan"}, "lon": -77.0343275, "bike_id": "bb784b2820095120a96077f9792d1396", "type": "electric_scooter", "name": "bb784b2820095120a96077f9792d1396"}, {"is_disabled": 0, "is_reserved": 0, "fusion_lat": 0.0, "lat": 38.911016000000004, "fusion_lon": 0.0, "rental_uris": {"ios": "https://dc.lft.to/lastmile_qr_scan", "android": "https://dc.lft.to/lastmile_qr_scan"}, "lon": -77.044456, "bike_id": "357642f8ecef12a09a7d1e59a84921ae", "type": "electric_scooter", "name": "357642f8ecef12a09a7d1e59a84921ae"}, {"is_disabled": 0, "is_reserved": 0, "fusion_lat": 0.0, "lat": 38.92215233333334, "fusion_lon": 0.0, "rental_uris": {"ios": "https://dc.lft.to/lastmile_qr_scan", "android": "https://dc.lft.to/lastmile_qr_scan"}, "lon": -77.07442083333333, "bike_id": "3778f5919e135483f1a5765a6f031e87", "type": "electric_scooter", "name": "3778f5919e135483f1a5765a6f031e87"}, {"is_disabled": 0, "is_reserved": 0, "fusion_lat": 0.0, "lat": 38.904477166666666, "fusion_lon": 0.0, "rental_uris": {"ios": "https://dc.lft.to/lastmile_qr_scan", "android": "https://dc.lft.to/lastmile_qr_scan"}, "lon": -77.03134116666666, "bike_id": "0cbd491a038b74a8ad4c817757886a76", "type": "electric_scooter", "name": "0cbd491a038b74a8ad4c817757886a76"}, {"is_disabled": 0, "is_reserved": 0, "fusion_lat": 0.0, "lat": 38.905830333333334, "fusion_lon": 0.0, "rental_uris": {"ios": "https://dc.lft.to/lastmile_qr_scan", "android": "https://dc.lft.to/lastmile_qr_scan"}, "lon": -77.00715466666666, "bike_id": "4f494572583df6b083871a0af595ae07", "type": "electric_scooter", "name": "4f494572583df6b083871a0af595ae07"}, {"is_disabled": 0, "is_reserved": 0, "fusion_lat": 0.0, "lat": 38.90587883333333, "fusion_lon": 0.0, "rental_uris": {"ios": "https://dc.lft.to/lastmile_qr_scan", "android": "https://dc.lft.to/lastmile_qr_scan"}, "lon": -77.01611433333333, "bike_id": "39cbfb21bdb7ceeb8b98dacb89d88111", "type": "electric_scooter", "name": "39cbfb21bdb7ceeb8b98dacb89d88111"}, {"is_disabled": 0, "is_reserved": 0, "fusion_lat": 0.0, "lat": 38.884330166666665, "fusion_lon": 0.0, "rental_uris": {"ios": "https://dc.lft.to/lastmile_qr_scan", "android": "https://dc.lft.to/lastmile_qr_scan"}, "lon": -77.02492033333333, "bike_id": "54228b80600945130f9c3501b8027483", "type": "electric_scooter", "name": "54228b80600945130f9c3501b8027483"}, {"is_disabled": 0, "is_reserved": 0, "fusion_lat": 0.0, "lat": 38.92146, "fusion_lon": 0.0, "rental_uris": {"ios": "https://dc.lft.to/lastmile_qr_scan", "android": "https://dc.lft.to/lastmile_qr_scan"}, "lon": -77.04567216666666, "bike_id": "4a4224d1341115f24ba3a1f900986fe5", "type": "electric_scooter", "name": "4a4224d1341115f24ba3a1f900986fe5"}, {"is_disabled": 0, "is_reserved": 0, "fusion_lat": 0.0, "lat": 38.9270375, "fusion_lon": 0.0, "rental_uris": {"ios": "https://dc.lft.to/lastmile_qr_scan", "android": "https://dc.lft.to/lastmile_qr_scan"}, "lon": -76.9608225, "bike_id": "f7c6a8a8dacc27c02c29cae75350b819", "type": "electric_scooter", "name": "f7c6a8a8dacc27c02c29cae75350b819"}, {"is_disabled": 0, "is_reserved": 0, "fusion_lat": 0.0, "lat": 38.9162725, "fusion_lon": 0.0, "rental_uris": {"ios": "https://dc.lft.to/lastmile_qr_scan", "android": "https://dc.lft.to/lastmile_qr_scan"}, "lon": -77.03189633333334, "bike_id": "3af70fb3d5da777b855ceef08d8aa793", "type": "electric_scooter", "name": "3af70fb3d5da777b855ceef08d8aa793"}, {"is_disabled": 0, "is_reserved": 0, "fusion_lat": 0.0, "lat": 38.875247333333334, "fusion_lon": 0.0, "rental_uris": {"ios": "https://dc.lft.to/lastmile_qr_scan", "android": "https://dc.lft.to/lastmile_qr_scan"}, "lon": -77.01232033333334, "bike_id": "02183f69d851ca6147ca1fc7b0e64e0f", "type": "electric_scooter", "name": "02183f69d851ca6147ca1fc7b0e64e0f"}, {"is_disabled": 0, "is_reserved": 0, "fusion_lat": 0.0, "lat": 39.000759333333335, "fusion_lon": 0.0, "rental_uris": {"ios": "https://dc.lft.to/lastmile_qr_scan", "android": "https://dc.lft.to/lastmile_qr_scan"}, "lon": -77.00627866666666, "bike_id": "e9f98bc8aa0cae600142e17c720466e4", "type": "electric_bike", "name": "e9f98bc8aa0cae600142e17c720466e4"}, {"is_disabled": 0, "is_reserved": 0, "fusion_lat": 0.0, "lat": 38.87678783333333, "fusion_lon": 0.0, "rental_uris": {"ios": "https://dc.lft.to/lastmile_qr_scan", "android": "https://dc.lft.to/lastmile_qr_scan"}, "lon": -77.00047283333333, "bike_id": "291599b50d660aca127858e8ff4a2b14", "type": "electric_scooter", "name": "291599b50d660aca127858e8ff4a2b14"}, {"is_disabled": 0, "is_reserved": 0, "fusion_lat": 0.0, "lat": 38.93950933333333, "fusion_lon": 0.0, "rental_uris": {"ios": "https://dc.lft.to/lastmile_qr_scan", "android": "https://dc.lft.to/lastmile_qr_scan"}, "lon": -77.02181383333334, "bike_id": "ead43f26159291a3be98bbbea88f8757", "type": "electric_scooter", "name": "ead43f26159291a3be98bbbea88f8757"}, {"is_disabled": 0, "is_reserved": 0, "fusion_lat": 0.0, "lat": 38.919015, "fusion_lon": 0.0, "rental_uris": {"ios": "https://dc.lft.to/lastmile_qr_scan", "android": "https://dc.lft.to/lastmile_qr_scan"}, "lon": -77.000476, "bike_id": "5ace631829997e5b3551bb95e3d69909", "type": "electric_scooter", "name": "5ace631829997e5b3551bb95e3d69909"}, {"is_disabled": 0, "is_reserved": 0, "fusion_lat": 0.0, "lat": 38.97583383333333, "fusion_lon": 0.0, "rental_uris": {"ios": "https://dc.lft.to/lastmile_qr_scan", "android": "https://dc.lft.to/lastmile_qr_scan"}, "lon": -77.0186915, "bike_id": "a98dbc4ae8a21f20614bde1458b712ca", "type": "electric_scooter", "name": "a98dbc4ae8a21f20614bde1458b712ca"}, {"is_disabled": 0, "is_reserved": 0, "fusion_lat": 0.0, "lat": 38.842896833333334, "fusion_lon": 0.0, "rental_uris": {"ios": "https://dc.lft.to/lastmile_qr_scan", "android": "https://dc.lft.to/lastmile_qr_scan"}, "lon": -77.06381716666667, "bike_id": "ce25987b6da61cd5833c58ca5dca5687", "type": "electric_bike", "name": "ce25987b6da61cd5833c58ca5dca5687"}, {"is_disabled": 0, "is_reserved": 0, "fusion_lat": 0.0, "lat": 38.897429, "fusion_lon": 0.0, "rental_uris": {"ios": "https://dc.lft.to/lastmile_qr_scan", "android": "https://dc.lft.to/lastmile_qr_scan"}, "lon": -77.0454795, "bike_id": "cd8760852442a7e8bce3c61bc894ff59", "type": "electric_scooter", "name": "cd8760852442a7e8bce3c61bc894ff59"}, {"is_disabled": 0, "is_reserved": 0, "fusion_lat": 0.0, "lat": 38.91236516666667, "fusion_lon": 0.0, "rental_uris": {"ios": "https://dc.lft.to/lastmile_qr_scan", "android": "https://dc.lft.to/lastmile_qr_scan"}, "lon": -77.03195533333333, "bike_id": "689a6b3d9e0a38cf32d2703d6d46fab2", "type": "electric_scooter", "name": "689a6b3d9e0a38cf32d2703d6d46fab2"}, {"is_disabled": 0, "is_reserved": 0, "fusion_lat": 0.0, "lat": 38.92969733333334, "fusion_lon": 0.0, "rental_uris": {"ios": "https://dc.lft.to/lastmile_qr_scan", "android": "https://dc.lft.to/lastmile_qr_scan"}, "lon": -77.029268, "bike_id": "de6fab48e0dbdca28527189cb59290f0", "type": "electric_scooter", "name": "de6fab48e0dbdca28527189cb59290f0"}, {"is_disabled": 0, "is_reserved": 0, "fusion_lat": 0.0, "lat": 38.926572666666665, "fusion_lon": 0.0, "rental_uris": {"ios": "https://dc.lft.to/lastmile_qr_scan", "android": "https://dc.lft.to/lastmile_qr_scan"}, "lon": -76.99298366666666, "bike_id": "5925a970c5687eb305d06a637a4c8904", "type": "electric_scooter", "name": "5925a970c5687eb305d06a637a4c8904"}, {"is_disabled": 0, "is_reserved": 0, "fusion_lat": 0.0, "lat": 38.98715, "fusion_lon": 0.0, "rental_uris": {"ios": "https://dc.lft.to/lastmile_qr_scan", "android": "https://dc.lft.to/lastmile_qr_scan"}, "lon": -77.03765616666666, "bike_id": "8f4cc6908faa02d74d40652fd4d46888", "type": "electric_bike", "name": "8f4cc6908faa02d74d40652fd4d46888"}, {"is_disabled": 0, "is_reserved": 0, "fusion_lat": 0.0, "lat": 38.952437833333335, "fusion_lon": 0.0, "rental_uris": {"ios": "https://dc.lft.to/lastmile_qr_scan", "android": "https://dc.lft.to/lastmile_qr_scan"}, "lon": -77.09625333333334, "bike_id": "5afaa26aead8cf3b261c63d367a3a953", "type": "electric_bike", "name": "5afaa26aead8cf3b261c63d367a3a953"}, {"is_disabled": 0, "is_reserved": 0, "fusion_lat": 0.0, "lat": 38.936337333333334, "fusion_lon": 0.0, "rental_uris": {"ios": "https://dc.lft.to/lastmile_qr_scan", "android": "https://dc.lft.to/lastmile_qr_scan"}, "lon": -77.02703083333333, "bike_id": "e4472ea879214b332de3d15b43ff5379", "type": "electric_bike", "name": "e4472ea879214b332de3d15b43ff5379"}, {"is_disabled": 0, "is_reserved": 0, "fusion_lat": 0.0, "lat": 38.948516, "fusion_lon": 0.0, "rental_uris": {"ios": "https://dc.lft.to/lastmile_qr_scan", "android": "https://dc.lft.to/lastmile_qr_scan"}, "lon": -77.02107916666667, "bike_id": "df0f1f019cc5e7a1b9f91e4f6cd4fb1a", "type": "electric_scooter", "name": "df0f1f019cc5e7a1b9f91e4f6cd4fb1a"}, {"is_disabled": 0, "is_reserved": 0, "fusion_lat": 0.0, "lat": 38.88443866666667, "fusion_lon": 0.0, "rental_uris": {"ios": "https://dc.lft.to/lastmile_qr_scan", "android": "https://dc.lft.to/lastmile_qr_scan"}, "lon": -77.02925133333333, "bike_id": "9445a29d9728347f0cdbccb891b4e3d6", "type": "electric_scooter", "name": "9445a29d9728347f0cdbccb891b4e3d6"}, {"is_disabled": 0, "is_reserved": 0, "fusion_lat": 0.0, "lat": 38.920995833333336, "fusion_lon": 0.0, "rental_uris": {"ios": "https://dc.lft.to/lastmile_qr_scan", "android": "https://dc.lft.to/lastmile_qr_scan"}, "lon": -77.01753633333334, "bike_id": "6fe867e858e5c9f5b6b396ace7a1bdd5", "type": "electric_scooter", "name": "6fe867e858e5c9f5b6b396ace7a1bdd5"}, {"is_disabled": 0, "is_reserved": 0, "fusion_lat": 0.0, "lat": 38.870977833333335, "fusion_lon": 0.0, "rental_uris": {"ios": "https://dc.lft.to/lastmile_qr_scan", "android": "https://dc.lft.to/lastmile_qr_scan"}, "lon": -77.01211283333333, "bike_id": "31259df5266c7782d66f0ffb97536b14", "type": "electric_scooter", "name": "31259df5266c7782d66f0ffb97536b14"}, {"is_disabled": 0, "is_reserved": 0, "fusion_lat": 0.0, "lat": 38.911128833333336, "fusion_lon": 0.0, "rental_uris": {"ios": "https://dc.lft.to/lastmile_qr_scan", "android": "https://dc.lft.to/lastmile_qr_scan"}, "lon": -77.01109983333333, "bike_id": "c84dfac042df3a526fb5ff2ed4b58ebf", "type": "electric_scooter", "name": "c84dfac042df3a526fb5ff2ed4b58ebf"}, {"is_disabled": 0, "is_reserved": 0, "fusion_lat": 0.0, "lat": 38.957839166666666, "fusion_lon": 0.0, "rental_uris": {"ios": "https://dc.lft.to/lastmile_qr_scan", "android": "https://dc.lft.to/lastmile_qr_scan"}, "lon": -77.02459816666666, "bike_id": "0e946886755fa67912bade633726a41e", "type": "electric_scooter", "name": "0e946886755fa67912bade633726a41e"}, {"is_disabled": 0, "is_reserved": 0, "fusion_lat": 0.0, "lat": 38.952368166666666, "fusion_lon": 0.0, "rental_uris": {"ios": "https://dc.lft.to/lastmile_qr_scan", "android": "https://dc.lft.to/lastmile_qr_scan"}, "lon": -76.97952316666667, "bike_id": "771dfa1ad237394ae2f64619b8a34165", "type": "electric_bike", "name": "771dfa1ad237394ae2f64619b8a34165"}, {"is_disabled": 0, "is_reserved": 0, "fusion_lat": 0.0, "lat": 38.897814833333335, "fusion_lon": 0.0, "rental_uris": {"ios": "https://dc.lft.to/lastmile_qr_scan", "android": "https://dc.lft.to/lastmile_qr_scan"}, "lon": -77.00770316666667, "bike_id": "32852f0fef60a1ef87eb86510404f949", "type": "electric_scooter", "name": "32852f0fef60a1ef87eb86510404f949"}, {"is_disabled": 0, "is_reserved": 0, "fusion_lat": 0.0, "lat": 38.896925, "fusion_lon": 0.0, "rental_uris": {"ios": "https://dc.lft.to/lastmile_qr_scan", "android": "https://dc.lft.to/lastmile_qr_scan"}, "lon": -77.0433065, "bike_id": "285f837536e5f831580793cc74c74160", "type": "electric_scooter", "name": "285f837536e5f831580793cc74c74160"}, {"is_disabled": 0, "is_reserved": 0, "fusion_lat": 0.0, "lat": 38.906376, "fusion_lon": 0.0, "rental_uris": {"ios": "https://dc.lft.to/lastmile_qr_scan", "android": "https://dc.lft.to/lastmile_qr_scan"}, "lon": -77.0689685, "bike_id": "5cb9ae7d24514074874adf2c8532cc69", "type": "electric_scooter", "name": "5cb9ae7d24514074874adf2c8532cc69"}, {"is_disabled": 0, "is_reserved": 0, "fusion_lat": 0.0, "lat": 38.89423816666667, "fusion_lon": 0.0, "rental_uris": {"ios": "https://dc.lft.to/lastmile_qr_scan", "android": "https://dc.lft.to/lastmile_qr_scan"}, "lon": -77.05596166666666, "bike_id": "809901c94b1632657d955338942768e6", "type": "electric_scooter", "name": "809901c94b1632657d955338942768e6"}, {"is_disabled": 0, "is_reserved": 0, "fusion_lat": 0.0, "lat": 38.89617666666667, "fusion_lon": 0.0, "rental_uris": {"ios": "https://dc.lft.to/lastmile_qr_scan", "android": "https://dc.lft.to/lastmile_qr_scan"}, "lon": -77.03168916666667, "bike_id": "af1e85c2cc25fab78d3ff05e9c7e3ba3", "type": "electric_scooter", "name": "af1e85c2cc25fab78d3ff05e9c7e3ba3"}, {"is_disabled": 0, "is_reserved": 0, "fusion_lat": 0.0, "lat": 38.914157333333335, "fusion_lon": 0.0, "rental_uris": {"ios": "https://dc.lft.to/lastmile_qr_scan", "android": "https://dc.lft.to/lastmile_qr_scan"}, "lon": -77.03170866666666, "bike_id": "2c0fb635b446103eb1f5fa384188036c", "type": "electric_scooter", "name": "2c0fb635b446103eb1f5fa384188036c"}, {"is_disabled": 0, "is_reserved": 0, "fusion_lat": 0.0, "lat": 38.92519466666667, "fusion_lon": 0.0, "rental_uris": {"ios": "https://dc.lft.to/lastmile_qr_scan", "android": "https://dc.lft.to/lastmile_qr_scan"}, "lon": -77.04276166666666, "bike_id": "e7a5f634a95c61138a1657c17d5de486", "type": "electric_bike", "name": "e7a5f634a95c61138a1657c17d5de486"}, {"is_disabled": 0, "is_reserved": 0, "fusion_lat": 0.0, "lat": 38.92989883333333, "fusion_lon": 0.0, "rental_uris": {"ios": "https://dc.lft.to/lastmile_qr_scan", "android": "https://dc.lft.to/lastmile_qr_scan"}, "lon": -77.03201966666667, "bike_id": "63ce4429144946c4771aa12a0a594219", "type": "electric_scooter", "name": "63ce4429144946c4771aa12a0a594219"}, {"is_disabled": 0, "is_reserved": 0, "fusion_lat": 0.0, "lat": 39.02648416666667, "fusion_lon": 0.0, "rental_uris": {"ios": "https://dc.lft.to/lastmile_qr_scan", "android": "https://dc.lft.to/lastmile_qr_scan"}, "lon": -77.03685733333333, "bike_id": "74e65979f4b0a732521629dabfd0b2ba", "type": "electric_bike", "name": "74e65979f4b0a732521629dabfd0b2ba"}, {"is_disabled": 0, "is_reserved": 0, "fusion_lat": 0.0, "lat": 38.921964, "fusion_lon": 0.0, "rental_uris": {"ios": "https://dc.lft.to/lastmile_qr_scan", "android": "https://dc.lft.to/lastmile_qr_scan"}, "lon": -77.0204125, "bike_id": "70d078a671ed36b24bae8ea7276a00af", "type": "electric_scooter", "name": "70d078a671ed36b24bae8ea7276a00af"}, {"is_disabled": 0, "is_reserved": 0, "fusion_lat": 0.0, "lat": 38.89517933333333, "fusion_lon": 0.0, "rental_uris": {"ios": "https://dc.lft.to/lastmile_qr_scan", "android": "https://dc.lft.to/lastmile_qr_scan"}, "lon": -76.981178, "bike_id": "7123ad5d44244c2d3bcf0b65267cbb48", "type": "electric_scooter", "name": "7123ad5d44244c2d3bcf0b65267cbb48"}, {"is_disabled": 0, "is_reserved": 0, "fusion_lat": 0.0, "lat": 38.886202833333336, "fusion_lon": 0.0, "rental_uris": {"ios": "https://dc.lft.to/lastmile_qr_scan", "android": "https://dc.lft.to/lastmile_qr_scan"}, "lon": -76.9263025, "bike_id": "7723c5b1c6f6ec51e97726ad4ab36281", "type": "electric_scooter", "name": "7723c5b1c6f6ec51e97726ad4ab36281"}, {"is_disabled": 0, "is_reserved": 0, "fusion_lat": 0.0, "lat": 38.920476, "fusion_lon": 0.0, "rental_uris": {"ios": "https://dc.lft.to/lastmile_qr_scan", "android": "https://dc.lft.to/lastmile_qr_scan"}, "lon": -77.03124, "bike_id": "47080518225413a2fa714bf43407f24e", "type": "electric_scooter", "name": "47080518225413a2fa714bf43407f24e"}, {"is_disabled": 0, "is_reserved": 0, "fusion_lat": 0.0, "lat": 38.914165, "fusion_lon": 0.0, "rental_uris": {"ios": "https://dc.lft.to/lastmile_qr_scan", "android": "https://dc.lft.to/lastmile_qr_scan"}, "lon": -77.05209566666667, "bike_id": "b48fbc81b7ace40fc50c8ef357e90b96", "type": "electric_scooter", "name": "b48fbc81b7ace40fc50c8ef357e90b96"}, {"is_disabled": 0, "is_reserved": 0, "fusion_lat": 0.0, "lat": 38.943306166666666, "fusion_lon": 0.0, "rental_uris": {"ios": "https://dc.lft.to/lastmile_qr_scan", "android": "https://dc.lft.to/lastmile_qr_scan"}, "lon": -77.02689966666667, "bike_id": "22343521cae08d85677f140756d7b746", "type": "electric_scooter", "name": "22343521cae08d85677f140756d7b746"}, {"is_disabled": 0, "is_reserved": 0, "fusion_lat": 0.0, "lat": 38.927580166666665, "fusion_lon": 0.0, "rental_uris": {"ios": "https://dc.lft.to/lastmile_qr_scan", "android": "https://dc.lft.to/lastmile_qr_scan"}, "lon": -77.05265633333333, "bike_id": "0d4d5cc0b81d7591d429dbc1b18a24dd", "type": "electric_scooter", "name": "0d4d5cc0b81d7591d429dbc1b18a24dd"}, {"is_disabled": 0, "is_reserved": 0, "fusion_lat": 0.0, "lat": 38.901447, "fusion_lon": 0.0, "rental_uris": {"ios": "https://dc.lft.to/lastmile_qr_scan", "android": "https://dc.lft.to/lastmile_qr_scan"}, "lon": -76.9740945, "bike_id": "85a3fde5c1d3e22b509a4b408906d868", "type": "electric_scooter", "name": "85a3fde5c1d3e22b509a4b408906d868"}, {"is_disabled": 0, "is_reserved": 0, "fusion_lat": 0.0, "lat": 38.905058833333335, "fusion_lon": 0.0, "rental_uris": {"ios": "https://dc.lft.to/lastmile_qr_scan", "android": "https://dc.lft.to/lastmile_qr_scan"}, "lon": -76.952021, "bike_id": "f2439f57cf90c559fcd2dbdc3e96b1c6", "type": "electric_scooter", "name": "f2439f57cf90c559fcd2dbdc3e96b1c6"}, {"is_disabled": 0, "is_reserved": 0, "fusion_lat": 0.0, "lat": 38.89690933333333, "fusion_lon": 0.0, "rental_uris": {"ios": "https://dc.lft.to/lastmile_qr_scan", "android": "https://dc.lft.to/lastmile_qr_scan"}, "lon": -77.024166, "bike_id": "c7de0a1936602a4a5501427f22ff8c11", "type": "electric_bike", "name": "c7de0a1936602a4a5501427f22ff8c11"}, {"is_disabled": 0, "is_reserved": 0, "fusion_lat": 0.0, "lat": 38.943699, "fusion_lon": 0.0, "rental_uris": {"ios": "https://dc.lft.to/lastmile_qr_scan", "android": "https://dc.lft.to/lastmile_qr_scan"}, "lon": -77.06091233333333, "bike_id": "c972b93a20412b99bfd0dcba7fc94924", "type": "electric_scooter", "name": "c972b93a20412b99bfd0dcba7fc94924"}, {"is_disabled": 0, "is_reserved": 0, "fusion_lat": 0.0, "lat": 38.90729783333333, "fusion_lon": 0.0, "rental_uris": {"ios": "https://dc.lft.to/lastmile_qr_scan", "android": "https://dc.lft.to/lastmile_qr_scan"}, "lon": -77.03359116666667, "bike_id": "b4d1e3b992e3420585524d261f9a1832", "type": "electric_scooter", "name": "b4d1e3b992e3420585524d261f9a1832"}, {"is_disabled": 0, "is_reserved": 0, "fusion_lat": 0.0, "lat": 38.961744, "fusion_lon": 0.0, "rental_uris": {"ios": "https://dc.lft.to/lastmile_qr_scan", "android": "https://dc.lft.to/lastmile_qr_scan"}, "lon": -77.0322475, "bike_id": "f7d79abac89af273475200a24741faab", "type": "electric_scooter", "name": "f7d79abac89af273475200a24741faab"}, {"is_disabled": 0, "is_reserved": 0, "fusion_lat": 0.0, "lat": 38.93697233333333, "fusion_lon": 0.0, "rental_uris": {"ios": "https://dc.lft.to/lastmile_qr_scan", "android": "https://dc.lft.to/lastmile_qr_scan"}, "lon": -77.05687133333333, "bike_id": "9cbd3ca7a4de109c0ca97e4de4e394b0", "type": "electric_scooter", "name": "9cbd3ca7a4de109c0ca97e4de4e394b0"}, {"is_disabled": 0, "is_reserved": 0, "fusion_lat": 0.0, "lat": 38.949752333333336, "fusion_lon": 0.0, "rental_uris": {"ios": "https://dc.lft.to/lastmile_qr_scan", "android": "https://dc.lft.to/lastmile_qr_scan"}, "lon": -77.024443, "bike_id": "450c5d2767726665c9e921b2aaa3f00b", "type": "electric_scooter", "name": "450c5d2767726665c9e921b2aaa3f00b"}, {"is_disabled": 0, "is_reserved": 0, "fusion_lat": 0.0, "lat": 38.93216616666667, "fusion_lon": 0.0, "rental_uris": {"ios": "https://dc.lft.to/lastmile_qr_scan", "android": "https://dc.lft.to/lastmile_qr_scan"}, "lon": -77.03655183333333, "bike_id": "30182dae27c20925ee76ddf91f886b76", "type": "electric_scooter", "name": "30182dae27c20925ee76ddf91f886b76"}, {"is_disabled": 0, "is_reserved": 0, "fusion_lat": 0.0, "lat": 38.8941175, "fusion_lon": 0.0, "rental_uris": {"ios": "https://dc.lft.to/lastmile_qr_scan", "android": "https://dc.lft.to/lastmile_qr_scan"}, "lon": -77.021354, "bike_id": "6d2d67dd269290bc4256cb7ff2834ec6", "type": "electric_scooter", "name": "6d2d67dd269290bc4256cb7ff2834ec6"}, {"is_disabled": 0, "is_reserved": 0, "fusion_lat": 0.0, "lat": 38.892229666666665, "fusion_lon": 0.0, "rental_uris": {"ios": "https://dc.lft.to/lastmile_qr_scan", "android": "https://dc.lft.to/lastmile_qr_scan"}, "lon": -77.03336183333333, "bike_id": "a85153abfbd897ba6c14d838d9d4cf5b", "type": "electric_scooter", "name": "a85153abfbd897ba6c14d838d9d4cf5b"}, {"is_disabled": 0, "is_reserved": 0, "fusion_lat": 0.0, "lat": 38.935227833333336, "fusion_lon": 0.0, "rental_uris": {"ios": "https://dc.lft.to/lastmile_qr_scan", "android": "https://dc.lft.to/lastmile_qr_scan"}, "lon": -77.03814566666667, "bike_id": "67f0b1723b69726b0c7f5e981024b24f", "type": "electric_scooter", "name": "67f0b1723b69726b0c7f5e981024b24f"}, {"is_disabled": 0, "is_reserved": 0, "fusion_lat": 0.0, "lat": 38.89499816666667, "fusion_lon": 0.0, "rental_uris": {"ios": "https://dc.lft.to/lastmile_qr_scan", "android": "https://dc.lft.to/lastmile_qr_scan"}, "lon": -77.039603, "bike_id": "9a55174a90a34847103a4db97805d39a", "type": "electric_scooter", "name": "9a55174a90a34847103a4db97805d39a"}, {"is_disabled": 0, "is_reserved": 0, "fusion_lat": 0.0, "lat": 38.885085833333335, "fusion_lon": 0.0, "rental_uris": {"ios": "https://dc.lft.to/lastmile_qr_scan", "android": "https://dc.lft.to/lastmile_qr_scan"}, "lon": -77.01115816666666, "bike_id": "3130cb9a565cb898931bcfb31a353558", "type": "electric_scooter", "name": "3130cb9a565cb898931bcfb31a353558"}, {"is_disabled": 0, "is_reserved": 0, "fusion_lat": 0.0, "lat": 38.96797983333333, "fusion_lon": 0.0, "rental_uris": {"ios": "https://dc.lft.to/lastmile_qr_scan", "android": "https://dc.lft.to/lastmile_qr_scan"}, "lon": -77.0243085, "bike_id": "722cce6c2418db90acfe26cb8f965f43", "type": "electric_scooter", "name": "722cce6c2418db90acfe26cb8f965f43"}, {"is_disabled": 0, "is_reserved": 0, "fusion_lat": 0.0, "lat": 38.90882666666667, "fusion_lon": 0.0, "rental_uris": {"ios": "https://dc.lft.to/lastmile_qr_scan", "android": "https://dc.lft.to/lastmile_qr_scan"}, "lon": -77.00261616666667, "bike_id": "517ab4339165ca1365ce492156b6cb36", "type": "electric_scooter", "name": "517ab4339165ca1365ce492156b6cb36"}, {"is_disabled": 0, "is_reserved": 0, "fusion_lat": 0.0, "lat": 38.881596, "fusion_lon": 0.0, "rental_uris": {"ios": "https://dc.lft.to/lastmile_qr_scan", "android": "https://dc.lft.to/lastmile_qr_scan"}, "lon": -77.0276555, "bike_id": "5c1227e366361a4e6d0d8b8dda83ea40", "type": "electric_scooter", "name": "5c1227e366361a4e6d0d8b8dda83ea40"}, {"is_disabled": 0, "is_reserved": 0, "fusion_lat": 0.0, "lat": 38.9014875, "fusion_lon": 0.0, "rental_uris": {"ios": "https://dc.lft.to/lastmile_qr_scan", "android": "https://dc.lft.to/lastmile_qr_scan"}, "lon": -77.02491766666667, "bike_id": "050992067b4cb97806b6d32861b1a2a0", "type": "electric_scooter", "name": "050992067b4cb97806b6d32861b1a2a0"}, {"is_disabled": 0, "is_reserved": 0, "fusion_lat": 0.0, "lat": 38.944911166666664, "fusion_lon": 0.0, "rental_uris": {"ios": "https://dc.lft.to/lastmile_qr_scan", "android": "https://dc.lft.to/lastmile_qr_scan"}, "lon": -77.007398, "bike_id": "7220cc9a1cf80b178f1f3ca163d2d610", "type": "electric_bike", "name": "7220cc9a1cf80b178f1f3ca163d2d610"}, {"is_disabled": 0, "is_reserved": 0, "fusion_lat": 0.0, "lat": 38.805198833333336, "fusion_lon": 0.0, "rental_uris": {"ios": "https://dc.lft.to/lastmile_qr_scan", "android": "https://dc.lft.to/lastmile_qr_scan"}, "lon": -77.04342116666666, "bike_id": "a27300ad83775a17a0bb395e184cb868", "type": "electric_bike", "name": "a27300ad83775a17a0bb395e184cb868"}, {"is_disabled": 0, "is_reserved": 0, "fusion_lat": 0.0, "lat": 38.908462166666666, "fusion_lon": 0.0, "rental_uris": {"ios": "https://dc.lft.to/lastmile_qr_scan", "android": "https://dc.lft.to/lastmile_qr_scan"}, "lon": -76.93446783333333, "bike_id": "7b96189fdfdfca997648efc99e33632f", "type": "electric_scooter", "name": "7b96189fdfdfca997648efc99e33632f"}, {"is_disabled": 0, "is_reserved": 0, "fusion_lat": 0.0, "lat": 38.920458333333336, "fusion_lon": 0.0, "rental_uris": {"ios": "https://dc.lft.to/lastmile_qr_scan", "android": "https://dc.lft.to/lastmile_qr_scan"}, "lon": -77.02575616666667, "bike_id": "f2dfb4fdd7ec42d0641fcf7929c73194", "type": "electric_scooter", "name": "f2dfb4fdd7ec42d0641fcf7929c73194"}, {"is_disabled": 0, "is_reserved": 0, "fusion_lat": 0.0, "lat": 38.91147466666666, "fusion_lon": 0.0, "rental_uris": {"ios": "https://dc.lft.to/lastmile_qr_scan", "android": "https://dc.lft.to/lastmile_qr_scan"}, "lon": -77.0447345, "bike_id": "8e00d78358a17ec08ccf55fc9bcb1a97", "type": "electric_scooter", "name": "8e00d78358a17ec08ccf55fc9bcb1a97"}, {"is_disabled": 0, "is_reserved": 0, "fusion_lat": 0.0, "lat": 38.90197933333334, "fusion_lon": 0.0, "rental_uris": {"ios": "https://dc.lft.to/lastmile_qr_scan", "android": "https://dc.lft.to/lastmile_qr_scan"}, "lon": -77.0508965, "bike_id": "bd3e20595d1ea31027404e468f48b027", "type": "electric_scooter", "name": "bd3e20595d1ea31027404e468f48b027"}, {"is_disabled": 0, "is_reserved": 0, "fusion_lat": 0.0, "lat": 38.92417433333333, "fusion_lon": 0.0, "rental_uris": {"ios": "https://dc.lft.to/lastmile_qr_scan", "android": "https://dc.lft.to/lastmile_qr_scan"}, "lon": -77.02300166666667, "bike_id": "86d2f18a61f84cc23e19dd5f7ca6be3c", "type": "electric_scooter", "name": "86d2f18a61f84cc23e19dd5f7ca6be3c"}, {"is_disabled": 0, "is_reserved": 0, "fusion_lat": 0.0, "lat": 38.931025, "fusion_lon": 0.0, "rental_uris": {"ios": "https://dc.lft.to/lastmile_qr_scan", "android": "https://dc.lft.to/lastmile_qr_scan"}, "lon": -77.02473316666666, "bike_id": "915f6023db3e0e7c6908c53cb73f5a19", "type": "electric_scooter", "name": "915f6023db3e0e7c6908c53cb73f5a19"}, {"is_disabled": 0, "is_reserved": 0, "fusion_lat": 0.0, "lat": 38.9265445, "fusion_lon": 0.0, "rental_uris": {"ios": "https://dc.lft.to/lastmile_qr_scan", "android": "https://dc.lft.to/lastmile_qr_scan"}, "lon": -77.0243305, "bike_id": "083c9502f0c2287ebfe8915440255fd2", "type": "electric_scooter", "name": "083c9502f0c2287ebfe8915440255fd2"}, {"is_disabled": 0, "is_reserved": 0, "fusion_lat": 0.0, "lat": 38.9471905, "fusion_lon": 0.0, "rental_uris": {"ios": "https://dc.lft.to/lastmile_qr_scan", "android": "https://dc.lft.to/lastmile_qr_scan"}, "lon": -77.0235295, "bike_id": "6cc5097e0f985559d4d68c3fb96d0773", "type": "electric_scooter", "name": "6cc5097e0f985559d4d68c3fb96d0773"}, {"is_disabled": 0, "is_reserved": 0, "fusion_lat": 0.0, "lat": 38.918164833333336, "fusion_lon": 0.0, "rental_uris": {"ios": "https://dc.lft.to/lastmile_qr_scan", "android": "https://dc.lft.to/lastmile_qr_scan"}, "lon": -77.02527383333333, "bike_id": "106a20de8c2254d8b5edc668a958afe5", "type": "electric_scooter", "name": "106a20de8c2254d8b5edc668a958afe5"}, {"is_disabled": 0, "is_reserved": 0, "fusion_lat": 0.0, "lat": 38.91344766666667, "fusion_lon": 0.0, "rental_uris": {"ios": "https://dc.lft.to/lastmile_qr_scan", "android": "https://dc.lft.to/lastmile_qr_scan"}, "lon": -77.03125516666667, "bike_id": "3a8e5578db0964fef4f43e6482b15955", "type": "electric_scooter", "name": "3a8e5578db0964fef4f43e6482b15955"}, {"is_disabled": 0, "is_reserved": 0, "fusion_lat": 0.0, "lat": 38.9177915, "fusion_lon": 0.0, "rental_uris": {"ios": "https://dc.lft.to/lastmile_qr_scan", "android": "https://dc.lft.to/lastmile_qr_scan"}, "lon": -77.024721, "bike_id": "e4d4a4a4e64afa464818f10cd29abe1b", "type": "electric_scooter", "name": "e4d4a4a4e64afa464818f10cd29abe1b"}, {"is_disabled": 0, "is_reserved": 0, "fusion_lat": 0.0, "lat": 38.88355983333334, "fusion_lon": 0.0, "rental_uris": {"ios": "https://dc.lft.to/lastmile_qr_scan", "android": "https://dc.lft.to/lastmile_qr_scan"}, "lon": -76.9576915, "bike_id": "dafc79d4a9b577c3c2653f1c1c1d886e", "type": "electric_scooter", "name": "dafc79d4a9b577c3c2653f1c1c1d886e"}, {"is_disabled": 0, "is_reserved": 0, "fusion_lat": 0.0, "lat": 38.942604333333335, "fusion_lon": 0.0, "rental_uris": {"ios": "https://dc.lft.to/lastmile_qr_scan", "android": "https://dc.lft.to/lastmile_qr_scan"}, "lon": -76.98453183333334, "bike_id": "1aff03276e544b6c504e56adaf594165", "type": "electric_scooter", "name": "1aff03276e544b6c504e56adaf594165"}, {"is_disabled": 0, "is_reserved": 0, "fusion_lat": 0.0, "lat": 38.896714, "fusion_lon": 0.0, "rental_uris": {"ios": "https://dc.lft.to/lastmile_qr_scan", "android": "https://dc.lft.to/lastmile_qr_scan"}, "lon": -77.051394, "bike_id": "e1a8fb603777c34b7a2b6ebaa1c06e63", "type": "electric_scooter", "name": "e1a8fb603777c34b7a2b6ebaa1c06e63"}, {"is_disabled": 0, "is_reserved": 0, "fusion_lat": 0.0, "lat": 38.924445166666665, "fusion_lon": 0.0, "rental_uris": {"ios": "https://dc.lft.to/lastmile_qr_scan", "android": "https://dc.lft.to/lastmile_qr_scan"}, "lon": -77.0388745, "bike_id": "55114944e4184821f6633a1e20d00d9c", "type": "electric_scooter", "name": "55114944e4184821f6633a1e20d00d9c"}, {"is_disabled": 0, "is_reserved": 0, "fusion_lat": 0.0, "lat": 38.906938833333335, "fusion_lon": 0.0, "rental_uris": {"ios": "https://dc.lft.to/lastmile_qr_scan", "android": "https://dc.lft.to/lastmile_qr_scan"}, "lon": -76.95251283333333, "bike_id": "0e0c28b4f4d5f3ba671303d1a3382a7b", "type": "electric_bike", "name": "0e0c28b4f4d5f3ba671303d1a3382a7b"}, {"is_disabled": 0, "is_reserved": 0, "fusion_lat": 0.0, "lat": 38.9471755, "fusion_lon": 0.0, "rental_uris": {"ios": "https://dc.lft.to/lastmile_qr_scan", "android": "https://dc.lft.to/lastmile_qr_scan"}, "lon": -77.06803916666667, "bike_id": "9c2895767eb72f0ece8e0bd216e0b760", "type": "electric_scooter", "name": "9c2895767eb72f0ece8e0bd216e0b760"}, {"is_disabled": 0, "is_reserved": 0, "fusion_lat": 0.0, "lat": 38.95427316666667, "fusion_lon": 0.0, "rental_uris": {"ios": "https://dc.lft.to/lastmile_qr_scan", "android": "https://dc.lft.to/lastmile_qr_scan"}, "lon": -76.98797283333333, "bike_id": "c8a3a280f5e99af0fb066c95c1964d98", "type": "electric_scooter", "name": "c8a3a280f5e99af0fb066c95c1964d98"}, {"is_disabled": 0, "is_reserved": 0, "fusion_lat": 0.0, "lat": 38.928566000000004, "fusion_lon": 0.0, "rental_uris": {"ios": "https://dc.lft.to/lastmile_qr_scan", "android": "https://dc.lft.to/lastmile_qr_scan"}, "lon": -77.01394733333333, "bike_id": "60cb8d5872299f5d88913eab41d2cbb6", "type": "electric_scooter", "name": "60cb8d5872299f5d88913eab41d2cbb6"}, {"is_disabled": 0, "is_reserved": 0, "fusion_lat": 0.0, "lat": 38.91569633333334, "fusion_lon": 0.0, "rental_uris": {"ios": "https://dc.lft.to/lastmile_qr_scan", "android": "https://dc.lft.to/lastmile_qr_scan"}, "lon": -77.03184933333333, "bike_id": "34222892476bbc5408007369b788684d", "type": "electric_scooter", "name": "34222892476bbc5408007369b788684d"}, {"is_disabled": 0, "is_reserved": 0, "fusion_lat": 0.0, "lat": 38.905977666666665, "fusion_lon": 0.0, "rental_uris": {"ios": "https://dc.lft.to/lastmile_qr_scan", "android": "https://dc.lft.to/lastmile_qr_scan"}, "lon": -77.0318215, "bike_id": "c7d657567883d394db7305a5e9699991", "type": "electric_scooter", "name": "c7d657567883d394db7305a5e9699991"}, {"is_disabled": 0, "is_reserved": 0, "fusion_lat": 0.0, "lat": 38.9053335, "fusion_lon": 0.0, "rental_uris": {"ios": "https://dc.lft.to/lastmile_qr_scan", "android": "https://dc.lft.to/lastmile_qr_scan"}, "lon": -77.059139, "bike_id": "42a22f99ed71cfc6a947014d498d7042", "type": "electric_bike", "name": "42a22f99ed71cfc6a947014d498d7042"}, {"is_disabled": 0, "is_reserved": 0, "fusion_lat": 0.0, "lat": 38.90634516666667, "fusion_lon": 0.0, "rental_uris": {"ios": "https://dc.lft.to/lastmile_qr_scan", "android": "https://dc.lft.to/lastmile_qr_scan"}, "lon": -77.06909066666667, "bike_id": "586e54f5e312177b4f6215ecc6521a88", "type": "electric_scooter", "name": "586e54f5e312177b4f6215ecc6521a88"}, {"is_disabled": 0, "is_reserved": 0, "fusion_lat": 0.0, "lat": 38.891354, "fusion_lon": 0.0, "rental_uris": {"ios": "https://dc.lft.to/lastmile_qr_scan", "android": "https://dc.lft.to/lastmile_qr_scan"}, "lon": -76.99941666666666, "bike_id": "cb71ba03ecd601eb9b6a36fd73746adf", "type": "electric_scooter", "name": "cb71ba03ecd601eb9b6a36fd73746adf"}, {"is_disabled": 0, "is_reserved": 0, "fusion_lat": 0.0, "lat": 38.876382, "fusion_lon": 0.0, "rental_uris": {"ios": "https://dc.lft.to/lastmile_qr_scan", "android": "https://dc.lft.to/lastmile_qr_scan"}, "lon": -76.99294383333333, "bike_id": "22c259c6430d3d0ce480011a3aac0448", "type": "electric_scooter", "name": "22c259c6430d3d0ce480011a3aac0448"}, {"is_disabled": 0, "is_reserved": 0, "fusion_lat": 0.0, "lat": 38.864721333333335, "fusion_lon": 0.0, "rental_uris": {"ios": "https://dc.lft.to/lastmile_qr_scan", "android": "https://dc.lft.to/lastmile_qr_scan"}, "lon": -76.97755366666667, "bike_id": "b22e1e2f1c3502dea2a7e9375a4d62cc", "type": "electric_scooter", "name": "b22e1e2f1c3502dea2a7e9375a4d62cc"}, {"is_disabled": 0, "is_reserved": 0, "fusion_lat": 0.0, "lat": 38.89224566666667, "fusion_lon": 0.0, "rental_uris": {"ios": "https://dc.lft.to/lastmile_qr_scan", "android": "https://dc.lft.to/lastmile_qr_scan"}, "lon": -77.0433465, "bike_id": "5f9e6b6a1b579be4e257bd696d7ed031", "type": "electric_scooter", "name": "5f9e6b6a1b579be4e257bd696d7ed031"}, {"is_disabled": 0, "is_reserved": 0, "fusion_lat": 0.0, "lat": 38.82429366666667, "fusion_lon": 0.0, "rental_uris": {"ios": "https://dc.lft.to/lastmile_qr_scan", "android": "https://dc.lft.to/lastmile_qr_scan"}, "lon": -77.12039866666667, "bike_id": "6029b9f1a2b8184a4e72800341460eaf", "type": "electric_bike", "name": "6029b9f1a2b8184a4e72800341460eaf"}, {"is_disabled": 0, "is_reserved": 0, "fusion_lat": 0.0, "lat": 38.86556366666667, "fusion_lon": 0.0, "rental_uris": {"ios": "https://dc.lft.to/lastmile_qr_scan", "android": "https://dc.lft.to/lastmile_qr_scan"}, "lon": -76.97473283333333, "bike_id": "d4239378a7472b9dbef8c964ee3a15a7", "type": "electric_bike", "name": "d4239378a7472b9dbef8c964ee3a15a7"}, {"is_disabled": 0, "is_reserved": 0, "fusion_lat": 0.0, "lat": 38.882191666666664, "fusion_lon": 0.0, "rental_uris": {"ios": "https://dc.lft.to/lastmile_qr_scan", "android": "https://dc.lft.to/lastmile_qr_scan"}, "lon": -76.99732716666666, "bike_id": "e2b1659e4396bb59af3611fb78c74955", "type": "electric_scooter", "name": "e2b1659e4396bb59af3611fb78c74955"}, {"is_disabled": 0, "is_reserved": 0, "fusion_lat": 0.0, "lat": 38.8730545, "fusion_lon": 0.0, "rental_uris": {"ios": "https://dc.lft.to/lastmile_qr_scan", "android": "https://dc.lft.to/lastmile_qr_scan"}, "lon": -77.01074333333334, "bike_id": "3c3bb1df0fd0db9b9c0a9d4f25666bad", "type": "electric_scooter", "name": "3c3bb1df0fd0db9b9c0a9d4f25666bad"}, {"is_disabled": 0, "is_reserved": 0, "fusion_lat": 0.0, "lat": 38.85639366666667, "fusion_lon": 0.0, "rental_uris": {"ios": "https://dc.lft.to/lastmile_qr_scan", "android": "https://dc.lft.to/lastmile_qr_scan"}, "lon": -77.06831516666666, "bike_id": "0c070a2c690ff5f283c3266e9ecb338c", "type": "electric_bike", "name": "0c070a2c690ff5f283c3266e9ecb338c"}, {"is_disabled": 0, "is_reserved": 0, "fusion_lat": 0.0, "lat": 38.9204595, "fusion_lon": 0.0, "rental_uris": {"ios": "https://dc.lft.to/lastmile_qr_scan", "android": "https://dc.lft.to/lastmile_qr_scan"}, "lon": -77.0257855, "bike_id": "c11d4a0586c122a1e1ad397542a74b10", "type": "electric_scooter", "name": "c11d4a0586c122a1e1ad397542a74b10"}, {"is_disabled": 0, "is_reserved": 0, "fusion_lat": 0.0, "lat": 38.82761216666667, "fusion_lon": 0.0, "rental_uris": {"ios": "https://dc.lft.to/lastmile_qr_scan", "android": "https://dc.lft.to/lastmile_qr_scan"}, "lon": -77.05030433333333, "bike_id": "579d35cb93ff1cf0bc4798f08aa49f95", "type": "electric_bike", "name": "579d35cb93ff1cf0bc4798f08aa49f95"}, {"is_disabled": 0, "is_reserved": 0, "fusion_lat": 0.0, "lat": 38.89222216666667, "fusion_lon": 0.0, "rental_uris": {"ios": "https://dc.lft.to/lastmile_qr_scan", "android": "https://dc.lft.to/lastmile_qr_scan"}, "lon": -77.0486805, "bike_id": "d5e30b7927e14e64620dbaa5c4d43476", "type": "electric_scooter", "name": "d5e30b7927e14e64620dbaa5c4d43476"}, {"is_disabled": 0, "is_reserved": 0, "fusion_lat": 0.0, "lat": 38.901503166666664, "fusion_lon": 0.0, "rental_uris": {"ios": "https://dc.lft.to/lastmile_qr_scan", "android": "https://dc.lft.to/lastmile_qr_scan"}, "lon": -77.04159366666667, "bike_id": "6795b09c6ffcf770e465e582f6f78a8a", "type": "electric_scooter", "name": "6795b09c6ffcf770e465e582f6f78a8a"}, {"is_disabled": 0, "is_reserved": 0, "fusion_lat": 0.0, "lat": 38.8802945, "fusion_lon": 0.0, "rental_uris": {"ios": "https://dc.lft.to/lastmile_qr_scan", "android": "https://dc.lft.to/lastmile_qr_scan"}, "lon": -77.0250555, "bike_id": "b58fa0f551c3fda8072d61fd2868bb29", "type": "electric_scooter", "name": "b58fa0f551c3fda8072d61fd2868bb29"}, {"is_disabled": 0, "is_reserved": 0, "fusion_lat": 0.0, "lat": 38.915529166666666, "fusion_lon": 0.0, "rental_uris": {"ios": "https://dc.lft.to/lastmile_qr_scan", "android": "https://dc.lft.to/lastmile_qr_scan"}, "lon": -77.02136883333333, "bike_id": "8e14d0855becc03b43f1cba39500621f", "type": "electric_scooter", "name": "8e14d0855becc03b43f1cba39500621f"}, {"is_disabled": 0, "is_reserved": 0, "fusion_lat": 0.0, "lat": 38.921439, "fusion_lon": 0.0, "rental_uris": {"ios": "https://dc.lft.to/lastmile_qr_scan", "android": "https://dc.lft.to/lastmile_qr_scan"}, "lon": -77.03506066666667, "bike_id": "cc49ed2165a9a4fef19da9777704177c", "type": "electric_scooter", "name": "cc49ed2165a9a4fef19da9777704177c"}, {"is_disabled": 0, "is_reserved": 0, "fusion_lat": 0.0, "lat": 38.928124, "fusion_lon": 0.0, "rental_uris": {"ios": "https://dc.lft.to/lastmile_qr_scan", "android": "https://dc.lft.to/lastmile_qr_scan"}, "lon": -77.0435465, "bike_id": "65784ff080979fcc234dc1ffe3199a8e", "type": "electric_scooter", "name": "65784ff080979fcc234dc1ffe3199a8e"}, {"is_disabled": 0, "is_reserved": 0, "fusion_lat": 0.0, "lat": 38.896060166666665, "fusion_lon": 0.0, "rental_uris": {"ios": "https://dc.lft.to/lastmile_qr_scan", "android": "https://dc.lft.to/lastmile_qr_scan"}, "lon": -77.04688616666667, "bike_id": "a0c29fabc3737bbbbd7e4ebc17908e7f", "type": "electric_scooter", "name": "a0c29fabc3737bbbbd7e4ebc17908e7f"}, {"is_disabled": 0, "is_reserved": 0, "fusion_lat": 0.0, "lat": 38.941333, "fusion_lon": 0.0, "rental_uris": {"ios": "https://dc.lft.to/lastmile_qr_scan", "android": "https://dc.lft.to/lastmile_qr_scan"}, "lon": -77.02321533333334, "bike_id": "20d4cbac5df0448d4d907195d25573e5", "type": "electric_scooter", "name": "20d4cbac5df0448d4d907195d25573e5"}, {"is_disabled": 0, "is_reserved": 0, "fusion_lat": 0.0, "lat": 38.931096333333336, "fusion_lon": 0.0, "rental_uris": {"ios": "https://dc.lft.to/lastmile_qr_scan", "android": "https://dc.lft.to/lastmile_qr_scan"}, "lon": -77.03465583333333, "bike_id": "f1f2e7815e8291ed39345b5d3e4fd609", "type": "electric_scooter", "name": "f1f2e7815e8291ed39345b5d3e4fd609"}, {"is_disabled": 0, "is_reserved": 0, "fusion_lat": 0.0, "lat": 38.922044666666665, "fusion_lon": 0.0, "rental_uris": {"ios": "https://dc.lft.to/lastmile_qr_scan", "android": "https://dc.lft.to/lastmile_qr_scan"}, "lon": -77.037711, "bike_id": "5b15037952fe34176bd9f41c24a4aeed", "type": "electric_scooter", "name": "5b15037952fe34176bd9f41c24a4aeed"}, {"is_disabled": 0, "is_reserved": 0, "fusion_lat": 0.0, "lat": 38.93411183333333, "fusion_lon": 0.0, "rental_uris": {"ios": "https://dc.lft.to/lastmile_qr_scan", "android": "https://dc.lft.to/lastmile_qr_scan"}, "lon": -77.020492, "bike_id": "1a20e7a9619a95a5981771d0399735a6", "type": "electric_scooter", "name": "1a20e7a9619a95a5981771d0399735a6"}, {"is_disabled": 0, "is_reserved": 0, "fusion_lat": 0.0, "lat": 38.935329833333334, "fusion_lon": 0.0, "rental_uris": {"ios": "https://dc.lft.to/lastmile_qr_scan", "android": "https://dc.lft.to/lastmile_qr_scan"}, "lon": -77.0235375, "bike_id": "6879e096dce79a6ec5cda3ba338032ec", "type": "electric_scooter", "name": "6879e096dce79a6ec5cda3ba338032ec"}, {"is_disabled": 0, "is_reserved": 0, "fusion_lat": 0.0, "lat": 38.8950665, "fusion_lon": 0.0, "rental_uris": {"ios": "https://dc.lft.to/lastmile_qr_scan", "android": "https://dc.lft.to/lastmile_qr_scan"}, "lon": -77.0228575, "bike_id": "42b83984435d71bcac73b79845dd0d42", "type": "electric_scooter", "name": "42b83984435d71bcac73b79845dd0d42"}, {"is_disabled": 0, "is_reserved": 0, "fusion_lat": 0.0, "lat": 38.9430335, "fusion_lon": 0.0, "rental_uris": {"ios": "https://dc.lft.to/lastmile_qr_scan", "android": "https://dc.lft.to/lastmile_qr_scan"}, "lon": -77.01846116666667, "bike_id": "48d5a9ff67cd3e6df5c604e1f1d8669b", "type": "electric_scooter", "name": "48d5a9ff67cd3e6df5c604e1f1d8669b"}, {"is_disabled": 0, "is_reserved": 0, "fusion_lat": 0.0, "lat": 38.91564233333333, "fusion_lon": 0.0, "rental_uris": {"ios": "https://dc.lft.to/lastmile_qr_scan", "android": "https://dc.lft.to/lastmile_qr_scan"}, "lon": -77.0363345, "bike_id": "e3afb3931e5e0fc4ab22f76405c6f40f", "type": "electric_scooter", "name": "e3afb3931e5e0fc4ab22f76405c6f40f"}, {"is_disabled": 0, "is_reserved": 0, "fusion_lat": 0.0, "lat": 38.898466666666664, "fusion_lon": 0.0, "rental_uris": {"ios": "https://dc.lft.to/lastmile_qr_scan", "android": "https://dc.lft.to/lastmile_qr_scan"}, "lon": -77.028631, "bike_id": "7c28e30ad9049713ddda2f3cbae8d283", "type": "electric_scooter", "name": "7c28e30ad9049713ddda2f3cbae8d283"}, {"is_disabled": 0, "is_reserved": 0, "fusion_lat": 0.0, "lat": 38.903639, "fusion_lon": 0.0, "rental_uris": {"ios": "https://dc.lft.to/lastmile_qr_scan", "android": "https://dc.lft.to/lastmile_qr_scan"}, "lon": -77.00345383333334, "bike_id": "8d7061f36a3982bb16554512638d5667", "type": "electric_scooter", "name": "8d7061f36a3982bb16554512638d5667"}, {"is_disabled": 0, "is_reserved": 0, "fusion_lat": 0.0, "lat": 38.93399866666667, "fusion_lon": 0.0, "rental_uris": {"ios": "https://dc.lft.to/lastmile_qr_scan", "android": "https://dc.lft.to/lastmile_qr_scan"}, "lon": -77.0261655, "bike_id": "b3f68889821d68f3488e1b782d74e44a", "type": "electric_scooter", "name": "b3f68889821d68f3488e1b782d74e44a"}, {"is_disabled": 0, "is_reserved": 0, "fusion_lat": 0.0, "lat": 38.89666116666667, "fusion_lon": 0.0, "rental_uris": {"ios": "https://dc.lft.to/lastmile_qr_scan", "android": "https://dc.lft.to/lastmile_qr_scan"}, "lon": -76.94911383333333, "bike_id": "b5fd856730d2be696afa3acdaa210147", "type": "electric_scooter", "name": "b5fd856730d2be696afa3acdaa210147"}, {"is_disabled": 0, "is_reserved": 0, "fusion_lat": 0.0, "lat": 38.8844995, "fusion_lon": 0.0, "rental_uris": {"ios": "https://dc.lft.to/lastmile_qr_scan", "android": "https://dc.lft.to/lastmile_qr_scan"}, "lon": -76.95096816666667, "bike_id": "9bf78851de28e6a5557c49b3fad75890", "type": "electric_scooter", "name": "9bf78851de28e6a5557c49b3fad75890"}, {"is_disabled": 0, "is_reserved": 0, "fusion_lat": 0.0, "lat": 38.928381, "fusion_lon": 0.0, "rental_uris": {"ios": "https://dc.lft.to/lastmile_qr_scan", "android": "https://dc.lft.to/lastmile_qr_scan"}, "lon": -77.01407916666666, "bike_id": "d2bc92d36779f2a00fcb202a81a079bf", "type": "electric_scooter", "name": "d2bc92d36779f2a00fcb202a81a079bf"}, {"is_disabled": 0, "is_reserved": 0, "fusion_lat": 0.0, "lat": 38.90522983333334, "fusion_lon": 0.0, "rental_uris": {"ios": "https://dc.lft.to/lastmile_qr_scan", "android": "https://dc.lft.to/lastmile_qr_scan"}, "lon": -77.06604366666667, "bike_id": "2f09c3edd46c8dd9f3a993c1ddc2b631", "type": "electric_scooter", "name": "2f09c3edd46c8dd9f3a993c1ddc2b631"}, {"is_disabled": 0, "is_reserved": 0, "fusion_lat": 0.0, "lat": 38.95239516666667, "fusion_lon": 0.0, "rental_uris": {"ios": "https://dc.lft.to/lastmile_qr_scan", "android": "https://dc.lft.to/lastmile_qr_scan"}, "lon": -77.00248716666667, "bike_id": "78b8e5322c68a8cfd6e8e01bcbc017d3", "type": "electric_bike", "name": "78b8e5322c68a8cfd6e8e01bcbc017d3"}, {"is_disabled": 0, "is_reserved": 0, "fusion_lat": 0.0, "lat": 38.881287666666665, "fusion_lon": 0.0, "rental_uris": {"ios": "https://dc.lft.to/lastmile_qr_scan", "android": "https://dc.lft.to/lastmile_qr_scan"}, "lon": -77.0227355, "bike_id": "f20b19cac203ad1e5f01f0941b5a49d0", "type": "electric_scooter", "name": "f20b19cac203ad1e5f01f0941b5a49d0"}, {"is_disabled": 0, "is_reserved": 0, "fusion_lat": 0.0, "lat": 38.89844633333333, "fusion_lon": 0.0, "rental_uris": {"ios": "https://dc.lft.to/lastmile_qr_scan", "android": "https://dc.lft.to/lastmile_qr_scan"}, "lon": -77.02862, "bike_id": "6966a679800062e618b7b85a0cb5fa41", "type": "electric_scooter", "name": "6966a679800062e618b7b85a0cb5fa41"}, {"is_disabled": 0, "is_reserved": 0, "fusion_lat": 0.0, "lat": 38.91402866666667, "fusion_lon": 0.0, "rental_uris": {"ios": "https://dc.lft.to/lastmile_qr_scan", "android": "https://dc.lft.to/lastmile_qr_scan"}, "lon": -77.03964816666667, "bike_id": "a0fcf066b7434a6a52b3201ce48c44f7", "type": "electric_scooter", "name": "a0fcf066b7434a6a52b3201ce48c44f7"}, {"is_disabled": 0, "is_reserved": 0, "fusion_lat": 0.0, "lat": 38.89222, "fusion_lon": 0.0, "rental_uris": {"ios": "https://dc.lft.to/lastmile_qr_scan", "android": "https://dc.lft.to/lastmile_qr_scan"}, "lon": -77.02968866666667, "bike_id": "bb44aa8e3ec3a86ea4c16173e555ba25", "type": "electric_scooter", "name": "bb44aa8e3ec3a86ea4c16173e555ba25"}, {"is_disabled": 0, "is_reserved": 0, "fusion_lat": 0.0, "lat": 38.928543833333336, "fusion_lon": 0.0, "rental_uris": {"ios": "https://dc.lft.to/lastmile_qr_scan", "android": "https://dc.lft.to/lastmile_qr_scan"}, "lon": -77.02878083333333, "bike_id": "e125314ad26bfcc23f810ab9b7282b01", "type": "electric_scooter", "name": "e125314ad26bfcc23f810ab9b7282b01"}, {"is_disabled": 0, "is_reserved": 0, "fusion_lat": 0.0, "lat": 38.91050833333333, "fusion_lon": 0.0, "rental_uris": {"ios": "https://dc.lft.to/lastmile_qr_scan", "android": "https://dc.lft.to/lastmile_qr_scan"}, "lon": -77.04336916666666, "bike_id": "be679a0d969877ddbb25f5073f009d2b", "type": "electric_scooter", "name": "be679a0d969877ddbb25f5073f009d2b"}, {"is_disabled": 0, "is_reserved": 0, "fusion_lat": 0.0, "lat": 38.936011666666666, "fusion_lon": 0.0, "rental_uris": {"ios": "https://dc.lft.to/lastmile_qr_scan", "android": "https://dc.lft.to/lastmile_qr_scan"}, "lon": -77.038752, "bike_id": "e50332c22c6c166cc1530d2a73d12197", "type": "electric_scooter", "name": "e50332c22c6c166cc1530d2a73d12197"}, {"is_disabled": 0, "is_reserved": 0, "fusion_lat": 0.0, "lat": 38.900015333333336, "fusion_lon": 0.0, "rental_uris": {"ios": "https://dc.lft.to/lastmile_qr_scan", "android": "https://dc.lft.to/lastmile_qr_scan"}, "lon": -77.02180433333334, "bike_id": "2b4597408995305537d06ff7a277735d", "type": "electric_scooter", "name": "2b4597408995305537d06ff7a277735d"}, {"is_disabled": 0, "is_reserved": 0, "fusion_lat": 0.0, "lat": 38.908266, "fusion_lon": 0.0, "rental_uris": {"ios": "https://dc.lft.to/lastmile_qr_scan", "android": "https://dc.lft.to/lastmile_qr_scan"}, "lon": -77.03200666666666, "bike_id": "c7d39185c7604ad431b7512523aff54c", "type": "electric_scooter", "name": "c7d39185c7604ad431b7512523aff54c"}, {"is_disabled": 0, "is_reserved": 0, "fusion_lat": 0.0, "lat": 38.93413, "fusion_lon": 0.0, "rental_uris": {"ios": "https://dc.lft.to/lastmile_qr_scan", "android": "https://dc.lft.to/lastmile_qr_scan"}, "lon": -77.04278683333334, "bike_id": "948ee05010fc6ac779c7f75818f21107", "type": "electric_scooter", "name": "948ee05010fc6ac779c7f75818f21107"}, {"is_disabled": 0, "is_reserved": 0, "fusion_lat": 0.0, "lat": 38.9211945, "fusion_lon": 0.0, "rental_uris": {"ios": "https://dc.lft.to/lastmile_qr_scan", "android": "https://dc.lft.to/lastmile_qr_scan"}, "lon": -77.03661, "bike_id": "46ccdb15387ae188181480816ac25a32", "type": "electric_scooter", "name": "46ccdb15387ae188181480816ac25a32"}, {"is_disabled": 0, "is_reserved": 0, "fusion_lat": 0.0, "lat": 38.908873166666666, "fusion_lon": 0.0, "rental_uris": {"ios": "https://dc.lft.to/lastmile_qr_scan", "android": "https://dc.lft.to/lastmile_qr_scan"}, "lon": -76.99782016666667, "bike_id": "521f3e2c6148ca93593c2ce9f9dff68a", "type": "electric_scooter", "name": "521f3e2c6148ca93593c2ce9f9dff68a"}, {"is_disabled": 0, "is_reserved": 0, "fusion_lat": 0.0, "lat": 38.894964333333334, "fusion_lon": 0.0, "rental_uris": {"ios": "https://dc.lft.to/lastmile_qr_scan", "android": "https://dc.lft.to/lastmile_qr_scan"}, "lon": -77.0257175, "bike_id": "ebdadfba0ba011121d6252e284ae559e", "type": "electric_scooter", "name": "ebdadfba0ba011121d6252e284ae559e"}, {"is_disabled": 0, "is_reserved": 0, "fusion_lat": 0.0, "lat": 38.84277066666667, "fusion_lon": 0.0, "rental_uris": {"ios": "https://dc.lft.to/lastmile_qr_scan", "android": "https://dc.lft.to/lastmile_qr_scan"}, "lon": -76.98839683333334, "bike_id": "e6bcfac0a5f8572bcac13388d8bfabc1", "type": "electric_bike", "name": "e6bcfac0a5f8572bcac13388d8bfabc1"}, {"is_disabled": 0, "is_reserved": 0, "fusion_lat": 0.0, "lat": 38.9298525, "fusion_lon": 0.0, "rental_uris": {"ios": "https://dc.lft.to/lastmile_qr_scan", "android": "https://dc.lft.to/lastmile_qr_scan"}, "lon": -77.03475383333334, "bike_id": "9450b1937d5f60a65b4dcf6eb83e84b5", "type": "electric_scooter", "name": "9450b1937d5f60a65b4dcf6eb83e84b5"}, {"is_disabled": 0, "is_reserved": 0, "fusion_lat": 0.0, "lat": 38.89544983333333, "fusion_lon": 0.0, "rental_uris": {"ios": "https://dc.lft.to/lastmile_qr_scan", "android": "https://dc.lft.to/lastmile_qr_scan"}, "lon": -77.02679816666667, "bike_id": "9e41177275325415365178e572c89147", "type": "electric_scooter", "name": "9e41177275325415365178e572c89147"}, {"is_disabled": 0, "is_reserved": 0, "fusion_lat": 0.0, "lat": 38.90230483333333, "fusion_lon": 0.0, "rental_uris": {"ios": "https://dc.lft.to/lastmile_qr_scan", "android": "https://dc.lft.to/lastmile_qr_scan"}, "lon": -77.05345116666666, "bike_id": "ad54a4186e9d8feff48c0e5584684a1e", "type": "electric_scooter", "name": "ad54a4186e9d8feff48c0e5584684a1e"}, {"is_disabled": 0, "is_reserved": 0, "fusion_lat": 0.0, "lat": 38.92996083333333, "fusion_lon": 0.0, "rental_uris": {"ios": "https://dc.lft.to/lastmile_qr_scan", "android": "https://dc.lft.to/lastmile_qr_scan"}, "lon": -77.03805816666667, "bike_id": "65be8ec620fbadcceec23d452fb0b5a3", "type": "electric_scooter", "name": "65be8ec620fbadcceec23d452fb0b5a3"}, {"is_disabled": 0, "is_reserved": 0, "fusion_lat": 0.0, "lat": 38.8933055, "fusion_lon": 0.0, "rental_uris": {"ios": "https://dc.lft.to/lastmile_qr_scan", "android": "https://dc.lft.to/lastmile_qr_scan"}, "lon": -76.92889633333333, "bike_id": "c98110dc08983038d1184c4d28a28111", "type": "electric_scooter", "name": "c98110dc08983038d1184c4d28a28111"}, {"is_disabled": 0, "is_reserved": 0, "fusion_lat": 0.0, "lat": 38.90566616666667, "fusion_lon": 0.0, "rental_uris": {"ios": "https://dc.lft.to/lastmile_qr_scan", "android": "https://dc.lft.to/lastmile_qr_scan"}, "lon": -77.058186, "bike_id": "c7605fb0bc1fde43ee0663005e75ee32", "type": "electric_bike", "name": "c7605fb0bc1fde43ee0663005e75ee32"}, {"is_disabled": 0, "is_reserved": 0, "fusion_lat": 0.0, "lat": 38.9176625, "fusion_lon": 0.0, "rental_uris": {"ios": "https://dc.lft.to/lastmile_qr_scan", "android": "https://dc.lft.to/lastmile_qr_scan"}, "lon": -77.02339833333333, "bike_id": "0475c8dd29cfa58715f097713ecbd766", "type": "electric_scooter", "name": "0475c8dd29cfa58715f097713ecbd766"}, {"is_disabled": 0, "is_reserved": 0, "fusion_lat": 0.0, "lat": 38.80557366666667, "fusion_lon": 0.0, "rental_uris": {"ios": "https://dc.lft.to/lastmile_qr_scan", "android": "https://dc.lft.to/lastmile_qr_scan"}, "lon": -77.1322155, "bike_id": "2ee59f7a4f5e0db01d2ccbd8aa404abe", "type": "electric_bike", "name": "2ee59f7a4f5e0db01d2ccbd8aa404abe"}, {"is_disabled": 0, "is_reserved": 0, "fusion_lat": 0.0, "lat": 38.9082735, "fusion_lon": 0.0, "rental_uris": {"ios": "https://dc.lft.to/lastmile_qr_scan", "android": "https://dc.lft.to/lastmile_qr_scan"}, "lon": -77.00082333333333, "bike_id": "bbe5d454e4c3615129f344b578915b8e", "type": "electric_scooter", "name": "bbe5d454e4c3615129f344b578915b8e"}, {"is_disabled": 0, "is_reserved": 0, "fusion_lat": 0.0, "lat": 38.90467566666667, "fusion_lon": 0.0, "rental_uris": {"ios": "https://dc.lft.to/lastmile_qr_scan", "android": "https://dc.lft.to/lastmile_qr_scan"}, "lon": -77.02826933333333, "bike_id": "d3311d0c5e10f2170d6ebe613a01e709", "type": "electric_scooter", "name": "d3311d0c5e10f2170d6ebe613a01e709"}, {"is_disabled": 0, "is_reserved": 0, "fusion_lat": 0.0, "lat": 38.93461116666667, "fusion_lon": 0.0, "rental_uris": {"ios": "https://dc.lft.to/lastmile_qr_scan", "android": "https://dc.lft.to/lastmile_qr_scan"}, "lon": -77.0240335, "bike_id": "00e97ba733b43c01e13ccf7b7e568a10", "type": "electric_scooter", "name": "00e97ba733b43c01e13ccf7b7e568a10"}, {"is_disabled": 0, "is_reserved": 0, "fusion_lat": 0.0, "lat": 38.912576666666666, "fusion_lon": 0.0, "rental_uris": {"ios": "https://dc.lft.to/lastmile_qr_scan", "android": "https://dc.lft.to/lastmile_qr_scan"}, "lon": -77.03828633333333, "bike_id": "37fce63befa842b5e5dccc68f55bc3be", "type": "electric_scooter", "name": "37fce63befa842b5e5dccc68f55bc3be"}, {"is_disabled": 0, "is_reserved": 0, "fusion_lat": 0.0, "lat": 38.891973166666666, "fusion_lon": 0.0, "rental_uris": {"ios": "https://dc.lft.to/lastmile_qr_scan", "android": "https://dc.lft.to/lastmile_qr_scan"}, "lon": -77.03177833333334, "bike_id": "d62e04a02439d7797d2316f2c9363e9c", "type": "electric_scooter", "name": "d62e04a02439d7797d2316f2c9363e9c"}, {"is_disabled": 0, "is_reserved": 0, "fusion_lat": 0.0, "lat": 38.90423066666666, "fusion_lon": 0.0, "rental_uris": {"ios": "https://dc.lft.to/lastmile_qr_scan", "android": "https://dc.lft.to/lastmile_qr_scan"}, "lon": -77.0307815, "bike_id": "8999c7458f0934b5b644d78fd7df201d", "type": "electric_scooter", "name": "8999c7458f0934b5b644d78fd7df201d"}, {"is_disabled": 0, "is_reserved": 0, "fusion_lat": 0.0, "lat": 38.91640566666667, "fusion_lon": 0.0, "rental_uris": {"ios": "https://dc.lft.to/lastmile_qr_scan", "android": "https://dc.lft.to/lastmile_qr_scan"}, "lon": -77.005169, "bike_id": "06d02a35f6d9351c341d60b8896640cc", "type": "electric_scooter", "name": "06d02a35f6d9351c341d60b8896640cc"}, {"is_disabled": 0, "is_reserved": 0, "fusion_lat": 0.0, "lat": 38.885138, "fusion_lon": 0.0, "rental_uris": {"ios": "https://dc.lft.to/lastmile_qr_scan", "android": "https://dc.lft.to/lastmile_qr_scan"}, "lon": -77.02821033333333, "bike_id": "020d924bb63d7da3ae7b8b4ad6df423f", "type": "electric_scooter", "name": "020d924bb63d7da3ae7b8b4ad6df423f"}, {"is_disabled": 0, "is_reserved": 0, "fusion_lat": 0.0, "lat": 38.863655, "fusion_lon": 0.0, "rental_uris": {"ios": "https://dc.lft.to/lastmile_qr_scan", "android": "https://dc.lft.to/lastmile_qr_scan"}, "lon": -77.01369583333333, "bike_id": "1ef377c7b79c613a1de965c7b9342ce5", "type": "electric_scooter", "name": "1ef377c7b79c613a1de965c7b9342ce5"}, {"is_disabled": 0, "is_reserved": 0, "fusion_lat": 0.0, "lat": 38.89264433333334, "fusion_lon": 0.0, "rental_uris": {"ios": "https://dc.lft.to/lastmile_qr_scan", "android": "https://dc.lft.to/lastmile_qr_scan"}, "lon": -77.04657133333333, "bike_id": "34302083b317b22f82c9ffb537d41704", "type": "electric_scooter", "name": "34302083b317b22f82c9ffb537d41704"}, {"is_disabled": 0, "is_reserved": 0, "fusion_lat": 0.0, "lat": 38.90445033333334, "fusion_lon": 0.0, "rental_uris": {"ios": "https://dc.lft.to/lastmile_qr_scan", "android": "https://dc.lft.to/lastmile_qr_scan"}, "lon": -77.03460083333333, "bike_id": "144fb4a01cd267d5610aa0f416fc6a73", "type": "electric_scooter", "name": "144fb4a01cd267d5610aa0f416fc6a73"}, {"is_disabled": 0, "is_reserved": 0, "fusion_lat": 0.0, "lat": 38.909782666666665, "fusion_lon": 0.0, "rental_uris": {"ios": "https://dc.lft.to/lastmile_qr_scan", "android": "https://dc.lft.to/lastmile_qr_scan"}, "lon": -77.03646083333334, "bike_id": "b6465855375d2f0f53e2e25b4eb157a9", "type": "electric_scooter", "name": "b6465855375d2f0f53e2e25b4eb157a9"}, {"is_disabled": 0, "is_reserved": 0, "fusion_lat": 0.0, "lat": 38.91051233333334, "fusion_lon": 0.0, "rental_uris": {"ios": "https://dc.lft.to/lastmile_qr_scan", "android": "https://dc.lft.to/lastmile_qr_scan"}, "lon": -77.06088266666667, "bike_id": "8fdd60646b1e45d835f7995c17a3e0e2", "type": "electric_scooter", "name": "8fdd60646b1e45d835f7995c17a3e0e2"}, {"is_disabled": 0, "is_reserved": 0, "fusion_lat": 0.0, "lat": 38.927203166666665, "fusion_lon": 0.0, "rental_uris": {"ios": "https://dc.lft.to/lastmile_qr_scan", "android": "https://dc.lft.to/lastmile_qr_scan"}, "lon": -77.05138983333333, "bike_id": "b091fe0cec34bf20cfe61c8c48a6c08d", "type": "electric_scooter", "name": "b091fe0cec34bf20cfe61c8c48a6c08d"}, {"is_disabled": 0, "is_reserved": 0, "fusion_lat": 0.0, "lat": 38.8551135, "fusion_lon": 0.0, "rental_uris": {"ios": "https://dc.lft.to/lastmile_qr_scan", "android": "https://dc.lft.to/lastmile_qr_scan"}, "lon": -77.101554, "bike_id": "42b240c03876f069380664533ec897e0", "type": "electric_bike", "name": "42b240c03876f069380664533ec897e0"}, {"is_disabled": 0, "is_reserved": 0, "fusion_lat": 0.0, "lat": 38.941640166666666, "fusion_lon": 0.0, "rental_uris": {"ios": "https://dc.lft.to/lastmile_qr_scan", "android": "https://dc.lft.to/lastmile_qr_scan"}, "lon": -77.02560183333334, "bike_id": "2f8d5cf4a8d8ae29681c5dd5f13abac3", "type": "electric_scooter", "name": "2f8d5cf4a8d8ae29681c5dd5f13abac3"}, {"is_disabled": 0, "is_reserved": 0, "fusion_lat": 0.0, "lat": 38.91821566666667, "fusion_lon": 0.0, "rental_uris": {"ios": "https://dc.lft.to/lastmile_qr_scan", "android": "https://dc.lft.to/lastmile_qr_scan"}, "lon": -77.01212566666666, "bike_id": "f8eb0b0d07bcf76dcac9cd2bba2481bf", "type": "electric_scooter", "name": "f8eb0b0d07bcf76dcac9cd2bba2481bf"}, {"is_disabled": 0, "is_reserved": 0, "fusion_lat": 0.0, "lat": 38.89231133333333, "fusion_lon": 0.0, "rental_uris": {"ios": "https://dc.lft.to/lastmile_qr_scan", "android": "https://dc.lft.to/lastmile_qr_scan"}, "lon": -77.04652183333333, "bike_id": "a60d32d9cf85b780a17de9c257191c3a", "type": "electric_scooter", "name": "a60d32d9cf85b780a17de9c257191c3a"}, {"is_disabled": 0, "is_reserved": 0, "fusion_lat": 0.0, "lat": 38.898811, "fusion_lon": 0.0, "rental_uris": {"ios": "https://dc.lft.to/lastmile_qr_scan", "android": "https://dc.lft.to/lastmile_qr_scan"}, "lon": -76.931772, "bike_id": "c2d360a251572a4320bde60659fd799d", "type": "electric_scooter", "name": "c2d360a251572a4320bde60659fd799d"}, {"is_disabled": 0, "is_reserved": 0, "fusion_lat": 0.0, "lat": 38.892276833333334, "fusion_lon": 0.0, "rental_uris": {"ios": "https://dc.lft.to/lastmile_qr_scan", "android": "https://dc.lft.to/lastmile_qr_scan"}, "lon": -77.04657816666666, "bike_id": "05cc285c05efcafd8fac63e7aa19307d", "type": "electric_scooter", "name": "05cc285c05efcafd8fac63e7aa19307d"}, {"is_disabled": 0, "is_reserved": 0, "fusion_lat": 0.0, "lat": 38.91555816666666, "fusion_lon": 0.0, "rental_uris": {"ios": "https://dc.lft.to/lastmile_qr_scan", "android": "https://dc.lft.to/lastmile_qr_scan"}, "lon": -77.051077, "bike_id": "cbe7c9db9dd493b73a1a3de4299fca20", "type": "electric_scooter", "name": "cbe7c9db9dd493b73a1a3de4299fca20"}, {"is_disabled": 0, "is_reserved": 0, "fusion_lat": 0.0, "lat": 38.9177845, "fusion_lon": 0.0, "rental_uris": {"ios": "https://dc.lft.to/lastmile_qr_scan", "android": "https://dc.lft.to/lastmile_qr_scan"}, "lon": -77.043027, "bike_id": "e02ddf34d41d8929c07206ff01f6e3a0", "type": "electric_scooter", "name": "e02ddf34d41d8929c07206ff01f6e3a0"}, {"is_disabled": 0, "is_reserved": 0, "fusion_lat": 0.0, "lat": 38.892834666666666, "fusion_lon": 0.0, "rental_uris": {"ios": "https://dc.lft.to/lastmile_qr_scan", "android": "https://dc.lft.to/lastmile_qr_scan"}, "lon": -77.04196166666667, "bike_id": "2df3ccaa1bdc75bf963bbfd0319c5913", "type": "electric_scooter", "name": "2df3ccaa1bdc75bf963bbfd0319c5913"}, {"is_disabled": 0, "is_reserved": 0, "fusion_lat": 0.0, "lat": 38.846706166666664, "fusion_lon": 0.0, "rental_uris": {"ios": "https://dc.lft.to/lastmile_qr_scan", "android": "https://dc.lft.to/lastmile_qr_scan"}, "lon": -77.13942016666667, "bike_id": "3b02714aee2732be0a660d95f4f7235c", "type": "electric_bike", "name": "3b02714aee2732be0a660d95f4f7235c"}, {"is_disabled": 0, "is_reserved": 0, "fusion_lat": 0.0, "lat": 38.881130166666665, "fusion_lon": 0.0, "rental_uris": {"ios": "https://dc.lft.to/lastmile_qr_scan", "android": "https://dc.lft.to/lastmile_qr_scan"}, "lon": -77.02649033333333, "bike_id": "5778986ef57c981ac662ebe6c9e00fe8", "type": "electric_scooter", "name": "5778986ef57c981ac662ebe6c9e00fe8"}, {"is_disabled": 0, "is_reserved": 0, "fusion_lat": 0.0, "lat": 38.87956466666667, "fusion_lon": 0.0, "rental_uris": {"ios": "https://dc.lft.to/lastmile_qr_scan", "android": "https://dc.lft.to/lastmile_qr_scan"}, "lon": -77.00581616666666, "bike_id": "7c19c9577033b79dbc1e74443b07ded2", "type": "electric_scooter", "name": "7c19c9577033b79dbc1e74443b07ded2"}, {"is_disabled": 0, "is_reserved": 0, "fusion_lat": 0.0, "lat": 38.899468166666665, "fusion_lon": 0.0, "rental_uris": {"ios": "https://dc.lft.to/lastmile_qr_scan", "android": "https://dc.lft.to/lastmile_qr_scan"}, "lon": -77.04778033333334, "bike_id": "e9a4b486f77a6910ecce805b197a0449", "type": "electric_scooter", "name": "e9a4b486f77a6910ecce805b197a0449"}, {"is_disabled": 0, "is_reserved": 0, "fusion_lat": 0.0, "lat": 38.87912083333333, "fusion_lon": 0.0, "rental_uris": {"ios": "https://dc.lft.to/lastmile_qr_scan", "android": "https://dc.lft.to/lastmile_qr_scan"}, "lon": -77.00765583333333, "bike_id": "84a9d9289486ea25a221c224a8ceafc8", "type": "electric_scooter", "name": "84a9d9289486ea25a221c224a8ceafc8"}, {"is_disabled": 0, "is_reserved": 0, "fusion_lat": 0.0, "lat": 38.91952466666667, "fusion_lon": 0.0, "rental_uris": {"ios": "https://dc.lft.to/lastmile_qr_scan", "android": "https://dc.lft.to/lastmile_qr_scan"}, "lon": -77.07872533333334, "bike_id": "e18ec60da29827b825ff7089d7dbc843", "type": "electric_scooter", "name": "e18ec60da29827b825ff7089d7dbc843"}, {"is_disabled": 0, "is_reserved": 0, "fusion_lat": 0.0, "lat": 38.908444833333334, "fusion_lon": 0.0, "rental_uris": {"ios": "https://dc.lft.to/lastmile_qr_scan", "android": "https://dc.lft.to/lastmile_qr_scan"}, "lon": -77.05810816666667, "bike_id": "3f35e9b9d48ea6eed394d367e05788b1", "type": "electric_scooter", "name": "3f35e9b9d48ea6eed394d367e05788b1"}, {"is_disabled": 0, "is_reserved": 0, "fusion_lat": 0.0, "lat": 38.909687166666664, "fusion_lon": 0.0, "rental_uris": {"ios": "https://dc.lft.to/lastmile_qr_scan", "android": "https://dc.lft.to/lastmile_qr_scan"}, "lon": -77.03412666666667, "bike_id": "63ecdbbf3e1c48e32bf8971009196faf", "type": "electric_scooter", "name": "63ecdbbf3e1c48e32bf8971009196faf"}, {"is_disabled": 0, "is_reserved": 0, "fusion_lat": 0.0, "lat": 38.90227016666667, "fusion_lon": 0.0, "rental_uris": {"ios": "https://dc.lft.to/lastmile_qr_scan", "android": "https://dc.lft.to/lastmile_qr_scan"}, "lon": -77.06271383333333, "bike_id": "17d57d6869cb993afad820c27d684c6d", "type": "electric_scooter", "name": "17d57d6869cb993afad820c27d684c6d"}, {"is_disabled": 0, "is_reserved": 0, "fusion_lat": 0.0, "lat": 38.92427383333333, "fusion_lon": 0.0, "rental_uris": {"ios": "https://dc.lft.to/lastmile_qr_scan", "android": "https://dc.lft.to/lastmile_qr_scan"}, "lon": -77.04246733333333, "bike_id": "f9876377608c99db05e532697af4f4ea", "type": "electric_scooter", "name": "f9876377608c99db05e532697af4f4ea"}, {"is_disabled": 0, "is_reserved": 0, "fusion_lat": 0.0, "lat": 38.916897166666665, "fusion_lon": 0.0, "rental_uris": {"ios": "https://dc.lft.to/lastmile_qr_scan", "android": "https://dc.lft.to/lastmile_qr_scan"}, "lon": -77.03215766666666, "bike_id": "9045cad2ab1e70afdf4156cee90ddb6c", "type": "electric_scooter", "name": "9045cad2ab1e70afdf4156cee90ddb6c"}, {"is_disabled": 0, "is_reserved": 0, "fusion_lat": 0.0, "lat": 38.973455333333334, "fusion_lon": 0.0, "rental_uris": {"ios": "https://dc.lft.to/lastmile_qr_scan", "android": "https://dc.lft.to/lastmile_qr_scan"}, "lon": -77.01790883333334, "bike_id": "ea79c2b6810050854b592f3a4d4bb169", "type": "electric_bike", "name": "ea79c2b6810050854b592f3a4d4bb169"}, {"is_disabled": 0, "is_reserved": 0, "fusion_lat": 0.0, "lat": 38.90236633333333, "fusion_lon": 0.0, "rental_uris": {"ios": "https://dc.lft.to/lastmile_qr_scan", "android": "https://dc.lft.to/lastmile_qr_scan"}, "lon": -77.01957183333333, "bike_id": "5e7c50fa1db63b7078ef34da2eb71c39", "type": "electric_scooter", "name": "5e7c50fa1db63b7078ef34da2eb71c39"}, {"is_disabled": 0, "is_reserved": 0, "fusion_lat": 0.0, "lat": 38.84856716666667, "fusion_lon": 0.0, "rental_uris": {"ios": "https://dc.lft.to/lastmile_qr_scan", "android": "https://dc.lft.to/lastmile_qr_scan"}, "lon": -77.06829766666667, "bike_id": "d76a78852c4f46a15596048c16dc2ceb", "type": "electric_bike", "name": "d76a78852c4f46a15596048c16dc2ceb"}, {"is_disabled": 0, "is_reserved": 0, "fusion_lat": 0.0, "lat": 38.905532666666666, "fusion_lon": 0.0, "rental_uris": {"ios": "https://dc.lft.to/lastmile_qr_scan", "android": "https://dc.lft.to/lastmile_qr_scan"}, "lon": -77.03810666666666, "bike_id": "cf5830427df2669824024a4c0285fdbf", "type": "electric_scooter", "name": "cf5830427df2669824024a4c0285fdbf"}, {"is_disabled": 0, "is_reserved": 0, "fusion_lat": 0.0, "lat": 38.9265685, "fusion_lon": 0.0, "rental_uris": {"ios": "https://dc.lft.to/lastmile_qr_scan", "android": "https://dc.lft.to/lastmile_qr_scan"}, "lon": -77.02422733333333, "bike_id": "625fd1352d72b01ec1919111c812f4c4", "type": "electric_scooter", "name": "625fd1352d72b01ec1919111c812f4c4"}, {"is_disabled": 0, "is_reserved": 0, "fusion_lat": 0.0, "lat": 38.9079, "fusion_lon": 0.0, "rental_uris": {"ios": "https://dc.lft.to/lastmile_qr_scan", "android": "https://dc.lft.to/lastmile_qr_scan"}, "lon": -77.0498365, "bike_id": "cf72bf49365dd6c8e1f4f86923602008", "type": "electric_scooter", "name": "cf72bf49365dd6c8e1f4f86923602008"}, {"is_disabled": 0, "is_reserved": 0, "fusion_lat": 0.0, "lat": 38.92353883333333, "fusion_lon": 0.0, "rental_uris": {"ios": "https://dc.lft.to/lastmile_qr_scan", "android": "https://dc.lft.to/lastmile_qr_scan"}, "lon": -77.07307983333334, "bike_id": "ef7c469fb7d70b109ff3db1ee7ccb346", "type": "electric_scooter", "name": "ef7c469fb7d70b109ff3db1ee7ccb346"}, {"is_disabled": 0, "is_reserved": 0, "fusion_lat": 0.0, "lat": 38.883963, "fusion_lon": 0.0, "rental_uris": {"ios": "https://dc.lft.to/lastmile_qr_scan", "android": "https://dc.lft.to/lastmile_qr_scan"}, "lon": -77.0463835, "bike_id": "3cc6dc6e5a0ed4ac858372d1755ef853", "type": "electric_bike", "name": "3cc6dc6e5a0ed4ac858372d1755ef853"}, {"is_disabled": 0, "is_reserved": 0, "fusion_lat": 0.0, "lat": 38.892216, "fusion_lon": 0.0, "rental_uris": {"ios": "https://dc.lft.to/lastmile_qr_scan", "android": "https://dc.lft.to/lastmile_qr_scan"}, "lon": -77.0450415, "bike_id": "83e0f8ee29a4731b121aefd5c8221afd", "type": "electric_scooter", "name": "83e0f8ee29a4731b121aefd5c8221afd"}, {"is_disabled": 0, "is_reserved": 0, "fusion_lat": 0.0, "lat": 38.936958833333335, "fusion_lon": 0.0, "rental_uris": {"ios": "https://dc.lft.to/lastmile_qr_scan", "android": "https://dc.lft.to/lastmile_qr_scan"}, "lon": -77.05598116666667, "bike_id": "95cea224c57329e9d950661270f723c0", "type": "electric_scooter", "name": "95cea224c57329e9d950661270f723c0"}, {"is_disabled": 0, "is_reserved": 0, "fusion_lat": 0.0, "lat": 38.93118716666667, "fusion_lon": 0.0, "rental_uris": {"ios": "https://dc.lft.to/lastmile_qr_scan", "android": "https://dc.lft.to/lastmile_qr_scan"}, "lon": -77.020691, "bike_id": "c1ea2d40392693981a76d8cac8406212", "type": "electric_scooter", "name": "c1ea2d40392693981a76d8cac8406212"}, {"is_disabled": 0, "is_reserved": 0, "fusion_lat": 0.0, "lat": 38.92658433333333, "fusion_lon": 0.0, "rental_uris": {"ios": "https://dc.lft.to/lastmile_qr_scan", "android": "https://dc.lft.to/lastmile_qr_scan"}, "lon": -77.02442183333334, "bike_id": "9e694d2b79e06658c3192030deb4765e", "type": "electric_scooter", "name": "9e694d2b79e06658c3192030deb4765e"}, {"is_disabled": 0, "is_reserved": 0, "fusion_lat": 0.0, "lat": 38.92602316666667, "fusion_lon": 0.0, "rental_uris": {"ios": "https://dc.lft.to/lastmile_qr_scan", "android": "https://dc.lft.to/lastmile_qr_scan"}, "lon": -77.02156016666666, "bike_id": "a0e74df3192ebe96608f6185f58e8265", "type": "electric_scooter", "name": "a0e74df3192ebe96608f6185f58e8265"}, {"is_disabled": 0, "is_reserved": 0, "fusion_lat": 0.0, "lat": 38.91046933333333, "fusion_lon": 0.0, "rental_uris": {"ios": "https://dc.lft.to/lastmile_qr_scan", "android": "https://dc.lft.to/lastmile_qr_scan"}, "lon": -77.0434945, "bike_id": "e6efcfb4c8fc98d1b969c4e1440597ab", "type": "electric_scooter", "name": "e6efcfb4c8fc98d1b969c4e1440597ab"}, {"is_disabled": 0, "is_reserved": 0, "fusion_lat": 0.0, "lat": 38.8717445, "fusion_lon": 0.0, "rental_uris": {"ios": "https://dc.lft.to/lastmile_qr_scan", "android": "https://dc.lft.to/lastmile_qr_scan"}, "lon": -77.2339315, "bike_id": "433e9670a804dd52dd1881be8648dfb5", "type": "electric_bike", "name": "433e9670a804dd52dd1881be8648dfb5"}, {"is_disabled": 0, "is_reserved": 0, "fusion_lat": 0.0, "lat": 38.965285, "fusion_lon": 0.0, "rental_uris": {"ios": "https://dc.lft.to/lastmile_qr_scan", "android": "https://dc.lft.to/lastmile_qr_scan"}, "lon": -77.03415416666667, "bike_id": "6a335a3f8570494f6ce05825106b4682", "type": "electric_bike", "name": "6a335a3f8570494f6ce05825106b4682"}, {"is_disabled": 0, "is_reserved": 0, "fusion_lat": 0.0, "lat": 38.896731, "fusion_lon": 0.0, "rental_uris": {"ios": "https://dc.lft.to/lastmile_qr_scan", "android": "https://dc.lft.to/lastmile_qr_scan"}, "lon": -77.04896233333334, "bike_id": "cb9d7fb9634ea010eb86a9a2e40766c7", "type": "electric_scooter", "name": "cb9d7fb9634ea010eb86a9a2e40766c7"}, {"is_disabled": 0, "is_reserved": 0, "fusion_lat": 0.0, "lat": 38.8936245, "fusion_lon": 0.0, "rental_uris": {"ios": "https://dc.lft.to/lastmile_qr_scan", "android": "https://dc.lft.to/lastmile_qr_scan"}, "lon": -76.9410895, "bike_id": "0a48ed2aa7f837d09d9f05fd361d8f3e", "type": "electric_scooter", "name": "0a48ed2aa7f837d09d9f05fd361d8f3e"}, {"is_disabled": 0, "is_reserved": 0, "fusion_lat": 0.0, "lat": 38.936969833333336, "fusion_lon": 0.0, "rental_uris": {"ios": "https://dc.lft.to/lastmile_qr_scan", "android": "https://dc.lft.to/lastmile_qr_scan"}, "lon": -77.05602516666667, "bike_id": "e39172e65e40fe9dd7f6a50eea3c6cdf", "type": "electric_scooter", "name": "e39172e65e40fe9dd7f6a50eea3c6cdf"}, {"is_disabled": 0, "is_reserved": 0, "fusion_lat": 0.0, "lat": 38.902534333333335, "fusion_lon": 0.0, "rental_uris": {"ios": "https://dc.lft.to/lastmile_qr_scan", "android": "https://dc.lft.to/lastmile_qr_scan"}, "lon": -77.03963333333333, "bike_id": "8214670e9d2b26c9cf01cb67747ec4a3", "type": "electric_scooter", "name": "8214670e9d2b26c9cf01cb67747ec4a3"}, {"is_disabled": 0, "is_reserved": 0, "fusion_lat": 0.0, "lat": 38.9999795, "fusion_lon": 0.0, "rental_uris": {"ios": "https://dc.lft.to/lastmile_qr_scan", "android": "https://dc.lft.to/lastmile_qr_scan"}, "lon": -76.91805933333333, "bike_id": "d258cc30b9c02bf08a2f3bf01fc268dc", "type": "electric_bike", "name": "d258cc30b9c02bf08a2f3bf01fc268dc"}, {"is_disabled": 0, "is_reserved": 0, "fusion_lat": 0.0, "lat": 38.899901166666666, "fusion_lon": 0.0, "rental_uris": {"ios": "https://dc.lft.to/lastmile_qr_scan", "android": "https://dc.lft.to/lastmile_qr_scan"}, "lon": -77.009089, "bike_id": "ad3e01aeb0b98f563094e7f7abb91cd8", "type": "electric_scooter", "name": "ad3e01aeb0b98f563094e7f7abb91cd8"}, {"is_disabled": 0, "is_reserved": 0, "fusion_lat": 0.0, "lat": 38.89904383333333, "fusion_lon": 0.0, "rental_uris": {"ios": "https://dc.lft.to/lastmile_qr_scan", "android": "https://dc.lft.to/lastmile_qr_scan"}, "lon": -77.03982166666667, "bike_id": "04fdc3f63f9b9a4731c4d9532ebfad39", "type": "electric_scooter", "name": "04fdc3f63f9b9a4731c4d9532ebfad39"}, {"is_disabled": 0, "is_reserved": 0, "fusion_lat": 0.0, "lat": 38.876745, "fusion_lon": 0.0, "rental_uris": {"ios": "https://dc.lft.to/lastmile_qr_scan", "android": "https://dc.lft.to/lastmile_qr_scan"}, "lon": -77.00046866666666, "bike_id": "ee3d80d88b62e684b3a467593ec5cfba", "type": "electric_scooter", "name": "ee3d80d88b62e684b3a467593ec5cfba"}, {"is_disabled": 0, "is_reserved": 0, "fusion_lat": 0.0, "lat": 38.866762333333334, "fusion_lon": 0.0, "rental_uris": {"ios": "https://dc.lft.to/lastmile_qr_scan", "android": "https://dc.lft.to/lastmile_qr_scan"}, "lon": -77.01008516666667, "bike_id": "69597ad7523228d4afe53b75303edadc", "type": "electric_scooter", "name": "69597ad7523228d4afe53b75303edadc"}, {"is_disabled": 0, "is_reserved": 0, "fusion_lat": 0.0, "lat": 38.885197, "fusion_lon": 0.0, "rental_uris": {"ios": "https://dc.lft.to/lastmile_qr_scan", "android": "https://dc.lft.to/lastmile_qr_scan"}, "lon": -76.998001, "bike_id": "6da020ddd52f35756df74042a68eb6eb", "type": "electric_scooter", "name": "6da020ddd52f35756df74042a68eb6eb"}, {"is_disabled": 0, "is_reserved": 0, "fusion_lat": 0.0, "lat": 38.916556, "fusion_lon": 0.0, "rental_uris": {"ios": "https://dc.lft.to/lastmile_qr_scan", "android": "https://dc.lft.to/lastmile_qr_scan"}, "lon": -77.02401983333333, "bike_id": "2daed3f0d3dfe56524e9d4f225d7031e", "type": "electric_scooter", "name": "2daed3f0d3dfe56524e9d4f225d7031e"}, {"is_disabled": 0, "is_reserved": 0, "fusion_lat": 0.0, "lat": 38.807387166666665, "fusion_lon": 0.0, "rental_uris": {"ios": "https://dc.lft.to/lastmile_qr_scan", "android": "https://dc.lft.to/lastmile_qr_scan"}, "lon": -77.09687783333334, "bike_id": "7d4dab861ab3198ecc64d7eeec6448cf", "type": "electric_bike", "name": "7d4dab861ab3198ecc64d7eeec6448cf"}, {"is_disabled": 0, "is_reserved": 0, "fusion_lat": 0.0, "lat": 38.91419366666667, "fusion_lon": 0.0, "rental_uris": {"ios": "https://dc.lft.to/lastmile_qr_scan", "android": "https://dc.lft.to/lastmile_qr_scan"}, "lon": -77.03173916666667, "bike_id": "ecacaa3100b227fde34706723b848086", "type": "electric_scooter", "name": "ecacaa3100b227fde34706723b848086"}, {"is_disabled": 0, "is_reserved": 0, "fusion_lat": 0.0, "lat": 38.868176166666665, "fusion_lon": 0.0, "rental_uris": {"ios": "https://dc.lft.to/lastmile_qr_scan", "android": "https://dc.lft.to/lastmile_qr_scan"}, "lon": -76.9802605, "bike_id": "341da47ddb93595bba330752315f08a3", "type": "electric_bike", "name": "341da47ddb93595bba330752315f08a3"}, {"is_disabled": 0, "is_reserved": 0, "fusion_lat": 0.0, "lat": 38.923415166666665, "fusion_lon": 0.0, "rental_uris": {"ios": "https://dc.lft.to/lastmile_qr_scan", "android": "https://dc.lft.to/lastmile_qr_scan"}, "lon": -77.05622083333333, "bike_id": "9dc7faad52c74ec7e216493288375b20", "type": "electric_scooter", "name": "9dc7faad52c74ec7e216493288375b20"}, {"is_disabled": 0, "is_reserved": 0, "fusion_lat": 0.0, "lat": 38.920588, "fusion_lon": 0.0, "rental_uris": {"ios": "https://dc.lft.to/lastmile_qr_scan", "android": "https://dc.lft.to/lastmile_qr_scan"}, "lon": -77.0330005, "bike_id": "1aca5fb83279ce2567cc1e2ffb03bc12", "type": "electric_scooter", "name": "1aca5fb83279ce2567cc1e2ffb03bc12"}, {"is_disabled": 0, "is_reserved": 0, "fusion_lat": 0.0, "lat": 38.91654333333334, "fusion_lon": 0.0, "rental_uris": {"ios": "https://dc.lft.to/lastmile_qr_scan", "android": "https://dc.lft.to/lastmile_qr_scan"}, "lon": -77.0240435, "bike_id": "053da3bae436c9a0c0a7aba3cb4a08de", "type": "electric_scooter", "name": "053da3bae436c9a0c0a7aba3cb4a08de"}, {"is_disabled": 0, "is_reserved": 0, "fusion_lat": 0.0, "lat": 38.93858566666667, "fusion_lon": 0.0, "rental_uris": {"ios": "https://dc.lft.to/lastmile_qr_scan", "android": "https://dc.lft.to/lastmile_qr_scan"}, "lon": -77.03167466666666, "bike_id": "207084879756bc997bf69ed23637b0de", "type": "electric_scooter", "name": "207084879756bc997bf69ed23637b0de"}, {"is_disabled": 0, "is_reserved": 0, "fusion_lat": 0.0, "lat": 38.886204666666664, "fusion_lon": 0.0, "rental_uris": {"ios": "https://dc.lft.to/lastmile_qr_scan", "android": "https://dc.lft.to/lastmile_qr_scan"}, "lon": -77.02822033333334, "bike_id": "4e2f5530b9d3ba1512c941c31b8a8c1d", "type": "electric_scooter", "name": "4e2f5530b9d3ba1512c941c31b8a8c1d"}, {"is_disabled": 0, "is_reserved": 0, "fusion_lat": 0.0, "lat": 38.870578, "fusion_lon": 0.0, "rental_uris": {"ios": "https://dc.lft.to/lastmile_qr_scan", "android": "https://dc.lft.to/lastmile_qr_scan"}, "lon": -77.11034866666667, "bike_id": "f260e53b4324e47b8738af34c74d6a7f", "type": "electric_bike", "name": "f260e53b4324e47b8738af34c74d6a7f"}, {"is_disabled": 0, "is_reserved": 0, "fusion_lat": 0.0, "lat": 38.8966365, "fusion_lon": 0.0, "rental_uris": {"ios": "https://dc.lft.to/lastmile_qr_scan", "android": "https://dc.lft.to/lastmile_qr_scan"}, "lon": -76.93208966666667, "bike_id": "0d9e8f120e24ac6b97eef2bbf1853a49", "type": "electric_scooter", "name": "0d9e8f120e24ac6b97eef2bbf1853a49"}, {"is_disabled": 0, "is_reserved": 0, "fusion_lat": 0.0, "lat": 38.879102333333336, "fusion_lon": 0.0, "rental_uris": {"ios": "https://dc.lft.to/lastmile_qr_scan", "android": "https://dc.lft.to/lastmile_qr_scan"}, "lon": -77.00858433333333, "bike_id": "afa738f9871c7a25195eb57ff7f81748", "type": "electric_scooter", "name": "afa738f9871c7a25195eb57ff7f81748"}, {"is_disabled": 0, "is_reserved": 0, "fusion_lat": 0.0, "lat": 38.915413, "fusion_lon": 0.0, "rental_uris": {"ios": "https://dc.lft.to/lastmile_qr_scan", "android": "https://dc.lft.to/lastmile_qr_scan"}, "lon": -77.02698933333333, "bike_id": "582e425e7fed8efdd4be53d486cce342", "type": "electric_scooter", "name": "582e425e7fed8efdd4be53d486cce342"}, {"is_disabled": 0, "is_reserved": 0, "fusion_lat": 0.0, "lat": 38.93111183333333, "fusion_lon": 0.0, "rental_uris": {"ios": "https://dc.lft.to/lastmile_qr_scan", "android": "https://dc.lft.to/lastmile_qr_scan"}, "lon": -77.0384315, "bike_id": "2c932279baa54b4640ac249c8d675f4b", "type": "electric_scooter", "name": "2c932279baa54b4640ac249c8d675f4b"}, {"is_disabled": 0, "is_reserved": 0, "fusion_lat": 0.0, "lat": 38.882975, "fusion_lon": 0.0, "rental_uris": {"ios": "https://dc.lft.to/lastmile_qr_scan", "android": "https://dc.lft.to/lastmile_qr_scan"}, "lon": -76.986106, "bike_id": "e45170e423b111af8fad89fc6dbc16e2", "type": "electric_scooter", "name": "e45170e423b111af8fad89fc6dbc16e2"}, {"is_disabled": 0, "is_reserved": 0, "fusion_lat": 0.0, "lat": 38.90538433333333, "fusion_lon": 0.0, "rental_uris": {"ios": "https://dc.lft.to/lastmile_qr_scan", "android": "https://dc.lft.to/lastmile_qr_scan"}, "lon": -77.0570565, "bike_id": "3ed19316a559c6bfaf73be98655ac8d7", "type": "electric_scooter", "name": "3ed19316a559c6bfaf73be98655ac8d7"}, {"is_disabled": 0, "is_reserved": 0, "fusion_lat": 0.0, "lat": 38.913447833333336, "fusion_lon": 0.0, "rental_uris": {"ios": "https://dc.lft.to/lastmile_qr_scan", "android": "https://dc.lft.to/lastmile_qr_scan"}, "lon": -77.04429766666667, "bike_id": "35578ed7c4b01a40c34e19567f1074de", "type": "electric_scooter", "name": "35578ed7c4b01a40c34e19567f1074de"}, {"is_disabled": 0, "is_reserved": 0, "fusion_lat": 0.0, "lat": 38.9086275, "fusion_lon": 0.0, "rental_uris": {"ios": "https://dc.lft.to/lastmile_qr_scan", "android": "https://dc.lft.to/lastmile_qr_scan"}, "lon": -77.06401016666666, "bike_id": "f359c855a3ff7055b24ea4c7c520edbc", "type": "electric_scooter", "name": "f359c855a3ff7055b24ea4c7c520edbc"}, {"is_disabled": 0, "is_reserved": 0, "fusion_lat": 0.0, "lat": 38.9237915, "fusion_lon": 0.0, "rental_uris": {"ios": "https://dc.lft.to/lastmile_qr_scan", "android": "https://dc.lft.to/lastmile_qr_scan"}, "lon": -77.020314, "bike_id": "5a2308be376b301011a8569c6db4e117", "type": "electric_scooter", "name": "5a2308be376b301011a8569c6db4e117"}, {"is_disabled": 0, "is_reserved": 0, "fusion_lat": 0.0, "lat": 38.9403205, "fusion_lon": 0.0, "rental_uris": {"ios": "https://dc.lft.to/lastmile_qr_scan", "android": "https://dc.lft.to/lastmile_qr_scan"}, "lon": -77.025229, "bike_id": "23aad0952b753dccd2ef6298947e6303", "type": "electric_scooter", "name": "23aad0952b753dccd2ef6298947e6303"}, {"is_disabled": 0, "is_reserved": 0, "fusion_lat": 0.0, "lat": 38.9248075, "fusion_lon": 0.0, "rental_uris": {"ios": "https://dc.lft.to/lastmile_qr_scan", "android": "https://dc.lft.to/lastmile_qr_scan"}, "lon": -77.028398, "bike_id": "ed4e9eb3e6bd5cc00326bae03f853c81", "type": "electric_scooter", "name": "ed4e9eb3e6bd5cc00326bae03f853c81"}, {"is_disabled": 0, "is_reserved": 0, "fusion_lat": 0.0, "lat": 38.930607, "fusion_lon": 0.0, "rental_uris": {"ios": "https://dc.lft.to/lastmile_qr_scan", "android": "https://dc.lft.to/lastmile_qr_scan"}, "lon": -77.042173, "bike_id": "2085d7d86a0711ce11663172ceaf928a", "type": "electric_scooter", "name": "2085d7d86a0711ce11663172ceaf928a"}, {"is_disabled": 0, "is_reserved": 0, "fusion_lat": 0.0, "lat": 38.897483666666666, "fusion_lon": 0.0, "rental_uris": {"ios": "https://dc.lft.to/lastmile_qr_scan", "android": "https://dc.lft.to/lastmile_qr_scan"}, "lon": -77.04804833333333, "bike_id": "b4532d5cb67f6e5c3787528b9d4e7855", "type": "electric_scooter", "name": "b4532d5cb67f6e5c3787528b9d4e7855"}, {"is_disabled": 0, "is_reserved": 0, "fusion_lat": 0.0, "lat": 38.91923216666667, "fusion_lon": 0.0, "rental_uris": {"ios": "https://dc.lft.to/lastmile_qr_scan", "android": "https://dc.lft.to/lastmile_qr_scan"}, "lon": -77.00971716666666, "bike_id": "aeae92567f58bd39f3eb8cde6f26e38b", "type": "electric_scooter", "name": "aeae92567f58bd39f3eb8cde6f26e38b"}, {"is_disabled": 0, "is_reserved": 0, "fusion_lat": 0.0, "lat": 38.9509735, "fusion_lon": 0.0, "rental_uris": {"ios": "https://dc.lft.to/lastmile_qr_scan", "android": "https://dc.lft.to/lastmile_qr_scan"}, "lon": -77.01909783333333, "bike_id": "e51d6d38fe3114584b4b0fe8c1402cb1", "type": "electric_scooter", "name": "e51d6d38fe3114584b4b0fe8c1402cb1"}, {"is_disabled": 0, "is_reserved": 0, "fusion_lat": 0.0, "lat": 38.93240433333333, "fusion_lon": 0.0, "rental_uris": {"ios": "https://dc.lft.to/lastmile_qr_scan", "android": "https://dc.lft.to/lastmile_qr_scan"}, "lon": -77.03414, "bike_id": "4a643abbb2e87ab79042248e03db4b65", "type": "electric_scooter", "name": "4a643abbb2e87ab79042248e03db4b65"}, {"is_disabled": 0, "is_reserved": 0, "fusion_lat": 0.0, "lat": 38.910745, "fusion_lon": 0.0, "rental_uris": {"ios": "https://dc.lft.to/lastmile_qr_scan", "android": "https://dc.lft.to/lastmile_qr_scan"}, "lon": -77.021852, "bike_id": "eed17398b6399d21015ae1fbb4301376", "type": "electric_scooter", "name": "eed17398b6399d21015ae1fbb4301376"}, {"is_disabled": 0, "is_reserved": 0, "fusion_lat": 0.0, "lat": 38.91121, "fusion_lon": 0.0, "rental_uris": {"ios": "https://dc.lft.to/lastmile_qr_scan", "android": "https://dc.lft.to/lastmile_qr_scan"}, "lon": -76.99745883333334, "bike_id": "e3d3b04439dd3c7ceb518312d97fff2b", "type": "electric_scooter", "name": "e3d3b04439dd3c7ceb518312d97fff2b"}, {"is_disabled": 0, "is_reserved": 0, "fusion_lat": 0.0, "lat": 38.90504583333333, "fusion_lon": 0.0, "rental_uris": {"ios": "https://dc.lft.to/lastmile_qr_scan", "android": "https://dc.lft.to/lastmile_qr_scan"}, "lon": -77.06125166666666, "bike_id": "eddda63da3b0b150b06c04084cbe33e7", "type": "electric_scooter", "name": "eddda63da3b0b150b06c04084cbe33e7"}, {"is_disabled": 0, "is_reserved": 0, "fusion_lat": 0.0, "lat": 38.96773783333333, "fusion_lon": 0.0, "rental_uris": {"ios": "https://dc.lft.to/lastmile_qr_scan", "android": "https://dc.lft.to/lastmile_qr_scan"}, "lon": -76.99652316666666, "bike_id": "63d986c1639e8bd78e328d8665b76b28", "type": "electric_bike", "name": "63d986c1639e8bd78e328d8665b76b28"}, {"is_disabled": 0, "is_reserved": 0, "fusion_lat": 0.0, "lat": 38.9021785, "fusion_lon": 0.0, "rental_uris": {"ios": "https://dc.lft.to/lastmile_qr_scan", "android": "https://dc.lft.to/lastmile_qr_scan"}, "lon": -76.93176016666666, "bike_id": "94fe2bee7d766c511f8cead42afee465", "type": "electric_bike", "name": "94fe2bee7d766c511f8cead42afee465"}, {"is_disabled": 0, "is_reserved": 0, "fusion_lat": 0.0, "lat": 38.902647, "fusion_lon": 0.0, "rental_uris": {"ios": "https://dc.lft.to/lastmile_qr_scan", "android": "https://dc.lft.to/lastmile_qr_scan"}, "lon": -77.01757, "bike_id": "c9ce0fa7589fd7de409e3c54c19c0a13", "type": "electric_scooter", "name": "c9ce0fa7589fd7de409e3c54c19c0a13"}, {"is_disabled": 0, "is_reserved": 0, "fusion_lat": 0.0, "lat": 38.905663833333335, "fusion_lon": 0.0, "rental_uris": {"ios": "https://dc.lft.to/lastmile_qr_scan", "android": "https://dc.lft.to/lastmile_qr_scan"}, "lon": -77.05818433333333, "bike_id": "82ae063ec519e41d3e04c8beff6c2f9e", "type": "electric_bike", "name": "82ae063ec519e41d3e04c8beff6c2f9e"}, {"is_disabled": 0, "is_reserved": 0, "fusion_lat": 0.0, "lat": 38.8799465, "fusion_lon": 0.0, "rental_uris": {"ios": "https://dc.lft.to/lastmile_qr_scan", "android": "https://dc.lft.to/lastmile_qr_scan"}, "lon": -77.03740183333333, "bike_id": "65bc47bb6a30a544189ea8b92105a4c4", "type": "electric_scooter", "name": "65bc47bb6a30a544189ea8b92105a4c4"}, {"is_disabled": 0, "is_reserved": 0, "fusion_lat": 0.0, "lat": 38.92459916666667, "fusion_lon": 0.0, "rental_uris": {"ios": "https://dc.lft.to/lastmile_qr_scan", "android": "https://dc.lft.to/lastmile_qr_scan"}, "lon": -77.0575715, "bike_id": "9abf06eb01e2ecffaf03308f9a31eb6b", "type": "electric_scooter", "name": "9abf06eb01e2ecffaf03308f9a31eb6b"}, {"is_disabled": 0, "is_reserved": 0, "fusion_lat": 0.0, "lat": 38.92412083333333, "fusion_lon": 0.0, "rental_uris": {"ios": "https://dc.lft.to/lastmile_qr_scan", "android": "https://dc.lft.to/lastmile_qr_scan"}, "lon": -77.02131183333333, "bike_id": "c39eda20d935f22147f67418f33a3cd1", "type": "electric_scooter", "name": "c39eda20d935f22147f67418f33a3cd1"}, {"is_disabled": 0, "is_reserved": 0, "fusion_lat": 0.0, "lat": 38.91210916666667, "fusion_lon": 0.0, "rental_uris": {"ios": "https://dc.lft.to/lastmile_qr_scan", "android": "https://dc.lft.to/lastmile_qr_scan"}, "lon": -77.00834666666667, "bike_id": "b060b774584c3901f2bc1aa6de31379f", "type": "electric_scooter", "name": "b060b774584c3901f2bc1aa6de31379f"}, {"is_disabled": 0, "is_reserved": 0, "fusion_lat": 0.0, "lat": 38.89800066666667, "fusion_lon": 0.0, "rental_uris": {"ios": "https://dc.lft.to/lastmile_qr_scan", "android": "https://dc.lft.to/lastmile_qr_scan"}, "lon": -76.97167183333333, "bike_id": "6ebc2bd060f2986e09f259b6b7d6fcaf", "type": "electric_scooter", "name": "6ebc2bd060f2986e09f259b6b7d6fcaf"}, {"is_disabled": 0, "is_reserved": 0, "fusion_lat": 0.0, "lat": 38.8750865, "fusion_lon": 0.0, "rental_uris": {"ios": "https://dc.lft.to/lastmile_qr_scan", "android": "https://dc.lft.to/lastmile_qr_scan"}, "lon": -77.0076235, "bike_id": "02ffcc3685b683aa587d5ebc232559d3", "type": "electric_bike", "name": "02ffcc3685b683aa587d5ebc232559d3"}, {"is_disabled": 0, "is_reserved": 0, "fusion_lat": 0.0, "lat": 38.89425683333333, "fusion_lon": 0.0, "rental_uris": {"ios": "https://dc.lft.to/lastmile_qr_scan", "android": "https://dc.lft.to/lastmile_qr_scan"}, "lon": -77.05597683333333, "bike_id": "2d77c7441a2b3dc06e11385b1bdb705c", "type": "electric_scooter", "name": "2d77c7441a2b3dc06e11385b1bdb705c"}, {"is_disabled": 0, "is_reserved": 0, "fusion_lat": 0.0, "lat": 38.898862, "fusion_lon": 0.0, "rental_uris": {"ios": "https://dc.lft.to/lastmile_qr_scan", "android": "https://dc.lft.to/lastmile_qr_scan"}, "lon": -77.03320666666667, "bike_id": "0b95124dee4a9fdbf9eb0d34bd4b37d3", "type": "electric_scooter", "name": "0b95124dee4a9fdbf9eb0d34bd4b37d3"}, {"is_disabled": 0, "is_reserved": 0, "fusion_lat": 0.0, "lat": 38.89498, "fusion_lon": 0.0, "rental_uris": {"ios": "https://dc.lft.to/lastmile_qr_scan", "android": "https://dc.lft.to/lastmile_qr_scan"}, "lon": -77.02282933333333, "bike_id": "8a7ffd62abc4f7565d4e1ee99a0ed8ac", "type": "electric_scooter", "name": "8a7ffd62abc4f7565d4e1ee99a0ed8ac"}, {"is_disabled": 0, "is_reserved": 0, "fusion_lat": 0.0, "lat": 38.8203255, "fusion_lon": 0.0, "rental_uris": {"ios": "https://dc.lft.to/lastmile_qr_scan", "android": "https://dc.lft.to/lastmile_qr_scan"}, "lon": -77.05456716666667, "bike_id": "6b13cf37c719874ee66a2ac4c2ae898b", "type": "electric_bike", "name": "6b13cf37c719874ee66a2ac4c2ae898b"}, {"is_disabled": 0, "is_reserved": 0, "fusion_lat": 0.0, "lat": 38.8921985, "fusion_lon": 0.0, "rental_uris": {"ios": "https://dc.lft.to/lastmile_qr_scan", "android": "https://dc.lft.to/lastmile_qr_scan"}, "lon": -77.02774483333333, "bike_id": "4123188fa3e230dd2f325bf2bcb93431", "type": "electric_scooter", "name": "4123188fa3e230dd2f325bf2bcb93431"}, {"is_disabled": 0, "is_reserved": 0, "fusion_lat": 0.0, "lat": 38.92068883333334, "fusion_lon": 0.0, "rental_uris": {"ios": "https://dc.lft.to/lastmile_qr_scan", "android": "https://dc.lft.to/lastmile_qr_scan"}, "lon": -77.02567233333333, "bike_id": "3f0fd1aeae4e833cabbb43a36825364f", "type": "electric_scooter", "name": "3f0fd1aeae4e833cabbb43a36825364f"}, {"is_disabled": 0, "is_reserved": 0, "fusion_lat": 0.0, "lat": 38.90954133333334, "fusion_lon": 0.0, "rental_uris": {"ios": "https://dc.lft.to/lastmile_qr_scan", "android": "https://dc.lft.to/lastmile_qr_scan"}, "lon": -77.04924266666667, "bike_id": "24262c13def4256e001b596208a2e5b7", "type": "electric_scooter", "name": "24262c13def4256e001b596208a2e5b7"}, {"is_disabled": 0, "is_reserved": 0, "fusion_lat": 0.0, "lat": 38.92263633333334, "fusion_lon": 0.0, "rental_uris": {"ios": "https://dc.lft.to/lastmile_qr_scan", "android": "https://dc.lft.to/lastmile_qr_scan"}, "lon": -77.03641816666666, "bike_id": "9dbc37d33b0de0552585664a4fc99f6f", "type": "electric_scooter", "name": "9dbc37d33b0de0552585664a4fc99f6f"}, {"is_disabled": 0, "is_reserved": 0, "fusion_lat": 0.0, "lat": 39.000976, "fusion_lon": 0.0, "rental_uris": {"ios": "https://dc.lft.to/lastmile_qr_scan", "android": "https://dc.lft.to/lastmile_qr_scan"}, "lon": -76.90982716666667, "bike_id": "01dc46b544fc639181c6eacaea9e442c", "type": "electric_bike", "name": "01dc46b544fc639181c6eacaea9e442c"}, {"is_disabled": 0, "is_reserved": 0, "fusion_lat": 0.0, "lat": 38.915543, "fusion_lon": 0.0, "rental_uris": {"ios": "https://dc.lft.to/lastmile_qr_scan", "android": "https://dc.lft.to/lastmile_qr_scan"}, "lon": -77.02334133333333, "bike_id": "f2e388e4908b81c10b0001567a99a5a2", "type": "electric_scooter", "name": "f2e388e4908b81c10b0001567a99a5a2"}, {"is_disabled": 0, "is_reserved": 0, "fusion_lat": 0.0, "lat": 38.909462833333336, "fusion_lon": 0.0, "rental_uris": {"ios": "https://dc.lft.to/lastmile_qr_scan", "android": "https://dc.lft.to/lastmile_qr_scan"}, "lon": -77.03184733333333, "bike_id": "f4e2619e0650961c7841a268ca797369", "type": "electric_scooter", "name": "f4e2619e0650961c7841a268ca797369"}, {"is_disabled": 0, "is_reserved": 0, "fusion_lat": 0.0, "lat": 38.932038166666665, "fusion_lon": 0.0, "rental_uris": {"ios": "https://dc.lft.to/lastmile_qr_scan", "android": "https://dc.lft.to/lastmile_qr_scan"}, "lon": -77.02286283333333, "bike_id": "d59ebe8c26b5ca2d4f235ae82bc1738a", "type": "electric_scooter", "name": "d59ebe8c26b5ca2d4f235ae82bc1738a"}, {"is_disabled": 0, "is_reserved": 0, "fusion_lat": 0.0, "lat": 38.90235083333334, "fusion_lon": 0.0, "rental_uris": {"ios": "https://dc.lft.to/lastmile_qr_scan", "android": "https://dc.lft.to/lastmile_qr_scan"}, "lon": -77.06063466666667, "bike_id": "b7d542541c5eaaeace551772efe9a2da", "type": "electric_scooter", "name": "b7d542541c5eaaeace551772efe9a2da"}, {"is_disabled": 0, "is_reserved": 0, "fusion_lat": 0.0, "lat": 38.8048095, "fusion_lon": 0.0, "rental_uris": {"ios": "https://dc.lft.to/lastmile_qr_scan", "android": "https://dc.lft.to/lastmile_qr_scan"}, "lon": -76.99107033333334, "bike_id": "13eafff75b3c49b282c855b50d156e62", "type": "electric_bike", "name": "13eafff75b3c49b282c855b50d156e62"}, {"is_disabled": 0, "is_reserved": 0, "fusion_lat": 0.0, "lat": 38.9153215, "fusion_lon": 0.0, "rental_uris": {"ios": "https://dc.lft.to/lastmile_qr_scan", "android": "https://dc.lft.to/lastmile_qr_scan"}, "lon": -77.03205366666667, "bike_id": "386f1eba52377019fb4d0503cd9064b5", "type": "electric_scooter", "name": "386f1eba52377019fb4d0503cd9064b5"}, {"is_disabled": 0, "is_reserved": 0, "fusion_lat": 0.0, "lat": 38.963580666666665, "fusion_lon": 0.0, "rental_uris": {"ios": "https://dc.lft.to/lastmile_qr_scan", "android": "https://dc.lft.to/lastmile_qr_scan"}, "lon": -77.03442333333334, "bike_id": "35550fb0a27d9f52e267eb7dc54fe35e", "type": "electric_scooter", "name": "35550fb0a27d9f52e267eb7dc54fe35e"}, {"is_disabled": 0, "is_reserved": 0, "fusion_lat": 0.0, "lat": 38.892194333333336, "fusion_lon": 0.0, "rental_uris": {"ios": "https://dc.lft.to/lastmile_qr_scan", "android": "https://dc.lft.to/lastmile_qr_scan"}, "lon": -77.02772666666667, "bike_id": "1aff10c072e3fa7046a0423206cded18", "type": "electric_scooter", "name": "1aff10c072e3fa7046a0423206cded18"}, {"is_disabled": 0, "is_reserved": 0, "fusion_lat": 0.0, "lat": 38.90443716666667, "fusion_lon": 0.0, "rental_uris": {"ios": "https://dc.lft.to/lastmile_qr_scan", "android": "https://dc.lft.to/lastmile_qr_scan"}, "lon": -76.973061, "bike_id": "6c612a0a2a31f00a5db9a6ac310d8e1d", "type": "electric_scooter", "name": "6c612a0a2a31f00a5db9a6ac310d8e1d"}, {"is_disabled": 0, "is_reserved": 0, "fusion_lat": 0.0, "lat": 38.879145333333334, "fusion_lon": 0.0, "rental_uris": {"ios": "https://dc.lft.to/lastmile_qr_scan", "android": "https://dc.lft.to/lastmile_qr_scan"}, "lon": -76.995106, "bike_id": "fa51a412bdf5763a096b492108a3219d", "type": "electric_scooter", "name": "fa51a412bdf5763a096b492108a3219d"}, {"is_disabled": 0, "is_reserved": 0, "fusion_lat": 0.0, "lat": 38.842715166666665, "fusion_lon": 0.0, "rental_uris": {"ios": "https://dc.lft.to/lastmile_qr_scan", "android": "https://dc.lft.to/lastmile_qr_scan"}, "lon": -76.98834683333334, "bike_id": "4733d3d4ed51484cf518d3606da28381", "type": "electric_scooter", "name": "4733d3d4ed51484cf518d3606da28381"}, {"is_disabled": 0, "is_reserved": 0, "fusion_lat": 0.0, "lat": 38.89556983333333, "fusion_lon": 0.0, "rental_uris": {"ios": "https://dc.lft.to/lastmile_qr_scan", "android": "https://dc.lft.to/lastmile_qr_scan"}, "lon": -77.04662733333333, "bike_id": "0e04ce12e0f1ad2a0f9d763eb49823a8", "type": "electric_scooter", "name": "0e04ce12e0f1ad2a0f9d763eb49823a8"}, {"is_disabled": 0, "is_reserved": 0, "fusion_lat": 0.0, "lat": 38.92067516666667, "fusion_lon": 0.0, "rental_uris": {"ios": "https://dc.lft.to/lastmile_qr_scan", "android": "https://dc.lft.to/lastmile_qr_scan"}, "lon": -77.04380183333333, "bike_id": "7e8f774352d83cfc8b52744553d5e709", "type": "electric_scooter", "name": "7e8f774352d83cfc8b52744553d5e709"}, {"is_disabled": 0, "is_reserved": 0, "fusion_lat": 0.0, "lat": 38.9206915, "fusion_lon": 0.0, "rental_uris": {"ios": "https://dc.lft.to/lastmile_qr_scan", "android": "https://dc.lft.to/lastmile_qr_scan"}, "lon": -77.02565716666666, "bike_id": "a8c57348e2a0c0bb61cb91e8d5e8fa26", "type": "electric_scooter", "name": "a8c57348e2a0c0bb61cb91e8d5e8fa26"},