{"data": {"bikes": [{"is_disabled": 0, "is_reserved": 0, "fusion_lat": 0.0, "lat": 38.891905666666666, "fusion_lon": 0.0, "rental_uris": {"ios": "https://dc.lft.to/lastmile_qr_scan", "android": "https://dc.lft.to/lastmile_qr_scan"}, "lon": -77.02227383333333, "bike_id": "c3a391c095cde358f52414e6301eecd2", "type": "electric_scooter", "name": "c3a391c095cde358f52414e6301eecd2"}, {"is_disabled": 0, "is_reserved": 0, "fusion_lat": 0.0, "lat": 38.900492, "fusion_lon": 0.0, "rental_uris": {"ios": "https://dc.lft.to/lastmile_qr_scan", "android": "https://dc.lft.to/lastmile_qr_scan"}, "lon": -77.00747733333333, "bike_id": "f1790903daaa4e3a0834f47a5d9d6d19", "type": "electric_scooter", "name": "f1790903daaa4e3a0834f47a5d9d6d19"}, {"is_disabled": 0, "is_reserved": 0, "fusion_lat": 0.0, "lat": 38.92335083333333, "fusion_lon": 0.0, "rental_uris": {"ios": "https://dc.lft.to/lastmile_qr_scan", "android": "https://dc.lft.to/lastmile_qr_scan"}, "lon": -77.05680533333333, "bike_id": "de036d34282076f34b8189ff3a258054", "type": "electric_scooter", "name": "de036d34282076f34b8189ff3a258054"}, {"is_disabled": 0, "is_reserved": 0, "fusion_lat": 0.0, "lat": 38.91632366666666, "fusion_lon": 0.0, "rental_uris": {"ios": "https://dc.lft.to/lastmile_qr_scan", "android": "https://dc.lft.to/lastmile_qr_scan"}, "lon": -77.00511533333334, "bike_id": "185cea087dba57687bfb5e801be1f46a", "type": "electric_scooter", "name": "185cea087dba57687bfb5e801be1f46a"}, {"is_disabled": 0, "is_reserved": 0, "fusion_lat": 0.0, "lat": 38.8808, "fusion_lon": 0.0, "rental_uris": {"ios": "https://dc.lft.to/lastmile_qr_scan", "android": "https://dc.lft.to/lastmile_qr_scan"}, "lon": -77.03259133333333, "bike_id": "c494de8b1688086d7d7adb9077a11590", "type": "electric_bike", "name": "c494de8b1688086d7d7adb9077a11590"}, {"is_disabled": 0, "is_reserved": 0, "fusion_lat": 0.0, "lat": 38.805561166666664, "fusion_lon": 0.0, "rental_uris": {"ios": "https://dc.lft.to/lastmile_qr_scan", "android": "https://dc.lft.to/lastmile_qr_scan"}, "lon": -77.13226566666667, "bike_id": "857d6185b48b2d44496eebeb1977dd9d", "type": "electric_bike", "name": "857d6185b48b2d44496eebeb1977dd9d"}, {"is_disabled": 0, "is_reserved": 0, "fusion_lat": 0.0, "lat": 38.92775433333333, "fusion_lon": 0.0, "rental_uris": {"ios": "https://dc.lft.to/lastmile_qr_scan", "android": "https://dc.lft.to/lastmile_qr_scan"}, "lon": -77.027447, "bike_id": "db4e20f77106ac668e5f52b494439a23", "type": "electric_scooter", "name": "db4e20f77106ac668e5f52b494439a23"}, {"is_disabled": 0, "is_reserved": 0, "fusion_lat": 0.0, "lat": 38.9187625, "fusion_lon": 0.0, "rental_uris": {"ios": "https://dc.lft.to/lastmile_qr_scan", "android": "https://dc.lft.to/lastmile_qr_scan"}, "lon": -77.04454316666667, "bike_id": "e9b1ec925717633330dbd20ff83cb145", "type": "electric_scooter", "name": "e9b1ec925717633330dbd20ff83cb145"}, {"is_disabled": 0, "is_reserved": 0, "fusion_lat": 0.0, "lat": 38.904456333333336, "fusion_lon": 0.0, "rental_uris": {"ios": "https://dc.lft.to/lastmile_qr_scan", "android": "https://dc.lft.to/lastmile_qr_scan"}, "lon": -77.03061166666667, "bike_id": "1ba3a84b70c06ecf9201d9605accb03f", "type": "electric_scooter", "name": "1ba3a84b70c06ecf9201d9605accb03f"}, {"is_disabled": 0, "is_reserved": 0, "fusion_lat": 0.0, "lat": 38.934671, "fusion_lon": 0.0, "rental_uris": {"ios": "https://dc.lft.to/lastmile_qr_scan", "android": "https://dc.lft.to/lastmile_qr_scan"}, "lon": -77.02405983333334, "bike_id": "cfe82e25d8bcf051ef164ef680145eea", "type": "electric_scooter", "name": "cfe82e25d8bcf051ef164ef680145eea"}, {"is_disabled": 0, "is_reserved": 0, "fusion_lat": 0.0, "lat": 38.882452, "fusion_lon": 0.0, "rental_uris": {"ios": "https://dc.lft.to/lastmile_qr_scan", "android": "https://dc.lft.to/lastmile_qr_scan"}, "lon": -76.96262133333333, "bike_id": "e2d3f19388d2a4fd87393236a224a298", "type": "electric_bike", "name": "e2d3f19388d2a4fd87393236a224a298"}, {"is_disabled": 0, "is_reserved": 0, "fusion_lat": 0.0, "lat": 38.88195183333333, "fusion_lon": 0.0, "rental_uris": {"ios": "https://dc.lft.to/lastmile_qr_scan", "android": "https://dc.lft.to/lastmile_qr_scan"}, "lon": -77.0285715, "bike_id": "4b7aa381a8766253343cabf8245ffb08", "type": "electric_scooter", "name": "4b7aa381a8766253343cabf8245ffb08"}, {"is_disabled": 0, "is_reserved": 0, "fusion_lat": 0.0, "lat": 38.91766666666667, "fusion_lon": 0.0, "rental_uris": {"ios": "https://dc.lft.to/lastmile_qr_scan", "android": "https://dc.lft.to/lastmile_qr_scan"}, "lon": -77.02338033333334, "bike_id": "2eea325777875da439793a5ca065a36c", "type": "electric_scooter", "name": "2eea325777875da439793a5ca065a36c"}, {"is_disabled": 0, "is_reserved": 0, "fusion_lat": 0.0, "lat": 38.949524833333335, "fusion_lon": 0.0, "rental_uris": {"ios": "https://dc.lft.to/lastmile_qr_scan", "android": "https://dc.lft.to/lastmile_qr_scan"}, "lon": -77.06620333333333, "bike_id": "ca70d37ad58d6148da96096e216e110d", "type": "electric_bike", "name": "ca70d37ad58d6148da96096e216e110d"}, {"is_disabled": 0, "is_reserved": 0, "fusion_lat": 0.0, "lat": 39.034695, "fusion_lon": 0.0, "rental_uris": {"ios": "https://dc.lft.to/lastmile_qr_scan", "android": "https://dc.lft.to/lastmile_qr_scan"}, "lon": -77.0165795, "bike_id": "088877ca0798170bcf45ad52e218e7e1", "type": "electric_bike", "name": "088877ca0798170bcf45ad52e218e7e1"}, {"is_disabled": 0, "is_reserved": 0, "fusion_lat": 0.0, "lat": 38.900302, "fusion_lon": 0.0, "rental_uris": {"ios": "https://dc.lft.to/lastmile_qr_scan", "android": "https://dc.lft.to/lastmile_qr_scan"}, "lon": -76.99873066666666, "bike_id": "0a6caa0abd1a10e041da66dd1b79d157", "type": "electric_scooter", "name": "0a6caa0abd1a10e041da66dd1b79d157"}, {"is_disabled": 0, "is_reserved": 0, "fusion_lat": 0.0, "lat": 39.0847025, "fusion_lon": 0.0, "rental_uris": {"ios": "https://dc.lft.to/lastmile_qr_scan", "android": "https://dc.lft.to/lastmile_qr_scan"}, "lon": -76.95067666666667, "bike_id": "a67c684e34b8eeeb2cfda054ee1f1a55", "type": "electric_bike", "name": "a67c684e34b8eeeb2cfda054ee1f1a55"}, {"is_disabled": 0, "is_reserved": 0, "fusion_lat": 0.0, "lat": 38.8919885, "fusion_lon": 0.0, "rental_uris": {"ios": "https://dc.lft.to/lastmile_qr_scan", "android": "https://dc.lft.to/lastmile_qr_scan"}, "lon": -77.02473816666667, "bike_id": "3d188ef5f66f94cee2b7350d598fca08", "type": "electric_scooter", "name": "3d188ef5f66f94cee2b7350d598fca08"}, {"is_disabled": 0, "is_reserved": 0, "fusion_lat": 0.0, "lat": 38.953424, "fusion_lon": 0.0, "rental_uris": {"ios": "https://dc.lft.to/lastmile_qr_scan", "android": "https://dc.lft.to/lastmile_qr_scan"}, "lon": -77.0814635, "bike_id": "ca1fd8617d8447c35f84093b42860e21", "type": "electric_scooter", "name": "ca1fd8617d8447c35f84093b42860e21"}, {"is_disabled": 0, "is_reserved": 0, "fusion_lat": 0.0, "lat": 38.90579916666667, "fusion_lon": 0.0, "rental_uris": {"ios": "https://dc.lft.to/lastmile_qr_scan", "android": "https://dc.lft.to/lastmile_qr_scan"}, "lon": -77.03264116666666, "bike_id": "fc2ccfa57c4d07078a38f294e4680da9", "type": "electric_scooter", "name": "fc2ccfa57c4d07078a38f294e4680da9"}, {"is_disabled": 0, "is_reserved": 0, "fusion_lat": 0.0, "lat": 38.9235065, "fusion_lon": 0.0, "rental_uris": {"ios": "https://dc.lft.to/lastmile_qr_scan", "android": "https://dc.lft.to/lastmile_qr_scan"}, "lon": -76.97204366666666, "bike_id": "752da24d63d6d4c82dab0eacadb7be5b", "type": "electric_scooter", "name": "752da24d63d6d4c82dab0eacadb7be5b"}, {"is_disabled": 0, "is_reserved": 0, "fusion_lat": 0.0, "lat": 38.914134833333335, "fusion_lon": 0.0, "rental_uris": {"ios": "https://dc.lft.to/lastmile_qr_scan", "android": "https://dc.lft.to/lastmile_qr_scan"}, "lon": -77.02233483333333, "bike_id": "63e0873d20c074823bfeab32195f163e", "type": "electric_scooter", "name": "63e0873d20c074823bfeab32195f163e"}, {"is_disabled": 0, "is_reserved": 0, "fusion_lat": 0.0, "lat": 38.92032116666667, "fusion_lon": 0.0, "rental_uris": {"ios": "https://dc.lft.to/lastmile_qr_scan", "android": "https://dc.lft.to/lastmile_qr_scan"}, "lon": -77.02447666666667, "bike_id": "577147841b8baf31704a5e99726ef0bb", "type": "electric_scooter", "name": "577147841b8baf31704a5e99726ef0bb"}, {"is_disabled": 0, "is_reserved": 0, "fusion_lat": 0.0, "lat": 38.9216935, "fusion_lon": 0.0, "rental_uris": {"ios": "https://dc.lft.to/lastmile_qr_scan", "android": "https://dc.lft.to/lastmile_qr_scan"}, "lon": -77.04016233333333, "bike_id": "ecfa57c590ce8bbad09194816badafba", "type": "electric_scooter", "name": "ecfa57c590ce8bbad09194816badafba"}, {"is_disabled": 0, "is_reserved": 0, "fusion_lat": 0.0, "lat": 38.902973833333334, "fusion_lon": 0.0, "rental_uris": {"ios": "https://dc.lft.to/lastmile_qr_scan", "android": "https://dc.lft.to/lastmile_qr_scan"}, "lon": -77.03198733333333, "bike_id": "3bc18bc130b8e33d5e55c45b9666ed8b", "type": "electric_scooter", "name": "3bc18bc130b8e33d5e55c45b9666ed8b"}, {"is_disabled": 0, "is_reserved": 0, "fusion_lat": 0.0, "lat": 38.89967566666667, "fusion_lon": 0.0, "rental_uris": {"ios": "https://dc.lft.to/lastmile_qr_scan", "android": "https://dc.lft.to/lastmile_qr_scan"}, "lon": -76.92630633333333, "bike_id": "af4642205214db59f5d1b5cd94cc1f33", "type": "electric_scooter", "name": "af4642205214db59f5d1b5cd94cc1f33"}, {"is_disabled": 0, "is_reserved": 0, "fusion_lat": 0.0, "lat": 38.89252333333334, "fusion_lon": 0.0, "rental_uris": {"ios": "https://dc.lft.to/lastmile_qr_scan", "android": "https://dc.lft.to/lastmile_qr_scan"}, "lon": -77.046572, "bike_id": "9dbf3c731db981233af9b953b67c6f44", "type": "electric_scooter", "name": "9dbf3c731db981233af9b953b67c6f44"}, {"is_disabled": 0, "is_reserved": 0, "fusion_lat": 0.0, "lat": 38.91917483333334, "fusion_lon": 0.0, "rental_uris": {"ios": "https://dc.lft.to/lastmile_qr_scan", "android": "https://dc.lft.to/lastmile_qr_scan"}, "lon": -77.03097016666666, "bike_id": "1720a58a29c6d699243e5a0de401347d", "type": "electric_scooter", "name": "1720a58a29c6d699243e5a0de401347d"}, {"is_disabled": 0, "is_reserved": 0, "fusion_lat": 0.0, "lat": 38.9240895, "fusion_lon": 0.0, "rental_uris": {"ios": "https://dc.lft.to/lastmile_qr_scan", "android": "https://dc.lft.to/lastmile_qr_scan"}, "lon": -77.02712333333334, "bike_id": "7d684b9a80d6dfa91ca15792e914ee4b", "type": "electric_scooter", "name": "7d684b9a80d6dfa91ca15792e914ee4b"}, {"is_disabled": 0, "is_reserved": 0, "fusion_lat": 0.0, "lat": 38.85837266666667, "fusion_lon": 0.0, "rental_uris": {"ios": "https://dc.lft.to/lastmile_qr_scan", "android": "https://dc.lft.to/lastmile_qr_scan"}, "lon": -76.988181, "bike_id": "aa45f7d3f3796ec636a7c9121ba490d7", "type": "electric_scooter", "name": "aa45f7d3f3796ec636a7c9121ba490d7"}, {"is_disabled": 0, "is_reserved": 0, "fusion_lat": 0.0, "lat": 38.921982, "fusion_lon": 0.0, "rental_uris": {"ios": "https://dc.lft.to/lastmile_qr_scan", "android": "https://dc.lft.to/lastmile_qr_scan"}, "lon": -77.03791533333333, "bike_id": "d8ac96331b45e0871963fcd65b4d6c1d", "type": "electric_scooter", "name": "d8ac96331b45e0871963fcd65b4d6c1d"}, {"is_disabled": 0, "is_reserved": 0, "fusion_lat": 0.0, "lat": 38.9385795, "fusion_lon": 0.0, "rental_uris": {"ios": "https://dc.lft.to/lastmile_qr_scan", "android": "https://dc.lft.to/lastmile_qr_scan"}, "lon": -77.0263065, "bike_id": "0785ca7f01481033956be406e56b8d5e", "type": "electric_bike", "name": "0785ca7f01481033956be406e56b8d5e"}, {"is_disabled": 0, "is_reserved": 0, "fusion_lat": 0.0, "lat": 38.89712883333333, "fusion_lon": 0.0, "rental_uris": {"ios": "https://dc.lft.to/lastmile_qr_scan", "android": "https://dc.lft.to/lastmile_qr_scan"}, "lon": -77.02727733333333, "bike_id": "06094f7bbf8c79ffa6d22db6d9cc7688", "type": "electric_scooter", "name": "06094f7bbf8c79ffa6d22db6d9cc7688"}, {"is_disabled": 0, "is_reserved": 0, "fusion_lat": 0.0, "lat": 38.92316, "fusion_lon": 0.0, "rental_uris": {"ios": "https://dc.lft.to/lastmile_qr_scan", "android": "https://dc.lft.to/lastmile_qr_scan"}, "lon": -77.02801783333334, "bike_id": "c04a386c72a30b111215a3034fbafbb6", "type": "electric_scooter", "name": "c04a386c72a30b111215a3034fbafbb6"}, {"is_disabled": 0, "is_reserved": 0, "fusion_lat": 0.0, "lat": 38.88744966666667, "fusion_lon": 0.0, "rental_uris": {"ios": "https://dc.lft.to/lastmile_qr_scan", "android": "https://dc.lft.to/lastmile_qr_scan"}, "lon": -77.0220155, "bike_id": "9a3490e1f9d709fdc707181f2fd8c2da", "type": "electric_scooter", "name": "9a3490e1f9d709fdc707181f2fd8c2da"}, {"is_disabled": 0, "is_reserved": 0, "fusion_lat": 0.0, "lat": 38.85789233333333, "fusion_lon": 0.0, "rental_uris": {"ios": "https://dc.lft.to/lastmile_qr_scan", "android": "https://dc.lft.to/lastmile_qr_scan"}, "lon": -76.98755833333334, "bike_id": "6e626bd9f1ff3ba309e335c85abe9b28", "type": "electric_bike", "name": "6e626bd9f1ff3ba309e335c85abe9b28"}, {"is_disabled": 0, "is_reserved": 0, "fusion_lat": 0.0, "lat": 38.91828666666667, "fusion_lon": 0.0, "rental_uris": {"ios": "https://dc.lft.to/lastmile_qr_scan", "android": "https://dc.lft.to/lastmile_qr_scan"}, "lon": -77.03996816666667, "bike_id": "041024a0eb0f0e0d6fcb84c7a1b2dfe3", "type": "electric_scooter", "name": "041024a0eb0f0e0d6fcb84c7a1b2dfe3"}, {"is_disabled": 0, "is_reserved": 0, "fusion_lat": 0.0, "lat": 38.90037383333333, "fusion_lon": 0.0, "rental_uris": {"ios": "https://dc.lft.to/lastmile_qr_scan", "android": "https://dc.lft.to/lastmile_qr_scan"}, "lon": -76.991581, "bike_id": "b5ddc965c6adaf81d8d0427758c1200c", "type": "electric_scooter", "name": "b5ddc965c6adaf81d8d0427758c1200c"}, {"is_disabled": 0, "is_reserved": 0, "fusion_lat": 0.0, "lat": 38.923023666666666, "fusion_lon": 0.0, "rental_uris": {"ios": "https://dc.lft.to/lastmile_qr_scan", "android": "https://dc.lft.to/lastmile_qr_scan"}, "lon": -77.03411666666666, "bike_id": "fe1dd8811b3707c4b21b849c6d02eaac", "type": "electric_scooter", "name": "fe1dd8811b3707c4b21b849c6d02eaac"}, {"is_disabled": 0, "is_reserved": 0, "fusion_lat": 0.0, "lat": 38.9744145, "fusion_lon": 0.0, "rental_uris": {"ios": "https://dc.lft.to/lastmile_qr_scan", "android": "https://dc.lft.to/lastmile_qr_scan"}, "lon": -77.09582333333333, "bike_id": "b3e02a92f488d55397ee7011680b9568", "type": "electric_bike", "name": "b3e02a92f488d55397ee7011680b9568"}, {"is_disabled": 0, "is_reserved": 0, "fusion_lat": 0.0, "lat": 38.87661, "fusion_lon": 0.0, "rental_uris": {"ios": "https://dc.lft.to/lastmile_qr_scan", "android": "https://dc.lft.to/lastmile_qr_scan"}, "lon": -77.00876966666667, "bike_id": "cd91757b3f1ce8ddfce69da95d937adb", "type": "electric_scooter", "name": "cd91757b3f1ce8ddfce69da95d937adb"}, {"is_disabled": 0, "is_reserved": 0, "fusion_lat": 0.0, "lat": 38.89668233333333, "fusion_lon": 0.0, "rental_uris": {"ios": "https://dc.lft.to/lastmile_qr_scan", "android": "https://dc.lft.to/lastmile_qr_scan"}, "lon": -76.93210816666667, "bike_id": "480c6acd516d905558f14efcbea41a2e", "type": "electric_bike", "name": "480c6acd516d905558f14efcbea41a2e"}, {"is_disabled": 0, "is_reserved": 0, "fusion_lat": 0.0, "lat": 38.92223216666667, "fusion_lon": 0.0, "rental_uris": {"ios": "https://dc.lft.to/lastmile_qr_scan", "android": "https://dc.lft.to/lastmile_qr_scan"}, "lon": -77.04243233333334, "bike_id": "54d7b6a193697c7e660f28c7ff9d728d", "type": "electric_scooter", "name": "54d7b6a193697c7e660f28c7ff9d728d"}, {"is_disabled": 0, "is_reserved": 0, "fusion_lat": 0.0, "lat": 38.934099833333335, "fusion_lon": 0.0, "rental_uris": {"ios": "https://dc.lft.to/lastmile_qr_scan", "android": "https://dc.lft.to/lastmile_qr_scan"}, "lon": -77.07257533333333, "bike_id": "aec13ab9beb5df4bf96d586f6bc34635", "type": "electric_scooter", "name": "aec13ab9beb5df4bf96d586f6bc34635"}, {"is_disabled": 0, "is_reserved": 0, "fusion_lat": 0.0, "lat": 38.905739833333335, "fusion_lon": 0.0, "rental_uris": {"ios": "https://dc.lft.to/lastmile_qr_scan", "android": "https://dc.lft.to/lastmile_qr_scan"}, "lon": -77.00294116666667, "bike_id": "4a207f006074fd5b7a2c26308553b2f3", "type": "electric_scooter", "name": "4a207f006074fd5b7a2c26308553b2f3"}, {"is_disabled": 0, "is_reserved": 0, "fusion_lat": 0.0, "lat": 38.9111845, "fusion_lon": 0.0, "rental_uris": {"ios": "https://dc.lft.to/lastmile_qr_scan", "android": "https://dc.lft.to/lastmile_qr_scan"}, "lon": -77.03152533333333, "bike_id": "3a5c482745a1a0763ed9c0723a835c49", "type": "electric_scooter", "name": "3a5c482745a1a0763ed9c0723a835c49"}, {"is_disabled": 0, "is_reserved": 0, "fusion_lat": 0.0, "lat": 38.907675166666664, "fusion_lon": 0.0, "rental_uris": {"ios": "https://dc.lft.to/lastmile_qr_scan", "android": "https://dc.lft.to/lastmile_qr_scan"}, "lon": -77.03205783333334, "bike_id": "e137dc98dd1657b5747873c8eedda161", "type": "electric_scooter", "name": "e137dc98dd1657b5747873c8eedda161"}, {"is_disabled": 0, "is_reserved": 0, "fusion_lat": 0.0, "lat": 38.920164666666665, "fusion_lon": 0.0, "rental_uris": {"ios": "https://dc.lft.to/lastmile_qr_scan", "android": "https://dc.lft.to/lastmile_qr_scan"}, "lon": -77.03124833333334, "bike_id": "82a897e29e862c62cb00c40ae60f2386", "type": "electric_scooter", "name": "82a897e29e862c62cb00c40ae60f2386"}, {"is_disabled": 0, "is_reserved": 0, "fusion_lat": 0.0, "lat": 38.8999025, "fusion_lon": 0.0, "rental_uris": {"ios": "https://dc.lft.to/lastmile_qr_scan", "android": "https://dc.lft.to/lastmile_qr_scan"}, "lon": -77.050917, "bike_id": "34830f7d684deb3b9dee7a52a42f480c", "type": "electric_scooter", "name": "34830f7d684deb3b9dee7a52a42f480c"}, {"is_disabled": 0, "is_reserved": 0, "fusion_lat": 0.0, "lat": 38.922894166666666, "fusion_lon": 0.0, "rental_uris": {"ios": "https://dc.lft.to/lastmile_qr_scan", "android": "https://dc.lft.to/lastmile_qr_scan"}, "lon": -77.02961133333334, "bike_id": "6654a460e1229205d41d5bce48eb8377", "type": "electric_scooter", "name": "6654a460e1229205d41d5bce48eb8377"}, {"is_disabled": 0, "is_reserved": 0, "fusion_lat": 0.0, "lat": 38.937675, "fusion_lon": 0.0, "rental_uris": {"ios": "https://dc.lft.to/lastmile_qr_scan", "android": "https://dc.lft.to/lastmile_qr_scan"}, "lon": -77.02478783333333, "bike_id": "5fdc55696543b55ca98f2645fcced59c", "type": "electric_scooter", "name": "5fdc55696543b55ca98f2645fcced59c"}, {"is_disabled": 0, "is_reserved": 0, "fusion_lat": 0.0, "lat": 38.9121825, "fusion_lon": 0.0, "rental_uris": {"ios": "https://dc.lft.to/lastmile_qr_scan", "android": "https://dc.lft.to/lastmile_qr_scan"}, "lon": -77.0271895, "bike_id": "01f55d913c0caa1ccfffff9275e0c0a2", "type": "electric_scooter", "name": "01f55d913c0caa1ccfffff9275e0c0a2"}, {"is_disabled": 0, "is_reserved": 0, "fusion_lat": 0.0, "lat": 38.94133266666667, "fusion_lon": 0.0, "rental_uris": {"ios": "https://dc.lft.to/lastmile_qr_scan", "android": "https://dc.lft.to/lastmile_qr_scan"}, "lon": -77.0232075, "bike_id": "0d2898159e8f74baa7aea9eead896796", "type": "electric_scooter", "name": "0d2898159e8f74baa7aea9eead896796"}, {"is_disabled": 0, "is_reserved": 0, "fusion_lat": 0.0, "lat": 38.937854333333334, "fusion_lon": 0.0, "rental_uris": {"ios": "https://dc.lft.to/lastmile_qr_scan", "android": "https://dc.lft.to/lastmile_qr_scan"}, "lon": -77.02970783333333, "bike_id": "c7c41d9812937be7d0ccf6b93ffc49e8", "type": "electric_scooter", "name": "c7c41d9812937be7d0ccf6b93ffc49e8"}, {"is_disabled": 0, "is_reserved": 0, "fusion_lat": 0.0, "lat": 38.903811833333336, "fusion_lon": 0.0, "rental_uris": {"ios": "https://dc.lft.to/lastmile_qr_scan", "android": "https://dc.lft.to/lastmile_qr_scan"}, "lon": -77.0177245, "bike_id": "dd9bad15e8320d6e616504a8e56ddb96", "type": "electric_scooter", "name": "dd9bad15e8320d6e616504a8e56ddb96"}, {"is_disabled": 0, "is_reserved": 0, "fusion_lat": 0.0, "lat": 38.93131016666667, "fusion_lon": 0.0, "rental_uris": {"ios": "https://dc.lft.to/lastmile_qr_scan", "android": "https://dc.lft.to/lastmile_qr_scan"}, "lon": -77.02803666666667, "bike_id": "1b370ce56b0a88a4c8f7b85bbd3c8e58", "type": "electric_scooter", "name": "1b370ce56b0a88a4c8f7b85bbd3c8e58"}, {"is_disabled": 0, "is_reserved": 0, "fusion_lat": 0.0, "lat": 38.95731283333333, "fusion_lon": 0.0, "rental_uris": {"ios": "https://dc.lft.to/lastmile_qr_scan", "android": "https://dc.lft.to/lastmile_qr_scan"}, "lon": -77.02402966666666, "bike_id": "c017e56eba109d68895deaf42dc0c799", "type": "electric_scooter", "name": "c017e56eba109d68895deaf42dc0c799"}, {"is_disabled": 0, "is_reserved": 0, "fusion_lat": 0.0, "lat": 38.827613, "fusion_lon": 0.0, "rental_uris": {"ios": "https://dc.lft.to/lastmile_qr_scan", "android": "https://dc.lft.to/lastmile_qr_scan"}, "lon": -77.060094, "bike_id": "134a565c512160cbc43268c4e339f554", "type": "electric_bike", "name": "134a565c512160cbc43268c4e339f554"}, {"is_disabled": 0, "is_reserved": 0, "fusion_lat": 0.0, "lat": 38.892212666666666, "fusion_lon": 0.0, "rental_uris": {"ios": "https://dc.lft.to/lastmile_qr_scan", "android": "https://dc.lft.to/lastmile_qr_scan"}, "lon": -77.04499316666667, "bike_id": "42e1bf79380dc61d4c9c4236c84d6624", "type": "electric_scooter", "name": "42e1bf79380dc61d4c9c4236c84d6624"}, {"is_disabled": 0, "is_reserved": 0, "fusion_lat": 0.0, "lat": 38.916441, "fusion_lon": 0.0, "rental_uris": {"ios": "https://dc.lft.to/lastmile_qr_scan", "android": "https://dc.lft.to/lastmile_qr_scan"}, "lon": -77.023983, "bike_id": "d4ff8998e42da702fecea059c1b2b0e8", "type": "electric_scooter", "name": "d4ff8998e42da702fecea059c1b2b0e8"}, {"is_disabled": 0, "is_reserved": 0, "fusion_lat": 0.0, "lat": 38.925580333333336, "fusion_lon": 0.0, "rental_uris": {"ios": "https://dc.lft.to/lastmile_qr_scan", "android": "https://dc.lft.to/lastmile_qr_scan"}, "lon": -77.0227935, "bike_id": "78555199da8933c458d17863033a170d", "type": "electric_scooter", "name": "78555199da8933c458d17863033a170d"}, {"is_disabled": 0, "is_reserved": 0, "fusion_lat": 0.0, "lat": 38.91600016666666, "fusion_lon": 0.0, "rental_uris": {"ios": "https://dc.lft.to/lastmile_qr_scan", "android": "https://dc.lft.to/lastmile_qr_scan"}, "lon": -77.02294016666667, "bike_id": "c781e0128af4f86b13ed23c7da557c18", "type": "electric_scooter", "name": "c781e0128af4f86b13ed23c7da557c18"}, {"is_disabled": 0, "is_reserved": 0, "fusion_lat": 0.0, "lat": 38.95148233333333, "fusion_lon": 0.0, "rental_uris": {"ios": "https://dc.lft.to/lastmile_qr_scan", "android": "https://dc.lft.to/lastmile_qr_scan"}, "lon": -77.01868916666666, "bike_id": "2436f0b18398af5c09ae37c1114d557e", "type": "electric_scooter", "name": "2436f0b18398af5c09ae37c1114d557e"}, {"is_disabled": 0, "is_reserved": 0, "fusion_lat": 0.0, "lat": 38.899038, "fusion_lon": 0.0, "rental_uris": {"ios": "https://dc.lft.to/lastmile_qr_scan", "android": "https://dc.lft.to/lastmile_qr_scan"}, "lon": -77.03238266666666, "bike_id": "7496e59cb8ac1a5c9f461cc3f1bff332", "type": "electric_scooter", "name": "7496e59cb8ac1a5c9f461cc3f1bff332"}, {"is_disabled": 0, "is_reserved": 0, "fusion_lat": 0.0, "lat": 38.912560666666664, "fusion_lon": 0.0, "rental_uris": {"ios": "https://dc.lft.to/lastmile_qr_scan", "android": "https://dc.lft.to/lastmile_qr_scan"}, "lon": -77.01907333333334, "bike_id": "8fe39414e0ba61cd7228763d15c217ba", "type": "electric_scooter", "name": "8fe39414e0ba61cd7228763d15c217ba"}, {"is_disabled": 0, "is_reserved": 0, "fusion_lat": 0.0, "lat": 38.915328333333335, "fusion_lon": 0.0, "rental_uris": {"ios": "https://dc.lft.to/lastmile_qr_scan", "android": "https://dc.lft.to/lastmile_qr_scan"}, "lon": -77.032067, "bike_id": "10d46db8d96f3ece4267da63c8a7e73f", "type": "electric_scooter", "name": "10d46db8d96f3ece4267da63c8a7e73f"}, {"is_disabled": 0, "is_reserved": 0, "fusion_lat": 0.0, "lat": 38.9002185, "fusion_lon": 0.0, "rental_uris": {"ios": "https://dc.lft.to/lastmile_qr_scan", "android": "https://dc.lft.to/lastmile_qr_scan"}, "lon": -77.04891383333333, "bike_id": "9250db52d14d680bdad041e9ba235ba8", "type": "electric_scooter", "name": "9250db52d14d680bdad041e9ba235ba8"}, {"is_disabled": 0, "is_reserved": 0, "fusion_lat": 0.0, "lat": 38.949614833333335, "fusion_lon": 0.0, "rental_uris": {"ios": "https://dc.lft.to/lastmile_qr_scan", "android": "https://dc.lft.to/lastmile_qr_scan"}, "lon": -77.06752083333333, "bike_id": "c667348da88b4fedcc66c633a3f505d2", "type": "electric_scooter", "name": "c667348da88b4fedcc66c633a3f505d2"}, {"is_disabled": 0, "is_reserved": 0, "fusion_lat": 0.0, "lat": 38.88600683333333, "fusion_lon": 0.0, "rental_uris": {"ios": "https://dc.lft.to/lastmile_qr_scan", "android": "https://dc.lft.to/lastmile_qr_scan"}, "lon": -77.0450975, "bike_id": "0c4c15b1c019ee9d01e225ee100b65db", "type": "electric_scooter", "name": "0c4c15b1c019ee9d01e225ee100b65db"}, {"is_disabled": 0, "is_reserved": 0, "fusion_lat": 0.0, "lat": 38.9375005, "fusion_lon": 0.0, "rental_uris": {"ios": "https://dc.lft.to/lastmile_qr_scan", "android": "https://dc.lft.to/lastmile_qr_scan"}, "lon": -77.03261266666667, "bike_id": "0f5e14d2629d11e0f75ee1b1e7cfaf55", "type": "electric_scooter", "name": "0f5e14d2629d11e0f75ee1b1e7cfaf55"}, {"is_disabled": 0, "is_reserved": 0, "fusion_lat": 0.0, "lat": 38.888685833333334, "fusion_lon": 0.0, "rental_uris": {"ios": "https://dc.lft.to/lastmile_qr_scan", "android": "https://dc.lft.to/lastmile_qr_scan"}, "lon": -76.95696766666667, "bike_id": "cd7364fb7d4f389e06d889fee195d1e2", "type": "electric_bike", "name": "cd7364fb7d4f389e06d889fee195d1e2"}, {"is_disabled": 0, "is_reserved": 0, "fusion_lat": 0.0, "lat": 38.917014333333334, "fusion_lon": 0.0, "rental_uris": {"ios": "https://dc.lft.to/lastmile_qr_scan", "android": "https://dc.lft.to/lastmile_qr_scan"}, "lon": -77.03878133333333, "bike_id": "e9d577ed56e1f5d3793d5e049818da15", "type": "electric_scooter", "name": "e9d577ed56e1f5d3793d5e049818da15"}, {"is_disabled": 0, "is_reserved": 0, "fusion_lat": 0.0, "lat": 38.9012925, "fusion_lon": 0.0, "rental_uris": {"ios": "https://dc.lft.to/lastmile_qr_scan", "android": "https://dc.lft.to/lastmile_qr_scan"}, "lon": -77.0418805, "bike_id": "9e016d47a41b52426b53f61fc16e53ae", "type": "electric_scooter", "name": "9e016d47a41b52426b53f61fc16e53ae"}, {"is_disabled": 0, "is_reserved": 0, "fusion_lat": 0.0, "lat": 38.940863666666665, "fusion_lon": 0.0, "rental_uris": {"ios": "https://dc.lft.to/lastmile_qr_scan", "android": "https://dc.lft.to/lastmile_qr_scan"}, "lon": -77.023195, "bike_id": "173e4d6672979a14f3d272f8a77da340", "type": "electric_scooter", "name": "173e4d6672979a14f3d272f8a77da340"}, {"is_disabled": 0, "is_reserved": 0, "fusion_lat": 0.0, "lat": 38.96016216666666, "fusion_lon": 0.0, "rental_uris": {"ios": "https://dc.lft.to/lastmile_qr_scan", "android": "https://dc.lft.to/lastmile_qr_scan"}, "lon": -77.02821816666666, "bike_id": "195660b6709491f8fcf903a11dfd6af2", "type": "electric_scooter", "name": "195660b6709491f8fcf903a11dfd6af2"}, {"is_disabled": 0, "is_reserved": 0, "fusion_lat": 0.0, "lat": 38.900371166666666, "fusion_lon": 0.0, "rental_uris": {"ios": "https://dc.lft.to/lastmile_qr_scan", "android": "https://dc.lft.to/lastmile_qr_scan"}, "lon": -76.99158383333334, "bike_id": "56732cc8e293db00bc76b37e196dba75", "type": "electric_scooter", "name": "56732cc8e293db00bc76b37e196dba75"}, {"is_disabled": 0, "is_reserved": 0, "fusion_lat": 0.0, "lat": 38.909461, "fusion_lon": 0.0, "rental_uris": {"ios": "https://dc.lft.to/lastmile_qr_scan", "android": "https://dc.lft.to/lastmile_qr_scan"}, "lon": -77.04816433333333, "bike_id": "6c24148d76ac0d6f6988b144480bd2dd", "type": "electric_scooter", "name": "6c24148d76ac0d6f6988b144480bd2dd"}, {"is_disabled": 0, "is_reserved": 0, "fusion_lat": 0.0, "lat": 38.8919845, "fusion_lon": 0.0, "rental_uris": {"ios": "https://dc.lft.to/lastmile_qr_scan", "android": "https://dc.lft.to/lastmile_qr_scan"}, "lon": -77.04391016666666, "bike_id": "425a28f7c232fac95fd32060362b12e0", "type": "electric_scooter", "name": "425a28f7c232fac95fd32060362b12e0"}, {"is_disabled": 0, "is_reserved": 0, "fusion_lat": 0.0, "lat": 38.902626166666664, "fusion_lon": 0.0, "rental_uris": {"ios": "https://dc.lft.to/lastmile_qr_scan", "android": "https://dc.lft.to/lastmile_qr_scan"}, "lon": -77.051948, "bike_id": "a2c09c317bb428f002a773ffcd1306c1", "type": "electric_scooter", "name": "a2c09c317bb428f002a773ffcd1306c1"}, {"is_disabled": 0, "is_reserved": 0, "fusion_lat": 0.0, "lat": 38.9103135, "fusion_lon": 0.0, "rental_uris": {"ios": "https://dc.lft.to/lastmile_qr_scan", "android": "https://dc.lft.to/lastmile_qr_scan"}, "lon": -77.009616, "bike_id": "37893772ecad4e5a0e609ebc7fcfdea0", "type": "electric_scooter", "name": "37893772ecad4e5a0e609ebc7fcfdea0"}, {"is_disabled": 0, "is_reserved": 0, "fusion_lat": 0.0, "lat": 38.92876533333333, "fusion_lon": 0.0, "rental_uris": {"ios": "https://dc.lft.to/lastmile_qr_scan", "android": "https://dc.lft.to/lastmile_qr_scan"}, "lon": -77.01387733333334, "bike_id": "d476300017498789dfee8eff40ba22ce", "type": "electric_scooter", "name": "d476300017498789dfee8eff40ba22ce"}, {"is_disabled": 0, "is_reserved": 0, "fusion_lat": 0.0, "lat": 38.90502766666667, "fusion_lon": 0.0, "rental_uris": {"ios": "https://dc.lft.to/lastmile_qr_scan", "android": "https://dc.lft.to/lastmile_qr_scan"}, "lon": -77.06018233333333, "bike_id": "78c613e3d7f2b2fb4c445b3fcc4b21f6", "type": "electric_scooter", "name": "78c613e3d7f2b2fb4c445b3fcc4b21f6"}, {"is_disabled": 0, "is_reserved": 0, "fusion_lat": 0.0, "lat": 38.95652283333333, "fusion_lon": 0.0, "rental_uris": {"ios": "https://dc.lft.to/lastmile_qr_scan", "android": "https://dc.lft.to/lastmile_qr_scan"}, "lon": -77.01968283333333, "bike_id": "c5627f799228ff28d5cd0169a2457e3d", "type": "electric_scooter", "name": "c5627f799228ff28d5cd0169a2457e3d"}, {"is_disabled": 0, "is_reserved": 0, "fusion_lat": 0.0, "lat": 38.91103483333333, "fusion_lon": 0.0, "rental_uris": {"ios": "https://dc.lft.to/lastmile_qr_scan", "android": "https://dc.lft.to/lastmile_qr_scan"}, "lon": -77.00218633333333, "bike_id": "ae8cf63858fbba9430f65ad5d8e7bfd2", "type": "electric_scooter", "name": "ae8cf63858fbba9430f65ad5d8e7bfd2"}, {"is_disabled": 0, "is_reserved": 0, "fusion_lat": 0.0, "lat": 38.92229, "fusion_lon": 0.0, "rental_uris": {"ios": "https://dc.lft.to/lastmile_qr_scan", "android": "https://dc.lft.to/lastmile_qr_scan"}, "lon": -77.01816683333334, "bike_id": "b4e61912f6be3d47fc3de0061403cd9b", "type": "electric_scooter", "name": "b4e61912f6be3d47fc3de0061403cd9b"}, {"is_disabled": 0, "is_reserved": 0, "fusion_lat": 0.0, "lat": 38.89964833333333, "fusion_lon": 0.0, "rental_uris": {"ios": "https://dc.lft.to/lastmile_qr_scan", "android": "https://dc.lft.to/lastmile_qr_scan"}, "lon": -77.0161705, "bike_id": "789152d85c728c256adaa69083d025d3", "type": "electric_scooter", "name": "789152d85c728c256adaa69083d025d3"}, {"is_disabled": 0, "is_reserved": 0, "fusion_lat": 0.0, "lat": 38.93467, "fusion_lon": 0.0, "rental_uris": {"ios": "https://dc.lft.to/lastmile_qr_scan", "android": "https://dc.lft.to/lastmile_qr_scan"}, "lon": -77.02841483333333, "bike_id": "de8fa2718fad404aaa549d6a63228edf", "type": "electric_scooter", "name": "de8fa2718fad404aaa549d6a63228edf"}, {"is_disabled": 0, "is_reserved": 0, "fusion_lat": 0.0, "lat": 38.892223, "fusion_lon": 0.0, "rental_uris": {"ios": "https://dc.lft.to/lastmile_qr_scan", "android": "https://dc.lft.to/lastmile_qr_scan"}, "lon": -77.04681016666666, "bike_id": "1846fab2ed7841be6837e92487227691", "type": "electric_scooter", "name": "1846fab2ed7841be6837e92487227691"}, {"is_disabled": 0, "is_reserved": 0, "fusion_lat": 0.0, "lat": 38.90465566666666, "fusion_lon": 0.0, "rental_uris": {"ios": "https://dc.lft.to/lastmile_qr_scan", "android": "https://dc.lft.to/lastmile_qr_scan"}, "lon": -76.9842145, "bike_id": "7c2edb84426543244638472514a5efe9", "type": "electric_bike", "name": "7c2edb84426543244638472514a5efe9"}, {"is_disabled": 0, "is_reserved": 0, "fusion_lat": 0.0, "lat": 38.914071166666666, "fusion_lon": 0.0, "rental_uris": {"ios": "https://dc.lft.to/lastmile_qr_scan", "android": "https://dc.lft.to/lastmile_qr_scan"}, "lon": -77.03218466666667, "bike_id": "99babcfac94eb78637356e9ebe6ad80f", "type": "electric_scooter", "name": "99babcfac94eb78637356e9ebe6ad80f"}, {"is_disabled": 0, "is_reserved": 0, "fusion_lat": 0.0, "lat": 38.8579675, "fusion_lon": 0.0, "rental_uris": {"ios": "https://dc.lft.to/lastmile_qr_scan", "android": "https://dc.lft.to/lastmile_qr_scan"}, "lon": -76.9875385, "bike_id": "168d4b84828b1d1fa02f899b44ca6a9d", "type": "electric_bike", "name": "168d4b84828b1d1fa02f899b44ca6a9d"}, {"is_disabled": 0, "is_reserved": 0, "fusion_lat": 0.0, "lat": 38.92768216666666, "fusion_lon": 0.0, "rental_uris": {"ios": "https://dc.lft.to/lastmile_qr_scan", "android": "https://dc.lft.to/lastmile_qr_scan"}, "lon": -77.02315683333333, "bike_id": "95570cbf177f2f01ff838d754d83bfa3", "type": "electric_scooter", "name": "95570cbf177f2f01ff838d754d83bfa3"}, {"is_disabled": 0, "is_reserved": 0, "fusion_lat": 0.0, "lat": 38.922368, "fusion_lon": 0.0, "rental_uris": {"ios": "https://dc.lft.to/lastmile_qr_scan", "android": "https://dc.lft.to/lastmile_qr_scan"}, "lon": -77.040098, "bike_id": "3c249a18064aa6479648112718036834", "type": "electric_scooter", "name": "3c249a18064aa6479648112718036834"}, {"is_disabled": 0, "is_reserved": 0, "fusion_lat": 0.0, "lat": 39.026215666666666, "fusion_lon": 0.0, "rental_uris": {"ios": "https://dc.lft.to/lastmile_qr_scan", "android": "https://dc.lft.to/lastmile_qr_scan"}, "lon": -77.038812, "bike_id": "b50a06d9b8dbb881b9bc632c087684d3", "type": "electric_bike", "name": "b50a06d9b8dbb881b9bc632c087684d3"}, {"is_disabled": 0, "is_reserved": 0, "fusion_lat": 0.0, "lat": 38.86948266666667, "fusion_lon": 0.0, "rental_uris": {"ios": "https://dc.lft.to/lastmile_qr_scan", "android": "https://dc.lft.to/lastmile_qr_scan"}, "lon": -77.01283066666667, "bike_id": "8571b4fad14d1ae65fed5951ce93056f", "type": "electric_bike", "name": "8571b4fad14d1ae65fed5951ce93056f"}, {"is_disabled": 0, "is_reserved": 0, "fusion_lat": 0.0, "lat": 38.934712, "fusion_lon": 0.0, "rental_uris": {"ios": "https://dc.lft.to/lastmile_qr_scan", "android": "https://dc.lft.to/lastmile_qr_scan"}, "lon": -77.02960516666667, "bike_id": "5032d03947bfef137f54f3969b0ba803", "type": "electric_scooter", "name": "5032d03947bfef137f54f3969b0ba803"}, {"is_disabled": 0, "is_reserved": 0, "fusion_lat": 0.0, "lat": 38.91193283333333, "fusion_lon": 0.0, "rental_uris": {"ios": "https://dc.lft.to/lastmile_qr_scan", "android": "https://dc.lft.to/lastmile_qr_scan"}, "lon": -77.031917, "bike_id": "cdc075c735ac21e8ffa7521584c3d7aa", "type": "electric_scooter", "name": "cdc075c735ac21e8ffa7521584c3d7aa"}, {"is_disabled": 0, "is_reserved": 0, "fusion_lat": 0.0, "lat": 38.91478816666667, "fusion_lon": 0.0, "rental_uris": {"ios": "https://dc.lft.to/lastmile_qr_scan", "android": "https://dc.lft.to/lastmile_qr_scan"}, "lon": -77.0453095, "bike_id": "edb46c7dba852611742e65e7046222d8", "type": "electric_scooter", "name": "edb46c7dba852611742e65e7046222d8"}, {"is_disabled": 0, "is_reserved": 0, "fusion_lat": 0.0, "lat": 38.967771666666664, "fusion_lon": 0.0, "rental_uris": {"ios": "https://dc.lft.to/lastmile_qr_scan", "android": "https://dc.lft.to/lastmile_qr_scan"}, "lon": -76.99652366666666, "bike_id": "046d6c545e6db8a1308e14baa42b469d", "type": "electric_bike", "name": "046d6c545e6db8a1308e14baa42b469d"}, {"is_disabled": 0, "is_reserved": 0, "fusion_lat": 0.0, "lat": 38.932212, "fusion_lon": 0.0, "rental_uris": {"ios": "https://dc.lft.to/lastmile_qr_scan", "android": "https://dc.lft.to/lastmile_qr_scan"}, "lon": -77.03365283333333, "bike_id": "58ee8fe66b9d75a62694d81b3c9b77c6", "type": "electric_scooter", "name": "58ee8fe66b9d75a62694d81b3c9b77c6"}, {"is_disabled": 0, "is_reserved": 0, "fusion_lat": 0.0, "lat": 38.9111885, "fusion_lon": 0.0, "rental_uris": {"ios": "https://dc.lft.to/lastmile_qr_scan", "android": "https://dc.lft.to/lastmile_qr_scan"}, "lon": -76.99741716666666, "bike_id": "c9255cc132430493e4f3faa6f27edf7a", "type": "electric_scooter", "name": "c9255cc132430493e4f3faa6f27edf7a"}, {"is_disabled": 0, "is_reserved": 0, "fusion_lat": 0.0, "lat": 38.90699633333333, "fusion_lon": 0.0, "rental_uris": {"ios": "https://dc.lft.to/lastmile_qr_scan", "android": "https://dc.lft.to/lastmile_qr_scan"}, "lon": -76.98694516666667, "bike_id": "20f108b39a32cd060e77e590a54052cc", "type": "electric_scooter", "name": "20f108b39a32cd060e77e590a54052cc"}, {"is_disabled": 0, "is_reserved": 0, "fusion_lat": 0.0, "lat": 38.920124666666666, "fusion_lon": 0.0, "rental_uris": {"ios": "https://dc.lft.to/lastmile_qr_scan", "android": "https://dc.lft.to/lastmile_qr_scan"}, "lon": -77.041735, "bike_id": "2cf2bcea6f5747f8374c02a58d5ec724", "type": "electric_scooter", "name": "2cf2bcea6f5747f8374c02a58d5ec724"}, {"is_disabled": 0, "is_reserved": 0, "fusion_lat": 0.0, "lat": 38.873737, "fusion_lon": 0.0, "rental_uris": {"ios": "https://dc.lft.to/lastmile_qr_scan", "android": "https://dc.lft.to/lastmile_qr_scan"}, "lon": -77.000995, "bike_id": "c7a38406edf9af07f62679b573235b4b", "type": "electric_scooter", "name": "c7a38406edf9af07f62679b573235b4b"}, {"is_disabled": 0, "is_reserved": 0, "fusion_lat": 0.0, "lat": 38.9084895, "fusion_lon": 0.0, "rental_uris": {"ios": "https://dc.lft.to/lastmile_qr_scan", "android": "https://dc.lft.to/lastmile_qr_scan"}, "lon": -77.04592116666667, "bike_id": "0adbe1eca3dd5343505d0fc50c5a4cf9", "type": "electric_scooter", "name": "0adbe1eca3dd5343505d0fc50c5a4cf9"}, {"is_disabled": 0, "is_reserved": 0, "fusion_lat": 0.0, "lat": 38.897313833333335, "fusion_lon": 0.0, "rental_uris": {"ios": "https://dc.lft.to/lastmile_qr_scan", "android": "https://dc.lft.to/lastmile_qr_scan"}, "lon": -77.02129033333334, "bike_id": "cefd476e064f9344e73c4fb0fcc4e231", "type": "electric_scooter", "name": "cefd476e064f9344e73c4fb0fcc4e231"}, {"is_disabled": 0, "is_reserved": 0, "fusion_lat": 0.0, "lat": 38.93225116666667, "fusion_lon": 0.0, "rental_uris": {"ios": "https://dc.lft.to/lastmile_qr_scan", "android": "https://dc.lft.to/lastmile_qr_scan"}, "lon": -76.9971395, "bike_id": "3a37f9cc53ac671ce801da2c3e617a12", "type": "electric_scooter", "name": "3a37f9cc53ac671ce801da2c3e617a12"}, {"is_disabled": 0, "is_reserved": 0, "fusion_lat": 0.0, "lat": 38.928197, "fusion_lon": 0.0, "rental_uris": {"ios": "https://dc.lft.to/lastmile_qr_scan", "android": "https://dc.lft.to/lastmile_qr_scan"}, "lon": -77.05420783333334, "bike_id": "5be23a3a4f730b60df0ef9ace5a40824", "type": "electric_scooter", "name": "5be23a3a4f730b60df0ef9ace5a40824"}, {"is_disabled": 0, "is_reserved": 0, "fusion_lat": 0.0, "lat": 38.91404333333333, "fusion_lon": 0.0, "rental_uris": {"ios": "https://dc.lft.to/lastmile_qr_scan", "android": "https://dc.lft.to/lastmile_qr_scan"}, "lon": -77.03215683333333, "bike_id": "7c3dc07b5901fe7df376ad5e73c7ee30", "type": "electric_scooter", "name": "7c3dc07b5901fe7df376ad5e73c7ee30"}, {"is_disabled": 0, "is_reserved": 0, "fusion_lat": 0.0, "lat": 38.906581833333334, "fusion_lon": 0.0, "rental_uris": {"ios": "https://dc.lft.to/lastmile_qr_scan", "android": "https://dc.lft.to/lastmile_qr_scan"}, "lon": -77.00065116666667, "bike_id": "1d13449420c6e46c6076a9140dc6b081", "type": "electric_scooter", "name": "1d13449420c6e46c6076a9140dc6b081"}, {"is_disabled": 0, "is_reserved": 0, "fusion_lat": 0.0, "lat": 38.97476616666667, "fusion_lon": 0.0, "rental_uris": {"ios": "https://dc.lft.to/lastmile_qr_scan", "android": "https://dc.lft.to/lastmile_qr_scan"}, "lon": -77.01488783333333, "bike_id": "8eb6a6e91e90d552fba58b735e4884ae", "type": "electric_scooter", "name": "8eb6a6e91e90d552fba58b735e4884ae"}, {"is_disabled": 0, "is_reserved": 0, "fusion_lat": 0.0, "lat": 38.894855666666665, "fusion_lon": 0.0, "rental_uris": {"ios": "https://dc.lft.to/lastmile_qr_scan", "android": "https://dc.lft.to/lastmile_qr_scan"}, "lon": -76.97879266666666, "bike_id": "a20a12dd06178b174112e5598d70a421", "type": "electric_scooter", "name": "a20a12dd06178b174112e5598d70a421"}, {"is_disabled": 0, "is_reserved": 0, "fusion_lat": 0.0, "lat": 38.85505116666667, "fusion_lon": 0.0, "rental_uris": {"ios": "https://dc.lft.to/lastmile_qr_scan", "android": "https://dc.lft.to/lastmile_qr_scan"}, "lon": -77.1204775, "bike_id": "ae84c58206b8f467c05d6361d5121600", "type": "electric_bike", "name": "ae84c58206b8f467c05d6361d5121600"}, {"is_disabled": 0, "is_reserved": 0, "fusion_lat": 0.0, "lat": 38.88267666666667, "fusion_lon": 0.0, "rental_uris": {"ios": "https://dc.lft.to/lastmile_qr_scan", "android": "https://dc.lft.to/lastmile_qr_scan"}, "lon": -76.99018233333334, "bike_id": "88c482c262a61a237a8015a1293a96f3", "type": "electric_scooter", "name": "88c482c262a61a237a8015a1293a96f3"}, {"is_disabled": 0, "is_reserved": 0, "fusion_lat": 0.0, "lat": 38.90017733333333, "fusion_lon": 0.0, "rental_uris": {"ios": "https://dc.lft.to/lastmile_qr_scan", "android": "https://dc.lft.to/lastmile_qr_scan"}, "lon": -77.0332485, "bike_id": "80e2cb02aa9596b52e6a2286e7ebe695", "type": "electric_scooter", "name": "80e2cb02aa9596b52e6a2286e7ebe695"}, {"is_disabled": 0, "is_reserved": 0, "fusion_lat": 0.0, "lat": 38.90015016666667, "fusion_lon": 0.0, "rental_uris": {"ios": "https://dc.lft.to/lastmile_qr_scan", "android": "https://dc.lft.to/lastmile_qr_scan"}, "lon": -76.99869766666667, "bike_id": "c46d99cb63a3637413a08c1329890cc4", "type": "electric_scooter", "name": "c46d99cb63a3637413a08c1329890cc4"}, {"is_disabled": 0, "is_reserved": 0, "fusion_lat": 0.0, "lat": 38.9233645, "fusion_lon": 0.0, "rental_uris": {"ios": "https://dc.lft.to/lastmile_qr_scan", "android": "https://dc.lft.to/lastmile_qr_scan"}, "lon": -76.9987765, "bike_id": "0e8b4e3a2871bb543f432f9fb4b6aca6", "type": "electric_scooter", "name": "0e8b4e3a2871bb543f432f9fb4b6aca6"}, {"is_disabled": 0, "is_reserved": 0, "fusion_lat": 0.0, "lat": 38.911157833333334, "fusion_lon": 0.0, "rental_uris": {"ios": "https://dc.lft.to/lastmile_qr_scan", "android": "https://dc.lft.to/lastmile_qr_scan"}, "lon": -77.01169133333333, "bike_id": "a7f005838c23fbab6a4d573a90330870", "type": "electric_scooter", "name": "a7f005838c23fbab6a4d573a90330870"}, {"is_disabled": 0, "is_reserved": 0, "fusion_lat": 0.0, "lat": 38.91853016666666, "fusion_lon": 0.0, "rental_uris": {"ios": "https://dc.lft.to/lastmile_qr_scan", "android": "https://dc.lft.to/lastmile_qr_scan"}, "lon": -77.03221316666666, "bike_id": "2e3ffd640552eba7d27117dcea3047ca", "type": "electric_scooter", "name": "2e3ffd640552eba7d27117dcea3047ca"}, {"is_disabled": 0, "is_reserved": 0, "fusion_lat": 0.0, "lat": 38.923374833333334, "fusion_lon": 0.0, "rental_uris": {"ios": "https://dc.lft.to/lastmile_qr_scan", "android": "https://dc.lft.to/lastmile_qr_scan"}, "lon": -77.0190995, "bike_id": "b51822b58cf54e257b14934c9afda148", "type": "electric_scooter", "name": "b51822b58cf54e257b14934c9afda148"}, {"is_disabled": 0, "is_reserved": 0, "fusion_lat": 0.0, "lat": 38.919791000000004, "fusion_lon": 0.0, "rental_uris": {"ios": "https://dc.lft.to/lastmile_qr_scan", "android": "https://dc.lft.to/lastmile_qr_scan"}, "lon": -77.02517933333333, "bike_id": "1c663c40486e62f0bcf32e06317faa86", "type": "electric_scooter", "name": "1c663c40486e62f0bcf32e06317faa86"}, {"is_disabled": 0, "is_reserved": 0, "fusion_lat": 0.0, "lat": 38.907231333333335, "fusion_lon": 0.0, "rental_uris": {"ios": "https://dc.lft.to/lastmile_qr_scan", "android": "https://dc.lft.to/lastmile_qr_scan"}, "lon": -77.07159533333333, "bike_id": "1fbd3d5738f75c586f517502b22fbabe", "type": "electric_scooter", "name": "1fbd3d5738f75c586f517502b22fbabe"}, {"is_disabled": 0, "is_reserved": 0, "fusion_lat": 0.0, "lat": 38.896059, "fusion_lon": 0.0, "rental_uris": {"ios": "https://dc.lft.to/lastmile_qr_scan", "android": "https://dc.lft.to/lastmile_qr_scan"}, "lon": -76.99814583333334, "bike_id": "a41a19c940b5255f40d1925d9efa6435", "type": "electric_scooter", "name": "a41a19c940b5255f40d1925d9efa6435"}, {"is_disabled": 0, "is_reserved": 0, "fusion_lat": 0.0, "lat": 38.907711, "fusion_lon": 0.0, "rental_uris": {"ios": "https://dc.lft.to/lastmile_qr_scan", "android": "https://dc.lft.to/lastmile_qr_scan"}, "lon": -77.04530916666667, "bike_id": "b8d7f03398a1e2622495d8022a7b0b4e", "type": "electric_scooter", "name": "b8d7f03398a1e2622495d8022a7b0b4e"}, {"is_disabled": 0, "is_reserved": 0, "fusion_lat": 0.0, "lat": 38.90682183333333, "fusion_lon": 0.0, "rental_uris": {"ios": "https://dc.lft.to/lastmile_qr_scan", "android": "https://dc.lft.to/lastmile_qr_scan"}, "lon": -77.02500216666667, "bike_id": "46e123405e9cdb001170ee288c28c816", "type": "electric_scooter", "name": "46e123405e9cdb001170ee288c28c816"}, {"is_disabled": 0, "is_reserved": 0, "fusion_lat": 0.0, "lat": 38.899791, "fusion_lon": 0.0, "rental_uris": {"ios": "https://dc.lft.to/lastmile_qr_scan", "android": "https://dc.lft.to/lastmile_qr_scan"}, "lon": -77.02150233333333, "bike_id": "e31a71b00784086e43c98c55d65d1d08", "type": "electric_scooter", "name": "e31a71b00784086e43c98c55d65d1d08"}, {"is_disabled": 0, "is_reserved": 0, "fusion_lat": 0.0, "lat": 38.92653716666667, "fusion_lon": 0.0, "rental_uris": {"ios": "https://dc.lft.to/lastmile_qr_scan", "android": "https://dc.lft.to/lastmile_qr_scan"}, "lon": -77.02435483333333, "bike_id": "fbb7f1b6ecfb0513b793109d5dc4e26e", "type": "electric_scooter", "name": "fbb7f1b6ecfb0513b793109d5dc4e26e"}, {"is_disabled": 0, "is_reserved": 0, "fusion_lat": 0.0, "lat": 38.901636833333335, "fusion_lon": 0.0, "rental_uris": {"ios": "https://dc.lft.to/lastmile_qr_scan", "android": "https://dc.lft.to/lastmile_qr_scan"}, "lon": -77.05082183333333, "bike_id": "922217fecd35aaadfe875c3977663f9a", "type": "electric_scooter", "name": "922217fecd35aaadfe875c3977663f9a"}, {"is_disabled": 0, "is_reserved": 0, "fusion_lat": 0.0, "lat": 38.947189, "fusion_lon": 0.0, "rental_uris": {"ios": "https://dc.lft.to/lastmile_qr_scan", "android": "https://dc.lft.to/lastmile_qr_scan"}, "lon": -77.02353583333333, "bike_id": "4b178d0af4acfd4ff3302b7742df053e", "type": "electric_scooter", "name": "4b178d0af4acfd4ff3302b7742df053e"}, {"is_disabled": 0, "is_reserved": 0, "fusion_lat": 0.0, "lat": 38.92542, "fusion_lon": 0.0, "rental_uris": {"ios": "https://dc.lft.to/lastmile_qr_scan", "android": "https://dc.lft.to/lastmile_qr_scan"}, "lon": -77.02287066666666, "bike_id": "0520ad57ba19479f866938bace0774eb", "type": "electric_scooter", "name": "0520ad57ba19479f866938bace0774eb"}, {"is_disabled": 0, "is_reserved": 0, "fusion_lat": 0.0, "lat": 38.917780666666665, "fusion_lon": 0.0, "rental_uris": {"ios": "https://dc.lft.to/lastmile_qr_scan", "android": "https://dc.lft.to/lastmile_qr_scan"}, "lon": -77.02474083333334, "bike_id": "9c7143f3f8af50e8f9995653115e7568", "type": "electric_scooter", "name": "9c7143f3f8af50e8f9995653115e7568"}, {"is_disabled": 0, "is_reserved": 0, "fusion_lat": 0.0, "lat": 38.907682, "fusion_lon": 0.0, "rental_uris": {"ios": "https://dc.lft.to/lastmile_qr_scan", "android": "https://dc.lft.to/lastmile_qr_scan"}, "lon": -77.03186866666667, "bike_id": "845c17405aa0c5c54b32930c88bad687", "type": "electric_scooter", "name": "845c17405aa0c5c54b32930c88bad687"}, {"is_disabled": 0, "is_reserved": 0, "fusion_lat": 0.0, "lat": 38.90377516666667, "fusion_lon": 0.0, "rental_uris": {"ios": "https://dc.lft.to/lastmile_qr_scan", "android": "https://dc.lft.to/lastmile_qr_scan"}, "lon": -77.00190266666667, "bike_id": "223bae5bbe32855a8f8bb80f3ed302e4", "type": "electric_scooter", "name": "223bae5bbe32855a8f8bb80f3ed302e4"}, {"is_disabled": 0, "is_reserved": 0, "fusion_lat": 0.0, "lat": 38.91575783333333, "fusion_lon": 0.0, "rental_uris": {"ios": "https://dc.lft.to/lastmile_qr_scan", "android": "https://dc.lft.to/lastmile_qr_scan"}, "lon": -77.06779983333334, "bike_id": "fd80c8d95de7081aec2f4e13532944f1", "type": "electric_scooter", "name": "fd80c8d95de7081aec2f4e13532944f1"}, {"is_disabled": 0, "is_reserved": 0, "fusion_lat": 0.0, "lat": 38.90232, "fusion_lon": 0.0, "rental_uris": {"ios": "https://dc.lft.to/lastmile_qr_scan", "android": "https://dc.lft.to/lastmile_qr_scan"}, "lon": -77.02638216666666, "bike_id": "24425afb69bab558f9672b8955705d1d", "type": "electric_scooter", "name": "24425afb69bab558f9672b8955705d1d"}, {"is_disabled": 0, "is_reserved": 0, "fusion_lat": 0.0, "lat": 38.93462433333333, "fusion_lon": 0.0, "rental_uris": {"ios": "https://dc.lft.to/lastmile_qr_scan", "android": "https://dc.lft.to/lastmile_qr_scan"}, "lon": -77.02789733333333, "bike_id": "8ac84ff89d409d0ac7cbe2b096773626", "type": "electric_scooter", "name": "8ac84ff89d409d0ac7cbe2b096773626"}, {"is_disabled": 0, "is_reserved": 0, "fusion_lat": 0.0, "lat": 38.8837465, "fusion_lon": 0.0, "rental_uris": {"ios": "https://dc.lft.to/lastmile_qr_scan", "android": "https://dc.lft.to/lastmile_qr_scan"}, "lon": -76.923726, "bike_id": "6185f97d8bef8494fe037154718a10d4", "type": "electric_bike", "name": "6185f97d8bef8494fe037154718a10d4"}, {"is_disabled": 0, "is_reserved": 0, "fusion_lat": 0.0, "lat": 38.91931366666667, "fusion_lon": 0.0, "rental_uris": {"ios": "https://dc.lft.to/lastmile_qr_scan", "android": "https://dc.lft.to/lastmile_qr_scan"}, "lon": -77.041521, "bike_id": "993ea008890e0125347ebce195da5da5", "type": "electric_scooter", "name": "993ea008890e0125347ebce195da5da5"}, {"is_disabled": 0, "is_reserved": 0, "fusion_lat": 0.0, "lat": 38.957027833333335, "fusion_lon": 0.0, "rental_uris": {"ios": "https://dc.lft.to/lastmile_qr_scan", "android": "https://dc.lft.to/lastmile_qr_scan"}, "lon": -77.35973433333334, "bike_id": "33646811a058e275f77698ec8d8da961", "type": "electric_bike", "name": "33646811a058e275f77698ec8d8da961"}, {"is_disabled": 0, "is_reserved": 0, "fusion_lat": 0.0, "lat": 38.92183583333333, "fusion_lon": 0.0, "rental_uris": {"ios": "https://dc.lft.to/lastmile_qr_scan", "android": "https://dc.lft.to/lastmile_qr_scan"}, "lon": -77.021025, "bike_id": "708cd5ec1810113b17728d4383319d03", "type": "electric_scooter", "name": "708cd5ec1810113b17728d4383319d03"}, {"is_disabled": 0, "is_reserved": 0, "fusion_lat": 0.0, "lat": 38.90832233333333, "fusion_lon": 0.0, "rental_uris": {"ios": "https://dc.lft.to/lastmile_qr_scan", "android": "https://dc.lft.to/lastmile_qr_scan"}, "lon": -77.00072066666667, "bike_id": "b0ef63ee8ccbee864452560fe7e72a89", "type": "electric_scooter", "name": "b0ef63ee8ccbee864452560fe7e72a89"}, {"is_disabled": 0, "is_reserved": 0, "fusion_lat": 0.0, "lat": 39.08426433333333, "fusion_lon": 0.0, "rental_uris": {"ios": "https://dc.lft.to/lastmile_qr_scan", "android": "https://dc.lft.to/lastmile_qr_scan"}, "lon": -76.95143116666667, "bike_id": "fee11a362f88571424af386072349cc5", "type": "electric_bike", "name": "fee11a362f88571424af386072349cc5"}, {"is_disabled": 0, "is_reserved": 0, "fusion_lat": 0.0, "lat": 38.9148065, "fusion_lon": 0.0, "rental_uris": {"ios": "https://dc.lft.to/lastmile_qr_scan", "android": "https://dc.lft.to/lastmile_qr_scan"}, "lon": -77.03207233333333, "bike_id": "576c073b8fb6e198ebf6d917378896e5", "type": "electric_scooter", "name": "576c073b8fb6e198ebf6d917378896e5"}, {"is_disabled": 0, "is_reserved": 0, "fusion_lat": 0.0, "lat": 38.859006666666666, "fusion_lon": 0.0, "rental_uris": {"ios": "https://dc.lft.to/lastmile_qr_scan", "android": "https://dc.lft.to/lastmile_qr_scan"}, "lon": -77.09552566666666, "bike_id": "323fa51aab9a77a80e9d5f24228df088", "type": "electric_bike", "name": "323fa51aab9a77a80e9d5f24228df088"}, {"is_disabled": 0, "is_reserved": 0, "fusion_lat": 0.0, "lat": 38.883885666666664, "fusion_lon": 0.0, "rental_uris": {"ios": "https://dc.lft.to/lastmile_qr_scan", "android": "https://dc.lft.to/lastmile_qr_scan"}, "lon": -76.93038633333333, "bike_id": "e515513de70d76385352c154a1033bc6", "type": "electric_scooter", "name": "e515513de70d76385352c154a1033bc6"}, {"is_disabled": 0, "is_reserved": 0, "fusion_lat": 0.0, "lat": 38.928615, "fusion_lon": 0.0, "rental_uris": {"ios": "https://dc.lft.to/lastmile_qr_scan", "android": "https://dc.lft.to/lastmile_qr_scan"}, "lon": -77.03832333333334, "bike_id": "fd6bf484a40b4776e9ecf86a75802ddb", "type": "electric_scooter", "name": "fd6bf484a40b4776e9ecf86a75802ddb"}, {"is_disabled": 0, "is_reserved": 0, "fusion_lat": 0.0, "lat": 38.892516666666666, "fusion_lon": 0.0, "rental_uris": {"ios": "https://dc.lft.to/lastmile_qr_scan", "android": "https://dc.lft.to/lastmile_qr_scan"}, "lon": -77.05025666666667, "bike_id": "df780663e60da09de9e941fc5e3086ac", "type": "electric_scooter", "name": "df780663e60da09de9e941fc5e3086ac"}, {"is_disabled": 0, "is_reserved": 0, "fusion_lat": 0.0, "lat": 38.902467666666666, "fusion_lon": 0.0, "rental_uris": {"ios": "https://dc.lft.to/lastmile_qr_scan", "android": "https://dc.lft.to/lastmile_qr_scan"}, "lon": -76.97697333333333, "bike_id": "d9287328f53ffe6d8e965bcc4bd4104e", "type": "electric_scooter", "name": "d9287328f53ffe6d8e965bcc4bd4104e"}, {"is_disabled": 0, "is_reserved": 0, "fusion_lat": 0.0, "lat": 38.920126833333335, "fusion_lon": 0.0, "rental_uris": {"ios": "https://dc.lft.to/lastmile_qr_scan", "android": "https://dc.lft.to/lastmile_qr_scan"}, "lon": -77.02184883333334, "bike_id": "579f39072d494c951c6c5491d9d72614", "type": "electric_scooter", "name": "579f39072d494c951c6c5491d9d72614"}, {"is_disabled": 0, "is_reserved": 0, "fusion_lat": 0.0, "lat": 38.8901075, "fusion_lon": 0.0, "rental_uris": {"ios": "https://dc.lft.to/lastmile_qr_scan", "android": "https://dc.lft.to/lastmile_qr_scan"}, "lon": -76.93740966666667, "bike_id": "4308e2000eb0c427b4a2123abdc61693", "type": "electric_scooter", "name": "4308e2000eb0c427b4a2123abdc61693"}, {"is_disabled": 0, "is_reserved": 0, "fusion_lat": 0.0, "lat": 38.91862283333333, "fusion_lon": 0.0, "rental_uris": {"ios": "https://dc.lft.to/lastmile_qr_scan", "android": "https://dc.lft.to/lastmile_qr_scan"}, "lon": -76.9608595, "bike_id": "ad8b3fb9e0e732aa49be6940f38033e7", "type": "electric_scooter", "name": "ad8b3fb9e0e732aa49be6940f38033e7"}, {"is_disabled": 0, "is_reserved": 0, "fusion_lat": 0.0, "lat": 38.894115166666666, "fusion_lon": 0.0, "rental_uris": {"ios": "https://dc.lft.to/lastmile_qr_scan", "android": "https://dc.lft.to/lastmile_qr_scan"}, "lon": -77.03378233333333, "bike_id": "1d6c5ce6621161e15178fcf4db7b53fb", "type": "electric_scooter", "name": "1d6c5ce6621161e15178fcf4db7b53fb"}, {"is_disabled": 0, "is_reserved": 0, "fusion_lat": 0.0, "lat": 38.91913733333333, "fusion_lon": 0.0, "rental_uris": {"ios": "https://dc.lft.to/lastmile_qr_scan", "android": "https://dc.lft.to/lastmile_qr_scan"}, "lon": -77.0321255, "bike_id": "b25d26075b0d027fa4239a4019eb22c5", "type": "electric_scooter", "name": "b25d26075b0d027fa4239a4019eb22c5"}, {"is_disabled": 0, "is_reserved": 0, "fusion_lat": 0.0, "lat": 38.8997515, "fusion_lon": 0.0, "rental_uris": {"ios": "https://dc.lft.to/lastmile_qr_scan", "android": "https://dc.lft.to/lastmile_qr_scan"}, "lon": -77.02696233333333, "bike_id": "1f041c5e1bf7c93adf7bdec7a460313b", "type": "electric_scooter", "name": "1f041c5e1bf7c93adf7bdec7a460313b"}, {"is_disabled": 0, "is_reserved": 0, "fusion_lat": 0.0, "lat": 38.909616666666665, "fusion_lon": 0.0, "rental_uris": {"ios": "https://dc.lft.to/lastmile_qr_scan", "android": "https://dc.lft.to/lastmile_qr_scan"}, "lon": -77.04835783333333, "bike_id": "60766edb7c09b83e30295a163168ac0a", "type": "electric_scooter", "name": "60766edb7c09b83e30295a163168ac0a"}, {"is_disabled": 0, "is_reserved": 0, "fusion_lat": 0.0, "lat": 38.88619216666667, "fusion_lon": 0.0, "rental_uris": {"ios": "https://dc.lft.to/lastmile_qr_scan", "android": "https://dc.lft.to/lastmile_qr_scan"}, "lon": -76.92638816666667, "bike_id": "ae2c0e7cc0d42462070ab8f0e5f0acc7", "type": "electric_scooter", "name": "ae2c0e7cc0d42462070ab8f0e5f0acc7"}, {"is_disabled": 0, "is_reserved": 0, "fusion_lat": 0.0, "lat": 38.926639333333334, "fusion_lon": 0.0, "rental_uris": {"ios": "https://dc.lft.to/lastmile_qr_scan", "android": "https://dc.lft.to/lastmile_qr_scan"}, "lon": -76.9955295, "bike_id": "3e0f9082bd4bfe23a041bdc69cce790f", "type": "electric_scooter", "name": "3e0f9082bd4bfe23a041bdc69cce790f"}, {"is_disabled": 0, "is_reserved": 0, "fusion_lat": 0.0, "lat": 38.914085666666665, "fusion_lon": 0.0, "rental_uris": {"ios": "https://dc.lft.to/lastmile_qr_scan", "android": "https://dc.lft.to/lastmile_qr_scan"}, "lon": -77.05213933333333, "bike_id": "1f96210f16b0abef246862f20dc68b18", "type": "electric_scooter", "name": "1f96210f16b0abef246862f20dc68b18"}, {"is_disabled": 0, "is_reserved": 0, "fusion_lat": 0.0, "lat": 38.9433175, "fusion_lon": 0.0, "rental_uris": {"ios": "https://dc.lft.to/lastmile_qr_scan", "android": "https://dc.lft.to/lastmile_qr_scan"}, "lon": -77.02690016666666, "bike_id": "8c0e363838bccc149e0160cb58b251b8", "type": "electric_scooter", "name": "8c0e363838bccc149e0160cb58b251b8"}, {"is_disabled": 0, "is_reserved": 0, "fusion_lat": 0.0, "lat": 39.026467833333335, "fusion_lon": 0.0, "rental_uris": {"ios": "https://dc.lft.to/lastmile_qr_scan", "android": "https://dc.lft.to/lastmile_qr_scan"}, "lon": -77.036853, "bike_id": "be7f1115a649b3c40a6e6c502b196829", "type": "electric_bike", "name": "be7f1115a649b3c40a6e6c502b196829"}, {"is_disabled": 0, "is_reserved": 0, "fusion_lat": 0.0, "lat": 38.90513266666667, "fusion_lon": 0.0, "rental_uris": {"ios": "https://dc.lft.to/lastmile_qr_scan", "android": "https://dc.lft.to/lastmile_qr_scan"}, "lon": -76.95204, "bike_id": "88d0a0abcf1d5ade93dc55fe428fd870", "type": "electric_scooter", "name": "88d0a0abcf1d5ade93dc55fe428fd870"}, {"is_disabled": 0, "is_reserved": 0, "fusion_lat": 0.0, "lat": 38.927274, "fusion_lon": 0.0, "rental_uris": {"ios": "https://dc.lft.to/lastmile_qr_scan", "android": "https://dc.lft.to/lastmile_qr_scan"}, "lon": -77.03669166666667, "bike_id": "4da8a921f50ce239cad504494e1fc7fa", "type": "electric_scooter", "name": "4da8a921f50ce239cad504494e1fc7fa"}, {"is_disabled": 0, "is_reserved": 0, "fusion_lat": 0.0, "lat": 38.930589, "fusion_lon": 0.0, "rental_uris": {"ios": "https://dc.lft.to/lastmile_qr_scan", "android": "https://dc.lft.to/lastmile_qr_scan"}, "lon": -77.02320566666667, "bike_id": "8f07f82d771fa1f9823c8b22d7c736a4", "type": "electric_scooter", "name": "8f07f82d771fa1f9823c8b22d7c736a4"}, {"is_disabled": 0, "is_reserved": 0, "fusion_lat": 0.0, "lat": 38.88737483333333, "fusion_lon": 0.0, "rental_uris": {"ios": "https://dc.lft.to/lastmile_qr_scan", "android": "https://dc.lft.to/lastmile_qr_scan"}, "lon": -77.02204166666667, "bike_id": "755400e2cfaa09729553f333d30544ae", "type": "electric_scooter", "name": "755400e2cfaa09729553f333d30544ae"}, {"is_disabled": 0, "is_reserved": 0, "fusion_lat": 0.0, "lat": 38.923602333333335, "fusion_lon": 0.0, "rental_uris": {"ios": "https://dc.lft.to/lastmile_qr_scan", "android": "https://dc.lft.to/lastmile_qr_scan"}, "lon": -77.02137116666667, "bike_id": "64538bccfe740ecdf1a20706f081b26f", "type": "electric_scooter", "name": "64538bccfe740ecdf1a20706f081b26f"}, {"is_disabled": 0, "is_reserved": 0, "fusion_lat": 0.0, "lat": 38.92196766666667, "fusion_lon": 0.0, "rental_uris": {"ios": "https://dc.lft.to/lastmile_qr_scan", "android": "https://dc.lft.to/lastmile_qr_scan"}, "lon": -77.020455, "bike_id": "c5bcb0df6e88b39be25d7863b1e32e89", "type": "electric_scooter", "name": "c5bcb0df6e88b39be25d7863b1e32e89"}, {"is_disabled": 0, "is_reserved": 0, "fusion_lat": 0.0, "lat": 38.897505, "fusion_lon": 0.0, "rental_uris": {"ios": "https://dc.lft.to/lastmile_qr_scan", "android": "https://dc.lft.to/lastmile_qr_scan"}, "lon": -77.054856, "bike_id": "5b01ad28152b226237f9080896d82459", "type": "electric_scooter", "name": "5b01ad28152b226237f9080896d82459"}, {"is_disabled": 0, "is_reserved": 0, "fusion_lat": 0.0, "lat": 38.89685266666667, "fusion_lon": 0.0, "rental_uris": {"ios": "https://dc.lft.to/lastmile_qr_scan", "android": "https://dc.lft.to/lastmile_qr_scan"}, "lon": -76.93902883333334, "bike_id": "09953b50798b967bebe5c29b2ff3e24c", "type": "electric_scooter", "name": "09953b50798b967bebe5c29b2ff3e24c"}, {"is_disabled": 0, "is_reserved": 0, "fusion_lat": 0.0, "lat": 38.859354333333336, "fusion_lon": 0.0, "rental_uris": {"ios": "https://dc.lft.to/lastmile_qr_scan", "android": "https://dc.lft.to/lastmile_qr_scan"}, "lon": -76.98679833333334, "bike_id": "b85bbae606dbed9befd5b2584262ef38", "type": "electric_scooter", "name": "b85bbae606dbed9befd5b2584262ef38"}, {"is_disabled": 0, "is_reserved": 0, "fusion_lat": 0.0, "lat": 38.909336333333336, "fusion_lon": 0.0, "rental_uris": {"ios": "https://dc.lft.to/lastmile_qr_scan", "android": "https://dc.lft.to/lastmile_qr_scan"}, "lon": -77.01841616666667, "bike_id": "1f488a9409806bd4ba8b93e0318c2fc6", "type": "electric_scooter", "name": "1f488a9409806bd4ba8b93e0318c2fc6"}, {"is_disabled": 0, "is_reserved": 0, "fusion_lat": 0.0, "lat": 38.90525916666667, "fusion_lon": 0.0, "rental_uris": {"ios": "https://dc.lft.to/lastmile_qr_scan", "android": "https://dc.lft.to/lastmile_qr_scan"}, "lon": -77.062009, "bike_id": "5e28a1d3cfe558e592ccbc5ec813923f", "type": "electric_scooter", "name": "5e28a1d3cfe558e592ccbc5ec813923f"}, {"is_disabled": 0, "is_reserved": 0, "fusion_lat": 0.0, "lat": 38.913369, "fusion_lon": 0.0, "rental_uris": {"ios": "https://dc.lft.to/lastmile_qr_scan", "android": "https://dc.lft.to/lastmile_qr_scan"}, "lon": -77.04575266666667, "bike_id": "a65c5bab97b9b883269ef0bcd6b9313a", "type": "electric_scooter", "name": "a65c5bab97b9b883269ef0bcd6b9313a"}, {"is_disabled": 0, "is_reserved": 0, "fusion_lat": 0.0, "lat": 38.93041983333333, "fusion_lon": 0.0, "rental_uris": {"ios": "https://dc.lft.to/lastmile_qr_scan", "android": "https://dc.lft.to/lastmile_qr_scan"}, "lon": -77.036107, "bike_id": "58dffa4e82f48191f47d85070468ab5a", "type": "electric_scooter", "name": "58dffa4e82f48191f47d85070468ab5a"}, {"is_disabled": 0, "is_reserved": 0, "fusion_lat": 0.0, "lat": 38.953254333333334, "fusion_lon": 0.0, "rental_uris": {"ios": "https://dc.lft.to/lastmile_qr_scan", "android": "https://dc.lft.to/lastmile_qr_scan"}, "lon": -76.98252433333333, "bike_id": "0682f9c2b4c8bb4bf3f5e7ca771237ea", "type": "electric_bike", "name": "0682f9c2b4c8bb4bf3f5e7ca771237ea"}, {"is_disabled": 0, "is_reserved": 0, "fusion_lat": 0.0, "lat": 38.918013, "fusion_lon": 0.0, "rental_uris": {"ios": "https://dc.lft.to/lastmile_qr_scan", "android": "https://dc.lft.to/lastmile_qr_scan"}, "lon": -77.03432316666667, "bike_id": "d306bb092d7da5af90e2ed8a86b97074", "type": "electric_scooter", "name": "d306bb092d7da5af90e2ed8a86b97074"}, {"is_disabled": 0, "is_reserved": 0, "fusion_lat": 0.0, "lat": 38.88763433333333, "fusion_lon": 0.0, "rental_uris": {"ios": "https://dc.lft.to/lastmile_qr_scan", "android": "https://dc.lft.to/lastmile_qr_scan"}, "lon": -77.01460333333333, "bike_id": "71ad9711d07358d61702f4ddf61f5942", "type": "electric_scooter", "name": "71ad9711d07358d61702f4ddf61f5942"}, {"is_disabled": 0, "is_reserved": 0, "fusion_lat": 0.0, "lat": 38.910808, "fusion_lon": 0.0, "rental_uris": {"ios": "https://dc.lft.to/lastmile_qr_scan", "android": "https://dc.lft.to/lastmile_qr_scan"}, "lon": -77.06549766666667, "bike_id": "4fd6038cea9c9c204a465bdbc59c5e67", "type": "electric_scooter", "name": "4fd6038cea9c9c204a465bdbc59c5e67"}, {"is_disabled": 0, "is_reserved": 0, "fusion_lat": 0.0, "lat": 38.87925716666667, "fusion_lon": 0.0, "rental_uris": {"ios": "https://dc.lft.to/lastmile_qr_scan", "android": "https://dc.lft.to/lastmile_qr_scan"}, "lon": -77.0237925, "bike_id": "29d20bc732d0244d6e21b5acfb764349", "type": "electric_scooter", "name": "29d20bc732d0244d6e21b5acfb764349"}, {"is_disabled": 0, "is_reserved": 0, "fusion_lat": 0.0, "lat": 38.936096666666664, "fusion_lon": 0.0, "rental_uris": {"ios": "https://dc.lft.to/lastmile_qr_scan", "android": "https://dc.lft.to/lastmile_qr_scan"}, "lon": -76.9499815, "bike_id": "6ff8f0a18b8466a1f1c30fa658cd01cd", "type": "electric_bike", "name": "6ff8f0a18b8466a1f1c30fa658cd01cd"}, {"is_disabled": 0, "is_reserved": 0, "fusion_lat": 0.0, "lat": 38.97828233333333, "fusion_lon": 0.0, "rental_uris": {"ios": "https://dc.lft.to/lastmile_qr_scan", "android": "https://dc.lft.to/lastmile_qr_scan"}, "lon": -76.9289965, "bike_id": "58485e1087c315dc9009faf9b49adc78", "type": "electric_bike", "name": "58485e1087c315dc9009faf9b49adc78"}, {"is_disabled": 0, "is_reserved": 0, "fusion_lat": 0.0, "lat": 38.898296333333334, "fusion_lon": 0.0, "rental_uris": {"ios": "https://dc.lft.to/lastmile_qr_scan", "android": "https://dc.lft.to/lastmile_qr_scan"}, "lon": -77.02935183333334, "bike_id": "77b585f16b1b94302c51208e437d9345", "type": "electric_scooter", "name": "77b585f16b1b94302c51208e437d9345"}, {"is_disabled": 0, "is_reserved": 0, "fusion_lat": 0.0, "lat": 38.92787116666667, "fusion_lon": 0.0, "rental_uris": {"ios": "https://dc.lft.to/lastmile_qr_scan", "android": "https://dc.lft.to/lastmile_qr_scan"}, "lon": -77.05593033333334, "bike_id": "a96799e54d7d912f9b1451d9e6212e39", "type": "electric_scooter", "name": "a96799e54d7d912f9b1451d9e6212e39"}, {"is_disabled": 0, "is_reserved": 0, "fusion_lat": 0.0, "lat": 38.92058183333333, "fusion_lon": 0.0, "rental_uris": {"ios": "https://dc.lft.to/lastmile_qr_scan", "android": "https://dc.lft.to/lastmile_qr_scan"}, "lon": -77.04360116666666, "bike_id": "92989083573d67c0d353fbac7784eaea", "type": "electric_scooter", "name": "92989083573d67c0d353fbac7784eaea"}, {"is_disabled": 0, "is_reserved": 0, "fusion_lat": 0.0, "lat": 38.87784383333333, "fusion_lon": 0.0, "rental_uris": {"ios": "https://dc.lft.to/lastmile_qr_scan", "android": "https://dc.lft.to/lastmile_qr_scan"}, "lon": -77.00118, "bike_id": "493b6ea8b69dc4d544f629fdc912c918", "type": "electric_scooter", "name": "493b6ea8b69dc4d544f629fdc912c918"}, {"is_disabled": 0, "is_reserved": 0, "fusion_lat": 0.0, "lat": 38.919659333333335, "fusion_lon": 0.0, "rental_uris": {"ios": "https://dc.lft.to/lastmile_qr_scan", "android": "https://dc.lft.to/lastmile_qr_scan"}, "lon": -77.03229633333333, "bike_id": "aa1818798e631e8c78a3ad66acfa60a8", "type": "electric_scooter", "name": "aa1818798e631e8c78a3ad66acfa60a8"}, {"is_disabled": 0, "is_reserved": 0, "fusion_lat": 0.0, "lat": 38.909754, "fusion_lon": 0.0, "rental_uris": {"ios": "https://dc.lft.to/lastmile_qr_scan", "android": "https://dc.lft.to/lastmile_qr_scan"}, "lon": -77.03375683333333, "bike_id": "55b5f224ee1e2327fa6de03156a27260", "type": "electric_scooter", "name": "55b5f224ee1e2327fa6de03156a27260"}, {"is_disabled": 0, "is_reserved": 0, "fusion_lat": 0.0, "lat": 38.928753, "fusion_lon": 0.0, "rental_uris": {"ios": "https://dc.lft.to/lastmile_qr_scan", "android": "https://dc.lft.to/lastmile_qr_scan"}, "lon": -77.05655366666667, "bike_id": "a0cd50dfb94d95116932e10906560713", "type": "electric_scooter", "name": "a0cd50dfb94d95116932e10906560713"}, {"is_disabled": 0, "is_reserved": 0, "fusion_lat": 0.0, "lat": 38.880386, "fusion_lon": 0.0, "rental_uris": {"ios": "https://dc.lft.to/lastmile_qr_scan", "android": "https://dc.lft.to/lastmile_qr_scan"}, "lon": -76.92722883333333, "bike_id": "ae6886da5a4f370d0d9076bed83b00fc", "type": "electric_scooter", "name": "ae6886da5a4f370d0d9076bed83b00fc"}, {"is_disabled": 0, "is_reserved": 0, "fusion_lat": 0.0, "lat": 38.89923983333333, "fusion_lon": 0.0, "rental_uris": {"ios": "https://dc.lft.to/lastmile_qr_scan", "android": "https://dc.lft.to/lastmile_qr_scan"}, "lon": -76.93367216666667, "bike_id": "0478bf9eea00370a8b0b8a4c3f3de75c", "type": "electric_scooter", "name": "0478bf9eea00370a8b0b8a4c3f3de75c"}, {"is_disabled": 0, "is_reserved": 0, "fusion_lat": 0.0, "lat": 38.89499933333333, "fusion_lon": 0.0, "rental_uris": {"ios": "https://dc.lft.to/lastmile_qr_scan", "android": "https://dc.lft.to/lastmile_qr_scan"}, "lon": -77.02195683333333, "bike_id": "dd18b6215c032338be8038b491c38f36", "type": "electric_scooter", "name": "dd18b6215c032338be8038b491c38f36"}, {"is_disabled": 0, "is_reserved": 0, "fusion_lat": 0.0, "lat": 38.90038216666667, "fusion_lon": 0.0, "rental_uris": {"ios": "https://dc.lft.to/lastmile_qr_scan", "android": "https://dc.lft.to/lastmile_qr_scan"}, "lon": -77.033205, "bike_id": "f722e3bbe34a69dc150d03a035f576a0", "type": "electric_scooter", "name": "f722e3bbe34a69dc150d03a035f576a0"}, {"is_disabled": 0, "is_reserved": 0, "fusion_lat": 0.0, "lat": 38.92258316666667, "fusion_lon": 0.0, "rental_uris": {"ios": "https://dc.lft.to/lastmile_qr_scan", "android": "https://dc.lft.to/lastmile_qr_scan"}, "lon": -77.07276116666667, "bike_id": "7e3c9b355708b3086503415df88419e2", "type": "electric_scooter", "name": "7e3c9b355708b3086503415df88419e2"}, {"is_disabled": 0, "is_reserved": 0, "fusion_lat": 0.0, "lat": 38.91504916666667, "fusion_lon": 0.0, "rental_uris": {"ios": "https://dc.lft.to/lastmile_qr_scan", "android": "https://dc.lft.to/lastmile_qr_scan"}, "lon": -77.02591866666667, "bike_id": "4d8abab286d95ff51331f5412278d20d", "type": "electric_scooter", "name": "4d8abab286d95ff51331f5412278d20d"}, {"is_disabled": 0, "is_reserved": 0, "fusion_lat": 0.0, "lat": 38.892284833333335, "fusion_lon": 0.0, "rental_uris": {"ios": "https://dc.lft.to/lastmile_qr_scan", "android": "https://dc.lft.to/lastmile_qr_scan"}, "lon": -77.03167783333333, "bike_id": "fca1266dcbe5bbfe55ceec2e8c3dcf8a", "type": "electric_scooter", "name": "fca1266dcbe5bbfe55ceec2e8c3dcf8a"}, {"is_disabled": 0, "is_reserved": 0, "fusion_lat": 0.0, "lat": 38.92759733333333, "fusion_lon": 0.0, "rental_uris": {"ios": "https://dc.lft.to/lastmile_qr_scan", "android": "https://dc.lft.to/lastmile_qr_scan"}, "lon": -77.02949216666667, "bike_id": "ca4a5229b324fde79db7e489131ec303", "type": "electric_scooter", "name": "ca4a5229b324fde79db7e489131ec303"}, {"is_disabled": 0, "is_reserved": 0, "fusion_lat": 0.0, "lat": 38.91053633333333, "fusion_lon": 0.0, "rental_uris": {"ios": "https://dc.lft.to/lastmile_qr_scan", "android": "https://dc.lft.to/lastmile_qr_scan"}, "lon": -77.04107, "bike_id": "ccb6a1132a3a53efca8ff6b31378fe24", "type": "electric_scooter", "name": "ccb6a1132a3a53efca8ff6b31378fe24"}, {"is_disabled": 0, "is_reserved": 0, "fusion_lat": 0.0, "lat": 38.923553166666665, "fusion_lon": 0.0, "rental_uris": {"ios": "https://dc.lft.to/lastmile_qr_scan", "android": "https://dc.lft.to/lastmile_qr_scan"}, "lon": -77.04328316666667, "bike_id": "42f28eee1578790133d671d4b7dfb91a", "type": "electric_scooter", "name": "42f28eee1578790133d671d4b7dfb91a"}, {"is_disabled": 0, "is_reserved": 0, "fusion_lat": 0.0, "lat": 38.8292375, "fusion_lon": 0.0, "rental_uris": {"ios": "https://dc.lft.to/lastmile_qr_scan", "android": "https://dc.lft.to/lastmile_qr_scan"}, "lon": -77.06876166666666, "bike_id": "d5326f70da12dca88439588800ffffa2", "type": "electric_bike", "name": "d5326f70da12dca88439588800ffffa2"}, {"is_disabled": 0, "is_reserved": 0, "fusion_lat": 0.0, "lat": 38.92075533333333, "fusion_lon": 0.0, "rental_uris": {"ios": "https://dc.lft.to/lastmile_qr_scan", "android": "https://dc.lft.to/lastmile_qr_scan"}, "lon": -77.004565, "bike_id": "2be4afbfc6815f879f84cc41f1c080a8", "type": "electric_scooter", "name": "2be4afbfc6815f879f84cc41f1c080a8"}, {"is_disabled": 0, "is_reserved": 0, "fusion_lat": 0.0, "lat": 38.93200066666667, "fusion_lon": 0.0, "rental_uris": {"ios": "https://dc.lft.to/lastmile_qr_scan", "android": "https://dc.lft.to/lastmile_qr_scan"}, "lon": -77.02332016666666, "bike_id": "997345ce6c01d3dc30a6666fc534e55b", "type": "electric_scooter", "name": "997345ce6c01d3dc30a6666fc534e55b"}, {"is_disabled": 0, "is_reserved": 0, "fusion_lat": 0.0, "lat": 38.8629775, "fusion_lon": 0.0, "rental_uris": {"ios": "https://dc.lft.to/lastmile_qr_scan", "android": "https://dc.lft.to/lastmile_qr_scan"}, "lon": -77.06223983333334, "bike_id": "7e84a411f78ccebdc69b601f2adf9d41", "type": "electric_bike", "name": "7e84a411f78ccebdc69b601f2adf9d41"}, {"is_disabled": 0, "is_reserved": 0, "fusion_lat": 0.0, "lat": 38.91705483333333, "fusion_lon": 0.0, "rental_uris": {"ios": "https://dc.lft.to/lastmile_qr_scan", "android": "https://dc.lft.to/lastmile_qr_scan"}, "lon": -77.027272, "bike_id": "562ace5078005f1477637b48ecc4fc29", "type": "electric_scooter", "name": "562ace5078005f1477637b48ecc4fc29"}, {"is_disabled": 0, "is_reserved": 0, "fusion_lat": 0.0, "lat": 38.89195083333333, "fusion_lon": 0.0, "rental_uris": {"ios": "https://dc.lft.to/lastmile_qr_scan", "android": "https://dc.lft.to/lastmile_qr_scan"}, "lon": -77.04390716666667, "bike_id": "ee2b7af0cbb01cab13c51ee772830576", "type": "electric_scooter", "name": "ee2b7af0cbb01cab13c51ee772830576"}, {"is_disabled": 0, "is_reserved": 0, "fusion_lat": 0.0, "lat": 38.900473, "fusion_lon": 0.0, "rental_uris": {"ios": "https://dc.lft.to/lastmile_qr_scan", "android": "https://dc.lft.to/lastmile_qr_scan"}, "lon": -77.03313016666667, "bike_id": "575a1603c493bb9093228b725452de5b", "type": "electric_scooter", "name": "575a1603c493bb9093228b725452de5b"}, {"is_disabled": 0, "is_reserved": 0, "fusion_lat": 0.0, "lat": 38.93459, "fusion_lon": 0.0, "rental_uris": {"ios": "https://dc.lft.to/lastmile_qr_scan", "android": "https://dc.lft.to/lastmile_qr_scan"}, "lon": -77.02407866666667, "bike_id": "34fc62c85e784d9ad36740cdb524ffb2", "type": "electric_scooter", "name": "34fc62c85e784d9ad36740cdb524ffb2"}, {"is_disabled": 0, "is_reserved": 0, "fusion_lat": 0.0, "lat": 38.9530535, "fusion_lon": 0.0, "rental_uris": {"ios": "https://dc.lft.to/lastmile_qr_scan", "android": "https://dc.lft.to/lastmile_qr_scan"}, "lon": -77.02021716666667, "bike_id": "90e9da2eb2281cdf531ad3984b42918f", "type": "electric_scooter", "name": "90e9da2eb2281cdf531ad3984b42918f"}, {"is_disabled": 0, "is_reserved": 0, "fusion_lat": 0.0, "lat": 38.93189983333333, "fusion_lon": 0.0, "rental_uris": {"ios": "https://dc.lft.to/lastmile_qr_scan", "android": "https://dc.lft.to/lastmile_qr_scan"}, "lon": -77.02452466666666, "bike_id": "bcc1a4b8efdf27136f55e0c4e3ccd02d", "type": "electric_scooter", "name": "bcc1a4b8efdf27136f55e0c4e3ccd02d"}, {"is_disabled": 0, "is_reserved": 0, "fusion_lat": 0.0, "lat": 38.91749766666667, "fusion_lon": 0.0, "rental_uris": {"ios": "https://dc.lft.to/lastmile_qr_scan", "android": "https://dc.lft.to/lastmile_qr_scan"}, "lon": -77.02389083333334, "bike_id": "814561430b1325c3437fb40fd552f816", "type": "electric_scooter", "name": "814561430b1325c3437fb40fd552f816"}, {"is_disabled": 0, "is_reserved": 0, "fusion_lat": 0.0, "lat": 38.892485, "fusion_lon": 0.0, "rental_uris": {"ios": "https://dc.lft.to/lastmile_qr_scan", "android": "https://dc.lft.to/lastmile_qr_scan"}, "lon": -77.04661266666666, "bike_id": "490e47972b10636b84feca23756636c7", "type": "electric_scooter", "name": "490e47972b10636b84feca23756636c7"}, {"is_disabled": 0, "is_reserved": 0, "fusion_lat": 0.0, "lat": 38.933724, "fusion_lon": 0.0, "rental_uris": {"ios": "https://dc.lft.to/lastmile_qr_scan", "android": "https://dc.lft.to/lastmile_qr_scan"}, "lon": -77.02408183333333, "bike_id": "dd0d286bfe95085c1d6076d13d7a17c4", "type": "electric_scooter", "name": "dd0d286bfe95085c1d6076d13d7a17c4"}, {"is_disabled": 0, "is_reserved": 0, "fusion_lat": 0.0, "lat": 38.912655, "fusion_lon": 0.0, "rental_uris": {"ios": "https://dc.lft.to/lastmile_qr_scan", "android": "https://dc.lft.to/lastmile_qr_scan"}, "lon": -77.0448115, "bike_id": "a1021ab76b7aae0b2c8f7e7f8ee6584b", "type": "electric_scooter", "name": "a1021ab76b7aae0b2c8f7e7f8ee6584b"}, {"is_disabled": 0, "is_reserved": 0, "fusion_lat": 0.0, "lat": 38.929852, "fusion_lon": 0.0, "rental_uris": {"ios": "https://dc.lft.to/lastmile_qr_scan", "android": "https://dc.lft.to/lastmile_qr_scan"}, "lon": -77.03472983333333, "bike_id": "be40c83919e58e5b4e976ff478cd97cf", "type": "electric_scooter", "name": "be40c83919e58e5b4e976ff478cd97cf"}, {"is_disabled": 0, "is_reserved": 0, "fusion_lat": 0.0, "lat": 38.91300283333333, "fusion_lon": 0.0, "rental_uris": {"ios": "https://dc.lft.to/lastmile_qr_scan", "android": "https://dc.lft.to/lastmile_qr_scan"}, "lon": -77.01451683333333, "bike_id": "6c7e81c939b8e1238b94ef13fa31e721", "type": "electric_scooter", "name": "6c7e81c939b8e1238b94ef13fa31e721"}, {"is_disabled": 0, "is_reserved": 0, "fusion_lat": 0.0, "lat": 38.917960666666666, "fusion_lon": 0.0, "rental_uris": {"ios": "https://dc.lft.to/lastmile_qr_scan", "android": "https://dc.lft.to/lastmile_qr_scan"}, "lon": -77.02711716666667, "bike_id": "b6dd33c13a6b833c515955020f2af071", "type": "electric_scooter", "name": "b6dd33c13a6b833c515955020f2af071"}, {"is_disabled": 0, "is_reserved": 0, "fusion_lat": 0.0, "lat": 38.91391016666667, "fusion_lon": 0.0, "rental_uris": {"ios": "https://dc.lft.to/lastmile_qr_scan", "android": "https://dc.lft.to/lastmile_qr_scan"}, "lon": -77.04588866666667, "bike_id": "e15ed9fd43e2dc678d0fb6dabcea1986", "type": "electric_scooter", "name": "e15ed9fd43e2dc678d0fb6dabcea1986"}, {"is_disabled": 0, "is_reserved": 0, "fusion_lat": 0.0, "lat": 38.91614, "fusion_lon": 0.0, "rental_uris": {"ios": "https://dc.lft.to/lastmile_qr_scan", "android": "https://dc.lft.to/lastmile_qr_scan"}, "lon": -77.02095016666667, "bike_id": "c680d84344640d28382f837328adf932", "type": "electric_scooter", "name": "c680d84344640d28382f837328adf932"}, {"is_disabled": 0, "is_reserved": 0, "fusion_lat": 0.0, "lat": 38.92702833333333, "fusion_lon": 0.0, "rental_uris": {"ios": "https://dc.lft.to/lastmile_qr_scan", "android": "https://dc.lft.to/lastmile_qr_scan"}, "lon": -76.960785, "bike_id": "c61e905e863100e33c57e2bcd3a97e46", "type": "electric_scooter", "name": "c61e905e863100e33c57e2bcd3a97e46"}, {"is_disabled": 0, "is_reserved": 0, "fusion_lat": 0.0, "lat": 38.92128666666667, "fusion_lon": 0.0, "rental_uris": {"ios": "https://dc.lft.to/lastmile_qr_scan", "android": "https://dc.lft.to/lastmile_qr_scan"}, "lon": -77.01794133333334, "bike_id": "fe631a8d4c16b7f84c12eef8eec41bf7", "type": "electric_scooter", "name": "fe631a8d4c16b7f84c12eef8eec41bf7"}, {"is_disabled": 0, "is_reserved": 0, "fusion_lat": 0.0, "lat": 38.911994166666666, "fusion_lon": 0.0, "rental_uris": {"ios": "https://dc.lft.to/lastmile_qr_scan", "android": "https://dc.lft.to/lastmile_qr_scan"}, "lon": -77.00471033333334, "bike_id": "6e7be2cd8f5e8b1a409365e37476790a", "type": "electric_scooter", "name": "6e7be2cd8f5e8b1a409365e37476790a"}, {"is_disabled": 0, "is_reserved": 0, "fusion_lat": 0.0, "lat": 38.87525883333333, "fusion_lon": 0.0, "rental_uris": {"ios": "https://dc.lft.to/lastmile_qr_scan", "android": "https://dc.lft.to/lastmile_qr_scan"}, "lon": -77.01228283333333, "bike_id": "e844e426afa58c95886fa78730a84f8a", "type": "electric_scooter", "name": "e844e426afa58c95886fa78730a84f8a"}, {"is_disabled": 0, "is_reserved": 0, "fusion_lat": 0.0, "lat": 38.9490945, "fusion_lon": 0.0, "rental_uris": {"ios": "https://dc.lft.to/lastmile_qr_scan", "android": "https://dc.lft.to/lastmile_qr_scan"}, "lon": -77.02077816666667, "bike_id": "5488cba90f3b67d5727dfa8ccd3dd345", "type": "electric_scooter", "name": "5488cba90f3b67d5727dfa8ccd3dd345"}, {"is_disabled": 0, "is_reserved": 0, "fusion_lat": 0.0, "lat": 38.96222066666667, "fusion_lon": 0.0, "rental_uris": {"ios": "https://dc.lft.to/lastmile_qr_scan", "android": "https://dc.lft.to/lastmile_qr_scan"}, "lon": -77.0262585, "bike_id": "34373fb7fd78a1ac4591e7bfb8256d66", "type": "electric_bike", "name": "34373fb7fd78a1ac4591e7bfb8256d66"}, {"is_disabled": 0, "is_reserved": 0, "fusion_lat": 0.0, "lat": 38.92392533333334, "fusion_lon": 0.0, "rental_uris": {"ios": "https://dc.lft.to/lastmile_qr_scan", "android": "https://dc.lft.to/lastmile_qr_scan"}, "lon": -77.03540933333333, "bike_id": "9c965175e415c0262bfb3a340bfbd62a", "type": "electric_scooter", "name": "9c965175e415c0262bfb3a340bfbd62a"}, {"is_disabled": 0, "is_reserved": 0, "fusion_lat": 0.0, "lat": 38.92440233333333, "fusion_lon": 0.0, "rental_uris": {"ios": "https://dc.lft.to/lastmile_qr_scan", "android": "https://dc.lft.to/lastmile_qr_scan"}, "lon": -77.02031466666666, "bike_id": "ce07e5cb2ab2d7f04407cdc906a22204", "type": "electric_scooter", "name": "ce07e5cb2ab2d7f04407cdc906a22204"}, {"is_disabled": 0, "is_reserved": 0, "fusion_lat": 0.0, "lat": 38.871626, "fusion_lon": 0.0, "rental_uris": {"ios": "https://dc.lft.to/lastmile_qr_scan", "android": "https://dc.lft.to/lastmile_qr_scan"}, "lon": -77.01165566666667, "bike_id": "5badf3a46771c5b6db4ca9995e661c02", "type": "electric_scooter", "name": "5badf3a46771c5b6db4ca9995e661c02"}, {"is_disabled": 0, "is_reserved": 0, "fusion_lat": 0.0, "lat": 38.92349683333333, "fusion_lon": 0.0, "rental_uris": {"ios": "https://dc.lft.to/lastmile_qr_scan", "android": "https://dc.lft.to/lastmile_qr_scan"}, "lon": -77.00202633333333, "bike_id": "72a9e604210990a45b86f0bcff4fbf74", "type": "electric_scooter", "name": "72a9e604210990a45b86f0bcff4fbf74"}, {"is_disabled": 0, "is_reserved": 0, "fusion_lat": 0.0, "lat": 38.8923515, "fusion_lon": 0.0, "rental_uris": {"ios": "https://dc.lft.to/lastmile_qr_scan", "android": "https://dc.lft.to/lastmile_qr_scan"}, "lon": -77.026099, "bike_id": "f00222ca5f7b1f0d679d5241f75228fd", "type": "electric_scooter", "name": "f00222ca5f7b1f0d679d5241f75228fd"}, {"is_disabled": 0, "is_reserved": 0, "fusion_lat": 0.0, "lat": 38.90753816666667, "fusion_lon": 0.0, "rental_uris": {"ios": "https://dc.lft.to/lastmile_qr_scan", "android": "https://dc.lft.to/lastmile_qr_scan"}, "lon": -77.045255, "bike_id": "bb0b2b2b0bf62ca7c7aab0466b6a614d", "type": "electric_scooter", "name": "bb0b2b2b0bf62ca7c7aab0466b6a614d"}, {"is_disabled": 0, "is_reserved": 0, "fusion_lat": 0.0, "lat": 38.8073185, "fusion_lon": 0.0, "rental_uris": {"ios": "https://dc.lft.to/lastmile_qr_scan", "android": "https://dc.lft.to/lastmile_qr_scan"}, "lon": -76.99268183333334, "bike_id": "87a49820f6b07f92a4cdc78f78bd5e29", "type": "electric_bike", "name": "87a49820f6b07f92a4cdc78f78bd5e29"}, {"is_disabled": 0, "is_reserved": 0, "fusion_lat": 0.0, "lat": 38.919846, "fusion_lon": 0.0, "rental_uris": {"ios": "https://dc.lft.to/lastmile_qr_scan", "android": "https://dc.lft.to/lastmile_qr_scan"}, "lon": -77.032504, "bike_id": "725f27d8c8988b21d11b02ee40108b9e", "type": "electric_scooter", "name": "725f27d8c8988b21d11b02ee40108b9e"}, {"is_disabled": 0, "is_reserved": 0, "fusion_lat": 0.0, "lat": 38.89605, "fusion_lon": 0.0, "rental_uris": {"ios": "https://dc.lft.to/lastmile_qr_scan", "android": "https://dc.lft.to/lastmile_qr_scan"}, "lon": -77.04541666666667, "bike_id": "960b4934f72eaac00e5cda388d99337a", "type": "electric_scooter", "name": "960b4934f72eaac00e5cda388d99337a"}, {"is_disabled": 0, "is_reserved": 0, "fusion_lat": 0.0, "lat": 38.883002, "fusion_lon": 0.0, "rental_uris": {"ios": "https://dc.lft.to/lastmile_qr_scan", "android": "https://dc.lft.to/lastmile_qr_scan"}, "lon": -76.9947405, "bike_id": "fb7ce7584b068a23caf5f8292f05c818", "type": "electric_scooter", "name": "fb7ce7584b068a23caf5f8292f05c818"}, {"is_disabled": 0, "is_reserved": 0, "fusion_lat": 0.0, "lat": 38.897443333333335, "fusion_lon": 0.0, "rental_uris": {"ios": "https://dc.lft.to/lastmile_qr_scan", "android": "https://dc.lft.to/lastmile_qr_scan"}, "lon": -77.021226, "bike_id": "70a3bf964173bcf08cb5c637619672d8", "type": "electric_scooter", "name": "70a3bf964173bcf08cb5c637619672d8"}, {"is_disabled": 0, "is_reserved": 0, "fusion_lat": 0.0, "lat": 38.949648, "fusion_lon": 0.0, "rental_uris": {"ios": "https://dc.lft.to/lastmile_qr_scan", "android": "https://dc.lft.to/lastmile_qr_scan"}, "lon": -77.0808465, "bike_id": "bfc6e9e16bcc1307554f51037a671ffa", "type": "electric_scooter", "name": "bfc6e9e16bcc1307554f51037a671ffa"}, {"is_disabled": 0, "is_reserved": 0, "fusion_lat": 0.0, "lat": 38.89867733333333, "fusion_lon": 0.0, "rental_uris": {"ios": "https://dc.lft.to/lastmile_qr_scan", "android": "https://dc.lft.to/lastmile_qr_scan"}, "lon": -76.94663833333334, "bike_id": "731f7905c8ead08a267e71fe3fe39926", "type": "electric_scooter", "name": "731f7905c8ead08a267e71fe3fe39926"}, {"is_disabled": 0, "is_reserved": 0, "fusion_lat": 0.0, "lat": 38.857131, "fusion_lon": 0.0, "rental_uris": {"ios": "https://dc.lft.to/lastmile_qr_scan", "android": "https://dc.lft.to/lastmile_qr_scan"}, "lon": -76.9809355, "bike_id": "8d06d89988218ed19338312cde558608", "type": "electric_scooter", "name": "8d06d89988218ed19338312cde558608"}, {"is_disabled": 0, "is_reserved": 0, "fusion_lat": 0.0, "lat": 38.896130166666666, "fusion_lon": 0.0, "rental_uris": {"ios": "https://dc.lft.to/lastmile_qr_scan", "android": "https://dc.lft.to/lastmile_qr_scan"}, "lon": -77.00605383333334, "bike_id": "e72b069ab98b5ed17833248631412ee4", "type": "electric_scooter", "name": "e72b069ab98b5ed17833248631412ee4"}, {"is_disabled": 0, "is_reserved": 0, "fusion_lat": 0.0, "lat": 38.89670183333333, "fusion_lon": 0.0, "rental_uris": {"ios": "https://dc.lft.to/lastmile_qr_scan", "android": "https://dc.lft.to/lastmile_qr_scan"}, "lon": -77.05465083333333, "bike_id": "ea938b1a887ee73429f471f34da74771", "type": "electric_scooter", "name": "ea938b1a887ee73429f471f34da74771"}, {"is_disabled": 0, "is_reserved": 0, "fusion_lat": 0.0, "lat": 38.949197166666664, "fusion_lon": 0.0, "rental_uris": {"ios": "https://dc.lft.to/lastmile_qr_scan", "android": "https://dc.lft.to/lastmile_qr_scan"}, "lon": -77.02312983333333, "bike_id": "b2c03589eaf7fd408eb816088477b927", "type": "electric_scooter", "name": "b2c03589eaf7fd408eb816088477b927"}, {"is_disabled": 0, "is_reserved": 0, "fusion_lat": 0.0, "lat": 38.9307145, "fusion_lon": 0.0, "rental_uris": {"ios": "https://dc.lft.to/lastmile_qr_scan", "android": "https://dc.lft.to/lastmile_qr_scan"}, "lon": -77.02347666666667, "bike_id": "dbf0173ecf92e84a362dd04b3af36e5a", "type": "electric_scooter", "name": "dbf0173ecf92e84a362dd04b3af36e5a"}, {"is_disabled": 0, "is_reserved": 0, "fusion_lat": 0.0, "lat": 38.884739333333336, "fusion_lon": 0.0, "rental_uris": {"ios": "https://dc.lft.to/lastmile_qr_scan", "android": "https://dc.lft.to/lastmile_qr_scan"}, "lon": -77.02655383333334, "bike_id": "135a4df5639c44236edad24b7b4d8779", "type": "electric_scooter", "name": "135a4df5639c44236edad24b7b4d8779"}, {"is_disabled": 0, "is_reserved": 0, "fusion_lat": 0.0, "lat": 38.90073866666667, "fusion_lon": 0.0, "rental_uris": {"ios": "https://dc.lft.to/lastmile_qr_scan", "android": "https://dc.lft.to/lastmile_qr_scan"}, "lon": -77.02217616666667, "bike_id": "c00a782eb0ba973f43cef9da796f985f", "type": "electric_scooter", "name": "c00a782eb0ba973f43cef9da796f985f"}, {"is_disabled": 0, "is_reserved": 0, "fusion_lat": 0.0, "lat": 38.834125, "fusion_lon": 0.0, "rental_uris": {"ios": "https://dc.lft.to/lastmile_qr_scan", "android": "https://dc.lft.to/lastmile_qr_scan"}, "lon": -77.05033983333334, "bike_id": "42ba17f49d992cb0091d3834be076eeb", "type": "electric_bike", "name": "42ba17f49d992cb0091d3834be076eeb"}, {"is_disabled": 0, "is_reserved": 0, "fusion_lat": 0.0, "lat": 38.918325833333334, "fusion_lon": 0.0, "rental_uris": {"ios": "https://dc.lft.to/lastmile_qr_scan", "android": "https://dc.lft.to/lastmile_qr_scan"}, "lon": -77.0416955, "bike_id": "6a98449a7666b5c9ab0dc2a261822389", "type": "electric_scooter", "name": "6a98449a7666b5c9ab0dc2a261822389"}, {"is_disabled": 0, "is_reserved": 0, "fusion_lat": 0.0, "lat": 38.92441733333333, "fusion_lon": 0.0, "rental_uris": {"ios": "https://dc.lft.to/lastmile_qr_scan", "android": "https://dc.lft.to/lastmile_qr_scan"}, "lon": -77.03401433333333, "bike_id": "22f0537157b9d931b32d7564d4790ba7", "type": "electric_scooter", "name": "22f0537157b9d931b32d7564d4790ba7"}, {"is_disabled": 0, "is_reserved": 0, "fusion_lat": 0.0, "lat": 38.92328116666667, "fusion_lon": 0.0, "rental_uris": {"ios": "https://dc.lft.to/lastmile_qr_scan", "android": "https://dc.lft.to/lastmile_qr_scan"}, "lon": -77.056849, "bike_id": "08e3006b4c4d64edf7973e1a410f192f", "type": "electric_scooter", "name": "08e3006b4c4d64edf7973e1a410f192f"}, {"is_disabled": 0, "is_reserved": 0, "fusion_lat": 0.0, "lat": 38.918111, "fusion_lon": 0.0, "rental_uris": {"ios": "https://dc.lft.to/lastmile_qr_scan", "android": "https://dc.lft.to/lastmile_qr_scan"}, "lon": -77.02711816666667, "bike_id": "83a9bdb2b653077484f1c44fc68e2eff", "type": "electric_scooter", "name": "83a9bdb2b653077484f1c44fc68e2eff"}, {"is_disabled": 0, "is_reserved": 0, "fusion_lat": 0.0, "lat": 38.899649, "fusion_lon": 0.0, "rental_uris": {"ios": "https://dc.lft.to/lastmile_qr_scan", "android": "https://dc.lft.to/lastmile_qr_scan"}, "lon": -77.0225255, "bike_id": "316bb974a36fc6458068e5a5c3a080d8", "type": "electric_scooter", "name": "316bb974a36fc6458068e5a5c3a080d8"}, {"is_disabled": 0, "is_reserved": 0, "fusion_lat": 0.0, "lat": 38.92317633333333, "fusion_lon": 0.0, "rental_uris": {"ios": "https://dc.lft.to/lastmile_qr_scan", "android": "https://dc.lft.to/lastmile_qr_scan"}, "lon": -77.02073833333333, "bike_id": "a8e76799323d91859f7e4e43af899b0d", "type": "electric_scooter", "name": "a8e76799323d91859f7e4e43af899b0d"}, {"is_disabled": 0, "is_reserved": 0, "fusion_lat": 0.0, "lat": 38.9574625, "fusion_lon": 0.0, "rental_uris": {"ios": "https://dc.lft.to/lastmile_qr_scan", "android": "https://dc.lft.to/lastmile_qr_scan"}, "lon": -77.02067016666666, "bike_id": "e3525b3e201702ec052736fb7ae50b82", "type": "electric_scooter", "name": "e3525b3e201702ec052736fb7ae50b82"}, {"is_disabled": 0, "is_reserved": 0, "fusion_lat": 0.0, "lat": 38.921487666666664, "fusion_lon": 0.0, "rental_uris": {"ios": "https://dc.lft.to/lastmile_qr_scan", "android": "https://dc.lft.to/lastmile_qr_scan"}, "lon": -77.036713, "bike_id": "93dc7ba609e6d5333627e3386bd5282e", "type": "electric_scooter", "name": "93dc7ba609e6d5333627e3386bd5282e"}, {"is_disabled": 0, "is_reserved": 0, "fusion_lat": 0.0, "lat": 38.89476333333333, "fusion_lon": 0.0, "rental_uris": {"ios": "https://dc.lft.to/lastmile_qr_scan", "android": "https://dc.lft.to/lastmile_qr_scan"}, "lon": -77.04158033333333, "bike_id": "a094942db08bdea438b827f9ce9a114b", "type": "electric_scooter", "name": "a094942db08bdea438b827f9ce9a114b"}, {"is_disabled": 0, "is_reserved": 0, "fusion_lat": 0.0, "lat": 38.85554316666666, "fusion_lon": 0.0, "rental_uris": {"ios": "https://dc.lft.to/lastmile_qr_scan", "android": "https://dc.lft.to/lastmile_qr_scan"}, "lon": -77.06402216666666, "bike_id": "95fb1e0518a44c119f6be3fcb22fc4f9", "type": "electric_bike", "name": "95fb1e0518a44c119f6be3fcb22fc4f9"}, {"is_disabled": 0, "is_reserved": 0, "fusion_lat": 0.0, "lat": 38.92250666666666, "fusion_lon": 0.0, "rental_uris": {"ios": "https://dc.lft.to/lastmile_qr_scan", "android": "https://dc.lft.to/lastmile_qr_scan"}, "lon": -77.03654966666667, "bike_id": "e339e725f6894d6b94d6c9a3b936a93a", "type": "electric_scooter", "name": "e339e725f6894d6b94d6c9a3b936a93a"}, {"is_disabled": 0, "is_reserved": 0, "fusion_lat": 0.0, "lat": 38.983645, "fusion_lon": 0.0, "rental_uris": {"ios": "https://dc.lft.to/lastmile_qr_scan", "android": "https://dc.lft.to/lastmile_qr_scan"}, "lon": -76.98851466666666, "bike_id": "51089feaaf31622518e76ae8a16fda87", "type": "electric_bike", "name": "51089feaaf31622518e76ae8a16fda87"}, {"is_disabled": 0, "is_reserved": 0, "fusion_lat": 0.0, "lat": 38.842285333333336, "fusion_lon": 0.0, "rental_uris": {"ios": "https://dc.lft.to/lastmile_qr_scan", "android": "https://dc.lft.to/lastmile_qr_scan"}, "lon": -76.94891716666666, "bike_id": "ad1bc221d0ba2fbbdb0eb0ddc79b5cb4", "type": "electric_bike", "name": "ad1bc221d0ba2fbbdb0eb0ddc79b5cb4"}, {"is_disabled": 0, "is_reserved": 0, "fusion_lat": 0.0, "lat": 38.9270045, "fusion_lon": 0.0, "rental_uris": {"ios": "https://dc.lft.to/lastmile_qr_scan", "android": "https://dc.lft.to/lastmile_qr_scan"}, "lon": -77.03828966666667, "bike_id": "365d6c518c5436ad2d801f8482dd5973", "type": "electric_scooter", "name": "365d6c518c5436ad2d801f8482dd5973"}, {"is_disabled": 0, "is_reserved": 0, "fusion_lat": 0.0, "lat": 38.8423045, "fusion_lon": 0.0, "rental_uris": {"ios": "https://dc.lft.to/lastmile_qr_scan", "android": "https://dc.lft.to/lastmile_qr_scan"}, "lon": -77.00166466666667, "bike_id": "249ec0ffd6adee0002f0e2835a59b586", "type": "electric_scooter", "name": "249ec0ffd6adee0002f0e2835a59b586"}, {"is_disabled": 0, "is_reserved": 0, "fusion_lat": 0.0, "lat": 38.90014083333333, "fusion_lon": 0.0, "rental_uris": {"ios": "https://dc.lft.to/lastmile_qr_scan", "android": "https://dc.lft.to/lastmile_qr_scan"}, "lon": -77.03322616666667, "bike_id": "f5d5e7f1842a18dd1244c04b5d4c337d", "type": "electric_scooter", "name": "f5d5e7f1842a18dd1244c04b5d4c337d"}, {"is_disabled": 0, "is_reserved": 0, "fusion_lat": 0.0, "lat": 38.93021066666667, "fusion_lon": 0.0, "rental_uris": {"ios": "https://dc.lft.to/lastmile_qr_scan", "android": "https://dc.lft.to/lastmile_qr_scan"}, "lon": -77.0232235, "bike_id": "b32f0c29629579ea690563286e6af498", "type": "electric_scooter", "name": "b32f0c29629579ea690563286e6af498"}, {"is_disabled": 0, "is_reserved": 0, "fusion_lat": 0.0, "lat": 38.909035333333335, "fusion_lon": 0.0, "rental_uris": {"ios": "https://dc.lft.to/lastmile_qr_scan", "android": "https://dc.lft.to/lastmile_qr_scan"}, "lon": -77.03394583333333, "bike_id": "e90f6a071ee3512e4c196b45e89bc01b", "type": "electric_scooter", "name": "e90f6a071ee3512e4c196b45e89bc01b"}, {"is_disabled": 0, "is_reserved": 0, "fusion_lat": 0.0, "lat": 38.88368333333333, "fusion_lon": 0.0, "rental_uris": {"ios": "https://dc.lft.to/lastmile_qr_scan", "android": "https://dc.lft.to/lastmile_qr_scan"}, "lon": -76.99517916666667, "bike_id": "431502f00b530dac3813a1e17d84a4a1", "type": "electric_scooter", "name": "431502f00b530dac3813a1e17d84a4a1"}, {"is_disabled": 0, "is_reserved": 0, "fusion_lat": 0.0, "lat": 38.8898745, "fusion_lon": 0.0, "rental_uris": {"ios": "https://dc.lft.to/lastmile_qr_scan", "android": "https://dc.lft.to/lastmile_qr_scan"}, "lon": -77.0033815, "bike_id": "5ec12c7a2d6834abe4f21181a006c35f", "type": "electric_scooter", "name": "5ec12c7a2d6834abe4f21181a006c35f"}, {"is_disabled": 0, "is_reserved": 0, "fusion_lat": 0.0, "lat": 38.89220383333333, "fusion_lon": 0.0, "rental_uris": {"ios": "https://dc.lft.to/lastmile_qr_scan", "android": "https://dc.lft.to/lastmile_qr_scan"}, "lon": -77.02349466666666, "bike_id": "f0689ed8414a4bed77770970bd605233", "type": "electric_scooter", "name": "f0689ed8414a4bed77770970bd605233"}, {"is_disabled": 0, "is_reserved": 0, "fusion_lat": 0.0, "lat": 38.9274385, "fusion_lon": 0.0, "rental_uris": {"ios": "https://dc.lft.to/lastmile_qr_scan", "android": "https://dc.lft.to/lastmile_qr_scan"}, "lon": -77.06463183333334, "bike_id": "30121b2877b81f63fe04cfe0c693f4f5", "type": "electric_scooter", "name": "30121b2877b81f63fe04cfe0c693f4f5"}, {"is_disabled": 0, "is_reserved": 0, "fusion_lat": 0.0, "lat": 38.91774983333333, "fusion_lon": 0.0, "rental_uris": {"ios": "https://dc.lft.to/lastmile_qr_scan", "android": "https://dc.lft.to/lastmile_qr_scan"}, "lon": -77.04666183333333, "bike_id": "f6653ed8e8836ce8b94bf4f5206b8a06", "type": "electric_scooter", "name": "f6653ed8e8836ce8b94bf4f5206b8a06"}, {"is_disabled": 0, "is_reserved": 0, "fusion_lat": 0.0, "lat": 38.8927455, "fusion_lon": 0.0, "rental_uris": {"ios": "https://dc.lft.to/lastmile_qr_scan", "android": "https://dc.lft.to/lastmile_qr_scan"}, "lon": -77.05044066666666, "bike_id": "6934ac23cfd1b88681b1a15b9532a6da", "type": "electric_scooter", "name": "6934ac23cfd1b88681b1a15b9532a6da"}, {"is_disabled": 0, "is_reserved": 0, "fusion_lat": 0.0, "lat": 38.830006166666664, "fusion_lon": 0.0, "rental_uris": {"ios": "https://dc.lft.to/lastmile_qr_scan", "android": "https://dc.lft.to/lastmile_qr_scan"}, "lon": -77.00800366666667, "bike_id": "ee7e2ec396a373a537e6bf74ca1ddeee", "type": "electric_bike", "name": "ee7e2ec396a373a537e6bf74ca1ddeee"}, {"is_disabled": 0, "is_reserved": 0, "fusion_lat": 0.0, "lat": 38.89993416666667, "fusion_lon": 0.0, "rental_uris": {"ios": "https://dc.lft.to/lastmile_qr_scan", "android": "https://dc.lft.to/lastmile_qr_scan"}, "lon": -77.01643916666667, "bike_id": "4cd3f2d0ee3fc6e71df1a499230936d5", "type": "electric_scooter", "name": "4cd3f2d0ee3fc6e71df1a499230936d5"}, {"is_disabled": 0, "is_reserved": 0, "fusion_lat": 0.0, "lat": 38.92370366666667, "fusion_lon": 0.0, "rental_uris": {"ios": "https://dc.lft.to/lastmile_qr_scan", "android": "https://dc.lft.to/lastmile_qr_scan"}, "lon": -77.01909266666667, "bike_id": "f3a964685a9fd8c002a0e52c2b9bd18b", "type": "electric_scooter", "name": "f3a964685a9fd8c002a0e52c2b9bd18b"}, {"is_disabled": 0, "is_reserved": 0, "fusion_lat": 0.0, "lat": 38.90495216666667, "fusion_lon": 0.0, "rental_uris": {"ios": "https://dc.lft.to/lastmile_qr_scan", "android": "https://dc.lft.to/lastmile_qr_scan"}, "lon": -77.00939333333334, "bike_id": "fbfbf2de06fa3cd96349d9528c17609f", "type": "electric_scooter", "name": "fbfbf2de06fa3cd96349d9528c17609f"}, {"is_disabled": 0, "is_reserved": 0, "fusion_lat": 0.0, "lat": 38.925488666666666, "fusion_lon": 0.0, "rental_uris": {"ios": "https://dc.lft.to/lastmile_qr_scan", "android": "https://dc.lft.to/lastmile_qr_scan"}, "lon": -77.02709483333334, "bike_id": "6936214fc066e997d9a2fc2ccf7344b8", "type": "electric_scooter", "name": "6936214fc066e997d9a2fc2ccf7344b8"}, {"is_disabled": 0, "is_reserved": 0, "fusion_lat": 0.0, "lat": 38.9563455, "fusion_lon": 0.0, "rental_uris": {"ios": "https://dc.lft.to/lastmile_qr_scan", "android": "https://dc.lft.to/lastmile_qr_scan"}, "lon": -77.03630766666667, "bike_id": "9347adb6129add75239298746ea927fb", "type": "electric_scooter", "name": "9347adb6129add75239298746ea927fb"}, {"is_disabled": 0, "is_reserved": 0, "fusion_lat": 0.0, "lat": 38.93188933333333, "fusion_lon": 0.0, "rental_uris": {"ios": "https://dc.lft.to/lastmile_qr_scan", "android": "https://dc.lft.to/lastmile_qr_scan"}, "lon": -77.01867583333333, "bike_id": "053f0e0d6fec2c3651bf2f1e16725898", "type": "electric_scooter", "name": "053f0e0d6fec2c3651bf2f1e16725898"}, {"is_disabled": 0, "is_reserved": 0, "fusion_lat": 0.0, "lat": 38.916442333333336, "fusion_lon": 0.0, "rental_uris": {"ios": "https://dc.lft.to/lastmile_qr_scan", "android": "https://dc.lft.to/lastmile_qr_scan"}, "lon": -77.02178816666667, "bike_id": "568a16751ca42837fa7810487a82583d", "type": "electric_scooter", "name": "568a16751ca42837fa7810487a82583d"}, {"is_disabled": 0, "is_reserved": 0, "fusion_lat": 0.0, "lat": 38.89081066666667, "fusion_lon": 0.0, "rental_uris": {"ios": "https://dc.lft.to/lastmile_qr_scan", "android": "https://dc.lft.to/lastmile_qr_scan"}, "lon": -76.95475083333334, "bike_id": "855a4ced99a9f9734f5e8d21b36d67a9", "type": "electric_bike", "name": "855a4ced99a9f9734f5e8d21b36d67a9"}, {"is_disabled": 0, "is_reserved": 0, "fusion_lat": 0.0, "lat": 38.929626666666664, "fusion_lon": 0.0, "rental_uris": {"ios": "https://dc.lft.to/lastmile_qr_scan", "android": "https://dc.lft.to/lastmile_qr_scan"}, "lon": -76.99066583333334, "bike_id": "044f685388158ba8db44c35b5138ce52", "type": "electric_bike", "name": "044f685388158ba8db44c35b5138ce52"}, {"is_disabled": 0, "is_reserved": 0, "fusion_lat": 0.0, "lat": 38.9305555, "fusion_lon": 0.0, "rental_uris": {"ios": "https://dc.lft.to/lastmile_qr_scan", "android": "https://dc.lft.to/lastmile_qr_scan"}, "lon": -76.97326566666666, "bike_id": "c0fd284c49fcc6ddfa1b21e97a0fe524", "type": "electric_scooter", "name": "c0fd284c49fcc6ddfa1b21e97a0fe524"}, {"is_disabled": 0, "is_reserved": 0, "fusion_lat": 0.0, "lat": 38.9187735, "fusion_lon": 0.0, "rental_uris": {"ios": "https://dc.lft.to/lastmile_qr_scan", "android": "https://dc.lft.to/lastmile_qr_scan"}, "lon": -77.03208466666666, "bike_id": "5bef43d9c45f06dc68b71ea32848b513", "type": "electric_scooter", "name": "5bef43d9c45f06dc68b71ea32848b513"}, {"is_disabled": 0, "is_reserved": 0, "fusion_lat": 0.0, "lat": 38.99848266666667, "fusion_lon": 0.0, "rental_uris": {"ios": "https://dc.lft.to/lastmile_qr_scan", "android": "https://dc.lft.to/lastmile_qr_scan"}, "lon": -77.00248483333333, "bike_id": "f2757e25c785bbc393dcaaf1a171ddc1", "type": "electric_bike", "name": "f2757e25c785bbc393dcaaf1a171ddc1"}, {"is_disabled": 0, "is_reserved": 0, "fusion_lat": 0.0, "lat": 38.8837365, "fusion_lon": 0.0, "rental_uris": {"ios": "https://dc.lft.to/lastmile_qr_scan", "android": "https://dc.lft.to/lastmile_qr_scan"}, "lon": -76.99516466666667, "bike_id": "5fc0b6ef144fc554610c8619840050e5", "type": "electric_scooter", "name": "5fc0b6ef144fc554610c8619840050e5"}, {"is_disabled": 0, "is_reserved": 0, "fusion_lat": 0.0, "lat": 39.04231266666667, "fusion_lon": 0.0, "rental_uris": {"ios": "https://dc.lft.to/lastmile_qr_scan", "android": "https://dc.lft.to/lastmile_qr_scan"}, "lon": -76.99727083333333, "bike_id": "78cdb0016fcea8db91370bc18ac2eb0b", "type": "electric_bike", "name": "78cdb0016fcea8db91370bc18ac2eb0b"},