{"data": {"bikes": [{"rental_uris": {"ios": "https://dc.lft.to/lastmile_qr_scan", "android": "https://dc.lft.to/lastmile_qr_scan"}, "type": "electric_scooter", "name": "ed45f2250381df10525e1aab53a19d68", "is_reserved": 0, "lon": -77.0272535, "is_disabled": 0, "fusion_lat": 0.0, "lat": 38.933974666666664, "bike_id": "ed45f2250381df10525e1aab53a19d68", "fusion_lon": 0.0}, {"rental_uris": {"ios": "https://dc.lft.to/lastmile_qr_scan", "android": "https://dc.lft.to/lastmile_qr_scan"}, "type": "electric_scooter", "name": "32f7b3509997b7d00664fc1135a9b3c5", "is_reserved": 0, "lon": -77.03779383333334, "is_disabled": 0, "fusion_lat": 0.0, "lat": 38.912614833333336, "bike_id": "32f7b3509997b7d00664fc1135a9b3c5", "fusion_lon": 0.0}, {"rental_uris": {"ios": "https://dc.lft.to/lastmile_qr_scan", "android": "https://dc.lft.to/lastmile_qr_scan"}, "type": "electric_scooter", "name": "9b1e34e287323489682a93afb4851446", "is_reserved": 0, "lon": -77.0785695, "is_disabled": 0, "fusion_lat": 0.0, "lat": 38.9315, "bike_id": "9b1e34e287323489682a93afb4851446", "fusion_lon": 0.0}, {"rental_uris": {"ios": "https://dc.lft.to/lastmile_qr_scan", "android": "https://dc.lft.to/lastmile_qr_scan"}, "type": "electric_scooter", "name": "179aca8dcc92b1e7d7ce0adc832e3aa4", "is_reserved": 0, "lon": -77.00959766666666, "is_disabled": 0, "fusion_lat": 0.0, "lat": 38.89768016666667, "bike_id": "179aca8dcc92b1e7d7ce0adc832e3aa4", "fusion_lon": 0.0}, {"rental_uris": {"ios": "https://dc.lft.to/lastmile_qr_scan", "android": "https://dc.lft.to/lastmile_qr_scan"}, "type": "electric_scooter", "name": "9f21f56c5600026340f890572c646f97", "is_reserved": 0, "lon": -77.000639, "is_disabled": 0, "fusion_lat": 0.0, "lat": 38.91910516666667, "bike_id": "9f21f56c5600026340f890572c646f97", "fusion_lon": 0.0}, {"rental_uris": {"ios": "https://dc.lft.to/lastmile_qr_scan", "android": "https://dc.lft.to/lastmile_qr_scan"}, "type": "electric_scooter", "name": "74741cd991934751a0e96bc58c76bc9b", "is_reserved": 0, "lon": -77.03994666666667, "is_disabled": 0, "fusion_lat": 0.0, "lat": 38.94185, "bike_id": "74741cd991934751a0e96bc58c76bc9b", "fusion_lon": 0.0}, {"rental_uris": {"ios": "https://dc.lft.to/lastmile_qr_scan", "android": "https://dc.lft.to/lastmile_qr_scan"}, "type": "electric_scooter", "name": "1584df5a8ec0981c46961273d0af1140", "is_reserved": 0, "lon": -77.03450183333334, "is_disabled": 0, "fusion_lat": 0.0, "lat": 38.9073575, "bike_id": "1584df5a8ec0981c46961273d0af1140", "fusion_lon": 0.0}, {"rental_uris": {"ios": "https://dc.lft.to/lastmile_qr_scan", "android": "https://dc.lft.to/lastmile_qr_scan"}, "type": "electric_bike", "name": "d66c79db1c5f131a4ad3a3aad11a6367", "is_reserved": 0, "lon": -76.96322933333333, "is_disabled": 0, "fusion_lat": 0.0, "lat": 38.938977666666666, "bike_id": "d66c79db1c5f131a4ad3a3aad11a6367", "fusion_lon": 0.0}, {"rental_uris": {"ios": "https://dc.lft.to/lastmile_qr_scan", "android": "https://dc.lft.to/lastmile_qr_scan"}, "type": "electric_scooter", "name": "6343fa05a75ffb9a95ceb0b9a6052c13", "is_reserved": 0, "lon": -77.04472966666667, "is_disabled": 0, "fusion_lat": 0.0, "lat": 38.91851583333333, "bike_id": "6343fa05a75ffb9a95ceb0b9a6052c13", "fusion_lon": 0.0}, {"rental_uris": {"ios": "https://dc.lft.to/lastmile_qr_scan", "android": "https://dc.lft.to/lastmile_qr_scan"}, "type": "electric_bike", "name": "ae0f1746eef4c24cbb1d2a14267afe87", "is_reserved": 0, "lon": -77.08138033333333, "is_disabled": 0, "fusion_lat": 0.0, "lat": 38.8228895, "bike_id": "ae0f1746eef4c24cbb1d2a14267afe87", "fusion_lon": 0.0}, {"rental_uris": {"ios": "https://dc.lft.to/lastmile_qr_scan", "android": "https://dc.lft.to/lastmile_qr_scan"}, "type": "electric_bike", "name": "9b193fbe8ab02ad9e8ecc93c6182b413", "is_reserved": 0, "lon": -76.970117, "is_disabled": 0, "fusion_lat": 0.0, "lat": 38.86369583333333, "bike_id": "9b193fbe8ab02ad9e8ecc93c6182b413", "fusion_lon": 0.0}, {"rental_uris": {"ios": "https://dc.lft.to/lastmile_qr_scan", "android": "https://dc.lft.to/lastmile_qr_scan"}, "type": "electric_scooter", "name": "1d039e93b6f7c4c93c329a067fc46a1d", "is_reserved": 0, "lon": -77.03633933333333, "is_disabled": 0, "fusion_lat": 0.0, "lat": 38.94816433333333, "bike_id": "1d039e93b6f7c4c93c329a067fc46a1d", "fusion_lon": 0.0}, {"rental_uris": {"ios": "https://dc.lft.to/lastmile_qr_scan", "android": "https://dc.lft.to/lastmile_qr_scan"}, "type": "electric_scooter", "name": "dcf69741ae64e03c8ecc22bf1d027153", "is_reserved": 0, "lon": -77.0424995, "is_disabled": 0, "fusion_lat": 0.0, "lat": 38.92058683333333, "bike_id": "dcf69741ae64e03c8ecc22bf1d027153", "fusion_lon": 0.0}, {"rental_uris": {"ios": "https://dc.lft.to/lastmile_qr_scan", "android": "https://dc.lft.to/lastmile_qr_scan"}, "type": "electric_scooter", "name": "b399329d8d3552caa2e4670b4301c1ba", "is_reserved": 0, "lon": -77.0415745, "is_disabled": 0, "fusion_lat": 0.0, "lat": 38.91571883333334, "bike_id": "b399329d8d3552caa2e4670b4301c1ba", "fusion_lon": 0.0}, {"rental_uris": {"ios": "https://dc.lft.to/lastmile_qr_scan", "android": "https://dc.lft.to/lastmile_qr_scan"}, "type": "electric_scooter", "name": "75bc7e9de8b6d7ef436b9ca40aa4cc22", "is_reserved": 0, "lon": -76.97152316666667, "is_disabled": 0, "fusion_lat": 0.0, "lat": 38.916207666666665, "bike_id": "75bc7e9de8b6d7ef436b9ca40aa4cc22", "fusion_lon": 0.0}, {"rental_uris": {"ios": "https://dc.lft.to/lastmile_qr_scan", "android": "https://dc.lft.to/lastmile_qr_scan"}, "type": "electric_scooter", "name": "f9b286881fd7207685c45e5495eb1c82", "is_reserved": 0, "lon": -77.00200866666667, "is_disabled": 0, "fusion_lat": 0.0, "lat": 38.900224333333334, "bike_id": "f9b286881fd7207685c45e5495eb1c82", "fusion_lon": 0.0}, {"rental_uris": {"ios": "https://dc.lft.to/lastmile_qr_scan", "android": "https://dc.lft.to/lastmile_qr_scan"}, "type": "electric_scooter", "name": "8e16107bd8037e57fbf6e826247a36a4", "is_reserved": 0, "lon": -77.053739, "is_disabled": 0, "fusion_lat": 0.0, "lat": 38.92326383333333, "bike_id": "8e16107bd8037e57fbf6e826247a36a4", "fusion_lon": 0.0}, {"rental_uris": {"ios": "https://dc.lft.to/lastmile_qr_scan", "android": "https://dc.lft.to/lastmile_qr_scan"}, "type": "electric_scooter", "name": "ec1fa0ca990fb06d1319ae2b1953161c", "is_reserved": 0, "lon": -77.01255933333333, "is_disabled": 0, "fusion_lat": 0.0, "lat": 38.897066833333334, "bike_id": "ec1fa0ca990fb06d1319ae2b1953161c", "fusion_lon": 0.0}, {"rental_uris": {"ios": "https://dc.lft.to/lastmile_qr_scan", "android": "https://dc.lft.to/lastmile_qr_scan"}, "type": "electric_scooter", "name": "de2ac4c305130fa8ad5f192d15dc621f", "is_reserved": 0, "lon": -77.01911666666666, "is_disabled": 0, "fusion_lat": 0.0, "lat": 38.937155833333335, "bike_id": "de2ac4c305130fa8ad5f192d15dc621f", "fusion_lon": 0.0}, {"rental_uris": {"ios": "https://dc.lft.to/lastmile_qr_scan", "android": "https://dc.lft.to/lastmile_qr_scan"}, "type": "electric_scooter", "name": "36482a8f962b12e3f2b2c5626e12e1df", "is_reserved": 0, "lon": -77.01082833333334, "is_disabled": 0, "fusion_lat": 0.0, "lat": 38.89532416666667, "bike_id": "36482a8f962b12e3f2b2c5626e12e1df", "fusion_lon": 0.0}, {"rental_uris": {"ios": "https://dc.lft.to/lastmile_qr_scan", "android": "https://dc.lft.to/lastmile_qr_scan"}, "type": "electric_scooter", "name": "8b427015d8dac829d4d2ac3561b430e8", "is_reserved": 0, "lon": -77.04661266666666, "is_disabled": 0, "fusion_lat": 0.0, "lat": 38.905549, "bike_id": "8b427015d8dac829d4d2ac3561b430e8", "fusion_lon": 0.0}, {"rental_uris": {"ios": "https://dc.lft.to/lastmile_qr_scan", "android": "https://dc.lft.to/lastmile_qr_scan"}, "type": "electric_scooter", "name": "34b662f22c819e0c9528d9ed700c5392", "is_reserved": 0, "lon": -77.00581433333333, "is_disabled": 0, "fusion_lat": 0.0, "lat": 38.900085, "bike_id": "34b662f22c819e0c9528d9ed700c5392", "fusion_lon": 0.0}, {"rental_uris": {"ios": "https://dc.lft.to/lastmile_qr_scan", "android": "https://dc.lft.to/lastmile_qr_scan"}, "type": "electric_scooter", "name": "16641a91bbad97905054e0d4a66a0479", "is_reserved": 0, "lon": -77.03655166666667, "is_disabled": 0, "fusion_lat": 0.0, "lat": 38.91314966666667, "bike_id": "16641a91bbad97905054e0d4a66a0479", "fusion_lon": 0.0}, {"rental_uris": {"ios": "https://dc.lft.to/lastmile_qr_scan", "android": "https://dc.lft.to/lastmile_qr_scan"}, "type": "electric_scooter", "name": "a94b6bc7fa9dec4de4dc6c0e266c1337", "is_reserved": 0, "lon": -77.0376105, "is_disabled": 0, "fusion_lat": 0.0, "lat": 38.92320016666667, "bike_id": "a94b6bc7fa9dec4de4dc6c0e266c1337", "fusion_lon": 0.0}, {"rental_uris": {"ios": "https://dc.lft.to/lastmile_qr_scan", "android": "https://dc.lft.to/lastmile_qr_scan"}, "type": "electric_scooter", "name": "0808c24a2eba04197bdb76e907a868ef", "is_reserved": 0, "lon": -77.029747, "is_disabled": 0, "fusion_lat": 0.0, "lat": 38.922439833333335, "bike_id": "0808c24a2eba04197bdb76e907a868ef", "fusion_lon": 0.0}, {"rental_uris": {"ios": "https://dc.lft.to/lastmile_qr_scan", "android": "https://dc.lft.to/lastmile_qr_scan"}, "type": "electric_scooter", "name": "8a8799d349624efa7a443a9a5fb695e6", "is_reserved": 0, "lon": -77.026899, "is_disabled": 0, "fusion_lat": 0.0, "lat": 38.949776, "bike_id": "8a8799d349624efa7a443a9a5fb695e6", "fusion_lon": 0.0}, {"rental_uris": {"ios": "https://dc.lft.to/lastmile_qr_scan", "android": "https://dc.lft.to/lastmile_qr_scan"}, "type": "electric_bike", "name": "005e45e2c28a37ddb4d27cd9f6fa450a", "is_reserved": 0, "lon": -76.99681616666666, "is_disabled": 0, "fusion_lat": 0.0, "lat": 38.8381395, "bike_id": "005e45e2c28a37ddb4d27cd9f6fa450a", "fusion_lon": 0.0}, {"rental_uris": {"ios": "https://dc.lft.to/lastmile_qr_scan", "android": "https://dc.lft.to/lastmile_qr_scan"}, "type": "electric_scooter", "name": "72e7aad9d478a73746538bc263f1c7b6", "is_reserved": 0, "lon": -76.93427466666667, "is_disabled": 0, "fusion_lat": 0.0, "lat": 38.8935215, "bike_id": "72e7aad9d478a73746538bc263f1c7b6", "fusion_lon": 0.0}, {"rental_uris": {"ios": "https://dc.lft.to/lastmile_qr_scan", "android": "https://dc.lft.to/lastmile_qr_scan"}, "type": "electric_scooter", "name": "12c08dcfe104329397488dda21d89aee", "is_reserved": 0, "lon": -77.04214116666667, "is_disabled": 0, "fusion_lat": 0.0, "lat": 38.925052666666666, "bike_id": "12c08dcfe104329397488dda21d89aee", "fusion_lon": 0.0}, {"rental_uris": {"ios": "https://dc.lft.to/lastmile_qr_scan", "android": "https://dc.lft.to/lastmile_qr_scan"}, "type": "electric_scooter", "name": "a8d8739208ee4c9a55baaa6170d00c00", "is_reserved": 0, "lon": -77.02367333333333, "is_disabled": 0, "fusion_lat": 0.0, "lat": 38.91685533333333, "bike_id": "a8d8739208ee4c9a55baaa6170d00c00", "fusion_lon": 0.0}, {"rental_uris": {"ios": "https://dc.lft.to/lastmile_qr_scan", "android": "https://dc.lft.to/lastmile_qr_scan"}, "type": "electric_scooter", "name": "9f7bb31749892ea83519cb495f61d063", "is_reserved": 0, "lon": -77.03175416666667, "is_disabled": 0, "fusion_lat": 0.0, "lat": 38.921280833333334, "bike_id": "9f7bb31749892ea83519cb495f61d063", "fusion_lon": 0.0}, {"rental_uris": {"ios": "https://dc.lft.to/lastmile_qr_scan", "android": "https://dc.lft.to/lastmile_qr_scan"}, "type": "electric_scooter", "name": "ba4f0a32059a5fd5e151e6f7267b695c", "is_reserved": 0, "lon": -77.008742, "is_disabled": 0, "fusion_lat": 0.0, "lat": 38.89746016666667, "bike_id": "ba4f0a32059a5fd5e151e6f7267b695c", "fusion_lon": 0.0}, {"rental_uris": {"ios": "https://dc.lft.to/lastmile_qr_scan", "android": "https://dc.lft.to/lastmile_qr_scan"}, "type": "electric_scooter", "name": "4bb2d500fd79a275bf675d5938e3cd40", "is_reserved": 0, "lon": -77.04154016666666, "is_disabled": 0, "fusion_lat": 0.0, "lat": 38.90734666666667, "bike_id": "4bb2d500fd79a275bf675d5938e3cd40", "fusion_lon": 0.0}, {"rental_uris": {"ios": "https://dc.lft.to/lastmile_qr_scan", "android": "https://dc.lft.to/lastmile_qr_scan"}, "type": "electric_scooter", "name": "ae81dd2ee222cd995b931466e3b10295", "is_reserved": 0, "lon": -77.02596383333334, "is_disabled": 0, "fusion_lat": 0.0, "lat": 38.91693983333333, "bike_id": "ae81dd2ee222cd995b931466e3b10295", "fusion_lon": 0.0}, {"rental_uris": {"ios": "https://dc.lft.to/lastmile_qr_scan", "android": "https://dc.lft.to/lastmile_qr_scan"}, "type": "electric_bike", "name": "d7b6b955e231c4da5dabc655995300c6", "is_reserved": 0, "lon": -77.01222716666666, "is_disabled": 0, "fusion_lat": 0.0, "lat": 38.950761666666665, "bike_id": "d7b6b955e231c4da5dabc655995300c6", "fusion_lon": 0.0}, {"rental_uris": {"ios": "https://dc.lft.to/lastmile_qr_scan", "android": "https://dc.lft.to/lastmile_qr_scan"}, "type": "electric_scooter", "name": "7187a1cab6f870ea254bcdd427d0435f", "is_reserved": 0, "lon": -76.9527645, "is_disabled": 0, "fusion_lat": 0.0, "lat": 38.891876833333335, "bike_id": "7187a1cab6f870ea254bcdd427d0435f", "fusion_lon": 0.0}, {"rental_uris": {"ios": "https://dc.lft.to/lastmile_qr_scan", "android": "https://dc.lft.to/lastmile_qr_scan"}, "type": "electric_scooter", "name": "f26c15d66082dd6acce82d7586f5848d", "is_reserved": 0, "lon": -77.034346, "is_disabled": 0, "fusion_lat": 0.0, "lat": 38.9179135, "bike_id": "f26c15d66082dd6acce82d7586f5848d", "fusion_lon": 0.0}, {"rental_uris": {"ios": "https://dc.lft.to/lastmile_qr_scan", "android": "https://dc.lft.to/lastmile_qr_scan"}, "type": "electric_bike", "name": "b889e25a428a8b116f58d1dc4f678a6e", "is_reserved": 0, "lon": -76.987702, "is_disabled": 0, "fusion_lat": 0.0, "lat": 38.85768433333333, "bike_id": "b889e25a428a8b116f58d1dc4f678a6e", "fusion_lon": 0.0}, {"rental_uris": {"ios": "https://dc.lft.to/lastmile_qr_scan", "android": "https://dc.lft.to/lastmile_qr_scan"}, "type": "electric_scooter", "name": "7b235d31ab4620bd29046230910d2783", "is_reserved": 0, "lon": -77.00667866666667, "is_disabled": 0, "fusion_lat": 0.0, "lat": 38.87706216666667, "bike_id": "7b235d31ab4620bd29046230910d2783", "fusion_lon": 0.0}, {"rental_uris": {"ios": "https://dc.lft.to/lastmile_qr_scan", "android": "https://dc.lft.to/lastmile_qr_scan"}, "type": "electric_scooter", "name": "0e9d05198a15c347e604b6684d666738", "is_reserved": 0, "lon": -77.038015, "is_disabled": 0, "fusion_lat": 0.0, "lat": 38.9154165, "bike_id": "0e9d05198a15c347e604b6684d666738", "fusion_lon": 0.0}, {"rental_uris": {"ios": "https://dc.lft.to/lastmile_qr_scan", "android": "https://dc.lft.to/lastmile_qr_scan"}, "type": "electric_scooter", "name": "c3c31518a29868aed37c6f23fb97ee4a", "is_reserved": 0, "lon": -76.980688, "is_disabled": 0, "fusion_lat": 0.0, "lat": 38.901705166666666, "bike_id": "c3c31518a29868aed37c6f23fb97ee4a", "fusion_lon": 0.0}, {"rental_uris": {"ios": "https://dc.lft.to/lastmile_qr_scan", "android": "https://dc.lft.to/lastmile_qr_scan"}, "type": "electric_scooter", "name": "ea8c98f33c127edb7a31b8672d817584", "is_reserved": 0, "lon": -77.02419016666667, "is_disabled": 0, "fusion_lat": 0.0, "lat": 38.899062, "bike_id": "ea8c98f33c127edb7a31b8672d817584", "fusion_lon": 0.0}, {"rental_uris": {"ios": "https://dc.lft.to/lastmile_qr_scan", "android": "https://dc.lft.to/lastmile_qr_scan"}, "type": "electric_scooter", "name": "4ba98d751dd4b3e807f1a629454f8422", "is_reserved": 0, "lon": -76.9882005, "is_disabled": 0, "fusion_lat": 0.0, "lat": 38.894974500000004, "bike_id": "4ba98d751dd4b3e807f1a629454f8422", "fusion_lon": 0.0}, {"rental_uris": {"ios": "https://dc.lft.to/lastmile_qr_scan", "android": "https://dc.lft.to/lastmile_qr_scan"}, "type": "electric_scooter", "name": "028c821b3be6e07fb062f042027638aa", "is_reserved": 0, "lon": -77.01765533333334, "is_disabled": 0, "fusion_lat": 0.0, "lat": 38.883053333333336, "bike_id": "028c821b3be6e07fb062f042027638aa", "fusion_lon": 0.0}, {"rental_uris": {"ios": "https://dc.lft.to/lastmile_qr_scan", "android": "https://dc.lft.to/lastmile_qr_scan"}, "type": "electric_scooter", "name": "78428484ea44817913c8cf9adde42848", "is_reserved": 0, "lon": -77.03358666666666, "is_disabled": 0, "fusion_lat": 0.0, "lat": 38.92238433333333, "bike_id": "78428484ea44817913c8cf9adde42848", "fusion_lon": 0.0}, {"rental_uris": {"ios": "https://dc.lft.to/lastmile_qr_scan", "android": "https://dc.lft.to/lastmile_qr_scan"}, "type": "electric_scooter", "name": "7f7443f635d54dd5e65f227f476a21f6", "is_reserved": 0, "lon": -77.0345375, "is_disabled": 0, "fusion_lat": 0.0, "lat": 38.90567016666667, "bike_id": "7f7443f635d54dd5e65f227f476a21f6", "fusion_lon": 0.0}, {"rental_uris": {"ios": "https://dc.lft.to/lastmile_qr_scan", "android": "https://dc.lft.to/lastmile_qr_scan"}, "type": "electric_scooter", "name": "40889cbfd74e2d30deed961a329494d3", "is_reserved": 0, "lon": -77.03787016666666, "is_disabled": 0, "fusion_lat": 0.0, "lat": 38.91579483333334, "bike_id": "40889cbfd74e2d30deed961a329494d3", "fusion_lon": 0.0}, {"rental_uris": {"ios": "https://dc.lft.to/lastmile_qr_scan", "android": "https://dc.lft.to/lastmile_qr_scan"}, "type": "electric_scooter", "name": "3c2b3637247eefe687ef005425a146e5", "is_reserved": 0, "lon": -77.0391315, "is_disabled": 0, "fusion_lat": 0.0, "lat": 38.90827916666667, "bike_id": "3c2b3637247eefe687ef005425a146e5", "fusion_lon": 0.0}, {"rental_uris": {"ios": "https://dc.lft.to/lastmile_qr_scan", "android": "https://dc.lft.to/lastmile_qr_scan"}, "type": "electric_scooter", "name": "0252519c3be0fb3620acbdbf5d5fdbfa", "is_reserved": 0, "lon": -77.04188066666667, "is_disabled": 0, "fusion_lat": 0.0, "lat": 38.920491, "bike_id": "0252519c3be0fb3620acbdbf5d5fdbfa", "fusion_lon": 0.0}, {"rental_uris": {"ios": "https://dc.lft.to/lastmile_qr_scan", "android": "https://dc.lft.to/lastmile_qr_scan"}, "type": "electric_bike", "name": "9337bbee920a7314b6821ce8f6edafe4", "is_reserved": 0, "lon": -77.01221866666667, "is_disabled": 0, "fusion_lat": 0.0, "lat": 38.87193083333333, "bike_id": "9337bbee920a7314b6821ce8f6edafe4", "fusion_lon": 0.0}, {"rental_uris": {"ios": "https://dc.lft.to/lastmile_qr_scan", "android": "https://dc.lft.to/lastmile_qr_scan"}, "type": "electric_scooter", "name": "d8e3629bfce8f63e1d6bf645b6c2b522", "is_reserved": 0, "lon": -77.02213833333333, "is_disabled": 0, "fusion_lat": 0.0, "lat": 38.887073666666666, "bike_id": "d8e3629bfce8f63e1d6bf645b6c2b522", "fusion_lon": 0.0}, {"rental_uris": {"ios": "https://dc.lft.to/lastmile_qr_scan", "android": "https://dc.lft.to/lastmile_qr_scan"}, "type": "electric_scooter", "name": "b467ba4cd56cf8500ad9b19065523bd0", "is_reserved": 0, "lon": -77.025982, "is_disabled": 0, "fusion_lat": 0.0, "lat": 38.91692883333333, "bike_id": "b467ba4cd56cf8500ad9b19065523bd0", "fusion_lon": 0.0}, {"rental_uris": {"ios": "https://dc.lft.to/lastmile_qr_scan", "android": "https://dc.lft.to/lastmile_qr_scan"}, "type": "electric_bike", "name": "95719c7b9b91ef22ebfb9e46e9a0a74e", "is_reserved": 0, "lon": -77.21667066666667, "is_disabled": 0, "fusion_lat": 0.0, "lat": 38.895073, "bike_id": "95719c7b9b91ef22ebfb9e46e9a0a74e", "fusion_lon": 0.0}, {"rental_uris": {"ios": "https://dc.lft.to/lastmile_qr_scan", "android": "https://dc.lft.to/lastmile_qr_scan"}, "type": "electric_bike", "name": "2186e0b98bc78433e1a581284c6ddc2e", "is_reserved": 0, "lon": -77.09722583333334, "is_disabled": 0, "fusion_lat": 0.0, "lat": 38.80738433333333, "bike_id": "2186e0b98bc78433e1a581284c6ddc2e", "fusion_lon": 0.0}, {"rental_uris": {"ios": "https://dc.lft.to/lastmile_qr_scan", "android": "https://dc.lft.to/lastmile_qr_scan"}, "type": "electric_scooter", "name": "91bb0ad037fc4d928af4b30660e0f74b", "is_reserved": 0, "lon": -77.031623, "is_disabled": 0, "fusion_lat": 0.0, "lat": 38.91809683333334, "bike_id": "91bb0ad037fc4d928af4b30660e0f74b", "fusion_lon": 0.0}, {"rental_uris": {"ios": "https://dc.lft.to/lastmile_qr_scan", "android": "https://dc.lft.to/lastmile_qr_scan"}, "type": "electric_scooter", "name": "8e6f226fab9763ca45731334a179b39d", "is_reserved": 0, "lon": -77.01575416666667, "is_disabled": 0, "fusion_lat": 0.0, "lat": 38.916843666666665, "bike_id": "8e6f226fab9763ca45731334a179b39d", "fusion_lon": 0.0}, {"rental_uris": {"ios": "https://dc.lft.to/lastmile_qr_scan", "android": "https://dc.lft.to/lastmile_qr_scan"}, "type": "electric_scooter", "name": "1162fd5b27e69a4d081980e2f6bb1c74", "is_reserved": 0, "lon": -76.99102616666667, "is_disabled": 0, "fusion_lat": 0.0, "lat": 38.85734683333333, "bike_id": "1162fd5b27e69a4d081980e2f6bb1c74", "fusion_lon": 0.0}, {"rental_uris": {"ios": "https://dc.lft.to/lastmile_qr_scan", "android": "https://dc.lft.to/lastmile_qr_scan"}, "type": "electric_scooter", "name": "f6744eaa46ff4a34772e3fcc5e84e807", "is_reserved": 0, "lon": -77.04364566666666, "is_disabled": 0, "fusion_lat": 0.0, "lat": 38.89217216666667, "bike_id": "f6744eaa46ff4a34772e3fcc5e84e807", "fusion_lon": 0.0}, {"rental_uris": {"ios": "https://dc.lft.to/lastmile_qr_scan", "android": "https://dc.lft.to/lastmile_qr_scan"}, "type": "electric_scooter", "name": "70687c9b9dca50d150aa6d600e3620d9", "is_reserved": 0, "lon": -77.039403, "is_disabled": 0, "fusion_lat": 0.0, "lat": 38.9141405, "bike_id": "70687c9b9dca50d150aa6d600e3620d9", "fusion_lon": 0.0}, {"rental_uris": {"ios": "https://dc.lft.to/lastmile_qr_scan", "android": "https://dc.lft.to/lastmile_qr_scan"}, "type": "electric_scooter", "name": "0b96a92b02b5018187b2ae6e3d230d20", "is_reserved": 0, "lon": -77.02076166666667, "is_disabled": 0, "fusion_lat": 0.0, "lat": 38.927003166666665, "bike_id": "0b96a92b02b5018187b2ae6e3d230d20", "fusion_lon": 0.0}, {"rental_uris": {"ios": "https://dc.lft.to/lastmile_qr_scan", "android": "https://dc.lft.to/lastmile_qr_scan"}, "type": "electric_scooter", "name": "5b1e151d8fd5c9584fd4c8d7eaf1399c", "is_reserved": 0, "lon": -77.0086595, "is_disabled": 0, "fusion_lat": 0.0, "lat": 38.897444, "bike_id": "5b1e151d8fd5c9584fd4c8d7eaf1399c", "fusion_lon": 0.0}, {"rental_uris": {"ios": "https://dc.lft.to/lastmile_qr_scan", "android": "https://dc.lft.to/lastmile_qr_scan"}, "type": "electric_scooter", "name": "cc51d7c46472e0984ed9d26593bd77df", "is_reserved": 0, "lon": -77.0322505, "is_disabled": 0, "fusion_lat": 0.0, "lat": 38.907083166666666, "bike_id": "cc51d7c46472e0984ed9d26593bd77df", "fusion_lon": 0.0}, {"rental_uris": {"ios": "https://dc.lft.to/lastmile_qr_scan", "android": "https://dc.lft.to/lastmile_qr_scan"}, "type": "electric_scooter", "name": "b593dd4a184914465d3a19ab87b8170d", "is_reserved": 0, "lon": -77.0418235, "is_disabled": 0, "fusion_lat": 0.0, "lat": 38.91117533333333, "bike_id": "b593dd4a184914465d3a19ab87b8170d", "fusion_lon": 0.0}, {"rental_uris": {"ios": "https://dc.lft.to/lastmile_qr_scan", "android": "https://dc.lft.to/lastmile_qr_scan"}, "type": "electric_scooter", "name": "f2110de56cb232120e2926762e8bc399", "is_reserved": 0, "lon": -77.0218755, "is_disabled": 0, "fusion_lat": 0.0, "lat": 38.8992105, "bike_id": "f2110de56cb232120e2926762e8bc399", "fusion_lon": 0.0}, {"rental_uris": {"ios": "https://dc.lft.to/lastmile_qr_scan", "android": "https://dc.lft.to/lastmile_qr_scan"}, "type": "electric_scooter", "name": "2835ddeffbb36f9dca867913cc08d314", "is_reserved": 0, "lon": -76.9889435, "is_disabled": 0, "fusion_lat": 0.0, "lat": 38.899587, "bike_id": "2835ddeffbb36f9dca867913cc08d314", "fusion_lon": 0.0}, {"rental_uris": {"ios": "https://dc.lft.to/lastmile_qr_scan", "android": "https://dc.lft.to/lastmile_qr_scan"}, "type": "electric_scooter", "name": "dd12f52aa7a6cb01f4a825694aa5d6b1", "is_reserved": 0, "lon": -76.96565616666666, "is_disabled": 0, "fusion_lat": 0.0, "lat": 38.87602533333333, "bike_id": "dd12f52aa7a6cb01f4a825694aa5d6b1", "fusion_lon": 0.0}, {"rental_uris": {"ios": "https://dc.lft.to/lastmile_qr_scan", "android": "https://dc.lft.to/lastmile_qr_scan"}, "type": "electric_scooter", "name": "95ad4c4fdd8537b02c842bb034062654", "is_reserved": 0, "lon": -76.94386366666667, "is_disabled": 0, "fusion_lat": 0.0, "lat": 38.891203833333336, "bike_id": "95ad4c4fdd8537b02c842bb034062654", "fusion_lon": 0.0}, {"rental_uris": {"ios": "https://dc.lft.to/lastmile_qr_scan", "android": "https://dc.lft.to/lastmile_qr_scan"}, "type": "electric_bike", "name": "00d9aef9f05e8e62b0a68bfd033ecea8", "is_reserved": 0, "lon": -77.070192, "is_disabled": 0, "fusion_lat": 0.0, "lat": 38.8410745, "bike_id": "00d9aef9f05e8e62b0a68bfd033ecea8", "fusion_lon": 0.0}, {"rental_uris": {"ios": "https://dc.lft.to/lastmile_qr_scan", "android": "https://dc.lft.to/lastmile_qr_scan"}, "type": "electric_scooter", "name": "1f25b680b0b66b1efb769ee1d330275f", "is_reserved": 0, "lon": -77.0381415, "is_disabled": 0, "fusion_lat": 0.0, "lat": 38.9155875, "bike_id": "1f25b680b0b66b1efb769ee1d330275f", "fusion_lon": 0.0}, {"rental_uris": {"ios": "https://dc.lft.to/lastmile_qr_scan", "android": "https://dc.lft.to/lastmile_qr_scan"}, "type": "electric_scooter", "name": "e21f8e7d6ad67dd363057362877ed277", "is_reserved": 0, "lon": -77.070829, "is_disabled": 0, "fusion_lat": 0.0, "lat": 38.8972965, "bike_id": "e21f8e7d6ad67dd363057362877ed277", "fusion_lon": 0.0}, {"rental_uris": {"ios": "https://dc.lft.to/lastmile_qr_scan", "android": "https://dc.lft.to/lastmile_qr_scan"}, "type": "electric_scooter", "name": "28dcef25652d360fe62e69d7c74ef925", "is_reserved": 0, "lon": -77.04403383333333, "is_disabled": 0, "fusion_lat": 0.0, "lat": 38.92953416666667, "bike_id": "28dcef25652d360fe62e69d7c74ef925", "fusion_lon": 0.0}, {"rental_uris": {"ios": "https://dc.lft.to/lastmile_qr_scan", "android": "https://dc.lft.to/lastmile_qr_scan"}, "type": "electric_scooter", "name": "1f8650af9ecdac335e4a39ead05458e4", "is_reserved": 0, "lon": -77.05320083333334, "is_disabled": 0, "fusion_lat": 0.0, "lat": 38.90262883333333, "bike_id": "1f8650af9ecdac335e4a39ead05458e4", "fusion_lon": 0.0}, {"rental_uris": {"ios": "https://dc.lft.to/lastmile_qr_scan", "android": "https://dc.lft.to/lastmile_qr_scan"}, "type": "electric_scooter", "name": "6db70270ae9e44d519fed3c8f6789e25", "is_reserved": 0, "lon": -77.02412383333333, "is_disabled": 0, "fusion_lat": 0.0, "lat": 38.9096055, "bike_id": "6db70270ae9e44d519fed3c8f6789e25", "fusion_lon": 0.0}, {"rental_uris": {"ios": "https://dc.lft.to/lastmile_qr_scan", "android": "https://dc.lft.to/lastmile_qr_scan"}, "type": "electric_scooter", "name": "c4b5f41a3d24c069114e8cfbab7e889f", "is_reserved": 0, "lon": -77.03658616666667, "is_disabled": 0, "fusion_lat": 0.0, "lat": 38.9228685, "bike_id": "c4b5f41a3d24c069114e8cfbab7e889f", "fusion_lon": 0.0}, {"rental_uris": {"ios": "https://dc.lft.to/lastmile_qr_scan", "android": "https://dc.lft.to/lastmile_qr_scan"}, "type": "electric_scooter", "name": "96971546cb7a6f4a13495ba9d7edd883", "is_reserved": 0, "lon": -77.03975083333333, "is_disabled": 0, "fusion_lat": 0.0, "lat": 38.90139633333333, "bike_id": "96971546cb7a6f4a13495ba9d7edd883", "fusion_lon": 0.0}, {"rental_uris": {"ios": "https://dc.lft.to/lastmile_qr_scan", "android": "https://dc.lft.to/lastmile_qr_scan"}, "type": "electric_scooter", "name": "7db5fc155d6b36df313c4038c4eece18", "is_reserved": 0, "lon": -77.02692566666667, "is_disabled": 0, "fusion_lat": 0.0, "lat": 38.923986166666666, "bike_id": "7db5fc155d6b36df313c4038c4eece18", "fusion_lon": 0.0}, {"rental_uris": {"ios": "https://dc.lft.to/lastmile_qr_scan", "android": "https://dc.lft.to/lastmile_qr_scan"}, "type": "electric_scooter", "name": "e2523d6e9b93f6ee50eeb519aaa4dc10", "is_reserved": 0, "lon": -77.02409183333333, "is_disabled": 0, "fusion_lat": 0.0, "lat": 38.94503616666667, "bike_id": "e2523d6e9b93f6ee50eeb519aaa4dc10", "fusion_lon": 0.0}, {"rental_uris": {"ios": "https://dc.lft.to/lastmile_qr_scan", "android": "https://dc.lft.to/lastmile_qr_scan"}, "type": "electric_bike", "name": "6f6a3fcb6786dd3b3893f9cadfcc85ad", "is_reserved": 0, "lon": -76.98059783333333, "is_disabled": 0, "fusion_lat": 0.0, "lat": 38.97252533333333, "bike_id": "6f6a3fcb6786dd3b3893f9cadfcc85ad", "fusion_lon": 0.0}, {"rental_uris": {"ios": "https://dc.lft.to/lastmile_qr_scan", "android": "https://dc.lft.to/lastmile_qr_scan"}, "type": "electric_scooter", "name": "a141c4dedb40a68264b87ae1de99a152", "is_reserved": 0, "lon": -77.01743666666667, "is_disabled": 0, "fusion_lat": 0.0, "lat": 38.880261833333336, "bike_id": "a141c4dedb40a68264b87ae1de99a152", "fusion_lon": 0.0}, {"rental_uris": {"ios": "https://dc.lft.to/lastmile_qr_scan", "android": "https://dc.lft.to/lastmile_qr_scan"}, "type": "electric_scooter", "name": "17b27a9b5fddd014ccba50cbadc98772", "is_reserved": 0, "lon": -77.036383, "is_disabled": 0, "fusion_lat": 0.0, "lat": 38.93057733333333, "bike_id": "17b27a9b5fddd014ccba50cbadc98772", "fusion_lon": 0.0}, {"rental_uris": {"ios": "https://dc.lft.to/lastmile_qr_scan", "android": "https://dc.lft.to/lastmile_qr_scan"}, "type": "electric_scooter", "name": "9852586b8692deff1ceb31d9331172a8", "is_reserved": 0, "lon": -77.03031483333334, "is_disabled": 0, "fusion_lat": 0.0, "lat": 38.92248216666667, "bike_id": "9852586b8692deff1ceb31d9331172a8", "fusion_lon": 0.0}, {"rental_uris": {"ios": "https://dc.lft.to/lastmile_qr_scan", "android": "https://dc.lft.to/lastmile_qr_scan"}, "type": "electric_scooter", "name": "e012c9c60c977779d60509ceae25e431", "is_reserved": 0, "lon": -77.0326735, "is_disabled": 0, "fusion_lat": 0.0, "lat": 38.932568333333336, "bike_id": "e012c9c60c977779d60509ceae25e431", "fusion_lon": 0.0}, {"rental_uris": {"ios": "https://dc.lft.to/lastmile_qr_scan", "android": "https://dc.lft.to/lastmile_qr_scan"}, "type": "electric_scooter", "name": "01b0f8c5cfb5f9b62fccceb081b78eea", "is_reserved": 0, "lon": -76.99595266666667, "is_disabled": 0, "fusion_lat": 0.0, "lat": 38.9002415, "bike_id": "01b0f8c5cfb5f9b62fccceb081b78eea", "fusion_lon": 0.0}, {"rental_uris": {"ios": "https://dc.lft.to/lastmile_qr_scan", "android": "https://dc.lft.to/lastmile_qr_scan"}, "type": "electric_scooter", "name": "128e5675ab36fb28edbd06ea3ae8666e", "is_reserved": 0, "lon": -77.02724233333333, "is_disabled": 0, "fusion_lat": 0.0, "lat": 38.924854833333335, "bike_id": "128e5675ab36fb28edbd06ea3ae8666e", "fusion_lon": 0.0}, {"rental_uris": {"ios": "https://dc.lft.to/lastmile_qr_scan", "android": "https://dc.lft.to/lastmile_qr_scan"}, "type": "electric_scooter", "name": "f4ed8490d2da9a67d8cd9ccb95193339", "is_reserved": 0, "lon": -77.034335, "is_disabled": 0, "fusion_lat": 0.0, "lat": 38.909765, "bike_id": "f4ed8490d2da9a67d8cd9ccb95193339", "fusion_lon": 0.0}, {"rental_uris": {"ios": "https://dc.lft.to/lastmile_qr_scan", "android": "https://dc.lft.to/lastmile_qr_scan"}, "type": "electric_scooter", "name": "accb3603abd9d512c40dacc7b9fe9fc3", "is_reserved": 0, "lon": -76.9840805, "is_disabled": 0, "fusion_lat": 0.0, "lat": 38.92521266666667, "bike_id": "accb3603abd9d512c40dacc7b9fe9fc3", "fusion_lon": 0.0}, {"rental_uris": {"ios": "https://dc.lft.to/lastmile_qr_scan", "android": "https://dc.lft.to/lastmile_qr_scan"}, "type": "electric_scooter", "name": "299575aa5a7fbb5b240088e8c6832c53", "is_reserved": 0, "lon": -77.0474415, "is_disabled": 0, "fusion_lat": 0.0, "lat": 38.912627666666666, "bike_id": "299575aa5a7fbb5b240088e8c6832c53", "fusion_lon": 0.0}, {"rental_uris": {"ios": "https://dc.lft.to/lastmile_qr_scan", "android": "https://dc.lft.to/lastmile_qr_scan"}, "type": "electric_scooter", "name": "76d6523e9307af4d51d7cae0c2cdf15e", "is_reserved": 0, "lon": -77.01961133333333, "is_disabled": 0, "fusion_lat": 0.0, "lat": 38.876294666666666, "bike_id": "76d6523e9307af4d51d7cae0c2cdf15e", "fusion_lon": 0.0}, {"rental_uris": {"ios": "https://dc.lft.to/lastmile_qr_scan", "android": "https://dc.lft.to/lastmile_qr_scan"}, "type": "electric_scooter", "name": "88c880e1c52f5c19fcb43357bb666851", "is_reserved": 0, "lon": -77.03471166666667, "is_disabled": 0, "fusion_lat": 0.0, "lat": 38.93021866666667, "bike_id": "88c880e1c52f5c19fcb43357bb666851", "fusion_lon": 0.0}, {"rental_uris": {"ios": "https://dc.lft.to/lastmile_qr_scan", "android": "https://dc.lft.to/lastmile_qr_scan"}, "type": "electric_bike", "name": "dff3c49aaa01a7c3ee9da5b451df650b", "is_reserved": 0, "lon": -76.88972233333334, "is_disabled": 0, "fusion_lat": 0.0, "lat": 39.0077305, "bike_id": "dff3c49aaa01a7c3ee9da5b451df650b", "fusion_lon": 0.0}, {"rental_uris": {"ios": "https://dc.lft.to/lastmile_qr_scan", "android": "https://dc.lft.to/lastmile_qr_scan"}, "type": "electric_scooter", "name": "7cc95582aea414b827e5a38dabcf1bd3", "is_reserved": 0, "lon": -76.9861215, "is_disabled": 0, "fusion_lat": 0.0, "lat": 38.87833666666667, "bike_id": "7cc95582aea414b827e5a38dabcf1bd3", "fusion_lon": 0.0}, {"rental_uris": {"ios": "https://dc.lft.to/lastmile_qr_scan", "android": "https://dc.lft.to/lastmile_qr_scan"}, "type": "electric_scooter", "name": "9e59ed2305a88297041fa30e0294e0f4", "is_reserved": 0, "lon": -77.034658, "is_disabled": 0, "fusion_lat": 0.0, "lat": 38.90736866666667, "bike_id": "9e59ed2305a88297041fa30e0294e0f4", "fusion_lon": 0.0}, {"rental_uris": {"ios": "https://dc.lft.to/lastmile_qr_scan", "android": "https://dc.lft.to/lastmile_qr_scan"}, "type": "electric_scooter", "name": "751ae52e467d33e6f08a7a9b5a6f469e", "is_reserved": 0, "lon": -77.00876866666667, "is_disabled": 0, "fusion_lat": 0.0, "lat": 38.9125825, "bike_id": "751ae52e467d33e6f08a7a9b5a6f469e", "fusion_lon": 0.0}, {"rental_uris": {"ios": "https://dc.lft.to/lastmile_qr_scan", "android": "https://dc.lft.to/lastmile_qr_scan"}, "type": "electric_scooter", "name": "d179c300c3b22eac7a385cdee6d4b8b3", "is_reserved": 0, "lon": -77.0245655, "is_disabled": 0, "fusion_lat": 0.0, "lat": 38.92505633333333, "bike_id": "d179c300c3b22eac7a385cdee6d4b8b3", "fusion_lon": 0.0}, {"rental_uris": {"ios": "https://dc.lft.to/lastmile_qr_scan", "android": "https://dc.lft.to/lastmile_qr_scan"}, "type": "electric_scooter", "name": "d580a980784c2fff35a794482a3146f5", "is_reserved": 0, "lon": -77.02056066666667, "is_disabled": 0, "fusion_lat": 0.0, "lat": 38.92248583333333, "bike_id": "d580a980784c2fff35a794482a3146f5", "fusion_lon": 0.0}, {"rental_uris": {"ios": "https://dc.lft.to/lastmile_qr_scan", "android": "https://dc.lft.to/lastmile_qr_scan"}, "type": "electric_scooter", "name": "6073290e2b7e2c56f094922d3f5c3b82", "is_reserved": 0, "lon": -77.03955533333334, "is_disabled": 0, "fusion_lat": 0.0, "lat": 38.8924715, "bike_id": "6073290e2b7e2c56f094922d3f5c3b82", "fusion_lon": 0.0}, {"rental_uris": {"ios": "https://dc.lft.to/lastmile_qr_scan", "android": "https://dc.lft.to/lastmile_qr_scan"}, "type": "electric_scooter", "name": "bc5b89db0dc5701e4b32c0cc841a9354", "is_reserved": 0, "lon": -76.99409433333334, "is_disabled": 0, "fusion_lat": 0.0, "lat": 38.87782166666667, "bike_id": "bc5b89db0dc5701e4b32c0cc841a9354", "fusion_lon": 0.0}, {"rental_uris": {"ios": "https://dc.lft.to/lastmile_qr_scan", "android": "https://dc.lft.to/lastmile_qr_scan"}, "type": "electric_scooter", "name": "2fcd3f313d2aac1ae0da10b6d6a8f9dd", "is_reserved": 0, "lon": -77.00935416666667, "is_disabled": 0, "fusion_lat": 0.0, "lat": 38.876725666666665, "bike_id": "2fcd3f313d2aac1ae0da10b6d6a8f9dd", "fusion_lon": 0.0}, {"rental_uris": {"ios": "https://dc.lft.to/lastmile_qr_scan", "android": "https://dc.lft.to/lastmile_qr_scan"}, "type": "electric_scooter", "name": "ef484a6720f4455b4d49571d1170924f", "is_reserved": 0, "lon": -77.03126133333333, "is_disabled": 0, "fusion_lat": 0.0, "lat": 38.918044, "bike_id": "ef484a6720f4455b4d49571d1170924f", "fusion_lon": 0.0}, {"rental_uris": {"ios": "https://dc.lft.to/lastmile_qr_scan", "android": "https://dc.lft.to/lastmile_qr_scan"}, "type": "electric_scooter", "name": "971def058a04389655e6f6dd9cb092f9", "is_reserved": 0, "lon": -77.03286116666666, "is_disabled": 0, "fusion_lat": 0.0, "lat": 38.9295185, "bike_id": "971def058a04389655e6f6dd9cb092f9", "fusion_lon": 0.0}, {"rental_uris": {"ios": "https://dc.lft.to/lastmile_qr_scan", "android": "https://dc.lft.to/lastmile_qr_scan"}, "type": "electric_scooter", "name": "7619b8e7db832f735965196e93b8be4e", "is_reserved": 0, "lon": -77.04366766666666, "is_disabled": 0, "fusion_lat": 0.0, "lat": 38.89221283333333, "bike_id": "7619b8e7db832f735965196e93b8be4e", "fusion_lon": 0.0}, {"rental_uris": {"ios": "https://dc.lft.to/lastmile_qr_scan", "android": "https://dc.lft.to/lastmile_qr_scan"}, "type": "electric_scooter", "name": "a13cf7d7d6d6a8cf12fb25f49d2e7929", "is_reserved": 0, "lon": -77.03424283333334, "is_disabled": 0, "fusion_lat": 0.0, "lat": 38.92192083333333, "bike_id": "a13cf7d7d6d6a8cf12fb25f49d2e7929", "fusion_lon": 0.0}, {"rental_uris": {"ios": "https://dc.lft.to/lastmile_qr_scan", "android": "https://dc.lft.to/lastmile_qr_scan"}, "type": "electric_scooter", "name": "9e7740800d416f8f60e2e4f59cfb3ab6", "is_reserved": 0, "lon": -77.01942666666666, "is_disabled": 0, "fusion_lat": 0.0, "lat": 38.92419066666667, "bike_id": "9e7740800d416f8f60e2e4f59cfb3ab6", "fusion_lon": 0.0}, {"rental_uris": {"ios": "https://dc.lft.to/lastmile_qr_scan", "android": "https://dc.lft.to/lastmile_qr_scan"}, "type": "electric_bike", "name": "c525b70cb8255f3b7592e85a92856e0a", "is_reserved": 0, "lon": -77.08533233333333, "is_disabled": 0, "fusion_lat": 0.0, "lat": 38.8564865, "bike_id": "c525b70cb8255f3b7592e85a92856e0a", "fusion_lon": 0.0}, {"rental_uris": {"ios": "https://dc.lft.to/lastmile_qr_scan", "android": "https://dc.lft.to/lastmile_qr_scan"}, "type": "electric_scooter", "name": "1ded3b03f2202210b8fbcabc312f1cce", "is_reserved": 0, "lon": -77.033143, "is_disabled": 0, "fusion_lat": 0.0, "lat": 38.898779833333336, "bike_id": "1ded3b03f2202210b8fbcabc312f1cce", "fusion_lon": 0.0}, {"rental_uris": {"ios": "https://dc.lft.to/lastmile_qr_scan", "android": "https://dc.lft.to/lastmile_qr_scan"}, "type": "electric_scooter", "name": "2f889f5db79b2974807a8f69606a1294", "is_reserved": 0, "lon": -77.09035533333333, "is_disabled": 0, "fusion_lat": 0.0, "lat": 38.9560135, "bike_id": "2f889f5db79b2974807a8f69606a1294", "fusion_lon": 0.0}, {"rental_uris": {"ios": "https://dc.lft.to/lastmile_qr_scan", "android": "https://dc.lft.to/lastmile_qr_scan"}, "type": "electric_scooter", "name": "832e3d0713bdda69e27c36d97c7cfe09", "is_reserved": 0, "lon": -77.01774166666667, "is_disabled": 0, "fusion_lat": 0.0, "lat": 38.90079866666667, "bike_id": "832e3d0713bdda69e27c36d97c7cfe09", "fusion_lon": 0.0}, {"rental_uris": {"ios": "https://dc.lft.to/lastmile_qr_scan", "android": "https://dc.lft.to/lastmile_qr_scan"}, "type": "electric_scooter", "name": "49e0f1a83f5a278e4e2e1721e1ebfe74", "is_reserved": 0, "lon": -76.9697835, "is_disabled": 0, "fusion_lat": 0.0, "lat": 38.861437333333335, "bike_id": "49e0f1a83f5a278e4e2e1721e1ebfe74", "fusion_lon": 0.0}, {"rental_uris": {"ios": "https://dc.lft.to/lastmile_qr_scan", "android": "https://dc.lft.to/lastmile_qr_scan"}, "type": "electric_scooter", "name": "4e76aadad17c292862050b80e022c235", "is_reserved": 0, "lon": -77.02475816666667, "is_disabled": 0, "fusion_lat": 0.0, "lat": 38.91813283333333, "bike_id": "4e76aadad17c292862050b80e022c235", "fusion_lon": 0.0}, {"rental_uris": {"ios": "https://dc.lft.to/lastmile_qr_scan", "android": "https://dc.lft.to/lastmile_qr_scan"}, "type": "electric_scooter", "name": "f226649d78f0da9bc27ec5c5935441e3", "is_reserved": 0, "lon": -77.02985883333334, "is_disabled": 0, "fusion_lat": 0.0, "lat": 38.90458733333333, "bike_id": "f226649d78f0da9bc27ec5c5935441e3", "fusion_lon": 0.0}, {"rental_uris": {"ios": "https://dc.lft.to/lastmile_qr_scan", "android": "https://dc.lft.to/lastmile_qr_scan"}, "type": "electric_scooter", "name": "3dbdf671d42389536d85c3385d6d648e", "is_reserved": 0, "lon": -77.04418966666667, "is_disabled": 0, "fusion_lat": 0.0, "lat": 38.901229666666666, "bike_id": "3dbdf671d42389536d85c3385d6d648e", "fusion_lon": 0.0}, {"rental_uris": {"ios": "https://dc.lft.to/lastmile_qr_scan", "android": "https://dc.lft.to/lastmile_qr_scan"}, "type": "electric_scooter", "name": "c44a97607db8442474a899f7a3a3c1a2", "is_reserved": 0, "lon": -76.98211433333333, "is_disabled": 0, "fusion_lat": 0.0, "lat": 38.886599833333335, "bike_id": "c44a97607db8442474a899f7a3a3c1a2", "fusion_lon": 0.0}, {"rental_uris": {"ios": "https://dc.lft.to/lastmile_qr_scan", "android": "https://dc.lft.to/lastmile_qr_scan"}, "type": "electric_scooter", "name": "3a36c8720ace615fc6bdc530fcdb3886", "is_reserved": 0, "lon": -77.017675, "is_disabled": 0, "fusion_lat": 0.0, "lat": 38.920975, "bike_id": "3a36c8720ace615fc6bdc530fcdb3886", "fusion_lon": 0.0}, {"rental_uris": {"ios": "https://dc.lft.to/lastmile_qr_scan", "android": "https://dc.lft.to/lastmile_qr_scan"}, "type": "electric_scooter", "name": "05c076d4ec1e336b0f7215a713fcddc3", "is_reserved": 0, "lon": -77.06748366666666, "is_disabled": 0, "fusion_lat": 0.0, "lat": 38.904998166666665, "bike_id": "05c076d4ec1e336b0f7215a713fcddc3", "fusion_lon": 0.0}, {"rental_uris": {"ios": "https://dc.lft.to/lastmile_qr_scan", "android": "https://dc.lft.to/lastmile_qr_scan"}, "type": "electric_scooter", "name": "6369f54bf3c0398553181971c44a4b92", "is_reserved": 0, "lon": -77.013587, "is_disabled": 0, "fusion_lat": 0.0, "lat": 38.91925666666667, "bike_id": "6369f54bf3c0398553181971c44a4b92", "fusion_lon": 0.0}, {"rental_uris": {"ios": "https://dc.lft.to/lastmile_qr_scan", "android": "https://dc.lft.to/lastmile_qr_scan"}, "type": "electric_bike", "name": "5c7f05adc70ed043dcb776ad04007f05", "is_reserved": 0, "lon": -76.93330416666667, "is_disabled": 0, "fusion_lat": 0.0, "lat": 38.95151533333333, "bike_id": "5c7f05adc70ed043dcb776ad04007f05", "fusion_lon": 0.0}, {"rental_uris": {"ios": "https://dc.lft.to/lastmile_qr_scan", "android": "https://dc.lft.to/lastmile_qr_scan"}, "type": "electric_scooter", "name": "a5b3c1da48f2a812f072f6bc9982aa28", "is_reserved": 0, "lon": -77.03221716666667, "is_disabled": 0, "fusion_lat": 0.0, "lat": 38.90955, "bike_id": "a5b3c1da48f2a812f072f6bc9982aa28", "fusion_lon": 0.0}, {"rental_uris": {"ios": "https://dc.lft.to/lastmile_qr_scan", "android": "https://dc.lft.to/lastmile_qr_scan"}, "type": "electric_scooter", "name": "2bdb0c1a85df2d90b3cebbe25807482b", "is_reserved": 0, "lon": -77.00452933333334, "is_disabled": 0, "fusion_lat": 0.0, "lat": 38.8378835, "bike_id": "2bdb0c1a85df2d90b3cebbe25807482b", "fusion_lon": 0.0}, {"rental_uris": {"ios": "https://dc.lft.to/lastmile_qr_scan", "android": "https://dc.lft.to/lastmile_qr_scan"}, "type": "electric_scooter", "name": "1d86ae7b48b3b3d39c24793a749a731a", "is_reserved": 0, "lon": -77.029756, "is_disabled": 0, "fusion_lat": 0.0, "lat": 38.92310966666667, "bike_id": "1d86ae7b48b3b3d39c24793a749a731a", "fusion_lon": 0.0}, {"rental_uris": {"ios": "https://dc.lft.to/lastmile_qr_scan", "android": "https://dc.lft.to/lastmile_qr_scan"}, "type": "electric_scooter", "name": "02f72ff1e1234816f5252aede67bd811", "is_reserved": 0, "lon": -76.99635366666666, "is_disabled": 0, "fusion_lat": 0.0, "lat": 38.877393, "bike_id": "02f72ff1e1234816f5252aede67bd811", "fusion_lon": 0.0}, {"rental_uris": {"ios": "https://dc.lft.to/lastmile_qr_scan", "android": "https://dc.lft.to/lastmile_qr_scan"}, "type": "electric_scooter", "name": "f25c38eb9f12570ff80583b825bcd803", "is_reserved": 0, "lon": -77.04002533333333, "is_disabled": 0, "fusion_lat": 0.0, "lat": 38.922456333333336, "bike_id": "f25c38eb9f12570ff80583b825bcd803", "fusion_lon": 0.0}, {"rental_uris": {"ios": "https://dc.lft.to/lastmile_qr_scan", "android": "https://dc.lft.to/lastmile_qr_scan"}, "type": "electric_scooter", "name": "39902e8e29cee5f2a2b1086759e66eff", "is_reserved": 0, "lon": -77.02233466666667, "is_disabled": 0, "fusion_lat": 0.0, "lat": 38.89222783333334, "bike_id": "39902e8e29cee5f2a2b1086759e66eff", "fusion_lon": 0.0}, {"rental_uris": {"ios": "https://dc.lft.to/lastmile_qr_scan", "android": "https://dc.lft.to/lastmile_qr_scan"}, "type": "electric_scooter", "name": "a304c7b2b804f6e68d341a57b5531cf5", "is_reserved": 0, "lon": -77.02463516666667, "is_disabled": 0, "fusion_lat": 0.0, "lat": 38.93952566666667, "bike_id": "a304c7b2b804f6e68d341a57b5531cf5", "fusion_lon": 0.0}, {"rental_uris": {"ios": "https://dc.lft.to/lastmile_qr_scan", "android": "https://dc.lft.to/lastmile_qr_scan"}, "type": "electric_scooter", "name": "39d1e9be034cd3888af165f043fbe037", "is_reserved": 0, "lon": -77.03176466666666, "is_disabled": 0, "fusion_lat": 0.0, "lat": 38.887398166666664, "bike_id": "39d1e9be034cd3888af165f043fbe037", "fusion_lon": 0.0}, {"rental_uris": {"ios": "https://dc.lft.to/lastmile_qr_scan", "android": "https://dc.lft.to/lastmile_qr_scan"}, "type": "electric_scooter", "name": "9af4eede18aefd5162371d1210b15799", "is_reserved": 0, "lon": -76.998397, "is_disabled": 0, "fusion_lat": 0.0, "lat": 38.8919525, "bike_id": "9af4eede18aefd5162371d1210b15799", "fusion_lon": 0.0}, {"rental_uris": {"ios": "https://dc.lft.to/lastmile_qr_scan", "android": "https://dc.lft.to/lastmile_qr_scan"}, "type": "electric_scooter", "name": "2b817a6146a8ca80a1e383910836e07e", "is_reserved": 0, "lon": -77.056236, "is_disabled": 0, "fusion_lat": 0.0, "lat": 38.906839166666664, "bike_id": "2b817a6146a8ca80a1e383910836e07e", "fusion_lon": 0.0}, {"rental_uris": {"ios": "https://dc.lft.to/lastmile_qr_scan", "android": "https://dc.lft.to/lastmile_qr_scan"}, "type": "electric_scooter", "name": "a5ebf48444953aab2eddb17650ad1aae", "is_reserved": 0, "lon": -77.0395935, "is_disabled": 0, "fusion_lat": 0.0, "lat": 38.8924385, "bike_id": "a5ebf48444953aab2eddb17650ad1aae", "fusion_lon": 0.0}, {"rental_uris": {"ios": "https://dc.lft.to/lastmile_qr_scan", "android": "https://dc.lft.to/lastmile_qr_scan"}, "type": "electric_scooter", "name": "692bd681fe2dbacddfcbeef1aee32137", "is_reserved": 0, "lon": -77.017701, "is_disabled": 0, "fusion_lat": 0.0, "lat": 38.90275283333333, "bike_id": "692bd681fe2dbacddfcbeef1aee32137", "fusion_lon": 0.0}, {"rental_uris": {"ios": "https://dc.lft.to/lastmile_qr_scan", "android": "https://dc.lft.to/lastmile_qr_scan"}, "type": "electric_bike", "name": "3b20488c2af62ed88bd7e6ca4c74f568", "is_reserved": 0, "lon": -76.9073475, "is_disabled": 0, "fusion_lat": 0.0, "lat": 38.89616066666667, "bike_id": "3b20488c2af62ed88bd7e6ca4c74f568", "fusion_lon": 0.0}, {"rental_uris": {"ios": "https://dc.lft.to/lastmile_qr_scan", "android": "https://dc.lft.to/lastmile_qr_scan"}, "type": "electric_scooter", "name": "2649d1da3eabaa3a281f46211faf366b", "is_reserved": 0, "lon": -77.03999733333333, "is_disabled": 0, "fusion_lat": 0.0, "lat": 38.902914333333335, "bike_id": "2649d1da3eabaa3a281f46211faf366b", "fusion_lon": 0.0}, {"rental_uris": {"ios": "https://dc.lft.to/lastmile_qr_scan", "android": "https://dc.lft.to/lastmile_qr_scan"}, "type": "electric_scooter", "name": "e5ceaeee781a1ddecf37e7247dffb862", "is_reserved": 0, "lon": -76.99234083333333, "is_disabled": 0, "fusion_lat": 0.0, "lat": 38.88749216666667, "bike_id": "e5ceaeee781a1ddecf37e7247dffb862", "fusion_lon": 0.0}, {"rental_uris": {"ios": "https://dc.lft.to/lastmile_qr_scan", "android": "https://dc.lft.to/lastmile_qr_scan"}, "type": "electric_scooter", "name": "c11e9ddacd6446bebd25463bb09f54ee", "is_reserved": 0, "lon": -77.022043, "is_disabled": 0, "fusion_lat": 0.0, "lat": 38.910146, "bike_id": "c11e9ddacd6446bebd25463bb09f54ee", "fusion_lon": 0.0}, {"rental_uris": {"ios": "https://dc.lft.to/lastmile_qr_scan", "android": "https://dc.lft.to/lastmile_qr_scan"}, "type": "electric_scooter", "name": "a9d7578c907e7c3525df3999499c827c", "is_reserved": 0, "lon": -77.0077195, "is_disabled": 0, "fusion_lat": 0.0, "lat": 38.90721033333333, "bike_id": "a9d7578c907e7c3525df3999499c827c", "fusion_lon": 0.0}, {"rental_uris": {"ios": "https://dc.lft.to/lastmile_qr_scan", "android": "https://dc.lft.to/lastmile_qr_scan"}, "type": "electric_scooter", "name": "e508039c6ee72cca4cc2002935ed6342", "is_reserved": 0, "lon": -77.0335435, "is_disabled": 0, "fusion_lat": 0.0, "lat": 38.928833, "bike_id": "e508039c6ee72cca4cc2002935ed6342", "fusion_lon": 0.0}, {"rental_uris": {"ios": "https://dc.lft.to/lastmile_qr_scan", "android": "https://dc.lft.to/lastmile_qr_scan"}, "type": "electric_scooter", "name": "11f41880885d7ce23549cc090e0f7074", "is_reserved": 0, "lon": -77.00828633333333, "is_disabled": 0, "fusion_lat": 0.0, "lat": 38.9136505, "bike_id": "11f41880885d7ce23549cc090e0f7074", "fusion_lon": 0.0}, {"rental_uris": {"ios": "https://dc.lft.to/lastmile_qr_scan", "android": "https://dc.lft.to/lastmile_qr_scan"}, "type": "electric_scooter", "name": "233ea41f4a8425ae80445fb7002ec32f", "is_reserved": 0, "lon": -77.02985516666666, "is_disabled": 0, "fusion_lat": 0.0, "lat": 38.92370183333333, "bike_id": "233ea41f4a8425ae80445fb7002ec32f", "fusion_lon": 0.0}, {"rental_uris": {"ios": "https://dc.lft.to/lastmile_qr_scan", "android": "https://dc.lft.to/lastmile_qr_scan"}, "type": "electric_scooter", "name": "db01e64370080dfe25ec73690637d4d9", "is_reserved": 0, "lon": -77.06776366666666, "is_disabled": 0, "fusion_lat": 0.0, "lat": 38.9087685, "bike_id": "db01e64370080dfe25ec73690637d4d9", "fusion_lon": 0.0}, {"rental_uris": {"ios": "https://dc.lft.to/lastmile_qr_scan", "android": "https://dc.lft.to/lastmile_qr_scan"}, "type": "electric_scooter", "name": "57c6a851fc9b0ab009a813cbafb3e754", "is_reserved": 0, "lon": -77.04218916666666, "is_disabled": 0, "fusion_lat": 0.0, "lat": 38.911111166666664, "bike_id": "57c6a851fc9b0ab009a813cbafb3e754", "fusion_lon": 0.0}, {"rental_uris": {"ios": "https://dc.lft.to/lastmile_qr_scan", "android": "https://dc.lft.to/lastmile_qr_scan"}, "type": "electric_scooter", "name": "fc655b08193ea98b1a9510ced387e3de", "is_reserved": 0, "lon": -77.03746216666667, "is_disabled": 0, "fusion_lat": 0.0, "lat": 38.93204433333333, "bike_id": "fc655b08193ea98b1a9510ced387e3de", "fusion_lon": 0.0}, {"rental_uris": {"ios": "https://dc.lft.to/lastmile_qr_scan", "android": "https://dc.lft.to/lastmile_qr_scan"}, "type": "electric_scooter", "name": "2fc451b44babde0483b5d860887977aa", "is_reserved": 0, "lon": -77.04385833333333, "is_disabled": 0, "fusion_lat": 0.0, "lat": 38.917061333333336, "bike_id": "2fc451b44babde0483b5d860887977aa", "fusion_lon": 0.0}, {"rental_uris": {"ios": "https://dc.lft.to/lastmile_qr_scan", "android": "https://dc.lft.to/lastmile_qr_scan"}, "type": "electric_scooter", "name": "0bb1f0286999caa486c00ed9078f1e1e", "is_reserved": 0, "lon": -77.038634, "is_disabled": 0, "fusion_lat": 0.0, "lat": 38.9111075, "bike_id": "0bb1f0286999caa486c00ed9078f1e1e", "fusion_lon": 0.0}, {"rental_uris": {"ios": "https://dc.lft.to/lastmile_qr_scan", "android": "https://dc.lft.to/lastmile_qr_scan"}, "type": "electric_scooter", "name": "2940d97b866c6942b78e064af53abd33", "is_reserved": 0, "lon": -77.03342416666666, "is_disabled": 0, "fusion_lat": 0.0, "lat": 38.897246, "bike_id": "2940d97b866c6942b78e064af53abd33", "fusion_lon": 0.0}, {"rental_uris": {"ios": "https://dc.lft.to/lastmile_qr_scan", "android": "https://dc.lft.to/lastmile_qr_scan"}, "type": "electric_scooter", "name": "15b6d6911bae3cd400b7cec3b851fc5e", "is_reserved": 0, "lon": -77.02787866666667, "is_disabled": 0, "fusion_lat": 0.0, "lat": 38.9275955, "bike_id": "15b6d6911bae3cd400b7cec3b851fc5e", "fusion_lon": 0.0}, {"rental_uris": {"ios": "https://dc.lft.to/lastmile_qr_scan", "android": "https://dc.lft.to/lastmile_qr_scan"}, "type": "electric_bike", "name": "f5989eb8408dd113cc9eb84c4db16561", "is_reserved": 0, "lon": -76.95750316666667, "is_disabled": 0, "fusion_lat": 0.0, "lat": 38.888616999999996, "bike_id": "f5989eb8408dd113cc9eb84c4db16561", "fusion_lon": 0.0}, {"rental_uris": {"ios": "https://dc.lft.to/lastmile_qr_scan", "android": "https://dc.lft.to/lastmile_qr_scan"}, "type": "electric_scooter", "name": "320f3cfff41c32ffa8e930a7c220674c", "is_reserved": 0, "lon": -77.03137883333333, "is_disabled": 0, "fusion_lat": 0.0, "lat": 38.9180605, "bike_id": "320f3cfff41c32ffa8e930a7c220674c", "fusion_lon": 0.0}, {"rental_uris": {"ios": "https://dc.lft.to/lastmile_qr_scan", "android": "https://dc.lft.to/lastmile_qr_scan"}, "type": "electric_scooter", "name": "3d9816f973f0bd0aacb54a9d19082a8b", "is_reserved": 0, "lon": -77.04549666666666, "is_disabled": 0, "fusion_lat": 0.0, "lat": 38.90958533333333, "bike_id": "3d9816f973f0bd0aacb54a9d19082a8b", "fusion_lon": 0.0}, {"rental_uris": {"ios": "https://dc.lft.to/lastmile_qr_scan", "android": "https://dc.lft.to/lastmile_qr_scan"}, "type": "electric_scooter", "name": "afa9ed205f96af5633cf5d4385469b22", "is_reserved": 0, "lon": -77.0395345, "is_disabled": 0, "fusion_lat": 0.0, "lat": 38.892499666666666, "bike_id": "afa9ed205f96af5633cf5d4385469b22", "fusion_lon": 0.0}, {"rental_uris": {"ios": "https://dc.lft.to/lastmile_qr_scan", "android": "https://dc.lft.to/lastmile_qr_scan"}, "type": "electric_scooter", "name": "5df96c4efe17152dc4e1d967a7af84e5", "is_reserved": 0, "lon": -76.94720916666667, "is_disabled": 0, "fusion_lat": 0.0, "lat": 38.890838333333335, "bike_id": "5df96c4efe17152dc4e1d967a7af84e5", "fusion_lon": 0.0}, {"rental_uris": {"ios": "https://dc.lft.to/lastmile_qr_scan", "android": "https://dc.lft.to/lastmile_qr_scan"}, "type": "electric_scooter", "name": "789e55181b6f79d6d0b388a459133f1d", "is_reserved": 0, "lon": -77.0104375, "is_disabled": 0, "fusion_lat": 0.0, "lat": 38.911111, "bike_id": "789e55181b6f79d6d0b388a459133f1d", "fusion_lon": 0.0}, {"rental_uris": {"ios": "https://dc.lft.to/lastmile_qr_scan", "android": "https://dc.lft.to/lastmile_qr_scan"}, "type": "electric_scooter", "name": "1be663802ce643cda82d9dfc4bbc52d3", "is_reserved": 0, "lon": -77.0424035, "is_disabled": 0, "fusion_lat": 0.0, "lat": 38.90562416666667, "bike_id": "1be663802ce643cda82d9dfc4bbc52d3", "fusion_lon": 0.0}, {"rental_uris": {"ios": "https://dc.lft.to/lastmile_qr_scan", "android": "https://dc.lft.to/lastmile_qr_scan"}, "type": "electric_scooter", "name": "ad802a7ef3c2e12183f12fc0d1ba7a8a", "is_reserved": 0, "lon": -77.0019435, "is_disabled": 0, "fusion_lat": 0.0, "lat": 38.892862, "bike_id": "ad802a7ef3c2e12183f12fc0d1ba7a8a", "fusion_lon": 0.0}, {"rental_uris": {"ios": "https://dc.lft.to/lastmile_qr_scan", "android": "https://dc.lft.to/lastmile_qr_scan"}, "type": "electric_bike", "name": "6cdecc52d23c4c3ec2bca9c60295bd5f", "is_reserved": 0, "lon": -77.0075695, "is_disabled": 0, "fusion_lat": 0.0, "lat": 38.997888, "bike_id": "6cdecc52d23c4c3ec2bca9c60295bd5f", "fusion_lon": 0.0}, {"rental_uris": {"ios": "https://dc.lft.to/lastmile_qr_scan", "android": "https://dc.lft.to/lastmile_qr_scan"}, "type": "electric_bike", "name": "c3fd7fd7773cde1bd6bc6474de0bebcf", "is_reserved": 0, "lon": -77.03285466666667, "is_disabled": 0, "fusion_lat": 0.0, "lat": 38.9356915, "bike_id": "c3fd7fd7773cde1bd6bc6474de0bebcf", "fusion_lon": 0.0}, {"rental_uris": {"ios": "https://dc.lft.to/lastmile_qr_scan", "android": "https://dc.lft.to/lastmile_qr_scan"}, "type": "electric_scooter", "name": "bf03df88f12698e1fd736c14fdda2367", "is_reserved": 0, "lon": -76.93427566666666, "is_disabled": 0, "fusion_lat": 0.0, "lat": 38.899183, "bike_id": "bf03df88f12698e1fd736c14fdda2367", "fusion_lon": 0.0}, {"rental_uris": {"ios": "https://dc.lft.to/lastmile_qr_scan", "android": "https://dc.lft.to/lastmile_qr_scan"}, "type": "electric_scooter", "name": "a1453bc7456855e2372e3a4950c338de", "is_reserved": 0, "lon": -76.9960495, "is_disabled": 0, "fusion_lat": 0.0, "lat": 38.92031816666667, "bike_id": "a1453bc7456855e2372e3a4950c338de", "fusion_lon": 0.0}, {"rental_uris": {"ios": "https://dc.lft.to/lastmile_qr_scan", "android": "https://dc.lft.to/lastmile_qr_scan"}, "type": "electric_scooter", "name": "ece76495ff0382f618e058b1dc58fe37", "is_reserved": 0, "lon": -76.99494083333333, "is_disabled": 0, "fusion_lat": 0.0, "lat": 38.86218266666667, "bike_id": "ece76495ff0382f618e058b1dc58fe37", "fusion_lon": 0.0}, {"rental_uris": {"ios": "https://dc.lft.to/lastmile_qr_scan", "android": "https://dc.lft.to/lastmile_qr_scan"}, "type": "electric_scooter", "name": "66c593eb103ee950711e0396ace7d56f", "is_reserved": 0, "lon": -77.02899766666667, "is_disabled": 0, "fusion_lat": 0.0, "lat": 38.9167555, "bike_id": "66c593eb103ee950711e0396ace7d56f", "fusion_lon": 0.0}, {"rental_uris": {"ios": "https://dc.lft.to/lastmile_qr_scan", "android": "https://dc.lft.to/lastmile_qr_scan"}, "type": "electric_scooter", "name": "cf62ea4ae15491e4772b17c742359bc8", "is_reserved": 0, "lon": -77.01859716666667, "is_disabled": 0, "fusion_lat": 0.0, "lat": 38.894682833333334, "bike_id": "cf62ea4ae15491e4772b17c742359bc8", "fusion_lon": 0.0}, {"rental_uris": {"ios": "https://dc.lft.to/lastmile_qr_scan", "android": "https://dc.lft.to/lastmile_qr_scan"}, "type": "electric_scooter", "name": "6e25de9237cbd93793a5b971763bb35c", "is_reserved": 0, "lon": -76.99910816666667, "is_disabled": 0, "fusion_lat": 0.0, "lat": 38.92458466666667, "bike_id": "6e25de9237cbd93793a5b971763bb35c", "fusion_lon": 0.0}, {"rental_uris": {"ios": "https://dc.lft.to/lastmile_qr_scan", "android": "https://dc.lft.to/lastmile_qr_scan"}, "type": "electric_scooter", "name": "2ac01cb2f2b32ecfec7d79b811e0a3be", "is_reserved": 0, "lon": -77.0318265, "is_disabled": 0, "fusion_lat": 0.0, "lat": 38.913464166666664, "bike_id": "2ac01cb2f2b32ecfec7d79b811e0a3be", "fusion_lon": 0.0}, {"rental_uris": {"ios": "https://dc.lft.to/lastmile_qr_scan", "android": "https://dc.lft.to/lastmile_qr_scan"}, "type": "electric_scooter", "name": "ed689d6d348dce4dbb24c3f2501273e0", "is_reserved": 0, "lon": -77.04370433333334, "is_disabled": 0, "fusion_lat": 0.0, "lat": 38.8922205, "bike_id": "ed689d6d348dce4dbb24c3f2501273e0", "fusion_lon": 0.0}, {"rental_uris": {"ios": "https://dc.lft.to/lastmile_qr_scan", "android": "https://dc.lft.to/lastmile_qr_scan"}, "type": "electric_scooter", "name": "2c1b91f63bb3a3e01718d56046f8ed55", "is_reserved": 0, "lon": -77.02305283333334, "is_disabled": 0, "fusion_lat": 0.0, "lat": 38.927263333333336, "bike_id": "2c1b91f63bb3a3e01718d56046f8ed55", "fusion_lon": 0.0}, {"rental_uris": {"ios": "https://dc.lft.to/lastmile_qr_scan", "android": "https://dc.lft.to/lastmile_qr_scan"}, "type": "electric_scooter", "name": "6cc56e5eafffc759c411040cf17c2e60", "is_reserved": 0, "lon": -76.98110316666667, "is_disabled": 0, "fusion_lat": 0.0, "lat": 38.864138833333335, "bike_id": "6cc56e5eafffc759c411040cf17c2e60", "fusion_lon": 0.0}, {"rental_uris": {"ios": "https://dc.lft.to/lastmile_qr_scan", "android": "https://dc.lft.to/lastmile_qr_scan"}, "type": "electric_scooter", "name": "7428dfd84bbabef57ebede7ff9817a89", "is_reserved": 0, "lon": -77.06285166666666, "is_disabled": 0, "fusion_lat": 0.0, "lat": 38.912424666666666, "bike_id": "7428dfd84bbabef57ebede7ff9817a89", "fusion_lon": 0.0}, {"rental_uris": {"ios": "https://dc.lft.to/lastmile_qr_scan", "android": "https://dc.lft.to/lastmile_qr_scan"}, "type": "electric_scooter", "name": "0e2277e82545b1eeabd2650941c919f3", "is_reserved": 0, "lon": -77.022114, "is_disabled": 0, "fusion_lat": 0.0, "lat": 38.89847283333334, "bike_id": "0e2277e82545b1eeabd2650941c919f3", "fusion_lon": 0.0}, {"rental_uris": {"ios": "https://dc.lft.to/lastmile_qr_scan", "android": "https://dc.lft.to/lastmile_qr_scan"}, "type": "electric_scooter", "name": "0daf19380c382fd58fec19c0fb345b9a", "is_reserved": 0, "lon": -77.01997183333333, "is_disabled": 0, "fusion_lat": 0.0, "lat": 38.911557, "bike_id": "0daf19380c382fd58fec19c0fb345b9a", "fusion_lon": 0.0}, {"rental_uris": {"ios": "https://dc.lft.to/lastmile_qr_scan", "android": "https://dc.lft.to/lastmile_qr_scan"}, "type": "electric_scooter", "name": "c3b4f6a965e560f592667be7191db807", "is_reserved": 0, "lon": -77.02419533333334, "is_disabled": 0, "fusion_lat": 0.0, "lat": 38.923255166666664, "bike_id": "c3b4f6a965e560f592667be7191db807", "fusion_lon": 0.0}, {"rental_uris": {"ios": "https://dc.lft.to/lastmile_qr_scan", "android": "https://dc.lft.to/lastmile_qr_scan"}, "type": "electric_scooter", "name": "3e069ec86d47fbb22e27d542cf303ece", "is_reserved": 0, "lon": -77.02386833333334, "is_disabled": 0, "fusion_lat": 0.0, "lat": 38.92071516666667, "bike_id": "3e069ec86d47fbb22e27d542cf303ece", "fusion_lon": 0.0}, {"rental_uris": {"ios": "https://dc.lft.to/lastmile_qr_scan", "android": "https://dc.lft.to/lastmile_qr_scan"}, "type": "electric_scooter", "name": "646dde9f6d0f196896ae5c7ce5ebfa55", "is_reserved": 0, "lon": -77.04199933333334, "is_disabled": 0, "fusion_lat": 0.0, "lat": 38.903599666666665, "bike_id": "646dde9f6d0f196896ae5c7ce5ebfa55", "fusion_lon": 0.0}, {"rental_uris": {"ios": "https://dc.lft.to/lastmile_qr_scan", "android": "https://dc.lft.to/lastmile_qr_scan"}, "type": "electric_scooter", "name": "9d1f2d3c2d2bcac9fc42be1e9db9e867", "is_reserved": 0, "lon": -77.0120895, "is_disabled": 0, "fusion_lat": 0.0, "lat": 38.917151, "bike_id": "9d1f2d3c2d2bcac9fc42be1e9db9e867", "fusion_lon": 0.0}, {"rental_uris": {"ios": "https://dc.lft.to/lastmile_qr_scan", "android": "https://dc.lft.to/lastmile_qr_scan"}, "type": "electric_scooter", "name": "6ef9eb5b2e77616f0800091e606d7031", "is_reserved": 0, "lon": -77.01604116666667, "is_disabled": 0, "fusion_lat": 0.0, "lat": 38.87626433333333, "bike_id": "6ef9eb5b2e77616f0800091e606d7031", "fusion_lon": 0.0}, {"rental_uris": {"ios": "https://dc.lft.to/lastmile_qr_scan", "android": "https://dc.lft.to/lastmile_qr_scan"}, "type": "electric_scooter", "name": "93b41f9a84c06b4691c4c6d36193b98e", "is_reserved": 0, "lon": -77.03417383333333, "is_disabled": 0, "fusion_lat": 0.0, "lat": 38.93077733333333, "bike_id": "93b41f9a84c06b4691c4c6d36193b98e", "fusion_lon": 0.0}, {"rental_uris": {"ios": "https://dc.lft.to/lastmile_qr_scan", "android": "https://dc.lft.to/lastmile_qr_scan"}, "type": "electric_scooter", "name": "b445854418122c30d6970ff5fb3a9d05", "is_reserved": 0, "lon": -77.02796166666667, "is_disabled": 0, "fusion_lat": 0.0, "lat": 38.90561366666667, "bike_id": "b445854418122c30d6970ff5fb3a9d05", "fusion_lon": 0.0}, {"rental_uris": {"ios": "https://dc.lft.to/lastmile_qr_scan", "android": "https://dc.lft.to/lastmile_qr_scan"}, "type": "electric_scooter", "name": "71a4c7caf90382b18af1acad09f56ee9", "is_reserved": 0, "lon": -77.032288, "is_disabled": 0, "fusion_lat": 0.0, "lat": 38.93868616666666, "bike_id": "71a4c7caf90382b18af1acad09f56ee9", "fusion_lon": 0.0}, {"rental_uris": {"ios": "https://dc.lft.to/lastmile_qr_scan", "android": "https://dc.lft.to/lastmile_qr_scan"}, "type": "electric_scooter", "name": "41a8922aed6fb81e50cf04c2c43c5482", "is_reserved": 0, "lon": -77.0043115, "is_disabled": 0, "fusion_lat": 0.0, "lat": 38.92086033333333, "bike_id": "41a8922aed6fb81e50cf04c2c43c5482", "fusion_lon": 0.0}, {"rental_uris": {"ios": "https://dc.lft.to/lastmile_qr_scan", "android": "https://dc.lft.to/lastmile_qr_scan"}, "type": "electric_scooter", "name": "d4131b692b08854e71a8ef855d81dc95", "is_reserved": 0, "lon": -77.06595, "is_disabled": 0, "fusion_lat": 0.0, "lat": 38.906164833333335, "bike_id": "d4131b692b08854e71a8ef855d81dc95", "fusion_lon": 0.0}, {"rental_uris": {"ios": "https://dc.lft.to/lastmile_qr_scan", "android": "https://dc.lft.to/lastmile_qr_scan"}, "type": "electric_scooter", "name": "d16b6abd172bff284786727013aa1ab1", "is_reserved": 0, "lon": -77.00582833333333, "is_disabled": 0, "fusion_lat": 0.0, "lat": 38.900321166666664, "bike_id": "d16b6abd172bff284786727013aa1ab1", "fusion_lon": 0.0}, {"rental_uris": {"ios": "https://dc.lft.to/lastmile_qr_scan", "android": "https://dc.lft.to/lastmile_qr_scan"}, "type": "electric_scooter", "name": "45d8e79a817ff954eec3c69e190c0f2b", "is_reserved": 0, "lon": -77.009196, "is_disabled": 0, "fusion_lat": 0.0, "lat": 38.897422166666665, "bike_id": "45d8e79a817ff954eec3c69e190c0f2b", "fusion_lon": 0.0}, {"rental_uris": {"ios": "https://dc.lft.to/lastmile_qr_scan", "android": "https://dc.lft.to/lastmile_qr_scan"}, "type": "electric_scooter", "name": "0f36a2aa98ab99d61b3b9df49e94d308", "is_reserved": 0, "lon": -77.0152865, "is_disabled": 0, "fusion_lat": 0.0, "lat": 38.87952033333333, "bike_id": "0f36a2aa98ab99d61b3b9df49e94d308", "fusion_lon": 0.0}, {"rental_uris": {"ios": "https://dc.lft.to/lastmile_qr_scan", "android": "https://dc.lft.to/lastmile_qr_scan"}, "type": "electric_scooter", "name": "ec8e819974b373a9fa5c8014751c6fef", "is_reserved": 0, "lon": -77.03206433333334, "is_disabled": 0, "fusion_lat": 0.0, "lat": 38.907067833333336, "bike_id": "ec8e819974b373a9fa5c8014751c6fef", "fusion_lon": 0.0}, {"rental_uris": {"ios": "https://dc.lft.to/lastmile_qr_scan", "android": "https://dc.lft.to/lastmile_qr_scan"}, "type": "electric_scooter", "name": "c9492046a2e094b73cb19c1693815eda", "is_reserved": 0, "lon": -77.050052, "is_disabled": 0, "fusion_lat": 0.0, "lat": 38.904815, "bike_id": "c9492046a2e094b73cb19c1693815eda", "fusion_lon": 0.0}, {"rental_uris": {"ios": "https://dc.lft.to/lastmile_qr_scan", "android": "https://dc.lft.to/lastmile_qr_scan"}, "type": "electric_scooter", "name": "d3ce36527d91d9e94eacae1c9d7d4f97", "is_reserved": 0, "lon": -77.047797, "is_disabled": 0, "fusion_lat": 0.0, "lat": 38.8978655, "bike_id": "d3ce36527d91d9e94eacae1c9d7d4f97", "fusion_lon": 0.0}, {"rental_uris": {"ios": "https://dc.lft.to/lastmile_qr_scan", "android": "https://dc.lft.to/lastmile_qr_scan"}, "type": "electric_scooter", "name": "5927c3c9fc94a05fe58b7d5b51aa1c7a", "is_reserved": 0, "lon": -77.03560133333333, "is_disabled": 0, "fusion_lat": 0.0, "lat": 38.90474833333333, "bike_id": "5927c3c9fc94a05fe58b7d5b51aa1c7a", "fusion_lon": 0.0}, {"rental_uris": {"ios": "https://dc.lft.to/lastmile_qr_scan", "android": "https://dc.lft.to/lastmile_qr_scan"}, "type": "electric_scooter", "name": "23339c88a179fac799ac9f9255f02860", "is_reserved": 0, "lon": -77.02287783333334, "is_disabled": 0, "fusion_lat": 0.0, "lat": 38.920865666666664, "bike_id": "23339c88a179fac799ac9f9255f02860", "fusion_lon": 0.0}, {"rental_uris": {"ios": "https://dc.lft.to/lastmile_qr_scan", "android": "https://dc.lft.to/lastmile_qr_scan"}, "type": "electric_scooter", "name": "aa9b75f2bbc9fd081ae660fcd88a7251", "is_reserved": 0, "lon": -76.9837585, "is_disabled": 0, "fusion_lat": 0.0, "lat": 38.8602925, "bike_id": "aa9b75f2bbc9fd081ae660fcd88a7251", "fusion_lon": 0.0}, {"rental_uris": {"ios": "https://dc.lft.to/lastmile_qr_scan", "android": "https://dc.lft.to/lastmile_qr_scan"}, "type": "electric_scooter", "name": "357ac0ee377ec233018e15dee1285b8d", "is_reserved": 0, "lon": -77.02244283333333, "is_disabled": 0, "fusion_lat": 0.0, "lat": 38.926753166666664, "bike_id": "357ac0ee377ec233018e15dee1285b8d", "fusion_lon": 0.0}, {"rental_uris": {"ios": "https://dc.lft.to/lastmile_qr_scan", "android": "https://dc.lft.to/lastmile_qr_scan"}, "type": "electric_scooter", "name": "a8b685a28a3673fefcde4789d898aa90", "is_reserved": 0, "lon": -77.05325766666667, "is_disabled": 0, "fusion_lat": 0.0, "lat": 38.9072995, "bike_id": "a8b685a28a3673fefcde4789d898aa90", "fusion_lon": 0.0}, {"rental_uris": {"ios": "https://dc.lft.to/lastmile_qr_scan", "android": "https://dc.lft.to/lastmile_qr_scan"}, "type": "electric_scooter", "name": "430bdf4d09647942af9b509a3cdd20a4", "is_reserved": 0, "lon": -77.00508416666666, "is_disabled": 0, "fusion_lat": 0.0, "lat": 38.905559833333335, "bike_id": "430bdf4d09647942af9b509a3cdd20a4", "fusion_lon": 0.0}, {"rental_uris": {"ios": "https://dc.lft.to/lastmile_qr_scan", "android": "https://dc.lft.to/lastmile_qr_scan"}, "type": "electric_scooter", "name": "012378b6e39d5561f2090080c71bb48c", "is_reserved": 0, "lon": -77.02315483333334, "is_disabled": 0, "fusion_lat": 0.0, "lat": 38.91768016666666, "bike_id": "012378b6e39d5561f2090080c71bb48c", "fusion_lon": 0.0}, {"rental_uris": {"ios": "https://dc.lft.to/lastmile_qr_scan", "android": "https://dc.lft.to/lastmile_qr_scan"}, "type": "electric_scooter", "name": "1f3aa09b56b1afd47bb44af6cd27d321", "is_reserved": 0, "lon": -77.03738633333333, "is_disabled": 0, "fusion_lat": 0.0, "lat": 38.92915216666667, "bike_id": "1f3aa09b56b1afd47bb44af6cd27d321", "fusion_lon": 0.0}, {"rental_uris": {"ios": "https://dc.lft.to/lastmile_qr_scan", "android": "https://dc.lft.to/lastmile_qr_scan"}, "type": "electric_scooter", "name": "fde3698896f721aeddc9dd12b2baa8ed", "is_reserved": 0, "lon": -77.0082635, "is_disabled": 0, "fusion_lat": 0.0, "lat": 38.87645666666667, "bike_id": "fde3698896f721aeddc9dd12b2baa8ed", "fusion_lon": 0.0}, {"rental_uris": {"ios": "https://dc.lft.to/lastmile_qr_scan", "android": "https://dc.lft.to/lastmile_qr_scan"}, "type": "electric_scooter", "name": "c6628497fc72b6cbbd9836e28e384019", "is_reserved": 0, "lon": -77.0479865, "is_disabled": 0, "fusion_lat": 0.0, "lat": 38.89224, "bike_id": "c6628497fc72b6cbbd9836e28e384019", "fusion_lon": 0.0}, {"rental_uris": {"ios": "https://dc.lft.to/lastmile_qr_scan", "android": "https://dc.lft.to/lastmile_qr_scan"}, "type": "electric_scooter", "name": "c506b8de542ca9c5e80b023e1b20e4ea", "is_reserved": 0, "lon": -77.02095133333333, "is_disabled": 0, "fusion_lat": 0.0, "lat": 38.931149, "bike_id": "c506b8de542ca9c5e80b023e1b20e4ea", "fusion_lon": 0.0}, {"rental_uris": {"ios": "https://dc.lft.to/lastmile_qr_scan", "android": "https://dc.lft.to/lastmile_qr_scan"}, "type": "electric_scooter", "name": "63575f12107f8f2e6ef31f635b5f00ff", "is_reserved": 0, "lon": -77.04425266666667, "is_disabled": 0, "fusion_lat": 0.0, "lat": 38.926009666666666, "bike_id": "63575f12107f8f2e6ef31f635b5f00ff", "fusion_lon": 0.0}, {"rental_uris": {"ios": "https://dc.lft.to/lastmile_qr_scan", "android": "https://dc.lft.to/lastmile_qr_scan"}, "type": "electric_scooter", "name": "256c40e2c3a744b07c6fdbbfb16b7729", "is_reserved": 0, "lon": -77.04429366666666, "is_disabled": 0, "fusion_lat": 0.0, "lat": 38.90793433333333, "bike_id": "256c40e2c3a744b07c6fdbbfb16b7729", "fusion_lon": 0.0}, {"rental_uris": {"ios": "https://dc.lft.to/lastmile_qr_scan", "android": "https://dc.lft.to/lastmile_qr_scan"}, "type": "electric_scooter", "name": "0f538c6716e034cea221712a69edce93", "is_reserved": 0, "lon": -77.03494916666666, "is_disabled": 0, "fusion_lat": 0.0, "lat": 38.92853516666667, "bike_id": "0f538c6716e034cea221712a69edce93", "fusion_lon": 0.0}, {"rental_uris": {"ios": "https://dc.lft.to/lastmile_qr_scan", "android": "https://dc.lft.to/lastmile_qr_scan"}, "type": "electric_scooter", "name": "a376b4854847885deb1863fd675afed2", "is_reserved": 0, "lon": -77.02308416666666, "is_disabled": 0, "fusion_lat": 0.0, "lat": 38.91050583333333, "bike_id": "a376b4854847885deb1863fd675afed2", "fusion_lon": 0.0}, {"rental_uris": {"ios": "https://dc.lft.to/lastmile_qr_scan", "android": "https://dc.lft.to/lastmile_qr_scan"}, "type": "electric_scooter", "name": "ae253f5c4d87f6b19527e818c62380b6", "is_reserved": 0, "lon": -77.03911266666667, "is_disabled": 0, "fusion_lat": 0.0, "lat": 38.908166, "bike_id": "ae253f5c4d87f6b19527e818c62380b6", "fusion_lon": 0.0}, {"rental_uris": {"ios": "https://dc.lft.to/lastmile_qr_scan", "android": "https://dc.lft.to/lastmile_qr_scan"}, "type": "electric_scooter", "name": "b803d70e85e8c8ac5aee749ec08d234b", "is_reserved": 0, "lon": -77.07456516666667, "is_disabled": 0, "fusion_lat": 0.0, "lat": 38.920727666666664, "bike_id": "b803d70e85e8c8ac5aee749ec08d234b", "fusion_lon": 0.0}, {"rental_uris": {"ios": "https://dc.lft.to/lastmile_qr_scan", "android": "https://dc.lft.to/lastmile_qr_scan"}, "type": "electric_scooter", "name": "dcf55e2d558818989ae11485b8c21816", "is_reserved": 0, "lon": -77.02339066666667, "is_disabled": 0, "fusion_lat": 0.0, "lat": 38.927057166666664, "bike_id": "dcf55e2d558818989ae11485b8c21816", "fusion_lon": 0.0}, {"rental_uris": {"ios": "https://dc.lft.to/lastmile_qr_scan", "android": "https://dc.lft.to/lastmile_qr_scan"}, "type": "electric_scooter", "name": "27b96f177920ddcd3bbfdb545257d4ec", "is_reserved": 0, "lon": -77.02408333333334, "is_disabled": 0, "fusion_lat": 0.0, "lat": 38.91761833333333, "bike_id": "27b96f177920ddcd3bbfdb545257d4ec", "fusion_lon": 0.0}, {"rental_uris": {"ios": "https://dc.lft.to/lastmile_qr_scan", "android": "https://dc.lft.to/lastmile_qr_scan"}, "type": "electric_scooter", "name": "a8849377c031211e3648af40d6026ea6", "is_reserved": 0, "lon": -76.9845395, "is_disabled": 0, "fusion_lat": 0.0, "lat": 38.914497, "bike_id": "a8849377c031211e3648af40d6026ea6", "fusion_lon": 0.0}, {"rental_uris": {"ios": "https://dc.lft.to/lastmile_qr_scan", "android": "https://dc.lft.to/lastmile_qr_scan"}, "type": "electric_scooter", "name": "751cebf310ebbfb2bc1233bad59d6750", "is_reserved": 0, "lon": -76.98553166666667, "is_disabled": 0, "fusion_lat": 0.0, "lat": 38.8899445, "bike_id": "751cebf310ebbfb2bc1233bad59d6750", "fusion_lon": 0.0}, {"rental_uris": {"ios": "https://dc.lft.to/lastmile_qr_scan", "android": "https://dc.lft.to/lastmile_qr_scan"}, "type": "electric_scooter", "name": "7409caf119f94bd169fe409d38ca9163", "is_reserved": 0, "lon": -77.049452, "is_disabled": 0, "fusion_lat": 0.0, "lat": 38.920212166666666, "bike_id": "7409caf119f94bd169fe409d38ca9163", "fusion_lon": 0.0}, {"rental_uris": {"ios": "https://dc.lft.to/lastmile_qr_scan", "android": "https://dc.lft.to/lastmile_qr_scan"}, "type": "electric_scooter", "name": "25bce46baea169cba8779b065bdd1201", "is_reserved": 0, "lon": -77.0296195, "is_disabled": 0, "fusion_lat": 0.0, "lat": 38.92262066666667, "bike_id": "25bce46baea169cba8779b065bdd1201", "fusion_lon": 0.0}, {"rental_uris": {"ios": "https://dc.lft.to/lastmile_qr_scan", "android": "https://dc.lft.to/lastmile_qr_scan"}, "type": "electric_scooter", "name": "b28cd468e3b8f38d925205f55bacf9f3", "is_reserved": 0, "lon": -76.98939466666667, "is_disabled": 0, "fusion_lat": 0.0, "lat": 38.90393316666667, "bike_id": "b28cd468e3b8f38d925205f55bacf9f3", "fusion_lon": 0.0}, {"rental_uris": {"ios": "https://dc.lft.to/lastmile_qr_scan", "android": "https://dc.lft.to/lastmile_qr_scan"}, "type": "electric_scooter", "name": "dca66d74afb0955456935a8baf6da648", "is_reserved": 0, "lon": -77.0484845, "is_disabled": 0, "fusion_lat": 0.0, "lat": 38.904657666666665, "bike_id": "dca66d74afb0955456935a8baf6da648", "fusion_lon": 0.0}, {"rental_uris": {"ios": "https://dc.lft.to/lastmile_qr_scan", "android": "https://dc.lft.to/lastmile_qr_scan"}, "type": "electric_scooter", "name": "5c6c46f9170c32e12f572d5a105215c2", "is_reserved": 0, "lon": -77.04142866666666, "is_disabled": 0, "fusion_lat": 0.0, "lat": 38.903793666666665, "bike_id": "5c6c46f9170c32e12f572d5a105215c2", "fusion_lon": 0.0}, {"rental_uris": {"ios": "https://dc.lft.to/lastmile_qr_scan", "android": "https://dc.lft.to/lastmile_qr_scan"}, "type": "electric_scooter", "name": "cc9c202e0fc5c8340d1c893ecd096116", "is_reserved": 0, "lon": -77.03977633333334, "is_disabled": 0, "fusion_lat": 0.0, "lat": 38.924633166666666, "bike_id": "cc9c202e0fc5c8340d1c893ecd096116", "fusion_lon": 0.0}, {"rental_uris": {"ios": "https://dc.lft.to/lastmile_qr_scan", "android": "https://dc.lft.to/lastmile_qr_scan"}, "type": "electric_scooter", "name": "e107eb38df59c9fdaace26a37e7014c2", "is_reserved": 0, "lon": -77.04643566666667, "is_disabled": 0, "fusion_lat": 0.0, "lat": 38.89725166666667, "bike_id": "e107eb38df59c9fdaace26a37e7014c2", "fusion_lon": 0.0}, {"rental_uris": {"ios": "https://dc.lft.to/lastmile_qr_scan", "android": "https://dc.lft.to/lastmile_qr_scan"}, "type": "electric_scooter", "name": "8efab8680a79c2ae6c2630acc6835bbe", "is_reserved": 0, "lon": -77.00066533333333, "is_disabled": 0, "fusion_lat": 0.0, "lat": 38.9613265, "bike_id": "8efab8680a79c2ae6c2630acc6835bbe", "fusion_lon": 0.0}, {"rental_uris": {"ios": "https://dc.lft.to/lastmile_qr_scan", "android": "https://dc.lft.to/lastmile_qr_scan"}, "type": "electric_scooter", "name": "bc05efa89073c6daa5da3f09cdb61503", "is_reserved": 0, "lon": -77.02801333333333, "is_disabled": 0, "fusion_lat": 0.0, "lat": 38.90732966666667, "bike_id": "bc05efa89073c6daa5da3f09cdb61503", "fusion_lon": 0.0}, {"rental_uris": {"ios": "https://dc.lft.to/lastmile_qr_scan", "android": "https://dc.lft.to/lastmile_qr_scan"}, "type": "electric_scooter", "name": "8745266527564890f4e444a88d5846b4", "is_reserved": 0, "lon": -76.97627083333333, "is_disabled": 0, "fusion_lat": 0.0, "lat": 38.905688166666664, "bike_id": "8745266527564890f4e444a88d5846b4", "fusion_lon": 0.0}, {"rental_uris": {"ios": "https://dc.lft.to/lastmile_qr_scan", "android": "https://dc.lft.to/lastmile_qr_scan"}, "type": "electric_scooter", "name": "19be84b8a090aa9c694d7e3f285ec564", "is_reserved": 0, "lon": -77.03493583333334, "is_disabled": 0, "fusion_lat": 0.0, "lat": 38.93268416666667, "bike_id": "19be84b8a090aa9c694d7e3f285ec564", "fusion_lon": 0.0}, {"rental_uris": {"ios": "https://dc.lft.to/lastmile_qr_scan", "android": "https://dc.lft.to/lastmile_qr_scan"}, "type": "electric_bike", "name": "d68e53dd0b5790dc4727a15c053fe1ee", "is_reserved": 0, "lon": -77.234101, "is_disabled": 0, "fusion_lat": 0.0, "lat": 38.8757765, "bike_id": "d68e53dd0b5790dc4727a15c053fe1ee", "fusion_lon": 0.0}, {"rental_uris": {"ios": "https://dc.lft.to/lastmile_qr_scan", "android": "https://dc.lft.to/lastmile_qr_scan"}, "type": "electric_scooter", "name": "90d75c6a13f2a899c458b6e6daea5ec8", "is_reserved": 0, "lon": -77.05527633333334, "is_disabled": 0, "fusion_lat": 0.0, "lat": 38.89727716666667, "bike_id": "90d75c6a13f2a899c458b6e6daea5ec8", "fusion_lon": 0.0}, {"rental_uris": {"ios": "https://dc.lft.to/lastmile_qr_scan", "android": "https://dc.lft.to/lastmile_qr_scan"}, "type": "electric_scooter", "name": "078743e5fda73306de75148bfc8d8ba8", "is_reserved": 0, "lon": -77.020994, "is_disabled": 0, "fusion_lat": 0.0, "lat": 38.912036666666665, "bike_id": "078743e5fda73306de75148bfc8d8ba8", "fusion_lon": 0.0}, {"rental_uris": {"ios": "https://dc.lft.to/lastmile_qr_scan", "android": "https://dc.lft.to/lastmile_qr_scan"}, "type": "electric_scooter", "name": "f0b2285e1598e61bbbf93b1dbd9d245a", "is_reserved": 0, "lon": -77.04655816666667, "is_disabled": 0, "fusion_lat": 0.0, "lat": 38.896226, "bike_id": "f0b2285e1598e61bbbf93b1dbd9d245a", "fusion_lon": 0.0}, {"rental_uris": {"ios": "https://dc.lft.to/lastmile_qr_scan", "android": "https://dc.lft.to/lastmile_qr_scan"}, "type": "electric_scooter", "name": "93943f8cca277882567485ba35a8d7d2", "is_reserved": 0, "lon": -77.03256233333333, "is_disabled": 0, "fusion_lat": 0.0, "lat": 38.9171985, "bike_id": "93943f8cca277882567485ba35a8d7d2", "fusion_lon": 0.0}, {"rental_uris": {"ios": "https://dc.lft.to/lastmile_qr_scan", "android": "https://dc.lft.to/lastmile_qr_scan"}, "type": "electric_bike", "name": "37d90b31f4f0a7d51454e5423578e398", "is_reserved": 0, "lon": -77.06950866666666, "is_disabled": 0, "fusion_lat": 0.0, "lat": 38.83629283333333, "bike_id": "37d90b31f4f0a7d51454e5423578e398", "fusion_lon": 0.0}, {"rental_uris": {"ios": "https://dc.lft.to/lastmile_qr_scan", "android": "https://dc.lft.to/lastmile_qr_scan"}, "type": "electric_scooter", "name": "54c151d7bf06e883400a7839e40d821b", "is_reserved": 0, "lon": -77.02413983333334, "is_disabled": 0, "fusion_lat": 0.0, "lat": 38.929958, "bike_id": "54c151d7bf06e883400a7839e40d821b", "fusion_lon": 0.0}, {"rental_uris": {"ios": "https://dc.lft.to/lastmile_qr_scan", "android": "https://dc.lft.to/lastmile_qr_scan"}, "type": "electric_scooter", "name": "29b860a5ce7b6d44fca3f6fbbf13640f", "is_reserved": 0, "lon": -77.00684916666667, "is_disabled": 0, "fusion_lat": 0.0, "lat": 38.876984666666665, "bike_id": "29b860a5ce7b6d44fca3f6fbbf13640f", "fusion_lon": 0.0}, {"rental_uris": {"ios": "https://dc.lft.to/lastmile_qr_scan", "android": "https://dc.lft.to/lastmile_qr_scan"}, "type": "electric_scooter", "name": "da8e7dc8364a9ece115d55765a05df8f", "is_reserved": 0, "lon": -77.04821183333334, "is_disabled": 0, "fusion_lat": 0.0, "lat": 38.91489966666666, "bike_id": "da8e7dc8364a9ece115d55765a05df8f", "fusion_lon": 0.0}, {"rental_uris": {"ios": "https://dc.lft.to/lastmile_qr_scan", "android": "https://dc.lft.to/lastmile_qr_scan"}, "type": "electric_scooter", "name": "82e04732cc76d7d8a75f8b38b2146315", "is_reserved": 0, "lon": -76.99181616666667, "is_disabled": 0, "fusion_lat": 0.0, "lat": 38.905044333333336, "bike_id": "82e04732cc76d7d8a75f8b38b2146315", "fusion_lon": 0.0}, {"rental_uris": {"ios": "https://dc.lft.to/lastmile_qr_scan", "android": "https://dc.lft.to/lastmile_qr_scan"}, "type": "electric_bike", "name": "0023b40f129c9d551db0e89858dcc3f8", "is_reserved": 0, "lon": -76.99350533333333, "is_disabled": 0, "fusion_lat": 0.0, "lat": 38.84504283333333, "bike_id": "0023b40f129c9d551db0e89858dcc3f8", "fusion_lon": 0.0}, {"rental_uris": {"ios": "https://dc.lft.to/lastmile_qr_scan", "android": "https://dc.lft.to/lastmile_qr_scan"}, "type": "electric_scooter", "name": "b748d1e6fc856269b448337a1cff1b0f", "is_reserved": 0, "lon": -77.04655466666667, "is_disabled": 0, "fusion_lat": 0.0, "lat": 38.905519, "bike_id": "b748d1e6fc856269b448337a1cff1b0f", "fusion_lon": 0.0}, {"rental_uris": {"ios": "https://dc.lft.to/lastmile_qr_scan", "android": "https://dc.lft.to/lastmile_qr_scan"}, "type": "electric_scooter", "name": "43202bdb5c6d0fdbd3162589b8f6c57f", "is_reserved": 0, "lon": -76.99588966666667, "is_disabled": 0, "fusion_lat": 0.0, "lat": 38.9094055, "bike_id": "43202bdb5c6d0fdbd3162589b8f6c57f", "fusion_lon": 0.0}, {"rental_uris": {"ios": "https://dc.lft.to/lastmile_qr_scan", "android": "https://dc.lft.to/lastmile_qr_scan"}, "type": "electric_scooter", "name": "c859fa688695e89a20d0c5eac4677220", "is_reserved": 0, "lon": -76.97329783333333, "is_disabled": 0, "fusion_lat": 0.0, "lat": 38.904082333333335, "bike_id": "c859fa688695e89a20d0c5eac4677220", "fusion_lon": 0.0}, {"rental_uris": {"ios": "https://dc.lft.to/lastmile_qr_scan", "android": "https://dc.lft.to/lastmile_qr_scan"}, "type": "electric_scooter", "name": "49ed807c9886f36a2fb42c286db6bb91", "is_reserved": 0, "lon": -77.03965633333334, "is_disabled": 0, "fusion_lat": 0.0, "lat": 38.93157083333333, "bike_id": "49ed807c9886f36a2fb42c286db6bb91", "fusion_lon": 0.0}, {"rental_uris": {"ios": "https://dc.lft.to/lastmile_qr_scan", "android": "https://dc.lft.to/lastmile_qr_scan"}, "type": "electric_scooter", "name": "6d54b153fae9c97d2742391af23b4c33", "is_reserved": 0, "lon": -77.01074416666667, "is_disabled": 0, "fusion_lat": 0.0, "lat": 38.911811166666666, "bike_id": "6d54b153fae9c97d2742391af23b4c33", "fusion_lon": 0.0}, {"rental_uris": {"ios": "https://dc.lft.to/lastmile_qr_scan", "android": "https://dc.lft.to/lastmile_qr_scan"}, "type": "electric_scooter", "name": "5f22c064cf443c57e366d81286a0409d", "is_reserved": 0, "lon": -77.04557383333334, "is_disabled": 0, "fusion_lat": 0.0, "lat": 38.91838466666667, "bike_id": "5f22c064cf443c57e366d81286a0409d", "fusion_lon": 0.0}, {"rental_uris": {"ios": "https://dc.lft.to/lastmile_qr_scan", "android": "https://dc.lft.to/lastmile_qr_scan"}, "type": "electric_scooter", "name": "ecbac0802e42af3d953992e004d84bde", "is_reserved": 0, "lon": -77.00946666666667, "is_disabled": 0, "fusion_lat": 0.0, "lat": 38.894961333333335, "bike_id": "ecbac0802e42af3d953992e004d84bde", "fusion_lon": 0.0}, {"rental_uris": {"ios": "https://dc.lft.to/lastmile_qr_scan", "android": "https://dc.lft.to/lastmile_qr_scan"}, "type": "electric_scooter", "name": "ae88f828025d3b389395b919f2fc56dd", "is_reserved": 0, "lon": -77.0225715, "is_disabled": 0, "fusion_lat": 0.0, "lat": 38.928234833333335, "bike_id": "ae88f828025d3b389395b919f2fc56dd", "fusion_lon": 0.0}, {"rental_uris": {"ios": "https://dc.lft.to/lastmile_qr_scan", "android": "https://dc.lft.to/lastmile_qr_scan"}, "type": "electric_scooter", "name": "901388ba058823220a3c65ccb1ca2773", "is_reserved": 0, "lon": -77.02696216666666, "is_disabled": 0, "fusion_lat": 0.0, "lat": 38.90576983333333, "bike_id": "901388ba058823220a3c65ccb1ca2773", "fusion_lon": 0.0}, {"rental_uris": {"ios": "https://dc.lft.to/lastmile_qr_scan", "android": "https://dc.lft.to/lastmile_qr_scan"}, "type": "electric_scooter", "name": "d8b77ebac079175ce0351982a92d4abd", "is_reserved": 0, "lon": -77.02172833333333, "is_disabled": 0, "fusion_lat": 0.0, "lat": 38.9148535, "bike_id": "d8b77ebac079175ce0351982a92d4abd", "fusion_lon": 0.0}, {"rental_uris": {"ios": "https://dc.lft.to/lastmile_qr_scan", "android": "https://dc.lft.to/lastmile_qr_scan"}, "type": "electric_scooter", "name": "b51d770063d4ff74224d72552b6ad3dc", "is_reserved": 0, "lon": -77.02699733333333, "is_disabled": 0, "fusion_lat": 0.0, "lat": 38.918030333333334, "bike_id": "b51d770063d4ff74224d72552b6ad3dc", "fusion_lon": 0.0}, {"rental_uris": {"ios": "https://dc.lft.to/lastmile_qr_scan", "android": "https://dc.lft.to/lastmile_qr_scan"}, "type": "electric_scooter", "name": "085f895258a0a50daacdffaf5d1aeca1", "is_reserved": 0, "lon": -77.01126466666666, "is_disabled": 0, "fusion_lat": 0.0, "lat": 38.916103666666665, "bike_id": "085f895258a0a50daacdffaf5d1aeca1", "fusion_lon": 0.0}, {"rental_uris": {"ios": "https://dc.lft.to/lastmile_qr_scan", "android": "https://dc.lft.to/lastmile_qr_scan"}, "type": "electric_scooter", "name": "418fba34de0cdfee47b2ea8786785ca6", "is_reserved": 0, "lon": -77.0498495, "is_disabled": 0, "fusion_lat": 0.0, "lat": 38.90113183333333, "bike_id": "418fba34de0cdfee47b2ea8786785ca6", "fusion_lon": 0.0}, {"rental_uris": {"ios": "https://dc.lft.to/lastmile_qr_scan", "android": "https://dc.lft.to/lastmile_qr_scan"}, "type": "electric_scooter", "name": "ea8951e7a5acf845c546d659c0671be4", "is_reserved": 0, "lon": -77.05478316666667, "is_disabled": 0, "fusion_lat": 0.0, "lat": 38.89732683333333, "bike_id": "ea8951e7a5acf845c546d659c0671be4", "fusion_lon": 0.0}, {"rental_uris": {"ios": "https://dc.lft.to/lastmile_qr_scan", "android": "https://dc.lft.to/lastmile_qr_scan"}, "type": "electric_scooter", "name": "82aa955baa31a82b35e31e723e078398", "is_reserved": 0, "lon": -77.05025216666667, "is_disabled": 0, "fusion_lat": 0.0, "lat": 38.92353133333334, "bike_id": "82aa955baa31a82b35e31e723e078398", "fusion_lon": 0.0}, {"rental_uris": {"ios": "https://dc.lft.to/lastmile_qr_scan", "android": "https://dc.lft.to/lastmile_qr_scan"}, "type": "electric_scooter", "name": "547c8ba40fb001068c661b45bb58e827", "is_reserved": 0, "lon": -77.03467416666666, "is_disabled": 0, "fusion_lat": 0.0, "lat": 38.91261, "bike_id": "547c8ba40fb001068c661b45bb58e827", "fusion_lon": 0.0}, {"rental_uris": {"ios": "https://dc.lft.to/lastmile_qr_scan", "android": "https://dc.lft.to/lastmile_qr_scan"}, "type": "electric_scooter", "name": "cf9c30dcd6de8461649ca1bb0997ba0c", "is_reserved": 0, "lon": -77.02593966666667, "is_disabled": 0, "fusion_lat": 0.0, "lat": 38.892966333333334, "bike_id": "cf9c30dcd6de8461649ca1bb0997ba0c", "fusion_lon": 0.0}, {"rental_uris": {"ios": "https://dc.lft.to/lastmile_qr_scan", "android": "https://dc.lft.to/lastmile_qr_scan"}, "type": "electric_scooter", "name": "62c684f3db20b5e448132ecc18e47bd7", "is_reserved": 0, "lon": -77.03795533333333, "is_disabled": 0, "fusion_lat": 0.0, "lat": 38.91538633333333, "bike_id": "62c684f3db20b5e448132ecc18e47bd7", "fusion_lon": 0.0}, {"rental_uris": {"ios": "https://dc.lft.to/lastmile_qr_scan", "android": "https://dc.lft.to/lastmile_qr_scan"}, "type": "electric_scooter", "name": "a9bf990f1fd96bb2ce0a8cf61585ee2a", "is_reserved": 0, "lon": -77.03223816666667, "is_disabled": 0, "fusion_lat": 0.0, "lat": 38.909608166666665, "bike_id": "a9bf990f1fd96bb2ce0a8cf61585ee2a", "fusion_lon": 0.0}, {"rental_uris": {"ios": "https://dc.lft.to/lastmile_qr_scan", "android": "https://dc.lft.to/lastmile_qr_scan"}, "type": "electric_scooter", "name": "f28a297aa9d6b20fcdc0eb2bf0babbf1", "is_reserved": 0, "lon": -77.02438616666667, "is_disabled": 0, "fusion_lat": 0.0, "lat": 38.90312516666667, "bike_id": "f28a297aa9d6b20fcdc0eb2bf0babbf1", "fusion_lon": 0.0}, {"rental_uris": {"ios": "https://dc.lft.to/lastmile_qr_scan", "android": "https://dc.lft.to/lastmile_qr_scan"}, "type": "electric_scooter", "name": "d622024a5a43ed973a65dd86258ee7ab", "is_reserved": 0, "lon": -77.04739366666666, "is_disabled": 0, "fusion_lat": 0.0, "lat": 38.8955085, "bike_id": "d622024a5a43ed973a65dd86258ee7ab", "fusion_lon": 0.0}, {"rental_uris": {"ios": "https://dc.lft.to/lastmile_qr_scan", "android": "https://dc.lft.to/lastmile_qr_scan"}, "type": "electric_scooter", "name": "8bcae46cbfe5ac7033065fc9f07feb59", "is_reserved": 0, "lon": -77.02091116666666, "is_disabled": 0, "fusion_lat": 0.0, "lat": 38.929141666666666, "bike_id": "8bcae46cbfe5ac7033065fc9f07feb59", "fusion_lon": 0.0}, {"rental_uris": {"ios": "https://dc.lft.to/lastmile_qr_scan", "android": "https://dc.lft.to/lastmile_qr_scan"}, "type": "electric_scooter", "name": "11cfd1056b0a6367e77c871a897e246d", "is_reserved": 0, "lon": -77.04517133333333, "is_disabled": 0, "fusion_lat": 0.0, "lat": 38.91816033333333, "bike_id": "11cfd1056b0a6367e77c871a897e246d", "fusion_lon": 0.0}, {"rental_uris": {"ios": "https://dc.lft.to/lastmile_qr_scan", "android": "https://dc.lft.to/lastmile_qr_scan"}, "type": "electric_scooter", "name": "1d5631460c6217b98e3fb66bbd951fd1", "is_reserved": 0, "lon": -77.03165766666666, "is_disabled": 0, "fusion_lat": 0.0, "lat": 38.919950666666665, "bike_id": "1d5631460c6217b98e3fb66bbd951fd1", "fusion_lon": 0.0}, {"rental_uris": {"ios": "https://dc.lft.to/lastmile_qr_scan", "android": "https://dc.lft.to/lastmile_qr_scan"}, "type": "electric_scooter", "name": "271c415662b4d7c6c5fe967e3d1cb886", "is_reserved": 0, "lon": -77.0416105, "is_disabled": 0, "fusion_lat": 0.0, "lat": 38.915723166666666, "bike_id": "271c415662b4d7c6c5fe967e3d1cb886", "fusion_lon": 0.0}, {"rental_uris": {"ios": "https://dc.lft.to/lastmile_qr_scan", "android": "https://dc.lft.to/lastmile_qr_scan"}, "type": "electric_scooter", "name": "2b41a5b9df3e1f952bdc453ff1503b97", "is_reserved": 0, "lon": -77.01821783333334, "is_disabled": 0, "fusion_lat": 0.0, "lat": 38.90520983333333, "bike_id": "2b41a5b9df3e1f952bdc453ff1503b97", "fusion_lon": 0.0}, {"rental_uris": {"ios": "https://dc.lft.to/lastmile_qr_scan", "android": "https://dc.lft.to/lastmile_qr_scan"}, "type": "electric_scooter", "name": "373372654ffa45668da285186957aad3", "is_reserved": 0, "lon": -76.99415916666666, "is_disabled": 0, "fusion_lat": 0.0, "lat": 38.91685666666667, "bike_id": "373372654ffa45668da285186957aad3", "fusion_lon": 0.0}, {"rental_uris": {"ios": "https://dc.lft.to/lastmile_qr_scan", "android": "https://dc.lft.to/lastmile_qr_scan"}, "type": "electric_scooter", "name": "3c33e7f591dd3f9c6aa710f668ad8e05", "is_reserved": 0, "lon": -77.06124, "is_disabled": 0, "fusion_lat": 0.0, "lat": 38.905095, "bike_id": "3c33e7f591dd3f9c6aa710f668ad8e05", "fusion_lon": 0.0}, {"rental_uris": {"ios": "https://dc.lft.to/lastmile_qr_scan", "android": "https://dc.lft.to/lastmile_qr_scan"}, "type": "electric_scooter", "name": "55f79dcd8385b982b44758bb365e7e95", "is_reserved": 0, "lon": -77.029445, "is_disabled": 0, "fusion_lat": 0.0, "lat": 38.9050185, "bike_id": "55f79dcd8385b982b44758bb365e7e95", "fusion_lon": 0.0}, {"rental_uris": {"ios": "https://dc.lft.to/lastmile_qr_scan", "android": "https://dc.lft.to/lastmile_qr_scan"}, "type": "electric_scooter", "name": "56a65949676c6a2f2997e9513071514e", "is_reserved": 0, "lon": -77.03805916666667, "is_disabled": 0, "fusion_lat": 0.0, "lat": 38.911816333333334, "bike_id": "56a65949676c6a2f2997e9513071514e", "fusion_lon": 0.0}, {"rental_uris": {"ios": "https://dc.lft.to/lastmile_qr_scan", "android": "https://dc.lft.to/lastmile_qr_scan"}, "type": "electric_scooter", "name": "e6f180dfe8f4918e95d5410a99fa7bb2", "is_reserved": 0, "lon": -77.02091916666667, "is_disabled": 0, "fusion_lat": 0.0, "lat": 38.9300255, "bike_id": "e6f180dfe8f4918e95d5410a99fa7bb2", "fusion_lon": 0.0}, {"rental_uris": {"ios": "https://dc.lft.to/lastmile_qr_scan", "android": "https://dc.lft.to/lastmile_qr_scan"}, "type": "electric_scooter", "name": "6489f33b3d68cf395799e3b3d3cd8ff1", "is_reserved": 0, "lon": -77.02476183333333, "is_disabled": 0, "fusion_lat": 0.0, "lat": 38.9181375, "bike_id": "6489f33b3d68cf395799e3b3d3cd8ff1", "fusion_lon": 0.0}, {"rental_uris": {"ios": "https://dc.lft.to/lastmile_qr_scan", "android": "https://dc.lft.to/lastmile_qr_scan"}, "type": "electric_scooter", "name": "9592e490de1f6e985f1aac1ef8b62a14", "is_reserved": 0, "lon": -77.041856, "is_disabled": 0, "fusion_lat": 0.0, "lat": 38.920519666666664, "bike_id": "9592e490de1f6e985f1aac1ef8b62a14", "fusion_lon": 0.0}, {"rental_uris": {"ios": "https://dc.lft.to/lastmile_qr_scan", "android": "https://dc.lft.to/lastmile_qr_scan"}, "type": "electric_scooter", "name": "2f8bd13bc1ce5b4002e158152c0706b2", "is_reserved": 0, "lon": -77.04804566666667, "is_disabled": 0, "fusion_lat": 0.0, "lat": 38.91108466666667, "bike_id": "2f8bd13bc1ce5b4002e158152c0706b2", "fusion_lon": 0.0}, {"rental_uris": {"ios": "https://dc.lft.to/lastmile_qr_scan", "android": "https://dc.lft.to/lastmile_qr_scan"}, "type": "electric_scooter", "name": "50b1889389e9869585fe3a3446534be9", "is_reserved": 0, "lon": -77.02138433333333, "is_disabled": 0, "fusion_lat": 0.0, "lat": 38.90561683333333, "bike_id": "50b1889389e9869585fe3a3446534be9", "fusion_lon": 0.0}, {"rental_uris": {"ios": "https://dc.lft.to/lastmile_qr_scan", "android": "https://dc.lft.to/lastmile_qr_scan"}, "type": "electric_scooter", "name": "6439a5f60993e4209f6a09ea3a3d9669", "is_reserved": 0, "lon": -77.02782283333333, "is_disabled": 0, "fusion_lat": 0.0, "lat": 38.96243783333333, "bike_id": "6439a5f60993e4209f6a09ea3a3d9669", "fusion_lon": 0.0}, {"rental_uris": {"ios": "https://dc.lft.to/lastmile_qr_scan", "android": "https://dc.lft.to/lastmile_qr_scan"}, "type": "electric_scooter", "name": "204542931c437b1466bee6f6909dd5e2", "is_reserved": 0, "lon": -77.051196, "is_disabled": 0, "fusion_lat": 0.0, "lat": 38.925257, "bike_id": "204542931c437b1466bee6f6909dd5e2", "fusion_lon": 0.0}, {"rental_uris": {"ios": "https://dc.lft.to/lastmile_qr_scan", "android": "https://dc.lft.to/lastmile_qr_scan"}, "type": "electric_scooter", "name": "5812ba6243f7499aa0fc933d5a89ecbe", "is_reserved": 0, "lon": -77.04687133333333, "is_disabled": 0, "fusion_lat": 0.0, "lat": 38.892215666666665, "bike_id": "5812ba6243f7499aa0fc933d5a89ecbe", "fusion_lon": 0.0}, {"rental_uris": {"ios": "https://dc.lft.to/lastmile_qr_scan", "android": "https://dc.lft.to/lastmile_qr_scan"}, "type": "electric_scooter", "name": "7ab119d89808bb5f5599e98b0363df0b", "is_reserved": 0, "lon": -77.04670483333334, "is_disabled": 0, "fusion_lat": 0.0, "lat": 38.892791833333334, "bike_id": "7ab119d89808bb5f5599e98b0363df0b", "fusion_lon": 0.0}, {"rental_uris": {"ios": "https://dc.lft.to/lastmile_qr_scan", "android": "https://dc.lft.to/lastmile_qr_scan"}, "type": "electric_scooter", "name": "13cc82773a533ced25bb111e82bb09c4", "is_reserved": 0, "lon": -77.03959166666667, "is_disabled": 0, "fusion_lat": 0.0, "lat": 38.892441166666664, "bike_id": "13cc82773a533ced25bb111e82bb09c4", "fusion_lon": 0.0}, {"rental_uris": {"ios": "https://dc.lft.to/lastmile_qr_scan", "android": "https://dc.lft.to/lastmile_qr_scan"}, "type": "electric_scooter", "name": "109fb56f1ac12805804bb9195036f673", "is_reserved": 0, "lon": -77.00382366666666, "is_disabled": 0, "fusion_lat": 0.0, "lat": 38.940629333333334, "bike_id": "109fb56f1ac12805804bb9195036f673", "fusion_lon": 0.0}, {"rental_uris": {"ios": "https://dc.lft.to/lastmile_qr_scan", "android": "https://dc.lft.to/lastmile_qr_scan"}, "type": "electric_scooter", "name": "aaf4121a2e28accb0666c57589c5c9dc", "is_reserved": 0, "lon": -77.03438916666667, "is_disabled": 0, "fusion_lat": 0.0, "lat": 38.9179775, "bike_id": "aaf4121a2e28accb0666c57589c5c9dc", "fusion_lon": 0.0}, {"rental_uris": {"ios": "https://dc.lft.to/lastmile_qr_scan", "android": "https://dc.lft.to/lastmile_qr_scan"}, "type": "electric_scooter", "name": "1ffe986b479df8cc885d81367fe33a83", "is_reserved": 0, "lon": -77.04665933333334, "is_disabled": 0, "fusion_lat": 0.0, "lat": 38.905538166666666, "bike_id": "1ffe986b479df8cc885d81367fe33a83", "fusion_lon": 0.0}, {"rental_uris": {"ios": "https://dc.lft.to/lastmile_qr_scan", "android": "https://dc.lft.to/lastmile_qr_scan"}, "type": "electric_scooter", "name": "8bb8468fe6bec55b4b01ffdd4ce26f9a", "is_reserved": 0, "lon": -77.0297485, "is_disabled": 0, "fusion_lat": 0.0, "lat": 38.907455, "bike_id": "8bb8468fe6bec55b4b01ffdd4ce26f9a", "fusion_lon": 0.0}, {"rental_uris": {"ios": "https://dc.lft.to/lastmile_qr_scan", "android": "https://dc.lft.to/lastmile_qr_scan"}, "type": "electric_scooter", "name": "05d75342435524e01f2035fc56dae397", "is_reserved": 0, "lon": -77.044796, "is_disabled": 0, "fusion_lat": 0.0, "lat": 38.92290216666667, "bike_id": "05d75342435524e01f2035fc56dae397", "fusion_lon": 0.0}, {"rental_uris": {"ios": "https://dc.lft.to/lastmile_qr_scan", "android": "https://dc.lft.to/lastmile_qr_scan"}, "type": "electric_scooter", "name": "e0a877069831a3a65fe134a787de879b", "is_reserved": 0, "lon": -77.06610433333333, "is_disabled": 0, "fusion_lat": 0.0, "lat": 38.911103, "bike_id": "e0a877069831a3a65fe134a787de879b", "fusion_lon": 0.0}, {"rental_uris": {"ios": "https://dc.lft.to/lastmile_qr_scan", "android": "https://dc.lft.to/lastmile_qr_scan"}, "type": "electric_bike", "name": "e933f32709c4e9e9e1490acaecc1aa67", "is_reserved": 0, "lon": -76.99918483333333, "is_disabled": 0, "fusion_lat": 0.0, "lat": 38.9946795, "bike_id": "e933f32709c4e9e9e1490acaecc1aa67", "fusion_lon": 0.0}, {"rental_uris": {"ios": "https://dc.lft.to/lastmile_qr_scan", "android": "https://dc.lft.to/lastmile_qr_scan"}, "type": "electric_bike", "name": "012268938e9ca55940fd1ba4719bf059", "is_reserved": 0, "lon": -77.055211, "is_disabled": 0, "fusion_lat": 0.0, "lat": 38.9440595, "bike_id": "012268938e9ca55940fd1ba4719bf059", "fusion_lon": 0.0}, {"rental_uris": {"ios": "https://dc.lft.to/lastmile_qr_scan", "android": "https://dc.lft.to/lastmile_qr_scan"}, "type": "electric_scooter", "name": "5074c75cdce480df6e8de709b5ad5bf9", "is_reserved": 0, "lon": -77.03036666666667, "is_disabled": 0, "fusion_lat": 0.0, "lat": 38.9225245, "bike_id": "5074c75cdce480df6e8de709b5ad5bf9", "fusion_lon": 0.0}, {"rental_uris": {"ios": "https://dc.lft.to/lastmile_qr_scan", "android": "https://dc.lft.to/lastmile_qr_scan"}, "type": "electric_scooter", "name": "40e10e553833ab147788537649790905", "is_reserved": 0, "lon": -77.0262235, "is_disabled": 0, "fusion_lat": 0.0, "lat": 38.8921715, "bike_id": "40e10e553833ab147788537649790905", "fusion_lon": 0.0}, {"rental_uris": {"ios": "https://dc.lft.to/lastmile_qr_scan", "android": "https://dc.lft.to/lastmile_qr_scan"}, "type": "electric_scooter", "name": "e45a6a25e6957eb8fd41e91e7806bc93", "is_reserved": 0, "lon": -77.02411966666666, "is_disabled": 0, "fusion_lat": 0.0, "lat": 38.9095685, "bike_id": "e45a6a25e6957eb8fd41e91e7806bc93", "fusion_lon": 0.0}, {"rental_uris": {"ios": "https://dc.lft.to/lastmile_qr_scan", "android": "https://dc.lft.to/lastmile_qr_scan"}, "type": "electric_bike", "name": "7d83caf3bac769db1e61cc753e7d7a15", "is_reserved": 0, "lon": -77.06698483333334, "is_disabled": 0, "fusion_lat": 0.0, "lat": 38.83166516666667, "bike_id": "7d83caf3bac769db1e61cc753e7d7a15", "fusion_lon": 0.0}, {"rental_uris": {"ios": "https://dc.lft.to/lastmile_qr_scan", "android": "https://dc.lft.to/lastmile_qr_scan"}, "type": "electric_scooter", "name": "3d7a699872a378a6dd55580e6809538a", "is_reserved": 0, "lon": -76.97056633333334, "is_disabled": 0, "fusion_lat": 0.0, "lat": 38.87327633333334, "bike_id": "3d7a699872a378a6dd55580e6809538a", "fusion_lon": 0.0}, {"rental_uris": {"ios": "https://dc.lft.to/lastmile_qr_scan", "android": "https://dc.lft.to/lastmile_qr_scan"}, "type": "electric_scooter", "name": "78aa4357053af1e4a244e313279b042f", "is_reserved": 0, "lon": -77.02895433333333, "is_disabled": 0, "fusion_lat": 0.0, "lat": 38.940375333333336, "bike_id": "78aa4357053af1e4a244e313279b042f", "fusion_lon": 0.0}, {"rental_uris": {"ios": "https://dc.lft.to/lastmile_qr_scan", "android": "https://dc.lft.to/lastmile_qr_scan"}, "type": "electric_scooter", "name": "1ee241cede595351d8c28a34491f46fe", "is_reserved": 0, "lon": -76.98601533333333, "is_disabled": 0, "fusion_lat": 0.0, "lat": 38.878331833333334, "bike_id": "1ee241cede595351d8c28a34491f46fe", "fusion_lon": 0.0}, {"rental_uris": {"ios": "https://dc.lft.to/lastmile_qr_scan", "android": "https://dc.lft.to/lastmile_qr_scan"}, "type": "electric_scooter", "name": "92285f0837a6846f51a5185a231c5c96", "is_reserved": 0, "lon": -77.01894383333334, "is_disabled": 0, "fusion_lat": 0.0, "lat": 38.89795983333333, "bike_id": "92285f0837a6846f51a5185a231c5c96", "fusion_lon": 0.0}, {"rental_uris": {"ios": "https://dc.lft.to/lastmile_qr_scan", "android": "https://dc.lft.to/lastmile_qr_scan"}, "type": "electric_scooter", "name": "bb013a170181db27e00bbc3e9e901abc", "is_reserved": 0, "lon": -77.05216566666667, "is_disabled": 0, "fusion_lat": 0.0, "lat": 38.924289333333334, "bike_id": "bb013a170181db27e00bbc3e9e901abc", "fusion_lon": 0.0},