{"data": {"bikes": [{"fusion_lat": 0.0, "bike_id": "9bad6b29ec60531cd2da1a0e9c237c6b", "fusion_lon": 0.0, "lon": -77.03180733333333, "lat": 38.89965083333333, "is_reserved": 0, "is_disabled": 0, "rental_uris": {"android": "https://dc.lft.to/lastmile_qr_scan", "ios": "https://dc.lft.to/lastmile_qr_scan"}, "name": "9bad6b29ec60531cd2da1a0e9c237c6b", "type": "electric_scooter"}, {"fusion_lat": 0.0, "bike_id": "e8f484f2742d4eda8bbbdb06aa3ef353", "fusion_lon": 0.0, "lon": -77.03861366666666, "lat": 38.906405, "is_reserved": 0, "is_disabled": 0, "rental_uris": {"android": "https://dc.lft.to/lastmile_qr_scan", "ios": "https://dc.lft.to/lastmile_qr_scan"}, "name": "e8f484f2742d4eda8bbbdb06aa3ef353", "type": "electric_scooter"}, {"fusion_lat": 0.0, "bike_id": "c39e7ce4ffdc6ffea02e31ad3dbff2ac", "fusion_lon": 0.0, "lon": -77.07163266666667, "lat": 38.90776433333333, "is_reserved": 0, "is_disabled": 0, "rental_uris": {"android": "https://dc.lft.to/lastmile_qr_scan", "ios": "https://dc.lft.to/lastmile_qr_scan"}, "name": "c39e7ce4ffdc6ffea02e31ad3dbff2ac", "type": "electric_scooter"}, {"fusion_lat": 0.0, "bike_id": "cc23998a47cb12a7eced318a86b2132e", "fusion_lon": 0.0, "lon": -77.0163595, "lat": 38.92900433333333, "is_reserved": 0, "is_disabled": 0, "rental_uris": {"android": "https://dc.lft.to/lastmile_qr_scan", "ios": "https://dc.lft.to/lastmile_qr_scan"}, "name": "cc23998a47cb12a7eced318a86b2132e", "type": "electric_scooter"}, {"fusion_lat": 0.0, "bike_id": "818b16f4435c5bbcb5100f9c3309d161", "fusion_lon": 0.0, "lon": -77.0467245, "lat": 38.8955825, "is_reserved": 0, "is_disabled": 0, "rental_uris": {"android": "https://dc.lft.to/lastmile_qr_scan", "ios": "https://dc.lft.to/lastmile_qr_scan"}, "name": "818b16f4435c5bbcb5100f9c3309d161", "type": "electric_scooter"}, {"fusion_lat": 0.0, "bike_id": "419fbdff6eb0499cfcfaa3949b180ac7", "fusion_lon": 0.0, "lon": -77.00581683333333, "lat": 38.87304566666667, "is_reserved": 0, "is_disabled": 0, "rental_uris": {"android": "https://dc.lft.to/lastmile_qr_scan", "ios": "https://dc.lft.to/lastmile_qr_scan"}, "name": "419fbdff6eb0499cfcfaa3949b180ac7", "type": "electric_scooter"}, {"fusion_lat": 0.0, "bike_id": "11ffc85e25b176e339a9fdbcee01a6c2", "fusion_lon": 0.0, "lon": -77.03843133333334, "lat": 38.904072166666666, "is_reserved": 0, "is_disabled": 0, "rental_uris": {"android": "https://dc.lft.to/lastmile_qr_scan", "ios": "https://dc.lft.to/lastmile_qr_scan"}, "name": "11ffc85e25b176e339a9fdbcee01a6c2", "type": "electric_scooter"}, {"fusion_lat": 0.0, "bike_id": "65d1def6c54a2d53f92b677d640e1572", "fusion_lon": 0.0, "lon": -77.0517775, "lat": 38.92384033333333, "is_reserved": 0, "is_disabled": 0, "rental_uris": {"android": "https://dc.lft.to/lastmile_qr_scan", "ios": "https://dc.lft.to/lastmile_qr_scan"}, "name": "65d1def6c54a2d53f92b677d640e1572", "type": "electric_scooter"}, {"fusion_lat": 0.0, "bike_id": "fb4bd533c038880e9a69e405180d309a", "fusion_lon": 0.0, "lon": -77.09491616666666, "lat": 38.80764083333333, "is_reserved": 0, "is_disabled": 0, "rental_uris": {"android": "https://dc.lft.to/lastmile_qr_scan", "ios": "https://dc.lft.to/lastmile_qr_scan"}, "name": "fb4bd533c038880e9a69e405180d309a", "type": "electric_bike"}, {"fusion_lat": 0.0, "bike_id": "28bd0c08ae0e12149e78a6066f3f7058", "fusion_lon": 0.0, "lon": -77.0318845, "lat": 38.9129965, "is_reserved": 0, "is_disabled": 0, "rental_uris": {"android": "https://dc.lft.to/lastmile_qr_scan", "ios": "https://dc.lft.to/lastmile_qr_scan"}, "name": "28bd0c08ae0e12149e78a6066f3f7058", "type": "electric_scooter"}, {"fusion_lat": 0.0, "bike_id": "e7be4e77c3c1b94cf470655e7889d340", "fusion_lon": 0.0, "lon": -77.01949066666667, "lat": 38.9225895, "is_reserved": 0, "is_disabled": 0, "rental_uris": {"android": "https://dc.lft.to/lastmile_qr_scan", "ios": "https://dc.lft.to/lastmile_qr_scan"}, "name": "e7be4e77c3c1b94cf470655e7889d340", "type": "electric_scooter"}, {"fusion_lat": 0.0, "bike_id": "d949dd72a37deda165044e29039cfdb0", "fusion_lon": 0.0, "lon": -77.00307383333333, "lat": 38.892271666666666, "is_reserved": 0, "is_disabled": 0, "rental_uris": {"android": "https://dc.lft.to/lastmile_qr_scan", "ios": "https://dc.lft.to/lastmile_qr_scan"}, "name": "d949dd72a37deda165044e29039cfdb0", "type": "electric_scooter"}, {"fusion_lat": 0.0, "bike_id": "8eeeefa17e2d2f6e339942531d826219", "fusion_lon": 0.0, "lon": -77.02316216666667, "lat": 38.90727116666667, "is_reserved": 0, "is_disabled": 0, "rental_uris": {"android": "https://dc.lft.to/lastmile_qr_scan", "ios": "https://dc.lft.to/lastmile_qr_scan"}, "name": "8eeeefa17e2d2f6e339942531d826219", "type": "electric_scooter"}, {"fusion_lat": 0.0, "bike_id": "e0192c5d7434a4634ffd47fbf07e7a67", "fusion_lon": 0.0, "lon": -77.03188383333334, "lat": 38.909408, "is_reserved": 0, "is_disabled": 0, "rental_uris": {"android": "https://dc.lft.to/lastmile_qr_scan", "ios": "https://dc.lft.to/lastmile_qr_scan"}, "name": "e0192c5d7434a4634ffd47fbf07e7a67", "type": "electric_scooter"}, {"fusion_lat": 0.0, "bike_id": "fbeab4475509daef150b3a8d3e2f27c8", "fusion_lon": 0.0, "lon": -77.0397745, "lat": 38.92806016666667, "is_reserved": 0, "is_disabled": 0, "rental_uris": {"android": "https://dc.lft.to/lastmile_qr_scan", "ios": "https://dc.lft.to/lastmile_qr_scan"}, "name": "fbeab4475509daef150b3a8d3e2f27c8", "type": "electric_scooter"}, {"fusion_lat": 0.0, "bike_id": "1e04ce8d7ad31485a09515de02f6d2bc", "fusion_lon": 0.0, "lon": -77.23328, "lat": 38.87278666666667, "is_reserved": 0, "is_disabled": 0, "rental_uris": {"android": "https://dc.lft.to/lastmile_qr_scan", "ios": "https://dc.lft.to/lastmile_qr_scan"}, "name": "1e04ce8d7ad31485a09515de02f6d2bc", "type": "electric_bike"}, {"fusion_lat": 0.0, "bike_id": "a374dd23d2837b9cb3bae97c6627ded5", "fusion_lon": 0.0, "lon": -77.04996966666667, "lat": 38.89228583333333, "is_reserved": 0, "is_disabled": 0, "rental_uris": {"android": "https://dc.lft.to/lastmile_qr_scan", "ios": "https://dc.lft.to/lastmile_qr_scan"}, "name": "a374dd23d2837b9cb3bae97c6627ded5", "type": "electric_scooter"}, {"fusion_lat": 0.0, "bike_id": "901d300150eee4f8778055bb8d8c2ec6", "fusion_lon": 0.0, "lon": -77.046801, "lat": 38.90588133333333, "is_reserved": 0, "is_disabled": 0, "rental_uris": {"android": "https://dc.lft.to/lastmile_qr_scan", "ios": "https://dc.lft.to/lastmile_qr_scan"}, "name": "901d300150eee4f8778055bb8d8c2ec6", "type": "electric_scooter"}, {"fusion_lat": 0.0, "bike_id": "3f47712c0766a4762c6894a9662cb8e8", "fusion_lon": 0.0, "lon": -77.02374566666667, "lat": 38.879278166666666, "is_reserved": 0, "is_disabled": 0, "rental_uris": {"android": "https://dc.lft.to/lastmile_qr_scan", "ios": "https://dc.lft.to/lastmile_qr_scan"}, "name": "3f47712c0766a4762c6894a9662cb8e8", "type": "electric_scooter"}, {"fusion_lat": 0.0, "bike_id": "dbbbb6b571676db4e7a226a8dd1bf8f7", "fusion_lon": 0.0, "lon": -77.03275916666666, "lat": 38.9122335, "is_reserved": 0, "is_disabled": 0, "rental_uris": {"android": "https://dc.lft.to/lastmile_qr_scan", "ios": "https://dc.lft.to/lastmile_qr_scan"}, "name": "dbbbb6b571676db4e7a226a8dd1bf8f7", "type": "electric_scooter"}, {"fusion_lat": 0.0, "bike_id": "5389e5a223ba5b0821129b633b361425", "fusion_lon": 0.0, "lon": -77.03191616666666, "lat": 38.8996195, "is_reserved": 0, "is_disabled": 0, "rental_uris": {"android": "https://dc.lft.to/lastmile_qr_scan", "ios": "https://dc.lft.to/lastmile_qr_scan"}, "name": "5389e5a223ba5b0821129b633b361425", "type": "electric_scooter"}, {"fusion_lat": 0.0, "bike_id": "33aa160f052a12e6972f03c7442f1243", "fusion_lon": 0.0, "lon": -77.0433415, "lat": 38.913958, "is_reserved": 0, "is_disabled": 0, "rental_uris": {"android": "https://dc.lft.to/lastmile_qr_scan", "ios": "https://dc.lft.to/lastmile_qr_scan"}, "name": "33aa160f052a12e6972f03c7442f1243", "type": "electric_scooter"}, {"fusion_lat": 0.0, "bike_id": "bc28aa7aed3f87b54442b1d02b300601", "fusion_lon": 0.0, "lon": -76.9887595, "lat": 38.86664783333333, "is_reserved": 0, "is_disabled": 0, "rental_uris": {"android": "https://dc.lft.to/lastmile_qr_scan", "ios": "https://dc.lft.to/lastmile_qr_scan"}, "name": "bc28aa7aed3f87b54442b1d02b300601", "type": "electric_scooter"}, {"fusion_lat": 0.0, "bike_id": "cc9e3eb512702610f5fc51dddc7fd75f", "fusion_lon": 0.0, "lon": -77.05042333333333, "lat": 38.905341, "is_reserved": 0, "is_disabled": 0, "rental_uris": {"android": "https://dc.lft.to/lastmile_qr_scan", "ios": "https://dc.lft.to/lastmile_qr_scan"}, "name": "cc9e3eb512702610f5fc51dddc7fd75f", "type": "electric_scooter"}, {"fusion_lat": 0.0, "bike_id": "eb3a90f464df0337aa0fc1022c287437", "fusion_lon": 0.0, "lon": -77.00505783333334, "lat": 38.875341666666664, "is_reserved": 0, "is_disabled": 0, "rental_uris": {"android": "https://dc.lft.to/lastmile_qr_scan", "ios": "https://dc.lft.to/lastmile_qr_scan"}, "name": "eb3a90f464df0337aa0fc1022c287437", "type": "electric_scooter"}, {"fusion_lat": 0.0, "bike_id": "3092dc5ae5c33e5aac084389a90b6a69", "fusion_lon": 0.0, "lon": -77.04469633333333, "lat": 38.89220516666666, "is_reserved": 0, "is_disabled": 0, "rental_uris": {"android": "https://dc.lft.to/lastmile_qr_scan", "ios": "https://dc.lft.to/lastmile_qr_scan"}, "name": "3092dc5ae5c33e5aac084389a90b6a69", "type": "electric_scooter"}, {"fusion_lat": 0.0, "bike_id": "f74b1566d8203efa46c5028b390871a1", "fusion_lon": 0.0, "lon": -76.9410245, "lat": 38.8846255, "is_reserved": 0, "is_disabled": 0, "rental_uris": {"android": "https://dc.lft.to/lastmile_qr_scan", "ios": "https://dc.lft.to/lastmile_qr_scan"}, "name": "f74b1566d8203efa46c5028b390871a1", "type": "electric_scooter"}, {"fusion_lat": 0.0, "bike_id": "fe589403eb1816a25fe85454ba2f24c6", "fusion_lon": 0.0, "lon": -77.04896216666667, "lat": 38.8922825, "is_reserved": 0, "is_disabled": 0, "rental_uris": {"android": "https://dc.lft.to/lastmile_qr_scan", "ios": "https://dc.lft.to/lastmile_qr_scan"}, "name": "fe589403eb1816a25fe85454ba2f24c6", "type": "electric_scooter"}, {"fusion_lat": 0.0, "bike_id": "322009b52cc9aa4e3cd12bc1c26b4b4d", "fusion_lon": 0.0, "lon": -77.005891, "lat": 38.90578033333333, "is_reserved": 0, "is_disabled": 0, "rental_uris": {"android": "https://dc.lft.to/lastmile_qr_scan", "ios": "https://dc.lft.to/lastmile_qr_scan"}, "name": "322009b52cc9aa4e3cd12bc1c26b4b4d", "type": "electric_scooter"}, {"fusion_lat": 0.0, "bike_id": "08fc43556af97dc13480ea1642979231", "fusion_lon": 0.0, "lon": -77.03506383333334, "lat": 38.921487, "is_reserved": 0, "is_disabled": 0, "rental_uris": {"android": "https://dc.lft.to/lastmile_qr_scan", "ios": "https://dc.lft.to/lastmile_qr_scan"}, "name": "08fc43556af97dc13480ea1642979231", "type": "electric_scooter"}, {"fusion_lat": 0.0, "bike_id": "338d7bc7fb719e974aa32b6730635044", "fusion_lon": 0.0, "lon": -77.05044783333334, "lat": 38.9053975, "is_reserved": 0, "is_disabled": 0, "rental_uris": {"android": "https://dc.lft.to/lastmile_qr_scan", "ios": "https://dc.lft.to/lastmile_qr_scan"}, "name": "338d7bc7fb719e974aa32b6730635044", "type": "electric_scooter"}, {"fusion_lat": 0.0, "bike_id": "bbc797dfa91b90db3133eb8962ec6410", "fusion_lon": 0.0, "lon": -77.01133133333333, "lat": 38.893678, "is_reserved": 0, "is_disabled": 0, "rental_uris": {"android": "https://dc.lft.to/lastmile_qr_scan", "ios": "https://dc.lft.to/lastmile_qr_scan"}, "name": "bbc797dfa91b90db3133eb8962ec6410", "type": "electric_scooter"}, {"fusion_lat": 0.0, "bike_id": "8b120bb0cc3562c52a692b0d71c5c77b", "fusion_lon": 0.0, "lon": -76.9859475, "lat": 38.866860333333335, "is_reserved": 0, "is_disabled": 0, "rental_uris": {"android": "https://dc.lft.to/lastmile_qr_scan", "ios": "https://dc.lft.to/lastmile_qr_scan"}, "name": "8b120bb0cc3562c52a692b0d71c5c77b", "type": "electric_scooter"}, {"fusion_lat": 0.0, "bike_id": "2b7243fc90e34958398f4bf18a9984d9", "fusion_lon": 0.0, "lon": -77.03222783333334, "lat": 38.916412666666666, "is_reserved": 0, "is_disabled": 0, "rental_uris": {"android": "https://dc.lft.to/lastmile_qr_scan", "ios": "https://dc.lft.to/lastmile_qr_scan"}, "name": "2b7243fc90e34958398f4bf18a9984d9", "type": "electric_scooter"}, {"fusion_lat": 0.0, "bike_id": "a7803c743b060d98ea53c0574b32f899", "fusion_lon": 0.0, "lon": -77.03178816666667, "lat": 38.8962515, "is_reserved": 0, "is_disabled": 0, "rental_uris": {"android": "https://dc.lft.to/lastmile_qr_scan", "ios": "https://dc.lft.to/lastmile_qr_scan"}, "name": "a7803c743b060d98ea53c0574b32f899", "type": "electric_scooter"}, {"fusion_lat": 0.0, "bike_id": "b7d2e2a309348883103120abd83c4555", "fusion_lon": 0.0, "lon": -76.9970915, "lat": 38.845460833333334, "is_reserved": 0, "is_disabled": 0, "rental_uris": {"android": "https://dc.lft.to/lastmile_qr_scan", "ios": "https://dc.lft.to/lastmile_qr_scan"}, "name": "b7d2e2a309348883103120abd83c4555", "type": "electric_scooter"}, {"fusion_lat": 0.0, "bike_id": "dc7e5cbdc1ee2d35590c79e5652fe1f3", "fusion_lon": 0.0, "lon": -77.02447033333333, "lat": 38.902569, "is_reserved": 0, "is_disabled": 0, "rental_uris": {"android": "https://dc.lft.to/lastmile_qr_scan", "ios": "https://dc.lft.to/lastmile_qr_scan"}, "name": "dc7e5cbdc1ee2d35590c79e5652fe1f3", "type": "electric_scooter"}, {"fusion_lat": 0.0, "bike_id": "1ae1a6e005451f13bcef04a02df494e0", "fusion_lon": 0.0, "lon": -77.0325595, "lat": 38.904532333333336, "is_reserved": 0, "is_disabled": 0, "rental_uris": {"android": "https://dc.lft.to/lastmile_qr_scan", "ios": "https://dc.lft.to/lastmile_qr_scan"}, "name": "1ae1a6e005451f13bcef04a02df494e0", "type": "electric_scooter"}, {"fusion_lat": 0.0, "bike_id": "7d68402a849d445d6ba9543a34ce00f7", "fusion_lon": 0.0, "lon": -77.03274983333333, "lat": 38.919998, "is_reserved": 0, "is_disabled": 0, "rental_uris": {"android": "https://dc.lft.to/lastmile_qr_scan", "ios": "https://dc.lft.to/lastmile_qr_scan"}, "name": "7d68402a849d445d6ba9543a34ce00f7", "type": "electric_scooter"}, {"fusion_lat": 0.0, "bike_id": "b35ee0a70eb490c4cbb25468c6b11c4f", "fusion_lon": 0.0, "lon": -77.01406583333333, "lat": 38.91484833333333, "is_reserved": 0, "is_disabled": 0, "rental_uris": {"android": "https://dc.lft.to/lastmile_qr_scan", "ios": "https://dc.lft.to/lastmile_qr_scan"}, "name": "b35ee0a70eb490c4cbb25468c6b11c4f", "type": "electric_scooter"}, {"fusion_lat": 0.0, "bike_id": "44eacf810357f243a2721c77ed0fbe8b", "fusion_lon": 0.0, "lon": -77.03182883333334, "lat": 38.914051, "is_reserved": 0, "is_disabled": 0, "rental_uris": {"android": "https://dc.lft.to/lastmile_qr_scan", "ios": "https://dc.lft.to/lastmile_qr_scan"}, "name": "44eacf810357f243a2721c77ed0fbe8b", "type": "electric_scooter"}, {"fusion_lat": 0.0, "bike_id": "640bb82dbe8600e2f2ad3cdcd707ffe7", "fusion_lon": 0.0, "lon": -77.05503233333333, "lat": 38.929859666666665, "is_reserved": 0, "is_disabled": 0, "rental_uris": {"android": "https://dc.lft.to/lastmile_qr_scan", "ios": "https://dc.lft.to/lastmile_qr_scan"}, "name": "640bb82dbe8600e2f2ad3cdcd707ffe7", "type": "electric_scooter"}, {"fusion_lat": 0.0, "bike_id": "458adba264cbc221d1e355535fe503ba", "fusion_lon": 0.0, "lon": -77.02840283333333, "lat": 38.925797, "is_reserved": 0, "is_disabled": 0, "rental_uris": {"android": "https://dc.lft.to/lastmile_qr_scan", "ios": "https://dc.lft.to/lastmile_qr_scan"}, "name": "458adba264cbc221d1e355535fe503ba", "type": "electric_scooter"}, {"fusion_lat": 0.0, "bike_id": "fe8e63a645f1fb300fb029bcabeb46f6", "fusion_lon": 0.0, "lon": -77.11284666666667, "lat": 39.047578666666666, "is_reserved": 0, "is_disabled": 0, "rental_uris": {"android": "https://dc.lft.to/lastmile_qr_scan", "ios": "https://dc.lft.to/lastmile_qr_scan"}, "name": "fe8e63a645f1fb300fb029bcabeb46f6", "type": "electric_bike"}, {"fusion_lat": 0.0, "bike_id": "edaa44fef645d9a59b99a59661356db8", "fusion_lon": 0.0, "lon": -77.03219483333334, "lat": 38.896294833333336, "is_reserved": 0, "is_disabled": 0, "rental_uris": {"android": "https://dc.lft.to/lastmile_qr_scan", "ios": "https://dc.lft.to/lastmile_qr_scan"}, "name": "edaa44fef645d9a59b99a59661356db8", "type": "electric_scooter"}, {"fusion_lat": 0.0, "bike_id": "6f1e1591f944f50de5fb25f980c44511", "fusion_lon": 0.0, "lon": -77.02486233333333, "lat": 38.9169615, "is_reserved": 0, "is_disabled": 0, "rental_uris": {"android": "https://dc.lft.to/lastmile_qr_scan", "ios": "https://dc.lft.to/lastmile_qr_scan"}, "name": "6f1e1591f944f50de5fb25f980c44511", "type": "electric_scooter"}, {"fusion_lat": 0.0, "bike_id": "d1b1f8c047b923ead058fcd73b7b1576", "fusion_lon": 0.0, "lon": -77.050546, "lat": 38.901857, "is_reserved": 0, "is_disabled": 0, "rental_uris": {"android": "https://dc.lft.to/lastmile_qr_scan", "ios": "https://dc.lft.to/lastmile_qr_scan"}, "name": "d1b1f8c047b923ead058fcd73b7b1576", "type": "electric_scooter"}, {"fusion_lat": 0.0, "bike_id": "9f9732ac702dd4d174d4bcd9d8fce425", "fusion_lon": 0.0, "lon": -77.0670765, "lat": 38.9144405, "is_reserved": 0, "is_disabled": 0, "rental_uris": {"android": "https://dc.lft.to/lastmile_qr_scan", "ios": "https://dc.lft.to/lastmile_qr_scan"}, "name": "9f9732ac702dd4d174d4bcd9d8fce425", "type": "electric_scooter"}, {"fusion_lat": 0.0, "bike_id": "038a486796503a393d37943e2b83284e", "fusion_lon": 0.0, "lon": -77.03045516666667, "lat": 38.9170385, "is_reserved": 0, "is_disabled": 0, "rental_uris": {"android": "https://dc.lft.to/lastmile_qr_scan", "ios": "https://dc.lft.to/lastmile_qr_scan"}, "name": "038a486796503a393d37943e2b83284e", "type": "electric_scooter"}, {"fusion_lat": 0.0, "bike_id": "8ab88d91be0174c55333b7ed21e95c86", "fusion_lon": 0.0, "lon": -77.02056716666667, "lat": 38.923679666666665, "is_reserved": 0, "is_disabled": 0, "rental_uris": {"android": "https://dc.lft.to/lastmile_qr_scan", "ios": "https://dc.lft.to/lastmile_qr_scan"}, "name": "8ab88d91be0174c55333b7ed21e95c86", "type": "electric_scooter"}, {"fusion_lat": 0.0, "bike_id": "d8ba728715948e72269eee17af1ee499", "fusion_lon": 0.0, "lon": -77.04377366666667, "lat": 38.9002855, "is_reserved": 0, "is_disabled": 0, "rental_uris": {"android": "https://dc.lft.to/lastmile_qr_scan", "ios": "https://dc.lft.to/lastmile_qr_scan"}, "name": "d8ba728715948e72269eee17af1ee499", "type": "electric_scooter"}, {"fusion_lat": 0.0, "bike_id": "b0133e5dc7eb80c3244298ef480d361f", "fusion_lon": 0.0, "lon": -77.18738816666666, "lat": 38.893531333333335, "is_reserved": 0, "is_disabled": 0, "rental_uris": {"android": "https://dc.lft.to/lastmile_qr_scan", "ios": "https://dc.lft.to/lastmile_qr_scan"}, "name": "b0133e5dc7eb80c3244298ef480d361f", "type": "electric_bike"}, {"fusion_lat": 0.0, "bike_id": "4ec33b191924da0cfebaa371479463f8", "fusion_lon": 0.0, "lon": -76.9984695, "lat": 38.962507, "is_reserved": 0, "is_disabled": 0, "rental_uris": {"android": "https://dc.lft.to/lastmile_qr_scan", "ios": "https://dc.lft.to/lastmile_qr_scan"}, "name": "4ec33b191924da0cfebaa371479463f8", "type": "electric_bike"}, {"fusion_lat": 0.0, "bike_id": "39701417d3459763a061de6b80845005", "fusion_lon": 0.0, "lon": -77.05245916666667, "lat": 38.9273125, "is_reserved": 0, "is_disabled": 0, "rental_uris": {"android": "https://dc.lft.to/lastmile_qr_scan", "ios": "https://dc.lft.to/lastmile_qr_scan"}, "name": "39701417d3459763a061de6b80845005", "type": "electric_scooter"}, {"fusion_lat": 0.0, "bike_id": "aa538a454b770136c62bf1872ea09c1f", "fusion_lon": 0.0, "lon": -77.0603015, "lat": 38.9336345, "is_reserved": 0, "is_disabled": 0, "rental_uris": {"android": "https://dc.lft.to/lastmile_qr_scan", "ios": "https://dc.lft.to/lastmile_qr_scan"}, "name": "aa538a454b770136c62bf1872ea09c1f", "type": "electric_scooter"}, {"fusion_lat": 0.0, "bike_id": "f91fe89630a8e03926eb6439d57d9df8", "fusion_lon": 0.0, "lon": -77.0294715, "lat": 38.88504783333333, "is_reserved": 0, "is_disabled": 0, "rental_uris": {"android": "https://dc.lft.to/lastmile_qr_scan", "ios": "https://dc.lft.to/lastmile_qr_scan"}, "name": "f91fe89630a8e03926eb6439d57d9df8", "type": "electric_scooter"}, {"fusion_lat": 0.0, "bike_id": "1129bc75648cba55da0451efd9286a30", "fusion_lon": 0.0, "lon": -77.038766, "lat": 38.94875616666667, "is_reserved": 0, "is_disabled": 0, "rental_uris": {"android": "https://dc.lft.to/lastmile_qr_scan", "ios": "https://dc.lft.to/lastmile_qr_scan"}, "name": "1129bc75648cba55da0451efd9286a30", "type": "electric_scooter"}, {"fusion_lat": 0.0, "bike_id": "a50814411560bcb63f7c9d939ded2e78", "fusion_lon": 0.0, "lon": -76.88402233333333, "lat": 38.93168883333333, "is_reserved": 0, "is_disabled": 0, "rental_uris": {"android": "https://dc.lft.to/lastmile_qr_scan", "ios": "https://dc.lft.to/lastmile_qr_scan"}, "name": "a50814411560bcb63f7c9d939ded2e78", "type": "electric_bike"}, {"fusion_lat": 0.0, "bike_id": "f96c4a3b2bd1003a601e71ac96c4b821", "fusion_lon": 0.0, "lon": -77.04642283333334, "lat": 39.05499866666667, "is_reserved": 0, "is_disabled": 0, "rental_uris": {"android": "https://dc.lft.to/lastmile_qr_scan", "ios": "https://dc.lft.to/lastmile_qr_scan"}, "name": "f96c4a3b2bd1003a601e71ac96c4b821", "type": "electric_bike"}, {"fusion_lat": 0.0, "bike_id": "22348f342e1525411010aeb284f75879", "fusion_lon": 0.0, "lon": -77.05041483333333, "lat": 39.05197833333333, "is_reserved": 0, "is_disabled": 0, "rental_uris": {"android": "https://dc.lft.to/lastmile_qr_scan", "ios": "https://dc.lft.to/lastmile_qr_scan"}, "name": "22348f342e1525411010aeb284f75879", "type": "electric_bike"}, {"fusion_lat": 0.0, "bike_id": "d596fe448a31f8cea1f50f57ea12f060", "fusion_lon": 0.0, "lon": -76.95654883333333, "lat": 38.896219, "is_reserved": 0, "is_disabled": 0, "rental_uris": {"android": "https://dc.lft.to/lastmile_qr_scan", "ios": "https://dc.lft.to/lastmile_qr_scan"}, "name": "d596fe448a31f8cea1f50f57ea12f060", "type": "electric_scooter"}, {"fusion_lat": 0.0, "bike_id": "401f332707565a0c46b7c4b136ac3536", "fusion_lon": 0.0, "lon": -77.05141, "lat": 38.90388216666667, "is_reserved": 0, "is_disabled": 0, "rental_uris": {"android": "https://dc.lft.to/lastmile_qr_scan", "ios": "https://dc.lft.to/lastmile_qr_scan"}, "name": "401f332707565a0c46b7c4b136ac3536", "type": "electric_scooter"}, {"fusion_lat": 0.0, "bike_id": "6d44bd0a0064a351cbd5f06758edc9c8", "fusion_lon": 0.0, "lon": -77.03331516666667, "lat": 38.903683666666666, "is_reserved": 0, "is_disabled": 0, "rental_uris": {"android": "https://dc.lft.to/lastmile_qr_scan", "ios": "https://dc.lft.to/lastmile_qr_scan"}, "name": "6d44bd0a0064a351cbd5f06758edc9c8", "type": "electric_scooter"}, {"fusion_lat": 0.0, "bike_id": "36834c73a546609dc8015af21a32bb29", "fusion_lon": 0.0, "lon": -77.0246385, "lat": 38.941964, "is_reserved": 0, "is_disabled": 0, "rental_uris": {"android": "https://dc.lft.to/lastmile_qr_scan", "ios": "https://dc.lft.to/lastmile_qr_scan"}, "name": "36834c73a546609dc8015af21a32bb29", "type": "electric_scooter"}, {"fusion_lat": 0.0, "bike_id": "b01998d0cdc0956ca73723f55e018bcc", "fusion_lon": 0.0, "lon": -77.024839, "lat": 38.9169655, "is_reserved": 0, "is_disabled": 0, "rental_uris": {"android": "https://dc.lft.to/lastmile_qr_scan", "ios": "https://dc.lft.to/lastmile_qr_scan"}, "name": "b01998d0cdc0956ca73723f55e018bcc", "type": "electric_scooter"}, {"fusion_lat": 0.0, "bike_id": "a5fa7494cb196870a861488fb58a1cde", "fusion_lon": 0.0, "lon": -77.04325733333333, "lat": 38.90242766666667, "is_reserved": 0, "is_disabled": 0, "rental_uris": {"android": "https://dc.lft.to/lastmile_qr_scan", "ios": "https://dc.lft.to/lastmile_qr_scan"}, "name": "a5fa7494cb196870a861488fb58a1cde", "type": "electric_scooter"}, {"fusion_lat": 0.0, "bike_id": "3e037f2fe2e536d0b93ea49a64307d41", "fusion_lon": 0.0, "lon": -76.99674766666666, "lat": 38.83832683333333, "is_reserved": 0, "is_disabled": 0, "rental_uris": {"android": "https://dc.lft.to/lastmile_qr_scan", "ios": "https://dc.lft.to/lastmile_qr_scan"}, "name": "3e037f2fe2e536d0b93ea49a64307d41", "type": "electric_bike"}, {"fusion_lat": 0.0, "bike_id": "8607a8913e0cfac14eea3dff0626196e", "fusion_lon": 0.0, "lon": -77.03951616666667, "lat": 38.90462616666667, "is_reserved": 0, "is_disabled": 0, "rental_uris": {"android": "https://dc.lft.to/lastmile_qr_scan", "ios": "https://dc.lft.to/lastmile_qr_scan"}, "name": "8607a8913e0cfac14eea3dff0626196e", "type": "electric_scooter"}, {"fusion_lat": 0.0, "bike_id": "b2297df4d7d4fa5d004fad1e253de861", "fusion_lon": 0.0, "lon": -76.99457666666666, "lat": 38.90371666666667, "is_reserved": 0, "is_disabled": 0, "rental_uris": {"android": "https://dc.lft.to/lastmile_qr_scan", "ios": "https://dc.lft.to/lastmile_qr_scan"}, "name": "b2297df4d7d4fa5d004fad1e253de861", "type": "electric_scooter"}, {"fusion_lat": 0.0, "bike_id": "1d72a83eaf75cd110b9a59846f86264a", "fusion_lon": 0.0, "lon": -77.0332885, "lat": 38.90270916666667, "is_reserved": 0, "is_disabled": 0, "rental_uris": {"android": "https://dc.lft.to/lastmile_qr_scan", "ios": "https://dc.lft.to/lastmile_qr_scan"}, "name": "1d72a83eaf75cd110b9a59846f86264a", "type": "electric_scooter"}, {"fusion_lat": 0.0, "bike_id": "ae62be84d0ffa15f43a6655271c05f22", "fusion_lon": 0.0, "lon": -77.021817, "lat": 38.90972766666667, "is_reserved": 0, "is_disabled": 0, "rental_uris": {"android": "https://dc.lft.to/lastmile_qr_scan", "ios": "https://dc.lft.to/lastmile_qr_scan"}, "name": "ae62be84d0ffa15f43a6655271c05f22", "type": "electric_scooter"}, {"fusion_lat": 0.0, "bike_id": "d427e75a5a31da2fc49e5d392a71dca5", "fusion_lon": 0.0, "lon": -77.03040366666667, "lat": 38.9169395, "is_reserved": 0, "is_disabled": 0, "rental_uris": {"android": "https://dc.lft.to/lastmile_qr_scan", "ios": "https://dc.lft.to/lastmile_qr_scan"}, "name": "d427e75a5a31da2fc49e5d392a71dca5", "type": "electric_scooter"}, {"fusion_lat": 0.0, "bike_id": "5a4d46729aae4d630d1879955ab4a550", "fusion_lon": 0.0, "lon": -77.02382983333334, "lat": 38.912912166666665, "is_reserved": 0, "is_disabled": 0, "rental_uris": {"android": "https://dc.lft.to/lastmile_qr_scan", "ios": "https://dc.lft.to/lastmile_qr_scan"}, "name": "5a4d46729aae4d630d1879955ab4a550", "type": "electric_scooter"}, {"fusion_lat": 0.0, "bike_id": "de0f4ca123d3070fc58bab44bc54b88f", "fusion_lon": 0.0, "lon": -76.99383583333334, "lat": 38.8990145, "is_reserved": 0, "is_disabled": 0, "rental_uris": {"android": "https://dc.lft.to/lastmile_qr_scan", "ios": "https://dc.lft.to/lastmile_qr_scan"}, "name": "de0f4ca123d3070fc58bab44bc54b88f", "type": "electric_scooter"}, {"fusion_lat": 0.0, "bike_id": "0fd249754aefec03c9c1e603be9d3ade", "fusion_lon": 0.0, "lon": -77.03281783333334, "lat": 38.93766983333333, "is_reserved": 0, "is_disabled": 0, "rental_uris": {"android": "https://dc.lft.to/lastmile_qr_scan", "ios": "https://dc.lft.to/lastmile_qr_scan"}, "name": "0fd249754aefec03c9c1e603be9d3ade", "type": "electric_scooter"}, {"fusion_lat": 0.0, "bike_id": "0cfa43a82fad1001b269f2d8adde74fe", "fusion_lon": 0.0, "lon": -76.985242, "lat": 38.86687216666667, "is_reserved": 0, "is_disabled": 0, "rental_uris": {"android": "https://dc.lft.to/lastmile_qr_scan", "ios": "https://dc.lft.to/lastmile_qr_scan"}, "name": "0cfa43a82fad1001b269f2d8adde74fe", "type": "electric_scooter"}, {"fusion_lat": 0.0, "bike_id": "8a3e0a3846c75c573d8f42d44dd30543", "fusion_lon": 0.0, "lon": -76.97718833333333, "lat": 38.88817066666667, "is_reserved": 0, "is_disabled": 0, "rental_uris": {"android": "https://dc.lft.to/lastmile_qr_scan", "ios": "https://dc.lft.to/lastmile_qr_scan"}, "name": "8a3e0a3846c75c573d8f42d44dd30543", "type": "electric_scooter"}, {"fusion_lat": 0.0, "bike_id": "57f2a4176e5f834761ee6f88228883af", "fusion_lon": 0.0, "lon": -77.01340933333333, "lat": 38.929623166666666, "is_reserved": 0, "is_disabled": 0, "rental_uris": {"android": "https://dc.lft.to/lastmile_qr_scan", "ios": "https://dc.lft.to/lastmile_qr_scan"}, "name": "57f2a4176e5f834761ee6f88228883af", "type": "electric_scooter"}, {"fusion_lat": 0.0, "bike_id": "918acb7effa8e710f52b2a08b1065deb", "fusion_lon": 0.0, "lon": -77.02393766666667, "lat": 38.91667533333333, "is_reserved": 0, "is_disabled": 0, "rental_uris": {"android": "https://dc.lft.to/lastmile_qr_scan", "ios": "https://dc.lft.to/lastmile_qr_scan"}, "name": "918acb7effa8e710f52b2a08b1065deb", "type": "electric_scooter"}, {"fusion_lat": 0.0, "bike_id": "746f6be0723b942d9bd86403256fc81c", "fusion_lon": 0.0, "lon": -77.02730016666666, "lat": 38.943814833333334, "is_reserved": 0, "is_disabled": 0, "rental_uris": {"android": "https://dc.lft.to/lastmile_qr_scan", "ios": "https://dc.lft.to/lastmile_qr_scan"}, "name": "746f6be0723b942d9bd86403256fc81c", "type": "electric_scooter"}, {"fusion_lat": 0.0, "bike_id": "d6351ffa3835f250805d908c3feffa88", "fusion_lon": 0.0, "lon": -76.98967383333333, "lat": 38.86554816666667, "is_reserved": 0, "is_disabled": 0, "rental_uris": {"android": "https://dc.lft.to/lastmile_qr_scan", "ios": "https://dc.lft.to/lastmile_qr_scan"}, "name": "d6351ffa3835f250805d908c3feffa88", "type": "electric_scooter"}, {"fusion_lat": 0.0, "bike_id": "95199263d7cfa5193546835f9785f3c6", "fusion_lon": 0.0, "lon": -77.00042016666667, "lat": 38.908157833333334, "is_reserved": 0, "is_disabled": 0, "rental_uris": {"android": "https://dc.lft.to/lastmile_qr_scan", "ios": "https://dc.lft.to/lastmile_qr_scan"}, "name": "95199263d7cfa5193546835f9785f3c6", "type": "electric_scooter"}, {"fusion_lat": 0.0, "bike_id": "fd75b85afdd54b99de35097636893344", "fusion_lon": 0.0, "lon": -77.04340016666667, "lat": 38.93334316666667, "is_reserved": 0, "is_disabled": 0, "rental_uris": {"android": "https://dc.lft.to/lastmile_qr_scan", "ios": "https://dc.lft.to/lastmile_qr_scan"}, "name": "fd75b85afdd54b99de35097636893344", "type": "electric_scooter"}, {"fusion_lat": 0.0, "bike_id": "efd10f5e9e71542fe5af8dfb49b92232", "fusion_lon": 0.0, "lon": -77.03211516666667, "lat": 38.90950383333333, "is_reserved": 0, "is_disabled": 0, "rental_uris": {"android": "https://dc.lft.to/lastmile_qr_scan", "ios": "https://dc.lft.to/lastmile_qr_scan"}, "name": "efd10f5e9e71542fe5af8dfb49b92232", "type": "electric_scooter"}, {"fusion_lat": 0.0, "bike_id": "07ee9c49b5e5c0d673dbd9811a59ca47", "fusion_lon": 0.0, "lon": -77.03842683333333, "lat": 38.9040015, "is_reserved": 0, "is_disabled": 0, "rental_uris": {"android": "https://dc.lft.to/lastmile_qr_scan", "ios": "https://dc.lft.to/lastmile_qr_scan"}, "name": "07ee9c49b5e5c0d673dbd9811a59ca47", "type": "electric_scooter"}, {"fusion_lat": 0.0, "bike_id": "63fbc3b6cf3d4edc9da0fcc8a4c0e73d", "fusion_lon": 0.0, "lon": -77.01546, "lat": 38.9412985, "is_reserved": 0, "is_disabled": 0, "rental_uris": {"android": "https://dc.lft.to/lastmile_qr_scan", "ios": "https://dc.lft.to/lastmile_qr_scan"}, "name": "63fbc3b6cf3d4edc9da0fcc8a4c0e73d", "type": "electric_scooter"}, {"fusion_lat": 0.0, "bike_id": "feed6d3a55e2f45c95f7392e9dce45f7", "fusion_lon": 0.0, "lon": -77.04154116666666, "lat": 38.899267, "is_reserved": 0, "is_disabled": 0, "rental_uris": {"android": "https://dc.lft.to/lastmile_qr_scan", "ios": "https://dc.lft.to/lastmile_qr_scan"}, "name": "feed6d3a55e2f45c95f7392e9dce45f7", "type": "electric_scooter"}, {"fusion_lat": 0.0, "bike_id": "d02a81f9c8850d5cf668621daed77223", "fusion_lon": 0.0, "lon": -77.01201516666667, "lat": 38.8855325, "is_reserved": 0, "is_disabled": 0, "rental_uris": {"android": "https://dc.lft.to/lastmile_qr_scan", "ios": "https://dc.lft.to/lastmile_qr_scan"}, "name": "d02a81f9c8850d5cf668621daed77223", "type": "electric_scooter"}, {"fusion_lat": 0.0, "bike_id": "40a0c75e36eda72a898c154a435d0ff9", "fusion_lon": 0.0, "lon": -77.01579916666667, "lat": 38.876456166666664, "is_reserved": 0, "is_disabled": 0, "rental_uris": {"android": "https://dc.lft.to/lastmile_qr_scan", "ios": "https://dc.lft.to/lastmile_qr_scan"}, "name": "40a0c75e36eda72a898c154a435d0ff9", "type": "electric_scooter"}, {"fusion_lat": 0.0, "bike_id": "728382591be8d878b57be95d684471b3", "fusion_lon": 0.0, "lon": -77.04976533333334, "lat": 39.03556366666667, "is_reserved": 0, "is_disabled": 0, "rental_uris": {"android": "https://dc.lft.to/lastmile_qr_scan", "ios": "https://dc.lft.to/lastmile_qr_scan"}, "name": "728382591be8d878b57be95d684471b3", "type": "electric_bike"}, {"fusion_lat": 0.0, "bike_id": "600377edab3c6279bb78c444e6ca4090", "fusion_lon": 0.0, "lon": -77.10714583333333, "lat": 38.9649255, "is_reserved": 0, "is_disabled": 0, "rental_uris": {"android": "https://dc.lft.to/lastmile_qr_scan", "ios": "https://dc.lft.to/lastmile_qr_scan"}, "name": "600377edab3c6279bb78c444e6ca4090", "type": "electric_bike"}, {"fusion_lat": 0.0, "bike_id": "863696fcd1dcc3aa4ef7129aa2a01bcc", "fusion_lon": 0.0, "lon": -77.04875516666667, "lat": 38.90523666666667, "is_reserved": 0, "is_disabled": 0, "rental_uris": {"android": "https://dc.lft.to/lastmile_qr_scan", "ios": "https://dc.lft.to/lastmile_qr_scan"}, "name": "863696fcd1dcc3aa4ef7129aa2a01bcc", "type": "electric_scooter"}, {"fusion_lat": 0.0, "bike_id": "99dc3cd9c61e51809360ecc83590d6f2", "fusion_lon": 0.0, "lon": -77.01125966666666, "lat": 38.9002715, "is_reserved": 0, "is_disabled": 0, "rental_uris": {"android": "https://dc.lft.to/lastmile_qr_scan", "ios": "https://dc.lft.to/lastmile_qr_scan"}, "name": "99dc3cd9c61e51809360ecc83590d6f2", "type": "electric_scooter"}, {"fusion_lat": 0.0, "bike_id": "9f920c7292b8753de395726105429c7f", "fusion_lon": 0.0, "lon": -77.03686566666667, "lat": 38.916800333333335, "is_reserved": 0, "is_disabled": 0, "rental_uris": {"android": "https://dc.lft.to/lastmile_qr_scan", "ios": "https://dc.lft.to/lastmile_qr_scan"}, "name": "9f920c7292b8753de395726105429c7f", "type": "electric_scooter"}, {"fusion_lat": 0.0, "bike_id": "7b14582617e0ee4fd28a7960242a8ada", "fusion_lon": 0.0, "lon": -76.97531166666667, "lat": 38.922321833333335, "is_reserved": 0, "is_disabled": 0, "rental_uris": {"android": "https://dc.lft.to/lastmile_qr_scan", "ios": "https://dc.lft.to/lastmile_qr_scan"}, "name": "7b14582617e0ee4fd28a7960242a8ada", "type": "electric_scooter"}, {"fusion_lat": 0.0, "bike_id": "84fed27af963117ca6f408059f2b7f16", "fusion_lon": 0.0, "lon": -77.0307685, "lat": 38.88037033333333, "is_reserved": 0, "is_disabled": 0, "rental_uris": {"android": "https://dc.lft.to/lastmile_qr_scan", "ios": "https://dc.lft.to/lastmile_qr_scan"}, "name": "84fed27af963117ca6f408059f2b7f16", "type": "electric_scooter"}, {"fusion_lat": 0.0, "bike_id": "e5ddb09eb35d1610be54bedf8983a338", "fusion_lon": 0.0, "lon": -77.07431716666666, "lat": 38.999433, "is_reserved": 0, "is_disabled": 0, "rental_uris": {"android": "https://dc.lft.to/lastmile_qr_scan", "ios": "https://dc.lft.to/lastmile_qr_scan"}, "name": "e5ddb09eb35d1610be54bedf8983a338", "type": "electric_bike"}, {"fusion_lat": 0.0, "bike_id": "04c35e9a1b7aa7f9c7732216438a1695", "fusion_lon": 0.0, "lon": -76.98716916666666, "lat": 38.8662775, "is_reserved": 0, "is_disabled": 0, "rental_uris": {"android": "https://dc.lft.to/lastmile_qr_scan", "ios": "https://dc.lft.to/lastmile_qr_scan"}, "name": "04c35e9a1b7aa7f9c7732216438a1695", "type": "electric_scooter"}, {"fusion_lat": 0.0, "bike_id": "9e75286a036abd215990da5cff6c341d", "fusion_lon": 0.0, "lon": -77.02346566666667, "lat": 38.935363833333334, "is_reserved": 0, "is_disabled": 0, "rental_uris": {"android": "https://dc.lft.to/lastmile_qr_scan", "ios": "https://dc.lft.to/lastmile_qr_scan"}, "name": "9e75286a036abd215990da5cff6c341d", "type": "electric_scooter"}, {"fusion_lat": 0.0, "bike_id": "bfc845d77ff014d55e28d780cfe6e5e2", "fusion_lon": 0.0, "lon": -77.04465216666667, "lat": 38.90795083333333, "is_reserved": 0, "is_disabled": 0, "rental_uris": {"android": "https://dc.lft.to/lastmile_qr_scan", "ios": "https://dc.lft.to/lastmile_qr_scan"}, "name": "bfc845d77ff014d55e28d780cfe6e5e2", "type": "electric_scooter"}, {"fusion_lat": 0.0, "bike_id": "fba91e2b22171e7bb9e57a594c1cc867", "fusion_lon": 0.0, "lon": -77.0580485, "lat": 38.82391966666667, "is_reserved": 0, "is_disabled": 0, "rental_uris": {"android": "https://dc.lft.to/lastmile_qr_scan", "ios": "https://dc.lft.to/lastmile_qr_scan"}, "name": "fba91e2b22171e7bb9e57a594c1cc867", "type": "electric_bike"}, {"fusion_lat": 0.0, "bike_id": "ee66dda91217d2bf1239a0c408c30642", "fusion_lon": 0.0, "lon": -77.054662, "lat": 38.929185833333335, "is_reserved": 0, "is_disabled": 0, "rental_uris": {"android": "https://dc.lft.to/lastmile_qr_scan", "ios": "https://dc.lft.to/lastmile_qr_scan"}, "name": "ee66dda91217d2bf1239a0c408c30642", "type": "electric_scooter"}, {"fusion_lat": 0.0, "bike_id": "ce0f9cabe9cc9ac4208b7bd76876ad8f", "fusion_lon": 0.0, "lon": -77.02595266666667, "lat": 38.89260683333333, "is_reserved": 0, "is_disabled": 0, "rental_uris": {"android": "https://dc.lft.to/lastmile_qr_scan", "ios": "https://dc.lft.to/lastmile_qr_scan"}, "name": "ce0f9cabe9cc9ac4208b7bd76876ad8f", "type": "electric_scooter"}, {"fusion_lat": 0.0, "bike_id": "ff9a0452f486ebbf64423567e25c3a35", "fusion_lon": 0.0, "lon": -76.94919316666666, "lat": 38.89354483333334, "is_reserved": 0, "is_disabled": 0, "rental_uris": {"android": "https://dc.lft.to/lastmile_qr_scan", "ios": "https://dc.lft.to/lastmile_qr_scan"}, "name": "ff9a0452f486ebbf64423567e25c3a35", "type": "electric_scooter"}, {"fusion_lat": 0.0, "bike_id": "9331280e4fb7cb11f9ad5cc0cafc4bef", "fusion_lon": 0.0, "lon": -77.03652733333334, "lat": 38.92344333333333, "is_reserved": 0, "is_disabled": 0, "rental_uris": {"android": "https://dc.lft.to/lastmile_qr_scan", "ios": "https://dc.lft.to/lastmile_qr_scan"}, "name": "9331280e4fb7cb11f9ad5cc0cafc4bef", "type": "electric_scooter"}, {"fusion_lat": 0.0, "bike_id": "6185b9f90660bf0a9a49b824f074a0db", "fusion_lon": 0.0, "lon": -77.03206216666666, "lat": 38.9141855, "is_reserved": 0, "is_disabled": 0, "rental_uris": {"android": "https://dc.lft.to/lastmile_qr_scan", "ios": "https://dc.lft.to/lastmile_qr_scan"}, "name": "6185b9f90660bf0a9a49b824f074a0db", "type": "electric_scooter"}, {"fusion_lat": 0.0, "bike_id": "7f91d3a294a59195a3fd4d15467666f3", "fusion_lon": 0.0, "lon": -77.03511866666666, "lat": 38.92199, "is_reserved": 0, "is_disabled": 0, "rental_uris": {"android": "https://dc.lft.to/lastmile_qr_scan", "ios": "https://dc.lft.to/lastmile_qr_scan"}, "name": "7f91d3a294a59195a3fd4d15467666f3", "type": "electric_scooter"}, {"fusion_lat": 0.0, "bike_id": "ca9a073b84358ec642415d46bf1b1157", "fusion_lon": 0.0, "lon": -77.048528, "lat": 38.905236333333335, "is_reserved": 0, "is_disabled": 0, "rental_uris": {"android": "https://dc.lft.to/lastmile_qr_scan", "ios": "https://dc.lft.to/lastmile_qr_scan"}, "name": "ca9a073b84358ec642415d46bf1b1157", "type": "electric_scooter"}, {"fusion_lat": 0.0, "bike_id": "3e82d1537667836070225e897cf0c153", "fusion_lon": 0.0, "lon": -77.039096, "lat": 38.92569233333333, "is_reserved": 0, "is_disabled": 0, "rental_uris": {"android": "https://dc.lft.to/lastmile_qr_scan", "ios": "https://dc.lft.to/lastmile_qr_scan"}, "name": "3e82d1537667836070225e897cf0c153", "type": "electric_scooter"}, {"fusion_lat": 0.0, "bike_id": "b84702e23852899dc497489411efb82a", "fusion_lon": 0.0, "lon": -77.027661, "lat": 38.93463883333333, "is_reserved": 0, "is_disabled": 0, "rental_uris": {"android": "https://dc.lft.to/lastmile_qr_scan", "ios": "https://dc.lft.to/lastmile_qr_scan"}, "name": "b84702e23852899dc497489411efb82a", "type": "electric_scooter"}, {"fusion_lat": 0.0, "bike_id": "24b2b756c69f1538322ca5770f766868", "fusion_lon": 0.0, "lon": -77.09956416666667, "lat": 38.85791433333333, "is_reserved": 0, "is_disabled": 0, "rental_uris": {"android": "https://dc.lft.to/lastmile_qr_scan", "ios": "https://dc.lft.to/lastmile_qr_scan"}, "name": "24b2b756c69f1538322ca5770f766868", "type": "electric_bike"}, {"fusion_lat": 0.0, "bike_id": "86707c4b323615a6951341b05cca2494", "fusion_lon": 0.0, "lon": -77.02425583333333, "lat": 38.92650883333334, "is_reserved": 0, "is_disabled": 0, "rental_uris": {"android": "https://dc.lft.to/lastmile_qr_scan", "ios": "https://dc.lft.to/lastmile_qr_scan"}, "name": "86707c4b323615a6951341b05cca2494", "type": "electric_scooter"}, {"fusion_lat": 0.0, "bike_id": "0faf59d1e1b42a5d259e5aa3c08bb500", "fusion_lon": 0.0, "lon": -77.02713533333333, "lat": 38.91677266666667, "is_reserved": 0, "is_disabled": 0, "rental_uris": {"android": "https://dc.lft.to/lastmile_qr_scan", "ios": "https://dc.lft.to/lastmile_qr_scan"}, "name": "0faf59d1e1b42a5d259e5aa3c08bb500", "type": "electric_scooter"}, {"fusion_lat": 0.0, "bike_id": "a4e9e64d08dfa9476ab6a6d0f2dea5fa", "fusion_lon": 0.0, "lon": -77.02589666666667, "lat": 38.892581166666666, "is_reserved": 0, "is_disabled": 0, "rental_uris": {"android": "https://dc.lft.to/lastmile_qr_scan", "ios": "https://dc.lft.to/lastmile_qr_scan"}, "name": "a4e9e64d08dfa9476ab6a6d0f2dea5fa", "type": "electric_scooter"}, {"fusion_lat": 0.0, "bike_id": "ccd6d38b7923dd8c13cef4204e42ba25", "fusion_lon": 0.0, "lon": -76.98529216666667, "lat": 38.8668725, "is_reserved": 0, "is_disabled": 0, "rental_uris": {"android": "https://dc.lft.to/lastmile_qr_scan", "ios": "https://dc.lft.to/lastmile_qr_scan"}, "name": "ccd6d38b7923dd8c13cef4204e42ba25", "type": "electric_scooter"}, {"fusion_lat": 0.0, "bike_id": "84c4ae3c90f4674b7bb5b493f8dc2f0e", "fusion_lon": 0.0, "lon": -77.0318985, "lat": 38.904358, "is_reserved": 0, "is_disabled": 0, "rental_uris": {"android": "https://dc.lft.to/lastmile_qr_scan", "ios": "https://dc.lft.to/lastmile_qr_scan"}, "name": "84c4ae3c90f4674b7bb5b493f8dc2f0e", "type": "electric_scooter"}, {"fusion_lat": 0.0, "bike_id": "a3ef87a2f13338203fa3601a5df7606b", "fusion_lon": 0.0, "lon": -77.01498116666667, "lat": 38.926725, "is_reserved": 0, "is_disabled": 0, "rental_uris": {"android": "https://dc.lft.to/lastmile_qr_scan", "ios": "https://dc.lft.to/lastmile_qr_scan"}, "name": "a3ef87a2f13338203fa3601a5df7606b", "type": "electric_scooter"}, {"fusion_lat": 0.0, "bike_id": "82fc8656bb90a328512b89b82c5ce039", "fusion_lon": 0.0, "lon": -77.03652583333333, "lat": 38.93136533333333, "is_reserved": 0, "is_disabled": 0, "rental_uris": {"android": "https://dc.lft.to/lastmile_qr_scan", "ios": "https://dc.lft.to/lastmile_qr_scan"}, "name": "82fc8656bb90a328512b89b82c5ce039", "type": "electric_scooter"}, {"fusion_lat": 0.0, "bike_id": "f225fdfa6b71549d27ec46636aa35bbd", "fusion_lon": 0.0, "lon": -77.0220825, "lat": 38.924755166666664, "is_reserved": 0, "is_disabled": 0, "rental_uris": {"android": "https://dc.lft.to/lastmile_qr_scan", "ios": "https://dc.lft.to/lastmile_qr_scan"}, "name": "f225fdfa6b71549d27ec46636aa35bbd", "type": "electric_scooter"}, {"fusion_lat": 0.0, "bike_id": "1f030d1b24464ac06f5e0be5b29d1efc", "fusion_lon": 0.0, "lon": -76.90738666666667, "lat": 38.8961635, "is_reserved": 0, "is_disabled": 0, "rental_uris": {"android": "https://dc.lft.to/lastmile_qr_scan", "ios": "https://dc.lft.to/lastmile_qr_scan"}, "name": "1f030d1b24464ac06f5e0be5b29d1efc", "type": "electric_bike"}, {"fusion_lat": 0.0, "bike_id": "5a3777bee2c17434c38838ad4880e1e7", "fusion_lon": 0.0, "lon": -77.00702533333333, "lat": 38.90565933333333, "is_reserved": 0, "is_disabled": 0, "rental_uris": {"android": "https://dc.lft.to/lastmile_qr_scan", "ios": "https://dc.lft.to/lastmile_qr_scan"}, "name": "5a3777bee2c17434c38838ad4880e1e7", "type": "electric_scooter"}, {"fusion_lat": 0.0, "bike_id": "602d059d3f83cde346b9f8198c34dc42", "fusion_lon": 0.0, "lon": -76.99268183333334, "lat": 38.896068166666666, "is_reserved": 0, "is_disabled": 0, "rental_uris": {"android": "https://dc.lft.to/lastmile_qr_scan", "ios": "https://dc.lft.to/lastmile_qr_scan"}, "name": "602d059d3f83cde346b9f8198c34dc42", "type": "electric_scooter"}, {"fusion_lat": 0.0, "bike_id": "b3fcb118f1fb6878af8eba0955748321", "fusion_lon": 0.0, "lon": -77.05468766666667, "lat": 38.89780416666667, "is_reserved": 0, "is_disabled": 0, "rental_uris": {"android": "https://dc.lft.to/lastmile_qr_scan", "ios": "https://dc.lft.to/lastmile_qr_scan"}, "name": "b3fcb118f1fb6878af8eba0955748321", "type": "electric_scooter"}, {"fusion_lat": 0.0, "bike_id": "dbf96ba2da461be5c70dbf2cc92d9121", "fusion_lon": 0.0, "lon": -77.060003, "lat": 38.804275833333335, "is_reserved": 0, "is_disabled": 0, "rental_uris": {"android": "https://dc.lft.to/lastmile_qr_scan", "ios": "https://dc.lft.to/lastmile_qr_scan"}, "name": "dbf96ba2da461be5c70dbf2cc92d9121", "type": "electric_bike"}, {"fusion_lat": 0.0, "bike_id": "dc02d156856a128f2be46a53494f8d9c", "fusion_lon": 0.0, "lon": -77.04672416666666, "lat": 38.895633, "is_reserved": 0, "is_disabled": 0, "rental_uris": {"android": "https://dc.lft.to/lastmile_qr_scan", "ios": "https://dc.lft.to/lastmile_qr_scan"}, "name": "dc02d156856a128f2be46a53494f8d9c", "type": "electric_scooter"}, {"fusion_lat": 0.0, "bike_id": "ff450d685a947d76d31fabed46a1a7c0", "fusion_lon": 0.0, "lon": -77.00960983333333, "lat": 38.91709516666667, "is_reserved": 0, "is_disabled": 0, "rental_uris": {"android": "https://dc.lft.to/lastmile_qr_scan", "ios": "https://dc.lft.to/lastmile_qr_scan"}, "name": "ff450d685a947d76d31fabed46a1a7c0", "type": "electric_scooter"}, {"fusion_lat": 0.0, "bike_id": "59a4ebd0d582dd33fc4c93effc332392", "fusion_lon": 0.0, "lon": -77.01767566666666, "lat": 38.87483566666667, "is_reserved": 0, "is_disabled": 0, "rental_uris": {"android": "https://dc.lft.to/lastmile_qr_scan", "ios": "https://dc.lft.to/lastmile_qr_scan"}, "name": "59a4ebd0d582dd33fc4c93effc332392", "type": "electric_scooter"}, {"fusion_lat": 0.0, "bike_id": "12123464632fd8da32b8709d093d73da", "fusion_lon": 0.0, "lon": -76.98533033333334, "lat": 38.866894333333335, "is_reserved": 0, "is_disabled": 0, "rental_uris": {"android": "https://dc.lft.to/lastmile_qr_scan", "ios": "https://dc.lft.to/lastmile_qr_scan"}, "name": "12123464632fd8da32b8709d093d73da", "type": "electric_scooter"}, {"fusion_lat": 0.0, "bike_id": "7927e0ffabfb40e0df3b86bb979bace4", "fusion_lon": 0.0, "lon": -77.00727433333333, "lat": 38.884964333333336, "is_reserved": 0, "is_disabled": 0, "rental_uris": {"android": "https://dc.lft.to/lastmile_qr_scan", "ios": "https://dc.lft.to/lastmile_qr_scan"}, "name": "7927e0ffabfb40e0df3b86bb979bace4", "type": "electric_scooter"}, {"fusion_lat": 0.0, "bike_id": "f187d5f16d0b4e2d91c7d2d634f7b159", "fusion_lon": 0.0, "lon": -77.03211283333333, "lat": 38.89859883333333, "is_reserved": 0, "is_disabled": 0, "rental_uris": {"android": "https://dc.lft.to/lastmile_qr_scan", "ios": "https://dc.lft.to/lastmile_qr_scan"}, "name": "f187d5f16d0b4e2d91c7d2d634f7b159", "type": "electric_scooter"}, {"fusion_lat": 0.0, "bike_id": "f05d46a8e22f41ab24df27d52f684556", "fusion_lon": 0.0, "lon": -76.9995645, "lat": 38.921506, "is_reserved": 0, "is_disabled": 0, "rental_uris": {"android": "https://dc.lft.to/lastmile_qr_scan", "ios": "https://dc.lft.to/lastmile_qr_scan"}, "name": "f05d46a8e22f41ab24df27d52f684556", "type": "electric_scooter"}, {"fusion_lat": 0.0, "bike_id": "7e49b65b24da986434db77c5959f57e6", "fusion_lon": 0.0, "lon": -76.97767133333333, "lat": 38.951512, "is_reserved": 0, "is_disabled": 0, "rental_uris": {"android": "https://dc.lft.to/lastmile_qr_scan", "ios": "https://dc.lft.to/lastmile_qr_scan"}, "name": "7e49b65b24da986434db77c5959f57e6", "type": "electric_bike"}, {"fusion_lat": 0.0, "bike_id": "56c3acfa8523c3b0c286fa1edb29ed9f", "fusion_lon": 0.0, "lon": -77.04375883333333, "lat": 38.920909333333334, "is_reserved": 0, "is_disabled": 0, "rental_uris": {"android": "https://dc.lft.to/lastmile_qr_scan", "ios": "https://dc.lft.to/lastmile_qr_scan"}, "name": "56c3acfa8523c3b0c286fa1edb29ed9f", "type": "electric_scooter"}, {"fusion_lat": 0.0, "bike_id": "a6151ab572396653c5c1ec05cb93b11c", "fusion_lon": 0.0, "lon": -77.03330783333334, "lat": 38.909761833333334, "is_reserved": 0, "is_disabled": 0, "rental_uris": {"android": "https://dc.lft.to/lastmile_qr_scan", "ios": "https://dc.lft.to/lastmile_qr_scan"}, "name": "a6151ab572396653c5c1ec05cb93b11c", "type": "electric_scooter"}, {"fusion_lat": 0.0, "bike_id": "82f4b92a3e4030b9f15be40c3f4d8f60", "fusion_lon": 0.0, "lon": -77.02591683333333, "lat": 38.94200816666667, "is_reserved": 0, "is_disabled": 0, "rental_uris": {"android": "https://dc.lft.to/lastmile_qr_scan", "ios": "https://dc.lft.to/lastmile_qr_scan"}, "name": "82f4b92a3e4030b9f15be40c3f4d8f60", "type": "electric_scooter"}, {"fusion_lat": 0.0, "bike_id": "18299e310cb5c43d240368d8f0ef2c0f", "fusion_lon": 0.0, "lon": -77.04153233333334, "lat": 38.919143166666665, "is_reserved": 0, "is_disabled": 0, "rental_uris": {"android": "https://dc.lft.to/lastmile_qr_scan", "ios": "https://dc.lft.to/lastmile_qr_scan"}, "name": "18299e310cb5c43d240368d8f0ef2c0f", "type": "electric_scooter"}, {"fusion_lat": 0.0, "bike_id": "18c426b992db44615c68c68ed5c92449", "fusion_lon": 0.0, "lon": -77.04468433333334, "lat": 38.912647666666665, "is_reserved": 0, "is_disabled": 0, "rental_uris": {"android": "https://dc.lft.to/lastmile_qr_scan", "ios": "https://dc.lft.to/lastmile_qr_scan"}, "name": "18c426b992db44615c68c68ed5c92449", "type": "electric_scooter"}, {"fusion_lat": 0.0, "bike_id": "7d4bf926c7319fb66ceab2f2b77cc0a1", "fusion_lon": 0.0, "lon": -77.04342966666667, "lat": 38.90044316666667, "is_reserved": 0, "is_disabled": 0, "rental_uris": {"android": "https://dc.lft.to/lastmile_qr_scan", "ios": "https://dc.lft.to/lastmile_qr_scan"}, "name": "7d4bf926c7319fb66ceab2f2b77cc0a1", "type": "electric_scooter"}, {"fusion_lat": 0.0, "bike_id": "56ecea5c936b82cd4aad6e2be7580d1a", "fusion_lon": 0.0, "lon": -77.03987966666666, "lat": 38.933424, "is_reserved": 0, "is_disabled": 0, "rental_uris": {"android": "https://dc.lft.to/lastmile_qr_scan", "ios": "https://dc.lft.to/lastmile_qr_scan"}, "name": "56ecea5c936b82cd4aad6e2be7580d1a", "type": "electric_scooter"}, {"fusion_lat": 0.0, "bike_id": "b5dcaf93decb90bb1363dcd7127262fa", "fusion_lon": 0.0, "lon": -77.06330133333333, "lat": 38.9210805, "is_reserved": 0, "is_disabled": 0, "rental_uris": {"android": "https://dc.lft.to/lastmile_qr_scan", "ios": "https://dc.lft.to/lastmile_qr_scan"}, "name": "b5dcaf93decb90bb1363dcd7127262fa", "type": "electric_scooter"}, {"fusion_lat": 0.0, "bike_id": "c8bbf2005ebbe52503eafb7c523fa3bc", "fusion_lon": 0.0, "lon": -77.025642, "lat": 38.882909833333336, "is_reserved": 0, "is_disabled": 0, "rental_uris": {"android": "https://dc.lft.to/lastmile_qr_scan", "ios": "https://dc.lft.to/lastmile_qr_scan"}, "name": "c8bbf2005ebbe52503eafb7c523fa3bc", "type": "electric_scooter"}, {"fusion_lat": 0.0, "bike_id": "c7c5ec3575d56c1fcf96ffc04070cffa", "fusion_lon": 0.0, "lon": -76.9732425, "lat": 38.90478616666667, "is_reserved": 0, "is_disabled": 0, "rental_uris": {"android": "https://dc.lft.to/lastmile_qr_scan", "ios": "https://dc.lft.to/lastmile_qr_scan"}, "name": "c7c5ec3575d56c1fcf96ffc04070cffa", "type": "electric_bike"}, {"fusion_lat": 0.0, "bike_id": "da628a5bf4ebbb58d46d8d6d2c179019", "fusion_lon": 0.0, "lon": -77.05016616666667, "lat": 38.905145166666664, "is_reserved": 0, "is_disabled": 0, "rental_uris": {"android": "https://dc.lft.to/lastmile_qr_scan", "ios": "https://dc.lft.to/lastmile_qr_scan"}, "name": "da628a5bf4ebbb58d46d8d6d2c179019", "type": "electric_scooter"}, {"fusion_lat": 0.0, "bike_id": "6f3f265dc442d6051fed214fc0adeece", "fusion_lon": 0.0, "lon": -77.04799466666667, "lat": 38.892219833333336, "is_reserved": 0, "is_disabled": 0, "rental_uris": {"android": "https://dc.lft.to/lastmile_qr_scan", "ios": "https://dc.lft.to/lastmile_qr_scan"}, "name": "6f3f265dc442d6051fed214fc0adeece", "type": "electric_scooter"}, {"fusion_lat": 0.0, "bike_id": "b485d281c436ec27377336c668a839cd", "fusion_lon": 0.0, "lon": -76.9979465, "lat": 38.95642866666667, "is_reserved": 0, "is_disabled": 0, "rental_uris": {"android": "https://dc.lft.to/lastmile_qr_scan", "ios": "https://dc.lft.to/lastmile_qr_scan"}, "name": "b485d281c436ec27377336c668a839cd", "type": "electric_bike"}, {"fusion_lat": 0.0, "bike_id": "04ddb06599660b0d901bbda1c8f7c32f", "fusion_lon": 0.0, "lon": -77.01465083333333, "lat": 38.926689333333336, "is_reserved": 0, "is_disabled": 0, "rental_uris": {"android": "https://dc.lft.to/lastmile_qr_scan", "ios": "https://dc.lft.to/lastmile_qr_scan"}, "name": "04ddb06599660b0d901bbda1c8f7c32f", "type": "electric_scooter"}, {"fusion_lat": 0.0, "bike_id": "3a59091749012da41f88987db01c98c2", "fusion_lon": 0.0, "lon": -77.032748, "lat": 38.9014435, "is_reserved": 0, "is_disabled": 0, "rental_uris": {"android": "https://dc.lft.to/lastmile_qr_scan", "ios": "https://dc.lft.to/lastmile_qr_scan"}, "name": "3a59091749012da41f88987db01c98c2", "type": "electric_scooter"}, {"fusion_lat": 0.0, "bike_id": "e7006e8abf3af63739c289e2972d36d9", "fusion_lon": 0.0, "lon": -77.042837, "lat": 38.92058383333333, "is_reserved": 0, "is_disabled": 0, "rental_uris": {"android": "https://dc.lft.to/lastmile_qr_scan", "ios": "https://dc.lft.to/lastmile_qr_scan"}, "name": "e7006e8abf3af63739c289e2972d36d9", "type": "electric_scooter"}, {"fusion_lat": 0.0, "bike_id": "5f8a71f501fda0046e8b18a97f53493c", "fusion_lon": 0.0, "lon": -77.04495333333334, "lat": 38.903792333333335, "is_reserved": 0, "is_disabled": 0, "rental_uris": {"android": "https://dc.lft.to/lastmile_qr_scan", "ios": "https://dc.lft.to/lastmile_qr_scan"}, "name": "5f8a71f501fda0046e8b18a97f53493c", "type": "electric_scooter"}, {"fusion_lat": 0.0, "bike_id": "f37aa4dda694ef1bfbbb624e49edc758", "fusion_lon": 0.0, "lon": -77.04875916666667, "lat": 38.904528666666664, "is_reserved": 0, "is_disabled": 0, "rental_uris": {"android": "https://dc.lft.to/lastmile_qr_scan", "ios": "https://dc.lft.to/lastmile_qr_scan"}, "name": "f37aa4dda694ef1bfbbb624e49edc758", "type": "electric_scooter"}, {"fusion_lat": 0.0, "bike_id": "c3aab2e69bd369eb706f5f60cd69bc89", "fusion_lon": 0.0, "lon": -77.0239115, "lat": 38.88134016666667, "is_reserved": 0, "is_disabled": 0, "rental_uris": {"android": "https://dc.lft.to/lastmile_qr_scan", "ios": "https://dc.lft.to/lastmile_qr_scan"}, "name": "c3aab2e69bd369eb706f5f60cd69bc89", "type": "electric_scooter"}, {"fusion_lat": 0.0, "bike_id": "36ddb01293515fac089b091ddcf129d9", "fusion_lon": 0.0, "lon": -77.0533775, "lat": 38.852604166666666, "is_reserved": 0, "is_disabled": 0, "rental_uris": {"android": "https://dc.lft.to/lastmile_qr_scan", "ios": "https://dc.lft.to/lastmile_qr_scan"}, "name": "36ddb01293515fac089b091ddcf129d9", "type": "electric_bike"}, {"fusion_lat": 0.0, "bike_id": "48ff79179369a4506d80bb841ca013d4", "fusion_lon": 0.0, "lon": -77.02770283333334, "lat": 38.89201683333334, "is_reserved": 0, "is_disabled": 0, "rental_uris": {"android": "https://dc.lft.to/lastmile_qr_scan", "ios": "https://dc.lft.to/lastmile_qr_scan"}, "name": "48ff79179369a4506d80bb841ca013d4", "type": "electric_scooter"}, {"fusion_lat": 0.0, "bike_id": "fcbe04d8319599c93976bf41d43b8c9e", "fusion_lon": 0.0, "lon": -76.931869, "lat": 38.89874483333333, "is_reserved": 0, "is_disabled": 0, "rental_uris": {"android": "https://dc.lft.to/lastmile_qr_scan", "ios": "https://dc.lft.to/lastmile_qr_scan"}, "name": "fcbe04d8319599c93976bf41d43b8c9e", "type": "electric_scooter"}, {"fusion_lat": 0.0, "bike_id": "0fd025126a24791603a55c67796440e6", "fusion_lon": 0.0, "lon": -77.03601, "lat": 38.934851333333334, "is_reserved": 0, "is_disabled": 0, "rental_uris": {"android": "https://dc.lft.to/lastmile_qr_scan", "ios": "https://dc.lft.to/lastmile_qr_scan"}, "name": "0fd025126a24791603a55c67796440e6", "type": "electric_scooter"}, {"fusion_lat": 0.0, "bike_id": "2d1e8a0f1eea6159fdb0dd8e84ee1308", "fusion_lon": 0.0, "lon": -76.99681483333333, "lat": 38.887011333333334, "is_reserved": 0, "is_disabled": 0, "rental_uris": {"android": "https://dc.lft.to/lastmile_qr_scan", "ios": "https://dc.lft.to/lastmile_qr_scan"}, "name": "2d1e8a0f1eea6159fdb0dd8e84ee1308", "type": "electric_scooter"}, {"fusion_lat": 0.0, "bike_id": "54a44b9ef4b4ae0c23768d8861531886", "fusion_lon": 0.0, "lon": -77.0447895, "lat": 38.901120666666664, "is_reserved": 0, "is_disabled": 0, "rental_uris": {"android": "https://dc.lft.to/lastmile_qr_scan", "ios": "https://dc.lft.to/lastmile_qr_scan"}, "name": "54a44b9ef4b4ae0c23768d8861531886", "type": "electric_scooter"}, {"fusion_lat": 0.0, "bike_id": "91b3ad36f41297d2e5ffad42d0bcb5ad", "fusion_lon": 0.0, "lon": -77.036656, "lat": 38.922749833333334, "is_reserved": 0, "is_disabled": 0, "rental_uris": {"android": "https://dc.lft.to/lastmile_qr_scan", "ios": "https://dc.lft.to/lastmile_qr_scan"}, "name": "91b3ad36f41297d2e5ffad42d0bcb5ad", "type": "electric_scooter"}, {"fusion_lat": 0.0, "bike_id": "f917a68ec4a26bfa36a371193bde0547", "fusion_lon": 0.0, "lon": -77.0790255, "lat": 38.839346666666664, "is_reserved": 0, "is_disabled": 0, "rental_uris": {"android": "https://dc.lft.to/lastmile_qr_scan", "ios": "https://dc.lft.to/lastmile_qr_scan"}, "name": "f917a68ec4a26bfa36a371193bde0547", "type": "electric_bike"}, {"fusion_lat": 0.0, "bike_id": "ada32ae4373d06ba2cab278be4e328d8", "fusion_lon": 0.0, "lon": -77.00435066666667, "lat": 38.877482, "is_reserved": 0, "is_disabled": 0, "rental_uris": {"android": "https://dc.lft.to/lastmile_qr_scan", "ios": "https://dc.lft.to/lastmile_qr_scan"}, "name": "ada32ae4373d06ba2cab278be4e328d8", "type": "electric_scooter"}, {"fusion_lat": 0.0, "bike_id": "e01fd838fc73ca85edd55fd8d407d224", "fusion_lon": 0.0, "lon": -77.02934816666667, "lat": 38.90011533333333, "is_reserved": 0, "is_disabled": 0, "rental_uris": {"android": "https://dc.lft.to/lastmile_qr_scan", "ios": "https://dc.lft.to/lastmile_qr_scan"}, "name": "e01fd838fc73ca85edd55fd8d407d224", "type": "electric_scooter"}, {"fusion_lat": 0.0, "bike_id": "26b25f0ad1a886e66e4be66815d5d832", "fusion_lon": 0.0, "lon": -77.03439483333334, "lat": 38.918019666666666, "is_reserved": 0, "is_disabled": 0, "rental_uris": {"android": "https://dc.lft.to/lastmile_qr_scan", "ios": "https://dc.lft.to/lastmile_qr_scan"}, "name": "26b25f0ad1a886e66e4be66815d5d832", "type": "electric_scooter"}, {"fusion_lat": 0.0, "bike_id": "d7e674dc421c19d1688bd72582f02bba", "fusion_lon": 0.0, "lon": -77.04170583333334, "lat": 38.919829166666666, "is_reserved": 0, "is_disabled": 0, "rental_uris": {"android": "https://dc.lft.to/lastmile_qr_scan", "ios": "https://dc.lft.to/lastmile_qr_scan"}, "name": "d7e674dc421c19d1688bd72582f02bba", "type": "electric_scooter"}, {"fusion_lat": 0.0, "bike_id": "a9656acc21c04f9431fd30c3cdcea1d3", "fusion_lon": 0.0, "lon": -77.04194016666666, "lat": 38.920616333333335, "is_reserved": 0, "is_disabled": 0, "rental_uris": {"android": "https://dc.lft.to/lastmile_qr_scan", "ios": "https://dc.lft.to/lastmile_qr_scan"}, "name": "a9656acc21c04f9431fd30c3cdcea1d3", "type": "electric_scooter"}, {"fusion_lat": 0.0, "bike_id": "9b66efe68f3031b9bcce60e7e75475d2", "fusion_lon": 0.0, "lon": -76.97654033333333, "lat": 38.8987445, "is_reserved": 0, "is_disabled": 0, "rental_uris": {"android": "https://dc.lft.to/lastmile_qr_scan", "ios": "https://dc.lft.to/lastmile_qr_scan"}, "name": "9b66efe68f3031b9bcce60e7e75475d2", "type": "electric_bike"}, {"fusion_lat": 0.0, "bike_id": "5ff1e9c4420950175d812d9ece52f2e3", "fusion_lon": 0.0, "lon": -77.077909, "lat": 38.996077, "is_reserved": 0, "is_disabled": 0, "rental_uris": {"android": "https://dc.lft.to/lastmile_qr_scan", "ios": "https://dc.lft.to/lastmile_qr_scan"}, "name": "5ff1e9c4420950175d812d9ece52f2e3", "type": "electric_bike"}, {"fusion_lat": 0.0, "bike_id": "36808404e14ffa3a25aa257970e04397", "fusion_lon": 0.0, "lon": -77.03001816666666, "lat": 39.041971833333335, "is_reserved": 0, "is_disabled": 0, "rental_uris": {"android": "https://dc.lft.to/lastmile_qr_scan", "ios": "https://dc.lft.to/lastmile_qr_scan"}, "name": "36808404e14ffa3a25aa257970e04397", "type": "electric_bike"}, {"fusion_lat": 0.0, "bike_id": "db0791c25a54fbc651fc6b9604f25553", "fusion_lon": 0.0, "lon": -77.02693416666666, "lat": 38.918684999999996, "is_reserved": 0, "is_disabled": 0, "rental_uris": {"android": "https://dc.lft.to/lastmile_qr_scan", "ios": "https://dc.lft.to/lastmile_qr_scan"}, "name": "db0791c25a54fbc651fc6b9604f25553", "type": "electric_scooter"}, {"fusion_lat": 0.0, "bike_id": "1caa389536d5348999eaa62879467222", "fusion_lon": 0.0, "lon": -77.04658966666666, "lat": 38.90888733333333, "is_reserved": 0, "is_disabled": 0, "rental_uris": {"android": "https://dc.lft.to/lastmile_qr_scan", "ios": "https://dc.lft.to/lastmile_qr_scan"}, "name": "1caa389536d5348999eaa62879467222", "type": "electric_scooter"}, {"fusion_lat": 0.0, "bike_id": "9897d2c9209818c87d5fad929ed7f498", "fusion_lon": 0.0, "lon": -77.042108, "lat": 38.9213135, "is_reserved": 0, "is_disabled": 0, "rental_uris": {"android": "https://dc.lft.to/lastmile_qr_scan", "ios": "https://dc.lft.to/lastmile_qr_scan"}, "name": "9897d2c9209818c87d5fad929ed7f498", "type": "electric_scooter"}, {"fusion_lat": 0.0, "bike_id": "e76568698a51ab457a122062491bb78c", "fusion_lon": 0.0, "lon": -77.02472883333333, "lat": 38.91815616666667, "is_reserved": 0, "is_disabled": 0, "rental_uris": {"android": "https://dc.lft.to/lastmile_qr_scan", "ios": "https://dc.lft.to/lastmile_qr_scan"}, "name": "e76568698a51ab457a122062491bb78c", "type": "electric_scooter"}, {"fusion_lat": 0.0, "bike_id": "3aed67da94cf70ff9efe6d29856acf2f", "fusion_lon": 0.0, "lon": -77.07338483333334, "lat": 38.909910833333335, "is_reserved": 0, "is_disabled": 0, "rental_uris": {"android": "https://dc.lft.to/lastmile_qr_scan", "ios": "https://dc.lft.to/lastmile_qr_scan"}, "name": "3aed67da94cf70ff9efe6d29856acf2f", "type": "electric_scooter"}, {"fusion_lat": 0.0, "bike_id": "331f480c845dab2b41a4a31ffa5c1517", "fusion_lon": 0.0, "lon": -77.02839616666667, "lat": 38.92576316666667, "is_reserved": 0, "is_disabled": 0, "rental_uris": {"android": "https://dc.lft.to/lastmile_qr_scan", "ios": "https://dc.lft.to/lastmile_qr_scan"}, "name": "331f480c845dab2b41a4a31ffa5c1517", "type": "electric_scooter"}, {"fusion_lat": 0.0, "bike_id": "726cf643560ff577ed2b7ce398b32f97", "fusion_lon": 0.0, "lon": -77.05387666666667, "lat": 38.927947333333336, "is_reserved": 0, "is_disabled": 0, "rental_uris": {"android": "https://dc.lft.to/lastmile_qr_scan", "ios": "https://dc.lft.to/lastmile_qr_scan"}, "name": "726cf643560ff577ed2b7ce398b32f97", "type": "electric_scooter"}, {"fusion_lat": 0.0, "bike_id": "43592f4a5cd7f302686b72331057fc0a", "fusion_lon": 0.0, "lon": -76.95576083333333, "lat": 38.88769383333333, "is_reserved": 0, "is_disabled": 0, "rental_uris": {"android": "https://dc.lft.to/lastmile_qr_scan", "ios": "https://dc.lft.to/lastmile_qr_scan"}, "name": "43592f4a5cd7f302686b72331057fc0a", "type": "electric_scooter"}, {"fusion_lat": 0.0, "bike_id": "6c1681e8b31cfdd7876f94758a937256", "fusion_lon": 0.0, "lon": -77.02281816666667, "lat": 38.9257935, "is_reserved": 0, "is_disabled": 0, "rental_uris": {"android": "https://dc.lft.to/lastmile_qr_scan", "ios": "https://dc.lft.to/lastmile_qr_scan"}, "name": "6c1681e8b31cfdd7876f94758a937256", "type": "electric_scooter"}, {"fusion_lat": 0.0, "bike_id": "f6699e6a8d1087518eb33ec4ad218a66", "fusion_lon": 0.0, "lon": -77.035049, "lat": 38.9187945, "is_reserved": 0, "is_disabled": 0, "rental_uris": {"android": "https://dc.lft.to/lastmile_qr_scan", "ios": "https://dc.lft.to/lastmile_qr_scan"}, "name": "f6699e6a8d1087518eb33ec4ad218a66", "type": "electric_scooter"}, {"fusion_lat": 0.0, "bike_id": "366a59e34f20667430c0e57bc1330377", "fusion_lon": 0.0, "lon": -77.02226116666667, "lat": 38.926103, "is_reserved": 0, "is_disabled": 0, "rental_uris": {"android": "https://dc.lft.to/lastmile_qr_scan", "ios": "https://dc.lft.to/lastmile_qr_scan"}, "name": "366a59e34f20667430c0e57bc1330377", "type": "electric_scooter"}, {"fusion_lat": 0.0, "bike_id": "4331c82c977c98460d2155c3e7f1d998", "fusion_lon": 0.0, "lon": -76.98543633333334, "lat": 38.92018183333333, "is_reserved": 0, "is_disabled": 0, "rental_uris": {"android": "https://dc.lft.to/lastmile_qr_scan", "ios": "https://dc.lft.to/lastmile_qr_scan"}, "name": "4331c82c977c98460d2155c3e7f1d998", "type": "electric_scooter"}, {"fusion_lat": 0.0, "bike_id": "6b32d026f509caaa09205f1ec5b55fdb", "fusion_lon": 0.0, "lon": -77.04479933333333, "lat": 38.897423, "is_reserved": 0, "is_disabled": 0, "rental_uris": {"android": "https://dc.lft.to/lastmile_qr_scan", "ios": "https://dc.lft.to/lastmile_qr_scan"}, "name": "6b32d026f509caaa09205f1ec5b55fdb", "type": "electric_scooter"}, {"fusion_lat": 0.0, "bike_id": "0f976658d4af0a7d6739d2f0e67fda1a", "fusion_lon": 0.0, "lon": -77.0326095, "lat": 38.9045995, "is_reserved": 0, "is_disabled": 0, "rental_uris": {"android": "https://dc.lft.to/lastmile_qr_scan", "ios": "https://dc.lft.to/lastmile_qr_scan"}, "name": "0f976658d4af0a7d6739d2f0e67fda1a", "type": "electric_scooter"}, {"fusion_lat": 0.0, "bike_id": "e91b68105d1cba3968c3d6094ddbbfd6", "fusion_lon": 0.0, "lon": -77.04386466666666, "lat": 39.04718333333334, "is_reserved": 0, "is_disabled": 0, "rental_uris": {"android": "https://dc.lft.to/lastmile_qr_scan", "ios": "https://dc.lft.to/lastmile_qr_scan"}, "name": "e91b68105d1cba3968c3d6094ddbbfd6", "type": "electric_bike"}, {"fusion_lat": 0.0, "bike_id": "a3c059c0a0f3c4e84284642d4e6c7b61", "fusion_lon": 0.0, "lon": -77.04338183333333, "lat": 38.901627, "is_reserved": 0, "is_disabled": 0, "rental_uris": {"android": "https://dc.lft.to/lastmile_qr_scan", "ios": "https://dc.lft.to/lastmile_qr_scan"}, "name": "a3c059c0a0f3c4e84284642d4e6c7b61", "type": "electric_scooter"}, {"fusion_lat": 0.0, "bike_id": "cee48080c3e81e41a5f8f954dc1d51f6", "fusion_lon": 0.0, "lon": -77.0061115, "lat": 38.894758833333334, "is_reserved": 0, "is_disabled": 0, "rental_uris": {"android": "https://dc.lft.to/lastmile_qr_scan", "ios": "https://dc.lft.to/lastmile_qr_scan"}, "name": "cee48080c3e81e41a5f8f954dc1d51f6", "type": "electric_scooter"}, {"fusion_lat": 0.0, "bike_id": "3c80c60d994f2c48dd8a28cc16ffd751", "fusion_lon": 0.0, "lon": -77.037647, "lat": 38.91696533333333, "is_reserved": 0, "is_disabled": 0, "rental_uris": {"android": "https://dc.lft.to/lastmile_qr_scan", "ios": "https://dc.lft.to/lastmile_qr_scan"}, "name": "3c80c60d994f2c48dd8a28cc16ffd751", "type": "electric_scooter"}, {"fusion_lat": 0.0, "bike_id": "3048f3f410f9089438f6ebeb994d383e", "fusion_lon": 0.0, "lon": -77.0385315, "lat": 38.903874, "is_reserved": 0, "is_disabled": 0, "rental_uris": {"android": "https://dc.lft.to/lastmile_qr_scan", "ios": "https://dc.lft.to/lastmile_qr_scan"}, "name": "3048f3f410f9089438f6ebeb994d383e", "type": "electric_scooter"}, {"fusion_lat": 0.0, "bike_id": "72d642226a9dc07e414f00a288a67e9f", "fusion_lon": 0.0, "lon": -77.039737, "lat": 38.902694, "is_reserved": 0, "is_disabled": 0, "rental_uris": {"android": "https://dc.lft.to/lastmile_qr_scan", "ios": "https://dc.lft.to/lastmile_qr_scan"}, "name": "72d642226a9dc07e414f00a288a67e9f", "type": "electric_scooter"}, {"fusion_lat": 0.0, "bike_id": "4ce830d50f07d687aff1f2f1bab24458", "fusion_lon": 0.0, "lon": -77.01103666666667, "lat": 38.89486466666666, "is_reserved": 0, "is_disabled": 0, "rental_uris": {"android": "https://dc.lft.to/lastmile_qr_scan", "ios": "https://dc.lft.to/lastmile_qr_scan"}, "name": "4ce830d50f07d687aff1f2f1bab24458", "type": "electric_scooter"}, {"fusion_lat": 0.0, "bike_id": "05db673bfd719925c97bfc4220b5674f", "fusion_lon": 0.0, "lon": -76.98841333333333, "lat": 38.8427545, "is_reserved": 0, "is_disabled": 0, "rental_uris": {"android": "https://dc.lft.to/lastmile_qr_scan", "ios": "https://dc.lft.to/lastmile_qr_scan"}, "name": "05db673bfd719925c97bfc4220b5674f", "type": "electric_bike"}, {"fusion_lat": 0.0, "bike_id": "29d18296ddf8319255e4c061cde1d035", "fusion_lon": 0.0, "lon": -77.03583116666667, "lat": 38.992285833333334, "is_reserved": 0, "is_disabled": 0, "rental_uris": {"android": "https://dc.lft.to/lastmile_qr_scan", "ios": "https://dc.lft.to/lastmile_qr_scan"}, "name": "29d18296ddf8319255e4c061cde1d035", "type": "electric_scooter"}, {"fusion_lat": 0.0, "bike_id": "872c9492c14dae40b21d739b5275b6e5", "fusion_lon": 0.0, "lon": -77.01220966666666, "lat": 38.91519783333333, "is_reserved": 0, "is_disabled": 0, "rental_uris": {"android": "https://dc.lft.to/lastmile_qr_scan", "ios": "https://dc.lft.to/lastmile_qr_scan"}, "name": "872c9492c14dae40b21d739b5275b6e5", "type": "electric_scooter"}, {"fusion_lat": 0.0, "bike_id": "853f8449c427d894202c70c9febf1d9d", "fusion_lon": 0.0, "lon": -77.03301416666666, "lat": 38.909581, "is_reserved": 0, "is_disabled": 0, "rental_uris": {"android": "https://dc.lft.to/lastmile_qr_scan", "ios": "https://dc.lft.to/lastmile_qr_scan"}, "name": "853f8449c427d894202c70c9febf1d9d", "type": "electric_scooter"}, {"fusion_lat": 0.0, "bike_id": "f219ba7ca93f6610e9e5319e123014b6", "fusion_lon": 0.0, "lon": -76.97825816666666, "lat": 38.84372783333333, "is_reserved": 0, "is_disabled": 0, "rental_uris": {"android": "https://dc.lft.to/lastmile_qr_scan", "ios": "https://dc.lft.to/lastmile_qr_scan"}, "name": "f219ba7ca93f6610e9e5319e123014b6", "type": "electric_bike"}, {"fusion_lat": 0.0, "bike_id": "b0c0298d69a6f6acf2af0490c4c9c3c6", "fusion_lon": 0.0, "lon": -77.02407733333334, "lat": 38.921066333333336, "is_reserved": 0, "is_disabled": 0, "rental_uris": {"android": "https://dc.lft.to/lastmile_qr_scan", "ios": "https://dc.lft.to/lastmile_qr_scan"}, "name": "b0c0298d69a6f6acf2af0490c4c9c3c6", "type": "electric_scooter"}, {"fusion_lat": 0.0, "bike_id": "a29652acf29959b59f57853735b305a8", "fusion_lon": 0.0, "lon": -77.08331883333334, "lat": 38.854402, "is_reserved": 0, "is_disabled": 0, "rental_uris": {"android": "https://dc.lft.to/lastmile_qr_scan", "ios": "https://dc.lft.to/lastmile_qr_scan"}, "name": "a29652acf29959b59f57853735b305a8", "type": "electric_bike"}, {"fusion_lat": 0.0, "bike_id": "37ec14b19cd7ae255645f6cbcb78c850", "fusion_lon": 0.0, "lon": -77.03465233333333, "lat": 38.92637033333333, "is_reserved": 0, "is_disabled": 0, "rental_uris": {"android": "https://dc.lft.to/lastmile_qr_scan", "ios": "https://dc.lft.to/lastmile_qr_scan"}, "name": "37ec14b19cd7ae255645f6cbcb78c850", "type": "electric_scooter"}, {"fusion_lat": 0.0, "bike_id": "4902f48199995a66ef1b444b679735cd", "fusion_lon": 0.0, "lon": -76.97859716666666, "lat": 38.871951833333334, "is_reserved": 0, "is_disabled": 0, "rental_uris": {"android": "https://dc.lft.to/lastmile_qr_scan", "ios": "https://dc.lft.to/lastmile_qr_scan"}, "name": "4902f48199995a66ef1b444b679735cd", "type": "electric_scooter"}, {"fusion_lat": 0.0, "bike_id": "9798266dc6804093522b6ca6d638e295", "fusion_lon": 0.0, "lon": -77.01531283333334, "lat": 38.887428, "is_reserved": 0, "is_disabled": 0, "rental_uris": {"android": "https://dc.lft.to/lastmile_qr_scan", "ios": "https://dc.lft.to/lastmile_qr_scan"}, "name": "9798266dc6804093522b6ca6d638e295", "type": "electric_scooter"}, {"fusion_lat": 0.0, "bike_id": "511e46955f1eecc4eedc1d15ada36ceb", "fusion_lon": 0.0, "lon": -77.044342, "lat": 38.921624333333334, "is_reserved": 0, "is_disabled": 0, "rental_uris": {"android": "https://dc.lft.to/lastmile_qr_scan", "ios": "https://dc.lft.to/lastmile_qr_scan"}, "name": "511e46955f1eecc4eedc1d15ada36ceb", "type": "electric_scooter"}, {"fusion_lat": 0.0, "bike_id": "bb69ee95b4c847a7957a87e3f16fb6d8", "fusion_lon": 0.0, "lon": -77.04140166666667, "lat": 38.9063685, "is_reserved": 0, "is_disabled": 0, "rental_uris": {"android": "https://dc.lft.to/lastmile_qr_scan", "ios": "https://dc.lft.to/lastmile_qr_scan"}, "name": "bb69ee95b4c847a7957a87e3f16fb6d8", "type": "electric_scooter"}, {"fusion_lat": 0.0, "bike_id": "482ff6e610d9c60759c55f2e8c1e370f", "fusion_lon": 0.0, "lon": -77.03303916666667, "lat": 38.909691, "is_reserved": 0, "is_disabled": 0, "rental_uris": {"android": "https://dc.lft.to/lastmile_qr_scan", "ios": "https://dc.lft.to/lastmile_qr_scan"}, "name": "482ff6e610d9c60759c55f2e8c1e370f", "type": "electric_scooter"}, {"fusion_lat": 0.0, "bike_id": "f3fb7571b1b1b101e8ecf1f4ea242978", "fusion_lon": 0.0, "lon": -76.99506916666667, "lat": 38.8791615, "is_reserved": 0, "is_disabled": 0, "rental_uris": {"android": "https://dc.lft.to/lastmile_qr_scan", "ios": "https://dc.lft.to/lastmile_qr_scan"}, "name": "f3fb7571b1b1b101e8ecf1f4ea242978", "type": "electric_scooter"}, {"fusion_lat": 0.0, "bike_id": "182f50af86cb82048657c7421b4ca4ae", "fusion_lon": 0.0, "lon": -77.03254933333334, "lat": 38.942763, "is_reserved": 0, "is_disabled": 0, "rental_uris": {"android": "https://dc.lft.to/lastmile_qr_scan", "ios": "https://dc.lft.to/lastmile_qr_scan"}, "name": "182f50af86cb82048657c7421b4ca4ae", "type": "electric_scooter"}, {"fusion_lat": 0.0, "bike_id": "cecb2377bac2661eba9a953e2e1c3190", "fusion_lon": 0.0, "lon": -77.0352025, "lat": 38.9159655, "is_reserved": 0, "is_disabled": 0, "rental_uris": {"android": "https://dc.lft.to/lastmile_qr_scan", "ios": "https://dc.lft.to/lastmile_qr_scan"}, "name": "cecb2377bac2661eba9a953e2e1c3190", "type": "electric_scooter"}, {"fusion_lat": 0.0, "bike_id": "646b9224fb317b7934ecc1902ce3eb5f", "fusion_lon": 0.0, "lon": -77.0324, "lat": 38.91995333333333, "is_reserved": 0, "is_disabled": 0, "rental_uris": {"android": "https://dc.lft.to/lastmile_qr_scan", "ios": "https://dc.lft.to/lastmile_qr_scan"}, "name": "646b9224fb317b7934ecc1902ce3eb5f", "type": "electric_scooter"}, {"fusion_lat": 0.0, "bike_id": "7e96a1957aafd6d7847a93ff6bc93ddb", "fusion_lon": 0.0, "lon": -77.0227755, "lat": 38.9167, "is_reserved": 0, "is_disabled": 0, "rental_uris": {"android": "https://dc.lft.to/lastmile_qr_scan", "ios": "https://dc.lft.to/lastmile_qr_scan"}, "name": "7e96a1957aafd6d7847a93ff6bc93ddb", "type": "electric_scooter"}, {"fusion_lat": 0.0, "bike_id": "6fb744ce6a2b1d0e8783b1d8cf901800", "fusion_lon": 0.0, "lon": -77.061004, "lat": 38.9053065, "is_reserved": 0, "is_disabled": 0, "rental_uris": {"android": "https://dc.lft.to/lastmile_qr_scan", "ios": "https://dc.lft.to/lastmile_qr_scan"}, "name": "6fb744ce6a2b1d0e8783b1d8cf901800", "type": "electric_scooter"}, {"fusion_lat": 0.0, "bike_id": "684a08724ed77395d179b0454922220d", "fusion_lon": 0.0, "lon": -77.04133333333333, "lat": 38.92140633333333, "is_reserved": 0, "is_disabled": 0, "rental_uris": {"android": "https://dc.lft.to/lastmile_qr_scan", "ios": "https://dc.lft.to/lastmile_qr_scan"}, "name": "684a08724ed77395d179b0454922220d", "type": "electric_scooter"}, {"fusion_lat": 0.0, "bike_id": "2270fc0c8b4331223d4a585cd84bc357", "fusion_lon": 0.0, "lon": -77.03326933333334, "lat": 38.9390235, "is_reserved": 0, "is_disabled": 0, "rental_uris": {"android": "https://dc.lft.to/lastmile_qr_scan", "ios": "https://dc.lft.to/lastmile_qr_scan"}, "name": "2270fc0c8b4331223d4a585cd84bc357", "type": "electric_scooter"}, {"fusion_lat": 0.0, "bike_id": "c182fdd507f7252584739048d6cb7d35", "fusion_lon": 0.0, "lon": -76.99931583333333, "lat": 38.843148666666664, "is_reserved": 0, "is_disabled": 0, "rental_uris": {"android": "https://dc.lft.to/lastmile_qr_scan", "ios": "https://dc.lft.to/lastmile_qr_scan"}, "name": "c182fdd507f7252584739048d6cb7d35", "type": "electric_scooter"}, {"fusion_lat": 0.0, "bike_id": "999957c252f1b266cd7ebf24094d4c4b", "fusion_lon": 0.0, "lon": -77.01477766666666, "lat": 38.914127, "is_reserved": 0, "is_disabled": 0, "rental_uris": {"android": "https://dc.lft.to/lastmile_qr_scan", "ios": "https://dc.lft.to/lastmile_qr_scan"}, "name": "999957c252f1b266cd7ebf24094d4c4b", "type": "electric_scooter"}, {"fusion_lat": 0.0, "bike_id": "01f7291c801b8951ccbe88dfcdf199af", "fusion_lon": 0.0, "lon": -77.03421766666666, "lat": 38.919224, "is_reserved": 0, "is_disabled": 0, "rental_uris": {"android": "https://dc.lft.to/lastmile_qr_scan", "ios": "https://dc.lft.to/lastmile_qr_scan"}, "name": "01f7291c801b8951ccbe88dfcdf199af", "type": "electric_scooter"}, {"fusion_lat": 0.0, "bike_id": "9e1d224f736172a096333eba674eec8d", "fusion_lon": 0.0, "lon": -77.03380766666666, "lat": 38.90109533333333, "is_reserved": 0, "is_disabled": 0, "rental_uris": {"android": "https://dc.lft.to/lastmile_qr_scan", "ios": "https://dc.lft.to/lastmile_qr_scan"}, "name": "9e1d224f736172a096333eba674eec8d", "type": "electric_scooter"}, {"fusion_lat": 0.0, "bike_id": "499ca9b5fd065701f7c3ce7cedac3ec3", "fusion_lon": 0.0, "lon": -77.0279605, "lat": 38.91693816666667, "is_reserved": 0, "is_disabled": 0, "rental_uris": {"android": "https://dc.lft.to/lastmile_qr_scan", "ios": "https://dc.lft.to/lastmile_qr_scan"}, "name": "499ca9b5fd065701f7c3ce7cedac3ec3", "type": "electric_scooter"}, {"fusion_lat": 0.0, "bike_id": "689eda9672619a9b8ae529fdaf0d8d68", "fusion_lon": 0.0, "lon": -77.04599783333333, "lat": 38.902716166666664, "is_reserved": 0, "is_disabled": 0, "rental_uris": {"android": "https://dc.lft.to/lastmile_qr_scan", "ios": "https://dc.lft.to/lastmile_qr_scan"}, "name": "689eda9672619a9b8ae529fdaf0d8d68", "type": "electric_scooter"}, {"fusion_lat": 0.0, "bike_id": "4a7bdd917bad5edb53d351f01c5223f3", "fusion_lon": 0.0, "lon": -76.93358933333333, "lat": 38.887973833333334, "is_reserved": 0, "is_disabled": 0, "rental_uris": {"android": "https://dc.lft.to/lastmile_qr_scan", "ios": "https://dc.lft.to/lastmile_qr_scan"}, "name": "4a7bdd917bad5edb53d351f01c5223f3", "type": "electric_scooter"}, {"fusion_lat": 0.0, "bike_id": "3573bad0dd9f842890ede4aa92d6de1a", "fusion_lon": 0.0, "lon": -76.994954, "lat": 38.835618, "is_reserved": 0, "is_disabled": 0, "rental_uris": {"android": "https://dc.lft.to/lastmile_qr_scan", "ios": "https://dc.lft.to/lastmile_qr_scan"}, "name": "3573bad0dd9f842890ede4aa92d6de1a", "type": "electric_scooter"}, {"fusion_lat": 0.0, "bike_id": "0565e8d6607cd01d67fa4ec1d5dbf747", "fusion_lon": 0.0, "lon": -77.02439283333334, "lat": 38.90255616666666, "is_reserved": 0, "is_disabled": 0, "rental_uris": {"android": "https://dc.lft.to/lastmile_qr_scan", "ios": "https://dc.lft.to/lastmile_qr_scan"}, "name": "0565e8d6607cd01d67fa4ec1d5dbf747", "type": "electric_scooter"}, {"fusion_lat": 0.0, "bike_id": "0da5d0b53d47f9135ce017e428420ba1", "fusion_lon": 0.0, "lon": -77.04340433333333, "lat": 38.908128833333336, "is_reserved": 0, "is_disabled": 0, "rental_uris": {"android": "https://dc.lft.to/lastmile_qr_scan", "ios": "https://dc.lft.to/lastmile_qr_scan"}, "name": "0da5d0b53d47f9135ce017e428420ba1", "type": "electric_scooter"}, {"fusion_lat": 0.0, "bike_id": "8ac941fdc644689ebbab7ded28ba0972", "fusion_lon": 0.0, "lon": -77.0426415, "lat": 38.9223675, "is_reserved": 0, "is_disabled": 0, "rental_uris": {"android": "https://dc.lft.to/lastmile_qr_scan", "ios": "https://dc.lft.to/lastmile_qr_scan"}, "name": "8ac941fdc644689ebbab7ded28ba0972", "type": "electric_scooter"}, {"fusion_lat": 0.0, "bike_id": "9634aee7a57f1369fcc4c10a37448451", "fusion_lon": 0.0, "lon": -77.049978, "lat": 38.892339, "is_reserved": 0, "is_disabled": 0, "rental_uris": {"android": "https://dc.lft.to/lastmile_qr_scan", "ios": "https://dc.lft.to/lastmile_qr_scan"}, "name": "9634aee7a57f1369fcc4c10a37448451", "type": "electric_scooter"}, {"fusion_lat": 0.0, "bike_id": "3dcd3a6bc2060bd22884460c50c93cb7", "fusion_lon": 0.0, "lon": -77.011863, "lat": 38.900284166666665, "is_reserved": 0, "is_disabled": 0, "rental_uris": {"android": "https://dc.lft.to/lastmile_qr_scan", "ios": "https://dc.lft.to/lastmile_qr_scan"}, "name": "3dcd3a6bc2060bd22884460c50c93cb7", "type": "electric_scooter"}, {"fusion_lat": 0.0, "bike_id": "eac4fcc30efe87ee0555e281bd30662e", "fusion_lon": 0.0, "lon": -77.03872166666666, "lat": 38.90335616666667, "is_reserved": 0, "is_disabled": 0, "rental_uris": {"android": "https://dc.lft.to/lastmile_qr_scan", "ios": "https://dc.lft.to/lastmile_qr_scan"}, "name": "eac4fcc30efe87ee0555e281bd30662e", "type": "electric_scooter"}, {"fusion_lat": 0.0, "bike_id": "4b3c682454c28e7c06e7520293f67ca8", "fusion_lon": 0.0, "lon": -77.01445733333334, "lat": 38.92975233333333, "is_reserved": 0, "is_disabled": 0, "rental_uris": {"android": "https://dc.lft.to/lastmile_qr_scan", "ios": "https://dc.lft.to/lastmile_qr_scan"}, "name": "4b3c682454c28e7c06e7520293f67ca8", "type": "electric_scooter"}, {"fusion_lat": 0.0, "bike_id": "23af0db49d38808a7e21c36566b2f134", "fusion_lon": 0.0, "lon": -77.03440083333334, "lat": 38.90984266666667, "is_reserved": 0, "is_disabled": 0, "rental_uris": {"android": "https://dc.lft.to/lastmile_qr_scan", "ios": "https://dc.lft.to/lastmile_qr_scan"}, "name": "23af0db49d38808a7e21c36566b2f134", "type": "electric_scooter"}, {"fusion_lat": 0.0, "bike_id": "dac5f6857051d1ef27702be06ec44750", "fusion_lon": 0.0, "lon": -77.02637883333334, "lat": 38.91698, "is_reserved": 0, "is_disabled": 0, "rental_uris": {"android": "https://dc.lft.to/lastmile_qr_scan", "ios": "https://dc.lft.to/lastmile_qr_scan"}, "name": "dac5f6857051d1ef27702be06ec44750", "type": "electric_scooter"}, {"fusion_lat": 0.0, "bike_id": "87eda189a4d7b77c8b53b8a30d3b407d", "fusion_lon": 0.0, "lon": -77.00503816666667, "lat": 38.912653166666665, "is_reserved": 0, "is_disabled": 0, "rental_uris": {"android": "https://dc.lft.to/lastmile_qr_scan", "ios": "https://dc.lft.to/lastmile_qr_scan"}, "name": "87eda189a4d7b77c8b53b8a30d3b407d", "type": "electric_scooter"}, {"fusion_lat": 0.0, "bike_id": "15f587c8ab507eca1f10bb2e532689ba", "fusion_lon": 0.0, "lon": -77.034035, "lat": 38.9232205, "is_reserved": 0, "is_disabled": 0, "rental_uris": {"android": "https://dc.lft.to/lastmile_qr_scan", "ios": "https://dc.lft.to/lastmile_qr_scan"}, "name": "15f587c8ab507eca1f10bb2e532689ba", "type": "electric_scooter"}, {"fusion_lat": 0.0, "bike_id": "6162c7f0622987c47f4f87c710d08250", "fusion_lon": 0.0, "lon": -77.0227455, "lat": 38.925271333333335, "is_reserved": 0, "is_disabled": 0, "rental_uris": {"android": "https://dc.lft.to/lastmile_qr_scan", "ios": "https://dc.lft.to/lastmile_qr_scan"}, "name": "6162c7f0622987c47f4f87c710d08250", "type": "electric_scooter"}, {"fusion_lat": 0.0, "bike_id": "b135567a66d1ecd4c6e1c2f970946a4c", "fusion_lon": 0.0, "lon": -77.02216216666666, "lat": 38.89220566666667, "is_reserved": 0, "is_disabled": 0, "rental_uris": {"android": "https://dc.lft.to/lastmile_qr_scan", "ios": "https://dc.lft.to/lastmile_qr_scan"}, "name": "b135567a66d1ecd4c6e1c2f970946a4c", "type": "electric_scooter"}, {"fusion_lat": 0.0, "bike_id": "afd7403db7f4b16d0ca428e6ae19026a", "fusion_lon": 0.0, "lon": -77.03176016666667, "lat": 38.921031166666666, "is_reserved": 0, "is_disabled": 0, "rental_uris": {"android": "https://dc.lft.to/lastmile_qr_scan", "ios": "https://dc.lft.to/lastmile_qr_scan"}, "name": "afd7403db7f4b16d0ca428e6ae19026a", "type": "electric_scooter"}, {"fusion_lat": 0.0, "bike_id": "b35fb3d61c81f74cf5b9d753c3dc10ea", "fusion_lon": 0.0, "lon": -77.0306285, "lat": 38.88045483333333, "is_reserved": 0, "is_disabled": 0, "rental_uris": {"android": "https://dc.lft.to/lastmile_qr_scan", "ios": "https://dc.lft.to/lastmile_qr_scan"}, "name": "b35fb3d61c81f74cf5b9d753c3dc10ea", "type": "electric_scooter"}, {"fusion_lat": 0.0, "bike_id": "54d52eba849784f21bb829be5f7b927b", "fusion_lon": 0.0, "lon": -77.05861066666667, "lat": 38.936084, "is_reserved": 0, "is_disabled": 0, "rental_uris": {"android": "https://dc.lft.to/lastmile_qr_scan", "ios": "https://dc.lft.to/lastmile_qr_scan"}, "name": "54d52eba849784f21bb829be5f7b927b", "type": "electric_scooter"}, {"fusion_lat": 0.0, "bike_id": "2781ed5a987584ae080c109ee6e308de", "fusion_lon": 0.0, "lon": -77.04237033333334, "lat": 38.91261033333333, "is_reserved": 0, "is_disabled": 0, "rental_uris": {"android": "https://dc.lft.to/lastmile_qr_scan", "ios": "https://dc.lft.to/lastmile_qr_scan"}, "name": "2781ed5a987584ae080c109ee6e308de", "type": "electric_scooter"}, {"fusion_lat": 0.0, "bike_id": "21c3408183b4f645153ffe265c9c387e", "fusion_lon": 0.0, "lon": -77.0205565, "lat": 38.90969666666667, "is_reserved": 0, "is_disabled": 0, "rental_uris": {"android": "https://dc.lft.to/lastmile_qr_scan", "ios": "https://dc.lft.to/lastmile_qr_scan"}, "name": "21c3408183b4f645153ffe265c9c387e", "type": "electric_scooter"}, {"fusion_lat": 0.0, "bike_id": "52ffe817600f816d43cd9af2b5a9ada4", "fusion_lon": 0.0, "lon": -77.0348145, "lat": 38.90260833333333, "is_reserved": 0, "is_disabled": 0, "rental_uris": {"android": "https://dc.lft.to/lastmile_qr_scan", "ios": "https://dc.lft.to/lastmile_qr_scan"}, "name": "52ffe817600f816d43cd9af2b5a9ada4", "type": "electric_scooter"}, {"fusion_lat": 0.0, "bike_id": "97bcd2f6ca1b13bcef29bf2e2d0ebd7c", "fusion_lon": 0.0, "lon": -77.02416616666666, "lat": 38.916744666666666, "is_reserved": 0, "is_disabled": 0, "rental_uris": {"android": "https://dc.lft.to/lastmile_qr_scan", "ios": "https://dc.lft.to/lastmile_qr_scan"}, "name": "97bcd2f6ca1b13bcef29bf2e2d0ebd7c", "type": "electric_scooter"}, {"fusion_lat": 0.0, "bike_id": "2eb169425dc65d2c983e8b0fea9e89a0", "fusion_lon": 0.0, "lon": -77.01852916666667, "lat": 38.91492233333334, "is_reserved": 0, "is_disabled": 0, "rental_uris": {"android": "https://dc.lft.to/lastmile_qr_scan", "ios": "https://dc.lft.to/lastmile_qr_scan"}, "name": "2eb169425dc65d2c983e8b0fea9e89a0", "type": "electric_scooter"}, {"fusion_lat": 0.0, "bike_id": "3a9386ea9a9ec7f94b4e097fd8c54241", "fusion_lon": 0.0, "lon": -77.0320945, "lat": 38.9095185, "is_reserved": 0, "is_disabled": 0, "rental_uris": {"android": "https://dc.lft.to/lastmile_qr_scan", "ios": "https://dc.lft.to/lastmile_qr_scan"}, "name": "3a9386ea9a9ec7f94b4e097fd8c54241", "type": "electric_scooter"}, {"fusion_lat": 0.0, "bike_id": "50f5778387f9534ec3e34dcd42bf0012", "fusion_lon": 0.0, "lon": -77.0450535, "lat": 38.892244, "is_reserved": 0, "is_disabled": 0, "rental_uris": {"android": "https://dc.lft.to/lastmile_qr_scan", "ios": "https://dc.lft.to/lastmile_qr_scan"}, "name": "50f5778387f9534ec3e34dcd42bf0012", "type": "electric_scooter"}, {"fusion_lat": 0.0, "bike_id": "a387bc85d8fd0bf4756e533150adf47b", "fusion_lon": 0.0, "lon": -77.06299233333333, "lat": 38.90601233333334, "is_reserved": 0, "is_disabled": 0, "rental_uris": {"android": "https://dc.lft.to/lastmile_qr_scan", "ios": "https://dc.lft.to/lastmile_qr_scan"}, "name": "a387bc85d8fd0bf4756e533150adf47b", "type": "electric_scooter"}, {"fusion_lat": 0.0, "bike_id": "0ca479af52e87780c5511d2ff03458cc", "fusion_lon": 0.0, "lon": -77.03325116666667, "lat": 38.947169, "is_reserved": 0, "is_disabled": 0, "rental_uris": {"android": "https://dc.lft.to/lastmile_qr_scan", "ios": "https://dc.lft.to/lastmile_qr_scan"}, "name": "0ca479af52e87780c5511d2ff03458cc", "type": "electric_scooter"}, {"fusion_lat": 0.0, "bike_id": "e3a09566a4a712c52ab090564f8aac6b", "fusion_lon": 0.0, "lon": -76.9986455, "lat": 38.90028683333333, "is_reserved": 0, "is_disabled": 0, "rental_uris": {"android": "https://dc.lft.to/lastmile_qr_scan", "ios": "https://dc.lft.to/lastmile_qr_scan"}, "name": "e3a09566a4a712c52ab090564f8aac6b", "type": "electric_scooter"}, {"fusion_lat": 0.0, "bike_id": "6204b2e3d7c488a76487b109ef9e83a8", "fusion_lon": 0.0, "lon": -76.9861185, "lat": 38.93830466666667, "is_reserved": 0, "is_disabled": 0, "rental_uris": {"android": "https://dc.lft.to/lastmile_qr_scan", "ios": "https://dc.lft.to/lastmile_qr_scan"}, "name": "6204b2e3d7c488a76487b109ef9e83a8", "type": "electric_scooter"}, {"fusion_lat": 0.0, "bike_id": "3223c803dd0ed6e13fc8c3e0790c5e61", "fusion_lon": 0.0, "lon": -77.03258683333334, "lat": 38.9309935, "is_reserved": 0, "is_disabled": 0, "rental_uris": {"android": "https://dc.lft.to/lastmile_qr_scan", "ios": "https://dc.lft.to/lastmile_qr_scan"}, "name": "3223c803dd0ed6e13fc8c3e0790c5e61", "type": "electric_scooter"}, {"fusion_lat": 0.0, "bike_id": "d56833604aa0456e134517d02d8d6880", "fusion_lon": 0.0, "lon": -77.01220166666667, "lat": 38.899075, "is_reserved": 0, "is_disabled": 0, "rental_uris": {"android": "https://dc.lft.to/lastmile_qr_scan", "ios": "https://dc.lft.to/lastmile_qr_scan"}, "name": "d56833604aa0456e134517d02d8d6880", "type": "electric_scooter"}, {"fusion_lat": 0.0, "bike_id": "fc4baabbfb66904340317b31afcc2be1", "fusion_lon": 0.0, "lon": -76.994744, "lat": 38.862134833333336, "is_reserved": 0, "is_disabled": 0, "rental_uris": {"android": "https://dc.lft.to/lastmile_qr_scan", "ios": "https://dc.lft.to/lastmile_qr_scan"}, "name": "fc4baabbfb66904340317b31afcc2be1", "type": "electric_scooter"}, {"fusion_lat": 0.0, "bike_id": "b4aa6199329e088a59a5139e54ff7df3", "fusion_lon": 0.0, "lon": -77.0427655, "lat": 38.9111575, "is_reserved": 0, "is_disabled": 0, "rental_uris": {"android": "https://dc.lft.to/lastmile_qr_scan", "ios": "https://dc.lft.to/lastmile_qr_scan"}, "name": "b4aa6199329e088a59a5139e54ff7df3", "type": "electric_scooter"}, {"fusion_lat": 0.0, "bike_id": "dbc33a8592b2f229de97a55f4cfc558b", "fusion_lon": 0.0, "lon": -77.0363345, "lat": 38.904740833333335, "is_reserved": 0, "is_disabled": 0, "rental_uris": {"android": "https://dc.lft.to/lastmile_qr_scan", "ios": "https://dc.lft.to/lastmile_qr_scan"}, "name": "dbc33a8592b2f229de97a55f4cfc558b", "type": "electric_scooter"}, {"fusion_lat": 0.0, "bike_id": "7e8d2adaa87626094c806734d52f5a41", "fusion_lon": 0.0, "lon": -76.94885016666667, "lat": 38.895107833333334, "is_reserved": 0, "is_disabled": 0, "rental_uris": {"android": "https://dc.lft.to/lastmile_qr_scan", "ios": "https://dc.lft.to/lastmile_qr_scan"}, "name": "7e8d2adaa87626094c806734d52f5a41", "type": "electric_scooter"}, {"fusion_lat": 0.0, "bike_id": "c42d00389be8851618546bfada66a610", "fusion_lon": 0.0, "lon": -77.0326395, "lat": 38.9365465, "is_reserved": 0, "is_disabled": 0, "rental_uris": {"android": "https://dc.lft.to/lastmile_qr_scan", "ios": "https://dc.lft.to/lastmile_qr_scan"}, "name": "c42d00389be8851618546bfada66a610", "type": "electric_scooter"}, {"fusion_lat": 0.0, "bike_id": "73d9a0724b0831c0fb0900edf52d4eb1", "fusion_lon": 0.0, "lon": -77.03757983333334, "lat": 38.9067085, "is_reserved": 0, "is_disabled": 0, "rental_uris": {"android": "https://dc.lft.to/lastmile_qr_scan", "ios": "https://dc.lft.to/lastmile_qr_scan"}, "name": "73d9a0724b0831c0fb0900edf52d4eb1", "type": "electric_scooter"}, {"fusion_lat": 0.0, "bike_id": "2a7de1c7f29875b999786a74ea84ea17", "fusion_lon": 0.0, "lon": -77.02422966666667, "lat": 38.920378166666666, "is_reserved": 0, "is_disabled": 0, "rental_uris": {"android": "https://dc.lft.to/lastmile_qr_scan", "ios": "https://dc.lft.to/lastmile_qr_scan"}, "name": "2a7de1c7f29875b999786a74ea84ea17", "type": "electric_scooter"}, {"fusion_lat": 0.0, "bike_id": "5674b1ed21aed6e16c52e26d1f45e9d7", "fusion_lon": 0.0, "lon": -77.04675533333334, "lat": 38.89456366666667, "is_reserved": 0, "is_disabled": 0, "rental_uris": {"android": "https://dc.lft.to/lastmile_qr_scan", "ios": "https://dc.lft.to/lastmile_qr_scan"}, "name": "5674b1ed21aed6e16c52e26d1f45e9d7", "type": "electric_scooter"}, {"fusion_lat": 0.0, "bike_id": "d10abcbd20c1e96d2ced8b83127689ca", "fusion_lon": 0.0, "lon": -77.04650866666667, "lat": 38.92120933333333, "is_reserved": 0, "is_disabled": 0, "rental_uris": {"android": "https://dc.lft.to/lastmile_qr_scan", "ios": "https://dc.lft.to/lastmile_qr_scan"}, "name": "d10abcbd20c1e96d2ced8b83127689ca", "type": "electric_scooter"}, {"fusion_lat": 0.0, "bike_id": "2ff71c5fe1f1a2406e84bc3adb7729d6", "fusion_lon": 0.0, "lon": -77.04155716666666, "lat": 38.91606183333333, "is_reserved": 0, "is_disabled": 0, "rental_uris": {"android": "https://dc.lft.to/lastmile_qr_scan", "ios": "https://dc.lft.to/lastmile_qr_scan"}, "name": "2ff71c5fe1f1a2406e84bc3adb7729d6", "type": "electric_scooter"}, {"fusion_lat": 0.0, "bike_id": "0951dff9e6cfc04b908c1005eead2a40", "fusion_lon": 0.0, "lon": -77.027137, "lat": 38.91139366666667, "is_reserved": 0, "is_disabled": 0, "rental_uris": {"android": "https://dc.lft.to/lastmile_qr_scan", "ios": "https://dc.lft.to/lastmile_qr_scan"}, "name": "0951dff9e6cfc04b908c1005eead2a40", "type": "electric_scooter"}, {"fusion_lat": 0.0, "bike_id": "42941b91690653c986ee18d238195a2c", "fusion_lon": 0.0, "lon": -77.01298133333333, "lat": 38.93025183333334, "is_reserved": 0, "is_disabled": 0, "rental_uris": {"android": "https://dc.lft.to/lastmile_qr_scan", "ios": "https://dc.lft.to/lastmile_qr_scan"}, "name": "42941b91690653c986ee18d238195a2c", "type": "electric_scooter"}, {"fusion_lat": 0.0, "bike_id": "07ff4fab30e5cb79db0e672b922cceac", "fusion_lon": 0.0, "lon": -77.00248283333333, "lat": 38.952448, "is_reserved": 0, "is_disabled": 0, "rental_uris": {"android": "https://dc.lft.to/lastmile_qr_scan", "ios": "https://dc.lft.to/lastmile_qr_scan"}, "name": "07ff4fab30e5cb79db0e672b922cceac", "type": "electric_scooter"}, {"fusion_lat": 0.0, "bike_id": "0a2ee7bda50008926ebd102e01c0bba1", "fusion_lon": 0.0, "lon": -77.04152433333333, "lat": 38.91813833333333, "is_reserved": 0, "is_disabled": 0, "rental_uris": {"android": "https://dc.lft.to/lastmile_qr_scan", "ios": "https://dc.lft.to/lastmile_qr_scan"}, "name": "0a2ee7bda50008926ebd102e01c0bba1", "type": "electric_scooter"}, {"fusion_lat": 0.0, "bike_id": "1568694fdff18355a2b79f9962d0be98", "fusion_lon": 0.0, "lon": -77.0610175, "lat": 38.937088833333334, "is_reserved": 0, "is_disabled": 0, "rental_uris": {"android": "https://dc.lft.to/lastmile_qr_scan", "ios": "https://dc.lft.to/lastmile_qr_scan"}, "name": "1568694fdff18355a2b79f9962d0be98", "type": "electric_scooter"}, {"fusion_lat": 0.0, "bike_id": "925eb4295b718321dabbb380dc350777", "fusion_lon": 0.0, "lon": -77.03373383333333, "lat": 38.92153583333333, "is_reserved": 0, "is_disabled": 0, "rental_uris": {"android": "https://dc.lft.to/lastmile_qr_scan", "ios": "https://dc.lft.to/lastmile_qr_scan"}, "name": "925eb4295b718321dabbb380dc350777", "type": "electric_scooter"}, {"fusion_lat": 0.0, "bike_id": "e222f147adb47a99ea05eb34a9d16732", "fusion_lon": 0.0, "lon": -77.02969333333333, "lat": 38.89637866666666, "is_reserved": 0, "is_disabled": 0, "rental_uris": {"android": "https://dc.lft.to/lastmile_qr_scan", "ios": "https://dc.lft.to/lastmile_qr_scan"}, "name": "e222f147adb47a99ea05eb34a9d16732", "type": "electric_scooter"}, {"fusion_lat": 0.0, "bike_id": "2421f5324a363efeb3fbf0184b42e949", "fusion_lon": 0.0, "lon": -77.033219, "lat": 38.89996, "is_reserved": 0, "is_disabled": 0, "rental_uris": {"android": "https://dc.lft.to/lastmile_qr_scan", "ios": "https://dc.lft.to/lastmile_qr_scan"}, "name": "2421f5324a363efeb3fbf0184b42e949", "type": "electric_scooter"}, {"fusion_lat": 0.0, "bike_id": "2ca1adb3ec6b9fd11febebaa6bb4f22e", "fusion_lon": 0.0, "lon": -77.02269683333333, "lat": 38.924834833333335, "is_reserved": 0, "is_disabled": 0, "rental_uris": {"android": "https://dc.lft.to/lastmile_qr_scan", "ios": "https://dc.lft.to/lastmile_qr_scan"}, "name": "2ca1adb3ec6b9fd11febebaa6bb4f22e", "type": "electric_scooter"}, {"fusion_lat": 0.0, "bike_id": "27bdfadd20666b17157231fefd667b02", "fusion_lon": 0.0, "lon": -77.046975, "lat": 38.9213515, "is_reserved": 0, "is_disabled": 0, "rental_uris": {"android": "https://dc.lft.to/lastmile_qr_scan", "ios": "https://dc.lft.to/lastmile_qr_scan"}, "name": "27bdfadd20666b17157231fefd667b02", "type": "electric_scooter"}, {"fusion_lat": 0.0, "bike_id": "3cd5363052db40370856be972be3867b", "fusion_lon": 0.0, "lon": -77.05145416666667, "lat": 38.92371933333333, "is_reserved": 0, "is_disabled": 0, "rental_uris": {"android": "https://dc.lft.to/lastmile_qr_scan", "ios": "https://dc.lft.to/lastmile_qr_scan"}, "name": "3cd5363052db40370856be972be3867b", "type": "electric_scooter"}, {"fusion_lat": 0.0, "bike_id": "4436994addda9a0bc57fc33f11ca052a", "fusion_lon": 0.0, "lon": -76.9960445, "lat": 38.8869765, "is_reserved": 0, "is_disabled": 0, "rental_uris": {"android": "https://dc.lft.to/lastmile_qr_scan", "ios": "https://dc.lft.to/lastmile_qr_scan"}, "name": "4436994addda9a0bc57fc33f11ca052a", "type": "electric_scooter"}, {"fusion_lat": 0.0, "bike_id": "fa0e39ed0b15e3bad0b686e80b354829", "fusion_lon": 0.0, "lon": -77.0317015, "lat": 38.89201033333333, "is_reserved": 0, "is_disabled": 0, "rental_uris": {"android": "https://dc.lft.to/lastmile_qr_scan", "ios": "https://dc.lft.to/lastmile_qr_scan"}, "name": "fa0e39ed0b15e3bad0b686e80b354829", "type": "electric_scooter"}, {"fusion_lat": 0.0, "bike_id": "37681daa619d4ccd3eed7e2d6afc4a09", "fusion_lon": 0.0, "lon": -77.044792, "lat": 38.9051085, "is_reserved": 0, "is_disabled": 0, "rental_uris": {"android": "https://dc.lft.to/lastmile_qr_scan", "ios": "https://dc.lft.to/lastmile_qr_scan"}, "name": "37681daa619d4ccd3eed7e2d6afc4a09", "type": "electric_scooter"}, {"fusion_lat": 0.0, "bike_id": "4afa1c0cd253b7c45a37f80e8f608b21", "fusion_lon": 0.0, "lon": -77.032168, "lat": 38.892215666666665, "is_reserved": 0, "is_disabled": 0, "rental_uris": {"android": "https://dc.lft.to/lastmile_qr_scan", "ios": "https://dc.lft.to/lastmile_qr_scan"}, "name": "4afa1c0cd253b7c45a37f80e8f608b21", "type": "electric_scooter"}, {"fusion_lat": 0.0, "bike_id": "ac98aa15005cdffa454a8ee36635d0f4", "fusion_lon": 0.0, "lon": -77.05173916666666, "lat": 38.92425983333333, "is_reserved": 0, "is_disabled": 0, "rental_uris": {"android": "https://dc.lft.to/lastmile_qr_scan", "ios": "https://dc.lft.to/lastmile_qr_scan"}, "name": "ac98aa15005cdffa454a8ee36635d0f4", "type": "electric_scooter"}, {"fusion_lat": 0.0, "bike_id": "13fc94ae1cd54ce991781b80ebd6d1a8", "fusion_lon": 0.0, "lon": -77.02534066666666, "lat": 38.927476166666665, "is_reserved": 0, "is_disabled": 0, "rental_uris": {"android": "https://dc.lft.to/lastmile_qr_scan", "ios": "https://dc.lft.to/lastmile_qr_scan"}, "name": "13fc94ae1cd54ce991781b80ebd6d1a8", "type": "electric_scooter"}, {"fusion_lat": 0.0, "bike_id": "049e3255523a563d12a67dc5ec03e053", "fusion_lon": 0.0, "lon": -77.04320183333333, "lat": 38.909507166666664, "is_reserved": 0, "is_disabled": 0, "rental_uris": {"android": "https://dc.lft.to/lastmile_qr_scan", "ios": "https://dc.lft.to/lastmile_qr_scan"}, "name": "049e3255523a563d12a67dc5ec03e053", "type": "electric_scooter"}, {"fusion_lat": 0.0, "bike_id": "ed380264548b825700856b5127588877", "fusion_lon": 0.0, "lon": -76.98596416666666, "lat": 38.86685683333333, "is_reserved": 0, "is_disabled": 0, "rental_uris": {"android": "https://dc.lft.to/lastmile_qr_scan", "ios": "https://dc.lft.to/lastmile_qr_scan"}, "name": "ed380264548b825700856b5127588877", "type": "electric_scooter"}, {"fusion_lat": 0.0, "bike_id": "a7ff6ec57f8a37794e702ed741b488d9", "fusion_lon": 0.0, "lon": -77.038471, "lat": 38.90281933333333, "is_reserved": 0, "is_disabled": 0, "rental_uris": {"android": "https://dc.lft.to/lastmile_qr_scan", "ios": "https://dc.lft.to/lastmile_qr_scan"}, "name": "a7ff6ec57f8a37794e702ed741b488d9", "type": "electric_scooter"}, {"fusion_lat": 0.0, "bike_id": "84e88285b11967094b1c3a535492e611", "fusion_lon": 0.0, "lon": -77.0438975, "lat": 38.902213, "is_reserved": 0, "is_disabled": 0, "rental_uris": {"android": "https://dc.lft.to/lastmile_qr_scan", "ios": "https://dc.lft.to/lastmile_qr_scan"}, "name": "84e88285b11967094b1c3a535492e611", "type": "electric_scooter"}, {"fusion_lat": 0.0, "bike_id": "e25e88fc774182e4b3dea56fa3da4183", "fusion_lon": 0.0, "lon": -77.02627833333334, "lat": 38.9622545, "is_reserved": 0, "is_disabled": 0, "rental_uris": {"android": "https://dc.lft.to/lastmile_qr_scan", "ios": "https://dc.lft.to/lastmile_qr_scan"}, "name": "e25e88fc774182e4b3dea56fa3da4183", "type": "electric_bike"}, {"fusion_lat": 0.0, "bike_id": "5e4cd9b102e36b9ffca9ce37acad622e", "fusion_lon": 0.0, "lon": -76.99481983333334, "lat": 38.8861135, "is_reserved": 0, "is_disabled": 0, "rental_uris": {"android": "https://dc.lft.to/lastmile_qr_scan", "ios": "https://dc.lft.to/lastmile_qr_scan"}, "name": "5e4cd9b102e36b9ffca9ce37acad622e", "type": "electric_scooter"}, {"fusion_lat": 0.0, "bike_id": "f39906fa81edf56ede20b6fe87ce9961", "fusion_lon": 0.0, "lon": -76.98283216666667, "lat": 38.9164405, "is_reserved": 0, "is_disabled": 0, "rental_uris": {"android": "https://dc.lft.to/lastmile_qr_scan", "ios": "https://dc.lft.to/lastmile_qr_scan"}, "name": "f39906fa81edf56ede20b6fe87ce9961", "type": "electric_scooter"}, {"fusion_lat": 0.0, "bike_id": "f8c29882121a449b59b2cdcb1c0d9719", "fusion_lon": 0.0, "lon": -77.0181755, "lat": 38.9027585, "is_reserved": 0, "is_disabled": 0, "rental_uris": {"android": "https://dc.lft.to/lastmile_qr_scan", "ios": "https://dc.lft.to/lastmile_qr_scan"}, "name": "f8c29882121a449b59b2cdcb1c0d9719", "type": "electric_scooter"}, {"fusion_lat": 0.0, "bike_id": "5610ba618883045108d8d15e05377d14", "fusion_lon": 0.0, "lon": -77.02722966666667, "lat": 38.89704566666666, "is_reserved": 0, "is_disabled": 0, "rental_uris": {"android": "https://dc.lft.to/lastmile_qr_scan", "ios": "https://dc.lft.to/lastmile_qr_scan"}, "name": "5610ba618883045108d8d15e05377d14", "type": "electric_scooter"},