{"data": {"bikes": [{"fusion_lat": 0.0, "name": "d077b343cdcc398b77ea7421916e27d8", "is_disabled": 0, "rental_uris": {"android": "https://dc.lft.to/lastmile_qr_scan", "ios": "https://dc.lft.to/lastmile_qr_scan"}, "fusion_lon": 0.0, "lat": 38.90956466666667, "bike_id": "d077b343cdcc398b77ea7421916e27d8", "type": "electric_scooter", "is_reserved": 0, "lon": -77.04866483333333}, {"fusion_lat": 0.0, "name": "efcf1d72326464c6bcbac9f161619aca", "is_disabled": 0, "rental_uris": {"android": "https://dc.lft.to/lastmile_qr_scan", "ios": "https://dc.lft.to/lastmile_qr_scan"}, "fusion_lon": 0.0, "lat": 38.992263333333334, "bike_id": "efcf1d72326464c6bcbac9f161619aca", "type": "electric_bike", "is_reserved": 0, "lon": -76.94417883333334}, {"fusion_lat": 0.0, "name": "f875066561a12c6f2a3914f6b28a9f3d", "is_disabled": 0, "rental_uris": {"android": "https://dc.lft.to/lastmile_qr_scan", "ios": "https://dc.lft.to/lastmile_qr_scan"}, "fusion_lon": 0.0, "lat": 38.930256, "bike_id": "f875066561a12c6f2a3914f6b28a9f3d", "type": "electric_scooter", "is_reserved": 0, "lon": -77.03783433333334}, {"fusion_lat": 0.0, "name": "9cb6739e42df86152d63f6ef2f42103d", "is_disabled": 0, "rental_uris": {"android": "https://dc.lft.to/lastmile_qr_scan", "ios": "https://dc.lft.to/lastmile_qr_scan"}, "fusion_lon": 0.0, "lat": 38.91523216666667, "bike_id": "9cb6739e42df86152d63f6ef2f42103d", "type": "electric_scooter", "is_reserved": 0, "lon": -77.01335683333333}, {"fusion_lat": 0.0, "name": "be0602d44c584981e39982dad9810e6d", "is_disabled": 0, "rental_uris": {"android": "https://dc.lft.to/lastmile_qr_scan", "ios": "https://dc.lft.to/lastmile_qr_scan"}, "fusion_lon": 0.0, "lat": 38.91709216666667, "bike_id": "be0602d44c584981e39982dad9810e6d", "type": "electric_scooter", "is_reserved": 0, "lon": -77.0322165}, {"fusion_lat": 0.0, "name": "5f6186b7928041b8c5fcc5b47b9bb582", "is_disabled": 0, "rental_uris": {"android": "https://dc.lft.to/lastmile_qr_scan", "ios": "https://dc.lft.to/lastmile_qr_scan"}, "fusion_lon": 0.0, "lat": 38.885052, "bike_id": "5f6186b7928041b8c5fcc5b47b9bb582", "type": "electric_scooter", "is_reserved": 0, "lon": -77.00061483333333}, {"fusion_lat": 0.0, "name": "addf4ebadcd41559b263beabcead4512", "is_disabled": 0, "rental_uris": {"android": "https://dc.lft.to/lastmile_qr_scan", "ios": "https://dc.lft.to/lastmile_qr_scan"}, "fusion_lon": 0.0, "lat": 38.935285666666665, "bike_id": "addf4ebadcd41559b263beabcead4512", "type": "electric_scooter", "is_reserved": 0, "lon": -77.02356066666667}, {"fusion_lat": 0.0, "name": "e335c4284c06a5008cd9e44bab69e2c9", "is_disabled": 0, "rental_uris": {"android": "https://dc.lft.to/lastmile_qr_scan", "ios": "https://dc.lft.to/lastmile_qr_scan"}, "fusion_lon": 0.0, "lat": 38.921183, "bike_id": "e335c4284c06a5008cd9e44bab69e2c9", "type": "electric_scooter", "is_reserved": 0, "lon": -77.020799}, {"fusion_lat": 0.0, "name": "7af2a957876a63b0301f491a41451c4e", "is_disabled": 0, "rental_uris": {"android": "https://dc.lft.to/lastmile_qr_scan", "ios": "https://dc.lft.to/lastmile_qr_scan"}, "fusion_lon": 0.0, "lat": 38.85509866666666, "bike_id": "7af2a957876a63b0301f491a41451c4e", "type": "electric_scooter", "is_reserved": 0, "lon": -76.96538383333333}, {"fusion_lat": 0.0, "name": "83e6fdc426fa8ac8923b53a356562fff", "is_disabled": 0, "rental_uris": {"android": "https://dc.lft.to/lastmile_qr_scan", "ios": "https://dc.lft.to/lastmile_qr_scan"}, "fusion_lon": 0.0, "lat": 38.924176, "bike_id": "83e6fdc426fa8ac8923b53a356562fff", "type": "electric_bike", "is_reserved": 0, "lon": -77.050447}, {"fusion_lat": 0.0, "name": "bcb7321285411a9745774a79531d0112", "is_disabled": 0, "rental_uris": {"android": "https://dc.lft.to/lastmile_qr_scan", "ios": "https://dc.lft.to/lastmile_qr_scan"}, "fusion_lon": 0.0, "lat": 38.92741816666667, "bike_id": "bcb7321285411a9745774a79531d0112", "type": "electric_bike", "is_reserved": 0, "lon": -77.02501033333333}, {"fusion_lat": 0.0, "name": "12e239940e6634ca9874eea2a35f3db9", "is_disabled": 0, "rental_uris": {"android": "https://dc.lft.to/lastmile_qr_scan", "ios": "https://dc.lft.to/lastmile_qr_scan"}, "fusion_lon": 0.0, "lat": 38.953128, "bike_id": "12e239940e6634ca9874eea2a35f3db9", "type": "electric_scooter", "is_reserved": 0, "lon": -77.02254916666666}, {"fusion_lat": 0.0, "name": "da38d3bbc218be0b8e37ca89d45d8ca7", "is_disabled": 0, "rental_uris": {"android": "https://dc.lft.to/lastmile_qr_scan", "ios": "https://dc.lft.to/lastmile_qr_scan"}, "fusion_lon": 0.0, "lat": 38.917666, "bike_id": "da38d3bbc218be0b8e37ca89d45d8ca7", "type": "electric_scooter", "is_reserved": 0, "lon": -77.01501183333333}, {"fusion_lat": 0.0, "name": "441c1a693a40a84261685a696a9c8b4f", "is_disabled": 0, "rental_uris": {"android": "https://dc.lft.to/lastmile_qr_scan", "ios": "https://dc.lft.to/lastmile_qr_scan"}, "fusion_lon": 0.0, "lat": 38.942283833333335, "bike_id": "441c1a693a40a84261685a696a9c8b4f", "type": "electric_scooter", "is_reserved": 0, "lon": -77.0138415}, {"fusion_lat": 0.0, "name": "1f56beea2abf20008d6be689f09ab16f", "is_disabled": 0, "rental_uris": {"android": "https://dc.lft.to/lastmile_qr_scan", "ios": "https://dc.lft.to/lastmile_qr_scan"}, "fusion_lon": 0.0, "lat": 38.89724016666667, "bike_id": "1f56beea2abf20008d6be689f09ab16f", "type": "electric_scooter", "is_reserved": 0, "lon": -77.03331283333333}, {"fusion_lat": 0.0, "name": "83bd8e806a29bc3a16676b7d372efc27", "is_disabled": 0, "rental_uris": {"android": "https://dc.lft.to/lastmile_qr_scan", "ios": "https://dc.lft.to/lastmile_qr_scan"}, "fusion_lon": 0.0, "lat": 38.916694666666665, "bike_id": "83bd8e806a29bc3a16676b7d372efc27", "type": "electric_scooter", "is_reserved": 0, "lon": -77.02959883333334}, {"fusion_lat": 0.0, "name": "7ac1e3748c6bb7fab554ec417243779e", "is_disabled": 0, "rental_uris": {"android": "https://dc.lft.to/lastmile_qr_scan", "ios": "https://dc.lft.to/lastmile_qr_scan"}, "fusion_lon": 0.0, "lat": 38.893295333333334, "bike_id": "7ac1e3748c6bb7fab554ec417243779e", "type": "electric_scooter", "is_reserved": 0, "lon": -77.022428}, {"fusion_lat": 0.0, "name": "af694b4cda1f133dd78c83f2cdc8314f", "is_disabled": 0, "rental_uris": {"android": "https://dc.lft.to/lastmile_qr_scan", "ios": "https://dc.lft.to/lastmile_qr_scan"}, "fusion_lon": 0.0, "lat": 38.9207875, "bike_id": "af694b4cda1f133dd78c83f2cdc8314f", "type": "electric_bike", "is_reserved": 0, "lon": -76.98946666666667}, {"fusion_lat": 0.0, "name": "dee7f868bb59c48ba007fda1cc231d2c", "is_disabled": 0, "rental_uris": {"android": "https://dc.lft.to/lastmile_qr_scan", "ios": "https://dc.lft.to/lastmile_qr_scan"}, "fusion_lon": 0.0, "lat": 38.885261, "bike_id": "dee7f868bb59c48ba007fda1cc231d2c", "type": "electric_scooter", "is_reserved": 0, "lon": -77.01517816666667}, {"fusion_lat": 0.0, "name": "66aaadb8572b0ec6683e345f070df88f", "is_disabled": 0, "rental_uris": {"android": "https://dc.lft.to/lastmile_qr_scan", "ios": "https://dc.lft.to/lastmile_qr_scan"}, "fusion_lon": 0.0, "lat": 38.88720333333333, "bike_id": "66aaadb8572b0ec6683e345f070df88f", "type": "electric_scooter", "is_reserved": 0, "lon": -76.98358533333334}, {"fusion_lat": 0.0, "name": "30bfb47e8c6e3a69e5c705b62bf216bf", "is_disabled": 0, "rental_uris": {"android": "https://dc.lft.to/lastmile_qr_scan", "ios": "https://dc.lft.to/lastmile_qr_scan"}, "fusion_lon": 0.0, "lat": 38.89960833333333, "bike_id": "30bfb47e8c6e3a69e5c705b62bf216bf", "type": "electric_scooter", "is_reserved": 0, "lon": -76.987101}, {"fusion_lat": 0.0, "name": "c4d9ff5462a0571f3738089091724898", "is_disabled": 0, "rental_uris": {"android": "https://dc.lft.to/lastmile_qr_scan", "ios": "https://dc.lft.to/lastmile_qr_scan"}, "fusion_lon": 0.0, "lat": 38.92790883333333, "bike_id": "c4d9ff5462a0571f3738089091724898", "type": "electric_scooter", "is_reserved": 0, "lon": -77.02727333333333}, {"fusion_lat": 0.0, "name": "08d50fbd4f05e79b72dc65453dbd2b65", "is_disabled": 0, "rental_uris": {"android": "https://dc.lft.to/lastmile_qr_scan", "ios": "https://dc.lft.to/lastmile_qr_scan"}, "fusion_lon": 0.0, "lat": 38.90018416666667, "bike_id": "08d50fbd4f05e79b72dc65453dbd2b65", "type": "electric_scooter", "is_reserved": 0, "lon": -77.01253483333333}, {"fusion_lat": 0.0, "name": "d96a753568c90ec0ad51c31ffc42fa7c", "is_disabled": 0, "rental_uris": {"android": "https://dc.lft.to/lastmile_qr_scan", "ios": "https://dc.lft.to/lastmile_qr_scan"}, "fusion_lon": 0.0, "lat": 38.936524666666664, "bike_id": "d96a753568c90ec0ad51c31ffc42fa7c", "type": "electric_scooter", "is_reserved": 0, "lon": -77.03054333333333}, {"fusion_lat": 0.0, "name": "05d628119d4964f1833b65671edd617f", "is_disabled": 0, "rental_uris": {"android": "https://dc.lft.to/lastmile_qr_scan", "ios": "https://dc.lft.to/lastmile_qr_scan"}, "fusion_lon": 0.0, "lat": 38.93379616666667, "bike_id": "05d628119d4964f1833b65671edd617f", "type": "electric_scooter", "is_reserved": 0, "lon": -77.03885316666667}, {"fusion_lat": 0.0, "name": "db5b95263523d85120254175d90fdf89", "is_disabled": 0, "rental_uris": {"android": "https://dc.lft.to/lastmile_qr_scan", "ios": "https://dc.lft.to/lastmile_qr_scan"}, "fusion_lon": 0.0, "lat": 38.916133333333335, "bike_id": "db5b95263523d85120254175d90fdf89", "type": "electric_scooter", "is_reserved": 0, "lon": -77.036414}, {"fusion_lat": 0.0, "name": "ca129ff45a36fe163945927d9e014072", "is_disabled": 0, "rental_uris": {"android": "https://dc.lft.to/lastmile_qr_scan", "ios": "https://dc.lft.to/lastmile_qr_scan"}, "fusion_lon": 0.0, "lat": 38.904922, "bike_id": "ca129ff45a36fe163945927d9e014072", "type": "electric_scooter", "is_reserved": 0, "lon": -77.04115833333333}, {"fusion_lat": 0.0, "name": "be818c7ada76ba8780a587cc7151646d", "is_disabled": 0, "rental_uris": {"android": "https://dc.lft.to/lastmile_qr_scan", "ios": "https://dc.lft.to/lastmile_qr_scan"}, "fusion_lon": 0.0, "lat": 38.874742499999996, "bike_id": "be818c7ada76ba8780a587cc7151646d", "type": "electric_scooter", "is_reserved": 0, "lon": -77.000539}, {"fusion_lat": 0.0, "name": "96db131179f5774194b23a01337efbeb", "is_disabled": 0, "rental_uris": {"android": "https://dc.lft.to/lastmile_qr_scan", "ios": "https://dc.lft.to/lastmile_qr_scan"}, "fusion_lon": 0.0, "lat": 38.903876333333336, "bike_id": "96db131179f5774194b23a01337efbeb", "type": "electric_scooter", "is_reserved": 0, "lon": -77.0462565}, {"fusion_lat": 0.0, "name": "c8d033eaf9b2484f46520c7fba8f9886", "is_disabled": 0, "rental_uris": {"android": "https://dc.lft.to/lastmile_qr_scan", "ios": "https://dc.lft.to/lastmile_qr_scan"}, "fusion_lon": 0.0, "lat": 38.9662815, "bike_id": "c8d033eaf9b2484f46520c7fba8f9886", "type": "electric_scooter", "is_reserved": 0, "lon": -77.01999666666667}, {"fusion_lat": 0.0, "name": "92d921ba2a4b673d3efafda2783f8218", "is_disabled": 0, "rental_uris": {"android": "https://dc.lft.to/lastmile_qr_scan", "ios": "https://dc.lft.to/lastmile_qr_scan"}, "fusion_lon": 0.0, "lat": 38.89687883333333, "bike_id": "92d921ba2a4b673d3efafda2783f8218", "type": "electric_scooter", "is_reserved": 0, "lon": -77.04337916666667}, {"fusion_lat": 0.0, "name": "294b6b8004a97ae200e38392b96e7763", "is_disabled": 0, "rental_uris": {"android": "https://dc.lft.to/lastmile_qr_scan", "ios": "https://dc.lft.to/lastmile_qr_scan"}, "fusion_lon": 0.0, "lat": 38.881081333333334, "bike_id": "294b6b8004a97ae200e38392b96e7763", "type": "electric_scooter", "is_reserved": 0, "lon": -77.01659416666666}, {"fusion_lat": 0.0, "name": "42113268342778e75c8773b7f55bf2b9", "is_disabled": 0, "rental_uris": {"android": "https://dc.lft.to/lastmile_qr_scan", "ios": "https://dc.lft.to/lastmile_qr_scan"}, "fusion_lon": 0.0, "lat": 38.8785085, "bike_id": "42113268342778e75c8773b7f55bf2b9", "type": "electric_bike", "is_reserved": 0, "lon": -77.03017183333333}, {"fusion_lat": 0.0, "name": "176ae8bdc2822d5d5f72d9bbc1e1c32f", "is_disabled": 0, "rental_uris": {"android": "https://dc.lft.to/lastmile_qr_scan", "ios": "https://dc.lft.to/lastmile_qr_scan"}, "fusion_lon": 0.0, "lat": 38.900266, "bike_id": "176ae8bdc2822d5d5f72d9bbc1e1c32f", "type": "electric_scooter", "is_reserved": 0, "lon": -76.98858016666667}, {"fusion_lat": 0.0, "name": "562a4c69c61ec5f49ba81d9fcdaec8d0", "is_disabled": 0, "rental_uris": {"android": "https://dc.lft.to/lastmile_qr_scan", "ios": "https://dc.lft.to/lastmile_qr_scan"}, "fusion_lon": 0.0, "lat": 38.920819, "bike_id": "562a4c69c61ec5f49ba81d9fcdaec8d0", "type": "electric_scooter", "is_reserved": 0, "lon": -77.004511}, {"fusion_lat": 0.0, "name": "9d7f7e8ee1e3784943a1e0764243b16b", "is_disabled": 0, "rental_uris": {"android": "https://dc.lft.to/lastmile_qr_scan", "ios": "https://dc.lft.to/lastmile_qr_scan"}, "fusion_lon": 0.0, "lat": 38.936611166666665, "bike_id": "9d7f7e8ee1e3784943a1e0764243b16b", "type": "electric_scooter", "is_reserved": 0, "lon": -77.03692683333334}, {"fusion_lat": 0.0, "name": "6b499eac093d3362c17c811ce9b68802", "is_disabled": 0, "rental_uris": {"android": "https://dc.lft.to/lastmile_qr_scan", "ios": "https://dc.lft.to/lastmile_qr_scan"}, "fusion_lon": 0.0, "lat": 38.904169333333336, "bike_id": "6b499eac093d3362c17c811ce9b68802", "type": "electric_scooter", "is_reserved": 0, "lon": -77.03171116666667}, {"fusion_lat": 0.0, "name": "048ddd0cb6db0daab14f777ebf9fef76", "is_disabled": 0, "rental_uris": {"android": "https://dc.lft.to/lastmile_qr_scan", "ios": "https://dc.lft.to/lastmile_qr_scan"}, "fusion_lon": 0.0, "lat": 38.930999, "bike_id": "048ddd0cb6db0daab14f777ebf9fef76", "type": "electric_scooter", "is_reserved": 0, "lon": -77.02666066666667}, {"fusion_lat": 0.0, "name": "884c9d275c3d72d1963a7695364e6938", "is_disabled": 0, "rental_uris": {"android": "https://dc.lft.to/lastmile_qr_scan", "ios": "https://dc.lft.to/lastmile_qr_scan"}, "fusion_lon": 0.0, "lat": 38.90797, "bike_id": "884c9d275c3d72d1963a7695364e6938", "type": "electric_scooter", "is_reserved": 0, "lon": -77.04334183333333}, {"fusion_lat": 0.0, "name": "833a4bf48bae2c3a740fb598b784da2b", "is_disabled": 0, "rental_uris": {"android": "https://dc.lft.to/lastmile_qr_scan", "ios": "https://dc.lft.to/lastmile_qr_scan"}, "fusion_lon": 0.0, "lat": 38.948425666666665, "bike_id": "833a4bf48bae2c3a740fb598b784da2b", "type": "electric_scooter", "is_reserved": 0, "lon": -77.02567533333334}, {"fusion_lat": 0.0, "name": "31ba2886634ab5b147da79491203eaef", "is_disabled": 0, "rental_uris": {"android": "https://dc.lft.to/lastmile_qr_scan", "ios": "https://dc.lft.to/lastmile_qr_scan"}, "fusion_lon": 0.0, "lat": 38.931839833333335, "bike_id": "31ba2886634ab5b147da79491203eaef", "type": "electric_scooter", "is_reserved": 0, "lon": -77.0430145}, {"fusion_lat": 0.0, "name": "ff9d80c42ff570408b540764d2f44365", "is_disabled": 0, "rental_uris": {"android": "https://dc.lft.to/lastmile_qr_scan", "ios": "https://dc.lft.to/lastmile_qr_scan"}, "fusion_lon": 0.0, "lat": 38.91106516666667, "bike_id": "ff9d80c42ff570408b540764d2f44365", "type": "electric_scooter", "is_reserved": 0, "lon": -77.0115215}, {"fusion_lat": 0.0, "name": "288009915e197f89112cdcdf386c3b16", "is_disabled": 0, "rental_uris": {"android": "https://dc.lft.to/lastmile_qr_scan", "ios": "https://dc.lft.to/lastmile_qr_scan"}, "fusion_lon": 0.0, "lat": 38.95708616666667, "bike_id": "288009915e197f89112cdcdf386c3b16", "type": "electric_scooter", "is_reserved": 0, "lon": -77.02397466666666}, {"fusion_lat": 0.0, "name": "8b094a3d20081b0e3ef71ff50e7038c2", "is_disabled": 0, "rental_uris": {"android": "https://dc.lft.to/lastmile_qr_scan", "ios": "https://dc.lft.to/lastmile_qr_scan"}, "fusion_lon": 0.0, "lat": 38.900287, "bike_id": "8b094a3d20081b0e3ef71ff50e7038c2", "type": "electric_scooter", "is_reserved": 0, "lon": -76.99135366666667}, {"fusion_lat": 0.0, "name": "e0d95aebcb55dba638ebd7ddc7312295", "is_disabled": 0, "rental_uris": {"android": "https://dc.lft.to/lastmile_qr_scan", "ios": "https://dc.lft.to/lastmile_qr_scan"}, "fusion_lon": 0.0, "lat": 38.92068183333333, "bike_id": "e0d95aebcb55dba638ebd7ddc7312295", "type": "electric_scooter", "is_reserved": 0, "lon": -77.03205816666667}, {"fusion_lat": 0.0, "name": "da5fd6477dc7624e06d03e41a433e676", "is_disabled": 0, "rental_uris": {"android": "https://dc.lft.to/lastmile_qr_scan", "ios": "https://dc.lft.to/lastmile_qr_scan"}, "fusion_lon": 0.0, "lat": 38.884573, "bike_id": "da5fd6477dc7624e06d03e41a433e676", "type": "electric_scooter", "is_reserved": 0, "lon": -76.99842}, {"fusion_lat": 0.0, "name": "78b31f88e807c8d9986aacdd42f1b69c", "is_disabled": 0, "rental_uris": {"android": "https://dc.lft.to/lastmile_qr_scan", "ios": "https://dc.lft.to/lastmile_qr_scan"}, "fusion_lon": 0.0, "lat": 38.8847345, "bike_id": "78b31f88e807c8d9986aacdd42f1b69c", "type": "electric_scooter", "is_reserved": 0, "lon": -76.92972216666666}, {"fusion_lat": 0.0, "name": "e60ef782437c2a2fdcde1499865e3091", "is_disabled": 0, "rental_uris": {"android": "https://dc.lft.to/lastmile_qr_scan", "ios": "https://dc.lft.to/lastmile_qr_scan"}, "fusion_lon": 0.0, "lat": 38.9299105, "bike_id": "e60ef782437c2a2fdcde1499865e3091", "type": "electric_scooter", "is_reserved": 0, "lon": -77.032376}, {"fusion_lat": 0.0, "name": "ac957066ed6cb99dc9b3338fc86f33a4", "is_disabled": 0, "rental_uris": {"android": "https://dc.lft.to/lastmile_qr_scan", "ios": "https://dc.lft.to/lastmile_qr_scan"}, "fusion_lon": 0.0, "lat": 38.94702183333333, "bike_id": "ac957066ed6cb99dc9b3338fc86f33a4", "type": "electric_scooter", "is_reserved": 0, "lon": -77.019412}, {"fusion_lat": 0.0, "name": "6f78208687e93486f8129018b2e6c272", "is_disabled": 0, "rental_uris": {"android": "https://dc.lft.to/lastmile_qr_scan", "ios": "https://dc.lft.to/lastmile_qr_scan"}, "fusion_lon": 0.0, "lat": 38.93584116666667, "bike_id": "6f78208687e93486f8129018b2e6c272", "type": "electric_scooter", "is_reserved": 0, "lon": -77.023617}, {"fusion_lat": 0.0, "name": "752cbb7fba28a5f1f04e0f23ca376402", "is_disabled": 0, "rental_uris": {"android": "https://dc.lft.to/lastmile_qr_scan", "ios": "https://dc.lft.to/lastmile_qr_scan"}, "fusion_lon": 0.0, "lat": 38.9244065, "bike_id": "752cbb7fba28a5f1f04e0f23ca376402", "type": "electric_scooter", "is_reserved": 0, "lon": -77.033621}, {"fusion_lat": 0.0, "name": "1029413d3487635a746ed51b0d0a4425", "is_disabled": 0, "rental_uris": {"android": "https://dc.lft.to/lastmile_qr_scan", "ios": "https://dc.lft.to/lastmile_qr_scan"}, "fusion_lon": 0.0, "lat": 38.946750333333334, "bike_id": "1029413d3487635a746ed51b0d0a4425", "type": "electric_scooter", "is_reserved": 0, "lon": -77.03094883333333}, {"fusion_lat": 0.0, "name": "24c2781fd3c810171e8c4a2e8524a3b0", "is_disabled": 0, "rental_uris": {"android": "https://dc.lft.to/lastmile_qr_scan", "ios": "https://dc.lft.to/lastmile_qr_scan"}, "fusion_lon": 0.0, "lat": 38.925937166666664, "bike_id": "24c2781fd3c810171e8c4a2e8524a3b0", "type": "electric_scooter", "is_reserved": 0, "lon": -77.02476366666667}, {"fusion_lat": 0.0, "name": "ce1ab179959f8755eed95cfccdcdadb0", "is_disabled": 0, "rental_uris": {"android": "https://dc.lft.to/lastmile_qr_scan", "ios": "https://dc.lft.to/lastmile_qr_scan"}, "fusion_lon": 0.0, "lat": 38.920982333333335, "bike_id": "ce1ab179959f8755eed95cfccdcdadb0", "type": "electric_scooter", "is_reserved": 0, "lon": -77.04691116666666}, {"fusion_lat": 0.0, "name": "4a6de918d06711d7022f888426896cb0", "is_disabled": 0, "rental_uris": {"android": "https://dc.lft.to/lastmile_qr_scan", "ios": "https://dc.lft.to/lastmile_qr_scan"}, "fusion_lon": 0.0, "lat": 38.935309333333336, "bike_id": "4a6de918d06711d7022f888426896cb0", "type": "electric_scooter", "is_reserved": 0, "lon": -77.04522083333333}, {"fusion_lat": 0.0, "name": "e3989480399b76ce1118797827c70cb4", "is_disabled": 0, "rental_uris": {"android": "https://dc.lft.to/lastmile_qr_scan", "ios": "https://dc.lft.to/lastmile_qr_scan"}, "fusion_lon": 0.0, "lat": 38.904750166666666, "bike_id": "e3989480399b76ce1118797827c70cb4", "type": "electric_scooter", "is_reserved": 0, "lon": -77.03548933333333}, {"fusion_lat": 0.0, "name": "4b7b6723a3aee0b68ccb9734d0549ae3", "is_disabled": 0, "rental_uris": {"android": "https://dc.lft.to/lastmile_qr_scan", "ios": "https://dc.lft.to/lastmile_qr_scan"}, "fusion_lon": 0.0, "lat": 38.903533833333334, "bike_id": "4b7b6723a3aee0b68ccb9734d0549ae3", "type": "electric_scooter", "is_reserved": 0, "lon": -76.97481366666666}, {"fusion_lat": 0.0, "name": "9fed4c0e9323784aacd8aa2eb8aff8c7", "is_disabled": 0, "rental_uris": {"android": "https://dc.lft.to/lastmile_qr_scan", "ios": "https://dc.lft.to/lastmile_qr_scan"}, "fusion_lon": 0.0, "lat": 38.90930516666667, "bike_id": "9fed4c0e9323784aacd8aa2eb8aff8c7", "type": "electric_scooter", "is_reserved": 0, "lon": -77.06253333333333}, {"fusion_lat": 0.0, "name": "a671cc10e104e00687c8b98195e415b1", "is_disabled": 0, "rental_uris": {"android": "https://dc.lft.to/lastmile_qr_scan", "ios": "https://dc.lft.to/lastmile_qr_scan"}, "fusion_lon": 0.0, "lat": 38.900727333333336, "bike_id": "a671cc10e104e00687c8b98195e415b1", "type": "electric_scooter", "is_reserved": 0, "lon": -77.05073066666667}, {"fusion_lat": 0.0, "name": "7b99429ccb4fed455d2493527abcd154", "is_disabled": 0, "rental_uris": {"android": "https://dc.lft.to/lastmile_qr_scan", "ios": "https://dc.lft.to/lastmile_qr_scan"}, "fusion_lon": 0.0, "lat": 38.93455183333333, "bike_id": "7b99429ccb4fed455d2493527abcd154", "type": "electric_scooter", "is_reserved": 0, "lon": -77.034046}, {"fusion_lat": 0.0, "name": "3ddd7b523c557fa7f1ddc2d8a4b710c5", "is_disabled": 0, "rental_uris": {"android": "https://dc.lft.to/lastmile_qr_scan", "ios": "https://dc.lft.to/lastmile_qr_scan"}, "fusion_lon": 0.0, "lat": 38.9737585, "bike_id": "3ddd7b523c557fa7f1ddc2d8a4b710c5", "type": "electric_scooter", "is_reserved": 0, "lon": -77.012953}, {"fusion_lat": 0.0, "name": "d06085288319bdd847a90b8fd5e74474", "is_disabled": 0, "rental_uris": {"android": "https://dc.lft.to/lastmile_qr_scan", "ios": "https://dc.lft.to/lastmile_qr_scan"}, "fusion_lon": 0.0, "lat": 38.938793, "bike_id": "d06085288319bdd847a90b8fd5e74474", "type": "electric_scooter", "is_reserved": 0, "lon": -77.02462166666666}, {"fusion_lat": 0.0, "name": "d3feb2830608af1227b6f90d26a33cef", "is_disabled": 0, "rental_uris": {"android": "https://dc.lft.to/lastmile_qr_scan", "ios": "https://dc.lft.to/lastmile_qr_scan"}, "fusion_lon": 0.0, "lat": 38.89220516666666, "bike_id": "d3feb2830608af1227b6f90d26a33cef", "type": "electric_scooter", "is_reserved": 0, "lon": -77.033381}, {"fusion_lat": 0.0, "name": "0af24743b29119ab9739d8d935d72827", "is_disabled": 0, "rental_uris": {"android": "https://dc.lft.to/lastmile_qr_scan", "ios": "https://dc.lft.to/lastmile_qr_scan"}, "fusion_lon": 0.0, "lat": 38.90728283333333, "bike_id": "0af24743b29119ab9739d8d935d72827", "type": "electric_scooter", "is_reserved": 0, "lon": -77.0095325}, {"fusion_lat": 0.0, "name": "8d28bc3bb4a9d85f5f522176911d13ba", "is_disabled": 0, "rental_uris": {"android": "https://dc.lft.to/lastmile_qr_scan", "ios": "https://dc.lft.to/lastmile_qr_scan"}, "fusion_lon": 0.0, "lat": 38.900769833333335, "bike_id": "8d28bc3bb4a9d85f5f522176911d13ba", "type": "electric_scooter", "is_reserved": 0, "lon": -77.04936333333333}, {"fusion_lat": 0.0, "name": "eb224da77106d83d99f5fa22125fcc34", "is_disabled": 0, "rental_uris": {"android": "https://dc.lft.to/lastmile_qr_scan", "ios": "https://dc.lft.to/lastmile_qr_scan"}, "fusion_lon": 0.0, "lat": 38.88330033333333, "bike_id": "eb224da77106d83d99f5fa22125fcc34", "type": "electric_scooter", "is_reserved": 0, "lon": -77.014777}, {"fusion_lat": 0.0, "name": "3e2733703cc0cad4a178418bc150645f", "is_disabled": 0, "rental_uris": {"android": "https://dc.lft.to/lastmile_qr_scan", "ios": "https://dc.lft.to/lastmile_qr_scan"}, "fusion_lon": 0.0, "lat": 38.93765333333333, "bike_id": "3e2733703cc0cad4a178418bc150645f", "type": "electric_scooter", "is_reserved": 0, "lon": -77.032734}, {"fusion_lat": 0.0, "name": "f5cc3dad7abca4edd6a738fba2650868", "is_disabled": 0, "rental_uris": {"android": "https://dc.lft.to/lastmile_qr_scan", "ios": "https://dc.lft.to/lastmile_qr_scan"}, "fusion_lon": 0.0, "lat": 38.9335745, "bike_id": "f5cc3dad7abca4edd6a738fba2650868", "type": "electric_scooter", "is_reserved": 0, "lon": -77.038869}, {"fusion_lat": 0.0, "name": "59dec56bd07e6de08693219da89f2736", "is_disabled": 0, "rental_uris": {"android": "https://dc.lft.to/lastmile_qr_scan", "ios": "https://dc.lft.to/lastmile_qr_scan"}, "fusion_lon": 0.0, "lat": 38.897235333333334, "bike_id": "59dec56bd07e6de08693219da89f2736", "type": "electric_scooter", "is_reserved": 0, "lon": -77.0323165}, {"fusion_lat": 0.0, "name": "1569d14f82ccccf144be2707a9e94ce8", "is_disabled": 0, "rental_uris": {"android": "https://dc.lft.to/lastmile_qr_scan", "ios": "https://dc.lft.to/lastmile_qr_scan"}, "fusion_lon": 0.0, "lat": 38.92679116666667, "bike_id": "1569d14f82ccccf144be2707a9e94ce8", "type": "electric_scooter", "is_reserved": 0, "lon": -77.027851}, {"fusion_lat": 0.0, "name": "8013911c17c26e7fb081780853bee7d1", "is_disabled": 0, "rental_uris": {"android": "https://dc.lft.to/lastmile_qr_scan", "ios": "https://dc.lft.to/lastmile_qr_scan"}, "fusion_lon": 0.0, "lat": 38.903525333333334, "bike_id": "8013911c17c26e7fb081780853bee7d1", "type": "electric_scooter", "is_reserved": 0, "lon": -76.97243266666666}, {"fusion_lat": 0.0, "name": "bf6b0ba0876de0bfd5c00a8065d07e1f", "is_disabled": 0, "rental_uris": {"android": "https://dc.lft.to/lastmile_qr_scan", "ios": "https://dc.lft.to/lastmile_qr_scan"}, "fusion_lon": 0.0, "lat": 38.92806016666667, "bike_id": "bf6b0ba0876de0bfd5c00a8065d07e1f", "type": "electric_scooter", "is_reserved": 0, "lon": -77.03613933333334}, {"fusion_lat": 0.0, "name": "c1a76b03ce35debfe29bf27d4e1bf40c", "is_disabled": 0, "rental_uris": {"android": "https://dc.lft.to/lastmile_qr_scan", "ios": "https://dc.lft.to/lastmile_qr_scan"}, "fusion_lon": 0.0, "lat": 38.90976033333333, "bike_id": "c1a76b03ce35debfe29bf27d4e1bf40c", "type": "electric_scooter", "is_reserved": 0, "lon": -77.00904283333334}, {"fusion_lat": 0.0, "name": "a039d24140af596eb2fd80443b3e2bd1", "is_disabled": 0, "rental_uris": {"android": "https://dc.lft.to/lastmile_qr_scan", "ios": "https://dc.lft.to/lastmile_qr_scan"}, "fusion_lon": 0.0, "lat": 38.901025833333335, "bike_id": "a039d24140af596eb2fd80443b3e2bd1", "type": "electric_scooter", "is_reserved": 0, "lon": -77.05126633333333}, {"fusion_lat": 0.0, "name": "cac50168538f3049dbeed96d93353767", "is_disabled": 0, "rental_uris": {"android": "https://dc.lft.to/lastmile_qr_scan", "ios": "https://dc.lft.to/lastmile_qr_scan"}, "fusion_lon": 0.0, "lat": 38.8393665, "bike_id": "cac50168538f3049dbeed96d93353767", "type": "electric_bike", "is_reserved": 0, "lon": -77.07899683333333}, {"fusion_lat": 0.0, "name": "0cadcf32fa2673756408d439c4aba121", "is_disabled": 0, "rental_uris": {"android": "https://dc.lft.to/lastmile_qr_scan", "ios": "https://dc.lft.to/lastmile_qr_scan"}, "fusion_lon": 0.0, "lat": 38.941333666666665, "bike_id": "0cadcf32fa2673756408d439c4aba121", "type": "electric_scooter", "is_reserved": 0, "lon": -77.0061045}, {"fusion_lat": 0.0, "name": "cf5537a65f6c83cf39bb2b04fe322692", "is_disabled": 0, "rental_uris": {"android": "https://dc.lft.to/lastmile_qr_scan", "ios": "https://dc.lft.to/lastmile_qr_scan"}, "fusion_lon": 0.0, "lat": 38.9057765, "bike_id": "cf5537a65f6c83cf39bb2b04fe322692", "type": "electric_scooter", "is_reserved": 0, "lon": -77.02202833333334}, {"fusion_lat": 0.0, "name": "42e0fdcd5c86f753f450f966248e9477", "is_disabled": 0, "rental_uris": {"android": "https://dc.lft.to/lastmile_qr_scan", "ios": "https://dc.lft.to/lastmile_qr_scan"}, "fusion_lon": 0.0, "lat": 38.9497815, "bike_id": "42e0fdcd5c86f753f450f966248e9477", "type": "electric_scooter", "is_reserved": 0, "lon": -77.02700783333333}, {"fusion_lat": 0.0, "name": "c9aa9c37f8ac87407efa421631e034a9", "is_disabled": 0, "rental_uris": {"android": "https://dc.lft.to/lastmile_qr_scan", "ios": "https://dc.lft.to/lastmile_qr_scan"}, "fusion_lon": 0.0, "lat": 38.945073, "bike_id": "c9aa9c37f8ac87407efa421631e034a9", "type": "electric_bike", "is_reserved": 0, "lon": -77.00670666666667}, {"fusion_lat": 0.0, "name": "d76ae7becdd1e6d289823d9d5eaa9a33", "is_disabled": 0, "rental_uris": {"android": "https://dc.lft.to/lastmile_qr_scan", "ios": "https://dc.lft.to/lastmile_qr_scan"}, "fusion_lon": 0.0, "lat": 38.908047833333335, "bike_id": "d76ae7becdd1e6d289823d9d5eaa9a33", "type": "electric_bike", "is_reserved": 0, "lon": -77.018839}, {"fusion_lat": 0.0, "name": "ea10d02d1bbcaf47933ccc226c50e37c", "is_disabled": 0, "rental_uris": {"android": "https://dc.lft.to/lastmile_qr_scan", "ios": "https://dc.lft.to/lastmile_qr_scan"}, "fusion_lon": 0.0, "lat": 38.9253905, "bike_id": "ea10d02d1bbcaf47933ccc226c50e37c", "type": "electric_scooter", "is_reserved": 0, "lon": -77.05118}, {"fusion_lat": 0.0, "name": "2afb39b7c0d4c9242fb33bb3fa7df283", "is_disabled": 0, "rental_uris": {"android": "https://dc.lft.to/lastmile_qr_scan", "ios": "https://dc.lft.to/lastmile_qr_scan"}, "fusion_lon": 0.0, "lat": 38.89223783333333, "bike_id": "2afb39b7c0d4c9242fb33bb3fa7df283", "type": "electric_scooter", "is_reserved": 0, "lon": -77.0149925}, {"fusion_lat": 0.0, "name": "72265bf44ee99989cbdeb8ae3eca30d6", "is_disabled": 0, "rental_uris": {"android": "https://dc.lft.to/lastmile_qr_scan", "ios": "https://dc.lft.to/lastmile_qr_scan"}, "fusion_lon": 0.0, "lat": 38.95729, "bike_id": "72265bf44ee99989cbdeb8ae3eca30d6", "type": "electric_scooter", "is_reserved": 0, "lon": -77.02401916666666}, {"fusion_lat": 0.0, "name": "3ba1a2eba765332d3fb8a865d1cb7c0c", "is_disabled": 0, "rental_uris": {"android": "https://dc.lft.to/lastmile_qr_scan", "ios": "https://dc.lft.to/lastmile_qr_scan"}, "fusion_lon": 0.0, "lat": 38.875686333333334, "bike_id": "3ba1a2eba765332d3fb8a865d1cb7c0c", "type": "electric_scooter", "is_reserved": 0, "lon": -77.0072845}, {"fusion_lat": 0.0, "name": "7b2aea61b92f61b942b72d41d91b53e4", "is_disabled": 0, "rental_uris": {"android": "https://dc.lft.to/lastmile_qr_scan", "ios": "https://dc.lft.to/lastmile_qr_scan"}, "fusion_lon": 0.0, "lat": 38.90648516666667, "bike_id": "7b2aea61b92f61b942b72d41d91b53e4", "type": "electric_scooter", "is_reserved": 0, "lon": -77.02947783333333}, {"fusion_lat": 0.0, "name": "87e3f12b5417c3b045c5127cc96d1fb3", "is_disabled": 0, "rental_uris": {"android": "https://dc.lft.to/lastmile_qr_scan", "ios": "https://dc.lft.to/lastmile_qr_scan"}, "fusion_lon": 0.0, "lat": 38.895177333333336, "bike_id": "87e3f12b5417c3b045c5127cc96d1fb3", "type": "electric_scooter", "is_reserved": 0, "lon": -76.980846}, {"fusion_lat": 0.0, "name": "cbb34f276b4ebd589199bc2a29ad9fe6", "is_disabled": 0, "rental_uris": {"android": "https://dc.lft.to/lastmile_qr_scan", "ios": "https://dc.lft.to/lastmile_qr_scan"}, "fusion_lon": 0.0, "lat": 38.95344133333333, "bike_id": "cbb34f276b4ebd589199bc2a29ad9fe6", "type": "electric_scooter", "is_reserved": 0, "lon": -77.07949}, {"fusion_lat": 0.0, "name": "d3557fa82bd17de1997404ca1ccd1048", "is_disabled": 0, "rental_uris": {"android": "https://dc.lft.to/lastmile_qr_scan", "ios": "https://dc.lft.to/lastmile_qr_scan"}, "fusion_lon": 0.0, "lat": 38.93548666666667, "bike_id": "d3557fa82bd17de1997404ca1ccd1048", "type": "electric_scooter", "is_reserved": 0, "lon": -77.02221533333334}, {"fusion_lat": 0.0, "name": "7a3d2d39a04de10d822a5312d9f0ddf9", "is_disabled": 0, "rental_uris": {"android": "https://dc.lft.to/lastmile_qr_scan", "ios": "https://dc.lft.to/lastmile_qr_scan"}, "fusion_lon": 0.0, "lat": 38.959203333333335, "bike_id": "7a3d2d39a04de10d822a5312d9f0ddf9", "type": "electric_scooter", "is_reserved": 0, "lon": -77.0847615}, {"fusion_lat": 0.0, "name": "dadd84c2c992b11d24a8d7557570d0ba", "is_disabled": 0, "rental_uris": {"android": "https://dc.lft.to/lastmile_qr_scan", "ios": "https://dc.lft.to/lastmile_qr_scan"}, "fusion_lon": 0.0, "lat": 38.91644866666667, "bike_id": "dadd84c2c992b11d24a8d7557570d0ba", "type": "electric_bike", "is_reserved": 0, "lon": -76.98221133333334}, {"fusion_lat": 0.0, "name": "670e10c1c5300c0da8e6c1feb2d6f9df", "is_disabled": 0, "rental_uris": {"android": "https://dc.lft.to/lastmile_qr_scan", "ios": "https://dc.lft.to/lastmile_qr_scan"}, "fusion_lon": 0.0, "lat": 38.9268465, "bike_id": "670e10c1c5300c0da8e6c1feb2d6f9df", "type": "electric_scooter", "is_reserved": 0, "lon": -77.02260383333333}, {"fusion_lat": 0.0, "name": "823e3133f5bab5a2088ef50f387e7604", "is_disabled": 0, "rental_uris": {"android": "https://dc.lft.to/lastmile_qr_scan", "ios": "https://dc.lft.to/lastmile_qr_scan"}, "fusion_lon": 0.0, "lat": 38.9112195, "bike_id": "823e3133f5bab5a2088ef50f387e7604", "type": "electric_scooter", "is_reserved": 0, "lon": -76.99773716666667}, {"fusion_lat": 0.0, "name": "e52c8fd1533cf3615ca5056f661c96e0", "is_disabled": 0, "rental_uris": {"android": "https://dc.lft.to/lastmile_qr_scan", "ios": "https://dc.lft.to/lastmile_qr_scan"}, "fusion_lon": 0.0, "lat": 38.9305645, "bike_id": "e52c8fd1533cf3615ca5056f661c96e0", "type": "electric_scooter", "is_reserved": 0, "lon": -77.0394425}, {"fusion_lat": 0.0, "name": "df699bfd73cc80577cb006ad12540fcd", "is_disabled": 0, "rental_uris": {"android": "https://dc.lft.to/lastmile_qr_scan", "ios": "https://dc.lft.to/lastmile_qr_scan"}, "fusion_lon": 0.0, "lat": 38.94979433333334, "bike_id": "df699bfd73cc80577cb006ad12540fcd", "type": "electric_scooter", "is_reserved": 0, "lon": -77.02699416666667}, {"fusion_lat": 0.0, "name": "4a97aac5801c3de60441cf29bec361dd", "is_disabled": 0, "rental_uris": {"android": "https://dc.lft.to/lastmile_qr_scan", "ios": "https://dc.lft.to/lastmile_qr_scan"}, "fusion_lon": 0.0, "lat": 38.86851933333333, "bike_id": "4a97aac5801c3de60441cf29bec361dd", "type": "electric_scooter", "is_reserved": 0, "lon": -76.98833}, {"fusion_lat": 0.0, "name": "d0d2854aade09b13d847f5f7561be49a", "is_disabled": 0, "rental_uris": {"android": "https://dc.lft.to/lastmile_qr_scan", "ios": "https://dc.lft.to/lastmile_qr_scan"}, "fusion_lon": 0.0, "lat": 38.898933666666665, "bike_id": "d0d2854aade09b13d847f5f7561be49a", "type": "electric_scooter", "is_reserved": 0, "lon": -76.980633}, {"fusion_lat": 0.0, "name": "29cf9abc2844324579c0ff9414857859", "is_disabled": 0, "rental_uris": {"android": "https://dc.lft.to/lastmile_qr_scan", "ios": "https://dc.lft.to/lastmile_qr_scan"}, "fusion_lon": 0.0, "lat": 38.9256905, "bike_id": "29cf9abc2844324579c0ff9414857859", "type": "electric_scooter", "is_reserved": 0, "lon": -77.0226395}, {"fusion_lat": 0.0, "name": "e47fa8c8c8277e83caf8cd870fd91cc8", "is_disabled": 0, "rental_uris": {"android": "https://dc.lft.to/lastmile_qr_scan", "ios": "https://dc.lft.to/lastmile_qr_scan"}, "fusion_lon": 0.0, "lat": 38.935421166666664, "bike_id": "e47fa8c8c8277e83caf8cd870fd91cc8", "type": "electric_scooter", "is_reserved": 0, "lon": -77.03472916666666}, {"fusion_lat": 0.0, "name": "2d1e6453b56f001d35f08a52ba0f424e", "is_disabled": 0, "rental_uris": {"android": "https://dc.lft.to/lastmile_qr_scan", "ios": "https://dc.lft.to/lastmile_qr_scan"}, "fusion_lon": 0.0, "lat": 39.070521, "bike_id": "2d1e6453b56f001d35f08a52ba0f424e", "type": "electric_bike", "is_reserved": 0, "lon": -77.11486033333334}, {"fusion_lat": 0.0, "name": "64b043a9257f7bb9f1892b3db4ca7a4b", "is_disabled": 0, "rental_uris": {"android": "https://dc.lft.to/lastmile_qr_scan", "ios": "https://dc.lft.to/lastmile_qr_scan"}, "fusion_lon": 0.0, "lat": 38.90237783333333, "bike_id": "64b043a9257f7bb9f1892b3db4ca7a4b", "type": "electric_scooter", "is_reserved": 0, "lon": -77.00202516666667}, {"fusion_lat": 0.0, "name": "3a9d5bd6e6564d383556533edeb4a0c8", "is_disabled": 0, "rental_uris": {"android": "https://dc.lft.to/lastmile_qr_scan", "ios": "https://dc.lft.to/lastmile_qr_scan"}, "fusion_lon": 0.0, "lat": 38.926521666666666, "bike_id": "3a9d5bd6e6564d383556533edeb4a0c8", "type": "electric_scooter", "is_reserved": 0, "lon": -77.02426}, {"fusion_lat": 0.0, "name": "39b2df5b6784583b2e9b0abdbaa2e76a", "is_disabled": 0, "rental_uris": {"android": "https://dc.lft.to/lastmile_qr_scan", "ios": "https://dc.lft.to/lastmile_qr_scan"}, "fusion_lon": 0.0, "lat": 38.907146, "bike_id": "39b2df5b6784583b2e9b0abdbaa2e76a", "type": "electric_scooter", "is_reserved": 0, "lon": -77.0006835}, {"fusion_lat": 0.0, "name": "d4973437b58019611c23bff6841b6555", "is_disabled": 0, "rental_uris": {"android": "https://dc.lft.to/lastmile_qr_scan", "ios": "https://dc.lft.to/lastmile_qr_scan"}, "fusion_lon": 0.0, "lat": 38.90973233333333, "bike_id": "d4973437b58019611c23bff6841b6555", "type": "electric_scooter", "is_reserved": 0, "lon": -77.00890683333333}, {"fusion_lat": 0.0, "name": "6a450022736c99034ecd5ceb20c3ec10", "is_disabled": 0, "rental_uris": {"android": "https://dc.lft.to/lastmile_qr_scan", "ios": "https://dc.lft.to/lastmile_qr_scan"}, "fusion_lon": 0.0, "lat": 38.900717, "bike_id": "6a450022736c99034ecd5ceb20c3ec10", "type": "electric_scooter", "is_reserved": 0, "lon": -77.02640533333333}, {"fusion_lat": 0.0, "name": "670d436753db4bd9966082c954f623e1", "is_disabled": 0, "rental_uris": {"android": "https://dc.lft.to/lastmile_qr_scan", "ios": "https://dc.lft.to/lastmile_qr_scan"}, "fusion_lon": 0.0, "lat": 38.927506, "bike_id": "670d436753db4bd9966082c954f623e1", "type": "electric_scooter", "is_reserved": 0, "lon": -77.0253905}, {"fusion_lat": 0.0, "name": "fb06b435d5683097c9bed98395abd1d5", "is_disabled": 0, "rental_uris": {"android": "https://dc.lft.to/lastmile_qr_scan", "ios": "https://dc.lft.to/lastmile_qr_scan"}, "fusion_lon": 0.0, "lat": 38.887671, "bike_id": "fb06b435d5683097c9bed98395abd1d5", "type": "electric_scooter", "is_reserved": 0, "lon": -76.97751266666667}, {"fusion_lat": 0.0, "name": "c770f9ab7cadf4dd8fdfffef9b85150b", "is_disabled": 0, "rental_uris": {"android": "https://dc.lft.to/lastmile_qr_scan", "ios": "https://dc.lft.to/lastmile_qr_scan"}, "fusion_lon": 0.0, "lat": 38.8924375, "bike_id": "c770f9ab7cadf4dd8fdfffef9b85150b", "type": "electric_scooter", "is_reserved": 0, "lon": -77.03347783333334}, {"fusion_lat": 0.0, "name": "c4620d5c816e78478fd2f38cc2c42ff9", "is_disabled": 0, "rental_uris": {"android": "https://dc.lft.to/lastmile_qr_scan", "ios": "https://dc.lft.to/lastmile_qr_scan"}, "fusion_lon": 0.0, "lat": 38.85462916666667, "bike_id": "c4620d5c816e78478fd2f38cc2c42ff9", "type": "electric_scooter", "is_reserved": 0, "lon": -76.9722185}, {"fusion_lat": 0.0, "name": "37ab6f416ba66c1b621356f908580c8e", "is_disabled": 0, "rental_uris": {"android": "https://dc.lft.to/lastmile_qr_scan", "ios": "https://dc.lft.to/lastmile_qr_scan"}, "fusion_lon": 0.0, "lat": 38.936317833333334, "bike_id": "37ab6f416ba66c1b621356f908580c8e", "type": "electric_scooter", "is_reserved": 0, "lon": -77.03671033333333}, {"fusion_lat": 0.0, "name": "ac963cdf07116fc42a902229d33de3f2", "is_disabled": 0, "rental_uris": {"android": "https://dc.lft.to/lastmile_qr_scan", "ios": "https://dc.lft.to/lastmile_qr_scan"}, "fusion_lon": 0.0, "lat": 38.905484, "bike_id": "ac963cdf07116fc42a902229d33de3f2", "type": "electric_scooter", "is_reserved": 0, "lon": -77.0345285}, {"fusion_lat": 0.0, "name": "14b58a2ac37b70934e0a16ef0c1fcdb4", "is_disabled": 0, "rental_uris": {"android": "https://dc.lft.to/lastmile_qr_scan", "ios": "https://dc.lft.to/lastmile_qr_scan"}, "fusion_lon": 0.0, "lat": 38.879291333333335, "bike_id": "14b58a2ac37b70934e0a16ef0c1fcdb4", "type": "electric_scooter", "is_reserved": 0, "lon": -77.0079795}, {"fusion_lat": 0.0, "name": "c77e1f32b4c1c241fe3075b23121dfb7", "is_disabled": 0, "rental_uris": {"android": "https://dc.lft.to/lastmile_qr_scan", "ios": "https://dc.lft.to/lastmile_qr_scan"}, "fusion_lon": 0.0, "lat": 38.927242166666666, "bike_id": "c77e1f32b4c1c241fe3075b23121dfb7", "type": "electric_scooter", "is_reserved": 0, "lon": -77.02305133333333}, {"fusion_lat": 0.0, "name": "65bf7a708957764750616b01e27058fc", "is_disabled": 0, "rental_uris": {"android": "https://dc.lft.to/lastmile_qr_scan", "ios": "https://dc.lft.to/lastmile_qr_scan"}, "fusion_lon": 0.0, "lat": 38.9170665, "bike_id": "65bf7a708957764750616b01e27058fc", "type": "electric_scooter", "is_reserved": 0, "lon": -77.034757}, {"fusion_lat": 0.0, "name": "f7eab7524ed65af8636677a150147f43", "is_disabled": 0, "rental_uris": {"android": "https://dc.lft.to/lastmile_qr_scan", "ios": "https://dc.lft.to/lastmile_qr_scan"}, "fusion_lon": 0.0, "lat": 38.8923115, "bike_id": "f7eab7524ed65af8636677a150147f43", "type": "electric_scooter", "is_reserved": 0, "lon": -77.01715166666666}, {"fusion_lat": 0.0, "name": "5317311bb8b662a11e6b6251b47aa0ec", "is_disabled": 0, "rental_uris": {"android": "https://dc.lft.to/lastmile_qr_scan", "ios": "https://dc.lft.to/lastmile_qr_scan"}, "fusion_lon": 0.0, "lat": 38.9214895, "bike_id": "5317311bb8b662a11e6b6251b47aa0ec", "type": "electric_scooter", "is_reserved": 0, "lon": -77.03373633333334}, {"fusion_lat": 0.0, "name": "bf96ee82f362ae5d13128824da47abac", "is_disabled": 0, "rental_uris": {"android": "https://dc.lft.to/lastmile_qr_scan", "ios": "https://dc.lft.to/lastmile_qr_scan"}, "fusion_lon": 0.0, "lat": 38.928536333333334, "bike_id": "bf96ee82f362ae5d13128824da47abac", "type": "electric_scooter", "is_reserved": 0, "lon": -77.02438}, {"fusion_lat": 0.0, "name": "6986cf6496d4af4c3ad2888324962e84", "is_disabled": 0, "rental_uris": {"android": "https://dc.lft.to/lastmile_qr_scan", "ios": "https://dc.lft.to/lastmile_qr_scan"}, "fusion_lon": 0.0, "lat": 38.92319533333333, "bike_id": "6986cf6496d4af4c3ad2888324962e84", "type": "electric_scooter", "is_reserved": 0, "lon": -77.0437875}, {"fusion_lat": 0.0, "name": "dfa7a0838eb1da2c61937e37402c6df0", "is_disabled": 0, "rental_uris": {"android": "https://dc.lft.to/lastmile_qr_scan", "ios": "https://dc.lft.to/lastmile_qr_scan"}, "fusion_lon": 0.0, "lat": 38.89553933333333, "bike_id": "dfa7a0838eb1da2c61937e37402c6df0", "type": "electric_scooter", "is_reserved": 0, "lon": -76.99840483333334}, {"fusion_lat": 0.0, "name": "c86ebcc75f84ece17dfe92007599d369", "is_disabled": 0, "rental_uris": {"android": "https://dc.lft.to/lastmile_qr_scan", "ios": "https://dc.lft.to/lastmile_qr_scan"}, "fusion_lon": 0.0, "lat": 38.845057, "bike_id": "c86ebcc75f84ece17dfe92007599d369", "type": "electric_bike", "is_reserved": 0, "lon": -76.99355816666667}, {"fusion_lat": 0.0, "name": "e4725093487637cf89e8e4fd9c69a7bd", "is_disabled": 0, "rental_uris": {"android": "https://dc.lft.to/lastmile_qr_scan", "ios": "https://dc.lft.to/lastmile_qr_scan"}, "fusion_lon": 0.0, "lat": 38.90965633333333, "bike_id": "e4725093487637cf89e8e4fd9c69a7bd", "type": "electric_scooter", "is_reserved": 0, "lon": -77.03947733333334}, {"fusion_lat": 0.0, "name": "0d29b77824e7e743a2be38a20f2b1d6b", "is_disabled": 0, "rental_uris": {"android": "https://dc.lft.to/lastmile_qr_scan", "ios": "https://dc.lft.to/lastmile_qr_scan"}, "fusion_lon": 0.0, "lat": 38.90496783333333, "bike_id": "0d29b77824e7e743a2be38a20f2b1d6b", "type": "electric_scooter", "is_reserved": 0, "lon": -77.025969}, {"fusion_lat": 0.0, "name": "430d832171cb1e2ac5e9748387e173a3", "is_disabled": 0, "rental_uris": {"android": "https://dc.lft.to/lastmile_qr_scan", "ios": "https://dc.lft.to/lastmile_qr_scan"}, "fusion_lon": 0.0, "lat": 38.93222333333333, "bike_id": "430d832171cb1e2ac5e9748387e173a3", "type": "electric_scooter", "is_reserved": 0, "lon": -77.044154}, {"fusion_lat": 0.0, "name": "cf5ffac8717908e37a5c995b9fbeab43", "is_disabled": 0, "rental_uris": {"android": "https://dc.lft.to/lastmile_qr_scan", "ios": "https://dc.lft.to/lastmile_qr_scan"}, "fusion_lon": 0.0, "lat": 38.920754, "bike_id": "cf5ffac8717908e37a5c995b9fbeab43", "type": "electric_scooter", "is_reserved": 0, "lon": -77.01211183333334}, {"fusion_lat": 0.0, "name": "ed92cd70b110604fff2065bdf1d6f6ab", "is_disabled": 0, "rental_uris": {"android": "https://dc.lft.to/lastmile_qr_scan", "ios": "https://dc.lft.to/lastmile_qr_scan"}, "fusion_lon": 0.0, "lat": 38.899784833333335, "bike_id": "ed92cd70b110604fff2065bdf1d6f6ab", "type": "electric_scooter", "is_reserved": 0, "lon": -77.04048533333334}, {"fusion_lat": 0.0, "name": "163bcfc6e5f4e443725e80bfec8850a4", "is_disabled": 0, "rental_uris": {"android": "https://dc.lft.to/lastmile_qr_scan", "ios": "https://dc.lft.to/lastmile_qr_scan"}, "fusion_lon": 0.0, "lat": 38.909757166666665, "bike_id": "163bcfc6e5f4e443725e80bfec8850a4", "type": "electric_scooter", "is_reserved": 0, "lon": -77.03442283333334}, {"fusion_lat": 0.0, "name": "3170e7805e3d56cb106e01a8526991af", "is_disabled": 0, "rental_uris": {"android": "https://dc.lft.to/lastmile_qr_scan", "ios": "https://dc.lft.to/lastmile_qr_scan"}, "fusion_lon": 0.0, "lat": 38.929379, "bike_id": "3170e7805e3d56cb106e01a8526991af", "type": "electric_scooter", "is_reserved": 0, "lon": -77.02345466666667}, {"fusion_lat": 0.0, "name": "a9a5e3a2b047684204f78be2b6740553", "is_disabled": 0, "rental_uris": {"android": "https://dc.lft.to/lastmile_qr_scan", "ios": "https://dc.lft.to/lastmile_qr_scan"}, "fusion_lon": 0.0, "lat": 38.91924516666667, "bike_id": "a9a5e3a2b047684204f78be2b6740553", "type": "electric_scooter", "is_reserved": 0, "lon": -77.01457683333334}, {"fusion_lat": 0.0, "name": "049cecf175cbd4adccd48a16fc683212", "is_disabled": 0, "rental_uris": {"android": "https://dc.lft.to/lastmile_qr_scan", "ios": "https://dc.lft.to/lastmile_qr_scan"}, "fusion_lon": 0.0, "lat": 38.92876183333333, "bike_id": "049cecf175cbd4adccd48a16fc683212", "type": "electric_scooter", "is_reserved": 0, "lon": -77.034139}, {"fusion_lat": 0.0, "name": "ea65af7a05cc59cc26a8e8657074dfac", "is_disabled": 0, "rental_uris": {"android": "https://dc.lft.to/lastmile_qr_scan", "ios": "https://dc.lft.to/lastmile_qr_scan"}, "fusion_lon": 0.0, "lat": 38.8191345, "bike_id": "ea65af7a05cc59cc26a8e8657074dfac", "type": "electric_bike", "is_reserved": 0, "lon": -77.04795966666667}, {"fusion_lat": 0.0, "name": "0568a242f0e4514d6ef62dfea6f45166", "is_disabled": 0, "rental_uris": {"android": "https://dc.lft.to/lastmile_qr_scan", "ios": "https://dc.lft.to/lastmile_qr_scan"}, "fusion_lon": 0.0, "lat": 38.925372, "bike_id": "0568a242f0e4514d6ef62dfea6f45166", "type": "electric_scooter", "is_reserved": 0, "lon": -77.00759483333333}, {"fusion_lat": 0.0, "name": "9b91b395be41ea40abf895b02fea3a83", "is_disabled": 0, "rental_uris": {"android": "https://dc.lft.to/lastmile_qr_scan", "ios": "https://dc.lft.to/lastmile_qr_scan"}, "fusion_lon": 0.0, "lat": 38.926817, "bike_id": "9b91b395be41ea40abf895b02fea3a83", "type": "electric_scooter", "is_reserved": 0, "lon": -77.030884}, {"fusion_lat": 0.0, "name": "e41f30902f9137f09315937277282dbd", "is_disabled": 0, "rental_uris": {"android": "https://dc.lft.to/lastmile_qr_scan", "ios": "https://dc.lft.to/lastmile_qr_scan"}, "fusion_lon": 0.0, "lat": 38.89247433333333, "bike_id": "e41f30902f9137f09315937277282dbd", "type": "electric_scooter", "is_reserved": 0, "lon": -77.03345366666667}, {"fusion_lat": 0.0, "name": "fcb8b865f632991d1a137c331849200a", "is_disabled": 0, "rental_uris": {"android": "https://dc.lft.to/lastmile_qr_scan", "ios": "https://dc.lft.to/lastmile_qr_scan"}, "fusion_lon": 0.0, "lat": 38.89971883333333, "bike_id": "fcb8b865f632991d1a137c331849200a", "type": "electric_scooter", "is_reserved": 0, "lon": -77.03363166666666}, {"fusion_lat": 0.0, "name": "e71fbfa597fdbd1cd3f0b812c9d46ab5", "is_disabled": 0, "rental_uris": {"android": "https://dc.lft.to/lastmile_qr_scan", "ios": "https://dc.lft.to/lastmile_qr_scan"}, "fusion_lon": 0.0, "lat": 38.90723333333333, "bike_id": "e71fbfa597fdbd1cd3f0b812c9d46ab5", "type": "electric_scooter", "is_reserved": 0, "lon": -77.04758016666666}, {"fusion_lat": 0.0, "name": "9d37b9d680a697cc623cc31cb84acf41", "is_disabled": 0, "rental_uris": {"android": "https://dc.lft.to/lastmile_qr_scan", "ios": "https://dc.lft.to/lastmile_qr_scan"}, "fusion_lon": 0.0, "lat": 38.899543666666666, "bike_id": "9d37b9d680a697cc623cc31cb84acf41", "type": "electric_scooter", "is_reserved": 0, "lon": -77.01149083333334}, {"fusion_lat": 0.0, "name": "fed9ba3d8113a8eb62c9039ac73acf1e", "is_disabled": 0, "rental_uris": {"android": "https://dc.lft.to/lastmile_qr_scan", "ios": "https://dc.lft.to/lastmile_qr_scan"}, "fusion_lon": 0.0, "lat": 38.90338916666666, "bike_id": "fed9ba3d8113a8eb62c9039ac73acf1e", "type": "electric_scooter", "is_reserved": 0, "lon": -76.93374716666666}, {"fusion_lat": 0.0, "name": "554a4681b6b9756b55b37f61a6b0ef18", "is_disabled": 0, "rental_uris": {"android": "https://dc.lft.to/lastmile_qr_scan", "ios": "https://dc.lft.to/lastmile_qr_scan"}, "fusion_lon": 0.0, "lat": 38.807092, "bike_id": "554a4681b6b9756b55b37f61a6b0ef18", "type": "electric_bike", "is_reserved": 0, "lon": -77.06174333333334}, {"fusion_lat": 0.0, "name": "925001f772bf7a178d8f43b557aabb96", "is_disabled": 0, "rental_uris": {"android": "https://dc.lft.to/lastmile_qr_scan", "ios": "https://dc.lft.to/lastmile_qr_scan"}, "fusion_lon": 0.0, "lat": 38.8830325, "bike_id": "925001f772bf7a178d8f43b557aabb96", "type": "electric_scooter", "is_reserved": 0, "lon": -76.948606}, {"fusion_lat": 0.0, "name": "3cf0a9d98814b3d86a20d69d27ca60bc", "is_disabled": 0, "rental_uris": {"android": "https://dc.lft.to/lastmile_qr_scan", "ios": "https://dc.lft.to/lastmile_qr_scan"}, "fusion_lon": 0.0, "lat": 38.9004295, "bike_id": "3cf0a9d98814b3d86a20d69d27ca60bc", "type": "electric_scooter", "is_reserved": 0, "lon": -77.04478466666667}, {"fusion_lat": 0.0, "name": "af43a38e272673f52d7b648eca784660", "is_disabled": 0, "rental_uris": {"android": "https://dc.lft.to/lastmile_qr_scan", "ios": "https://dc.lft.to/lastmile_qr_scan"}, "fusion_lon": 0.0, "lat": 38.878280333333336, "bike_id": "af43a38e272673f52d7b648eca784660", "type": "electric_scooter", "is_reserved": 0, "lon": -76.99018216666667}, {"fusion_lat": 0.0, "name": "5a2942b6111dfed5265ed54dc63a5a82", "is_disabled": 0, "rental_uris": {"android": "https://dc.lft.to/lastmile_qr_scan", "ios": "https://dc.lft.to/lastmile_qr_scan"}, "fusion_lon": 0.0, "lat": 38.930144166666665, "bike_id": "5a2942b6111dfed5265ed54dc63a5a82", "type": "electric_scooter", "is_reserved": 0, "lon": -77.02083833333333}, {"fusion_lat": 0.0, "name": "79beea91660d66708dbb53fcd5ebd26a", "is_disabled": 0, "rental_uris": {"android": "https://dc.lft.to/lastmile_qr_scan", "ios": "https://dc.lft.to/lastmile_qr_scan"}, "fusion_lon": 0.0, "lat": 38.900378833333335, "bike_id": "79beea91660d66708dbb53fcd5ebd26a", "type": "electric_scooter", "is_reserved": 0, "lon": -76.99769083333334}, {"fusion_lat": 0.0, "name": "21b384f36e27d63c044d3ee623a932ba", "is_disabled": 0, "rental_uris": {"android": "https://dc.lft.to/lastmile_qr_scan", "ios": "https://dc.lft.to/lastmile_qr_scan"}, "fusion_lon": 0.0, "lat": 38.91796633333333, "bike_id": "21b384f36e27d63c044d3ee623a932ba", "type": "electric_scooter", "is_reserved": 0, "lon": -77.02697433333333}, {"fusion_lat": 0.0, "name": "42e46d5eeb00ddb68af1efc79a8299b3", "is_disabled": 0, "rental_uris": {"android": "https://dc.lft.to/lastmile_qr_scan", "ios": "https://dc.lft.to/lastmile_qr_scan"}, "fusion_lon": 0.0, "lat": 38.9248155, "bike_id": "42e46d5eeb00ddb68af1efc79a8299b3", "type": "electric_scooter", "is_reserved": 0, "lon": -77.027202}, {"fusion_lat": 0.0, "name": "4cff0afdadbc6a70861f05ef42965de0", "is_disabled": 0, "rental_uris": {"android": "https://dc.lft.to/lastmile_qr_scan", "ios": "https://dc.lft.to/lastmile_qr_scan"}, "fusion_lon": 0.0, "lat": 38.90959216666667, "bike_id": "4cff0afdadbc6a70861f05ef42965de0", "type": "electric_scooter", "is_reserved": 0, "lon": -77.04745116666666}, {"fusion_lat": 0.0, "name": "d8b1b9cfe71caedd326a786dbcc07b4f", "is_disabled": 0, "rental_uris": {"android": "https://dc.lft.to/lastmile_qr_scan", "ios": "https://dc.lft.to/lastmile_qr_scan"}, "fusion_lon": 0.0, "lat": 38.8535905, "bike_id": "d8b1b9cfe71caedd326a786dbcc07b4f", "type": "electric_bike", "is_reserved": 0, "lon": -77.1149385}, {"fusion_lat": 0.0, "name": "f5a6aae7bab207aebbdc954d2abf5672", "is_disabled": 0, "rental_uris": {"android": "https://dc.lft.to/lastmile_qr_scan", "ios": "https://dc.lft.to/lastmile_qr_scan"}, "fusion_lon": 0.0, "lat": 38.90735933333333, "bike_id": "f5a6aae7bab207aebbdc954d2abf5672", "type": "electric_scooter", "is_reserved": 0, "lon": -77.02603616666667}, {"fusion_lat": 0.0, "name": "5466925b0906a5ae894dc7d55103adca", "is_disabled": 0, "rental_uris": {"android": "https://dc.lft.to/lastmile_qr_scan", "ios": "https://dc.lft.to/lastmile_qr_scan"}, "fusion_lon": 0.0, "lat": 38.90006266666666, "bike_id": "5466925b0906a5ae894dc7d55103adca", "type": "electric_scooter", "is_reserved": 0, "lon": -76.99841583333334}, {"fusion_lat": 0.0, "name": "b1221df0a5acac0c4edc76935486451e", "is_disabled": 0, "rental_uris": {"android": "https://dc.lft.to/lastmile_qr_scan", "ios": "https://dc.lft.to/lastmile_qr_scan"}, "fusion_lon": 0.0, "lat": 38.927527833333336, "bike_id": "b1221df0a5acac0c4edc76935486451e", "type": "electric_scooter", "is_reserved": 0, "lon": -77.03293833333333}, {"fusion_lat": 0.0, "name": "ebfabf49494ec85ea6c2a33c17c51063", "is_disabled": 0, "rental_uris": {"android": "https://dc.lft.to/lastmile_qr_scan", "ios": "https://dc.lft.to/lastmile_qr_scan"}, "fusion_lon": 0.0, "lat": 38.938627, "bike_id": "ebfabf49494ec85ea6c2a33c17c51063", "type": "electric_scooter", "is_reserved": 0, "lon": -77.03209233333334}, {"fusion_lat": 0.0, "name": "47ff5bd129cbf7b25f921410d925fc1f", "is_disabled": 0, "rental_uris": {"android": "https://dc.lft.to/lastmile_qr_scan", "ios": "https://dc.lft.to/lastmile_qr_scan"}, "fusion_lon": 0.0, "lat": 39.0343135, "bike_id": "47ff5bd129cbf7b25f921410d925fc1f", "type": "electric_bike", "is_reserved": 0, "lon": -77.04323633333334}, {"fusion_lat": 0.0, "name": "90914e135bbc72a57dc7b2a7e233034e", "is_disabled": 0, "rental_uris": {"android": "https://dc.lft.to/lastmile_qr_scan", "ios": "https://dc.lft.to/lastmile_qr_scan"}, "fusion_lon": 0.0, "lat": 38.893392666666664, "bike_id": "90914e135bbc72a57dc7b2a7e233034e", "type": "electric_scooter", "is_reserved": 0, "lon": -76.99375616666667}, {"fusion_lat": 0.0, "name": "8913944c29e66c384b2e4581bf670b71", "is_disabled": 0, "rental_uris": {"android": "https://dc.lft.to/lastmile_qr_scan", "ios": "https://dc.lft.to/lastmile_qr_scan"}, "fusion_lon": 0.0, "lat": 38.9141675, "bike_id": "8913944c29e66c384b2e4581bf670b71", "type": "electric_scooter", "is_reserved": 0, "lon": -77.02736766666666}, {"fusion_lat": 0.0, "name": "8862a661a4f3712cd9abc6a30808cc80", "is_disabled": 0, "rental_uris": {"android": "https://dc.lft.to/lastmile_qr_scan", "ios": "https://dc.lft.to/lastmile_qr_scan"}, "fusion_lon": 0.0, "lat": 38.86522133333333, "bike_id": "8862a661a4f3712cd9abc6a30808cc80", "type": "electric_bike", "is_reserved": 0, "lon": -76.97341333333334}, {"fusion_lat": 0.0, "name": "fb7a04ab153199c621e0269779eec065", "is_disabled": 0, "rental_uris": {"android": "https://dc.lft.to/lastmile_qr_scan", "ios": "https://dc.lft.to/lastmile_qr_scan"}, "fusion_lon": 0.0, "lat": 38.87684983333333, "bike_id": "fb7a04ab153199c621e0269779eec065", "type": "electric_scooter", "is_reserved": 0, "lon": -77.01755883333334}, {"fusion_lat": 0.0, "name": "c1315aefb5f2eaa368f083d54d65a44a", "is_disabled": 0, "rental_uris": {"android": "https://dc.lft.to/lastmile_qr_scan", "ios": "https://dc.lft.to/lastmile_qr_scan"}, "fusion_lon": 0.0, "lat": 38.9336435, "bike_id": "c1315aefb5f2eaa368f083d54d65a44a", "type": "electric_scooter", "is_reserved": 0, "lon": -77.03265383333333}, {"fusion_lat": 0.0, "name": "f1c5ac4b7bedb82ba90939e27ffadaec", "is_disabled": 0, "rental_uris": {"android": "https://dc.lft.to/lastmile_qr_scan", "ios": "https://dc.lft.to/lastmile_qr_scan"}, "fusion_lon": 0.0, "lat": 38.926532, "bike_id": "f1c5ac4b7bedb82ba90939e27ffadaec", "type": "electric_scooter", "is_reserved": 0, "lon": -77.03708716666667}, {"fusion_lat": 0.0, "name": "a8dfd434314c028656de2f1e22b5e90f", "is_disabled": 0, "rental_uris": {"android": "https://dc.lft.to/lastmile_qr_scan", "ios": "https://dc.lft.to/lastmile_qr_scan"}, "fusion_lon": 0.0, "lat": 38.9237035, "bike_id": "a8dfd434314c028656de2f1e22b5e90f", "type": "electric_scooter", "is_reserved": 0, "lon": -77.02534816666666}, {"fusion_lat": 0.0, "name": "54f93b8870e39e4eeeec750fe86048a2", "is_disabled": 0, "rental_uris": {"android": "https://dc.lft.to/lastmile_qr_scan", "ios": "https://dc.lft.to/lastmile_qr_scan"}, "fusion_lon": 0.0, "lat": 38.903587, "bike_id": "54f93b8870e39e4eeeec750fe86048a2", "type": "electric_scooter", "is_reserved": 0, "lon": -77.06268783333333}, {"fusion_lat": 0.0, "name": "e9f558c484d0f76302c94c9cc8116b87", "is_disabled": 0, "rental_uris": {"android": "https://dc.lft.to/lastmile_qr_scan", "ios": "https://dc.lft.to/lastmile_qr_scan"}, "fusion_lon": 0.0, "lat": 38.928721833333334, "bike_id": "e9f558c484d0f76302c94c9cc8116b87", "type": "electric_scooter", "is_reserved": 0, "lon": -77.034834}, {"fusion_lat": 0.0, "name": "dab6efda604a840e7eb23b784f2ea556", "is_disabled": 0, "rental_uris": {"android": "https://dc.lft.to/lastmile_qr_scan", "ios": "https://dc.lft.to/lastmile_qr_scan"}, "fusion_lon": 0.0, "lat": 38.91412733333333, "bike_id": "dab6efda604a840e7eb23b784f2ea556", "type": "electric_scooter", "is_reserved": 0, "lon": -77.03146716666667}, {"fusion_lat": 0.0, "name": "ec80cec74a4cea094705f0b92a7f38ef", "is_disabled": 0, "rental_uris": {"android": "https://dc.lft.to/lastmile_qr_scan", "ios": "https://dc.lft.to/lastmile_qr_scan"}, "fusion_lon": 0.0, "lat": 38.938810833333335, "bike_id": "ec80cec74a4cea094705f0b92a7f38ef", "type": "electric_scooter", "is_reserved": 0, "lon": -77.02477016666667}, {"fusion_lat": 0.0, "name": "630e71e7a16f64c58d16f2d140f516bc", "is_disabled": 0, "rental_uris": {"android": "https://dc.lft.to/lastmile_qr_scan", "ios": "https://dc.lft.to/lastmile_qr_scan"}, "fusion_lon": 0.0, "lat": 38.84911616666667, "bike_id": "630e71e7a16f64c58d16f2d140f516bc", "type": "electric_bike", "is_reserved": 0, "lon": -77.09982883333333}, {"fusion_lat": 0.0, "name": "ea27330ac434a160a210cef340f0634f", "is_disabled": 0, "rental_uris": {"android": "https://dc.lft.to/lastmile_qr_scan", "ios": "https://dc.lft.to/lastmile_qr_scan"}, "fusion_lon": 0.0, "lat": 38.91801183333333, "bike_id": "ea27330ac434a160a210cef340f0634f", "type": "electric_scooter", "is_reserved": 0, "lon": -77.03441016666666}, {"fusion_lat": 0.0, "name": "f2bba2501f4f12e47ef40d9d72c6fa5a", "is_disabled": 0, "rental_uris": {"android": "https://dc.lft.to/lastmile_qr_scan", "ios": "https://dc.lft.to/lastmile_qr_scan"}, "fusion_lon": 0.0, "lat": 38.90230916666667, "bike_id": "f2bba2501f4f12e47ef40d9d72c6fa5a", "type": "electric_scooter", "is_reserved": 0, "lon": -77.0288225}, {"fusion_lat": 0.0, "name": "43768160c30d01c170ca34a9cd078797", "is_disabled": 0, "rental_uris": {"android": "https://dc.lft.to/lastmile_qr_scan", "ios": "https://dc.lft.to/lastmile_qr_scan"}, "fusion_lon": 0.0, "lat": 38.920584833333336, "bike_id": "43768160c30d01c170ca34a9cd078797", "type": "electric_scooter", "is_reserved": 0, "lon": -77.02449466666667}, {"fusion_lat": 0.0, "name": "0c7f97fc58312820d4661e61d911999b", "is_disabled": 0, "rental_uris": {"android": "https://dc.lft.to/lastmile_qr_scan", "ios": "https://dc.lft.to/lastmile_qr_scan"}, "fusion_lon": 0.0, "lat": 38.9179995, "bike_id": "0c7f97fc58312820d4661e61d911999b", "type": "electric_scooter", "is_reserved": 0, "lon": -77.027112}, {"fusion_lat": 0.0, "name": "e530546ef5fd21c4729b745c3c219729", "is_disabled": 0, "rental_uris": {"android": "https://dc.lft.to/lastmile_qr_scan", "ios": "https://dc.lft.to/lastmile_qr_scan"}, "fusion_lon": 0.0, "lat": 38.88040183333333, "bike_id": "e530546ef5fd21c4729b745c3c219729", "type": "electric_scooter", "is_reserved": 0, "lon": -77.013321}, {"fusion_lat": 0.0, "name": "520022fa6fd2fcf3b51e0a5c4202beb5", "is_disabled": 0, "rental_uris": {"android": "https://dc.lft.to/lastmile_qr_scan", "ios": "https://dc.lft.to/lastmile_qr_scan"}, "fusion_lon": 0.0, "lat": 38.87666016666667, "bike_id": "520022fa6fd2fcf3b51e0a5c4202beb5", "type": "electric_bike", "is_reserved": 0, "lon": -77.02088933333333}, {"fusion_lat": 0.0, "name": "254d4c3e7d1e1abc0ce149d97e85abcc", "is_disabled": 0, "rental_uris": {"android": "https://dc.lft.to/lastmile_qr_scan", "ios": "https://dc.lft.to/lastmile_qr_scan"}, "fusion_lon": 0.0, "lat": 38.8765885, "bike_id": "254d4c3e7d1e1abc0ce149d97e85abcc", "type": "electric_bike", "is_reserved": 0, "lon": -77.01474416666667}, {"fusion_lat": 0.0, "name": "e8df2f7fbd03feb1ca09d9827f543901", "is_disabled": 0, "rental_uris": {"android": "https://dc.lft.to/lastmile_qr_scan", "ios": "https://dc.lft.to/lastmile_qr_scan"}, "fusion_lon": 0.0, "lat": 38.966169, "bike_id": "e8df2f7fbd03feb1ca09d9827f543901", "type": "electric_bike", "is_reserved": 0, "lon": -77.03423133333334}, {"fusion_lat": 0.0, "name": "40ef4b209bfbaac506f0dd71948eca7d", "is_disabled": 0, "rental_uris": {"android": "https://dc.lft.to/lastmile_qr_scan", "ios": "https://dc.lft.to/lastmile_qr_scan"}, "fusion_lon": 0.0, "lat": 38.91265466666667, "bike_id": "40ef4b209bfbaac506f0dd71948eca7d", "type": "electric_scooter", "is_reserved": 0, "lon": -77.03875683333334}, {"fusion_lat": 0.0, "name": "6c97f3f80a4df9022c734108580abed7", "is_disabled": 0, "rental_uris": {"android": "https://dc.lft.to/lastmile_qr_scan", "ios": "https://dc.lft.to/lastmile_qr_scan"}, "fusion_lon": 0.0, "lat": 38.922598666666666, "bike_id": "6c97f3f80a4df9022c734108580abed7", "type": "electric_scooter", "is_reserved": 0, "lon": -77.03667}, {"fusion_lat": 0.0, "name": "9c592d94e63b2c8c5dc0d2b4f2e5cbe5", "is_disabled": 0, "rental_uris": {"android": "https://dc.lft.to/lastmile_qr_scan", "ios": "https://dc.lft.to/lastmile_qr_scan"}, "fusion_lon": 0.0, "lat": 38.9055525, "bike_id": "9c592d94e63b2c8c5dc0d2b4f2e5cbe5", "type": "electric_scooter", "is_reserved": 0, "lon": -77.046605}, {"fusion_lat": 0.0, "name": "3d0007085070e9b12055cb4d13cdadf6", "is_disabled": 0, "rental_uris": {"android": "https://dc.lft.to/lastmile_qr_scan", "ios": "https://dc.lft.to/lastmile_qr_scan"}, "fusion_lon": 0.0, "lat": 38.909727333333336, "bike_id": "3d0007085070e9b12055cb4d13cdadf6", "type": "electric_scooter", "is_reserved": 0, "lon": -77.03439066666667}, {"fusion_lat": 0.0, "name": "76e86300484f5398ba4870775abd34c4", "is_disabled": 0, "rental_uris": {"android": "https://dc.lft.to/lastmile_qr_scan", "ios": "https://dc.lft.to/lastmile_qr_scan"}, "fusion_lon": 0.0, "lat": 38.915670166666665, "bike_id": "76e86300484f5398ba4870775abd34c4", "type": "electric_scooter", "is_reserved": 0, "lon": -77.04160166666666}, {"fusion_lat": 0.0, "name": "deaa7165caedf2ee397ef8068e43a3ec", "is_disabled": 0, "rental_uris": {"android": "https://dc.lft.to/lastmile_qr_scan", "ios": "https://dc.lft.to/lastmile_qr_scan"}, "fusion_lon": 0.0, "lat": 38.921146, "bike_id": "deaa7165caedf2ee397ef8068e43a3ec", "type": "electric_scooter", "is_reserved": 0, "lon": -77.04692283333333}, {"fusion_lat": 0.0, "name": "7ecae095b25c7e17c7b5e8062fb03591", "is_disabled": 0, "rental_uris": {"android": "https://dc.lft.to/lastmile_qr_scan", "ios": "https://dc.lft.to/lastmile_qr_scan"}, "fusion_lon": 0.0, "lat": 38.894799, "bike_id": "7ecae095b25c7e17c7b5e8062fb03591", "type": "electric_scooter", "is_reserved": 0, "lon": -77.021804}, {"fusion_lat": 0.0, "name": "e1c63388af29fa0e9d120b8091a65168", "is_disabled": 0, "rental_uris": {"android": "https://dc.lft.to/lastmile_qr_scan", "ios": "https://dc.lft.to/lastmile_qr_scan"}, "fusion_lon": 0.0, "lat": 38.885737166666665, "bike_id": "e1c63388af29fa0e9d120b8091a65168", "type": "electric_scooter", "is_reserved": 0, "lon": -77.0121625}, {"fusion_lat": 0.0, "name": "7927b3b36a54b4892697d80ebb3881f3", "is_disabled": 0, "rental_uris": {"android": "https://dc.lft.to/lastmile_qr_scan", "ios": "https://dc.lft.to/lastmile_qr_scan"}, "fusion_lon": 0.0, "lat": 38.90124, "bike_id": "7927b3b36a54b4892697d80ebb3881f3", "type": "electric_scooter", "is_reserved": 0, "lon": -77.02198333333334}, {"fusion_lat": 0.0, "name": "43f42cc46c9b14c92480c70795073f82", "is_disabled": 0, "rental_uris": {"android": "https://dc.lft.to/lastmile_qr_scan", "ios": "https://dc.lft.to/lastmile_qr_scan"}, "fusion_lon": 0.0, "lat": 38.907711, "bike_id": "43f42cc46c9b14c92480c70795073f82", "type": "electric_scooter", "is_reserved": 0, "lon": -77.031919}, {"fusion_lat": 0.0, "name": "bce3fdfeecc6ae87ae7eb3391b4d6c30", "is_disabled": 0, "rental_uris": {"android": "https://dc.lft.to/lastmile_qr_scan", "ios": "https://dc.lft.to/lastmile_qr_scan"}, "fusion_lon": 0.0, "lat": 38.89224333333333, "bike_id": "bce3fdfeecc6ae87ae7eb3391b4d6c30", "type": "electric_scooter", "is_reserved": 0, "lon": -77.04376083333334}, {"fusion_lat": 0.0, "name": "0834c9ac5c44401845bdf1fc17feaf11", "is_disabled": 0, "rental_uris": {"android": "https://dc.lft.to/lastmile_qr_scan", "ios": "https://dc.lft.to/lastmile_qr_scan"}, "fusion_lon": 0.0, "lat": 38.9060845, "bike_id": "0834c9ac5c44401845bdf1fc17feaf11", "type": "electric_scooter", "is_reserved": 0, "lon": -77.06481283333333}, {"fusion_lat": 0.0, "name": "77c3a8592add57c3e23a2551e4d09ab7", "is_disabled": 0, "rental_uris": {"android": "https://dc.lft.to/lastmile_qr_scan", "ios": "https://dc.lft.to/lastmile_qr_scan"}, "fusion_lon": 0.0, "lat": 38.88500583333333, "bike_id": "77c3a8592add57c3e23a2551e4d09ab7", "type": "electric_scooter", "is_reserved": 0, "lon": -77.02091816666666}, {"fusion_lat": 0.0, "name": "7b8ac57dd276fc3474ddf74fe2c9f8e6", "is_disabled": 0, "rental_uris": {"android": "https://dc.lft.to/lastmile_qr_scan", "ios": "https://dc.lft.to/lastmile_qr_scan"}, "fusion_lon": 0.0, "lat": 38.79020716666667, "bike_id": "7b8ac57dd276fc3474ddf74fe2c9f8e6", "type": "electric_bike", "is_reserved": 0, "lon": -77.015464}, {"fusion_lat": 0.0, "name": "dd6f0c8a0c42f1ab9947ed5096c964dc", "is_disabled": 0, "rental_uris": {"android": "https://dc.lft.to/lastmile_qr_scan", "ios": "https://dc.lft.to/lastmile_qr_scan"}, "fusion_lon": 0.0, "lat": 38.9267505, "bike_id": "dd6f0c8a0c42f1ab9947ed5096c964dc", "type": "electric_scooter", "is_reserved": 0, "lon": -77.03052516666666}, {"fusion_lat": 0.0, "name": "3b598bd11456712d99e0f1f44b73a457", "is_disabled": 0, "rental_uris": {"android": "https://dc.lft.to/lastmile_qr_scan", "ios": "https://dc.lft.to/lastmile_qr_scan"}, "fusion_lon": 0.0, "lat": 38.890918666666664, "bike_id": "3b598bd11456712d99e0f1f44b73a457", "type": "electric_scooter", "is_reserved": 0, "lon": -76.91925966666666}, {"fusion_lat": 0.0, "name": "fe3b9fa058b7d2bb1c879ab934f45450", "is_disabled": 0, "rental_uris": {"android": "https://dc.lft.to/lastmile_qr_scan", "ios": "https://dc.lft.to/lastmile_qr_scan"}, "fusion_lon": 0.0, "lat": 38.88752516666667, "bike_id": "fe3b9fa058b7d2bb1c879ab934f45450", "type": "electric_scooter", "is_reserved": 0, "lon": -77.031613}, {"fusion_lat": 0.0, "name": "703a8041269582672a9c87a55cf35228", "is_disabled": 0, "rental_uris": {"android": "https://dc.lft.to/lastmile_qr_scan", "ios": "https://dc.lft.to/lastmile_qr_scan"}, "fusion_lon": 0.0, "lat": 38.918422, "bike_id": "703a8041269582672a9c87a55cf35228", "type": "electric_scooter", "is_reserved": 0, "lon": -77.02427583333333}, {"fusion_lat": 0.0, "name": "f5237f185c9b89ab9fc5e62d6092586c", "is_disabled": 0, "rental_uris": {"android": "https://dc.lft.to/lastmile_qr_scan", "ios": "https://dc.lft.to/lastmile_qr_scan"}, "fusion_lon": 0.0, "lat": 38.93599583333334, "bike_id": "f5237f185c9b89ab9fc5e62d6092586c", "type": "electric_scooter", "is_reserved": 0, "lon": -77.023046}, {"fusion_lat": 0.0, "name": "0f21e55426861b5bdc42e191cd09889e", "is_disabled": 0, "rental_uris": {"android": "https://dc.lft.to/lastmile_qr_scan", "ios": "https://dc.lft.to/lastmile_qr_scan"}, "fusion_lon": 0.0, "lat": 38.94429433333333, "bike_id": "0f21e55426861b5bdc42e191cd09889e", "type": "electric_bike", "is_reserved": 0, "lon": -77.026057}, {"fusion_lat": 0.0, "name": "6465c400c3f325fada11c5418a51c81b", "is_disabled": 0, "rental_uris": {"android": "https://dc.lft.to/lastmile_qr_scan", "ios": "https://dc.lft.to/lastmile_qr_scan"}, "fusion_lon": 0.0, "lat": 38.9323505, "bike_id": "6465c400c3f325fada11c5418a51c81b", "type": "electric_scooter", "is_reserved": 0, "lon": -77.0342785}, {"fusion_lat": 0.0, "name": "dbad04c609f505ba204be0e3661c8e5e", "is_disabled": 0, "rental_uris": {"android": "https://dc.lft.to/lastmile_qr_scan", "ios": "https://dc.lft.to/lastmile_qr_scan"}, "fusion_lon": 0.0, "lat": 38.918144, "bike_id": "dbad04c609f505ba204be0e3661c8e5e", "type": "electric_scooter", "is_reserved": 0, "lon": -77.03306383333333}, {"fusion_lat": 0.0, "name": "7ef28101befbb69dfd51a633ca103de7", "is_disabled": 0, "rental_uris": {"android": "https://dc.lft.to/lastmile_qr_scan", "ios": "https://dc.lft.to/lastmile_qr_scan"}, "fusion_lon": 0.0, "lat": 38.933916833333335, "bike_id": "7ef28101befbb69dfd51a633ca103de7", "type": "electric_scooter", "is_reserved": 0, "lon": -77.02844983333334}, {"fusion_lat": 0.0, "name": "f5e3f88bc6f9d3b998869bff50caf4c2", "is_disabled": 0, "rental_uris": {"android": "https://dc.lft.to/lastmile_qr_scan", "ios": "https://dc.lft.to/lastmile_qr_scan"}, "fusion_lon": 0.0, "lat": 38.904203333333335, "bike_id": "f5e3f88bc6f9d3b998869bff50caf4c2", "type": "electric_scooter", "is_reserved": 0, "lon": -77.0257315}, {"fusion_lat": 0.0, "name": "08b767a02ed7c5e1d10af80174c09080", "is_disabled": 0, "rental_uris": {"android": "https://dc.lft.to/lastmile_qr_scan", "ios": "https://dc.lft.to/lastmile_qr_scan"}, "fusion_lon": 0.0, "lat": 38.916056833333336, "bike_id": "08b767a02ed7c5e1d10af80174c09080", "type": "electric_scooter", "is_reserved": 0, "lon": -77.017304}, {"fusion_lat": 0.0, "name": "6c9883950fe7fec27780e18ccfb62bf5", "is_disabled": 0, "rental_uris": {"android": "https://dc.lft.to/lastmile_qr_scan", "ios": "https://dc.lft.to/lastmile_qr_scan"}, "fusion_lon": 0.0, "lat": 38.895422333333336, "bike_id": "6c9883950fe7fec27780e18ccfb62bf5", "type": "electric_scooter", "is_reserved": 0, "lon": -77.0109275}, {"fusion_lat": 0.0, "name": "f0f81044a06b4fe3659f8e40a0a5fe30", "is_disabled": 0, "rental_uris": {"android": "https://dc.lft.to/lastmile_qr_scan", "ios": "https://dc.lft.to/lastmile_qr_scan"}, "fusion_lon": 0.0, "lat": 38.90543983333333, "bike_id": "f0f81044a06b4fe3659f8e40a0a5fe30", "type": "electric_scooter", "is_reserved": 0, "lon": -77.03461366666667}, {"fusion_lat": 0.0, "name": "8e79c935da01b60dd5ce631122ece337", "is_disabled": 0, "rental_uris": {"android": "https://dc.lft.to/lastmile_qr_scan", "ios": "https://dc.lft.to/lastmile_qr_scan"}, "fusion_lon": 0.0, "lat": 38.940842, "bike_id": "8e79c935da01b60dd5ce631122ece337", "type": "electric_scooter", "is_reserved": 0, "lon": -77.06183316666667}, {"fusion_lat": 0.0, "name": "49549625ed6ff1597955b9e357df83d0", "is_disabled": 0, "rental_uris": {"android": "https://dc.lft.to/lastmile_qr_scan", "ios": "https://dc.lft.to/lastmile_qr_scan"}, "fusion_lon": 0.0, "lat": 38.909519, "bike_id": "49549625ed6ff1597955b9e357df83d0", "type": "electric_scooter", "is_reserved": 0, "lon": -77.02715983333333}, {"fusion_lat": 0.0, "name": "046d1d46e7969aad1d460aa2a0dad423", "is_disabled": 0, "rental_uris": {"android": "https://dc.lft.to/lastmile_qr_scan", "ios": "https://dc.lft.to/lastmile_qr_scan"}, "fusion_lon": 0.0, "lat": 38.9177605, "bike_id": "046d1d46e7969aad1d460aa2a0dad423", "type": "electric_scooter", "is_reserved": 0, "lon": -77.02312766666667}, {"fusion_lat": 0.0, "name": "8934c6d50b8fe1fb706f0b7078807bd5", "is_disabled": 0, "rental_uris": {"android": "https://dc.lft.to/lastmile_qr_scan", "ios": "https://dc.lft.to/lastmile_qr_scan"}, "fusion_lon": 0.0, "lat": 38.91116616666667, "bike_id": "8934c6d50b8fe1fb706f0b7078807bd5", "type": "electric_scooter", "is_reserved": 0, "lon": -77.037369}, {"fusion_lat": 0.0, "name": "ede3344bc29db87ecc08de080847f9d7", "is_disabled": 0, "rental_uris": {"android": "https://dc.lft.to/lastmile_qr_scan", "ios": "https://dc.lft.to/lastmile_qr_scan"}, "fusion_lon": 0.0, "lat": 38.8981445, "bike_id": "ede3344bc29db87ecc08de080847f9d7", "type": "electric_scooter", "is_reserved": 0, "lon": -77.02696333333333}, {"fusion_lat": 0.0, "name": "4688bf04abe526e5cee8c372f3752047", "is_disabled": 0, "rental_uris": {"android": "https://dc.lft.to/lastmile_qr_scan", "ios": "https://dc.lft.to/lastmile_qr_scan"}, "fusion_lon": 0.0, "lat": 38.8838495, "bike_id": "4688bf04abe526e5cee8c372f3752047", "type": "electric_scooter", "is_reserved": 0, "lon": -76.93050116666667}, {"fusion_lat": 0.0, "name": "913acba0dd95aa8c9ff9780725bec6eb", "is_disabled": 0, "rental_uris": {"android": "https://dc.lft.to/lastmile_qr_scan", "ios": "https://dc.lft.to/lastmile_qr_scan"}, "fusion_lon": 0.0, "lat": 38.85771666666667, "bike_id": "913acba0dd95aa8c9ff9780725bec6eb", "type": "electric_bike", "is_reserved": 0, "lon": -76.98768783333334}, {"fusion_lat": 0.0, "name": "425e6649db5f7cb8304c981e3655f235", "is_disabled": 0, "rental_uris": {"android": "https://dc.lft.to/lastmile_qr_scan", "ios": "https://dc.lft.to/lastmile_qr_scan"}, "fusion_lon": 0.0, "lat": 38.938244833333336, "bike_id": "425e6649db5f7cb8304c981e3655f235", "type": "electric_scooter", "is_reserved": 0, "lon": -77.061581}, {"fusion_lat": 0.0, "name": "e4aa1a52edaab17b94877b1f81ee7645", "is_disabled": 0, "rental_uris": {"android": "https://dc.lft.to/lastmile_qr_scan", "ios": "https://dc.lft.to/lastmile_qr_scan"}, "fusion_lon": 0.0, "lat": 38.96224766666667, "bike_id": "e4aa1a52edaab17b94877b1f81ee7645", "type": "electric_bike", "is_reserved": 0, "lon": -77.02634}, {"fusion_lat": 0.0, "name": "30570bbdfba42d9ae332ca49ac229ead", "is_disabled": 0, "rental_uris": {"android": "https://dc.lft.to/lastmile_qr_scan", "ios": "https://dc.lft.to/lastmile_qr_scan"}, "fusion_lon": 0.0, "lat": 38.92582516666667, "bike_id": "30570bbdfba42d9ae332ca49ac229ead", "type": "electric_scooter", "is_reserved": 0, "lon": -77.0276265}, {"fusion_lat": 0.0, "name": "ebcb55f5569051fefa18a17cb30e22ad", "is_disabled": 0, "rental_uris": {"android": "https://dc.lft.to/lastmile_qr_scan", "ios": "https://dc.lft.to/lastmile_qr_scan"}, "fusion_lon": 0.0, "lat": 38.884453666666666, "bike_id": "ebcb55f5569051fefa18a17cb30e22ad", "type": "electric_scooter", "is_reserved": 0, "lon": -76.98593083333333}, {"fusion_lat": 0.0, "name": "2ec556c46b26838901e2bcb71cff9e96", "is_disabled": 0, "rental_uris": {"android": "https://dc.lft.to/lastmile_qr_scan", "ios": "https://dc.lft.to/lastmile_qr_scan"}, "fusion_lon": 0.0, "lat": 38.92258016666667, "bike_id": "2ec556c46b26838901e2bcb71cff9e96", "type": "electric_scooter", "is_reserved": 0, "lon": -77.035203}, {"fusion_lat": 0.0, "name": "3368289d1b159b7a1d45ce5f0af646de", "is_disabled": 0, "rental_uris": {"android": "https://dc.lft.to/lastmile_qr_scan", "ios": "https://dc.lft.to/lastmile_qr_scan"}, "fusion_lon": 0.0, "lat": 38.89877233333333, "bike_id": "3368289d1b159b7a1d45ce5f0af646de", "type": "electric_scooter", "is_reserved": 0, "lon": -76.93189533333333}, {"fusion_lat": 0.0, "name": "d86179c4da87c7809d1a920a05d635d4", "is_disabled": 0, "rental_uris": {"android": "https://dc.lft.to/lastmile_qr_scan", "ios": "https://dc.lft.to/lastmile_qr_scan"}, "fusion_lon": 0.0, "lat": 38.878152, "bike_id": "d86179c4da87c7809d1a920a05d635d4", "type": "electric_scooter", "is_reserved": 0, "lon": -77.01317733333333}, {"fusion_lat": 0.0, "name": "5d0654505819d9888c62a6b1b3c6a273", "is_disabled": 0, "rental_uris": {"android": "https://dc.lft.to/lastmile_qr_scan", "ios": "https://dc.lft.to/lastmile_qr_scan"}, "fusion_lon": 0.0, "lat": 38.9336035, "bike_id": "5d0654505819d9888c62a6b1b3c6a273", "type": "electric_scooter", "is_reserved": 0, "lon": -77.02443516666666}, {"fusion_lat": 0.0, "name": "ae109a85593947c4c5b2ace5e0c93cd9", "is_disabled": 0, "rental_uris": {"android": "https://dc.lft.to/lastmile_qr_scan", "ios": "https://dc.lft.to/lastmile_qr_scan"}, "fusion_lon": 0.0, "lat": 38.932976833333335, "bike_id": "ae109a85593947c4c5b2ace5e0c93cd9", "type": "electric_scooter", "is_reserved": 0, "lon": -77.0279605}, {"fusion_lat": 0.0, "name": "a8f077f7658a220540698d6e4bd1396a", "is_disabled": 0, "rental_uris": {"android": "https://dc.lft.to/lastmile_qr_scan", "ios": "https://dc.lft.to/lastmile_qr_scan"}, "fusion_lon": 0.0, "lat": 38.88233066666667, "bike_id": "a8f077f7658a220540698d6e4bd1396a", "type": "electric_scooter", "is_reserved": 0, "lon": -77.0262165}, {"fusion_lat": 0.0, "name": "8a7966ea304da9bc5a1cfa8fe56eb618", "is_disabled": 0, "rental_uris": {"android": "https://dc.lft.to/lastmile_qr_scan", "ios": "https://dc.lft.to/lastmile_qr_scan"}, "fusion_lon": 0.0, "lat": 38.917077166666665, "bike_id": "8a7966ea304da9bc5a1cfa8fe56eb618", "type": "electric_scooter", "is_reserved": 0, "lon": -77.03862833333334}, {"fusion_lat": 0.0, "name": "048e38653185888891b090c2ed6ba406", "is_disabled": 0, "rental_uris": {"android": "https://dc.lft.to/lastmile_qr_scan", "ios": "https://dc.lft.to/lastmile_qr_scan"}, "fusion_lon": 0.0, "lat": 38.91429683333333, "bike_id": "048e38653185888891b090c2ed6ba406", "type": "electric_scooter", "is_reserved": 0, "lon": -77.06415683333333}, {"fusion_lat": 0.0, "name": "399e72db07f6b931d607f9a7e9e68a44", "is_disabled": 0, "rental_uris": {"android": "https://dc.lft.to/lastmile_qr_scan", "ios": "https://dc.lft.to/lastmile_qr_scan"}, "fusion_lon": 0.0, "lat": 38.9291325, "bike_id": "399e72db07f6b931d607f9a7e9e68a44", "type": "electric_scooter", "is_reserved": 0, "lon": -77.03747566666667}, {"fusion_lat": 0.0, "name": "dd7412b671352bf63a324fcbae7c1655", "is_disabled": 0, "rental_uris": {"android": "https://dc.lft.to/lastmile_qr_scan", "ios": "https://dc.lft.to/lastmile_qr_scan"}, "fusion_lon": 0.0, "lat": 38.920328, "bike_id": "dd7412b671352bf63a324fcbae7c1655", "type": "electric_scooter", "is_reserved": 0, "lon": -77.01762416666666}, {"fusion_lat": 0.0, "name": "d4c776a27fcc840a0f3a5d3298b218e8", "is_disabled": 0, "rental_uris": {"android": "https://dc.lft.to/lastmile_qr_scan", "ios": "https://dc.lft.to/lastmile_qr_scan"}, "fusion_lon": 0.0, "lat": 38.8972925, "bike_id": "d4c776a27fcc840a0f3a5d3298b218e8", "type": "electric_scooter", "is_reserved": 0, "lon": -76.99517833333333}, {"fusion_lat": 0.0, "name": "d85fbd774859284b297da5f10a5fed84", "is_disabled": 0, "rental_uris": {"android": "https://dc.lft.to/lastmile_qr_scan", "ios": "https://dc.lft.to/lastmile_qr_scan"}, "fusion_lon": 0.0, "lat": 38.9207045, "bike_id": "d85fbd774859284b297da5f10a5fed84", "type": "electric_scooter", "is_reserved": 0, "lon": -77.02389566666666}, {"fusion_lat": 0.0, "name": "ec1df3ba710f65b7ca585ccb23f5f3e3", "is_disabled": 0, "rental_uris": {"android": "https://dc.lft.to/lastmile_qr_scan", "ios": "https://dc.lft.to/lastmile_qr_scan"}, "fusion_lon": 0.0, "lat": 38.91927783333333, "bike_id": "ec1df3ba710f65b7ca585ccb23f5f3e3", "type": "electric_scooter", "is_reserved": 0, "lon": -77.031881}, {"fusion_lat": 0.0, "name": "b177f21b8c0119b2c424d9826e2143e7", "is_disabled": 0, "rental_uris": {"android": "https://dc.lft.to/lastmile_qr_scan", "ios": "https://dc.lft.to/lastmile_qr_scan"}, "fusion_lon": 0.0, "lat": 38.88418466666667, "bike_id": "b177f21b8c0119b2c424d9826e2143e7", "type": "electric_scooter", "is_reserved": 0, "lon": -76.99225783333333}, {"fusion_lat": 0.0, "name": "6215c314233a14d74c6979b564c11247", "is_disabled": 0, "rental_uris": {"android": "https://dc.lft.to/lastmile_qr_scan", "ios": "https://dc.lft.to/lastmile_qr_scan"}, "fusion_lon": 0.0, "lat": 38.914821, "bike_id": "6215c314233a14d74c6979b564c11247", "type": "electric_scooter", "is_reserved": 0, "lon": -77.0327155}, {"fusion_lat": 0.0, "name": "195ff48a0b12ed7caddcfd3e399cd187", "is_disabled": 0, "rental_uris": {"android": "https://dc.lft.to/lastmile_qr_scan", "ios": "https://dc.lft.to/lastmile_qr_scan"}, "fusion_lon": 0.0, "lat": 38.8133155, "bike_id": "195ff48a0b12ed7caddcfd3e399cd187", "type": "electric_bike", "is_reserved": 0, "lon": -77.05090916666667}, {"fusion_lat": 0.0, "name": "3dbdfc1cffd96c6b8cd5b66a493dab3c", "is_disabled": 0, "rental_uris": {"android": "https://dc.lft.to/lastmile_qr_scan", "ios": "https://dc.lft.to/lastmile_qr_scan"}, "fusion_lon": 0.0, "lat": 38.92374383333333, "bike_id": "3dbdfc1cffd96c6b8cd5b66a493dab3c", "type": "electric_scooter", "is_reserved": 0, "lon": -77.03518566666666}, {"fusion_lat": 0.0, "name": "bf84629f3e89fcd244cfeea1a4404365", "is_disabled": 0, "rental_uris": {"android": "https://dc.lft.to/lastmile_qr_scan", "ios": "https://dc.lft.to/lastmile_qr_scan"}, "fusion_lon": 0.0, "lat": 38.895345666666664, "bike_id": "bf84629f3e89fcd244cfeea1a4404365", "type": "electric_scooter", "is_reserved": 0, "lon": -77.01096483333333}, {"fusion_lat": 0.0, "name": "c4d12874b8d9e4d5c6f8c3585c4a54e9", "is_disabled": 0, "rental_uris": {"android": "https://dc.lft.to/lastmile_qr_scan", "ios": "https://dc.lft.to/lastmile_qr_scan"}, "fusion_lon": 0.0, "lat": 38.919238166666666, "bike_id": "c4d12874b8d9e4d5c6f8c3585c4a54e9", "type": "electric_scooter", "is_reserved": 0, "lon": -77.00987316666667}, {"fusion_lat": 0.0, "name": "54c7b4a1f507e4d111a352e2687315f9", "is_disabled": 0, "rental_uris": {"android": "https://dc.lft.to/lastmile_qr_scan", "ios": "https://dc.lft.to/lastmile_qr_scan"}, "fusion_lon": 0.0, "lat": 38.941863, "bike_id": "54c7b4a1f507e4d111a352e2687315f9", "type": "electric_scooter", "is_reserved": 0, "lon": -77.02315266666666}, {"fusion_lat": 0.0, "name": "72b66e37412814cf20c2687e251d2aef", "is_disabled": 0, "rental_uris": {"android": "https://dc.lft.to/lastmile_qr_scan", "ios": "https://dc.lft.to/lastmile_qr_scan"}, "fusion_lon": 0.0, "lat": 38.91040916666667, "bike_id": "72b66e37412814cf20c2687e251d2aef", "type": "electric_scooter", "is_reserved": 0, "lon": -77.01290383333334}, {"fusion_lat": 0.0, "name": "c7884ead57c8f7b68819a08d08ee520d", "is_disabled": 0, "rental_uris": {"android": "https://dc.lft.to/lastmile_qr_scan", "ios": "https://dc.lft.to/lastmile_qr_scan"}, "fusion_lon": 0.0, "lat": 38.89986583333334, "bike_id": "c7884ead57c8f7b68819a08d08ee520d", "type": "electric_scooter", "is_reserved": 0, "lon": -77.00926566666666}, {"fusion_lat": 0.0, "name": "086126feea3cf49b22699c171bf0ea4b", "is_disabled": 0, "rental_uris": {"android": "https://dc.lft.to/lastmile_qr_scan", "ios": "https://dc.lft.to/lastmile_qr_scan"}, "fusion_lon": 0.0, "lat": 38.91602666666667, "bike_id": "086126feea3cf49b22699c171bf0ea4b", "type": "electric_scooter", "is_reserved": 0, "lon": -77.04359866666667}, {"fusion_lat": 0.0, "name": "c4eedae8857fd19c2baa085d0ebd02fd", "is_disabled": 0, "rental_uris": {"android": "https://dc.lft.to/lastmile_qr_scan", "ios": "https://dc.lft.to/lastmile_qr_scan"}, "fusion_lon": 0.0, "lat": 38.88745133333333, "bike_id": "c4eedae8857fd19c2baa085d0ebd02fd", "type": "electric_scooter", "is_reserved": 0, "lon": -77.0257915}, {"fusion_lat": 0.0, "name": "73c5d33b9aa7aeb0a55ff3a1a83a0102", "is_disabled": 0, "rental_uris": {"android": "https://dc.lft.to/lastmile_qr_scan", "ios": "https://dc.lft.to/lastmile_qr_scan"}, "fusion_lon": 0.0, "lat": 38.90215533333333, "bike_id": "73c5d33b9aa7aeb0a55ff3a1a83a0102", "type": "electric_scooter", "is_reserved": 0, "lon": -77.0511705}, {"fusion_lat": 0.0, "name": "8b6404762e95f04fa56f5e75596075af", "is_disabled": 0, "rental_uris": {"android": "https://dc.lft.to/lastmile_qr_scan", "ios": "https://dc.lft.to/lastmile_qr_scan"}, "fusion_lon": 0.0, "lat": 38.931111333333334, "bike_id": "8b6404762e95f04fa56f5e75596075af", "type": "electric_scooter", "is_reserved": 0, "lon": -77.021365}, {"fusion_lat": 0.0, "name": "e24f8088922031b0c0fb6df54a7793e4", "is_disabled": 0, "rental_uris": {"android": "https://dc.lft.to/lastmile_qr_scan", "ios": "https://dc.lft.to/lastmile_qr_scan"}, "fusion_lon": 0.0, "lat": 38.932641833333335, "bike_id": "e24f8088922031b0c0fb6df54a7793e4", "type": "electric_scooter", "is_reserved": 0, "lon": -77.03897633333334}, {"fusion_lat": 0.0, "name": "f26cff1b01834eff8c6e51594b1a0c29", "is_disabled": 0, "rental_uris": {"android": "https://dc.lft.to/lastmile_qr_scan", "ios": "https://dc.lft.to/lastmile_qr_scan"}, "fusion_lon": 0.0, "lat": 38.91267233333333, "bike_id": "f26cff1b01834eff8c6e51594b1a0c29", "type": "electric_scooter", "is_reserved": 0, "lon": -77.033892}, {"fusion_lat": 0.0, "name": "d844bf89f155bba4af7014638c1c3ab8", "is_disabled": 0, "rental_uris": {"android": "https://dc.lft.to/lastmile_qr_scan", "ios": "https://dc.lft.to/lastmile_qr_scan"}, "fusion_lon": 0.0, "lat": 38.90574183333333, "bike_id": "d844bf89f155bba4af7014638c1c3ab8", "type": "electric_scooter", "is_reserved": 0, "lon": -77.02969966666667}, {"fusion_lat": 0.0, "name": "3ac1979c7a986dffcea3973ae7eab7c9", "is_disabled": 0, "rental_uris": {"android": "https://dc.lft.to/lastmile_qr_scan", "ios": "https://dc.lft.to/lastmile_qr_scan"}, "fusion_lon": 0.0, "lat": 38.913614, "bike_id": "3ac1979c7a986dffcea3973ae7eab7c9", "type": "electric_scooter", "is_reserved": 0, "lon": -77.04881566666667}, {"fusion_lat": 0.0, "name": "5db54fbbda7086737ac18313e76bf345", "is_disabled": 0, "rental_uris": {"android": "https://dc.lft.to/lastmile_qr_scan", "ios": "https://dc.lft.to/lastmile_qr_scan"}, "fusion_lon": 0.0, "lat": 38.91267083333334, "bike_id": "5db54fbbda7086737ac18313e76bf345", "type": "electric_scooter", "is_reserved": 0, "lon": -77.04930366666666}, {"fusion_lat": 0.0, "name": "39ba7286b33bf2e0be9b9fdd24c4247b", "is_disabled": 0, "rental_uris": {"android": "https://dc.lft.to/lastmile_qr_scan", "ios": "https://dc.lft.to/lastmile_qr_scan"}, "fusion_lon": 0.0, "lat": 38.899345, "bike_id": "39ba7286b33bf2e0be9b9fdd24c4247b", "type": "electric_scooter", "is_reserved": 0, "lon": -77.04884083333333}, {"fusion_lat": 0.0, "name": "a041deaa87c423bffab9e806059c3ecc", "is_disabled": 0, "rental_uris": {"android": "https://dc.lft.to/lastmile_qr_scan", "ios": "https://dc.lft.to/lastmile_qr_scan"}, "fusion_lon": 0.0, "lat": 38.923039833333334, "bike_id": "a041deaa87c423bffab9e806059c3ecc", "type": "electric_scooter", "is_reserved": 0, "lon": -77.04262983333334}, {"fusion_lat": 0.0, "name": "90331877cdc7cc24cbd3ebb7504a4f79", "is_disabled": 0, "rental_uris": {"android": "https://dc.lft.to/lastmile_qr_scan", "ios": "https://dc.lft.to/lastmile_qr_scan"}, "fusion_lon": 0.0, "lat": 38.90029416666667, "bike_id": "90331877cdc7cc24cbd3ebb7504a4f79", "type": "electric_scooter", "is_reserved": 0, "lon": -76.98855283333333}, {"fusion_lat": 0.0, "name": "6d77a0354094494804f12957b9578f42", "is_disabled": 0, "rental_uris": {"android": "https://dc.lft.to/lastmile_qr_scan", "ios": "https://dc.lft.to/lastmile_qr_scan"}, "fusion_lon": 0.0, "lat": 38.876270166666664, "bike_id": "6d77a0354094494804f12957b9578f42", "type": "electric_scooter", "is_reserved": 0, "lon": -77.00733333333334}, {"fusion_lat": 0.0, "name": "bae9e6a65eff90beaa78a1f098a75d35", "is_disabled": 0, "rental_uris": {"android": "https://dc.lft.to/lastmile_qr_scan", "ios": "https://dc.lft.to/lastmile_qr_scan"}, "fusion_lon": 0.0, "lat": 38.904468, "bike_id": "bae9e6a65eff90beaa78a1f098a75d35", "type": "electric_scooter", "is_reserved": 0, "lon": -77.03354233333333}, {"fusion_lat": 0.0, "name": "9b03070fc0fd95c370356c607570dcf4", "is_disabled": 0, "rental_uris": {"android": "https://dc.lft.to/lastmile_qr_scan", "ios": "https://dc.lft.to/lastmile_qr_scan"}, "fusion_lon": 0.0, "lat": 38.9236815, "bike_id": "9b03070fc0fd95c370356c607570dcf4", "type": "electric_scooter", "is_reserved": 0, "lon": -77.0207165}, {"fusion_lat": 0.0, "name": "495a6485e365bcc8790be12e0c2041e7", "is_disabled": 0, "rental_uris": {"android": "https://dc.lft.to/lastmile_qr_scan", "ios": "https://dc.lft.to/lastmile_qr_scan"}, "fusion_lon": 0.0, "lat": 38.91805316666667, "bike_id": "495a6485e365bcc8790be12e0c2041e7", "type": "electric_scooter", "is_reserved": 0, "lon": -77.00383316666667}, {"fusion_lat": 0.0, "name": "f2e8967de52667fc9d7807a518a7243c", "is_disabled": 0, "rental_uris": {"android": "https://dc.lft.to/lastmile_qr_scan", "ios": "https://dc.lft.to/lastmile_qr_scan"}, "fusion_lon": 0.0, "lat": 38.928690833333334, "bike_id": "f2e8967de52667fc9d7807a518a7243c", "type": "electric_scooter", "is_reserved": 0, "lon": -77.0566105}, {"fusion_lat": 0.0, "name": "81dd887a26680c7c412fab93031cad73", "is_disabled": 0, "rental_uris": {"android": "https://dc.lft.to/lastmile_qr_scan", "ios": "https://dc.lft.to/lastmile_qr_scan"}, "fusion_lon": 0.0, "lat": 38.914043166666666, "bike_id": "81dd887a26680c7c412fab93031cad73", "type": "electric_scooter", "is_reserved": 0, "lon": -77.03222866666667}, {"fusion_lat": 0.0, "name": "6b2bc3b56597c93bb634591210725bf3", "is_disabled": 0, "rental_uris": {"android": "https://dc.lft.to/lastmile_qr_scan", "ios": "https://dc.lft.to/lastmile_qr_scan"}, "fusion_lon": 0.0, "lat": 38.8971975, "bike_id": "6b2bc3b56597c93bb634591210725bf3", "type": "electric_scooter", "is_reserved": 0, "lon": -77.0197685}, {"fusion_lat": 0.0, "name": "001cad300bc79248768d679bc300e352", "is_disabled": 0, "rental_uris": {"android": "https://dc.lft.to/lastmile_qr_scan", "ios": "https://dc.lft.to/lastmile_qr_scan"}, "fusion_lon": 0.0, "lat": 38.884509, "bike_id": "001cad300bc79248768d679bc300e352", "type": "electric_scooter", "is_reserved": 0, "lon": -76.99389383333333}, {"fusion_lat": 0.0, "name": "2d1a758f65065352d606000c1466068f", "is_disabled": 0, "rental_uris": {"android": "https://dc.lft.to/lastmile_qr_scan", "ios": "https://dc.lft.to/lastmile_qr_scan"}, "fusion_lon": 0.0, "lat": 38.9112415, "bike_id": "2d1a758f65065352d606000c1466068f", "type": "electric_scooter", "is_reserved": 0, "lon": -77.02083533333334}, {"fusion_lat": 0.0, "name": "3f8d7ba0c507c9992ae5b80ff51ad7a0", "is_disabled": 0, "rental_uris": {"android": "https://dc.lft.to/lastmile_qr_scan", "ios": "https://dc.lft.to/lastmile_qr_scan"}, "fusion_lon": 0.0, "lat": 38.896053333333334, "bike_id": "3f8d7ba0c507c9992ae5b80ff51ad7a0", "type": "electric_scooter", "is_reserved": 0, "lon": -77.00928366666666}, {"fusion_lat": 0.0, "name": "a0d9d75a6864000ac5b77a2de459e923", "is_disabled": 0, "rental_uris": {"android": "https://dc.lft.to/lastmile_qr_scan", "ios": "https://dc.lft.to/lastmile_qr_scan"}, "fusion_lon": 0.0, "lat": 38.908504666666666, "bike_id": "a0d9d75a6864000ac5b77a2de459e923", "type": "electric_scooter", "is_reserved": 0, "lon": -77.047354}, {"fusion_lat": 0.0, "name": "7b348f4e9e59d30f90db314075ebd131", "is_disabled": 0, "rental_uris": {"android": "https://dc.lft.to/lastmile_qr_scan", "ios": "https://dc.lft.to/lastmile_qr_scan"}, "fusion_lon": 0.0, "lat": 38.9071415, "bike_id": "7b348f4e9e59d30f90db314075ebd131", "type": "electric_scooter", "is_reserved": 0, "lon": -77.050686}, {"fusion_lat": 0.0, "name": "144ad45a78945c905fbd6cccbe49463e", "is_disabled": 0, "rental_uris": {"android": "https://dc.lft.to/lastmile_qr_scan", "ios": "https://dc.lft.to/lastmile_qr_scan"}, "fusion_lon": 0.0, "lat": 38.806699333333334, "bike_id": "144ad45a78945c905fbd6cccbe49463e", "type": "electric_bike", "is_reserved": 0, "lon": -77.06923166666667}, {"fusion_lat": 0.0, "name": "8ef81dacf11b65818939f9d12f6480b6", "is_disabled": 0, "rental_uris": {"android": "https://dc.lft.to/lastmile_qr_scan", "ios": "https://dc.lft.to/lastmile_qr_scan"}, "fusion_lon": 0.0, "lat": 38.9245595, "bike_id": "8ef81dacf11b65818939f9d12f6480b6", "type": "electric_scooter", "is_reserved": 0, "lon": -76.99913383333333}, {"fusion_lat": 0.0, "name": "0f51ea9f71cc1b28272d2b3c5759b2d1", "is_disabled": 0, "rental_uris": {"android": "https://dc.lft.to/lastmile_qr_scan", "ios": "https://dc.lft.to/lastmile_qr_scan"}, "fusion_lon": 0.0, "lat": 38.9072235, "bike_id": "0f51ea9f71cc1b28272d2b3c5759b2d1", "type": "electric_scooter", "is_reserved": 0, "lon": -77.04355116666666}, {"fusion_lat": 0.0, "name": "51acb57b9f1efb7c53bec27fa6e37900", "is_disabled": 0, "rental_uris": {"android": "https://dc.lft.to/lastmile_qr_scan", "ios": "https://dc.lft.to/lastmile_qr_scan"}, "fusion_lon": 0.0, "lat": 38.892186333333335, "bike_id": "51acb57b9f1efb7c53bec27fa6e37900", "type": "electric_scooter", "is_reserved": 0, "lon": -77.02367616666666}, {"fusion_lat": 0.0, "name": "39fa021d5c1ee0f77b065ef115d787d3", "is_disabled": 0, "rental_uris": {"android": "https://dc.lft.to/lastmile_qr_scan", "ios": "https://dc.lft.to/lastmile_qr_scan"}, "fusion_lon": 0.0, "lat": 38.90782133333333, "bike_id": "39fa021d5c1ee0f77b065ef115d787d3", "type": "electric_scooter", "is_reserved": 0, "lon": -77.0186565}, {"fusion_lat": 0.0, "name": "08e90e9c579c48425e57a0c8de29cbae", "is_disabled": 0, "rental_uris": {"android": "https://dc.lft.to/lastmile_qr_scan", "ios": "https://dc.lft.to/lastmile_qr_scan"}, "fusion_lon": 0.0, "lat": 38.923768, "bike_id": "08e90e9c579c48425e57a0c8de29cbae", "type": "electric_scooter", "is_reserved": 0, "lon": -77.03657983333333}, {"fusion_lat": 0.0, "name": "74f09946637a91afa4957d7d4cb35252", "is_disabled": 0, "rental_uris": {"android": "https://dc.lft.to/lastmile_qr_scan", "ios": "https://dc.lft.to/lastmile_qr_scan"}, "fusion_lon": 0.0, "lat": 38.958794166666664, "bike_id": "74f09946637a91afa4957d7d4cb35252", "type": "electric_scooter", "is_reserved": 0, "lon": -77.01172666666666}, {"fusion_lat": 0.0, "name": "9764d94af13fbf09f7b4544cce92299e", "is_disabled": 0, "rental_uris": {"android": "https://dc.lft.to/lastmile_qr_scan", "ios": "https://dc.lft.to/lastmile_qr_scan"}, "fusion_lon": 0.0, "lat": 38.917111166666665, "bike_id": "9764d94af13fbf09f7b4544cce92299e", "type": "electric_scooter", "is_reserved": 0, "lon": -77.03043416666667}, {"fusion_lat": 0.0, "name": "84b11214e009b93dfc9117e0c01f80c6", "is_disabled": 0, "rental_uris": {"android": "https://dc.lft.to/lastmile_qr_scan", "ios": "https://dc.lft.to/lastmile_qr_scan"}, "fusion_lon": 0.0, "lat": 38.87653666666667, "bike_id": "84b11214e009b93dfc9117e0c01f80c6", "type": "electric_scooter", "is_reserved": 0, "lon": -77.00911933333333}, {"fusion_lat": 0.0, "name": "8c5cc2ab886acb669dcd8047baf96245", "is_disabled": 0, "rental_uris": {"android": "https://dc.lft.to/lastmile_qr_scan", "ios": "https://dc.lft.to/lastmile_qr_scan"}, "fusion_lon": 0.0, "lat": 38.88749883333333, "bike_id": "8c5cc2ab886acb669dcd8047baf96245", "type": "electric_scooter", "is_reserved": 0, "lon": -77.03160583333333}, {"fusion_lat": 0.0, "name": "9af67dc23d944b67a4f4e61a42726053", "is_disabled": 0, "rental_uris": {"android": "https://dc.lft.to/lastmile_qr_scan", "ios": "https://dc.lft.to/lastmile_qr_scan"}, "fusion_lon": 0.0, "lat": 38.911821, "bike_id": "9af67dc23d944b67a4f4e61a42726053", "type": "electric_scooter", "is_reserved": 0, "lon": -77.0382605}, {"fusion_lat": 0.0, "name": "c5fa35806ffe309638476017e0d197ac", "is_disabled": 0, "rental_uris": {"android": "https://dc.lft.to/lastmile_qr_scan", "ios": "https://dc.lft.to/lastmile_qr_scan"}, "fusion_lon": 0.0, "lat": 38.927905333333335, "bike_id": "c5fa35806ffe309638476017e0d197ac", "type": "electric_scooter", "is_reserved": 0, "lon": -77.02724983333333}, {"fusion_lat": 0.0, "name": "8a9d811573219b75cb696d660008d6bc", "is_disabled": 0, "rental_uris": {"android": "https://dc.lft.to/lastmile_qr_scan", "ios": "https://dc.lft.to/lastmile_qr_scan"}, "fusion_lon": 0.0, "lat": 38.92261333333333, "bike_id": "8a9d811573219b75cb696d660008d6bc", "type": "electric_scooter", "is_reserved": 0, "lon": -77.036676}, {"fusion_lat": 0.0, "name": "00905b2a107396e49ed19065fd040bc5", "is_disabled": 0, "rental_uris": {"android": "https://dc.lft.to/lastmile_qr_scan", "ios": "https://dc.lft.to/lastmile_qr_scan"}, "fusion_lon": 0.0, "lat": 38.924002, "bike_id": "00905b2a107396e49ed19065fd040bc5", "type": "electric_scooter", "is_reserved": 0, "lon": -77.05257733333333}, {"fusion_lat": 0.0, "name": "3697ea047a7ee55529b65656e66b9280", "is_disabled": 0, "rental_uris": {"android": "https://dc.lft.to/lastmile_qr_scan", "ios": "https://dc.lft.to/lastmile_qr_scan"}, "fusion_lon": 0.0, "lat": 38.91337016666667, "bike_id": "3697ea047a7ee55529b65656e66b9280", "type": "electric_scooter", "is_reserved": 0, "lon": -77.04286466666667}, {"fusion_lat": 0.0, "name": "38a6bab8398189148f1013668841029d", "is_disabled": 0, "rental_uris": {"android": "https://dc.lft.to/lastmile_qr_scan", "ios": "https://dc.lft.to/lastmile_qr_scan"}, "fusion_lon": 0.0, "lat": 38.9185055, "bike_id": "38a6bab8398189148f1013668841029d", "type": "electric_scooter", "is_reserved": 0, "lon": -77.0457805}, {"fusion_lat": 0.0, "name": "eaf81afc444b5d04fb0de520b6254df8", "is_disabled": 0, "rental_uris": {"android": "https://dc.lft.to/lastmile_qr_scan", "ios": "https://dc.lft.to/lastmile_qr_scan"}, "fusion_lon": 0.0, "lat": 38.949785166666665, "bike_id": "eaf81afc444b5d04fb0de520b6254df8", "type": "electric_scooter", "is_reserved": 0, "lon": -77.02697983333333}, {"fusion_lat": 0.0, "name": "fd1a2a5bba6ece06fea5d2a381ffeea0", "is_disabled": 0, "rental_uris": {"android": "https://dc.lft.to/lastmile_qr_scan", "ios": "https://dc.lft.to/lastmile_qr_scan"}, "fusion_lon": 0.0, "lat": 38.90180633333333, "bike_id": "fd1a2a5bba6ece06fea5d2a381ffeea0", "type": "electric_scooter", "is_reserved": 0, "lon": -77.02489983333334}, {"fusion_lat": 0.0, "name": "0d3ce39ed2711a7c4353fcd4400db601", "is_disabled": 0, "rental_uris": {"android": "https://dc.lft.to/lastmile_qr_scan", "ios": "https://dc.lft.to/lastmile_qr_scan"}, "fusion_lon": 0.0, "lat": 38.920517, "bike_id": "0d3ce39ed2711a7c4353fcd4400db601", "type": "electric_scooter", "is_reserved": 0, "lon": -77.023718}, {"fusion_lat": 0.0, "name": "eb598d505f58694f2ec70ff9360d43e8", "is_disabled": 0, "rental_uris": {"android": "https://dc.lft.to/lastmile_qr_scan", "ios": "https://dc.lft.to/lastmile_qr_scan"}, "fusion_lon": 0.0, "lat": 38.898559, "bike_id": "eb598d505f58694f2ec70ff9360d43e8", "type": "electric_scooter", "is_reserved": 0, "lon": -77.02711366666666}, {"fusion_lat": 0.0, "name": "f0e616ce1e51adabd26a6d7cb3e9a150", "is_disabled": 0, "rental_uris": {"android": "https://dc.lft.to/lastmile_qr_scan", "ios": "https://dc.lft.to/lastmile_qr_scan"}, "fusion_lon": 0.0, "lat": 38.91180216666667, "bike_id": "f0e616ce1e51adabd26a6d7cb3e9a150", "type": "electric_scooter", "is_reserved": 0, "lon": -77.06868}, {"fusion_lat": 0.0, "name": "a96e6d14afd059388d27e920b01f2629", "is_disabled": 0, "rental_uris": {"android": "https://dc.lft.to/lastmile_qr_scan", "ios": "https://dc.lft.to/lastmile_qr_scan"}, "fusion_lon": 0.0, "lat": 38.9422495, "bike_id": "a96e6d14afd059388d27e920b01f2629", "type": "electric_scooter", "is_reserved": 0, "lon": -77.01416966666666}, {"fusion_lat": 0.0, "name": "9374486243db107c639f6eed2c91e983", "is_disabled": 0, "rental_uris": {"android": "https://dc.lft.to/lastmile_qr_scan", "ios": "https://dc.lft.to/lastmile_qr_scan"}, "fusion_lon": 0.0, "lat": 38.934592333333335, "bike_id": "9374486243db107c639f6eed2c91e983", "type": "electric_scooter", "is_reserved": 0, "lon": -77.02242983333333}, {"fusion_lat": 0.0, "name": "8323efdab67b383f6da4b1ac3134d9e7", "is_disabled": 0, "rental_uris": {"android": "https://dc.lft.to/lastmile_qr_scan", "ios": "https://dc.lft.to/lastmile_qr_scan"}, "fusion_lon": 0.0, "lat": 38.8613705, "bike_id": "8323efdab67b383f6da4b1ac3134d9e7", "type": "electric_bike", "is_reserved": 0, "lon": -76.97171283333333}, {"fusion_lat": 0.0, "name": "0c67671677f4c9682acfb32fb9fab9c1", "is_disabled": 0, "rental_uris": {"android": "https://dc.lft.to/lastmile_qr_scan", "ios": "https://dc.lft.to/lastmile_qr_scan"}, "fusion_lon": 0.0, "lat": 38.89247116666667, "bike_id": "0c67671677f4c9682acfb32fb9fab9c1", "type": "electric_scooter", "is_reserved": 0, "lon": -77.03961566666666}, {"fusion_lat": 0.0, "name": "c722cb26d3909ed13f905b1984921b24", "is_disabled": 0, "rental_uris": {"android": "https://dc.lft.to/lastmile_qr_scan", "ios": "https://dc.lft.to/lastmile_qr_scan"}, "fusion_lon": 0.0, "lat": 38.904512833333335, "bike_id": "c722cb26d3909ed13f905b1984921b24", "type": "electric_scooter", "is_reserved": 0, "lon": -76.98261316666667}, {"fusion_lat": 0.0, "name": "2cd769ad9dff7149a746894f571bf99c", "is_disabled": 0, "rental_uris": {"android": "https://dc.lft.to/lastmile_qr_scan", "ios": "https://dc.lft.to/lastmile_qr_scan"}, "fusion_lon": 0.0, "lat": 38.9269785, "bike_id": "2cd769ad9dff7149a746894f571bf99c", "type": "electric_scooter", "is_reserved": 0, "lon": -77.02134283333334}, {"fusion_lat": 0.0, "name": "68af2118a7794b6464a2ff78207970bc", "is_disabled": 0, "rental_uris": {"android": "https://dc.lft.to/lastmile_qr_scan", "ios": "https://dc.lft.to/lastmile_qr_scan"},