{"data": {"bikes": [{"name": "8d1840ebc6fed194f08e2fb28239c600", "fusion_lat": 0.0, "type": "electric_scooter", "lat": 38.920136666666664, "is_reserved": 0, "is_disabled": 0, "fusion_lon": 0.0, "bike_id": "8d1840ebc6fed194f08e2fb28239c600", "lon": -77.03125933333334, "rental_uris": {"ios": "https://dc.lft.to/lastmile_qr_scan", "android": "https://dc.lft.to/lastmile_qr_scan"}}, {"name": "6d3bfdd0a6d759c48ab60360de00b29b", "fusion_lat": 0.0, "type": "electric_bike", "lat": 38.970872166666666, "is_reserved": 0, "is_disabled": 0, "fusion_lon": 0.0, "bike_id": "6d3bfdd0a6d759c48ab60360de00b29b", "lon": -77.06966566666667, "rental_uris": {"ios": "https://dc.lft.to/lastmile_qr_scan", "android": "https://dc.lft.to/lastmile_qr_scan"}}, {"name": "b877cd64f993e959d1054afb6694360f", "fusion_lat": 0.0, "type": "electric_scooter", "lat": 38.916951833333336, "is_reserved": 0, "is_disabled": 0, "fusion_lon": 0.0, "bike_id": "b877cd64f993e959d1054afb6694360f", "lon": -77.0376085, "rental_uris": {"ios": "https://dc.lft.to/lastmile_qr_scan", "android": "https://dc.lft.to/lastmile_qr_scan"}}, {"name": "a3d211ff2fe4722719d4f8078424c92a", "fusion_lat": 0.0, "type": "electric_scooter", "lat": 38.91065433333333, "is_reserved": 0, "is_disabled": 0, "fusion_lon": 0.0, "bike_id": "a3d211ff2fe4722719d4f8078424c92a", "lon": -77.00861083333334, "rental_uris": {"ios": "https://dc.lft.to/lastmile_qr_scan", "android": "https://dc.lft.to/lastmile_qr_scan"}}, {"name": "02307a36ba62576492ed446432c19e55", "fusion_lat": 0.0, "type": "electric_scooter", "lat": 38.888204333333334, "is_reserved": 0, "is_disabled": 0, "fusion_lon": 0.0, "bike_id": "02307a36ba62576492ed446432c19e55", "lon": -77.04938316666667, "rental_uris": {"ios": "https://dc.lft.to/lastmile_qr_scan", "android": "https://dc.lft.to/lastmile_qr_scan"}}, {"name": "2c6ed80ce6827b0e25405db86d3d34ca", "fusion_lat": 0.0, "type": "electric_bike", "lat": 38.91553666666667, "is_reserved": 0, "is_disabled": 0, "fusion_lon": 0.0, "bike_id": "2c6ed80ce6827b0e25405db86d3d34ca", "lon": -77.06752066666667, "rental_uris": {"ios": "https://dc.lft.to/lastmile_qr_scan", "android": "https://dc.lft.to/lastmile_qr_scan"}}, {"name": "0e06004c9bd11ac32ef338e479a23bf1", "fusion_lat": 0.0, "type": "electric_scooter", "lat": 38.9191985, "is_reserved": 0, "is_disabled": 0, "fusion_lon": 0.0, "bike_id": "0e06004c9bd11ac32ef338e479a23bf1", "lon": -77.03428816666667, "rental_uris": {"ios": "https://dc.lft.to/lastmile_qr_scan", "android": "https://dc.lft.to/lastmile_qr_scan"}}, {"name": "7401bbf88d90a1e663a7d5385ed7aafc", "fusion_lat": 0.0, "type": "electric_scooter", "lat": 38.892449, "is_reserved": 0, "is_disabled": 0, "fusion_lon": 0.0, "bike_id": "7401bbf88d90a1e663a7d5385ed7aafc", "lon": -77.01521766666667, "rental_uris": {"ios": "https://dc.lft.to/lastmile_qr_scan", "android": "https://dc.lft.to/lastmile_qr_scan"}}, {"name": "e75337504a6ecb8c1a2360f70d254840", "fusion_lat": 0.0, "type": "electric_scooter", "lat": 38.89963983333333, "is_reserved": 0, "is_disabled": 0, "fusion_lon": 0.0, "bike_id": "e75337504a6ecb8c1a2360f70d254840", "lon": -77.016175, "rental_uris": {"ios": "https://dc.lft.to/lastmile_qr_scan", "android": "https://dc.lft.to/lastmile_qr_scan"}}, {"name": "b193d64e833d7831d06d9a93f12c51af", "fusion_lat": 0.0, "type": "electric_bike", "lat": 38.863752, "is_reserved": 0, "is_disabled": 0, "fusion_lon": 0.0, "bike_id": "b193d64e833d7831d06d9a93f12c51af", "lon": -77.12901816666667, "rental_uris": {"ios": "https://dc.lft.to/lastmile_qr_scan", "android": "https://dc.lft.to/lastmile_qr_scan"}}, {"name": "0080d8fe9a88726717fc55ee9d42c841", "fusion_lat": 0.0, "type": "electric_scooter", "lat": 38.91874766666667, "is_reserved": 0, "is_disabled": 0, "fusion_lon": 0.0, "bike_id": "0080d8fe9a88726717fc55ee9d42c841", "lon": -77.04486516666667, "rental_uris": {"ios": "https://dc.lft.to/lastmile_qr_scan", "android": "https://dc.lft.to/lastmile_qr_scan"}}, {"name": "26d304618b6e2701adeeeb5a4493d9bc", "fusion_lat": 0.0, "type": "electric_scooter", "lat": 38.9124445, "is_reserved": 0, "is_disabled": 0, "fusion_lon": 0.0, "bike_id": "26d304618b6e2701adeeeb5a4493d9bc", "lon": -77.0321305, "rental_uris": {"ios": "https://dc.lft.to/lastmile_qr_scan", "android": "https://dc.lft.to/lastmile_qr_scan"}}, {"name": "848690bb29579b365319f7356cc19820", "fusion_lat": 0.0, "type": "electric_scooter", "lat": 38.9262645, "is_reserved": 0, "is_disabled": 0, "fusion_lon": 0.0, "bike_id": "848690bb29579b365319f7356cc19820", "lon": -77.0378835, "rental_uris": {"ios": "https://dc.lft.to/lastmile_qr_scan", "android": "https://dc.lft.to/lastmile_qr_scan"}}, {"name": "e83616cf0bd121938ab1343186c6c718", "fusion_lat": 0.0, "type": "electric_scooter", "lat": 38.92663616666667, "is_reserved": 0, "is_disabled": 0, "fusion_lon": 0.0, "bike_id": "e83616cf0bd121938ab1343186c6c718", "lon": -76.99545216666667, "rental_uris": {"ios": "https://dc.lft.to/lastmile_qr_scan", "android": "https://dc.lft.to/lastmile_qr_scan"}}, {"name": "d7b1bad0d0c7961a5702b88edf759d35", "fusion_lat": 0.0, "type": "electric_scooter", "lat": 38.9301515, "is_reserved": 0, "is_disabled": 0, "fusion_lon": 0.0, "bike_id": "d7b1bad0d0c7961a5702b88edf759d35", "lon": -77.08365333333333, "rental_uris": {"ios": "https://dc.lft.to/lastmile_qr_scan", "android": "https://dc.lft.to/lastmile_qr_scan"}}, {"name": "f995501eb2d6ad74fbc14fcb145e4a3a", "fusion_lat": 0.0, "type": "electric_scooter", "lat": 38.90848, "is_reserved": 0, "is_disabled": 0, "fusion_lon": 0.0, "bike_id": "f995501eb2d6ad74fbc14fcb145e4a3a", "lon": -77.04340783333333, "rental_uris": {"ios": "https://dc.lft.to/lastmile_qr_scan", "android": "https://dc.lft.to/lastmile_qr_scan"}}, {"name": "4366f197e6c4953955ee394ec7d8be0f", "fusion_lat": 0.0, "type": "electric_scooter", "lat": 38.90562966666667, "is_reserved": 0, "is_disabled": 0, "fusion_lon": 0.0, "bike_id": "4366f197e6c4953955ee394ec7d8be0f", "lon": -77.02219933333333, "rental_uris": {"ios": "https://dc.lft.to/lastmile_qr_scan", "android": "https://dc.lft.to/lastmile_qr_scan"}}, {"name": "7bab313d630b1111e68c0f2cb9770573", "fusion_lat": 0.0, "type": "electric_scooter", "lat": 38.92594666666667, "is_reserved": 0, "is_disabled": 0, "fusion_lon": 0.0, "bike_id": "7bab313d630b1111e68c0f2cb9770573", "lon": -77.008562, "rental_uris": {"ios": "https://dc.lft.to/lastmile_qr_scan", "android": "https://dc.lft.to/lastmile_qr_scan"}}, {"name": "d977572e80c64a8f768739e6b14be3c7", "fusion_lat": 0.0, "type": "electric_scooter", "lat": 38.91818416666667, "is_reserved": 0, "is_disabled": 0, "fusion_lon": 0.0, "bike_id": "d977572e80c64a8f768739e6b14be3c7", "lon": -77.03217466666666, "rental_uris": {"ios": "https://dc.lft.to/lastmile_qr_scan", "android": "https://dc.lft.to/lastmile_qr_scan"}}, {"name": "65553230207bc11df9b791c53b7ca536", "fusion_lat": 0.0, "type": "electric_scooter", "lat": 38.9023105, "is_reserved": 0, "is_disabled": 0, "fusion_lon": 0.0, "bike_id": "65553230207bc11df9b791c53b7ca536", "lon": -77.05130733333333, "rental_uris": {"ios": "https://dc.lft.to/lastmile_qr_scan", "android": "https://dc.lft.to/lastmile_qr_scan"}}, {"name": "e7284a9c1f10090cc58f961830646147", "fusion_lat": 0.0, "type": "electric_scooter", "lat": 38.9248135, "is_reserved": 0, "is_disabled": 0, "fusion_lon": 0.0, "bike_id": "e7284a9c1f10090cc58f961830646147", "lon": -77.029992, "rental_uris": {"ios": "https://dc.lft.to/lastmile_qr_scan", "android": "https://dc.lft.to/lastmile_qr_scan"}}, {"name": "9d527e5a10c7feededa432292eac71fd", "fusion_lat": 0.0, "type": "electric_scooter", "lat": 38.91174383333333, "is_reserved": 0, "is_disabled": 0, "fusion_lon": 0.0, "bike_id": "9d527e5a10c7feededa432292eac71fd", "lon": -76.98775833333333, "rental_uris": {"ios": "https://dc.lft.to/lastmile_qr_scan", "android": "https://dc.lft.to/lastmile_qr_scan"}}, {"name": "6eb7f595610eac639c3e1e7aae4c7d74", "fusion_lat": 0.0, "type": "electric_scooter", "lat": 38.897614833333336, "is_reserved": 0, "is_disabled": 0, "fusion_lon": 0.0, "bike_id": "6eb7f595610eac639c3e1e7aae4c7d74", "lon": -77.05142833333333, "rental_uris": {"ios": "https://dc.lft.to/lastmile_qr_scan", "android": "https://dc.lft.to/lastmile_qr_scan"}}, {"name": "a41ff529931aad9907a3ab30a16724fc", "fusion_lat": 0.0, "type": "electric_scooter", "lat": 38.89219833333333, "is_reserved": 0, "is_disabled": 0, "fusion_lon": 0.0, "bike_id": "a41ff529931aad9907a3ab30a16724fc", "lon": -77.02229333333334, "rental_uris": {"ios": "https://dc.lft.to/lastmile_qr_scan", "android": "https://dc.lft.to/lastmile_qr_scan"}}, {"name": "c65998c572c32e046ce3b4c6c71f8de4", "fusion_lat": 0.0, "type": "electric_scooter", "lat": 38.915502333333336, "is_reserved": 0, "is_disabled": 0, "fusion_lon": 0.0, "bike_id": "c65998c572c32e046ce3b4c6c71f8de4", "lon": -77.0324085, "rental_uris": {"ios": "https://dc.lft.to/lastmile_qr_scan", "android": "https://dc.lft.to/lastmile_qr_scan"}}, {"name": "d9238e01aa0c9f4b916cc7a91670dabf", "fusion_lat": 0.0, "type": "electric_scooter", "lat": 38.938925, "is_reserved": 0, "is_disabled": 0, "fusion_lon": 0.0, "bike_id": "d9238e01aa0c9f4b916cc7a91670dabf", "lon": -77.017566, "rental_uris": {"ios": "https://dc.lft.to/lastmile_qr_scan", "android": "https://dc.lft.to/lastmile_qr_scan"}}, {"name": "ac80fd83778bc80ee4112c149ce25ca9", "fusion_lat": 0.0, "type": "electric_bike", "lat": 38.888160666666664, "is_reserved": 0, "is_disabled": 0, "fusion_lon": 0.0, "bike_id": "ac80fd83778bc80ee4112c149ce25ca9", "lon": -77.1273885, "rental_uris": {"ios": "https://dc.lft.to/lastmile_qr_scan", "android": "https://dc.lft.to/lastmile_qr_scan"}}, {"name": "4b84c9bad966c46454d17aa6c56c2997", "fusion_lat": 0.0, "type": "electric_scooter", "lat": 38.9128445, "is_reserved": 0, "is_disabled": 0, "fusion_lon": 0.0, "bike_id": "4b84c9bad966c46454d17aa6c56c2997", "lon": -76.93804066666667, "rental_uris": {"ios": "https://dc.lft.to/lastmile_qr_scan", "android": "https://dc.lft.to/lastmile_qr_scan"}}, {"name": "029472c6b1d9d0fb6140071eca741287", "fusion_lat": 0.0, "type": "electric_scooter", "lat": 38.899803666666664, "is_reserved": 0, "is_disabled": 0, "fusion_lon": 0.0, "bike_id": "029472c6b1d9d0fb6140071eca741287", "lon": -77.03933916666666, "rental_uris": {"ios": "https://dc.lft.to/lastmile_qr_scan", "android": "https://dc.lft.to/lastmile_qr_scan"}}, {"name": "eaeb4ed44d19fbd98c27d40431d63b32", "fusion_lat": 0.0, "type": "electric_scooter", "lat": 38.90266716666667, "is_reserved": 0, "is_disabled": 0, "fusion_lon": 0.0, "bike_id": "eaeb4ed44d19fbd98c27d40431d63b32", "lon": -77.02999216666667, "rental_uris": {"ios": "https://dc.lft.to/lastmile_qr_scan", "android": "https://dc.lft.to/lastmile_qr_scan"}}, {"name": "8c4ea9e6376219dababbfc9f472aac45", "fusion_lat": 0.0, "type": "electric_scooter", "lat": 38.902775166666665, "is_reserved": 0, "is_disabled": 0, "fusion_lon": 0.0, "bike_id": "8c4ea9e6376219dababbfc9f472aac45", "lon": -77.053853, "rental_uris": {"ios": "https://dc.lft.to/lastmile_qr_scan", "android": "https://dc.lft.to/lastmile_qr_scan"}}, {"name": "6975167d6f7ae4260388edcffe64850c", "fusion_lat": 0.0, "type": "electric_scooter", "lat": 38.832308166666664, "is_reserved": 0, "is_disabled": 0, "fusion_lon": 0.0, "bike_id": "6975167d6f7ae4260388edcffe64850c", "lon": -76.98890383333334, "rental_uris": {"ios": "https://dc.lft.to/lastmile_qr_scan", "android": "https://dc.lft.to/lastmile_qr_scan"}}, {"name": "f8fe27408fe21f5ede653efb45df531d", "fusion_lat": 0.0, "type": "electric_scooter", "lat": 38.92463866666667, "is_reserved": 0, "is_disabled": 0, "fusion_lon": 0.0, "bike_id": "f8fe27408fe21f5ede653efb45df531d", "lon": -77.02713816666666, "rental_uris": {"ios": "https://dc.lft.to/lastmile_qr_scan", "android": "https://dc.lft.to/lastmile_qr_scan"}}, {"name": "89fc740b5bd26b15735941445a3ee894", "fusion_lat": 0.0, "type": "electric_scooter", "lat": 38.895877166666665, "is_reserved": 0, "is_disabled": 0, "fusion_lon": 0.0, "bike_id": "89fc740b5bd26b15735941445a3ee894", "lon": -77.04268483333334, "rental_uris": {"ios": "https://dc.lft.to/lastmile_qr_scan", "android": "https://dc.lft.to/lastmile_qr_scan"}}, {"name": "42312a723e4703729ade598bce956fe0", "fusion_lat": 0.0, "type": "electric_scooter", "lat": 38.92752466666666, "is_reserved": 0, "is_disabled": 0, "fusion_lon": 0.0, "bike_id": "42312a723e4703729ade598bce956fe0", "lon": -77.02423983333334, "rental_uris": {"ios": "https://dc.lft.to/lastmile_qr_scan", "android": "https://dc.lft.to/lastmile_qr_scan"}}, {"name": "2f701eb5253e525b38197350bba32a5a", "fusion_lat": 0.0, "type": "electric_bike", "lat": 38.843479, "is_reserved": 0, "is_disabled": 0, "fusion_lon": 0.0, "bike_id": "2f701eb5253e525b38197350bba32a5a", "lon": -77.06403466666667, "rental_uris": {"ios": "https://dc.lft.to/lastmile_qr_scan", "android": "https://dc.lft.to/lastmile_qr_scan"}}, {"name": "bd8691395d6bef00337cebe34b12f02d", "fusion_lat": 0.0, "type": "electric_bike", "lat": 38.9752, "is_reserved": 0, "is_disabled": 0, "fusion_lon": 0.0, "bike_id": "bd8691395d6bef00337cebe34b12f02d", "lon": -77.01689516666667, "rental_uris": {"ios": "https://dc.lft.to/lastmile_qr_scan", "android": "https://dc.lft.to/lastmile_qr_scan"}}, {"name": "87d2e6c229b620c0019af7927996b116", "fusion_lat": 0.0, "type": "electric_scooter", "lat": 38.936167, "is_reserved": 0, "is_disabled": 0, "fusion_lon": 0.0, "bike_id": "87d2e6c229b620c0019af7927996b116", "lon": -77.03211833333333, "rental_uris": {"ios": "https://dc.lft.to/lastmile_qr_scan", "android": "https://dc.lft.to/lastmile_qr_scan"}}, {"name": "3a28ae6e247bc7f887201abc90af72d2", "fusion_lat": 0.0, "type": "electric_scooter", "lat": 38.9069495, "is_reserved": 0, "is_disabled": 0, "fusion_lon": 0.0, "bike_id": "3a28ae6e247bc7f887201abc90af72d2", "lon": -77.023911, "rental_uris": {"ios": "https://dc.lft.to/lastmile_qr_scan", "android": "https://dc.lft.to/lastmile_qr_scan"}}, {"name": "3cce80664ce7f8a19546ab214a0a644f", "fusion_lat": 0.0, "type": "electric_scooter", "lat": 38.91179433333333, "is_reserved": 0, "is_disabled": 0, "fusion_lon": 0.0, "bike_id": "3cce80664ce7f8a19546ab214a0a644f", "lon": -77.0112195, "rental_uris": {"ios": "https://dc.lft.to/lastmile_qr_scan", "android": "https://dc.lft.to/lastmile_qr_scan"}}, {"name": "5982bbeb3c78e79b19172f9d1c4f8a7a", "fusion_lat": 0.0, "type": "electric_scooter", "lat": 38.8876585, "is_reserved": 0, "is_disabled": 0, "fusion_lon": 0.0, "bike_id": "5982bbeb3c78e79b19172f9d1c4f8a7a", "lon": -76.9560685, "rental_uris": {"ios": "https://dc.lft.to/lastmile_qr_scan", "android": "https://dc.lft.to/lastmile_qr_scan"}}, {"name": "401be9895a36177eae8e4d221d752c6b", "fusion_lat": 0.0, "type": "electric_scooter", "lat": 38.934263, "is_reserved": 0, "is_disabled": 0, "fusion_lon": 0.0, "bike_id": "401be9895a36177eae8e4d221d752c6b", "lon": -77.04009766666667, "rental_uris": {"ios": "https://dc.lft.to/lastmile_qr_scan", "android": "https://dc.lft.to/lastmile_qr_scan"}}, {"name": "7727fc4fed9c530f5a75a83c4dcf5906", "fusion_lat": 0.0, "type": "electric_scooter", "lat": 38.90365233333333, "is_reserved": 0, "is_disabled": 0, "fusion_lon": 0.0, "bike_id": "7727fc4fed9c530f5a75a83c4dcf5906", "lon": -77.00345716666666, "rental_uris": {"ios": "https://dc.lft.to/lastmile_qr_scan", "android": "https://dc.lft.to/lastmile_qr_scan"}}, {"name": "10cf20ea00bf0cd8fafb6471cdf16ae1", "fusion_lat": 0.0, "type": "electric_scooter", "lat": 38.918181833333335, "is_reserved": 0, "is_disabled": 0, "fusion_lon": 0.0, "bike_id": "10cf20ea00bf0cd8fafb6471cdf16ae1", "lon": -77.03215066666667, "rental_uris": {"ios": "https://dc.lft.to/lastmile_qr_scan", "android": "https://dc.lft.to/lastmile_qr_scan"}}, {"name": "8e7d801c47005df70585151bd2b06333", "fusion_lat": 0.0, "type": "electric_scooter", "lat": 38.912734, "is_reserved": 0, "is_disabled": 0, "fusion_lon": 0.0, "bike_id": "8e7d801c47005df70585151bd2b06333", "lon": -77.03874016666667, "rental_uris": {"ios": "https://dc.lft.to/lastmile_qr_scan", "android": "https://dc.lft.to/lastmile_qr_scan"}}, {"name": "c98940d89abf6b65e8abb9d9d79c62eb", "fusion_lat": 0.0, "type": "electric_scooter", "lat": 38.90399166666667, "is_reserved": 0, "is_disabled": 0, "fusion_lon": 0.0, "bike_id": "c98940d89abf6b65e8abb9d9d79c62eb", "lon": -77.06425183333333, "rental_uris": {"ios": "https://dc.lft.to/lastmile_qr_scan", "android": "https://dc.lft.to/lastmile_qr_scan"}}, {"name": "f900f3141d5ff7393a26653c7b342a67", "fusion_lat": 0.0, "type": "electric_scooter", "lat": 38.932613, "is_reserved": 0, "is_disabled": 0, "fusion_lon": 0.0, "bike_id": "f900f3141d5ff7393a26653c7b342a67", "lon": -77.039005, "rental_uris": {"ios": "https://dc.lft.to/lastmile_qr_scan", "android": "https://dc.lft.to/lastmile_qr_scan"}}, {"name": "c53e3562e5172068839772c7a99f9f7a", "fusion_lat": 0.0, "type": "electric_scooter", "lat": 38.87263766666667, "is_reserved": 0, "is_disabled": 0, "fusion_lon": 0.0, "bike_id": "c53e3562e5172068839772c7a99f9f7a", "lon": -77.0153325, "rental_uris": {"ios": "https://dc.lft.to/lastmile_qr_scan", "android": "https://dc.lft.to/lastmile_qr_scan"}}, {"name": "acf891082c6e655a27a17a1b82bd39b6", "fusion_lat": 0.0, "type": "electric_bike", "lat": 38.94920116666667, "is_reserved": 0, "is_disabled": 0, "fusion_lon": 0.0, "bike_id": "acf891082c6e655a27a17a1b82bd39b6", "lon": -77.00844616666667, "rental_uris": {"ios": "https://dc.lft.to/lastmile_qr_scan", "android": "https://dc.lft.to/lastmile_qr_scan"}}, {"name": "2370a9caf198fc5584501ef3b8dd8b00", "fusion_lat": 0.0, "type": "electric_bike", "lat": 38.99225633333333, "is_reserved": 0, "is_disabled": 0, "fusion_lon": 0.0, "bike_id": "2370a9caf198fc5584501ef3b8dd8b00", "lon": -76.87819166666667, "rental_uris": {"ios": "https://dc.lft.to/lastmile_qr_scan", "android": "https://dc.lft.to/lastmile_qr_scan"}}, {"name": "d96e0909615b04e98dba211812f1fe10", "fusion_lat": 0.0, "type": "electric_bike", "lat": 38.8842495, "is_reserved": 0, "is_disabled": 0, "fusion_lon": 0.0, "bike_id": "d96e0909615b04e98dba211812f1fe10", "lon": -76.9576805, "rental_uris": {"ios": "https://dc.lft.to/lastmile_qr_scan", "android": "https://dc.lft.to/lastmile_qr_scan"}}, {"name": "15a973b8a0be4b14e289809873336edb", "fusion_lat": 0.0, "type": "electric_scooter", "lat": 38.90341, "is_reserved": 0, "is_disabled": 0, "fusion_lon": 0.0, "bike_id": "15a973b8a0be4b14e289809873336edb", "lon": -76.9466695, "rental_uris": {"ios": "https://dc.lft.to/lastmile_qr_scan", "android": "https://dc.lft.to/lastmile_qr_scan"}}, {"name": "db643d3db9662944407fd9127f8d8dd7", "fusion_lat": 0.0, "type": "electric_scooter", "lat": 38.9110655, "is_reserved": 0, "is_disabled": 0, "fusion_lon": 0.0, "bike_id": "db643d3db9662944407fd9127f8d8dd7", "lon": -77.03836033333333, "rental_uris": {"ios": "https://dc.lft.to/lastmile_qr_scan", "android": "https://dc.lft.to/lastmile_qr_scan"}}, {"name": "afb4af46280fea74d23b05660b074690", "fusion_lat": 0.0, "type": "electric_bike", "lat": 38.94361966666666, "is_reserved": 0, "is_disabled": 0, "fusion_lon": 0.0, "bike_id": "afb4af46280fea74d23b05660b074690", "lon": -77.00344416666667, "rental_uris": {"ios": "https://dc.lft.to/lastmile_qr_scan", "android": "https://dc.lft.to/lastmile_qr_scan"}}, {"name": "6a984ba540be934ec20f8dea3e39baea", "fusion_lat": 0.0, "type": "electric_bike", "lat": 38.90525683333333, "is_reserved": 0, "is_disabled": 0, "fusion_lon": 0.0, "bike_id": "6a984ba540be934ec20f8dea3e39baea", "lon": -77.07189533333333, "rental_uris": {"ios": "https://dc.lft.to/lastmile_qr_scan", "android": "https://dc.lft.to/lastmile_qr_scan"}}, {"name": "d5183b9279951fb26c11263add9c0123", "fusion_lat": 0.0, "type": "electric_scooter", "lat": 38.905537333333335, "is_reserved": 0, "is_disabled": 0, "fusion_lon": 0.0, "bike_id": "d5183b9279951fb26c11263add9c0123", "lon": -77.00553216666667, "rental_uris": {"ios": "https://dc.lft.to/lastmile_qr_scan", "android": "https://dc.lft.to/lastmile_qr_scan"}}, {"name": "c8cb04925afab0c009dd4ad52644b904", "fusion_lat": 0.0, "type": "electric_scooter", "lat": 38.923568833333334, "is_reserved": 0, "is_disabled": 0, "fusion_lon": 0.0, "bike_id": "c8cb04925afab0c009dd4ad52644b904", "lon": -77.05065366666666, "rental_uris": {"ios": "https://dc.lft.to/lastmile_qr_scan", "android": "https://dc.lft.to/lastmile_qr_scan"}}, {"name": "aad0799fd1380827ba2060f5e2878749", "fusion_lat": 0.0, "type": "electric_scooter", "lat": 38.91185683333333, "is_reserved": 0, "is_disabled": 0, "fusion_lon": 0.0, "bike_id": "aad0799fd1380827ba2060f5e2878749", "lon": -77.03198433333333, "rental_uris": {"ios": "https://dc.lft.to/lastmile_qr_scan", "android": "https://dc.lft.to/lastmile_qr_scan"}}, {"name": "8ec8bac5deec57101224c547219bdfa3", "fusion_lat": 0.0, "type": "electric_bike", "lat": 38.9906335, "is_reserved": 0, "is_disabled": 0, "fusion_lon": 0.0, "bike_id": "8ec8bac5deec57101224c547219bdfa3", "lon": -77.100264, "rental_uris": {"ios": "https://dc.lft.to/lastmile_qr_scan", "android": "https://dc.lft.to/lastmile_qr_scan"}}, {"name": "22ed50b7143218383fd41656f6d5a415", "fusion_lat": 0.0, "type": "electric_scooter", "lat": 38.8571615, "is_reserved": 0, "is_disabled": 0, "fusion_lon": 0.0, "bike_id": "22ed50b7143218383fd41656f6d5a415", "lon": -76.980921, "rental_uris": {"ios": "https://dc.lft.to/lastmile_qr_scan", "android": "https://dc.lft.to/lastmile_qr_scan"}}, {"name": "8446cb399f6e92023269581f2a3d9cbd", "fusion_lat": 0.0, "type": "electric_scooter", "lat": 38.93669516666667, "is_reserved": 0, "is_disabled": 0, "fusion_lon": 0.0, "bike_id": "8446cb399f6e92023269581f2a3d9cbd", "lon": -77.03644266666667, "rental_uris": {"ios": "https://dc.lft.to/lastmile_qr_scan", "android": "https://dc.lft.to/lastmile_qr_scan"}}, {"name": "e1a07b2f25bc3ad001cbe61c6839cc7c", "fusion_lat": 0.0, "type": "electric_scooter", "lat": 38.9002285, "is_reserved": 0, "is_disabled": 0, "fusion_lon": 0.0, "bike_id": "e1a07b2f25bc3ad001cbe61c6839cc7c", "lon": -77.02381166666666, "rental_uris": {"ios": "https://dc.lft.to/lastmile_qr_scan", "android": "https://dc.lft.to/lastmile_qr_scan"}}, {"name": "f56393d0f3cdb0c6f59dfa888a641a59", "fusion_lat": 0.0, "type": "electric_scooter", "lat": 38.883265, "is_reserved": 0, "is_disabled": 0, "fusion_lon": 0.0, "bike_id": "f56393d0f3cdb0c6f59dfa888a641a59", "lon": -77.01678733333334, "rental_uris": {"ios": "https://dc.lft.to/lastmile_qr_scan", "android": "https://dc.lft.to/lastmile_qr_scan"}}, {"name": "e4b96070ad527e4fc006f5f8f9a55899", "fusion_lat": 0.0, "type": "electric_scooter", "lat": 38.898542, "is_reserved": 0, "is_disabled": 0, "fusion_lon": 0.0, "bike_id": "e4b96070ad527e4fc006f5f8f9a55899", "lon": -76.97662716666666, "rental_uris": {"ios": "https://dc.lft.to/lastmile_qr_scan", "android": "https://dc.lft.to/lastmile_qr_scan"}}, {"name": "ee699b34b8b0bc6c9073ec903dd73870", "fusion_lat": 0.0, "type": "electric_scooter", "lat": 38.91922683333333, "is_reserved": 0, "is_disabled": 0, "fusion_lon": 0.0, "bike_id": "ee699b34b8b0bc6c9073ec903dd73870", "lon": -77.03422033333334, "rental_uris": {"ios": "https://dc.lft.to/lastmile_qr_scan", "android": "https://dc.lft.to/lastmile_qr_scan"}}, {"name": "fc136490dcf39c9ffa332093cec950c7", "fusion_lat": 0.0, "type": "electric_bike", "lat": 38.8815075, "is_reserved": 0, "is_disabled": 0, "fusion_lon": 0.0, "bike_id": "fc136490dcf39c9ffa332093cec950c7", "lon": -77.02754533333334, "rental_uris": {"ios": "https://dc.lft.to/lastmile_qr_scan", "android": "https://dc.lft.to/lastmile_qr_scan"}}, {"name": "c63cdbfd59eff591c4fc6f78bf17ab10", "fusion_lat": 0.0, "type": "electric_scooter", "lat": 38.88503333333333, "is_reserved": 0, "is_disabled": 0, "fusion_lon": 0.0, "bike_id": "c63cdbfd59eff591c4fc6f78bf17ab10", "lon": -77.01578066666667, "rental_uris": {"ios": "https://dc.lft.to/lastmile_qr_scan", "android": "https://dc.lft.to/lastmile_qr_scan"}}, {"name": "40480a75f8d5e6106994af4871fdb16a", "fusion_lat": 0.0, "type": "electric_scooter", "lat": 38.90590733333333, "is_reserved": 0, "is_disabled": 0, "fusion_lon": 0.0, "bike_id": "40480a75f8d5e6106994af4871fdb16a", "lon": -77.01617083333333, "rental_uris": {"ios": "https://dc.lft.to/lastmile_qr_scan", "android": "https://dc.lft.to/lastmile_qr_scan"}}, {"name": "616b8a0b3719d6f4fbb87049ab5affa0", "fusion_lat": 0.0, "type": "electric_scooter", "lat": 38.902630333333335, "is_reserved": 0, "is_disabled": 0, "fusion_lon": 0.0, "bike_id": "616b8a0b3719d6f4fbb87049ab5affa0", "lon": -77.03955433333333, "rental_uris": {"ios": "https://dc.lft.to/lastmile_qr_scan", "android": "https://dc.lft.to/lastmile_qr_scan"}}, {"name": "1c64fed04397f86468db97c487251e72", "fusion_lat": 0.0, "type": "electric_scooter", "lat": 38.928815166666666, "is_reserved": 0, "is_disabled": 0, "fusion_lon": 0.0, "bike_id": "1c64fed04397f86468db97c487251e72", "lon": -77.03258366666667, "rental_uris": {"ios": "https://dc.lft.to/lastmile_qr_scan", "android": "https://dc.lft.to/lastmile_qr_scan"}}, {"name": "86ca08ce532417a2a4d0e7b5e02f0cfe", "fusion_lat": 0.0, "type": "electric_scooter", "lat": 38.93264516666667, "is_reserved": 0, "is_disabled": 0, "fusion_lon": 0.0, "bike_id": "86ca08ce532417a2a4d0e7b5e02f0cfe", "lon": -77.03903666666666, "rental_uris": {"ios": "https://dc.lft.to/lastmile_qr_scan", "android": "https://dc.lft.to/lastmile_qr_scan"}}, {"name": "fc95dfcf8b8340f033f312665ea78aa7", "fusion_lat": 0.0, "type": "electric_scooter", "lat": 38.846785, "is_reserved": 0, "is_disabled": 0, "fusion_lon": 0.0, "bike_id": "fc95dfcf8b8340f033f312665ea78aa7", "lon": -76.99207683333333, "rental_uris": {"ios": "https://dc.lft.to/lastmile_qr_scan", "android": "https://dc.lft.to/lastmile_qr_scan"}}, {"name": "112b7942f79067e850197c9c521dfcb3", "fusion_lat": 0.0, "type": "electric_scooter", "lat": 38.851595333333336, "is_reserved": 0, "is_disabled": 0, "fusion_lon": 0.0, "bike_id": "112b7942f79067e850197c9c521dfcb3", "lon": -76.9880105, "rental_uris": {"ios": "https://dc.lft.to/lastmile_qr_scan", "android": "https://dc.lft.to/lastmile_qr_scan"}}, {"name": "a705533710f942465a556a75463d6897", "fusion_lat": 0.0, "type": "electric_scooter", "lat": 38.858064666666664, "is_reserved": 0, "is_disabled": 0, "fusion_lon": 0.0, "bike_id": "a705533710f942465a556a75463d6897", "lon": -76.98657333333334, "rental_uris": {"ios": "https://dc.lft.to/lastmile_qr_scan", "android": "https://dc.lft.to/lastmile_qr_scan"}}, {"name": "1d990cbe2824db35182706d3660d161c", "fusion_lat": 0.0, "type": "electric_scooter", "lat": 38.9382365, "is_reserved": 0, "is_disabled": 0, "fusion_lon": 0.0, "bike_id": "1d990cbe2824db35182706d3660d161c", "lon": -77.02471166666666, "rental_uris": {"ios": "https://dc.lft.to/lastmile_qr_scan", "android": "https://dc.lft.to/lastmile_qr_scan"}}, {"name": "c0ebacb683304162a73f0bd446f4e865", "fusion_lat": 0.0, "type": "electric_scooter", "lat": 38.91561866666667, "is_reserved": 0, "is_disabled": 0, "fusion_lon": 0.0, "bike_id": "c0ebacb683304162a73f0bd446f4e865", "lon": -77.01416616666667, "rental_uris": {"ios": "https://dc.lft.to/lastmile_qr_scan", "android": "https://dc.lft.to/lastmile_qr_scan"}}, {"name": "caed235659460378fe3bbf690e75755a", "fusion_lat": 0.0, "type": "electric_scooter", "lat": 38.901266666666665, "is_reserved": 0, "is_disabled": 0, "fusion_lon": 0.0, "bike_id": "caed235659460378fe3bbf690e75755a", "lon": -76.99187466666666, "rental_uris": {"ios": "https://dc.lft.to/lastmile_qr_scan", "android": "https://dc.lft.to/lastmile_qr_scan"}}, {"name": "b3d158b77d8081554ed140c0939510a4", "fusion_lat": 0.0, "type": "electric_scooter", "lat": 38.89606583333333, "is_reserved": 0, "is_disabled": 0, "fusion_lon": 0.0, "bike_id": "b3d158b77d8081554ed140c0939510a4", "lon": -77.05441616666667, "rental_uris": {"ios": "https://dc.lft.to/lastmile_qr_scan", "android": "https://dc.lft.to/lastmile_qr_scan"}}, {"name": "5f093a5f05ac4d20b09a868a48859165", "fusion_lat": 0.0, "type": "electric_bike", "lat": 38.862805, "is_reserved": 0, "is_disabled": 0, "fusion_lon": 0.0, "bike_id": "5f093a5f05ac4d20b09a868a48859165", "lon": -76.98005866666666, "rental_uris": {"ios": "https://dc.lft.to/lastmile_qr_scan", "android": "https://dc.lft.to/lastmile_qr_scan"}}, {"name": "8a5ce7fd6dd07116a548995f76da4026", "fusion_lat": 0.0, "type": "electric_scooter", "lat": 38.91645583333333, "is_reserved": 0, "is_disabled": 0, "fusion_lon": 0.0, "bike_id": "8a5ce7fd6dd07116a548995f76da4026", "lon": -77.01594316666667, "rental_uris": {"ios": "https://dc.lft.to/lastmile_qr_scan", "android": "https://dc.lft.to/lastmile_qr_scan"}}, {"name": "d8273b21785ecbdde785fe6065f0ac7c", "fusion_lat": 0.0, "type": "electric_scooter", "lat": 38.909538833333336, "is_reserved": 0, "is_disabled": 0, "fusion_lon": 0.0, "bike_id": "d8273b21785ecbdde785fe6065f0ac7c", "lon": -77.02382583333333, "rental_uris": {"ios": "https://dc.lft.to/lastmile_qr_scan", "android": "https://dc.lft.to/lastmile_qr_scan"}}, {"name": "fb9fdebac419a5f93cda8bef0b1ddc6a", "fusion_lat": 0.0, "type": "electric_scooter", "lat": 38.936964833333334, "is_reserved": 0, "is_disabled": 0, "fusion_lon": 0.0, "bike_id": "fb9fdebac419a5f93cda8bef0b1ddc6a", "lon": -77.024085, "rental_uris": {"ios": "https://dc.lft.to/lastmile_qr_scan", "android": "https://dc.lft.to/lastmile_qr_scan"}}, {"name": "b56e7cd6949ee4ee9442a5b55712c69c", "fusion_lat": 0.0, "type": "electric_scooter", "lat": 38.9064945, "is_reserved": 0, "is_disabled": 0, "fusion_lon": 0.0, "bike_id": "b56e7cd6949ee4ee9442a5b55712c69c", "lon": -77.02940733333334, "rental_uris": {"ios": "https://dc.lft.to/lastmile_qr_scan", "android": "https://dc.lft.to/lastmile_qr_scan"}}, {"name": "314d2df1092305e8eeb88de8bccad813", "fusion_lat": 0.0, "type": "electric_scooter", "lat": 38.90958916666666, "is_reserved": 0, "is_disabled": 0, "fusion_lon": 0.0, "bike_id": "314d2df1092305e8eeb88de8bccad813", "lon": -77.01131733333334, "rental_uris": {"ios": "https://dc.lft.to/lastmile_qr_scan", "android": "https://dc.lft.to/lastmile_qr_scan"}}, {"name": "1064b12714da421d3e65caeb3e59be5e", "fusion_lat": 0.0, "type": "electric_scooter", "lat": 38.898384, "is_reserved": 0, "is_disabled": 0, "fusion_lon": 0.0, "bike_id": "1064b12714da421d3e65caeb3e59be5e", "lon": -77.03302683333334, "rental_uris": {"ios": "https://dc.lft.to/lastmile_qr_scan", "android": "https://dc.lft.to/lastmile_qr_scan"}}, {"name": "ab42f07f640aa461aae81d334280c933", "fusion_lat": 0.0, "type": "electric_scooter", "lat": 38.9233755, "is_reserved": 0, "is_disabled": 0, "fusion_lon": 0.0, "bike_id": "ab42f07f640aa461aae81d334280c933", "lon": -77.03658283333333, "rental_uris": {"ios": "https://dc.lft.to/lastmile_qr_scan", "android": "https://dc.lft.to/lastmile_qr_scan"}}, {"name": "47194c4337082845388a2eee9fae93d7", "fusion_lat": 0.0, "type": "electric_bike", "lat": 38.96839933333333, "is_reserved": 0, "is_disabled": 0, "fusion_lon": 0.0, "bike_id": "47194c4337082845388a2eee9fae93d7", "lon": -77.03330366666667, "rental_uris": {"ios": "https://dc.lft.to/lastmile_qr_scan", "android": "https://dc.lft.to/lastmile_qr_scan"}}, {"name": "4d321beaaa3379dce97867d8aca450c7", "fusion_lat": 0.0, "type": "electric_scooter", "lat": 38.8953075, "is_reserved": 0, "is_disabled": 0, "fusion_lon": 0.0, "bike_id": "4d321beaaa3379dce97867d8aca450c7", "lon": -77.01085366666666, "rental_uris": {"ios": "https://dc.lft.to/lastmile_qr_scan", "android": "https://dc.lft.to/lastmile_qr_scan"}}, {"name": "e4f6334f777f75b51082dd8b743426b1", "fusion_lat": 0.0, "type": "electric_scooter", "lat": 38.93204383333333, "is_reserved": 0, "is_disabled": 0, "fusion_lon": 0.0, "bike_id": "e4f6334f777f75b51082dd8b743426b1", "lon": -77.02734533333333, "rental_uris": {"ios": "https://dc.lft.to/lastmile_qr_scan", "android": "https://dc.lft.to/lastmile_qr_scan"}}, {"name": "5129c47cb24112c33369f0db5e421db4", "fusion_lat": 0.0, "type": "electric_scooter", "lat": 38.917715666666666, "is_reserved": 0, "is_disabled": 0, "fusion_lon": 0.0, "bike_id": "5129c47cb24112c33369f0db5e421db4", "lon": -77.02964216666666, "rental_uris": {"ios": "https://dc.lft.to/lastmile_qr_scan", "android": "https://dc.lft.to/lastmile_qr_scan"}}, {"name": "b737563872f9b83f05ad26a758a5efa2", "fusion_lat": 0.0, "type": "electric_scooter", "lat": 38.91243883333333, "is_reserved": 0, "is_disabled": 0, "fusion_lon": 0.0, "bike_id": "b737563872f9b83f05ad26a758a5efa2", "lon": -77.04872533333334, "rental_uris": {"ios": "https://dc.lft.to/lastmile_qr_scan", "android": "https://dc.lft.to/lastmile_qr_scan"}}, {"name": "e970a8df01d598b9a3591b02f28a13c9", "fusion_lat": 0.0, "type": "electric_scooter", "lat": 38.899012666666664, "is_reserved": 0, "is_disabled": 0, "fusion_lon": 0.0, "bike_id": "e970a8df01d598b9a3591b02f28a13c9", "lon": -77.0393085, "rental_uris": {"ios": "https://dc.lft.to/lastmile_qr_scan", "android": "https://dc.lft.to/lastmile_qr_scan"}}, {"name": "f3696f2baea7b851d54d91479851046b", "fusion_lat": 0.0, "type": "electric_scooter", "lat": 38.874891166666664, "is_reserved": 0, "is_disabled": 0, "fusion_lon": 0.0, "bike_id": "f3696f2baea7b851d54d91479851046b", "lon": -77.00176316666666, "rental_uris": {"ios": "https://dc.lft.to/lastmile_qr_scan", "android": "https://dc.lft.to/lastmile_qr_scan"}}, {"name": "8af7a7db5f3a8f30d12bd0605cd79c45", "fusion_lat": 0.0, "type": "electric_scooter", "lat": 38.89953166666667, "is_reserved": 0, "is_disabled": 0, "fusion_lon": 0.0, "bike_id": "8af7a7db5f3a8f30d12bd0605cd79c45", "lon": -77.0312645, "rental_uris": {"ios": "https://dc.lft.to/lastmile_qr_scan", "android": "https://dc.lft.to/lastmile_qr_scan"}}, {"name": "4b8f661a593bb0a6858f77c39e7c36a5", "fusion_lat": 0.0, "type": "electric_scooter", "lat": 38.896116666666664, "is_reserved": 0, "is_disabled": 0, "fusion_lon": 0.0, "bike_id": "4b8f661a593bb0a6858f77c39e7c36a5", "lon": -77.04683933333334, "rental_uris": {"ios": "https://dc.lft.to/lastmile_qr_scan", "android": "https://dc.lft.to/lastmile_qr_scan"}}, {"name": "7c04c69930fde0c8ede3a3c9e118ad63", "fusion_lat": 0.0, "type": "electric_scooter", "lat": 38.902881, "is_reserved": 0, "is_disabled": 0, "fusion_lon": 0.0, "bike_id": "7c04c69930fde0c8ede3a3c9e118ad63", "lon": -77.04174216666667, "rental_uris": {"ios": "https://dc.lft.to/lastmile_qr_scan", "android": "https://dc.lft.to/lastmile_qr_scan"}}, {"name": "24833e5485ad2fbd4f3131d3b360542d", "fusion_lat": 0.0, "type": "electric_scooter", "lat": 38.90375933333333, "is_reserved": 0, "is_disabled": 0, "fusion_lon": 0.0, "bike_id": "24833e5485ad2fbd4f3131d3b360542d", "lon": -77.04028683333334, "rental_uris": {"ios": "https://dc.lft.to/lastmile_qr_scan", "android": "https://dc.lft.to/lastmile_qr_scan"}}, {"name": "6e81e1cabbf306ba56d70448fb773152", "fusion_lat": 0.0, "type": "electric_scooter", "lat": 38.93063433333333, "is_reserved": 0, "is_disabled": 0, "fusion_lon": 0.0, "bike_id": "6e81e1cabbf306ba56d70448fb773152", "lon": -77.0396025, "rental_uris": {"ios": "https://dc.lft.to/lastmile_qr_scan", "android": "https://dc.lft.to/lastmile_qr_scan"}}, {"name": "30765ccac1b250ba1cde6fb253efd728", "fusion_lat": 0.0, "type": "electric_scooter", "lat": 38.91333983333333, "is_reserved": 0, "is_disabled": 0, "fusion_lon": 0.0, "bike_id": "30765ccac1b250ba1cde6fb253efd728", "lon": -77.0312925, "rental_uris": {"ios": "https://dc.lft.to/lastmile_qr_scan", "android": "https://dc.lft.to/lastmile_qr_scan"}}, {"name": "d056d3d10715c8e15ec21120f1674154", "fusion_lat": 0.0, "type": "electric_scooter", "lat": 38.92241933333333, "is_reserved": 0, "is_disabled": 0, "fusion_lon": 0.0, "bike_id": "d056d3d10715c8e15ec21120f1674154", "lon": -77.036646, "rental_uris": {"ios": "https://dc.lft.to/lastmile_qr_scan", "android": "https://dc.lft.to/lastmile_qr_scan"}}, {"name": "d34733c7e3478476676c8a858b7bcc32", "fusion_lat": 0.0, "type": "electric_scooter", "lat": 38.90902716666667, "is_reserved": 0, "is_disabled": 0, "fusion_lon": 0.0, "bike_id": "d34733c7e3478476676c8a858b7bcc32", "lon": -77.02712933333333, "rental_uris": {"ios": "https://dc.lft.to/lastmile_qr_scan", "android": "https://dc.lft.to/lastmile_qr_scan"}}, {"name": "05875bd4c04cab6b582bb701d041abcf", "fusion_lat": 0.0, "type": "electric_scooter", "lat": 38.92225466666667, "is_reserved": 0, "is_disabled": 0, "fusion_lon": 0.0, "bike_id": "05875bd4c04cab6b582bb701d041abcf", "lon": -77.047173, "rental_uris": {"ios": "https://dc.lft.to/lastmile_qr_scan", "android": "https://dc.lft.to/lastmile_qr_scan"}}, {"name": "0b3f61f5d4cba0ba920e05c8a03bd6be", "fusion_lat": 0.0, "type": "electric_scooter", "lat": 38.928903166666665, "is_reserved": 0, "is_disabled": 0, "fusion_lon": 0.0, "bike_id": "0b3f61f5d4cba0ba920e05c8a03bd6be", "lon": -77.0327735, "rental_uris": {"ios": "https://dc.lft.to/lastmile_qr_scan", "android": "https://dc.lft.to/lastmile_qr_scan"}}, {"name": "51228bcb448cc6f5796c45b2155f0271", "fusion_lat": 0.0, "type": "electric_scooter", "lat": 38.89603416666667, "is_reserved": 0, "is_disabled": 0, "fusion_lon": 0.0, "bike_id": "51228bcb448cc6f5796c45b2155f0271", "lon": -77.0270835, "rental_uris": {"ios": "https://dc.lft.to/lastmile_qr_scan", "android": "https://dc.lft.to/lastmile_qr_scan"}}, {"name": "d4435c40123530997e1936c47b201084", "fusion_lat": 0.0, "type": "electric_scooter", "lat": 38.91420733333333, "is_reserved": 0, "is_disabled": 0, "fusion_lon": 0.0, "bike_id": "d4435c40123530997e1936c47b201084", "lon": -77.02207116666666, "rental_uris": {"ios": "https://dc.lft.to/lastmile_qr_scan", "android": "https://dc.lft.to/lastmile_qr_scan"}}, {"name": "9c085eb1cf389f5b8585a556956ad872", "fusion_lat": 0.0, "type": "electric_scooter", "lat": 38.93705166666667, "is_reserved": 0, "is_disabled": 0, "fusion_lon": 0.0, "bike_id": "9c085eb1cf389f5b8585a556956ad872", "lon": -77.06105033333333, "rental_uris": {"ios": "https://dc.lft.to/lastmile_qr_scan", "android": "https://dc.lft.to/lastmile_qr_scan"}}, {"name": "50640a158398b5983062ae062c16cf0b", "fusion_lat": 0.0, "type": "electric_scooter", "lat": 38.87665116666667, "is_reserved": 0, "is_disabled": 0, "fusion_lon": 0.0, "bike_id": "50640a158398b5983062ae062c16cf0b", "lon": -77.00419283333333, "rental_uris": {"ios": "https://dc.lft.to/lastmile_qr_scan", "android": "https://dc.lft.to/lastmile_qr_scan"}}, {"name": "a3163ff7c1294845efa52c2fe3347973", "fusion_lat": 0.0, "type": "electric_scooter", "lat": 38.933910166666664, "is_reserved": 0, "is_disabled": 0, "fusion_lon": 0.0, "bike_id": "a3163ff7c1294845efa52c2fe3347973", "lon": -77.035824, "rental_uris": {"ios": "https://dc.lft.to/lastmile_qr_scan", "android": "https://dc.lft.to/lastmile_qr_scan"}}, {"name": "7ad1b0cfe04761f51a9e9fad07b34233", "fusion_lat": 0.0, "type": "electric_bike", "lat": 38.999084333333336, "is_reserved": 0, "is_disabled": 0, "fusion_lon": 0.0, "bike_id": "7ad1b0cfe04761f51a9e9fad07b34233", "lon": -77.046211, "rental_uris": {"ios": "https://dc.lft.to/lastmile_qr_scan", "android": "https://dc.lft.to/lastmile_qr_scan"}}, {"name": "d22b8661d12911f593e1e3f99ec38e7d", "fusion_lat": 0.0, "type": "electric_bike", "lat": 38.97383683333334, "is_reserved": 0, "is_disabled": 0, "fusion_lon": 0.0, "bike_id": "d22b8661d12911f593e1e3f99ec38e7d", "lon": -77.064775, "rental_uris": {"ios": "https://dc.lft.to/lastmile_qr_scan", "android": "https://dc.lft.to/lastmile_qr_scan"}}, {"name": "a7d414861c98417dc57e09e4543a806b", "fusion_lat": 0.0, "type": "electric_scooter", "lat": 38.8766295, "is_reserved": 0, "is_disabled": 0, "fusion_lon": 0.0, "bike_id": "a7d414861c98417dc57e09e4543a806b", "lon": -77.00071733333333, "rental_uris": {"ios": "https://dc.lft.to/lastmile_qr_scan", "android": "https://dc.lft.to/lastmile_qr_scan"}}, {"name": "b9bc05be4e3c99a178e9b6808bfb1831", "fusion_lat": 0.0, "type": "electric_scooter", "lat": 38.87894583333333, "is_reserved": 0, "is_disabled": 0, "fusion_lon": 0.0, "bike_id": "b9bc05be4e3c99a178e9b6808bfb1831", "lon": -77.00550816666667, "rental_uris": {"ios": "https://dc.lft.to/lastmile_qr_scan", "android": "https://dc.lft.to/lastmile_qr_scan"}}, {"name": "a74c1a3f9c71e893800af784d646acdb", "fusion_lat": 0.0, "type": "electric_scooter", "lat": 38.877967, "is_reserved": 0, "is_disabled": 0, "fusion_lon": 0.0, "bike_id": "a74c1a3f9c71e893800af784d646acdb", "lon": -77.00587966666667, "rental_uris": {"ios": "https://dc.lft.to/lastmile_qr_scan", "android": "https://dc.lft.to/lastmile_qr_scan"}}, {"name": "9024858b2445136a14800f12beae09f4", "fusion_lat": 0.0, "type": "electric_scooter", "lat": 38.933347833333336, "is_reserved": 0, "is_disabled": 0, "fusion_lon": 0.0, "bike_id": "9024858b2445136a14800f12beae09f4", "lon": -77.02754566666667, "rental_uris": {"ios": "https://dc.lft.to/lastmile_qr_scan", "android": "https://dc.lft.to/lastmile_qr_scan"}}, {"name": "add53d78a9a1f3d3278bd1bf30e09faa", "fusion_lat": 0.0, "type": "electric_scooter", "lat": 38.90880333333333, "is_reserved": 0, "is_disabled": 0, "fusion_lon": 0.0, "bike_id": "add53d78a9a1f3d3278bd1bf30e09faa", "lon": -77.04327983333333, "rental_uris": {"ios": "https://dc.lft.to/lastmile_qr_scan", "android": "https://dc.lft.to/lastmile_qr_scan"}}, {"name": "fe249b959ce84f76174ae687c6e809d6", "fusion_lat": 0.0, "type": "electric_scooter", "lat": 38.93098833333333, "is_reserved": 0, "is_disabled": 0, "fusion_lon": 0.0, "bike_id": "fe249b959ce84f76174ae687c6e809d6", "lon": -77.02398266666667, "rental_uris": {"ios": "https://dc.lft.to/lastmile_qr_scan", "android": "https://dc.lft.to/lastmile_qr_scan"}}, {"name": "5f0802ec781bea9034506c4d3ad8793a", "fusion_lat": 0.0, "type": "electric_scooter", "lat": 38.92387566666667, "is_reserved": 0, "is_disabled": 0, "fusion_lon": 0.0, "bike_id": "5f0802ec781bea9034506c4d3ad8793a", "lon": -77.02978816666666, "rental_uris": {"ios": "https://dc.lft.to/lastmile_qr_scan", "android": "https://dc.lft.to/lastmile_qr_scan"}}, {"name": "399f133ce3547989ca82cabb857ce5c6", "fusion_lat": 0.0, "type": "electric_scooter", "lat": 38.90028483333333, "is_reserved": 0, "is_disabled": 0, "fusion_lon": 0.0, "bike_id": "399f133ce3547989ca82cabb857ce5c6", "lon": -76.99066116666667, "rental_uris": {"ios": "https://dc.lft.to/lastmile_qr_scan", "android": "https://dc.lft.to/lastmile_qr_scan"}}, {"name": "1dd36e485385bae592b754ecd2b68535", "fusion_lat": 0.0, "type": "electric_scooter", "lat": 38.920279666666666, "is_reserved": 0, "is_disabled": 0, "fusion_lon": 0.0, "bike_id": "1dd36e485385bae592b754ecd2b68535", "lon": -77.03858816666667, "rental_uris": {"ios": "https://dc.lft.to/lastmile_qr_scan", "android": "https://dc.lft.to/lastmile_qr_scan"}}, {"name": "6d4de2e9ff77b5a2bc3aeae5ef23589f", "fusion_lat": 0.0, "type": "electric_scooter", "lat": 38.91815016666666, "is_reserved": 0, "is_disabled": 0, "fusion_lon": 0.0, "bike_id": "6d4de2e9ff77b5a2bc3aeae5ef23589f", "lon": -77.04002983333334, "rental_uris": {"ios": "https://dc.lft.to/lastmile_qr_scan", "android": "https://dc.lft.to/lastmile_qr_scan"}}, {"name": "ba56a04376502ccb0dac2c2cb009c541", "fusion_lat": 0.0, "type": "electric_scooter", "lat": 38.926830833333334, "is_reserved": 0, "is_disabled": 0, "fusion_lon": 0.0, "bike_id": "ba56a04376502ccb0dac2c2cb009c541", "lon": -77.01572166666666, "rental_uris": {"ios": "https://dc.lft.to/lastmile_qr_scan", "android": "https://dc.lft.to/lastmile_qr_scan"}}, {"name": "c03ba5baed2482b83c41b23d721bfaa3", "fusion_lat": 0.0, "type": "electric_scooter", "lat": 38.936936333333335, "is_reserved": 0, "is_disabled": 0, "fusion_lon": 0.0, "bike_id": "c03ba5baed2482b83c41b23d721bfaa3", "lon": -77.05599066666667, "rental_uris": {"ios": "https://dc.lft.to/lastmile_qr_scan", "android": "https://dc.lft.to/lastmile_qr_scan"}}, {"name": "6a730cd1c6d06623272c0b9c0ae35eec", "fusion_lat": 0.0, "type": "electric_scooter", "lat": 38.86157733333334, "is_reserved": 0, "is_disabled": 0, "fusion_lon": 0.0, "bike_id": "6a730cd1c6d06623272c0b9c0ae35eec", "lon": -76.9890865, "rental_uris": {"ios": "https://dc.lft.to/lastmile_qr_scan", "android": "https://dc.lft.to/lastmile_qr_scan"}}, {"name": "ebcc7c489a3336f81dcc6011bc1a0741", "fusion_lat": 0.0, "type": "electric_scooter", "lat": 38.901884, "is_reserved": 0, "is_disabled": 0, "fusion_lon": 0.0, "bike_id": "ebcc7c489a3336f81dcc6011bc1a0741", "lon": -77.02189533333333, "rental_uris": {"ios": "https://dc.lft.to/lastmile_qr_scan", "android": "https://dc.lft.to/lastmile_qr_scan"}}, {"name": "b41ea9aa664f0e85945e1c686a4d735d", "fusion_lat": 0.0, "type": "electric_scooter", "lat": 38.90322616666667, "is_reserved": 0, "is_disabled": 0, "fusion_lon": 0.0, "bike_id": "b41ea9aa664f0e85945e1c686a4d735d", "lon": -76.981605, "rental_uris": {"ios": "https://dc.lft.to/lastmile_qr_scan", "android": "https://dc.lft.to/lastmile_qr_scan"}}, {"name": "8c9a2c6abb2dd0fe87b1c01f45e43aae", "fusion_lat": 0.0, "type": "electric_scooter", "lat": 38.903986833333335, "is_reserved": 0, "is_disabled": 0, "fusion_lon": 0.0, "bike_id": "8c9a2c6abb2dd0fe87b1c01f45e43aae", "lon": -77.06399783333333, "rental_uris": {"ios": "https://dc.lft.to/lastmile_qr_scan", "android": "https://dc.lft.to/lastmile_qr_scan"}}, {"name": "8a236559e3069cd65184c893231597e0", "fusion_lat": 0.0, "type": "electric_scooter", "lat": 38.86892433333333, "is_reserved": 0, "is_disabled": 0, "fusion_lon": 0.0, "bike_id": "8a236559e3069cd65184c893231597e0", "lon": -76.98309166666667, "rental_uris": {"ios": "https://dc.lft.to/lastmile_qr_scan", "android": "https://dc.lft.to/lastmile_qr_scan"}}, {"name": "b6d91204457ab4b0af75ffe77ba044fe", "fusion_lat": 0.0, "type": "electric_scooter", "lat": 38.941743333333335, "is_reserved": 0, "is_disabled": 0, "fusion_lon": 0.0, "bike_id": "b6d91204457ab4b0af75ffe77ba044fe", "lon": -77.0251395, "rental_uris": {"ios": "https://dc.lft.to/lastmile_qr_scan", "android": "https://dc.lft.to/lastmile_qr_scan"}}, {"name": "9c2f8caf9954f76f2ae7be53b5b640d3", "fusion_lat": 0.0, "type": "electric_scooter", "lat": 38.858483666666665, "is_reserved": 0, "is_disabled": 0, "fusion_lon": 0.0, "bike_id": "9c2f8caf9954f76f2ae7be53b5b640d3", "lon": -76.95889333333334, "rental_uris": {"ios": "https://dc.lft.to/lastmile_qr_scan", "android": "https://dc.lft.to/lastmile_qr_scan"}}, {"name": "39d21fe07054cf27286d8da91a2e5768", "fusion_lat": 0.0, "type": "electric_scooter", "lat": 38.917134833333336, "is_reserved": 0, "is_disabled": 0, "fusion_lon": 0.0, "bike_id": "39d21fe07054cf27286d8da91a2e5768", "lon": -77.02789816666666, "rental_uris": {"ios": "https://dc.lft.to/lastmile_qr_scan", "android": "https://dc.lft.to/lastmile_qr_scan"}}, {"name": "eee5af56cd75a19ca0cdcdf5dd106634", "fusion_lat": 0.0, "type": "electric_scooter", "lat": 38.901157833333336, "is_reserved": 0, "is_disabled": 0, "fusion_lon": 0.0, "bike_id": "eee5af56cd75a19ca0cdcdf5dd106634", "lon": -77.04991266666667, "rental_uris": {"ios": "https://dc.lft.to/lastmile_qr_scan", "android": "https://dc.lft.to/lastmile_qr_scan"}}, {"name": "c55d9e5be330b8c761002646140558bd", "fusion_lat": 0.0, "type": "electric_scooter", "lat": 38.927491833333335, "is_reserved": 0, "is_disabled": 0, "fusion_lon": 0.0, "bike_id": "c55d9e5be330b8c761002646140558bd", "lon": -77.0327115, "rental_uris": {"ios": "https://dc.lft.to/lastmile_qr_scan", "android": "https://dc.lft.to/lastmile_qr_scan"}}, {"name": "56af489b5ba980ddf2e9835348f65425", "fusion_lat": 0.0, "type": "electric_scooter", "lat": 38.912679833333335, "is_reserved": 0, "is_disabled": 0, "fusion_lon": 0.0, "bike_id": "56af489b5ba980ddf2e9835348f65425", "lon": -77.04157766666667, "rental_uris": {"ios": "https://dc.lft.to/lastmile_qr_scan", "android": "https://dc.lft.to/lastmile_qr_scan"}}, {"name": "a8a1f0726f35a065c7162512d7fbbf05", "fusion_lat": 0.0, "type": "electric_scooter", "lat": 38.90477766666667, "is_reserved": 0, "is_disabled": 0, "fusion_lon": 0.0, "bike_id": "a8a1f0726f35a065c7162512d7fbbf05", "lon": -77.06540183333334, "rental_uris": {"ios": "https://dc.lft.to/lastmile_qr_scan", "android": "https://dc.lft.to/lastmile_qr_scan"}}, {"name": "1c61726381df0b045e21af5c30b23993", "fusion_lat": 0.0, "type": "electric_scooter", "lat": 38.90960166666667, "is_reserved": 0, "is_disabled": 0, "fusion_lon": 0.0, "bike_id": "1c61726381df0b045e21af5c30b23993", "lon": -77.04607716666666, "rental_uris": {"ios": "https://dc.lft.to/lastmile_qr_scan", "android": "https://dc.lft.to/lastmile_qr_scan"}}, {"name": "70e15eca20f64b5bcf2e0cd51f23c17f", "fusion_lat": 0.0, "type": "electric_scooter", "lat": 38.90575483333333, "is_reserved": 0, "is_disabled": 0, "fusion_lon": 0.0, "bike_id": "70e15eca20f64b5bcf2e0cd51f23c17f", "lon": -77.04869166666667, "rental_uris": {"ios": "https://dc.lft.to/lastmile_qr_scan", "android": "https://dc.lft.to/lastmile_qr_scan"}}, {"name": "c5511ba5374a6ad8162342d9507264f7", "fusion_lat": 0.0, "type": "electric_scooter", "lat": 38.9203255, "is_reserved": 0, "is_disabled": 0, "fusion_lon": 0.0, "bike_id": "c5511ba5374a6ad8162342d9507264f7", "lon": -77.0258845, "rental_uris": {"ios": "https://dc.lft.to/lastmile_qr_scan", "android": "https://dc.lft.to/lastmile_qr_scan"}}, {"name": "2236a451b22ba04ebe92f8ed06cf6c6c", "fusion_lat": 0.0, "type": "electric_scooter", "lat": 38.914041833333336, "is_reserved": 0, "is_disabled": 0, "fusion_lon": 0.0, "bike_id": "2236a451b22ba04ebe92f8ed06cf6c6c", "lon": -77.03951833333333, "rental_uris": {"ios": "https://dc.lft.to/lastmile_qr_scan", "android": "https://dc.lft.to/lastmile_qr_scan"}}, {"name": "805a5603ab6a4e879e62eeffba84b417", "fusion_lat": 0.0, "type": "electric_scooter", "lat": 38.90729133333333, "is_reserved": 0, "is_disabled": 0, "fusion_lon": 0.0, "bike_id": "805a5603ab6a4e879e62eeffba84b417", "lon": -77.0320825, "rental_uris": {"ios": "https://dc.lft.to/lastmile_qr_scan", "android": "https://dc.lft.to/lastmile_qr_scan"}}, {"name": "446e73e026a3aaec25fa58264cb6bb31", "fusion_lat": 0.0, "type": "electric_scooter", "lat": 38.88685433333333, "is_reserved": 0, "is_disabled": 0, "fusion_lon": 0.0, "bike_id": "446e73e026a3aaec25fa58264cb6bb31", "lon": -76.95759333333334, "rental_uris": {"ios": "https://dc.lft.to/lastmile_qr_scan", "android": "https://dc.lft.to/lastmile_qr_scan"}}, {"name": "bfed90c940c0052e7935ab43d2d000fc", "fusion_lat": 0.0, "type": "electric_bike", "lat": 38.850581, "is_reserved": 0, "is_disabled": 0, "fusion_lon": 0.0, "bike_id": "bfed90c940c0052e7935ab43d2d000fc", "lon": -76.97328733333333, "rental_uris": {"ios": "https://dc.lft.to/lastmile_qr_scan", "android": "https://dc.lft.to/lastmile_qr_scan"}}, {"name": "56f530b159d261e73f803d14e15d3ea8", "fusion_lat": 0.0, "type": "electric_scooter", "lat": 38.896573833333335, "is_reserved": 0, "is_disabled": 0, "fusion_lon": 0.0, "bike_id": "56f530b159d261e73f803d14e15d3ea8", "lon": -77.05036, "rental_uris": {"ios": "https://dc.lft.to/lastmile_qr_scan", "android": "https://dc.lft.to/lastmile_qr_scan"}}, {"name": "f26defcf19ccf95478578f7a674009e8", "fusion_lat": 0.0, "type": "electric_scooter", "lat": 38.93684483333333, "is_reserved": 0, "is_disabled": 0, "fusion_lon": 0.0, "bike_id": "f26defcf19ccf95478578f7a674009e8", "lon": -77.03280916666667, "rental_uris": {"ios": "https://dc.lft.to/lastmile_qr_scan", "android": "https://dc.lft.to/lastmile_qr_scan"}}, {"name": "b9558cedcb9be680de3804c42aa33de4", "fusion_lat": 0.0, "type": "electric_scooter", "lat": 38.9201815, "is_reserved": 0, "is_disabled": 0, "fusion_lon": 0.0, "bike_id": "b9558cedcb9be680de3804c42aa33de4", "lon": -77.034734, "rental_uris": {"ios": "https://dc.lft.to/lastmile_qr_scan", "android": "https://dc.lft.to/lastmile_qr_scan"}}, {"name": "16da0fea230a5eb7cc695ac19910973f", "fusion_lat": 0.0, "type": "electric_scooter", "lat": 38.905901666666665, "is_reserved": 0, "is_disabled": 0, "fusion_lon": 0.0, "bike_id": "16da0fea230a5eb7cc695ac19910973f", "lon": -77.00384816666667, "rental_uris": {"ios": "https://dc.lft.to/lastmile_qr_scan", "android": "https://dc.lft.to/lastmile_qr_scan"}}, {"name": "d71dec78d45037a0aa5ffd6fdba2e159", "fusion_lat": 0.0, "type": "electric_scooter", "lat": 38.9224065, "is_reserved": 0, "is_disabled": 0, "fusion_lon": 0.0, "bike_id": "d71dec78d45037a0aa5ffd6fdba2e159", "lon": -77.03667366666667, "rental_uris": {"ios": "https://dc.lft.to/lastmile_qr_scan", "android": "https://dc.lft.to/lastmile_qr_scan"}}, {"name": "be29a6af52958ba030992ee67b31f52c", "fusion_lat": 0.0, "type": "electric_scooter", "lat": 38.896128166666664, "is_reserved": 0, "is_disabled": 0, "fusion_lon": 0.0, "bike_id": "be29a6af52958ba030992ee67b31f52c", "lon": -77.04687166666666, "rental_uris": {"ios": "https://dc.lft.to/lastmile_qr_scan", "android": "https://dc.lft.to/lastmile_qr_scan"}}, {"name": "ad342e2fd7ce90a97ecf84bfb5594e57", "fusion_lat": 0.0, "type": "electric_scooter", "lat": 38.961786000000004, "is_reserved": 0, "is_disabled": 0, "fusion_lon": 0.0, "bike_id": "ad342e2fd7ce90a97ecf84bfb5594e57", "lon": -77.03229516666667, "rental_uris": {"ios": "https://dc.lft.to/lastmile_qr_scan", "android": "https://dc.lft.to/lastmile_qr_scan"}}, {"name": "70272758fc7f9e3622b4cc829d685afa", "fusion_lat": 0.0, "type": "electric_scooter", "lat": 38.9319035, "is_reserved": 0, "is_disabled": 0, "fusion_lon": 0.0, "bike_id": "70272758fc7f9e3622b4cc829d685afa", "lon": -77.02834816666666, "rental_uris": {"ios": "https://dc.lft.to/lastmile_qr_scan", "android": "https://dc.lft.to/lastmile_qr_scan"}}, {"name": "40b8e65ed810a20dfee98991f93b8eef", "fusion_lat": 0.0, "type": "electric_scooter", "lat": 38.9020055, "is_reserved": 0, "is_disabled": 0, "fusion_lon": 0.0, "bike_id": "40b8e65ed810a20dfee98991f93b8eef", "lon": -77.0459045, "rental_uris": {"ios": "https://dc.lft.to/lastmile_qr_scan", "android": "https://dc.lft.to/lastmile_qr_scan"}}, {"name": "41f3804a1233c1638099058f988a7f7c", "fusion_lat": 0.0, "type": "electric_scooter", "lat": 38.918224333333335, "is_reserved": 0, "is_disabled": 0, "fusion_lon": 0.0, "bike_id": "41f3804a1233c1638099058f988a7f7c", "lon": -77.03998483333334, "rental_uris": {"ios": "https://dc.lft.to/lastmile_qr_scan", "android": "https://dc.lft.to/lastmile_qr_scan"}}, {"name": "a448806986ba41ad7ffb400535299454", "fusion_lat": 0.0, "type": "electric_scooter", "lat": 38.90337316666667, "is_reserved": 0, "is_disabled": 0, "fusion_lon": 0.0, "bike_id": "a448806986ba41ad7ffb400535299454", "lon": -76.97107, "rental_uris": {"ios": "https://dc.lft.to/lastmile_qr_scan", "android": "https://dc.lft.to/lastmile_qr_scan"}}, {"name": "f300e6890c1513f6900654e51ac987bc", "fusion_lat": 0.0, "type": "electric_scooter", "lat": 38.90673483333333, "is_reserved": 0, "is_disabled": 0, "fusion_lon": 0.0, "bike_id": "f300e6890c1513f6900654e51ac987bc", "lon": -77.03843833333333, "rental_uris": {"ios": "https://dc.lft.to/lastmile_qr_scan", "android": "https://dc.lft.to/lastmile_qr_scan"}}, {"name": "5a164f4371848e4e95894371acf71cb4", "fusion_lat": 0.0, "type": "electric_scooter", "lat": 38.893897833333334, "is_reserved": 0, "is_disabled": 0, "fusion_lon": 0.0, "bike_id": "5a164f4371848e4e95894371acf71cb4", "lon": -77.05477083333334, "rental_uris": {"ios": "https://dc.lft.to/lastmile_qr_scan", "android": "https://dc.lft.to/lastmile_qr_scan"}}, {"name": "7584c5bc8acc5224be6431a25b889d61", "fusion_lat": 0.0, "type": "electric_scooter", "lat": 38.90031583333333, "is_reserved": 0, "is_disabled": 0, "fusion_lon": 0.0, "bike_id": "7584c5bc8acc5224be6431a25b889d61", "lon": -77.00207983333334, "rental_uris": {"ios": "https://dc.lft.to/lastmile_qr_scan", "android": "https://dc.lft.to/lastmile_qr_scan"}}, {"name": "f6584a40985020eeb28b1516e9fde101", "fusion_lat": 0.0, "type": "electric_scooter", "lat": 38.900483, "is_reserved": 0, "is_disabled": 0, "fusion_lon": 0.0, "bike_id": "f6584a40985020eeb28b1516e9fde101", "lon": -76.9475595, "rental_uris": {"ios": "https://dc.lft.to/lastmile_qr_scan", "android": "https://dc.lft.to/lastmile_qr_scan"}}, {"name": "578e9052b491a62f3a98b3ed11ff11f4", "fusion_lat": 0.0, "type": "electric_bike", "lat": 38.865913, "is_reserved": 0, "is_disabled": 0, "fusion_lon": 0.0, "bike_id": "578e9052b491a62f3a98b3ed11ff11f4", "lon": -76.93232433333333, "rental_uris": {"ios": "https://dc.lft.to/lastmile_qr_scan", "android": "https://dc.lft.to/lastmile_qr_scan"}}, {"name": "dd5208cefc3e96cd4a1fc59cd98bac30", "fusion_lat": 0.0, "type": "electric_scooter", "lat": 38.883860166666665, "is_reserved": 0, "is_disabled": 0, "fusion_lon": 0.0, "bike_id": "dd5208cefc3e96cd4a1fc59cd98bac30", "lon": -76.985408, "rental_uris": {"ios": "https://dc.lft.to/lastmile_qr_scan", "android": "https://dc.lft.to/lastmile_qr_scan"}}, {"name": "cc2c6164490bf1c4867a56b3e0997485", "fusion_lat": 0.0, "type": "electric_bike", "lat": 38.98460133333333, "is_reserved": 0, "is_disabled": 0, "fusion_lon": 0.0, "bike_id": "cc2c6164490bf1c4867a56b3e0997485", "lon": -76.95528183333333, "rental_uris": {"ios": "https://dc.lft.to/lastmile_qr_scan", "android": "https://dc.lft.to/lastmile_qr_scan"}}, {"name": "a42520790ccf917e7ffc76d4f56a792c", "fusion_lat": 0.0, "type": "electric_scooter", "lat": 38.89556366666667, "is_reserved": 0, "is_disabled": 0, "fusion_lon": 0.0, "bike_id": "a42520790ccf917e7ffc76d4f56a792c", "lon": -76.983716, "rental_uris": {"ios": "https://dc.lft.to/lastmile_qr_scan", "android": "https://dc.lft.to/lastmile_qr_scan"}}, {"name": "9882e3be24b3471f6428c148b88e9899", "fusion_lat": 0.0, "type": "electric_scooter", "lat": 38.880424833333336, "is_reserved": 0, "is_disabled": 0, "fusion_lon": 0.0, "bike_id": "9882e3be24b3471f6428c148b88e9899", "lon": -76.9599145, "rental_uris": {"ios": "https://dc.lft.to/lastmile_qr_scan", "android": "https://dc.lft.to/lastmile_qr_scan"}}, {"name": "db5a1cc0a86a71528f0658fae99a4218", "fusion_lat": 0.0, "type": "electric_scooter", "lat": 38.8783995, "is_reserved": 0, "is_disabled": 0, "fusion_lon": 0.0, "bike_id": "db5a1cc0a86a71528f0658fae99a4218", "lon": -77.0228375, "rental_uris": {"ios": "https://dc.lft.to/lastmile_qr_scan", "android": "https://dc.lft.to/lastmile_qr_scan"}}, {"name": "e37ea7af5f6027b588e8b4608913e668", "fusion_lat": 0.0, "type": "electric_bike", "lat": 38.85221383333333, "is_reserved": 0, "is_disabled": 0, "fusion_lon": 0.0, "bike_id": "e37ea7af5f6027b588e8b4608913e668", "lon": -77.1295595, "rental_uris": {"ios": "https://dc.lft.to/lastmile_qr_scan", "android": "https://dc.lft.to/lastmile_qr_scan"}}, {"name": "3de29befdac31e9dc45f78e5d8603041", "fusion_lat": 0.0, "type": "electric_scooter", "lat": 38.87835483333333, "is_reserved": 0, "is_disabled": 0, "fusion_lon": 0.0, "bike_id": "3de29befdac31e9dc45f78e5d8603041", "lon": -77.02264283333334, "rental_uris": {"ios": "https://dc.lft.to/lastmile_qr_scan", "android": "https://dc.lft.to/lastmile_qr_scan"}}, {"name": "ad1156c94a7d383e7ff8315c00e8ac64", "fusion_lat": 0.0, "type": "electric_scooter", "lat": 38.93911816666667, "is_reserved": 0, "is_disabled": 0, "fusion_lon": 0.0, "bike_id": "ad1156c94a7d383e7ff8315c00e8ac64", "lon": -77.03665016666666, "rental_uris": {"ios": "https://dc.lft.to/lastmile_qr_scan", "android": "https://dc.lft.to/lastmile_qr_scan"}}, {"name": "02c57d6e930b4026fa3bcea65e9ec6e7", "fusion_lat": 0.0, "type": "electric_scooter", "lat": 38.9304735, "is_reserved": 0, "is_disabled": 0, "fusion_lon": 0.0, "bike_id": "02c57d6e930b4026fa3bcea65e9ec6e7", "lon": -77.02318366666667, "rental_uris": {"ios": "https://dc.lft.to/lastmile_qr_scan", "android": "https://dc.lft.to/lastmile_qr_scan"}}, {"name": "37b05e75f3cfdd03efb540270d39d177", "fusion_lat": 0.0, "type": "electric_scooter", "lat": 38.902698666666666, "is_reserved": 0, "is_disabled": 0, "fusion_lon": 0.0, "bike_id": "37b05e75f3cfdd03efb540270d39d177", "lon": -77.01765316666666, "rental_uris": {"ios": "https://dc.lft.to/lastmile_qr_scan", "android": "https://dc.lft.to/lastmile_qr_scan"}}, {"name": "fed74ed4a9db118e7b9eaff7f95b48e8", "fusion_lat": 0.0, "type": "electric_scooter", "lat": 38.952251, "is_reserved": 0, "is_disabled": 0, "fusion_lon": 0.0, "bike_id": "fed74ed4a9db118e7b9eaff7f95b48e8", "lon": -77.07071633333334, "rental_uris": {"ios": "https://dc.lft.to/lastmile_qr_scan", "android": "https://dc.lft.to/lastmile_qr_scan"}}, {"name": "93f85ace3302f79b1e17587b09fadec3", "fusion_lat": 0.0, "type": "electric_scooter", "lat": 38.910549833333334, "is_reserved": 0, "is_disabled": 0, "fusion_lon": 0.0, "bike_id": "93f85ace3302f79b1e17587b09fadec3", "lon": -77.045792, "rental_uris": {"ios": "https://dc.lft.to/lastmile_qr_scan", "android": "https://dc.lft.to/lastmile_qr_scan"}}, {"name": "5fada1cb03a46bb4367e4cdc1524f9e3", "fusion_lat": 0.0, "type": "electric_bike", "lat": 38.82727233333333, "is_reserved": 0, "is_disabled": 0, "fusion_lon": 0.0, "bike_id": "5fada1cb03a46bb4367e4cdc1524f9e3", "lon": -77.008588, "rental_uris": {"ios": "https://dc.lft.to/lastmile_qr_scan", "android": "https://dc.lft.to/lastmile_qr_scan"}}, {"name": "e2028e6b21df0d00b778fd30ca9836af", "fusion_lat": 0.0, "type": "electric_scooter", "lat": 38.89484016666667, "is_reserved": 0, "is_disabled": 0, "fusion_lon": 0.0, "bike_id": "e2028e6b21df0d00b778fd30ca9836af", "lon": -76.948731, "rental_uris": {"ios": "https://dc.lft.to/lastmile_qr_scan", "android": "https://dc.lft.to/lastmile_qr_scan"}}, {"name": "c740857f7a35e94022eb3967e3837274", "fusion_lat": 0.0, "type": "electric_scooter", "lat": 38.865032666666664, "is_reserved": 0, "is_disabled": 0, "fusion_lon": 0.0, "bike_id": "c740857f7a35e94022eb3967e3837274", "lon": -76.99000733333334, "rental_uris": {"ios": "https://dc.lft.to/lastmile_qr_scan", "android": "https://dc.lft.to/lastmile_qr_scan"}}, {"name": "4aa08fd163486e184d96fcb642812370", "fusion_lat": 0.0, "type": "electric_scooter", "lat": 38.918967333333335, "is_reserved": 0, "is_disabled": 0, "fusion_lon": 0.0, "bike_id": "4aa08fd163486e184d96fcb642812370", "lon": -77.05291, "rental_uris": {"ios": "https://dc.lft.to/lastmile_qr_scan", "android": "https://dc.lft.to/lastmile_qr_scan"}}, {"name": "f410ce405bff656ae9620e4b97e2af12", "fusion_lat": 0.0, "type": "electric_scooter", "lat": 38.91917983333333, "is_reserved": 0, "is_disabled": 0, "fusion_lon": 0.0, "bike_id": "f410ce405bff656ae9620e4b97e2af12", "lon": -77.03426516666667, "rental_uris": {"ios": "https://dc.lft.to/lastmile_qr_scan", "android": "https://dc.lft.to/lastmile_qr_scan"}}, {"name": "91b420a0cc7b54ddeaead1c3940d0bc9", "fusion_lat": 0.0, "type": "electric_scooter", "lat": 38.93190333333333, "is_reserved": 0, "is_disabled": 0, "fusion_lon": 0.0, "bike_id": "91b420a0cc7b54ddeaead1c3940d0bc9", "lon": -77.02836933333333, "rental_uris": {"ios": "https://dc.lft.to/lastmile_qr_scan", "android": "https://dc.lft.to/lastmile_qr_scan"}}, {"name": "86f0a9e4b20523dbfbbcd6ec3e349e64", "fusion_lat": 0.0, "type": "electric_scooter", "lat": 38.909670166666665, "is_reserved": 0, "is_disabled": 0, "fusion_lon": 0.0, "bike_id": "86f0a9e4b20523dbfbbcd6ec3e349e64", "lon": -77.0217855, "rental_uris": {"ios": "https://dc.lft.to/lastmile_qr_scan", "android": "https://dc.lft.to/lastmile_qr_scan"}}, {"name": "28463a19caa9cdda28553e46ab7838ba", "fusion_lat": 0.0, "type": "electric_scooter", "lat": 38.89492083333333, "is_reserved": 0, "is_disabled": 0, "fusion_lon": 0.0, "bike_id": "28463a19caa9cdda28553e46ab7838ba", "lon": -77.02383516666667, "rental_uris": {"ios": "https://dc.lft.to/lastmile_qr_scan", "android": "https://dc.lft.to/lastmile_qr_scan"}}, {"name": "efb0bf0b2ae1eb936c75dfe028a6b8d4", "fusion_lat": 0.0, "type": "electric_scooter", "lat": 38.92581766666667, "is_reserved": 0, "is_disabled": 0, "fusion_lon": 0.0, "bike_id": "efb0bf0b2ae1eb936c75dfe028a6b8d4", "lon": -77.0527555, "rental_uris": {"ios": "https://dc.lft.to/lastmile_qr_scan", "android": "https://dc.lft.to/lastmile_qr_scan"}}, {"name": "d210f4cda6d17807e70c296662a3d6fb", "fusion_lat": 0.0, "type": "electric_scooter", "lat": 38.90126033333333, "is_reserved": 0, "is_disabled": 0, "fusion_lon": 0.0, "bike_id": "d210f4cda6d17807e70c296662a3d6fb", "lon": -77.03349783333333, "rental_uris": {"ios": "https://dc.lft.to/lastmile_qr_scan", "android": "https://dc.lft.to/lastmile_qr_scan"}}, {"name": "9259a88c725af6161a5ff7789429c3ba", "fusion_lat": 0.0, "type": "electric_scooter", "lat": 38.9232695, "is_reserved": 0, "is_disabled": 0, "fusion_lon": 0.0, "bike_id": "9259a88c725af6161a5ff7789429c3ba", "lon": -77.0543735, "rental_uris": {"ios": "https://dc.lft.to/lastmile_qr_scan", "android": "https://dc.lft.to/lastmile_qr_scan"}}, {"name": "e71b7cabc0e8afa24ce15ef780c6ca92", "fusion_lat": 0.0, "type": "electric_scooter", "lat": 38.8867075, "is_reserved": 0, "is_disabled": 0, "fusion_lon": 0.0, "bike_id": "e71b7cabc0e8afa24ce15ef780c6ca92", "lon": -76.93615116666666, "rental_uris": {"ios": "https://dc.lft.to/lastmile_qr_scan", "android": "https://dc.lft.to/lastmile_qr_scan"}}, {"name": "4245a0db187adf750dc5f73978d75584", "fusion_lat": 0.0, "type": "electric_scooter", "lat": 38.90037683333333, "is_reserved": 0, "is_disabled": 0, "fusion_lon": 0.0, "bike_id": "4245a0db187adf750dc5f73978d75584", "lon": -76.9191645, "rental_uris": {"ios": "https://dc.lft.to/lastmile_qr_scan", "android": "https://dc.lft.to/lastmile_qr_scan"}}, {"name": "37e19466fc6cf20de7fadc6dc0e89eb1", "fusion_lat": 0.0, "type": "electric_scooter", "lat": 38.9203535, "is_reserved": 0, "is_disabled": 0, "fusion_lon": 0.0, "bike_id": "37e19466fc6cf20de7fadc6dc0e89eb1", "lon": -77.02591933333333, "rental_uris": {"ios": "https://dc.lft.to/lastmile_qr_scan", "android": "https://dc.lft.to/lastmile_qr_scan"}}, {"name": "78ef4b94a32d0206e9ef4920ab9b6110", "fusion_lat": 0.0, "type": "electric_scooter", "lat": 38.898830333333336, "is_reserved": 0, "is_disabled": 0, "fusion_lon": 0.0, "bike_id": "78ef4b94a32d0206e9ef4920ab9b6110", "lon": -76.93178666666667, "rental_uris": {"ios": "https://dc.lft.to/lastmile_qr_scan", "android": "https://dc.lft.to/lastmile_qr_scan"}}, {"name": "19f1c3b4b0a40b79ea406a53c2d7bde2", "fusion_lat": 0.0, "type": "electric_scooter", "lat": 38.905762833333334, "is_reserved": 0, "is_disabled": 0, "fusion_lon": 0.0, "bike_id": "19f1c3b4b0a40b79ea406a53c2d7bde2", "lon": -77.02210466666666, "rental_uris": {"ios": "https://dc.lft.to/lastmile_qr_scan", "android": "https://dc.lft.to/lastmile_qr_scan"}}, {"name": "9dea50809dc81e400c805da5a24b059c", "fusion_lat": 0.0, "type": "electric_scooter", "lat": 38.91546433333333, "is_reserved": 0, "is_disabled": 0, "fusion_lon": 0.0, "bike_id": "9dea50809dc81e400c805da5a24b059c", "lon": -77.0197045, "rental_uris": {"ios": "https://dc.lft.to/lastmile_qr_scan", "android": "https://dc.lft.to/lastmile_qr_scan"}}, {"name": "baa1ce7df05898c1093e5f7c3fdc7747", "fusion_lat": 0.0, "type": "electric_scooter", "lat": 38.90532616666667, "is_reserved": 0, "is_disabled": 0, "fusion_lon": 0.0, "bike_id": "baa1ce7df05898c1093e5f7c3fdc7747", "lon": -77.050146, "rental_uris": {"ios": "https://dc.lft.to/lastmile_qr_scan", "android": "https://dc.lft.to/lastmile_qr_scan"}}, {"name": "1f7fd371fcfe1d9ba6fb13e579bba3d7", "fusion_lat": 0.0, "type": "electric_scooter", "lat": 38.9179655, "is_reserved": 0, "is_disabled": 0, "fusion_lon": 0.0, "bike_id": "1f7fd371fcfe1d9ba6fb13e579bba3d7", "lon": -77.02817583333334, "rental_uris": {"ios": "https://dc.lft.to/lastmile_qr_scan", "android": "https://dc.lft.to/lastmile_qr_scan"}}, {"name": "c099348df6f2a1a3e9af5f4a4f98d34b", "fusion_lat": 0.0, "type": "electric_scooter", "lat": 38.93386733333333, "is_reserved": 0, "is_disabled": 0, "fusion_lon": 0.0, "bike_id": "c099348df6f2a1a3e9af5f4a4f98d34b", "lon": -77.03157266666666, "rental_uris": {"ios": "https://dc.lft.to/lastmile_qr_scan", "android": "https://dc.lft.to/lastmile_qr_scan"}}, {"name": "eeec6b84125b87f7233823e0a21d6123", "fusion_lat": 0.0, "type": "electric_scooter", "lat": 38.876471333333335, "is_reserved": 0, "is_disabled": 0, "fusion_lon": 0.0, "bike_id": "eeec6b84125b87f7233823e0a21d6123", "lon": -76.9651035, "rental_uris": {"ios": "https://dc.lft.to/lastmile_qr_scan", "android": "https://dc.lft.to/lastmile_qr_scan"}}, {"name": "0d8c5957694194f16b636b4533c88b1d", "fusion_lat": 0.0, "type": "electric_scooter", "lat": 38.912109, "is_reserved": 0, "is_disabled": 0, "fusion_lon": 0.0, "bike_id": "0d8c5957694194f16b636b4533c88b1d", "lon": -77.07597916666667, "rental_uris": {"ios": "https://dc.lft.to/lastmile_qr_scan", "android": "https://dc.lft.to/lastmile_qr_scan"}}, {"name": "423e0c72fa31e805f0268ac032f3a1f2", "fusion_lat": 0.0, "type": "electric_bike", "lat": 38.9938985, "is_reserved": 0, "is_disabled": 0, "fusion_lon": 0.0, "bike_id": "423e0c72fa31e805f0268ac032f3a1f2", "lon": -77.02539983333334, "rental_uris": {"ios": "https://dc.lft.to/lastmile_qr_scan", "android": "https://dc.lft.to/lastmile_qr_scan"}}, {"name": "357a5c2862543d63aa72f73af0c16d71", "fusion_lat": 0.0, "type": "electric_scooter", "lat": 38.894789333333335, "is_reserved": 0, "is_disabled": 0, "fusion_lon": 0.0, "bike_id": "357a5c2862543d63aa72f73af0c16d71", "lon": -76.94877433333333, "rental_uris": {"ios": "https://dc.lft.to/lastmile_qr_scan", "android": "https://dc.lft.to/lastmile_qr_scan"}}, {"name": "d309620c5c54b389f7bf10d00c9e5389", "fusion_lat": 0.0, "type": "electric_scooter", "lat": 38.899117833333335, "is_reserved": 0, "is_disabled": 0, "fusion_lon": 0.0, "bike_id": "d309620c5c54b389f7bf10d00c9e5389", "lon": -77.0709825, "rental_uris": {"ios": "https://dc.lft.to/lastmile_qr_scan", "android": "https://dc.lft.to/lastmile_qr_scan"}}, {"name": "c879dcb2836b33c4e4c5e62445569999", "fusion_lat": 0.0, "type": "electric_scooter", "lat": 38.905007833333336, "is_reserved": 0, "is_disabled": 0, "fusion_lon": 0.0, "bike_id": "c879dcb2836b33c4e4c5e62445569999", "lon": -77.05111833333333, "rental_uris": {"ios": "https://dc.lft.to/lastmile_qr_scan", "android": "https://dc.lft.to/lastmile_qr_scan"}}, {"name": "f7008e9a570d781fd1a036963298cc4c", "fusion_lat": 0.0, "type": "electric_scooter", "lat": 38.911933833333336, "is_reserved": 0, "is_disabled": 0, "fusion_lon": 0.0, "bike_id": "f7008e9a570d781fd1a036963298cc4c", "lon": -77.06098083333333, "rental_uris": {"ios": "https://dc.lft.to/lastmile_qr_scan", "android": "https://dc.lft.to/lastmile_qr_scan"}}, {"name": "17dd4a3258f0d4fdf226320ae50de391", "fusion_lat": 0.0, "type": "electric_scooter", "lat": 38.889994333333334, "is_reserved": 0, "is_disabled": 0, "fusion_lon": 0.0, "bike_id": "17dd4a3258f0d4fdf226320ae50de391", "lon": -76.95417216666667, "rental_uris": {"ios": "https://dc.lft.to/lastmile_qr_scan", "android": "https://dc.lft.to/lastmile_qr_scan"}}, {"name": "408a7eafa5a422c06b606c9811f9595e", "fusion_lat": 0.0, "type": "electric_scooter", "lat": 38.9025455, "is_reserved": 0, "is_disabled": 0, "fusion_lon": 0.0, "bike_id": "408a7eafa5a422c06b606c9811f9595e", "lon": -77.04363533333333, "rental_uris": {"ios": "https://dc.lft.to/lastmile_qr_scan", "android": "https://dc.lft.to/lastmile_qr_scan"}}, {"name": "9fa4abff9c781a550a9f90a813cad874", "fusion_lat": 0.0, "type": "electric_scooter", "lat": 38.912724, "is_reserved": 0, "is_disabled": 0, "fusion_lon": 0.0, "bike_id": "9fa4abff9c781a550a9f90a813cad874", "lon": -77.041611, "rental_uris": {"ios": "https://dc.lft.to/lastmile_qr_scan", "android": "https://dc.lft.to/lastmile_qr_scan"}}, {"name": "79abf393cb42c3d28f851720a9470130", "fusion_lat": 0.0, "type": "electric_bike", "lat": 38.936989833333335, "is_reserved": 0, "is_disabled": 0, "fusion_lon": 0.0, "bike_id": "79abf393cb42c3d28f851720a9470130", "lon": -77.02409433333334, "rental_uris": {"ios": "https://dc.lft.to/lastmile_qr_scan", "android": "https://dc.lft.to/lastmile_qr_scan"}}, {"name": "5456fed6ce79e7b61b9c9d94428a6d5a", "fusion_lat": 0.0, "type": "electric_scooter", "lat": 38.90562633333333, "is_reserved": 0, "is_disabled": 0, "fusion_lon": 0.0, "bike_id": "5456fed6ce79e7b61b9c9d94428a6d5a", "lon": -77.02221483333334, "rental_uris": {"ios": "https://dc.lft.to/lastmile_qr_scan", "android": "https://dc.lft.to/lastmile_qr_scan"}}, {"name": "0c01c0fcf2ea49a7b21eba309114bbcd", "fusion_lat": 0.0, "type": "electric_scooter", "lat": 38.88737866666666, "is_reserved": 0, "is_disabled": 0, "fusion_lon": 0.0, "bike_id": "0c01c0fcf2ea49a7b21eba309114bbcd", "lon": -77.02137833333333, "rental_uris": {"ios": "https://dc.lft.to/lastmile_qr_scan", "android": "https://dc.lft.to/lastmile_qr_scan"}}, {"name": "8e3599f40fadcf8094c04fb0fe6965d3", "fusion_lat": 0.0, "type": "electric_scooter", "lat": 38.9252855, "is_reserved": 0, "is_disabled": 0, "fusion_lon": 0.0, "bike_id": "8e3599f40fadcf8094c04fb0fe6965d3", "lon": -77.0555345, "rental_uris": {"ios": "https://dc.lft.to/lastmile_qr_scan", "android": "https://dc.lft.to/lastmile_qr_scan"}}, {"name": "cf919836b14f77a4ac4a65aff04ddc26", "fusion_lat": 0.0, "type": "electric_scooter", "lat": 38.903343666666665, "is_reserved": 0, "is_disabled": 0, "fusion_lon": 0.0, "bike_id": "cf919836b14f77a4ac4a65aff04ddc26", "lon": -77.06549233333334, "rental_uris": {"ios": "https://dc.lft.to/lastmile_qr_scan", "android": "https://dc.lft.to/lastmile_qr_scan"}}, {"name": "f376266ee553d76d690b3b22cbf3c129", "fusion_lat": 0.0, "type": "electric_bike", "lat": 38.881108, "is_reserved": 0, "is_disabled": 0, "fusion_lon": 0.0, "bike_id": "f376266ee553d76d690b3b22cbf3c129", "lon": -77.01672916666666, "rental_uris": {"ios": "https://dc.lft.to/lastmile_qr_scan", "android": "https://dc.lft.to/lastmile_qr_scan"}}, {"name": "eb1b062e9c0093af92488df64197fb4e", "fusion_lat": 0.0, "type": "electric_scooter", "lat": 38.89966316666667, "is_reserved": 0, "is_disabled": 0, "fusion_lon": 0.0, "bike_id": "eb1b062e9c0093af92488df64197fb4e", "lon": -76.93966533333334, "rental_uris": {"ios": "https://dc.lft.to/lastmile_qr_scan", "android": "https://dc.lft.to/lastmile_qr_scan"}}, {"name": "796b5afa7cc4ed5eee97b3d145c35b77", "fusion_lat": 0.0, "type": "electric_scooter", "lat": 38.897407333333334, "is_reserved": 0, "is_disabled": 0, "fusion_lon": 0.0, "bike_id": "796b5afa7cc4ed5eee97b3d145c35b77", "lon": -77.031085, "rental_uris": {"ios": "https://dc.lft.to/lastmile_qr_scan", "android": "https://dc.lft.to/lastmile_qr_scan"}}, {"name": "a49d09bc9630d5b6e698f49ccf352c37", "fusion_lat": 0.0, "type": "electric_scooter", "lat": 38.88428366666667, "is_reserved": 0, "is_disabled": 0, "fusion_lon": 0.0, "bike_id": "a49d09bc9630d5b6e698f49ccf352c37", "lon": -76.957609, "rental_uris": {"ios": "https://dc.lft.to/lastmile_qr_scan", "android": "https://dc.lft.to/lastmile_qr_scan"}}, {"name": "727020879d0b5de7f593aacf2e952e09", "fusion_lat": 0.0, "type": "electric_scooter", "lat": 38.85709416666667, "is_reserved": 0, "is_disabled": 0, "fusion_lon": 0.0, "bike_id": "727020879d0b5de7f593aacf2e952e09", "lon": -76.98127383333333, "rental_uris": {"ios": "https://dc.lft.to/lastmile_qr_scan", "android": "https://dc.lft.to/lastmile_qr_scan"}}, {"name": "88682672e60b9ddfd9c4002fc3139053", "fusion_lat": 0.0, "type": "electric_scooter", "lat": 38.93187433333333, "is_reserved": 0, "is_disabled": 0, "fusion_lon": 0.0, "bike_id": "88682672e60b9ddfd9c4002fc3139053", "lon": -77.0283595, "rental_uris": {"ios": "https://dc.lft.to/lastmile_qr_scan", "android": "https://dc.lft.to/lastmile_qr_scan"}}, {"name": "b681325ea1e39b46cd84331799ace849", "fusion_lat": 0.0, "type": "electric_bike", "lat": 38.848443333333336, "is_reserved": 0, "is_disabled": 0, "fusion_lon": 0.0, "bike_id": "b681325ea1e39b46cd84331799ace849", "lon": -77.08051533333334, "rental_uris": {"ios": "https://dc.lft.to/lastmile_qr_scan", "android": "https://dc.lft.to/lastmile_qr_scan"}}, {"name": "659fef1a36c902ec11d30a7902cf0c00", "fusion_lat": 0.0, "type": "electric_scooter", "lat": 38.90723966666667, "is_reserved": 0, "is_disabled": 0, "fusion_lon": 0.0, "bike_id": "659fef1a36c902ec11d30a7902cf0c00", "lon": -77.02979283333333, "rental_uris": {"ios": "https://dc.lft.to/lastmile_qr_scan", "android": "https://dc.lft.to/lastmile_qr_scan"}}, {"name": "26f2e47a81beda05cc10a272cb970480", "fusion_lat": 0.0, "type": "electric_scooter", "lat": 38.9396775, "is_reserved": 0, "is_disabled": 0, "fusion_lon": 0.0, "bike_id": "26f2e47a81beda05cc10a272cb970480", "lon": -77.03555533333333, "rental_uris": {"ios": "https://dc.lft.to/lastmile_qr_scan", "android": "https://dc.lft.to/lastmile_qr_scan"}}, {"name": "7866e22c50b08d22198ee1fb76b2889d", "fusion_lat": 0.0, "type": "electric_bike", "lat": 38.91268566666667, "is_reserved": 0, "is_disabled": 0, "fusion_lon": 0.0, "bike_id": "7866e22c50b08d22198ee1fb76b2889d", "lon": -77.0304245, "rental_uris": {"ios": "https://dc.lft.to/lastmile_qr_scan", "android": "https://dc.lft.to/lastmile_qr_scan"}}, {"name": "d3ad599256d3106d9dfef280f29e0f9d", "fusion_lat": 0.0, "type": "electric_bike", "lat": 38.8707125, "is_reserved": 0, "is_disabled": 0, "fusion_lon": 0.0, "bike_id": "d3ad599256d3106d9dfef280f29e0f9d", "lon": -77.11061833333333, "rental_uris": {"ios": "https://dc.lft.to/lastmile_qr_scan", "android": "https://dc.lft.to/lastmile_qr_scan"}}, {"name": "9859d40d5288412a7d1de59c9368b259", "fusion_lat": 0.0, "type": "electric_scooter", "lat": 38.917646833333336, "is_reserved": 0, "is_disabled": 0, "fusion_lon": 0.0, "bike_id": "9859d40d5288412a7d1de59c9368b259", "lon": -77.01756533333334, "rental_uris": {"ios": "https://dc.lft.to/lastmile_qr_scan", "android": "https://dc.lft.to/lastmile_qr_scan"}}, {"name": "24049d40cc3f416ffec4192e3b080aa6", "fusion_lat": 0.0, "type": "electric_bike", "lat": 38.96505583333333, "is_reserved": 0, "is_disabled": 0, "fusion_lon": 0.0, "bike_id": "24049d40cc3f416ffec4192e3b080aa6", "lon": -77.0281375, "rental_uris": {"ios": "https://dc.lft.to/lastmile_qr_scan", "android": "https://dc.lft.to/lastmile_qr_scan"}}, {"name": "10064555f710926c86e75c4c36133cde", "fusion_lat": 0.0, "type": "electric_scooter", "lat": 38.89734283333333, "is_reserved": 0, "is_disabled": 0, "fusion_lon": 0.0, "bike_id": "10064555f710926c86e75c4c36133cde", "lon": -77.047186, "rental_uris": {"ios": "https://dc.lft.to/lastmile_qr_scan", "android": "https://dc.lft.to/lastmile_qr_scan"}}, {"name": "5815290320d05fdb95361d78fb042606", "fusion_lat": 0.0, "type": "electric_scooter", "lat": 38.90117766666667, "is_reserved": 0, "is_disabled": 0, "fusion_lon": 0.0, "bike_id": "5815290320d05fdb95361d78fb042606", "lon": -77.03976383333334, "rental_uris": {"ios": "https://dc.lft.to/lastmile_qr_scan", "android": "https://dc.lft.to/lastmile_qr_scan"}}, {"name": "a7a452ea1fc17d681ddba778c1d582bc", "fusion_lat": 0.0, "type": "electric_scooter", "lat": 38.889888, "is_reserved": 0, "is_disabled": 0, "fusion_lon": 0.0, "bike_id": "a7a452ea1fc17d681ddba778c1d582bc", "lon": -77.00126966666667, "rental_uris": {"ios": "https://dc.lft.to/lastmile_qr_scan", "android": "https://dc.lft.to/lastmile_qr_scan"}}, {"name": "a139c35990734987a2521cf82cea80e8", "fusion_lat": 0.0, "type": "electric_scooter", "lat": 38.8774855, "is_reserved": 0, "is_disabled": 0, "fusion_lon": 0.0, "bike_id": "a139c35990734987a2521cf82cea80e8", "lon": -76.97241566666666, "rental_uris": {"ios": "https://dc.lft.to/lastmile_qr_scan", "android": "https://dc.lft.to/lastmile_qr_scan"}}, {"name": "3406c4c38b0aa72a8ede6149d7307eea", "fusion_lat": 0.0, "type": "electric_scooter", "lat": 38.94838283333333, "is_reserved": 0, "is_disabled": 0, "fusion_lon": 0.0, "bike_id": "3406c4c38b0aa72a8ede6149d7307eea", "lon": -77.02558716666667, "rental_uris": {"ios": "https://dc.lft.to/lastmile_qr_scan", "android": "https://dc.lft.to/lastmile_qr_scan"}}, {"name": "b74d8317f037b4f940b2a75669a0a93f", "fusion_lat": 0.0, "type": "electric_scooter", "lat": 38.91873016666667, "is_reserved": 0, "is_disabled": 0, "fusion_lon": 0.0, "bike_id": "b74d8317f037b4f940b2a75669a0a93f", "lon": -77.0734295, "rental_uris": {"ios": "https://dc.lft.to/lastmile_qr_scan", "android": "https://dc.lft.to/lastmile_qr_scan"}}, {"name": "0a4b8c2651e9a61cca21ed45b3b7c435", "fusion_lat": 0.0, "type": "electric_scooter", "lat": 38.915622166666665, "is_reserved": 0, "is_disabled": 0, "fusion_lon": 0.0, "bike_id": "0a4b8c2651e9a61cca21ed45b3b7c435", "lon": -77.03242566666667, "rental_uris": {"ios": "https://dc.lft.to/lastmile_qr_scan", "android": "https://dc.lft.to/lastmile_qr_scan"}}, {"name": "bdee39ffed32ccf5921ea312975de824", "fusion_lat": 0.0, "type": "electric_bike", "lat": 38.90684816666667, "is_reserved": 0, "is_disabled": 0, "fusion_lon": 0.0, "bike_id": "bdee39ffed32ccf5921ea312975de824", "lon": -77.0637375, "rental_uris": {"ios": "https://dc.lft.to/lastmile_qr_scan", "android": "https://dc.lft.to/lastmile_qr_scan"}}, {"name": "29a1a00956b6c57f6f95dfacc990ffc1", "fusion_lat": 0.0, "type": "electric_scooter", "lat": 38.926482166666666, "is_reserved": 0, "is_disabled": 0, "fusion_lon": 0.0, "bike_id": "29a1a00956b6c57f6f95dfacc990ffc1", "lon": -77.033187, "rental_uris": {"ios": "https://dc.lft.to/lastmile_qr_scan", "android": "https://dc.lft.to/lastmile_qr_scan"}}, {"name": "a2c1dd3f6052da9a7aee65734864f55c", "fusion_lat": 0.0, "type": "electric_scooter", "lat": 38.88771416666667, "is_reserved": 0, "is_disabled": 0, "fusion_lon": 0.0, "bike_id": "a2c1dd3f6052da9a7aee65734864f55c", "lon": -76.98024216666667, "rental_uris": {"ios": "https://dc.lft.to/lastmile_qr_scan", "android": "https://dc.lft.to/lastmile_qr_scan"}}, {"name": "7f7ce60fc416ca4b9efbbe1df0bac164", "fusion_lat": 0.0, "type": "electric_scooter", "lat": 38.9097605, "is_reserved": 0, "is_disabled": 0, "fusion_lon": 0.0, "bike_id": "7f7ce60fc416ca4b9efbbe1df0bac164", "lon": -77.0385865, "rental_uris": {"ios": "https://dc.lft.to/lastmile_qr_scan", "android": "https://dc.lft.to/lastmile_qr_scan"}}, {"name": "f32017ea137e6073b8677bcef6174c0d", "fusion_lat": 0.0, "type": "electric_scooter", "lat": 38.90153766666667, "is_reserved": 0, "is_disabled": 0, "fusion_lon": 0.0, "bike_id": "f32017ea137e6073b8677bcef6174c0d", "lon": -77.02276566666667, "rental_uris": {"ios": "https://dc.lft.to/lastmile_qr_scan", "android": "https://dc.lft.to/lastmile_qr_scan"}}, {"name": "e4e323fb640308081b38e411fc19c8b8", "fusion_lat": 0.0, "type": "electric_scooter", "lat": 38.902527, "is_reserved": 0, "is_disabled": 0, "fusion_lon": 0.0, "bike_id": "e4e323fb640308081b38e411fc19c8b8", "lon": -77.01759233333334, "rental_uris": {"ios": "https://dc.lft.to/lastmile_qr_scan", "android": "https://dc.lft.to/lastmile_qr_scan"}}, {"name": "aedf3b4fe5c3470d286aca17342dc801", "fusion_lat": 0.0, "type": "electric_scooter", "lat": 38.915510166666664, "is_reserved": 0, "is_disabled": 0, "fusion_lon": 0.0, "bike_id": "aedf3b4fe5c3470d286aca17342dc801", "lon": -77.04159783333333, "rental_uris": {"ios": "https://dc.lft.to/lastmile_qr_scan", "android": "https://dc.lft.to/lastmile_qr_scan"}}, {"name": "6771444c06d48cb78814783a11389f97", "fusion_lat": 0.0, "type": "electric_bike", "lat": 38.93953616666667, "is_reserved": 0, "is_disabled": 0, "fusion_lon": 0.0, "bike_id": "6771444c06d48cb78814783a11389f97", "lon": -77.360953, "rental_uris": {"ios": "https://dc.lft.to/lastmile_qr_scan", "android": "https://dc.lft.to/lastmile_qr_scan"}}, {"name": "0bbfe289969137a94c47b3b590e3452b", "fusion_lat": 0.0, "type": "electric_scooter", "lat": 38.876917, "is_reserved": 0, "is_disabled": 0, "fusion_lon": 0.0, "bike_id": "0bbfe289969137a94c47b3b590e3452b", "lon": -77.01756566666667, "rental_uris": {"ios": "https://dc.lft.to/lastmile_qr_scan", "android": "https://dc.lft.to/lastmile_qr_scan"}}, {"name": "33f156b1ed7e2da40e191ce2d14982b3", "fusion_lat": 0.0, "type": "electric_scooter", "lat": 38.909698, "is_reserved": 0, "is_disabled": 0, "fusion_lon": 0.0, "bike_id": "33f156b1ed7e2da40e191ce2d14982b3", "lon": -77.02187033333334, "rental_uris": {"ios": "https://dc.lft.to/lastmile_qr_scan", "android": "https://dc.lft.to/lastmile_qr_scan"}}, {"name": "197bb9991ac62dbba50fa2678e05e7ab", "fusion_lat": 0.0, "type": "electric_scooter", "lat": 38.914843833333336, "is_reserved": 0, "is_disabled": 0, "fusion_lon": 0.0, "bike_id": "197bb9991ac62dbba50fa2678e05e7ab", "lon": -77.04096416666667, "rental_uris": {"ios": "https://dc.lft.to/lastmile_qr_scan", "android": "https://dc.lft.to/lastmile_qr_scan"}}, {"name": "be9dfba1ddc81610fa1679156ef5ec71", "fusion_lat": 0.0, "type": "electric_scooter", "lat": 38.90017816666666, "is_reserved": 0, "is_disabled": 0, "fusion_lon": 0.0, "bike_id": "be9dfba1ddc81610fa1679156ef5ec71", "lon": -77.05329566666667, "rental_uris": {"ios": "https://dc.lft.to/lastmile_qr_scan", "android": "https://dc.lft.to/lastmile_qr_scan"}}, {"name": "540b67f712094759efb574925f5d9efa", "fusion_lat": 0.0, "type": "electric_bike", "lat": 38.959258166666665, "is_reserved": 0, "is_disabled": 0, "fusion_lon": 0.0, "bike_id": "540b67f712094759efb574925f5d9efa", "lon": -76.92536716666666, "rental_uris": {"ios": "https://dc.lft.to/lastmile_qr_scan", "android": "https://dc.lft.to/lastmile_qr_scan"}}, {"name": "a94180993a9e6d078b7c0f42c1a81976", "fusion_lat": 0.0, "type": "electric_bike", "lat": 38.926924666666665, "is_reserved": 0, "is_disabled": 0, "fusion_lon": 0.0, "bike_id": "a94180993a9e6d078b7c0f42c1a81976", "lon": -77.00798766666666, "rental_uris": {"ios": "https://dc.lft.to/lastmile_qr_scan", "android": "https://dc.lft.to/lastmile_qr_scan"}}, {"name": "68af79454b03b0278b9e9b0d59c4e5c9", "fusion_lat": 0.0, "type": "electric_scooter", "lat": 38.918179, "is_reserved": 0, "is_disabled": 0, "fusion_lon": 0.0, "bike_id": "68af79454b03b0278b9e9b0d59c4e5c9", "lon": -77.04179216666667, "rental_uris": {"ios": "https://dc.lft.to/lastmile_qr_scan", "android": "https://dc.lft.to/lastmile_qr_scan"}}, {"name": "157c3b2aecd68293f57ac584dafb8616", "fusion_lat": 0.0, "type": "electric_scooter", "lat": 38.935988, "is_reserved": 0, "is_disabled": 0, "fusion_lon": 0.0, "bike_id": "157c3b2aecd68293f57ac584dafb8616", "lon": -77.05636916666667, "rental_uris": {"ios": "https://dc.lft.to/lastmile_qr_scan", "android": "https://dc.lft.to/lastmile_qr_scan"}}, {"name": "4eb6b3099141c88a4799faea3c82e1c9", "fusion_lat": 0.0, "type": "electric_bike", "lat": 38.8775305, "is_reserved": 0, "is_disabled": 0, "fusion_lon": 0.0, "bike_id": "4eb6b3099141c88a4799faea3c82e1c9", "lon": -76.9798395, "rental_uris": {"ios": "https://dc.lft.to/lastmile_qr_scan", "android": "https://dc.lft.to/lastmile_qr_scan"}}, {"name": "09beb8cc432561572f09199f7f473634", "fusion_lat": 0.0, "type": "electric_scooter", "lat": 38.92823716666667, "is_reserved": 0, "is_disabled": 0, "fusion_lon": 0.0, "bike_id": "09beb8cc432561572f09199f7f473634", "lon": -77.022591, "rental_uris": {"ios": "https://dc.lft.to/lastmile_qr_scan", "android": "https://dc.lft.to/lastmile_qr_scan"}}, {"name": "82ba33940352919163eddd35261bcf43", "fusion_lat": 0.0, "type": "electric_bike", "lat": 38.845992333333335, "is_reserved": 0, "is_disabled": 0, "fusion_lon": 0.0, "bike_id": "82ba33940352919163eddd35261bcf43", "lon": -76.96892716666666, "rental_uris": {"ios": "https://dc.lft.to/lastmile_qr_scan", "android": "https://dc.lft.to/lastmile_qr_scan"}}, {"name": "41b74e785fc83e6fdf34a99b15e2db1c", "fusion_lat": 0.0, "type": "electric_scooter", "lat": 38.90282966666667, "is_reserved": 0, "is_disabled": 0, "fusion_lon": 0.0, "bike_id": "41b74e785fc83e6fdf34a99b15e2db1c", "lon": -77.036517, "rental_uris": {"ios": "https://dc.lft.to/lastmile_qr_scan", "android": "https://dc.lft.to/lastmile_qr_scan"}}, {"name": "e385a6ad82c8eac157bb6fd89920db55", "fusion_lat": 0.0, "type": "electric_scooter", "lat": 38.92973766666667, "is_reserved": 0, "is_disabled": 0, "fusion_lon": 0.0, "bike_id": "e385a6ad82c8eac157bb6fd89920db55", "lon": -77.02798616666666, "rental_uris": {"ios": "https://dc.lft.to/lastmile_qr_scan", "android": "https://dc.lft.to/lastmile_qr_scan"}}, {"name": "7074a383db8ea3e628af2d682c5863a9", "fusion_lat": 0.0, "type": "electric_scooter", "lat": 38.9235725, "is_reserved": 0, "is_disabled": 0, "fusion_lon": 0.0, "bike_id": "7074a383db8ea3e628af2d682c5863a9", "lon": -77.05064, "rental_uris": {"ios": "https://dc.lft.to/lastmile_qr_scan", "android": "https://dc.lft.to/lastmile_qr_scan"}}, {"name": "9535ffa20e8aa872bc132b41766373b9", "fusion_lat": 0.0, "type": "electric_scooter", "lat": 38.91322266666667, "is_reserved": 0, "is_disabled": 0, "fusion_lon": 0.0, "bike_id": "9535ffa20e8aa872bc132b41766373b9", "lon": -77.03179333333334, "rental_uris": {"ios": "https://dc.lft.to/lastmile_qr_scan", "android": "https://dc.lft.to/lastmile_qr_scan"}}, {"name": "b0cba3da35bfa65e466d43a512d89318", "fusion_lat": 0.0, "type": "electric_scooter", "lat": 38.91249366666667, "is_reserved": 0, "is_disabled": 0, "fusion_lon": 0.0, "bike_id": "b0cba3da35bfa65e466d43a512d89318", "lon": -77.0077555, "rental_uris": {"ios": "https://dc.lft.to/lastmile_qr_scan", "android": "https://dc.lft.to/lastmile_qr_scan"}}, {"name": "e55dd63c064791767efe8f7288f106c3", "fusion_lat": 0.0, "type": "electric_scooter", "lat": 38.89524433333333, "is_reserved": 0, "is_disabled": 0, "fusion_lon": 0.0, "bike_id": "e55dd63c064791767efe8f7288f106c3", "lon": -76.948917, "rental_uris": {"ios": "https://dc.lft.to/lastmile_qr_scan", "android": "https://dc.lft.to/lastmile_qr_scan"}}, {"name": "1adc35c2a9202ddbcfb467d39c1bef17", "fusion_lat": 0.0, "type": "electric_scooter", "lat": 38.9203885, "is_reserved": 0, "is_disabled": 0, "fusion_lon": 0.0, "bike_id": "1adc35c2a9202ddbcfb467d39c1bef17", "lon": -77.02424133333334, "rental_uris": {"ios": "https://dc.lft.to/lastmile_qr_scan", "android": "https://dc.lft.to/lastmile_qr_scan"}}, {"name": "944f104ef42adf2cc8f031976249fbec", "fusion_lat": 0.0, "type": "electric_scooter", "lat": 38.900765166666666, "is_reserved": 0, "is_disabled": 0, "fusion_lon": 0.0, "bike_id": "944f104ef42adf2cc8f031976249fbec", "lon": -77.052021, "rental_uris": {"ios": "https://dc.lft.to/lastmile_qr_scan", "android": "https://dc.lft.to/lastmile_qr_scan"}}, {"name": "974895f01a30df28782c878961f5309f", "fusion_lat": 0.0, "type": "electric_scooter", "lat": 38.939388666666666, "is_reserved": 0, "is_disabled": 0, "fusion_lon": 0.0, "bike_id": "974895f01a30df28782c878961f5309f", "lon": -77.03674866666667, "rental_uris": {"ios": "https://dc.lft.to/lastmile_qr_scan", "android": "https://dc.lft.to/lastmile_qr_scan"}}, {"name": "fec402436707d6afa895ecdb74902d2d", "fusion_lat": 0.0, "type": "electric_scooter", "lat": 38.892277666666665, "is_reserved": 0, "is_disabled": 0, "fusion_lon": 0.0, "bike_id": "fec402436707d6afa895ecdb74902d2d", "lon": -77.050043, "rental_uris": {"ios": "https://dc.lft.to/lastmile_qr_scan", "android": "https://dc.lft.to/lastmile_qr_scan"}}, {"name": "6cd0cc80eb2170b831ac406a8e11be06", "fusion_lat": 0.0, "type": "electric_bike", "lat": 38.81047983333333, "is_reserved": 0, "is_disabled": 0, "fusion_lon": 0.0, "bike_id": "6cd0cc80eb2170b831ac406a8e11be06", "lon": -77.0851075, "rental_uris": {"ios": "https://dc.lft.to/lastmile_qr_scan", "android": "https://dc.lft.to/lastmile_qr_scan"}}, {"name": "157434fd2a6b57fdc6fc80bdff20a312", "fusion_lat": 0.0, "type": "electric_bike", "lat": 38.854304166666665, "is_reserved": 0, "is_disabled": 0, "fusion_lon": 0.0, "bike_id": "157434fd2a6b57fdc6fc80bdff20a312", "lon": -76.90965283333334, "rental_uris": {"ios": "https://dc.lft.to/lastmile_qr_scan", "android": "https://dc.lft.to/lastmile_qr_scan"}}, {"name": "d7af77b665deb2b8756024320316e81e", "fusion_lat": 0.0, "type": "electric_scooter", "lat": 38.93540133333333, "is_reserved": 0, "is_disabled": 0, "fusion_lon": 0.0, "bike_id": "d7af77b665deb2b8756024320316e81e", "lon": -77.03409433333333, "rental_uris": {"ios": "https://dc.lft.to/lastmile_qr_scan", "android": "https://dc.lft.to/lastmile_qr_scan"}}, {"name": "3bac6b2f32b420f634d7891135c5a673", "fusion_lat": 0.0, "type": "electric_scooter", "lat": 38.937546166666664, "is_reserved": 0, "is_disabled": 0, "fusion_lon": 0.0, "bike_id": "3bac6b2f32b420f634d7891135c5a673", "lon": -77.02493633333333, "rental_uris": {"ios": "https://dc.lft.to/lastmile_qr_scan", "android": "https://dc.lft.to/lastmile_qr_scan"}}, {"name": "297401b9b239345ad28aae871453c71b", "fusion_lat": 0.0, "type": "electric_scooter", "lat": 38.876615666666666, "is_reserved": 0, "is_disabled": 0, "fusion_lon": 0.0, "bike_id": "297401b9b239345ad28aae871453c71b", "lon": -77.0007055, "rental_uris": {"ios": "https://dc.lft.to/lastmile_qr_scan", "android": "https://dc.lft.to/lastmile_qr_scan"}}, {"name": "851761f924b342bea2cbc5d94f174785", "fusion_lat": 0.0, "type": "electric_scooter", "lat": 38.917587833333336, "is_reserved": 0, "is_disabled": 0, "fusion_lon": 0.0, "bike_id": "851761f924b342bea2cbc5d94f174785", "lon": -77.031918, "rental_uris": {"ios": "https://dc.lft.to/lastmile_qr_scan", "android": "https://dc.lft.to/lastmile_qr_scan"}}, {"name": "d4dec0eea3a7c198e59187e1796138aa", "fusion_lat": 0.0, "type": "electric_scooter", "lat": 38.90667166666667, "is_reserved": 0, "is_disabled": 0, "fusion_lon": 0.0, "bike_id": "d4dec0eea3a7c198e59187e1796138aa", "lon": -77.0271625, "rental_uris": {"ios": "https://dc.lft.to/lastmile_qr_scan", "android": "https://dc.lft.to/lastmile_qr_scan"}}, {"name": "5b5ff3cfdbe7974d5023084886f3eb8d", "fusion_lat": 0.0, "type": "electric_scooter", "lat": 38.866554666666666, "is_reserved": 0, "is_disabled": 0, "fusion_lon": 0.0, "bike_id": "5b5ff3cfdbe7974d5023084886f3eb8d", "lon": -76.98884816666667, "rental_uris": {"ios": "https://dc.lft.to/lastmile_qr_scan", "android": "https://dc.lft.to/lastmile_qr_scan"}}, {"name": "518a2ded3182ebac9f9b58df29b25008", "fusion_lat": 0.0, "type": "electric_scooter", "lat": 38.92431, "is_reserved": 0, "is_disabled": 0, "fusion_lon": 0.0, "bike_id": "518a2ded3182ebac9f9b58df29b25008", "lon": -77.0425485, "rental_uris": {"ios": "https://dc.lft.to/lastmile_qr_scan", "android": "https://dc.lft.to/lastmile_qr_scan"}}, {"name": "074638d49802e0acc6c7bb17f5c83f5c", "fusion_lat": 0.0, "type": "electric_scooter", "lat": 38.91064166666666, "is_reserved": 0, "is_disabled": 0, "fusion_lon": 0.0, "bike_id": "074638d49802e0acc6c7bb17f5c83f5c", "lon": -77.01767966666667, "rental_uris": {"ios": "https://dc.lft.to/lastmile_qr_scan", "android": "https://dc.lft.to/lastmile_qr_scan"}}, {"name": "b460b54efd927983f781c078fc1d43e8", "fusion_lat": 0.0, "type": "electric_scooter", "lat": 38.9170635, "is_reserved": 0, "is_disabled": 0, "fusion_lon": 0.0, "bike_id": "b460b54efd927983f781c078fc1d43e8", "lon": -77.03091466666666, "rental_uris": {"ios": "https://dc.lft.to/lastmile_qr_scan", "android": "https://dc.lft.to/lastmile_qr_scan"}}, {"name": "c115531e8c006c90abce386e37cad81f", "fusion_lat": 0.0, "type": "electric_scooter", "lat": 38.924405, "is_reserved": 0, "is_disabled": 0, "fusion_lon": 0.0, "bike_id": "c115531e8c006c90abce386e37cad81f", "lon": -77.04222616666667, "rental_uris": {"ios": "https://dc.lft.to/lastmile_qr_scan", "android": "https://dc.lft.to/lastmile_qr_scan"}}, {"name": "4b433cca44920a66f4a682cf580fb896", "fusion_lat": 0.0, "type": "electric_scooter", "lat": 38.90025033333333, "is_reserved": 0, "is_disabled": 0, "fusion_lon": 0.0, "bike_id": "4b433cca44920a66f4a682cf580fb896", "lon": -77.00198466666667, "rental_uris": {"ios": "https://dc.lft.to/lastmile_qr_scan", "android": "https://dc.lft.to/lastmile_qr_scan"}}, {"name": "20d81e84fe3385a45e5084915a52d6bb", "fusion_lat": 0.0, "type": "electric_scooter", "lat": 38.896057666666664, "is_reserved": 0, "is_disabled": 0, "fusion_lon": 0.0, "bike_id": "20d81e84fe3385a45e5084915a52d6bb", "lon": -77.04770116666667, "rental_uris": {"ios": "https://dc.lft.to/lastmile_qr_scan", "android": "https://dc.lft.to/lastmile_qr_scan"}}, {"name": "8fa94aaaa9fb36fb8ff9a67587ae3bff", "fusion_lat": 0.0, "type": "electric_scooter", "lat": 38.918044, "is_reserved": 0, "is_disabled": 0, "fusion_lon": 0.0, "bike_id": "8fa94aaaa9fb36fb8ff9a67587ae3bff", "lon": -77.04001333333333, "rental_uris": {"ios": "https://dc.lft.to/lastmile_qr_scan", "android": "https://dc.lft.to/lastmile_qr_scan"}}, {"name": "0e176def9a172bc2ff580b0403efb103", "fusion_lat": 0.0, "type": "electric_scooter", "lat": 38.930930000000004, "is_reserved": 0, "is_disabled": 0, "fusion_lon": 0.0, "bike_id": "0e176def9a172bc2ff580b0403efb103", "lon": -77.03443266666666, "rental_uris": {"ios": "https://dc.lft.to/lastmile_qr_scan", "android": "https://dc.lft.to/lastmile_qr_scan"}}, {"name": "15a309041ac704aa33e605528c31cfb2", "fusion_lat": 0.0, "type": "electric_scooter", "lat": 38.9139225, "is_reserved": 0, "is_disabled": 0, "fusion_lon": 0.0, "bike_id": "15a309041ac704aa33e605528c31cfb2", "lon": -77.04175766666667, "rental_uris": {"ios": "https://dc.lft.to/lastmile_qr_scan", "android": "https://dc.lft.to/lastmile_qr_scan"}}, {"name": "6fcec71975aac310e92cc6fd1c05b2d5", "fusion_lat": 0.0, "type": "electric_scooter", "lat": 38.90957066666667, "is_reserved": 0, "is_disabled": 0, "fusion_lon": 0.0, "bike_id": "6fcec71975aac310e92cc6fd1c05b2d5", "lon": -77.02748333333334, "rental_uris": {"ios": "https://dc.lft.to/lastmile_qr_scan", "android": "https://dc.lft.to/lastmile_qr_scan"}}, {"name": "9ed4cd0d13befe1894a783154aebf445", "fusion_lat": 0.0, "type": "electric_bike", "lat": 38.828704333333334, "is_reserved": 0, "is_disabled": 0, "fusion_lon": 0.0, "bike_id": "9ed4cd0d13befe1894a783154aebf445", "lon": -77.11220983333334, "rental_uris": {"ios": "https://dc.lft.to/lastmile_qr_scan", "android": "https://dc.lft.to/lastmile_qr_scan"}}, {"name": "0f187e49300f48563193fb85cfb716d6", "fusion_lat": 0.0, "type": "electric_bike", "lat": 38.99089416666666, "is_reserved": 0, "is_disabled": 0, "fusion_lon": 0.0, "bike_id": "0f187e49300f48563193fb85cfb716d6", "lon": -76.87498133333334, "rental_uris": {"ios": "https://dc.lft.to/lastmile_qr_scan", "android": "https://dc.lft.to/lastmile_qr_scan"}}, {"name": "3261f540e9126e0e72cbf50c4f8e32ef", "fusion_lat": 0.0, "type": "electric_scooter", "lat": 38.925075166666666, "is_reserved": 0, "is_disabled": 0, "fusion_lon": 0.0, "bike_id": "3261f540e9126e0e72cbf50c4f8e32ef", "lon": -77.02169183333334, "rental_uris": {"ios": "https://dc.lft.to/lastmile_qr_scan", "android": "https://dc.lft.to/lastmile_qr_scan"}}, {"name": "a4f7b566cd82a87acff28cd7f72d4323", "fusion_lat": 0.0, "type": "electric_scooter", "lat": 38.876372, "is_reserved": 0, "is_disabled": 0, "fusion_lon": 0.0, "bike_id": "a4f7b566cd82a87acff28cd7f72d4323", "lon": -77.00814233333334, "rental_uris": {"ios": "https://dc.lft.to/lastmile_qr_scan", "android": "https://dc.lft.to/lastmile_qr_scan"}}, {"name": "c64828b3c4538ccec124e4041db90d7a", "fusion_lat": 0.0, "type": "electric_scooter", "lat": 38.89971966666667, "is_reserved": 0, "is_disabled": 0, "fusion_lon": 0.0, "bike_id": "c64828b3c4538ccec124e4041db90d7a", "lon": -77.05703983333333, "rental_uris": {"ios": "https://dc.lft.to/lastmile_qr_scan", "android": "https://dc.lft.to/lastmile_qr_scan"}}, {"name": "4cd2331834a3097ee5daa4a5628de03b", "fusion_lat": 0.0, "type": "electric_scooter", "lat": 38.9179805, "is_reserved": 0, "is_disabled": 0, "fusion_lon": 0.0, "bike_id": "4cd2331834a3097ee5daa4a5628de03b", "lon": -77.03441483333333, "rental_uris": {"ios": "https://dc.lft.to/lastmile_qr_scan", "android": "https://dc.lft.to/lastmile_qr_scan"}}, {"name": "6b5113c8982a59586e7254ffd6505881", "fusion_lat": 0.0, "type": "electric_scooter", "lat": 38.883846166666665, "is_reserved": 0, "is_disabled": 0, "fusion_lon": 0.0, "bike_id": "6b5113c8982a59586e7254ffd6505881", "lon": -77.01942816666667, "rental_uris": {"ios": "https://dc.lft.to/lastmile_qr_scan", "android": "https://dc.lft.to/lastmile_qr_scan"}}, {"name": "e0fa2ed409f0cc75ffc9d2d7c0b60234", "fusion_lat": 0.0, "type": "electric_scooter", "lat": 38.8811015, "is_reserved": 0, "is_disabled": 0, "fusion_lon": 0.0, "bike_id": "e0fa2ed409f0cc75ffc9d2d7c0b60234", "lon": -77.01670033333333, "rental_uris": {"ios": "https://dc.lft.to/lastmile_qr_scan", "android": "https://dc.lft.to/lastmile_qr_scan"}}, {"name": "1f825856f2a7db5d29503c86cdc2a2e6", "fusion_lat": 0.0, "type": "electric_scooter", "lat": 38.8959675, "is_reserved": 0, "is_disabled": 0, "fusion_lon": 0.0, "bike_id": "1f825856f2a7db5d29503c86cdc2a2e6", "lon": -77.04128866666667, "rental_uris": {"ios": "https://dc.lft.to/lastmile_qr_scan", "android": "https://dc.lft.to/lastmile_qr_scan"}}, {"name": "2e8317dc2ef8b34ce7a4edb4042332ae", "fusion_lat": 0.0, "type": "electric_scooter", "lat": 38.89610833333333, "is_reserved": 0, "is_disabled": 0, "fusion_lon": 0.0, "bike_id": "2e8317dc2ef8b34ce7a4edb4042332ae", "lon": -77.0476555, "rental_uris": {"ios": "https://dc.lft.to/lastmile_qr_scan", "android": "https://dc.lft.to/lastmile_qr_scan"}}, {"name": "0133502c50fe7fc57428b27209b61e11", "fusion_lat": 0.0, "type": "electric_scooter", "lat": 38.902709333333334, "is_reserved": 0, "is_disabled": 0, "fusion_lon": 0.0, "bike_id": "0133502c50fe7fc57428b27209b61e11", "lon": -77.01766383333333, "rental_uris": {"ios": "https://dc.lft.to/lastmile_qr_scan", "android": "https://dc.lft.to/lastmile_qr_scan"}},