{"data": {"bikes": [{"lat": 38.89932233333333, "is_disabled": 0, "type": "electric_scooter", "lon": -77.00353966666667, "bike_id": "73223079a9f16b98e97b4830ca9f1abf", "fusion_lat": 0.0, "name": "73223079a9f16b98e97b4830ca9f1abf", "is_reserved": 0, "rental_uris": {"android": "https://dc.lft.to/lastmile_qr_scan", "ios": "https://dc.lft.to/lastmile_qr_scan"}, "fusion_lon": 0.0}, {"lat": 38.92637916666666, "is_disabled": 0, "type": "electric_scooter", "lon": -77.024973, "bike_id": "6b3cbee2bbba0582769bf7c0d10b6e27", "fusion_lat": 0.0, "name": "6b3cbee2bbba0582769bf7c0d10b6e27", "is_reserved": 0, "rental_uris": {"android": "https://dc.lft.to/lastmile_qr_scan", "ios": "https://dc.lft.to/lastmile_qr_scan"}, "fusion_lon": 0.0}, {"lat": 38.9015355, "is_disabled": 0, "type": "electric_scooter", "lon": -77.04988416666667, "bike_id": "893320885a1531e3898b385cb0908afb", "fusion_lat": 0.0, "name": "893320885a1531e3898b385cb0908afb", "is_reserved": 0, "rental_uris": {"android": "https://dc.lft.to/lastmile_qr_scan", "ios": "https://dc.lft.to/lastmile_qr_scan"}, "fusion_lon": 0.0}, {"lat": 38.91709383333333, "is_disabled": 0, "type": "electric_scooter", "lon": -77.03473283333334, "bike_id": "5e915c311af1f5cd9008e269096f4e06", "fusion_lat": 0.0, "name": "5e915c311af1f5cd9008e269096f4e06", "is_reserved": 0, "rental_uris": {"android": "https://dc.lft.to/lastmile_qr_scan", "ios": "https://dc.lft.to/lastmile_qr_scan"}, "fusion_lon": 0.0}, {"lat": 38.901512, "is_disabled": 0, "type": "electric_scooter", "lon": -77.01147033333334, "bike_id": "0964b10b592d9218709d7b43e28d6ed4", "fusion_lat": 0.0, "name": "0964b10b592d9218709d7b43e28d6ed4", "is_reserved": 0, "rental_uris": {"android": "https://dc.lft.to/lastmile_qr_scan", "ios": "https://dc.lft.to/lastmile_qr_scan"}, "fusion_lon": 0.0}, {"lat": 38.90598933333333, "is_disabled": 0, "type": "electric_scooter", "lon": -77.01607833333334, "bike_id": "df0e6abf784abda3097d43a5c2cb337c", "fusion_lat": 0.0, "name": "df0e6abf784abda3097d43a5c2cb337c", "is_reserved": 0, "rental_uris": {"android": "https://dc.lft.to/lastmile_qr_scan", "ios": "https://dc.lft.to/lastmile_qr_scan"}, "fusion_lon": 0.0}, {"lat": 38.93317033333334, "is_disabled": 0, "type": "electric_scooter", "lon": -77.04524466666666, "bike_id": "036531b50786ac5e693bb16420bdfc85", "fusion_lat": 0.0, "name": "036531b50786ac5e693bb16420bdfc85", "is_reserved": 0, "rental_uris": {"android": "https://dc.lft.to/lastmile_qr_scan", "ios": "https://dc.lft.to/lastmile_qr_scan"}, "fusion_lon": 0.0}, {"lat": 38.948973, "is_disabled": 0, "type": "electric_scooter", "lon": -77.03046366666666, "bike_id": "8a06ce19a52ca462a2b2b0c1bef60576", "fusion_lat": 0.0, "name": "8a06ce19a52ca462a2b2b0c1bef60576", "is_reserved": 0, "rental_uris": {"android": "https://dc.lft.to/lastmile_qr_scan", "ios": "https://dc.lft.to/lastmile_qr_scan"}, "fusion_lon": 0.0}, {"lat": 38.97224416666667, "is_disabled": 0, "type": "electric_bike", "lon": -76.99346583333333, "bike_id": "efbc1394c0d15d39db1b84fa9c39ff3f", "fusion_lat": 0.0, "name": "efbc1394c0d15d39db1b84fa9c39ff3f", "is_reserved": 0, "rental_uris": {"android": "https://dc.lft.to/lastmile_qr_scan", "ios": "https://dc.lft.to/lastmile_qr_scan"}, "fusion_lon": 0.0}, {"lat": 38.903132166666666, "is_disabled": 0, "type": "electric_scooter", "lon": -77.0379525, "bike_id": "a4e68328d536ece461e2c0c2c4f1c116", "fusion_lat": 0.0, "name": "a4e68328d536ece461e2c0c2c4f1c116", "is_reserved": 0, "rental_uris": {"android": "https://dc.lft.to/lastmile_qr_scan", "ios": "https://dc.lft.to/lastmile_qr_scan"}, "fusion_lon": 0.0}, {"lat": 38.90836483333333, "is_disabled": 0, "type": "electric_scooter", "lon": -76.99695483333333, "bike_id": "498e1f8db4c557f5ad692892cb735bb9", "fusion_lat": 0.0, "name": "498e1f8db4c557f5ad692892cb735bb9", "is_reserved": 0, "rental_uris": {"android": "https://dc.lft.to/lastmile_qr_scan", "ios": "https://dc.lft.to/lastmile_qr_scan"}, "fusion_lon": 0.0}, {"lat": 38.922342666666665, "is_disabled": 0, "type": "electric_scooter", "lon": -77.04575283333334, "bike_id": "64d3e8f3602e9db666cbf41f9e21021e", "fusion_lat": 0.0, "name": "64d3e8f3602e9db666cbf41f9e21021e", "is_reserved": 0, "rental_uris": {"android": "https://dc.lft.to/lastmile_qr_scan", "ios": "https://dc.lft.to/lastmile_qr_scan"}, "fusion_lon": 0.0}, {"lat": 38.90445, "is_disabled": 0, "type": "electric_scooter", "lon": -77.0612185, "bike_id": "fb0deaa2257f66ae00a2fabc8fefd7b8", "fusion_lat": 0.0, "name": "fb0deaa2257f66ae00a2fabc8fefd7b8", "is_reserved": 0, "rental_uris": {"android": "https://dc.lft.to/lastmile_qr_scan", "ios": "https://dc.lft.to/lastmile_qr_scan"}, "fusion_lon": 0.0}, {"lat": 38.91885683333334, "is_disabled": 0, "type": "electric_scooter", "lon": -77.0350295, "bike_id": "014df5871e61d8aa07a3996722744ddf", "fusion_lat": 0.0, "name": "014df5871e61d8aa07a3996722744ddf", "is_reserved": 0, "rental_uris": {"android": "https://dc.lft.to/lastmile_qr_scan", "ios": "https://dc.lft.to/lastmile_qr_scan"}, "fusion_lon": 0.0}, {"lat": 38.91706816666667, "is_disabled": 0, "type": "electric_scooter", "lon": -77.0334695, "bike_id": "88de9e7fc49c16819b5c7695058a1596", "fusion_lat": 0.0, "name": "88de9e7fc49c16819b5c7695058a1596", "is_reserved": 0, "rental_uris": {"android": "https://dc.lft.to/lastmile_qr_scan", "ios": "https://dc.lft.to/lastmile_qr_scan"}, "fusion_lon": 0.0}, {"lat": 38.912657333333335, "is_disabled": 0, "type": "electric_scooter", "lon": -77.02252066666667, "bike_id": "187de15694ffbc8dcf0f13af10f2306f", "fusion_lat": 0.0, "name": "187de15694ffbc8dcf0f13af10f2306f", "is_reserved": 0, "rental_uris": {"android": "https://dc.lft.to/lastmile_qr_scan", "ios": "https://dc.lft.to/lastmile_qr_scan"}, "fusion_lon": 0.0}, {"lat": 38.905847666666666, "is_disabled": 0, "type": "electric_scooter", "lon": -76.98618266666666, "bike_id": "9dc3b89bf111da3cbc0ddb6a8dc09391", "fusion_lat": 0.0, "name": "9dc3b89bf111da3cbc0ddb6a8dc09391", "is_reserved": 0, "rental_uris": {"android": "https://dc.lft.to/lastmile_qr_scan", "ios": "https://dc.lft.to/lastmile_qr_scan"}, "fusion_lon": 0.0}, {"lat": 38.896546, "is_disabled": 0, "type": "electric_scooter", "lon": -77.00515966666667, "bike_id": "f07a44d55546c80e07f1a21f1636ca70", "fusion_lat": 0.0, "name": "f07a44d55546c80e07f1a21f1636ca70", "is_reserved": 0, "rental_uris": {"android": "https://dc.lft.to/lastmile_qr_scan", "ios": "https://dc.lft.to/lastmile_qr_scan"}, "fusion_lon": 0.0}, {"lat": 38.91257216666666, "is_disabled": 0, "type": "electric_scooter", "lon": -77.051405, "bike_id": "6b308d2b6492c6862a7e1d0ecb1390c4", "fusion_lat": 0.0, "name": "6b308d2b6492c6862a7e1d0ecb1390c4", "is_reserved": 0, "rental_uris": {"android": "https://dc.lft.to/lastmile_qr_scan", "ios": "https://dc.lft.to/lastmile_qr_scan"}, "fusion_lon": 0.0}, {"lat": 38.908638333333336, "is_disabled": 0, "type": "electric_bike", "lon": -76.94005816666666, "bike_id": "15724d0ab3f2a09ce27174ea663df0d2", "fusion_lat": 0.0, "name": "15724d0ab3f2a09ce27174ea663df0d2", "is_reserved": 0, "rental_uris": {"android": "https://dc.lft.to/lastmile_qr_scan", "ios": "https://dc.lft.to/lastmile_qr_scan"}, "fusion_lon": 0.0}, {"lat": 38.86715933333333, "is_disabled": 0, "type": "electric_scooter", "lon": -76.98726683333334, "bike_id": "27a605f19daa1191a1d68db99b5a27fd", "fusion_lat": 0.0, "name": "27a605f19daa1191a1d68db99b5a27fd", "is_reserved": 0, "rental_uris": {"android": "https://dc.lft.to/lastmile_qr_scan", "ios": "https://dc.lft.to/lastmile_qr_scan"}, "fusion_lon": 0.0}, {"lat": 38.8450535, "is_disabled": 0, "type": "electric_bike", "lon": -76.99349383333333, "bike_id": "58d30bc2d6a5199d23c9879d09789061", "fusion_lat": 0.0, "name": "58d30bc2d6a5199d23c9879d09789061", "is_reserved": 0, "rental_uris": {"android": "https://dc.lft.to/lastmile_qr_scan", "ios": "https://dc.lft.to/lastmile_qr_scan"}, "fusion_lon": 0.0}, {"lat": 38.881910500000004, "is_disabled": 0, "type": "electric_scooter", "lon": -76.99612516666667, "bike_id": "607934c0f6bbe6bcd9b51a437ae79c32", "fusion_lat": 0.0, "name": "607934c0f6bbe6bcd9b51a437ae79c32", "is_reserved": 0, "rental_uris": {"android": "https://dc.lft.to/lastmile_qr_scan", "ios": "https://dc.lft.to/lastmile_qr_scan"}, "fusion_lon": 0.0}, {"lat": 38.92566683333333, "is_disabled": 0, "type": "electric_scooter", "lon": -77.04379966666667, "bike_id": "8fb3e8cf5b0ddf18e7605a959d0a43e7", "fusion_lat": 0.0, "name": "8fb3e8cf5b0ddf18e7605a959d0a43e7", "is_reserved": 0, "rental_uris": {"android": "https://dc.lft.to/lastmile_qr_scan", "ios": "https://dc.lft.to/lastmile_qr_scan"}, "fusion_lon": 0.0}, {"lat": 38.8950425, "is_disabled": 0, "type": "electric_scooter", "lon": -77.00325166666667, "bike_id": "ef98b12a97ad258d0e16ff174015bb71", "fusion_lat": 0.0, "name": "ef98b12a97ad258d0e16ff174015bb71", "is_reserved": 0, "rental_uris": {"android": "https://dc.lft.to/lastmile_qr_scan", "ios": "https://dc.lft.to/lastmile_qr_scan"}, "fusion_lon": 0.0}, {"lat": 38.922663666666665, "is_disabled": 0, "type": "electric_scooter", "lon": -77.02235433333334, "bike_id": "b2098bb81e8f913eb8ab38c721eff68d", "fusion_lat": 0.0, "name": "b2098bb81e8f913eb8ab38c721eff68d", "is_reserved": 0, "rental_uris": {"android": "https://dc.lft.to/lastmile_qr_scan", "ios": "https://dc.lft.to/lastmile_qr_scan"}, "fusion_lon": 0.0}, {"lat": 38.905262, "is_disabled": 0, "type": "electric_scooter", "lon": -77.06235183333334, "bike_id": "abb2008e47f9b4926726bfa07bf65bd1", "fusion_lat": 0.0, "name": "abb2008e47f9b4926726bfa07bf65bd1", "is_reserved": 0, "rental_uris": {"android": "https://dc.lft.to/lastmile_qr_scan", "ios": "https://dc.lft.to/lastmile_qr_scan"}, "fusion_lon": 0.0}, {"lat": 38.89735316666667, "is_disabled": 0, "type": "electric_scooter", "lon": -77.00775933333334, "bike_id": "94fe09b22a46b693ab534f81c098b4ef", "fusion_lat": 0.0, "name": "94fe09b22a46b693ab534f81c098b4ef", "is_reserved": 0, "rental_uris": {"android": "https://dc.lft.to/lastmile_qr_scan", "ios": "https://dc.lft.to/lastmile_qr_scan"}, "fusion_lon": 0.0}, {"lat": 38.933271500000004, "is_disabled": 0, "type": "electric_scooter", "lon": -77.04366933333333, "bike_id": "4efa4ef84970624a44dd142629eb4fdd", "fusion_lat": 0.0, "name": "4efa4ef84970624a44dd142629eb4fdd", "is_reserved": 0, "rental_uris": {"android": "https://dc.lft.to/lastmile_qr_scan", "ios": "https://dc.lft.to/lastmile_qr_scan"}, "fusion_lon": 0.0}, {"lat": 38.91952533333333, "is_disabled": 0, "type": "electric_scooter", "lon": -76.98075216666666, "bike_id": "f49663a0ee527965ed168a32691765ba", "fusion_lat": 0.0, "name": "f49663a0ee527965ed168a32691765ba", "is_reserved": 0, "rental_uris": {"android": "https://dc.lft.to/lastmile_qr_scan", "ios": "https://dc.lft.to/lastmile_qr_scan"}, "fusion_lon": 0.0}, {"lat": 38.855652, "is_disabled": 0, "type": "electric_bike", "lon": -77.11131916666666, "bike_id": "24063de5217cbf89f4b4c89547e1f95e", "fusion_lat": 0.0, "name": "24063de5217cbf89f4b4c89547e1f95e", "is_reserved": 0, "rental_uris": {"android": "https://dc.lft.to/lastmile_qr_scan", "ios": "https://dc.lft.to/lastmile_qr_scan"}, "fusion_lon": 0.0}, {"lat": 38.909618, "is_disabled": 0, "type": "electric_scooter", "lon": -77.03811983333334, "bike_id": "c29ae3d419ac65b90be8f0d84cc91011", "fusion_lat": 0.0, "name": "c29ae3d419ac65b90be8f0d84cc91011", "is_reserved": 0, "rental_uris": {"android": "https://dc.lft.to/lastmile_qr_scan", "ios": "https://dc.lft.to/lastmile_qr_scan"}, "fusion_lon": 0.0}, {"lat": 38.90693516666666, "is_disabled": 0, "type": "electric_bike", "lon": -77.06368916666666, "bike_id": "54e64dfdfdf159808cf2d50f14951d34", "fusion_lat": 0.0, "name": "54e64dfdfdf159808cf2d50f14951d34", "is_reserved": 0, "rental_uris": {"android": "https://dc.lft.to/lastmile_qr_scan", "ios": "https://dc.lft.to/lastmile_qr_scan"}, "fusion_lon": 0.0}, {"lat": 38.91976416666667, "is_disabled": 0, "type": "electric_scooter", "lon": -77.02375766666667, "bike_id": "8ef43b41b21836febb8b4c0a8af09645", "fusion_lat": 0.0, "name": "8ef43b41b21836febb8b4c0a8af09645", "is_reserved": 0, "rental_uris": {"android": "https://dc.lft.to/lastmile_qr_scan", "ios": "https://dc.lft.to/lastmile_qr_scan"}, "fusion_lon": 0.0}, {"lat": 38.902015666666664, "is_disabled": 0, "type": "electric_scooter", "lon": -77.0231815, "bike_id": "a94db2e4674e8e65bd660c56f5a07a01", "fusion_lat": 0.0, "name": "a94db2e4674e8e65bd660c56f5a07a01", "is_reserved": 0, "rental_uris": {"android": "https://dc.lft.to/lastmile_qr_scan", "ios": "https://dc.lft.to/lastmile_qr_scan"}, "fusion_lon": 0.0}, {"lat": 38.919881333333336, "is_disabled": 0, "type": "electric_scooter", "lon": -77.03240516666666, "bike_id": "881f21c567eb4ef2f0d0d74c495f0c91", "fusion_lat": 0.0, "name": "881f21c567eb4ef2f0d0d74c495f0c91", "is_reserved": 0, "rental_uris": {"android": "https://dc.lft.to/lastmile_qr_scan", "ios": "https://dc.lft.to/lastmile_qr_scan"}, "fusion_lon": 0.0}, {"lat": 38.863854, "is_disabled": 0, "type": "electric_scooter", "lon": -76.99246833333333, "bike_id": "1eabbf00c7b200405813e95a4c1bc83f", "fusion_lat": 0.0, "name": "1eabbf00c7b200405813e95a4c1bc83f", "is_reserved": 0, "rental_uris": {"android": "https://dc.lft.to/lastmile_qr_scan", "ios": "https://dc.lft.to/lastmile_qr_scan"}, "fusion_lon": 0.0}, {"lat": 38.9430275, "is_disabled": 0, "type": "electric_scooter", "lon": -77.05924233333333, "bike_id": "4396b9ba05e6b75d1b92c8cb3c5740f2", "fusion_lat": 0.0, "name": "4396b9ba05e6b75d1b92c8cb3c5740f2", "is_reserved": 0, "rental_uris": {"android": "https://dc.lft.to/lastmile_qr_scan", "ios": "https://dc.lft.to/lastmile_qr_scan"}, "fusion_lon": 0.0}, {"lat": 38.97835033333333, "is_disabled": 0, "type": "electric_bike", "lon": -77.02634616666667, "bike_id": "9ce8cda825dd783f62f8464c044457d6", "fusion_lat": 0.0, "name": "9ce8cda825dd783f62f8464c044457d6", "is_reserved": 0, "rental_uris": {"android": "https://dc.lft.to/lastmile_qr_scan", "ios": "https://dc.lft.to/lastmile_qr_scan"}, "fusion_lon": 0.0}, {"lat": 38.85461016666667, "is_disabled": 0, "type": "electric_scooter", "lon": -76.97231083333334, "bike_id": "a14847935eeeae1f945da59eeb327721", "fusion_lat": 0.0, "name": "a14847935eeeae1f945da59eeb327721", "is_reserved": 0, "rental_uris": {"android": "https://dc.lft.to/lastmile_qr_scan", "ios": "https://dc.lft.to/lastmile_qr_scan"}, "fusion_lon": 0.0}, {"lat": 38.9169265, "is_disabled": 0, "type": "electric_scooter", "lon": -77.02596766666667, "bike_id": "859eb38b3989eca42a136ce0bdd923a2", "fusion_lat": 0.0, "name": "859eb38b3989eca42a136ce0bdd923a2", "is_reserved": 0, "rental_uris": {"android": "https://dc.lft.to/lastmile_qr_scan", "ios": "https://dc.lft.to/lastmile_qr_scan"}, "fusion_lon": 0.0}, {"lat": 38.923524666666665, "is_disabled": 0, "type": "electric_scooter", "lon": -77.04392683333333, "bike_id": "43955bff32bb4fa9ea4f671a85c2bb93", "fusion_lat": 0.0, "name": "43955bff32bb4fa9ea4f671a85c2bb93", "is_reserved": 0, "rental_uris": {"android": "https://dc.lft.to/lastmile_qr_scan", "ios": "https://dc.lft.to/lastmile_qr_scan"}, "fusion_lon": 0.0}, {"lat": 38.915440333333336, "is_disabled": 0, "type": "electric_scooter", "lon": -77.0741405, "bike_id": "79a9f7c14eea06c311e36080225414bf", "fusion_lat": 0.0, "name": "79a9f7c14eea06c311e36080225414bf", "is_reserved": 0, "rental_uris": {"android": "https://dc.lft.to/lastmile_qr_scan", "ios": "https://dc.lft.to/lastmile_qr_scan"}, "fusion_lon": 0.0}, {"lat": 38.9096755, "is_disabled": 0, "type": "electric_scooter", "lon": -76.9960085, "bike_id": "7182a1c31f50ce1c0ba5e11f1d258ba5", "fusion_lat": 0.0, "name": "7182a1c31f50ce1c0ba5e11f1d258ba5", "is_reserved": 0, "rental_uris": {"android": "https://dc.lft.to/lastmile_qr_scan", "ios": "https://dc.lft.to/lastmile_qr_scan"}, "fusion_lon": 0.0}, {"lat": 38.87431566666667, "is_disabled": 0, "type": "electric_scooter", "lon": -77.00058966666667, "bike_id": "38ac71d6cba56d20096a386b5878f4d1", "fusion_lat": 0.0, "name": "38ac71d6cba56d20096a386b5878f4d1", "is_reserved": 0, "rental_uris": {"android": "https://dc.lft.to/lastmile_qr_scan", "ios": "https://dc.lft.to/lastmile_qr_scan"}, "fusion_lon": 0.0}, {"lat": 38.892864, "is_disabled": 0, "type": "electric_scooter", "lon": -76.958467, "bike_id": "1bbdd215bf3a31c3cfbd8b8f5a742477", "fusion_lat": 0.0, "name": "1bbdd215bf3a31c3cfbd8b8f5a742477", "is_reserved": 0, "rental_uris": {"android": "https://dc.lft.to/lastmile_qr_scan", "ios": "https://dc.lft.to/lastmile_qr_scan"}, "fusion_lon": 0.0}, {"lat": 38.899995833333335, "is_disabled": 0, "type": "electric_scooter", "lon": -76.99951366666667, "bike_id": "e8118b5b5c2507ed89ee9451b389377d", "fusion_lat": 0.0, "name": "e8118b5b5c2507ed89ee9451b389377d", "is_reserved": 0, "rental_uris": {"android": "https://dc.lft.to/lastmile_qr_scan", "ios": "https://dc.lft.to/lastmile_qr_scan"}, "fusion_lon": 0.0}, {"lat": 38.929547666666664, "is_disabled": 0, "type": "electric_scooter", "lon": -76.990891, "bike_id": "5ff87e5c4e89e70108c20bccce680575", "fusion_lat": 0.0, "name": "5ff87e5c4e89e70108c20bccce680575", "is_reserved": 0, "rental_uris": {"android": "https://dc.lft.to/lastmile_qr_scan", "ios": "https://dc.lft.to/lastmile_qr_scan"}, "fusion_lon": 0.0}, {"lat": 38.897302833333335, "is_disabled": 0, "type": "electric_scooter", "lon": -77.054692, "bike_id": "be333e49e1190024b98bf0b0660022d4", "fusion_lat": 0.0, "name": "be333e49e1190024b98bf0b0660022d4", "is_reserved": 0, "rental_uris": {"android": "https://dc.lft.to/lastmile_qr_scan", "ios": "https://dc.lft.to/lastmile_qr_scan"}, "fusion_lon": 0.0}, {"lat": 38.922044666666665, "is_disabled": 0, "type": "electric_bike", "lon": -77.08195366666666, "bike_id": "75d0272bf99c9fc8772b16b65c26b531", "fusion_lat": 0.0, "name": "75d0272bf99c9fc8772b16b65c26b531", "is_reserved": 0, "rental_uris": {"android": "https://dc.lft.to/lastmile_qr_scan", "ios": "https://dc.lft.to/lastmile_qr_scan"}, "fusion_lon": 0.0}, {"lat": 38.933758, "is_disabled": 0, "type": "electric_scooter", "lon": -77.03550816666667, "bike_id": "a54c4a7ec8617f3d5c5629af329501cb", "fusion_lat": 0.0, "name": "a54c4a7ec8617f3d5c5629af329501cb", "is_reserved": 0, "rental_uris": {"android": "https://dc.lft.to/lastmile_qr_scan", "ios": "https://dc.lft.to/lastmile_qr_scan"}, "fusion_lon": 0.0}, {"lat": 38.928929, "is_disabled": 0, "type": "electric_scooter", "lon": -77.01644066666667, "bike_id": "dd28774905c6165833b9f06c7bbe69a1", "fusion_lat": 0.0, "name": "dd28774905c6165833b9f06c7bbe69a1", "is_reserved": 0, "rental_uris": {"android": "https://dc.lft.to/lastmile_qr_scan", "ios": "https://dc.lft.to/lastmile_qr_scan"}, "fusion_lon": 0.0}, {"lat": 38.90392633333333, "is_disabled": 0, "type": "electric_scooter", "lon": -76.990035, "bike_id": "d9445d94825a09fce5646c1ea5e0a208", "fusion_lat": 0.0, "name": "d9445d94825a09fce5646c1ea5e0a208", "is_reserved": 0, "rental_uris": {"android": "https://dc.lft.to/lastmile_qr_scan", "ios": "https://dc.lft.to/lastmile_qr_scan"}, "fusion_lon": 0.0}, {"lat": 38.885950333333334, "is_disabled": 0, "type": "electric_scooter", "lon": -77.01888933333333, "bike_id": "11f2a551fe8e590ed80afa0f11ff1ae9", "fusion_lat": 0.0, "name": "11f2a551fe8e590ed80afa0f11ff1ae9", "is_reserved": 0, "rental_uris": {"android": "https://dc.lft.to/lastmile_qr_scan", "ios": "https://dc.lft.to/lastmile_qr_scan"}, "fusion_lon": 0.0}, {"lat": 38.95709183333334, "is_disabled": 0, "type": "electric_scooter", "lon": -77.02405866666666, "bike_id": "b0f401b70763a9866f7bdef63a8640b1", "fusion_lat": 0.0, "name": "b0f401b70763a9866f7bdef63a8640b1", "is_reserved": 0, "rental_uris": {"android": "https://dc.lft.to/lastmile_qr_scan", "ios": "https://dc.lft.to/lastmile_qr_scan"}, "fusion_lon": 0.0}, {"lat": 38.8854925, "is_disabled": 0, "type": "electric_bike", "lon": -77.11780383333334, "bike_id": "c839210fe1cc22544d1a353b3fc44941", "fusion_lat": 0.0, "name": "c839210fe1cc22544d1a353b3fc44941", "is_reserved": 0, "rental_uris": {"android": "https://dc.lft.to/lastmile_qr_scan", "ios": "https://dc.lft.to/lastmile_qr_scan"}, "fusion_lon": 0.0}, {"lat": 38.948241333333335, "is_disabled": 0, "type": "electric_scooter", "lon": -76.99901583333333, "bike_id": "024714be9f4335b86674327a6693204e", "fusion_lat": 0.0, "name": "024714be9f4335b86674327a6693204e", "is_reserved": 0, "rental_uris": {"android": "https://dc.lft.to/lastmile_qr_scan", "ios": "https://dc.lft.to/lastmile_qr_scan"}, "fusion_lon": 0.0}, {"lat": 38.901276333333335, "is_disabled": 0, "type": "electric_scooter", "lon": -77.03987666666667, "bike_id": "03ef3560703deb254a64d0cf7ed5a920", "fusion_lat": 0.0, "name": "03ef3560703deb254a64d0cf7ed5a920", "is_reserved": 0, "rental_uris": {"android": "https://dc.lft.to/lastmile_qr_scan", "ios": "https://dc.lft.to/lastmile_qr_scan"}, "fusion_lon": 0.0}, {"lat": 38.9041965, "is_disabled": 0, "type": "electric_scooter", "lon": -77.05059383333334, "bike_id": "bd86e11d009025554a2de6d0cddb5c6b", "fusion_lat": 0.0, "name": "bd86e11d009025554a2de6d0cddb5c6b", "is_reserved": 0, "rental_uris": {"android": "https://dc.lft.to/lastmile_qr_scan", "ios": "https://dc.lft.to/lastmile_qr_scan"}, "fusion_lon": 0.0}, {"lat": 38.906260333333336, "is_disabled": 0, "type": "electric_scooter", "lon": -77.00825216666667, "bike_id": "daf6b04c29ff598dbdbaace90fbbcc1e", "fusion_lat": 0.0, "name": "daf6b04c29ff598dbdbaace90fbbcc1e", "is_reserved": 0, "rental_uris": {"android": "https://dc.lft.to/lastmile_qr_scan", "ios": "https://dc.lft.to/lastmile_qr_scan"}, "fusion_lon": 0.0}, {"lat": 38.90826533333333, "is_disabled": 0, "type": "electric_scooter", "lon": -77.020023, "bike_id": "22419ed4d438db11e034bab4a9bb0906", "fusion_lat": 0.0, "name": "22419ed4d438db11e034bab4a9bb0906", "is_reserved": 0, "rental_uris": {"android": "https://dc.lft.to/lastmile_qr_scan", "ios": "https://dc.lft.to/lastmile_qr_scan"}, "fusion_lon": 0.0}, {"lat": 38.88665533333333, "is_disabled": 0, "type": "electric_bike", "lon": -77.16259066666667, "bike_id": "009cd73eeb6216713b0ba13f9ffea814", "fusion_lat": 0.0, "name": "009cd73eeb6216713b0ba13f9ffea814", "is_reserved": 0, "rental_uris": {"android": "https://dc.lft.to/lastmile_qr_scan", "ios": "https://dc.lft.to/lastmile_qr_scan"}, "fusion_lon": 0.0}, {"lat": 38.917328499999996, "is_disabled": 0, "type": "electric_scooter", "lon": -77.031949, "bike_id": "62f624c5d9a31195fd1553b918d1dd5f", "fusion_lat": 0.0, "name": "62f624c5d9a31195fd1553b918d1dd5f", "is_reserved": 0, "rental_uris": {"android": "https://dc.lft.to/lastmile_qr_scan", "ios": "https://dc.lft.to/lastmile_qr_scan"}, "fusion_lon": 0.0}, {"lat": 38.924520333333334, "is_disabled": 0, "type": "electric_scooter", "lon": -77.041928, "bike_id": "81e211257c6780d277ae98b67261d1c9", "fusion_lat": 0.0, "name": "81e211257c6780d277ae98b67261d1c9", "is_reserved": 0, "rental_uris": {"android": "https://dc.lft.to/lastmile_qr_scan", "ios": "https://dc.lft.to/lastmile_qr_scan"}, "fusion_lon": 0.0}, {"lat": 38.896839666666665, "is_disabled": 0, "type": "electric_scooter", "lon": -76.93604916666666, "bike_id": "ad4bbae869d037a9daa1c48003743f5a", "fusion_lat": 0.0, "name": "ad4bbae869d037a9daa1c48003743f5a", "is_reserved": 0, "rental_uris": {"android": "https://dc.lft.to/lastmile_qr_scan", "ios": "https://dc.lft.to/lastmile_qr_scan"}, "fusion_lon": 0.0}, {"lat": 38.93073666666667, "is_disabled": 0, "type": "electric_scooter", "lon": -77.03400433333333, "bike_id": "c6d29617c13baab84243c8806047c27b", "fusion_lat": 0.0, "name": "c6d29617c13baab84243c8806047c27b", "is_reserved": 0, "rental_uris": {"android": "https://dc.lft.to/lastmile_qr_scan", "ios": "https://dc.lft.to/lastmile_qr_scan"}, "fusion_lon": 0.0}, {"lat": 38.93042966666667, "is_disabled": 0, "type": "electric_bike", "lon": -77.072957, "bike_id": "dbb53f5f80fb4b712271828aafca00a2", "fusion_lat": 0.0, "name": "dbb53f5f80fb4b712271828aafca00a2", "is_reserved": 0, "rental_uris": {"android": "https://dc.lft.to/lastmile_qr_scan", "ios": "https://dc.lft.to/lastmile_qr_scan"}, "fusion_lon": 0.0}, {"lat": 38.988173333333336, "is_disabled": 0, "type": "electric_bike", "lon": -77.02642, "bike_id": "a63d4e8dc29354733676369965837ea1", "fusion_lat": 0.0, "name": "a63d4e8dc29354733676369965837ea1", "is_reserved": 0, "rental_uris": {"android": "https://dc.lft.to/lastmile_qr_scan", "ios": "https://dc.lft.to/lastmile_qr_scan"}, "fusion_lon": 0.0}, {"lat": 38.8844985, "is_disabled": 0, "type": "electric_scooter", "lon": -76.95093583333333, "bike_id": "fb48fb85dbac0352272de027e3ed90bf", "fusion_lat": 0.0, "name": "fb48fb85dbac0352272de027e3ed90bf", "is_reserved": 0, "rental_uris": {"android": "https://dc.lft.to/lastmile_qr_scan", "ios": "https://dc.lft.to/lastmile_qr_scan"}, "fusion_lon": 0.0}, {"lat": 38.921172166666665, "is_disabled": 0, "type": "electric_scooter", "lon": -77.04176683333333, "bike_id": "1ba295ffc5d1d528161674c19658be53", "fusion_lat": 0.0, "name": "1ba295ffc5d1d528161674c19658be53", "is_reserved": 0, "rental_uris": {"android": "https://dc.lft.to/lastmile_qr_scan", "ios": "https://dc.lft.to/lastmile_qr_scan"}, "fusion_lon": 0.0}, {"lat": 38.9482395, "is_disabled": 0, "type": "electric_scooter", "lon": -76.9990155, "bike_id": "ee943f3aff81fe0cd3d324385ffc8642", "fusion_lat": 0.0, "name": "ee943f3aff81fe0cd3d324385ffc8642", "is_reserved": 0, "rental_uris": {"android": "https://dc.lft.to/lastmile_qr_scan", "ios": "https://dc.lft.to/lastmile_qr_scan"}, "fusion_lon": 0.0}, {"lat": 38.902548, "is_disabled": 0, "type": "electric_scooter", "lon": -77.0394165, "bike_id": "1826cadc7b410909b31d1c94c6c0812d", "fusion_lat": 0.0, "name": "1826cadc7b410909b31d1c94c6c0812d", "is_reserved": 0, "rental_uris": {"android": "https://dc.lft.to/lastmile_qr_scan", "ios": "https://dc.lft.to/lastmile_qr_scan"}, "fusion_lon": 0.0}, {"lat": 38.944608333333335, "is_disabled": 0, "type": "electric_scooter", "lon": -77.06039283333334, "bike_id": "678abdaf71fbd5f3d2e77e74bd2ad982", "fusion_lat": 0.0, "name": "678abdaf71fbd5f3d2e77e74bd2ad982", "is_reserved": 0, "rental_uris": {"android": "https://dc.lft.to/lastmile_qr_scan", "ios": "https://dc.lft.to/lastmile_qr_scan"}, "fusion_lon": 0.0}, {"lat": 38.916798166666666, "is_disabled": 0, "type": "electric_scooter", "lon": -77.02714633333333, "bike_id": "f2f5ff17f0a23a311dfa429370986ccc", "fusion_lat": 0.0, "name": "f2f5ff17f0a23a311dfa429370986ccc", "is_reserved": 0, "rental_uris": {"android": "https://dc.lft.to/lastmile_qr_scan", "ios": "https://dc.lft.to/lastmile_qr_scan"}, "fusion_lon": 0.0}, {"lat": 38.907214333333336, "is_disabled": 0, "type": "electric_scooter", "lon": -77.02972016666666, "bike_id": "ca42bd6dcf116dd20161377dee272e60", "fusion_lat": 0.0, "name": "ca42bd6dcf116dd20161377dee272e60", "is_reserved": 0, "rental_uris": {"android": "https://dc.lft.to/lastmile_qr_scan", "ios": "https://dc.lft.to/lastmile_qr_scan"}, "fusion_lon": 0.0}, {"lat": 38.89817683333333, "is_disabled": 0, "type": "electric_scooter", "lon": -77.03248933333333, "bike_id": "ee97b7af697361df00c1b9f759ce480a", "fusion_lat": 0.0, "name": "ee97b7af697361df00c1b9f759ce480a", "is_reserved": 0, "rental_uris": {"android": "https://dc.lft.to/lastmile_qr_scan", "ios": "https://dc.lft.to/lastmile_qr_scan"}, "fusion_lon": 0.0}, {"lat": 38.90088183333334, "is_disabled": 0, "type": "electric_scooter", "lon": -77.01219566666667, "bike_id": "9551f11b6f794c41ecd57a5d7dde7e70", "fusion_lat": 0.0, "name": "9551f11b6f794c41ecd57a5d7dde7e70", "is_reserved": 0, "rental_uris": {"android": "https://dc.lft.to/lastmile_qr_scan", "ios": "https://dc.lft.to/lastmile_qr_scan"}, "fusion_lon": 0.0}, {"lat": 38.90646316666667, "is_disabled": 0, "type": "electric_scooter", "lon": -77.029695, "bike_id": "ad116f23bafce70c246f1a655d08747d", "fusion_lat": 0.0, "name": "ad116f23bafce70c246f1a655d08747d", "is_reserved": 0, "rental_uris": {"android": "https://dc.lft.to/lastmile_qr_scan", "ios": "https://dc.lft.to/lastmile_qr_scan"}, "fusion_lon": 0.0}, {"lat": 39.051996333333335, "is_disabled": 0, "type": "electric_bike", "lon": -77.10921366666666, "bike_id": "a8cace46f75dc36d56e69925e8d921b9", "fusion_lat": 0.0, "name": "a8cace46f75dc36d56e69925e8d921b9", "is_reserved": 0, "rental_uris": {"android": "https://dc.lft.to/lastmile_qr_scan", "ios": "https://dc.lft.to/lastmile_qr_scan"}, "fusion_lon": 0.0}, {"lat": 38.8996665, "is_disabled": 0, "type": "electric_scooter", "lon": -76.92653916666667, "bike_id": "43a7233d7a1eec0f86b0842c4137c152", "fusion_lat": 0.0, "name": "43a7233d7a1eec0f86b0842c4137c152", "is_reserved": 0, "rental_uris": {"android": "https://dc.lft.to/lastmile_qr_scan", "ios": "https://dc.lft.to/lastmile_qr_scan"}, "fusion_lon": 0.0}, {"lat": 38.90273766666667, "is_disabled": 0, "type": "electric_scooter", "lon": -77.038407, "bike_id": "731da2f3b3645fc439508a70c7f9212a", "fusion_lat": 0.0, "name": "731da2f3b3645fc439508a70c7f9212a", "is_reserved": 0, "rental_uris": {"android": "https://dc.lft.to/lastmile_qr_scan", "ios": "https://dc.lft.to/lastmile_qr_scan"}, "fusion_lon": 0.0}, {"lat": 38.887325833333335, "is_disabled": 0, "type": "electric_scooter", "lon": -77.03174666666666, "bike_id": "41d43df1ab72d12022293688c3b0abef", "fusion_lat": 0.0, "name": "41d43df1ab72d12022293688c3b0abef", "is_reserved": 0, "rental_uris": {"android": "https://dc.lft.to/lastmile_qr_scan", "ios": "https://dc.lft.to/lastmile_qr_scan"}, "fusion_lon": 0.0}, {"lat": 38.900603, "is_disabled": 0, "type": "electric_scooter", "lon": -77.00208366666666, "bike_id": "d165acfed571c5208330f6808fdbd620", "fusion_lat": 0.0, "name": "d165acfed571c5208330f6808fdbd620", "is_reserved": 0, "rental_uris": {"android": "https://dc.lft.to/lastmile_qr_scan", "ios": "https://dc.lft.to/lastmile_qr_scan"}, "fusion_lon": 0.0}, {"lat": 38.91772383333333, "is_disabled": 0, "type": "electric_scooter", "lon": -77.03845283333334, "bike_id": "57fb77e22ed749ccd97a4862c733f5f2", "fusion_lat": 0.0, "name": "57fb77e22ed749ccd97a4862c733f5f2", "is_reserved": 0, "rental_uris": {"android": "https://dc.lft.to/lastmile_qr_scan", "ios": "https://dc.lft.to/lastmile_qr_scan"}, "fusion_lon": 0.0}, {"lat": 38.90367616666666, "is_disabled": 0, "type": "electric_scooter", "lon": -76.9922285, "bike_id": "d3a33c38642f43944615474e452686c1", "fusion_lat": 0.0, "name": "d3a33c38642f43944615474e452686c1", "is_reserved": 0, "rental_uris": {"android": "https://dc.lft.to/lastmile_qr_scan", "ios": "https://dc.lft.to/lastmile_qr_scan"}, "fusion_lon": 0.0}, {"lat": 38.93477, "is_disabled": 0, "type": "electric_scooter", "lon": -77.04116183333333, "bike_id": "5d6daeb2dba4ca1001e7d8596f8d5b0b", "fusion_lat": 0.0, "name": "5d6daeb2dba4ca1001e7d8596f8d5b0b", "is_reserved": 0, "rental_uris": {"android": "https://dc.lft.to/lastmile_qr_scan", "ios": "https://dc.lft.to/lastmile_qr_scan"}, "fusion_lon": 0.0}, {"lat": 38.895498333333336, "is_disabled": 0, "type": "electric_scooter", "lon": -77.00910583333334, "bike_id": "23e295e401ca506f8777d7c4b8526337", "fusion_lat": 0.0, "name": "23e295e401ca506f8777d7c4b8526337", "is_reserved": 0, "rental_uris": {"android": "https://dc.lft.to/lastmile_qr_scan", "ios": "https://dc.lft.to/lastmile_qr_scan"}, "fusion_lon": 0.0}, {"lat": 38.93033533333333, "is_disabled": 0, "type": "electric_scooter", "lon": -77.02966933333333, "bike_id": "fd745a005e6760fd5d3659ae6f7b41e3", "fusion_lat": 0.0, "name": "fd745a005e6760fd5d3659ae6f7b41e3", "is_reserved": 0, "rental_uris": {"android": "https://dc.lft.to/lastmile_qr_scan", "ios": "https://dc.lft.to/lastmile_qr_scan"}, "fusion_lon": 0.0}, {"lat": 38.912536833333334, "is_disabled": 0, "type": "electric_scooter", "lon": -77.03799566666666, "bike_id": "e390422f33df2b397921380bc1db55c9", "fusion_lat": 0.0, "name": "e390422f33df2b397921380bc1db55c9", "is_reserved": 0, "rental_uris": {"android": "https://dc.lft.to/lastmile_qr_scan", "ios": "https://dc.lft.to/lastmile_qr_scan"}, "fusion_lon": 0.0}, {"lat": 38.900914666666665, "is_disabled": 0, "type": "electric_scooter", "lon": -77.05598133333334, "bike_id": "bc8bb0f271fd880c2d3f62279b505dac", "fusion_lat": 0.0, "name": "bc8bb0f271fd880c2d3f62279b505dac", "is_reserved": 0, "rental_uris": {"android": "https://dc.lft.to/lastmile_qr_scan", "ios": "https://dc.lft.to/lastmile_qr_scan"}, "fusion_lon": 0.0}, {"lat": 38.91050233333333, "is_disabled": 0, "type": "electric_scooter", "lon": -77.0425555, "bike_id": "f46cb72e397d72fb2c2e537bcb927bd6", "fusion_lat": 0.0, "name": "f46cb72e397d72fb2c2e537bcb927bd6", "is_reserved": 0, "rental_uris": {"android": "https://dc.lft.to/lastmile_qr_scan", "ios": "https://dc.lft.to/lastmile_qr_scan"}, "fusion_lon": 0.0}, {"lat": 38.897007, "is_disabled": 0, "type": "electric_scooter", "lon": -77.026869, "bike_id": "b9b1a62b628019aab9afb61142efc640", "fusion_lat": 0.0, "name": "b9b1a62b628019aab9afb61142efc640", "is_reserved": 0, "rental_uris": {"android": "https://dc.lft.to/lastmile_qr_scan", "ios": "https://dc.lft.to/lastmile_qr_scan"}, "fusion_lon": 0.0}, {"lat": 38.89230416666667, "is_disabled": 0, "type": "electric_scooter", "lon": -77.02813216666667, "bike_id": "02d12f769c343965a96e31af7f5655f8", "fusion_lat": 0.0, "name": "02d12f769c343965a96e31af7f5655f8", "is_reserved": 0, "rental_uris": {"android": "https://dc.lft.to/lastmile_qr_scan", "ios": "https://dc.lft.to/lastmile_qr_scan"}, "fusion_lon": 0.0}, {"lat": 38.9038125, "is_disabled": 0, "type": "electric_scooter", "lon": -77.05076383333333, "bike_id": "5bff6649a17eb0827e7f3a24419790d6", "fusion_lat": 0.0, "name": "5bff6649a17eb0827e7f3a24419790d6", "is_reserved": 0, "rental_uris": {"android": "https://dc.lft.to/lastmile_qr_scan", "ios": "https://dc.lft.to/lastmile_qr_scan"}, "fusion_lon": 0.0}, {"lat": 38.91267366666667, "is_disabled": 0, "type": "electric_scooter", "lon": -77.0197745, "bike_id": "a2ef3809b33c2ce28a87dbb6a1af6641", "fusion_lat": 0.0, "name": "a2ef3809b33c2ce28a87dbb6a1af6641", "is_reserved": 0, "rental_uris": {"android": "https://dc.lft.to/lastmile_qr_scan", "ios": "https://dc.lft.to/lastmile_qr_scan"}, "fusion_lon": 0.0}, {"lat": 38.90024433333333, "is_disabled": 0, "type": "electric_scooter", "lon": -77.03307616666666, "bike_id": "c3da0a8dcc3ebabeac9c450953fa275e", "fusion_lat": 0.0, "name": "c3da0a8dcc3ebabeac9c450953fa275e", "is_reserved": 0, "rental_uris": {"android": "https://dc.lft.to/lastmile_qr_scan", "ios": "https://dc.lft.to/lastmile_qr_scan"}, "fusion_lon": 0.0}, {"lat": 38.86505983333333, "is_disabled": 0, "type": "electric_scooter", "lon": -76.9900205, "bike_id": "c622b6aa31380bc2bfe9fc13b98b5ccf", "fusion_lat": 0.0, "name": "c622b6aa31380bc2bfe9fc13b98b5ccf", "is_reserved": 0, "rental_uris": {"android": "https://dc.lft.to/lastmile_qr_scan", "ios": "https://dc.lft.to/lastmile_qr_scan"}, "fusion_lon": 0.0}, {"lat": 38.89221916666666, "is_disabled": 0, "type": "electric_scooter", "lon": -76.93292133333334, "bike_id": "9891f34663230798fb84a70e45798503", "fusion_lat": 0.0, "name": "9891f34663230798fb84a70e45798503", "is_reserved": 0, "rental_uris": {"android": "https://dc.lft.to/lastmile_qr_scan", "ios": "https://dc.lft.to/lastmile_qr_scan"}, "fusion_lon": 0.0}, {"lat": 38.9022695, "is_disabled": 0, "type": "electric_scooter", "lon": -77.05909116666666, "bike_id": "0d55173a4094cf273d51a3af5aac442d", "fusion_lat": 0.0, "name": "0d55173a4094cf273d51a3af5aac442d", "is_reserved": 0, "rental_uris": {"android": "https://dc.lft.to/lastmile_qr_scan", "ios": "https://dc.lft.to/lastmile_qr_scan"}, "fusion_lon": 0.0}, {"lat": 38.88498883333333, "is_disabled": 0, "type": "electric_scooter", "lon": -77.00708966666667, "bike_id": "86175876ad1389b98ee9aa90d3116be1", "fusion_lat": 0.0, "name": "86175876ad1389b98ee9aa90d3116be1", "is_reserved": 0, "rental_uris": {"android": "https://dc.lft.to/lastmile_qr_scan", "ios": "https://dc.lft.to/lastmile_qr_scan"}, "fusion_lon": 0.0}, {"lat": 38.800554166666664, "is_disabled": 0, "type": "electric_bike", "lon": -77.07103483333333, "bike_id": "53390cfdcd9c9a79b0ee2db5d9141368", "fusion_lat": 0.0, "name": "53390cfdcd9c9a79b0ee2db5d9141368", "is_reserved": 0, "rental_uris": {"android": "https://dc.lft.to/lastmile_qr_scan", "ios": "https://dc.lft.to/lastmile_qr_scan"}, "fusion_lon": 0.0}, {"lat": 38.94040233333333, "is_disabled": 0, "type": "electric_bike", "lon": -76.988186, "bike_id": "691e20c4141dc8fe8b1a864414d81340", "fusion_lat": 0.0, "name": "691e20c4141dc8fe8b1a864414d81340", "is_reserved": 0, "rental_uris": {"android": "https://dc.lft.to/lastmile_qr_scan", "ios": "https://dc.lft.to/lastmile_qr_scan"}, "fusion_lon": 0.0}, {"lat": 38.92071883333333, "is_disabled": 0, "type": "electric_scooter", "lon": -77.0253725, "bike_id": "d1f2cc24f490c4c31794f6d9cd028ca0", "fusion_lat": 0.0, "name": "d1f2cc24f490c4c31794f6d9cd028ca0", "is_reserved": 0, "rental_uris": {"android": "https://dc.lft.to/lastmile_qr_scan", "ios": "https://dc.lft.to/lastmile_qr_scan"}, "fusion_lon": 0.0}, {"lat": 38.8665205, "is_disabled": 0, "type": "electric_scooter", "lon": -76.98878933333333, "bike_id": "5bbd6d1d95b0f4118a939c492a05b138", "fusion_lat": 0.0, "name": "5bbd6d1d95b0f4118a939c492a05b138", "is_reserved": 0, "rental_uris": {"android": "https://dc.lft.to/lastmile_qr_scan", "ios": "https://dc.lft.to/lastmile_qr_scan"}, "fusion_lon": 0.0}, {"lat": 38.90547566666667, "is_disabled": 0, "type": "electric_scooter", "lon": -77.03241816666667, "bike_id": "1d5b10feafb77126ac7b4f829e0ab91e", "fusion_lat": 0.0, "name": "1d5b10feafb77126ac7b4f829e0ab91e", "is_reserved": 0, "rental_uris": {"android": "https://dc.lft.to/lastmile_qr_scan", "ios": "https://dc.lft.to/lastmile_qr_scan"}, "fusion_lon": 0.0}, {"lat": 38.88488983333333, "is_disabled": 0, "type": "electric_scooter", "lon": -77.00707, "bike_id": "0f2350d5c3f232d93fe4d436efbf3757", "fusion_lat": 0.0, "name": "0f2350d5c3f232d93fe4d436efbf3757", "is_reserved": 0, "rental_uris": {"android": "https://dc.lft.to/lastmile_qr_scan", "ios": "https://dc.lft.to/lastmile_qr_scan"}, "fusion_lon": 0.0}, {"lat": 38.994012, "is_disabled": 0, "type": "electric_bike", "lon": -77.03166733333333, "bike_id": "ff82d586f2f0fd82f67623d3c975e531", "fusion_lat": 0.0, "name": "ff82d586f2f0fd82f67623d3c975e531", "is_reserved": 0, "rental_uris": {"android": "https://dc.lft.to/lastmile_qr_scan", "ios": "https://dc.lft.to/lastmile_qr_scan"}, "fusion_lon": 0.0}, {"lat": 38.87962666666667, "is_disabled": 0, "type": "electric_scooter", "lon": -76.987448, "bike_id": "63c937596120d4381f509d851ea1ba32", "fusion_lat": 0.0, "name": "63c937596120d4381f509d851ea1ba32", "is_reserved": 0, "rental_uris": {"android": "https://dc.lft.to/lastmile_qr_scan", "ios": "https://dc.lft.to/lastmile_qr_scan"}, "fusion_lon": 0.0}, {"lat": 38.9167465, "is_disabled": 0, "type": "electric_scooter", "lon": -77.0259055, "bike_id": "cc781a5d951ae72376093485edf44a4a", "fusion_lat": 0.0, "name": "cc781a5d951ae72376093485edf44a4a", "is_reserved": 0, "rental_uris": {"android": "https://dc.lft.to/lastmile_qr_scan", "ios": "https://dc.lft.to/lastmile_qr_scan"}, "fusion_lon": 0.0}, {"lat": 38.900154, "is_disabled": 0, "type": "electric_scooter", "lon": -77.01198733333334, "bike_id": "a1fce96f41e3614a86ba13a4b19d7ace", "fusion_lat": 0.0, "name": "a1fce96f41e3614a86ba13a4b19d7ace", "is_reserved": 0, "rental_uris": {"android": "https://dc.lft.to/lastmile_qr_scan", "ios": "https://dc.lft.to/lastmile_qr_scan"}, "fusion_lon": 0.0}, {"lat": 38.925745, "is_disabled": 0, "type": "electric_scooter", "lon": -76.98609516666667, "bike_id": "59ab12e2f8799b17e518eedf4f74a676", "fusion_lat": 0.0, "name": "59ab12e2f8799b17e518eedf4f74a676", "is_reserved": 0, "rental_uris": {"android": "https://dc.lft.to/lastmile_qr_scan", "ios": "https://dc.lft.to/lastmile_qr_scan"}, "fusion_lon": 0.0}, {"lat": 38.923700833333335, "is_disabled": 0, "type": "electric_scooter", "lon": -77.02917966666666, "bike_id": "5eeadb54a04d44b74520dc19beaf629a", "fusion_lat": 0.0, "name": "5eeadb54a04d44b74520dc19beaf629a", "is_reserved": 0, "rental_uris": {"android": "https://dc.lft.to/lastmile_qr_scan", "ios": "https://dc.lft.to/lastmile_qr_scan"}, "fusion_lon": 0.0}, {"lat": 38.8429205, "is_disabled": 0, "type": "electric_scooter", "lon": -76.9994405, "bike_id": "2447b6a4a30e0882dc766c65cdbf0d09", "fusion_lat": 0.0, "name": "2447b6a4a30e0882dc766c65cdbf0d09", "is_reserved": 0, "rental_uris": {"android": "https://dc.lft.to/lastmile_qr_scan", "ios": "https://dc.lft.to/lastmile_qr_scan"}, "fusion_lon": 0.0}, {"lat": 38.92151283333333, "is_disabled": 0, "type": "electric_scooter", "lon": -77.035045, "bike_id": "e3360e9ac700c7d54a29e276def9e9c0", "fusion_lat": 0.0, "name": "e3360e9ac700c7d54a29e276def9e9c0", "is_reserved": 0, "rental_uris": {"android": "https://dc.lft.to/lastmile_qr_scan", "ios": "https://dc.lft.to/lastmile_qr_scan"}, "fusion_lon": 0.0}, {"lat": 38.90249716666667, "is_disabled": 0, "type": "electric_scooter", "lon": -77.05405483333334, "bike_id": "ba22f76f61d1bbff5cf3baf5272ba304", "fusion_lat": 0.0, "name": "ba22f76f61d1bbff5cf3baf5272ba304", "is_reserved": 0, "rental_uris": {"android": "https://dc.lft.to/lastmile_qr_scan", "ios": "https://dc.lft.to/lastmile_qr_scan"}, "fusion_lon": 0.0}, {"lat": 38.921107666666664, "is_disabled": 0, "type": "electric_scooter", "lon": -77.0175845, "bike_id": "bfcfe85bdf1ef35816d281a1df1f68b2", "fusion_lat": 0.0, "name": "bfcfe85bdf1ef35816d281a1df1f68b2", "is_reserved": 0, "rental_uris": {"android": "https://dc.lft.to/lastmile_qr_scan", "ios": "https://dc.lft.to/lastmile_qr_scan"}, "fusion_lon": 0.0}, {"lat": 38.921704, "is_disabled": 0, "type": "electric_scooter", "lon": -77.051393, "bike_id": "b1e233f182a0f02866eea29dbb78a6e3", "fusion_lat": 0.0, "name": "b1e233f182a0f02866eea29dbb78a6e3", "is_reserved": 0, "rental_uris": {"android": "https://dc.lft.to/lastmile_qr_scan", "ios": "https://dc.lft.to/lastmile_qr_scan"}, "fusion_lon": 0.0}, {"lat": 38.85223583333333, "is_disabled": 0, "type": "electric_bike", "lon": -77.12955716666667, "bike_id": "baac9699afb29aba723f6828f0cd16fa", "fusion_lat": 0.0, "name": "baac9699afb29aba723f6828f0cd16fa", "is_reserved": 0, "rental_uris": {"android": "https://dc.lft.to/lastmile_qr_scan", "ios": "https://dc.lft.to/lastmile_qr_scan"}, "fusion_lon": 0.0}, {"lat": 38.917642, "is_disabled": 0, "type": "electric_scooter", "lon": -77.00446183333334, "bike_id": "400aa1001c5d68a33f9b26499965e5e2", "fusion_lat": 0.0, "name": "400aa1001c5d68a33f9b26499965e5e2", "is_reserved": 0, "rental_uris": {"android": "https://dc.lft.to/lastmile_qr_scan", "ios": "https://dc.lft.to/lastmile_qr_scan"}, "fusion_lon": 0.0}, {"lat": 38.892242333333336, "is_disabled": 0, "type": "electric_scooter", "lon": -77.0486255, "bike_id": "c5f2133845827dbb66dc37a2933b289c", "fusion_lat": 0.0, "name": "c5f2133845827dbb66dc37a2933b289c", "is_reserved": 0, "rental_uris": {"android": "https://dc.lft.to/lastmile_qr_scan", "ios": "https://dc.lft.to/lastmile_qr_scan"}, "fusion_lon": 0.0}, {"lat": 38.865248666666666, "is_disabled": 0, "type": "electric_scooter", "lon": -76.990275, "bike_id": "bc8a0294dff1aab2e5111aec66a30136", "fusion_lat": 0.0, "name": "bc8a0294dff1aab2e5111aec66a30136", "is_reserved": 0, "rental_uris": {"android": "https://dc.lft.to/lastmile_qr_scan", "ios": "https://dc.lft.to/lastmile_qr_scan"}, "fusion_lon": 0.0}, {"lat": 38.92158933333333, "is_disabled": 0, "type": "electric_scooter", "lon": -77.04024783333334, "bike_id": "28771a678e869afa9d1f5e8abef010a8", "fusion_lat": 0.0, "name": "28771a678e869afa9d1f5e8abef010a8", "is_reserved": 0, "rental_uris": {"android": "https://dc.lft.to/lastmile_qr_scan", "ios": "https://dc.lft.to/lastmile_qr_scan"}, "fusion_lon": 0.0}, {"lat": 38.910109, "is_disabled": 0, "type": "electric_scooter", "lon": -77.0400695, "bike_id": "fc9d837ae0e459514b18c3e10efb1515", "fusion_lat": 0.0, "name": "fc9d837ae0e459514b18c3e10efb1515", "is_reserved": 0, "rental_uris": {"android": "https://dc.lft.to/lastmile_qr_scan", "ios": "https://dc.lft.to/lastmile_qr_scan"}, "fusion_lon": 0.0}, {"lat": 38.90045766666667, "is_disabled": 0, "type": "electric_scooter", "lon": -77.00761283333334, "bike_id": "ef0c37a0ff3c68fce1decdc4a6734044", "fusion_lat": 0.0, "name": "ef0c37a0ff3c68fce1decdc4a6734044", "is_reserved": 0, "rental_uris": {"android": "https://dc.lft.to/lastmile_qr_scan", "ios": "https://dc.lft.to/lastmile_qr_scan"}, "fusion_lon": 0.0}, {"lat": 38.91690166666667, "is_disabled": 0, "type": "electric_scooter", "lon": -77.025942, "bike_id": "6aed1268fd8a310b4b2013893d4c0aa6", "fusion_lat": 0.0, "name": "6aed1268fd8a310b4b2013893d4c0aa6", "is_reserved": 0, "rental_uris": {"android": "https://dc.lft.to/lastmile_qr_scan", "ios": "https://dc.lft.to/lastmile_qr_scan"}, "fusion_lon": 0.0}, {"lat": 38.932313, "is_disabled": 0, "type": "electric_scooter", "lon": -77.044124, "bike_id": "d87ee88d66f935cec5038b5611614dbd", "fusion_lat": 0.0, "name": "d87ee88d66f935cec5038b5611614dbd", "is_reserved": 0, "rental_uris": {"android": "https://dc.lft.to/lastmile_qr_scan", "ios": "https://dc.lft.to/lastmile_qr_scan"}, "fusion_lon": 0.0}, {"lat": 38.86593933333333, "is_disabled": 0, "type": "electric_bike", "lon": -76.93229883333333, "bike_id": "eb2eca743151c0d39158958e1c839366", "fusion_lat": 0.0, "name": "eb2eca743151c0d39158958e1c839366", "is_reserved": 0, "rental_uris": {"android": "https://dc.lft.to/lastmile_qr_scan", "ios": "https://dc.lft.to/lastmile_qr_scan"}, "fusion_lon": 0.0}, {"lat": 38.82008316666667, "is_disabled": 0, "type": "electric_bike", "lon": -77.05762833333333, "bike_id": "719643b4f1a3832e4cd9d5b391fd6c96", "fusion_lat": 0.0, "name": "719643b4f1a3832e4cd9d5b391fd6c96", "is_reserved": 0, "rental_uris": {"android": "https://dc.lft.to/lastmile_qr_scan", "ios": "https://dc.lft.to/lastmile_qr_scan"}, "fusion_lon": 0.0}, {"lat": 38.957461, "is_disabled": 0, "type": "electric_bike", "lon": -77.02164666666667, "bike_id": "0f85da509a89f1e6d3df5868133b0c72", "fusion_lat": 0.0, "name": "0f85da509a89f1e6d3df5868133b0c72", "is_reserved": 0, "rental_uris": {"android": "https://dc.lft.to/lastmile_qr_scan", "ios": "https://dc.lft.to/lastmile_qr_scan"}, "fusion_lon": 0.0}, {"lat": 38.885305833333334, "is_disabled": 0, "type": "electric_scooter", "lon": -77.01516516666666, "bike_id": "953b47bdba5819148b71d06ca9f9e7bf", "fusion_lat": 0.0, "name": "953b47bdba5819148b71d06ca9f9e7bf", "is_reserved": 0, "rental_uris": {"android": "https://dc.lft.to/lastmile_qr_scan", "ios": "https://dc.lft.to/lastmile_qr_scan"}, "fusion_lon": 0.0}, {"lat": 38.8960365, "is_disabled": 0, "type": "electric_scooter", "lon": -77.02704983333334, "bike_id": "2614fb05bc988c565ecc07dd83057cb6", "fusion_lat": 0.0, "name": "2614fb05bc988c565ecc07dd83057cb6", "is_reserved": 0, "rental_uris": {"android": "https://dc.lft.to/lastmile_qr_scan", "ios": "https://dc.lft.to/lastmile_qr_scan"}, "fusion_lon": 0.0}, {"lat": 38.870637333333335, "is_disabled": 0, "type": "electric_scooter", "lon": -77.00838233333333, "bike_id": "348bdcffc8277fdd32de563460d360e5", "fusion_lat": 0.0, "name": "348bdcffc8277fdd32de563460d360e5", "is_reserved": 0, "rental_uris": {"android": "https://dc.lft.to/lastmile_qr_scan", "ios": "https://dc.lft.to/lastmile_qr_scan"}, "fusion_lon": 0.0}, {"lat": 38.86211733333333, "is_disabled": 0, "type": "electric_bike", "lon": -76.9977655, "bike_id": "d542d218640a8e422c1aecda24ac3875", "fusion_lat": 0.0, "name": "d542d218640a8e422c1aecda24ac3875", "is_reserved": 0, "rental_uris": {"android": "https://dc.lft.to/lastmile_qr_scan", "ios": "https://dc.lft.to/lastmile_qr_scan"}, "fusion_lon": 0.0}, {"lat": 38.8667745, "is_disabled": 0, "type": "electric_scooter", "lon": -76.98539383333333, "bike_id": "6e9ff5608f831920abb870319711ce6b", "fusion_lat": 0.0, "name": "6e9ff5608f831920abb870319711ce6b", "is_reserved": 0, "rental_uris": {"android": "https://dc.lft.to/lastmile_qr_scan", "ios": "https://dc.lft.to/lastmile_qr_scan"}, "fusion_lon": 0.0}, {"lat": 38.9170295, "is_disabled": 0, "type": "electric_scooter", "lon": -77.03581966666667, "bike_id": "6e5bd3a703c12449c1abc8e49971af4f", "fusion_lat": 0.0, "name": "6e5bd3a703c12449c1abc8e49971af4f", "is_reserved": 0, "rental_uris": {"android": "https://dc.lft.to/lastmile_qr_scan", "ios": "https://dc.lft.to/lastmile_qr_scan"}, "fusion_lon": 0.0}, {"lat": 38.93435233333334, "is_disabled": 0, "type": "electric_scooter", "lon": -77.0346485, "bike_id": "5651cad1f0b3bd395cbd1262868d85c2", "fusion_lat": 0.0, "name": "5651cad1f0b3bd395cbd1262868d85c2", "is_reserved": 0, "rental_uris": {"android": "https://dc.lft.to/lastmile_qr_scan", "ios": "https://dc.lft.to/lastmile_qr_scan"}, "fusion_lon": 0.0}, {"lat": 38.92301533333333, "is_disabled": 0, "type": "electric_scooter", "lon": -77.023299, "bike_id": "5946404c56d1270309f7bedfdd079211", "fusion_lat": 0.0, "name": "5946404c56d1270309f7bedfdd079211", "is_reserved": 0, "rental_uris": {"android": "https://dc.lft.to/lastmile_qr_scan", "ios": "https://dc.lft.to/lastmile_qr_scan"}, "fusion_lon": 0.0}, {"lat": 38.90259183333333, "is_disabled": 0, "type": "electric_scooter", "lon": -77.03216783333333, "bike_id": "a39b4f32343027b97b6e0062fae6f336", "fusion_lat": 0.0, "name": "a39b4f32343027b97b6e0062fae6f336", "is_reserved": 0, "rental_uris": {"android": "https://dc.lft.to/lastmile_qr_scan", "ios": "https://dc.lft.to/lastmile_qr_scan"}, "fusion_lon": 0.0}, {"lat": 38.89888083333334, "is_disabled": 0, "type": "electric_scooter", "lon": -77.07231533333334, "bike_id": "2ce2f5d7624969ca28ecb8fc0bff9157", "fusion_lat": 0.0, "name": "2ce2f5d7624969ca28ecb8fc0bff9157", "is_reserved": 0, "rental_uris": {"android": "https://dc.lft.to/lastmile_qr_scan", "ios": "https://dc.lft.to/lastmile_qr_scan"}, "fusion_lon": 0.0}, {"lat": 38.939808, "is_disabled": 0, "type": "electric_scooter", "lon": -77.02628166666666, "bike_id": "c0951f4b06477afc473e38276ebcd93b", "fusion_lat": 0.0, "name": "c0951f4b06477afc473e38276ebcd93b", "is_reserved": 0, "rental_uris": {"android": "https://dc.lft.to/lastmile_qr_scan", "ios": "https://dc.lft.to/lastmile_qr_scan"}, "fusion_lon": 0.0}, {"lat": 38.912515, "is_disabled": 0, "type": "electric_scooter", "lon": -77.0466445, "bike_id": "c76d3026f66458be5a9cd48f812319c4", "fusion_lat": 0.0, "name": "c76d3026f66458be5a9cd48f812319c4", "is_reserved": 0, "rental_uris": {"android": "https://dc.lft.to/lastmile_qr_scan", "ios": "https://dc.lft.to/lastmile_qr_scan"}, "fusion_lon": 0.0}, {"lat": 38.9329715, "is_disabled": 0, "type": "electric_scooter", "lon": -77.02193583333333, "bike_id": "491003601b09dcb6ea0db00ac9a77ba1", "fusion_lat": 0.0, "name": "491003601b09dcb6ea0db00ac9a77ba1", "is_reserved": 0, "rental_uris": {"android": "https://dc.lft.to/lastmile_qr_scan", "ios": "https://dc.lft.to/lastmile_qr_scan"}, "fusion_lon": 0.0}, {"lat": 38.901040333333334, "is_disabled": 0, "type": "electric_scooter", "lon": -77.0589805, "bike_id": "afa97f2b2fbc9314d257b7e47ddec2fb", "fusion_lat": 0.0, "name": "afa97f2b2fbc9314d257b7e47ddec2fb", "is_reserved": 0, "rental_uris": {"android": "https://dc.lft.to/lastmile_qr_scan", "ios": "https://dc.lft.to/lastmile_qr_scan"}, "fusion_lon": 0.0}, {"lat": 38.9035035, "is_disabled": 0, "type": "electric_scooter", "lon": -77.04493066666667, "bike_id": "7c1e30efa9cdd20e44a9167a41ed875f", "fusion_lat": 0.0, "name": "7c1e30efa9cdd20e44a9167a41ed875f", "is_reserved": 0, "rental_uris": {"android": "https://dc.lft.to/lastmile_qr_scan", "ios": "https://dc.lft.to/lastmile_qr_scan"}, "fusion_lon": 0.0}, {"lat": 38.87342433333333, "is_disabled": 0, "type": "electric_scooter", "lon": -76.99164416666666, "bike_id": "4e388b9356772afa609d161689c03562", "fusion_lat": 0.0, "name": "4e388b9356772afa609d161689c03562", "is_reserved": 0, "rental_uris": {"android": "https://dc.lft.to/lastmile_qr_scan", "ios": "https://dc.lft.to/lastmile_qr_scan"}, "fusion_lon": 0.0}, {"lat": 38.87628016666667, "is_disabled": 0, "type": "electric_scooter", "lon": -76.96521, "bike_id": "fe7543cba2653f620ca8ce1f0ede1cbe", "fusion_lat": 0.0, "name": "fe7543cba2653f620ca8ce1f0ede1cbe", "is_reserved": 0, "rental_uris": {"android": "https://dc.lft.to/lastmile_qr_scan", "ios": "https://dc.lft.to/lastmile_qr_scan"}, "fusion_lon": 0.0}, {"lat": 38.907183333333336, "is_disabled": 0, "type": "electric_scooter", "lon": -77.027534, "bike_id": "239fb1107e48417b1d44ea4b8374101f", "fusion_lat": 0.0, "name": "239fb1107e48417b1d44ea4b8374101f", "is_reserved": 0, "rental_uris": {"android": "https://dc.lft.to/lastmile_qr_scan", "ios": "https://dc.lft.to/lastmile_qr_scan"}, "fusion_lon": 0.0}, {"lat": 38.9191825, "is_disabled": 0, "type": "electric_scooter", "lon": -77.0245865, "bike_id": "fd6175c684b5b330757debde7dacd033", "fusion_lat": 0.0, "name": "fd6175c684b5b330757debde7dacd033", "is_reserved": 0, "rental_uris": {"android": "https://dc.lft.to/lastmile_qr_scan", "ios": "https://dc.lft.to/lastmile_qr_scan"}, "fusion_lon": 0.0}, {"lat": 38.9062025, "is_disabled": 0, "type": "electric_scooter", "lon": -77.021758, "bike_id": "5c5d8b4675a8d856ff35031de5cc43f5", "fusion_lat": 0.0, "name": "5c5d8b4675a8d856ff35031de5cc43f5", "is_reserved": 0, "rental_uris": {"android": "https://dc.lft.to/lastmile_qr_scan", "ios": "https://dc.lft.to/lastmile_qr_scan"}, "fusion_lon": 0.0}, {"lat": 38.90070333333333, "is_disabled": 0, "type": "electric_scooter", "lon": -77.04419183333333, "bike_id": "6b1d1dfa04d511e56467425c31a803e6", "fusion_lat": 0.0, "name": "6b1d1dfa04d511e56467425c31a803e6", "is_reserved": 0, "rental_uris": {"android": "https://dc.lft.to/lastmile_qr_scan", "ios": "https://dc.lft.to/lastmile_qr_scan"}, "fusion_lon": 0.0}, {"lat": 38.95421916666667, "is_disabled": 0, "type": "electric_bike", "lon": -76.98053, "bike_id": "ed810d393ec30bd903160e2b71ea5f5b", "fusion_lat": 0.0, "name": "ed810d393ec30bd903160e2b71ea5f5b", "is_reserved": 0, "rental_uris": {"android": "https://dc.lft.to/lastmile_qr_scan", "ios": "https://dc.lft.to/lastmile_qr_scan"}, "fusion_lon": 0.0}, {"lat": 38.90119833333333, "is_disabled": 0, "type": "electric_scooter", "lon": -77.03298866666667, "bike_id": "c8169c27aa9b9b7c4b2c389f60a0d92e", "fusion_lat": 0.0, "name": "c8169c27aa9b9b7c4b2c389f60a0d92e", "is_reserved": 0, "rental_uris": {"android": "https://dc.lft.to/lastmile_qr_scan", "ios": "https://dc.lft.to/lastmile_qr_scan"}, "fusion_lon": 0.0}, {"lat": 38.85188266666667, "is_disabled": 0, "type": "electric_scooter", "lon": -76.97618683333333, "bike_id": "a4e31dc88ccffb368a9bbdcb454e3fa9", "fusion_lat": 0.0, "name": "a4e31dc88ccffb368a9bbdcb454e3fa9", "is_reserved": 0, "rental_uris": {"android": "https://dc.lft.to/lastmile_qr_scan", "ios": "https://dc.lft.to/lastmile_qr_scan"}, "fusion_lon": 0.0}, {"lat": 38.945507166666665, "is_disabled": 0, "type": "electric_bike", "lon": -76.8953155, "bike_id": "addb0db49646316c4d52ff6b7005cef4", "fusion_lat": 0.0, "name": "addb0db49646316c4d52ff6b7005cef4", "is_reserved": 0, "rental_uris": {"android": "https://dc.lft.to/lastmile_qr_scan", "ios": "https://dc.lft.to/lastmile_qr_scan"}, "fusion_lon": 0.0}, {"lat": 38.917177333333335, "is_disabled": 0, "type": "electric_scooter", "lon": -77.023021, "bike_id": "bad53efe51e6ecd41a67ea7aa856e849", "fusion_lat": 0.0, "name": "bad53efe51e6ecd41a67ea7aa856e849", "is_reserved": 0, "rental_uris": {"android": "https://dc.lft.to/lastmile_qr_scan", "ios": "https://dc.lft.to/lastmile_qr_scan"}, "fusion_lon": 0.0}, {"lat": 38.844309833333334, "is_disabled": 0, "type": "electric_scooter", "lon": -76.99655916666667, "bike_id": "3d4819173de2780444f497af67402749", "fusion_lat": 0.0, "name": "3d4819173de2780444f497af67402749", "is_reserved": 0, "rental_uris": {"android": "https://dc.lft.to/lastmile_qr_scan", "ios": "https://dc.lft.to/lastmile_qr_scan"}, "fusion_lon": 0.0}, {"lat": 38.905327, "is_disabled": 0, "type": "electric_scooter", "lon": -77.05712883333334, "bike_id": "9c636be5f9195016b6bd6ab3b76c20b2", "fusion_lat": 0.0, "name": "9c636be5f9195016b6bd6ab3b76c20b2", "is_reserved": 0, "rental_uris": {"android": "https://dc.lft.to/lastmile_qr_scan", "ios": "https://dc.lft.to/lastmile_qr_scan"}, "fusion_lon": 0.0}, {"lat": 38.9365665, "is_disabled": 0, "type": "electric_bike", "lon": -76.9521745, "bike_id": "ac968a5a8a30acfe86737f2e8862ed0b", "fusion_lat": 0.0, "name": "ac968a5a8a30acfe86737f2e8862ed0b", "is_reserved": 0, "rental_uris": {"android": "https://dc.lft.to/lastmile_qr_scan", "ios": "https://dc.lft.to/lastmile_qr_scan"}, "fusion_lon": 0.0}, {"lat": 39.0342395, "is_disabled": 0, "type": "electric_bike", "lon": -77.043011, "bike_id": "e472e94c34111fbfcfc341458ae08b7a", "fusion_lat": 0.0, "name": "e472e94c34111fbfcfc341458ae08b7a", "is_reserved": 0, "rental_uris": {"android": "https://dc.lft.to/lastmile_qr_scan", "ios": "https://dc.lft.to/lastmile_qr_scan"}, "fusion_lon": 0.0}, {"lat": 38.90121533333333, "is_disabled": 0, "type": "electric_scooter", "lon": -77.043636, "bike_id": "b1709fb8b3f79f361c0e8332275b91b8", "fusion_lat": 0.0, "name": "b1709fb8b3f79f361c0e8332275b91b8", "is_reserved": 0, "rental_uris": {"android": "https://dc.lft.to/lastmile_qr_scan", "ios": "https://dc.lft.to/lastmile_qr_scan"}, "fusion_lon": 0.0}, {"lat": 38.90078066666667, "is_disabled": 0, "type": "electric_scooter", "lon": -77.04900166666667, "bike_id": "ea2eee5486ba0e6f490042f310922544", "fusion_lat": 0.0, "name": "ea2eee5486ba0e6f490042f310922544", "is_reserved": 0, "rental_uris": {"android": "https://dc.lft.to/lastmile_qr_scan", "ios": "https://dc.lft.to/lastmile_qr_scan"}, "fusion_lon": 0.0}, {"lat": 38.925838, "is_disabled": 0, "type": "electric_scooter", "lon": -77.04409883333334, "bike_id": "51eb2843ec59c207368fb6e7e322aa5f", "fusion_lat": 0.0, "name": "51eb2843ec59c207368fb6e7e322aa5f", "is_reserved": 0, "rental_uris": {"android": "https://dc.lft.to/lastmile_qr_scan", "ios": "https://dc.lft.to/lastmile_qr_scan"}, "fusion_lon": 0.0}, {"lat": 38.90600366666666, "is_disabled": 0, "type": "electric_scooter", "lon": -77.06341366666666, "bike_id": "c8a360a30341eb875931fd8bfcaa0422", "fusion_lat": 0.0, "name": "c8a360a30341eb875931fd8bfcaa0422", "is_reserved": 0, "rental_uris": {"android": "https://dc.lft.to/lastmile_qr_scan", "ios": "https://dc.lft.to/lastmile_qr_scan"}, "fusion_lon": 0.0}, {"lat": 38.992556, "is_disabled": 0, "type": "electric_scooter", "lon": -77.03653783333333, "bike_id": "2ee5c47ee26afb14b0307b55e331ff5b", "fusion_lat": 0.0, "name": "2ee5c47ee26afb14b0307b55e331ff5b", "is_reserved": 0, "rental_uris": {"android": "https://dc.lft.to/lastmile_qr_scan", "ios": "https://dc.lft.to/lastmile_qr_scan"}, "fusion_lon": 0.0}, {"lat": 38.857152, "is_disabled": 0, "type": "electric_scooter", "lon": -76.98675583333333, "bike_id": "c690df6dff56e433c65bcbd5fbf26bcd", "fusion_lat": 0.0, "name": "c690df6dff56e433c65bcbd5fbf26bcd", "is_reserved": 0, "rental_uris": {"android": "https://dc.lft.to/lastmile_qr_scan", "ios": "https://dc.lft.to/lastmile_qr_scan"}, "fusion_lon": 0.0}, {"lat": 38.893465, "is_disabled": 0, "type": "electric_scooter", "lon": -77.04136716666666, "bike_id": "9f8bcd6afeb4f0d67f6db3f9f0d06f8e", "fusion_lat": 0.0, "name": "9f8bcd6afeb4f0d67f6db3f9f0d06f8e", "is_reserved": 0, "rental_uris": {"android": "https://dc.lft.to/lastmile_qr_scan", "ios": "https://dc.lft.to/lastmile_qr_scan"}, "fusion_lon": 0.0}, {"lat": 38.905220666666665, "is_disabled": 0, "type": "electric_scooter", "lon": -77.0630425, "bike_id": "c1e3953f992e4eb82e23ec0b1580cd7e", "fusion_lat": 0.0, "name": "c1e3953f992e4eb82e23ec0b1580cd7e", "is_reserved": 0, "rental_uris": {"android": "https://dc.lft.to/lastmile_qr_scan", "ios": "https://dc.lft.to/lastmile_qr_scan"}, "fusion_lon": 0.0}, {"lat": 38.89072083333333, "is_disabled": 0, "type": "electric_scooter", "lon": -76.988351, "bike_id": "32aca146bc7b7669d3881c29700f7518", "fusion_lat": 0.0, "name": "32aca146bc7b7669d3881c29700f7518", "is_reserved": 0, "rental_uris": {"android": "https://dc.lft.to/lastmile_qr_scan", "ios": "https://dc.lft.to/lastmile_qr_scan"}, "fusion_lon": 0.0}, {"lat": 38.93741166666667, "is_disabled": 0, "type": "electric_scooter", "lon": -77.03619583333334, "bike_id": "4497e359b40d3ee5c7202ab3ac11cbc1", "fusion_lat": 0.0, "name": "4497e359b40d3ee5c7202ab3ac11cbc1", "is_reserved": 0, "rental_uris": {"android": "https://dc.lft.to/lastmile_qr_scan", "ios": "https://dc.lft.to/lastmile_qr_scan"}, "fusion_lon": 0.0}, {"lat": 38.91191466666667, "is_disabled": 0, "type": "electric_scooter", "lon": -77.03204533333333, "bike_id": "b9c7bfe07249a5d90ddebeae820cd0ad", "fusion_lat": 0.0, "name": "b9c7bfe07249a5d90ddebeae820cd0ad", "is_reserved": 0, "rental_uris": {"android": "https://dc.lft.to/lastmile_qr_scan", "ios": "https://dc.lft.to/lastmile_qr_scan"}, "fusion_lon": 0.0}, {"lat": 38.9168275, "is_disabled": 0, "type": "electric_scooter", "lon": -77.00195916666667, "bike_id": "05870c50c2ebd2940704841b86883e6a", "fusion_lat": 0.0, "name": "05870c50c2ebd2940704841b86883e6a", "is_reserved": 0, "rental_uris": {"android": "https://dc.lft.to/lastmile_qr_scan", "ios": "https://dc.lft.to/lastmile_qr_scan"}, "fusion_lon": 0.0}, {"lat": 38.958921833333335, "is_disabled": 0, "type": "electric_bike", "lon": -76.92482366666667, "bike_id": "11d1d5b6c2c1f62d454a7e93cc88e5cf", "fusion_lat": 0.0, "name": "11d1d5b6c2c1f62d454a7e93cc88e5cf", "is_reserved": 0, "rental_uris": {"android": "https://dc.lft.to/lastmile_qr_scan", "ios": "https://dc.lft.to/lastmile_qr_scan"}, "fusion_lon": 0.0}, {"lat": 38.92531916666667, "is_disabled": 0, "type": "electric_scooter", "lon": -77.02627016666666, "bike_id": "cba59bfb523b0604febdb1313bafc7d9", "fusion_lat": 0.0, "name": "cba59bfb523b0604febdb1313bafc7d9", "is_reserved": 0, "rental_uris": {"android": "https://dc.lft.to/lastmile_qr_scan", "ios": "https://dc.lft.to/lastmile_qr_scan"}, "fusion_lon": 0.0}, {"lat": 38.883642, "is_disabled": 0, "type": "electric_scooter", "lon": -76.94151216666667, "bike_id": "cccd359222cc1c4c921544ce93791a49", "fusion_lat": 0.0, "name": "cccd359222cc1c4c921544ce93791a49", "is_reserved": 0, "rental_uris": {"android": "https://dc.lft.to/lastmile_qr_scan", "ios": "https://dc.lft.to/lastmile_qr_scan"}, "fusion_lon": 0.0}, {"lat": 38.94118916666667, "is_disabled": 0, "type": "electric_scooter", "lon": -77.00067066666666, "bike_id": "1a662ee843e5627ae19559f27dc7dc15", "fusion_lat": 0.0, "name": "1a662ee843e5627ae19559f27dc7dc15", "is_reserved": 0, "rental_uris": {"android": "https://dc.lft.to/lastmile_qr_scan", "ios": "https://dc.lft.to/lastmile_qr_scan"}, "fusion_lon": 0.0}, {"lat": 38.9046485, "is_disabled": 0, "type": "electric_scooter", "lon": -77.00062916666667, "bike_id": "751105c0727e6eb6243241f7786f8981", "fusion_lat": 0.0, "name": "751105c0727e6eb6243241f7786f8981", "is_reserved": 0, "rental_uris": {"android": "https://dc.lft.to/lastmile_qr_scan", "ios": "https://dc.lft.to/lastmile_qr_scan"}, "fusion_lon": 0.0}, {"lat": 38.9518405, "is_disabled": 0, "type": "electric_bike", "lon": -76.9354415, "bike_id": "2da0aa94036241f8850eed177e1405bb", "fusion_lat": 0.0, "name": "2da0aa94036241f8850eed177e1405bb", "is_reserved": 0, "rental_uris": {"android": "https://dc.lft.to/lastmile_qr_scan", "ios": "https://dc.lft.to/lastmile_qr_scan"}, "fusion_lon": 0.0}, {"lat": 38.905121333333334, "is_disabled": 0, "type": "electric_scooter", "lon": -77.03494983333333, "bike_id": "25ef3d4d30cc0a1b1eac9446c7c5bf29", "fusion_lat": 0.0, "name": "25ef3d4d30cc0a1b1eac9446c7c5bf29", "is_reserved": 0, "rental_uris": {"android": "https://dc.lft.to/lastmile_qr_scan", "ios": "https://dc.lft.to/lastmile_qr_scan"}, "fusion_lon": 0.0}, {"lat": 38.8990635, "is_disabled": 0, "type": "electric_scooter", "lon": -77.02200966666666, "bike_id": "8db87f3bc3fcf771af5b1576ee3d35b9", "fusion_lat": 0.0, "name": "8db87f3bc3fcf771af5b1576ee3d35b9", "is_reserved": 0, "rental_uris": {"android": "https://dc.lft.to/lastmile_qr_scan", "ios": "https://dc.lft.to/lastmile_qr_scan"}, "fusion_lon": 0.0}, {"lat": 38.93210783333333, "is_disabled": 0, "type": "electric_scooter", "lon": -77.0849205, "bike_id": "b70a4f3297abf85bc02f33892b97dd82", "fusion_lat": 0.0, "name": "b70a4f3297abf85bc02f33892b97dd82", "is_reserved": 0, "rental_uris": {"android": "https://dc.lft.to/lastmile_qr_scan", "ios": "https://dc.lft.to/lastmile_qr_scan"}, "fusion_lon": 0.0}, {"lat": 38.877337833333335, "is_disabled": 0, "type": "electric_bike", "lon": -77.118469, "bike_id": "553a50ea503ee8d11e66de5062752540", "fusion_lat": 0.0, "name": "553a50ea503ee8d11e66de5062752540", "is_reserved": 0, "rental_uris": {"android": "https://dc.lft.to/lastmile_qr_scan", "ios": "https://dc.lft.to/lastmile_qr_scan"}, "fusion_lon": 0.0}, {"lat": 38.86250916666667, "is_disabled": 0, "type": "electric_scooter", "lon": -76.98696, "bike_id": "ddeda39d9b016806ad3e1fd6dd27bd90", "fusion_lat": 0.0, "name": "ddeda39d9b016806ad3e1fd6dd27bd90", "is_reserved": 0, "rental_uris": {"android": "https://dc.lft.to/lastmile_qr_scan", "ios": "https://dc.lft.to/lastmile_qr_scan"}, "fusion_lon": 0.0}, {"lat": 38.94632983333333, "is_disabled": 0, "type": "electric_scooter", "lon": -77.01845683333333, "bike_id": "209d77fa0be77a37455d57d2a1c4b963", "fusion_lat": 0.0, "name": "209d77fa0be77a37455d57d2a1c4b963", "is_reserved": 0, "rental_uris": {"android": "https://dc.lft.to/lastmile_qr_scan", "ios": "https://dc.lft.to/lastmile_qr_scan"}, "fusion_lon": 0.0}, {"lat": 38.867455666666665, "is_disabled": 0, "type": "electric_scooter", "lon": -76.9766165, "bike_id": "cf5a44944fd3b8bb058caa3853e9e8b3", "fusion_lat": 0.0, "name": "cf5a44944fd3b8bb058caa3853e9e8b3", "is_reserved": 0, "rental_uris": {"android": "https://dc.lft.to/lastmile_qr_scan", "ios": "https://dc.lft.to/lastmile_qr_scan"}, "fusion_lon": 0.0}, {"lat": 38.911714, "is_disabled": 0, "type": "electric_scooter", "lon": -77.03856666666667, "bike_id": "5b0970c5d0cd4a109357077af93cbbb3", "fusion_lat": 0.0, "name": "5b0970c5d0cd4a109357077af93cbbb3", "is_reserved": 0, "rental_uris": {"android": "https://dc.lft.to/lastmile_qr_scan", "ios": "https://dc.lft.to/lastmile_qr_scan"}, "fusion_lon": 0.0}, {"lat": 38.920745, "is_disabled": 0, "type": "electric_scooter", "lon": -77.01429133333333, "bike_id": "afb6c6f1b478892154931059dca6c6cb", "fusion_lat": 0.0, "name": "afb6c6f1b478892154931059dca6c6cb", "is_reserved": 0, "rental_uris": {"android": "https://dc.lft.to/lastmile_qr_scan", "ios": "https://dc.lft.to/lastmile_qr_scan"}, "fusion_lon": 0.0}, {"lat": 38.91709083333333, "is_disabled": 0, "type": "electric_scooter", "lon": -77.024653, "bike_id": "db49b4cf498fc92e099863c9006149eb", "fusion_lat": 0.0, "name": "db49b4cf498fc92e099863c9006149eb", "is_reserved": 0, "rental_uris": {"android": "https://dc.lft.to/lastmile_qr_scan", "ios": "https://dc.lft.to/lastmile_qr_scan"}, "fusion_lon": 0.0}, {"lat": 38.90548533333333, "is_disabled": 0, "type": "electric_scooter", "lon": -77.05696233333333, "bike_id": "dfef7bc70320d64463ef4c89415a49ff", "fusion_lat": 0.0, "name": "dfef7bc70320d64463ef4c89415a49ff", "is_reserved": 0, "rental_uris": {"android": "https://dc.lft.to/lastmile_qr_scan", "ios": "https://dc.lft.to/lastmile_qr_scan"}, "fusion_lon": 0.0}, {"lat": 38.925681166666664, "is_disabled": 0, "type": "electric_scooter", "lon": -77.03774883333334, "bike_id": "bcb479abd19073ca2fdfda9e12a20f02", "fusion_lat": 0.0, "name": "bcb479abd19073ca2fdfda9e12a20f02", "is_reserved": 0, "rental_uris": {"android": "https://dc.lft.to/lastmile_qr_scan", "ios": "https://dc.lft.to/lastmile_qr_scan"}, "fusion_lon": 0.0}, {"lat": 38.841104333333334, "is_disabled": 0, "type": "electric_bike", "lon": -77.089413, "bike_id": "1a3b91360031d64771ccb4b6de960c57", "fusion_lat": 0.0, "name": "1a3b91360031d64771ccb4b6de960c57", "is_reserved": 0, "rental_uris": {"android": "https://dc.lft.to/lastmile_qr_scan", "ios": "https://dc.lft.to/lastmile_qr_scan"}, "fusion_lon": 0.0}, {"lat": 38.934689166666665, "is_disabled": 0, "type": "electric_scooter", "lon": -77.02407933333333, "bike_id": "a109c4542a312f44304e3f8c90a3e10c", "fusion_lat": 0.0, "name": "a109c4542a312f44304e3f8c90a3e10c", "is_reserved": 0, "rental_uris": {"android": "https://dc.lft.to/lastmile_qr_scan", "ios": "https://dc.lft.to/lastmile_qr_scan"}, "fusion_lon": 0.0}, {"lat": 38.921174666666666, "is_disabled": 0, "type": "electric_bike", "lon": -76.98570633333334, "bike_id": "9fb8c758c1b814a10660e9d156da9783", "fusion_lat": 0.0, "name": "9fb8c758c1b814a10660e9d156da9783", "is_reserved": 0, "rental_uris": {"android": "https://dc.lft.to/lastmile_qr_scan", "ios": "https://dc.lft.to/lastmile_qr_scan"}, "fusion_lon": 0.0}, {"lat": 38.89350066666667, "is_disabled": 0, "type": "electric_scooter", "lon": -77.0413495, "bike_id": "9e65e50c984ba04a4f77fd10b87b8c97", "fusion_lat": 0.0, "name": "9e65e50c984ba04a4f77fd10b87b8c97", "is_reserved": 0, "rental_uris": {"android": "https://dc.lft.to/lastmile_qr_scan", "ios": "https://dc.lft.to/lastmile_qr_scan"}, "fusion_lon": 0.0}, {"lat": 38.9128355, "is_disabled": 0, "type": "electric_scooter", "lon": -77.03195133333334, "bike_id": "953986d852485ee91ae036ab97f6666f", "fusion_lat": 0.0, "name": "953986d852485ee91ae036ab97f6666f", "is_reserved": 0, "rental_uris": {"android": "https://dc.lft.to/lastmile_qr_scan", "ios": "https://dc.lft.to/lastmile_qr_scan"}, "fusion_lon": 0.0}, {"lat": 38.958803833333334, "is_disabled": 0, "type": "electric_bike", "lon": -76.924759, "bike_id": "38f815e9ca701341aeb6ded93c18ff32", "fusion_lat": 0.0, "name": "38f815e9ca701341aeb6ded93c18ff32", "is_reserved": 0, "rental_uris": {"android": "https://dc.lft.to/lastmile_qr_scan", "ios": "https://dc.lft.to/lastmile_qr_scan"}, "fusion_lon": 0.0}, {"lat": 38.91421716666667, "is_disabled": 0, "type": "electric_scooter", "lon": -77.031845, "bike_id": "93a4e0f1f4b218b480df7c797982b709", "fusion_lat": 0.0, "name": "93a4e0f1f4b218b480df7c797982b709", "is_reserved": 0, "rental_uris": {"android": "https://dc.lft.to/lastmile_qr_scan", "ios": "https://dc.lft.to/lastmile_qr_scan"}, "fusion_lon": 0.0}, {"lat": 38.9028295, "is_disabled": 0, "type": "electric_scooter", "lon": -77.06353383333334, "bike_id": "1fee9fbbd9a63e0a0d7776a6ffe1a521", "fusion_lat": 0.0, "name": "1fee9fbbd9a63e0a0d7776a6ffe1a521", "is_reserved": 0, "rental_uris": {"android": "https://dc.lft.to/lastmile_qr_scan", "ios": "https://dc.lft.to/lastmile_qr_scan"}, "fusion_lon": 0.0}, {"lat": 38.931119, "is_disabled": 0, "type": "electric_scooter", "lon": -77.033999, "bike_id": "e6b845f2d0ab41443f4f8695159396ba", "fusion_lat": 0.0, "name": "e6b845f2d0ab41443f4f8695159396ba", "is_reserved": 0, "rental_uris": {"android": "https://dc.lft.to/lastmile_qr_scan", "ios": "https://dc.lft.to/lastmile_qr_scan"}, "fusion_lon": 0.0}, {"lat": 38.9014225, "is_disabled": 0, "type": "electric_scooter", "lon": -77.0317975, "bike_id": "a15d0f61222540ad991f20ea1701f5ec", "fusion_lat": 0.0, "name": "a15d0f61222540ad991f20ea1701f5ec", "is_reserved": 0, "rental_uris": {"android": "https://dc.lft.to/lastmile_qr_scan", "ios": "https://dc.lft.to/lastmile_qr_scan"}, "fusion_lon": 0.0}, {"lat": 38.9052705, "is_disabled": 0, "type": "electric_scooter", "lon": -77.0624055, "bike_id": "8e950e4bbb5a5cae954b2b229bd90fdc", "fusion_lat": 0.0, "name": "8e950e4bbb5a5cae954b2b229bd90fdc", "is_reserved": 0, "rental_uris": {"android": "https://dc.lft.to/lastmile_qr_scan", "ios": "https://dc.lft.to/lastmile_qr_scan"}, "fusion_lon": 0.0}, {"lat": 38.90606866666667, "is_disabled": 0, "type": "electric_scooter", "lon": -76.9897745, "bike_id": "e45c59908952b0d3a36d7f017e5af75f", "fusion_lat": 0.0, "name": "e45c59908952b0d3a36d7f017e5af75f", "is_reserved": 0, "rental_uris": {"android": "https://dc.lft.to/lastmile_qr_scan", "ios": "https://dc.lft.to/lastmile_qr_scan"}, "fusion_lon": 0.0}, {"lat": 38.8592545, "is_disabled": 0, "type": "electric_scooter", "lon": -76.9971785, "bike_id": "49a536e8f01de68e64ce11c7dfe0f0d7", "fusion_lat": 0.0, "name": "49a536e8f01de68e64ce11c7dfe0f0d7", "is_reserved": 0, "rental_uris": {"android": "https://dc.lft.to/lastmile_qr_scan", "ios": "https://dc.lft.to/lastmile_qr_scan"}, "fusion_lon": 0.0}, {"lat": 38.865231666666666, "is_disabled": 0, "type": "electric_scooter", "lon": -76.9902585, "bike_id": "afecc5093b4d7276b41a19ac279ff1b1", "fusion_lat": 0.0, "name": "afecc5093b4d7276b41a19ac279ff1b1", "is_reserved": 0, "rental_uris": {"android": "https://dc.lft.to/lastmile_qr_scan", "ios": "https://dc.lft.to/lastmile_qr_scan"}, "fusion_lon": 0.0}, {"lat": 38.93444316666667, "is_disabled": 0, "type": "electric_scooter", "lon": -77.03085533333334, "bike_id": "60ac4416f3c35a8714cefa4f94564716", "fusion_lat": 0.0, "name": "60ac4416f3c35a8714cefa4f94564716", "is_reserved": 0, "rental_uris": {"android": "https://dc.lft.to/lastmile_qr_scan", "ios": "https://dc.lft.to/lastmile_qr_scan"}, "fusion_lon": 0.0}, {"lat": 38.929622333333334, "is_disabled": 0, "type": "electric_scooter", "lon": -77.03181033333334, "bike_id": "d128716a8fa1ce91c578c3272d7a7779", "fusion_lat": 0.0, "name": "d128716a8fa1ce91c578c3272d7a7779", "is_reserved": 0, "rental_uris": {"android": "https://dc.lft.to/lastmile_qr_scan", "ios": "https://dc.lft.to/lastmile_qr_scan"}, "fusion_lon": 0.0}, {"lat": 38.909618333333334, "is_disabled": 0, "type": "electric_scooter", "lon": -77.04818816666666, "bike_id": "07930364a0d382f7231f46d74f126bc6", "fusion_lat": 0.0, "name": "07930364a0d382f7231f46d74f126bc6", "is_reserved": 0, "rental_uris": {"android": "https://dc.lft.to/lastmile_qr_scan", "ios": "https://dc.lft.to/lastmile_qr_scan"}, "fusion_lon": 0.0}, {"lat": 38.90353066666667, "is_disabled": 0, "type": "electric_scooter", "lon": -77.04219516666667, "bike_id": "ee6ef6ac724e00c5f819659fb02924a4", "fusion_lat": 0.0, "name": "ee6ef6ac724e00c5f819659fb02924a4", "is_reserved": 0, "rental_uris": {"android": "https://dc.lft.to/lastmile_qr_scan", "ios": "https://dc.lft.to/lastmile_qr_scan"}, "fusion_lon": 0.0}, {"lat": 38.86997266666667, "is_disabled": 0, "type": "electric_bike", "lon": -77.06566266666667, "bike_id": "9c02f16f72eb7fb38c8f1a625e8727c4", "fusion_lat": 0.0, "name": "9c02f16f72eb7fb38c8f1a625e8727c4", "is_reserved": 0, "rental_uris": {"android": "https://dc.lft.to/lastmile_qr_scan", "ios": "https://dc.lft.to/lastmile_qr_scan"}, "fusion_lon": 0.0}, {"lat": 38.92413283333333, "is_disabled": 0, "type": "electric_scooter", "lon": -77.02742016666667, "bike_id": "d079d5486c8a1122ad90463251403b5f", "fusion_lat": 0.0, "name": "d079d5486c8a1122ad90463251403b5f", "is_reserved": 0, "rental_uris": {"android": "https://dc.lft.to/lastmile_qr_scan", "ios": "https://dc.lft.to/lastmile_qr_scan"}, "fusion_lon": 0.0}, {"lat": 38.876271833333334, "is_disabled": 0, "type": "electric_scooter", "lon": -76.96523283333333, "bike_id": "62eb5094c0566a97b68f6e1d959ff07e", "fusion_lat": 0.0, "name": "62eb5094c0566a97b68f6e1d959ff07e", "is_reserved": 0, "rental_uris": {"android": "https://dc.lft.to/lastmile_qr_scan", "ios": "https://dc.lft.to/lastmile_qr_scan"}, "fusion_lon": 0.0}, {"lat": 38.893987833333334, "is_disabled": 0, "type": "electric_scooter", "lon": -76.9866785, "bike_id": "ff0335e9993b86c98e08189c4a0712af", "fusion_lat": 0.0, "name": "ff0335e9993b86c98e08189c4a0712af", "is_reserved": 0, "rental_uris": {"android": "https://dc.lft.to/lastmile_qr_scan", "ios": "https://dc.lft.to/lastmile_qr_scan"}, "fusion_lon": 0.0}, {"lat": 38.91249116666667, "is_disabled": 0, "type": "electric_scooter", "lon": -77.047675, "bike_id": "35788ee5d5c423f1558340d65102cc0f", "fusion_lat": 0.0, "name": "35788ee5d5c423f1558340d65102cc0f", "is_reserved": 0, "rental_uris": {"android": "https://dc.lft.to/lastmile_qr_scan", "ios": "https://dc.lft.to/lastmile_qr_scan"}, "fusion_lon": 0.0}, {"lat": 38.89879, "is_disabled": 0, "type": "electric_scooter", "lon": -77.05335666666667, "bike_id": "15882d45386858b843f247a26a326a00", "fusion_lat": 0.0, "name": "15882d45386858b843f247a26a326a00", "is_reserved": 0, "rental_uris": {"android": "https://dc.lft.to/lastmile_qr_scan", "ios": "https://dc.lft.to/lastmile_qr_scan"}, "fusion_lon": 0.0}, {"lat": 38.94835533333333, "is_disabled": 0, "type": "electric_bike", "lon": -77.03883033333334, "bike_id": "ee7f71dc3fa73d3cbe957938a078e3b6", "fusion_lat": 0.0, "name": "ee7f71dc3fa73d3cbe957938a078e3b6", "is_reserved": 0, "rental_uris": {"android": "https://dc.lft.to/lastmile_qr_scan", "ios": "https://dc.lft.to/lastmile_qr_scan"}, "fusion_lon": 0.0}, {"lat": 38.89920216666667, "is_disabled": 0, "type": "electric_scooter", "lon": -76.9337615, "bike_id": "7c0dae250309c119236876e76bcdb312", "fusion_lat": 0.0, "name": "7c0dae250309c119236876e76bcdb312", "is_reserved": 0, "rental_uris": {"android": "https://dc.lft.to/lastmile_qr_scan", "ios": "https://dc.lft.to/lastmile_qr_scan"}, "fusion_lon": 0.0}, {"lat": 38.95555616666667, "is_disabled": 0, "type": "electric_bike", "lon": -76.93535216666666, "bike_id": "86f030c5ab8b8ab934cea18fa6d642f1", "fusion_lat": 0.0, "name": "86f030c5ab8b8ab934cea18fa6d642f1", "is_reserved": 0, "rental_uris": {"android": "https://dc.lft.to/lastmile_qr_scan", "ios": "https://dc.lft.to/lastmile_qr_scan"}, "fusion_lon": 0.0}, {"lat": 38.863478, "is_disabled": 0, "type": "electric_scooter", "lon": -76.98997616666666, "bike_id": "cdb2b85b6209a655073cf1546d550fca", "fusion_lat": 0.0, "name": "cdb2b85b6209a655073cf1546d550fca", "is_reserved": 0, "rental_uris": {"android": "https://dc.lft.to/lastmile_qr_scan", "ios": "https://dc.lft.to/lastmile_qr_scan"}, "fusion_lon": 0.0}, {"lat": 38.85032983333333, "is_disabled": 0, "type": "electric_bike", "lon": -76.9729235, "bike_id": "d88a54e5c9890322e67b26d6f7cfcd9a", "fusion_lat": 0.0, "name": "d88a54e5c9890322e67b26d6f7cfcd9a", "is_reserved": 0, "rental_uris": {"android": "https://dc.lft.to/lastmile_qr_scan", "ios": "https://dc.lft.to/lastmile_qr_scan"}, "fusion_lon": 0.0}, {"lat": 38.90261316666667, "is_disabled": 0, "type": "electric_scooter", "lon": -77.052611, "bike_id": "0f391c747de07a292d673c62fd236202", "fusion_lat": 0.0, "name": "0f391c747de07a292d673c62fd236202", "is_reserved": 0, "rental_uris": {"android": "https://dc.lft.to/lastmile_qr_scan", "ios": "https://dc.lft.to/lastmile_qr_scan"}, "fusion_lon": 0.0}, {"lat": 38.922435166666666, "is_disabled": 0, "type": "electric_scooter", "lon": -77.0457295, "bike_id": "e001bfdd8c1cf4d903b94d1281d840c3", "fusion_lat": 0.0, "name": "e001bfdd8c1cf4d903b94d1281d840c3", "is_reserved": 0, "rental_uris": {"android": "https://dc.lft.to/lastmile_qr_scan", "ios": "https://dc.lft.to/lastmile_qr_scan"}, "fusion_lon": 0.0}, {"lat": 38.9082125, "is_disabled": 0, "type": "electric_scooter", "lon": -77.06365933333333, "bike_id": "2dd99b762466bd33e788ccdbccffeabd", "fusion_lat": 0.0, "name": "2dd99b762466bd33e788ccdbccffeabd", "is_reserved": 0, "rental_uris": {"android": "https://dc.lft.to/lastmile_qr_scan", "ios": "https://dc.lft.to/lastmile_qr_scan"}, "fusion_lon": 0.0}, {"lat": 38.919315166666664, "is_disabled": 0, "type": "electric_scooter", "lon": -77.02294066666667, "bike_id": "bf7601ebbdd0db367010bf902f91036f", "fusion_lat": 0.0, "name": "bf7601ebbdd0db367010bf902f91036f", "is_reserved": 0, "rental_uris": {"android": "https://dc.lft.to/lastmile_qr_scan", "ios": "https://dc.lft.to/lastmile_qr_scan"}, "fusion_lon": 0.0}, {"lat": 38.90342916666667, "is_disabled": 0, "type": "electric_scooter", "lon": -77.05317, "bike_id": "51167a10499ee0936d589259f61c1699", "fusion_lat": 0.0, "name": "51167a10499ee0936d589259f61c1699", "is_reserved": 0, "rental_uris": {"android": "https://dc.lft.to/lastmile_qr_scan", "ios": "https://dc.lft.to/lastmile_qr_scan"}, "fusion_lon": 0.0}, {"lat": 38.93068916666667, "is_disabled": 0, "type": "electric_scooter", "lon": -76.990749, "bike_id": "1c562528746474e4dcc060c5cc474f47", "fusion_lat": 0.0, "name": "1c562528746474e4dcc060c5cc474f47", "is_reserved": 0, "rental_uris": {"android": "https://dc.lft.to/lastmile_qr_scan", "ios": "https://dc.lft.to/lastmile_qr_scan"}, "fusion_lon": 0.0}, {"lat": 38.8904615, "is_disabled": 0, "type": "electric_scooter", "lon": -76.93752533333333, "bike_id": "e29298c54e20450727a9d8e4b005c895", "fusion_lat": 0.0, "name": "e29298c54e20450727a9d8e4b005c895", "is_reserved": 0, "rental_uris": {"android": "https://dc.lft.to/lastmile_qr_scan", "ios": "https://dc.lft.to/lastmile_qr_scan"}, "fusion_lon": 0.0}, {"lat": 38.897170833333334, "is_disabled": 0, "type": "electric_scooter", "lon": -77.00794666666667, "bike_id": "e3a9aebe2d55a77672030ea4ba74642d", "fusion_lat": 0.0, "name": "e3a9aebe2d55a77672030ea4ba74642d", "is_reserved": 0, "rental_uris": {"android": "https://dc.lft.to/lastmile_qr_scan", "ios": "https://dc.lft.to/lastmile_qr_scan"}, "fusion_lon": 0.0}, {"lat": 38.906782, "is_disabled": 0, "type": "electric_scooter", "lon": -77.03755933333333, "bike_id": "d78889bbd1d31c2cf23e54d66191b370", "fusion_lat": 0.0, "name": "d78889bbd1d31c2cf23e54d66191b370", "is_reserved": 0, "rental_uris": {"android": "https://dc.lft.to/lastmile_qr_scan", "ios": "https://dc.lft.to/lastmile_qr_scan"}, "fusion_lon": 0.0}, {"lat": 38.88742533333333, "is_disabled": 0, "type": "electric_scooter", "lon": -77.02571383333333, "bike_id": "8828da47d34c680b606b0d07f351bda0", "fusion_lat": 0.0, "name": "8828da47d34c680b606b0d07f351bda0", "is_reserved": 0, "rental_uris": {"android": "https://dc.lft.to/lastmile_qr_scan", "ios": "https://dc.lft.to/lastmile_qr_scan"}, "fusion_lon": 0.0}, {"lat": 38.8974025, "is_disabled": 0, "type": "electric_scooter", "lon": -77.0476095, "bike_id": "0ecba8cd9020201c544a851c58db6a2a", "fusion_lat": 0.0, "name": "0ecba8cd9020201c544a851c58db6a2a", "is_reserved": 0, "rental_uris": {"android": "https://dc.lft.to/lastmile_qr_scan", "ios": "https://dc.lft.to/lastmile_qr_scan"}, "fusion_lon": 0.0}, {"lat": 38.93242866666667, "is_disabled": 0, "type": "electric_scooter", "lon": -77.02841166666667, "bike_id": "7b314c3351e78f0e9fcf6ad08ea858bd", "fusion_lat": 0.0, "name": "7b314c3351e78f0e9fcf6ad08ea858bd", "is_reserved": 0, "rental_uris": {"android": "https://dc.lft.to/lastmile_qr_scan", "ios": "https://dc.lft.to/lastmile_qr_scan"}, "fusion_lon": 0.0}, {"lat": 38.857341166666664, "is_disabled": 0, "type": "electric_scooter", "lon": -76.99432916666666, "bike_id": "bada494a6e9bb88e7e40f14d70fb14f9", "fusion_lat": 0.0, "name": "bada494a6e9bb88e7e40f14d70fb14f9", "is_reserved": 0, "rental_uris": {"android": "https://dc.lft.to/lastmile_qr_scan", "ios": "https://dc.lft.to/lastmile_qr_scan"}, "fusion_lon": 0.0}, {"lat": 38.920649833333336, "is_disabled": 0, "type": "electric_scooter", "lon": -77.04238816666667, "bike_id": "4a91fb9f8e283682b50c8ec0a104b92e", "fusion_lat": 0.0, "name": "4a91fb9f8e283682b50c8ec0a104b92e", "is_reserved": 0, "rental_uris": {"android": "https://dc.lft.to/lastmile_qr_scan", "ios": "https://dc.lft.to/lastmile_qr_scan"}, "fusion_lon": 0.0}, {"lat": 38.90391066666667, "is_disabled": 0, "type": "electric_scooter", "lon": -77.04806983333333, "bike_id": "8d4ef609d787f70bd7c8b8384a91b402", "fusion_lat": 0.0, "name": "8d4ef609d787f70bd7c8b8384a91b402", "is_reserved": 0, "rental_uris": {"android": "https://dc.lft.to/lastmile_qr_scan", "ios": "https://dc.lft.to/lastmile_qr_scan"}, "fusion_lon": 0.0}, {"lat": 38.944378, "is_disabled": 0, "type": "electric_scooter", "lon": -77.02340633333333, "bike_id": "a050d835e3f860bfc53599b823994014", "fusion_lat": 0.0, "name": "a050d835e3f860bfc53599b823994014", "is_reserved": 0, "rental_uris": {"android": "https://dc.lft.to/lastmile_qr_scan", "ios": "https://dc.lft.to/lastmile_qr_scan"}, "fusion_lon": 0.0}, {"lat": 38.91781066666667, "is_disabled": 0, "type": "electric_scooter", "lon": -77.0230385, "bike_id": "ee62351a9a9b4314925423801ffd1e0e", "fusion_lat": 0.0, "name": "ee62351a9a9b4314925423801ffd1e0e", "is_reserved": 0, "rental_uris": {"android": "https://dc.lft.to/lastmile_qr_scan", "ios": "https://dc.lft.to/lastmile_qr_scan"}, "fusion_lon": 0.0}, {"lat": 38.86507683333333, "is_disabled": 0, "type": "electric_scooter", "lon": -76.990047, "bike_id": "c34f3fd3081133c19289e6dff1ba90c2", "fusion_lat": 0.0, "name": "c34f3fd3081133c19289e6dff1ba90c2", "is_reserved": 0, "rental_uris": {"android": "https://dc.lft.to/lastmile_qr_scan", "ios": "https://dc.lft.to/lastmile_qr_scan"}, "fusion_lon": 0.0}, {"lat": 38.91944866666667, "is_disabled": 0, "type": "electric_scooter", "lon": -77.02498233333333, "bike_id": "968d7916d30be562f2e81c61eb191b8c", "fusion_lat": 0.0, "name": "968d7916d30be562f2e81c61eb191b8c", "is_reserved": 0, "rental_uris": {"android": "https://dc.lft.to/lastmile_qr_scan", "ios": "https://dc.lft.to/lastmile_qr_scan"}, "fusion_lon": 0.0}, {"lat": 38.880304, "is_disabled": 0, "type": "electric_scooter", "lon": -77.025209, "bike_id": "6113cceafd75533fbc649521ede40f3a", "fusion_lat": 0.0, "name": "6113cceafd75533fbc649521ede40f3a", "is_reserved": 0, "rental_uris": {"android": "https://dc.lft.to/lastmile_qr_scan", "ios": "https://dc.lft.to/lastmile_qr_scan"}, "fusion_lon": 0.0}, {"lat": 38.893379333333336, "is_disabled": 0, "type": "electric_scooter", "lon": -77.0122575, "bike_id": "4bd084cb54ae9e36595ef3de13291d2d", "fusion_lat": 0.0, "name": "4bd084cb54ae9e36595ef3de13291d2d", "is_reserved": 0, "rental_uris": {"android": "https://dc.lft.to/lastmile_qr_scan", "ios": "https://dc.lft.to/lastmile_qr_scan"}, "fusion_lon": 0.0}, {"lat": 38.903304166666665, "is_disabled": 0, "type": "electric_scooter", "lon": -77.028878, "bike_id": "23269c9acd263e25363e3087a5c6bcfb", "fusion_lat": 0.0, "name": "23269c9acd263e25363e3087a5c6bcfb", "is_reserved": 0, "rental_uris": {"android": "https://dc.lft.to/lastmile_qr_scan", "ios": "https://dc.lft.to/lastmile_qr_scan"}, "fusion_lon": 0.0}, {"lat": 38.842763, "is_disabled": 0, "type": "electric_bike", "lon": -76.98846183333333, "bike_id": "938e1686e7390bd45eb96e8ecf6d4737", "fusion_lat": 0.0, "name": "938e1686e7390bd45eb96e8ecf6d4737", "is_reserved": 0, "rental_uris": {"android": "https://dc.lft.to/lastmile_qr_scan", "ios": "https://dc.lft.to/lastmile_qr_scan"}, "fusion_lon": 0.0}, {"lat": 38.973249, "is_disabled": 0, "type": "electric_bike", "lon": -77.022857, "bike_id": "b3eb38a2ba7ee2dce71e8d96b5f9c0ea", "fusion_lat": 0.0, "name": "b3eb38a2ba7ee2dce71e8d96b5f9c0ea", "is_reserved": 0, "rental_uris": {"android": "https://dc.lft.to/lastmile_qr_scan", "ios": "https://dc.lft.to/lastmile_qr_scan"}, "fusion_lon": 0.0}, {"lat": 38.83718116666667, "is_disabled": 0, "type": "electric_bike", "lon": -76.997727, "bike_id": "00f28ef68396cd9e1dd782605c945146", "fusion_lat": 0.0, "name": "00f28ef68396cd9e1dd782605c945146", "is_reserved": 0, "rental_uris": {"android": "https://dc.lft.to/lastmile_qr_scan", "ios": "https://dc.lft.to/lastmile_qr_scan"}, "fusion_lon": 0.0}, {"lat": 38.856745833333335, "is_disabled": 0, "type": "electric_scooter", "lon": -76.98177266666667, "bike_id": "89950957d962777739ec6d7faaf7e347", "fusion_lat": 0.0, "name": "89950957d962777739ec6d7faaf7e347", "is_reserved": 0, "rental_uris": {"android": "https://dc.lft.to/lastmile_qr_scan", "ios": "https://dc.lft.to/lastmile_qr_scan"}, "fusion_lon": 0.0}, {"lat": 38.89548216666667, "is_disabled": 0, "type": "electric_scooter", "lon": -77.0043365, "bike_id": "9d90f981b2319469e27536e731cccf13", "fusion_lat": 0.0, "name": "9d90f981b2319469e27536e731cccf13", "is_reserved": 0, "rental_uris": {"android": "https://dc.lft.to/lastmile_qr_scan", "ios": "https://dc.lft.to/lastmile_qr_scan"}, "fusion_lon": 0.0}, {"lat": 38.93410216666667, "is_disabled": 0, "type": "electric_scooter", "lon": -77.024581, "bike_id": "65c822858f1e55dea64be84f67109249", "fusion_lat": 0.0, "name": "65c822858f1e55dea64be84f67109249", "is_reserved": 0, "rental_uris": {"android": "https://dc.lft.to/lastmile_qr_scan", "ios": "https://dc.lft.to/lastmile_qr_scan"}, "fusion_lon": 0.0}, {"lat": 38.901414, "is_disabled": 0, "type": "electric_scooter", "lon": -77.029432, "bike_id": "b14d30aa1d21a5cc9101210c85f162d8", "fusion_lat": 0.0, "name": "b14d30aa1d21a5cc9101210c85f162d8", "is_reserved": 0, "rental_uris": {"android": "https://dc.lft.to/lastmile_qr_scan", "ios": "https://dc.lft.to/lastmile_qr_scan"}, "fusion_lon": 0.0}, {"lat": 38.9203575, "is_disabled": 0, "type": "electric_scooter", "lon": -76.99339166666667, "bike_id": "f657badff61bf6213be2fcad942a6890", "fusion_lat": 0.0, "name": "f657badff61bf6213be2fcad942a6890", "is_reserved": 0, "rental_uris": {"android": "https://dc.lft.to/lastmile_qr_scan", "ios": "https://dc.lft.to/lastmile_qr_scan"}, "fusion_lon": 0.0}, {"lat": 38.9214945, "is_disabled": 0, "type": "electric_scooter", "lon": -77.03503416666666, "bike_id": "ae957cc3cd247af30839d7207ad33b9a", "fusion_lat": 0.0, "name": "ae957cc3cd247af30839d7207ad33b9a", "is_reserved": 0, "rental_uris": {"android": "https://dc.lft.to/lastmile_qr_scan", "ios": "https://dc.lft.to/lastmile_qr_scan"}, "fusion_lon": 0.0}, {"lat": 38.86369283333333, "is_disabled": 0, "type": "electric_scooter", "lon": -76.99028183333333, "bike_id": "091ea31ca17a722d55e79912c90fd06b", "fusion_lat": 0.0, "name": "091ea31ca17a722d55e79912c90fd06b", "is_reserved": 0, "rental_uris": {"android": "https://dc.lft.to/lastmile_qr_scan", "ios": "https://dc.lft.to/lastmile_qr_scan"}, "fusion_lon": 0.0}, {"lat": 38.9110555, "is_disabled": 0, "type": "electric_scooter", "lon": -77.0422285, "bike_id": "3f5f648920706d64de42fd9e39e8e1be", "fusion_lat": 0.0, "name": "3f5f648920706d64de42fd9e39e8e1be", "is_reserved": 0, "rental_uris": {"android": "https://dc.lft.to/lastmile_qr_scan", "ios": "https://dc.lft.to/lastmile_qr_scan"}, "fusion_lon": 0.0}, {"lat": 38.91931566666667, "is_disabled": 0, "type": "electric_scooter", "lon": -76.970133, "bike_id": "5a41f54cb77fd4dcf442aba87a9bd48b", "fusion_lat": 0.0, "name": "5a41f54cb77fd4dcf442aba87a9bd48b", "is_reserved": 0, "rental_uris": {"android": "https://dc.lft.to/lastmile_qr_scan", "ios": "https://dc.lft.to/lastmile_qr_scan"}, "fusion_lon": 0.0}, {"lat": 38.80226233333333, "is_disabled": 0, "type": "electric_bike", "lon": -77.0791305, "bike_id": "31011fd06385055c62db55386c4ced40", "fusion_lat": 0.0, "name": "31011fd06385055c62db55386c4ced40", "is_reserved": 0, "rental_uris": {"android": "https://dc.lft.to/lastmile_qr_scan", "ios": "https://dc.lft.to/lastmile_qr_scan"}, "fusion_lon": 0.0}, {"lat": 38.920147666666665, "is_disabled": 0, "type": "electric_scooter", "lon": -77.0252715, "bike_id": "5295aca6ac104ec1d6559ee472a65b74", "fusion_lat": 0.0, "name": "5295aca6ac104ec1d6559ee472a65b74", "is_reserved": 0, "rental_uris": {"android": "https://dc.lft.to/lastmile_qr_scan", "ios": "https://dc.lft.to/lastmile_qr_scan"}, "fusion_lon": 0.0}, {"lat": 38.925485, "is_disabled": 0, "type": "electric_scooter", "lon": -77.03220983333334, "bike_id": "798a38b0538e8fd3f32dca538096347f", "fusion_lat": 0.0, "name": "798a38b0538e8fd3f32dca538096347f", "is_reserved": 0, "rental_uris": {"android": "https://dc.lft.to/lastmile_qr_scan", "ios": "https://dc.lft.to/lastmile_qr_scan"}, "fusion_lon": 0.0}, {"lat": 38.90635433333333, "is_disabled": 0, "type": "electric_scooter", "lon": -77.02495683333333, "bike_id": "b4a618968150c20a44e0f097ca4893bf", "fusion_lat": 0.0, "name": "b4a618968150c20a44e0f097ca4893bf", "is_reserved": 0, "rental_uris": {"android": "https://dc.lft.to/lastmile_qr_scan", "ios": "https://dc.lft.to/lastmile_qr_scan"}, "fusion_lon": 0.0}, {"lat": 38.873549, "is_disabled": 0, "type": "electric_scooter", "lon": -77.00888133333333, "bike_id": "c997b2b832fad094003f87050381ab03", "fusion_lat": 0.0, "name": "c997b2b832fad094003f87050381ab03", "is_reserved": 0, "rental_uris": {"android": "https://dc.lft.to/lastmile_qr_scan", "ios": "https://dc.lft.to/lastmile_qr_scan"}, "fusion_lon": 0.0}, {"lat": 38.922337666666664, "is_disabled": 0, "type": "electric_scooter", "lon": -77.04351333333334, "bike_id": "b8d69a8334fb4b8cf9c052f4be23aa07", "fusion_lat": 0.0, "name": "b8d69a8334fb4b8cf9c052f4be23aa07", "is_reserved": 0, "rental_uris": {"android": "https://dc.lft.to/lastmile_qr_scan", "ios": "https://dc.lft.to/lastmile_qr_scan"}, "fusion_lon": 0.0}, {"lat": 38.955625166666664, "is_disabled": 0, "type": "electric_scooter", "lon": -77.02231883333333, "bike_id": "6b24f5193a65e201ac09d4d1a0c7187d", "fusion_lat": 0.0, "name": "6b24f5193a65e201ac09d4d1a0c7187d", "is_reserved": 0, "rental_uris": {"android": "https://dc.lft.to/lastmile_qr_scan", "ios": "https://dc.lft.to/lastmile_qr_scan"}, "fusion_lon": 0.0}, {"lat": 38.9076835, "is_disabled": 0, "type": "electric_scooter", "lon": -76.9830075, "bike_id": "fa9f20154d0197061fe4b7fa75337934", "fusion_lat": 0.0, "name": "fa9f20154d0197061fe4b7fa75337934", "is_reserved": 0, "rental_uris": {"android": "https://dc.lft.to/lastmile_qr_scan", "ios": "https://dc.lft.to/lastmile_qr_scan"}, "fusion_lon": 0.0}, {"lat": 38.909159333333335, "is_disabled": 0, "type": "electric_scooter", "lon": -77.0363915, "bike_id": "31c1077d36d30d97d24e4e8d86f45d7c", "fusion_lat": 0.0, "name": "31c1077d36d30d97d24e4e8d86f45d7c", "is_reserved": 0, "rental_uris": {"android": "https://dc.lft.to/lastmile_qr_scan", "ios": "https://dc.lft.to/lastmile_qr_scan"}, "fusion_lon": 0.0}, {"lat": 38.8655825, "is_disabled": 0, "type": "electric_scooter", "lon": -76.98945516666667, "bike_id": "debc521e621243c0f552da821a4f686e", "fusion_lat": 0.0, "name": "debc521e621243c0f552da821a4f686e", "is_reserved": 0, "rental_uris": {"android": "https://dc.lft.to/lastmile_qr_scan", "ios": "https://dc.lft.to/lastmile_qr_scan"}, "fusion_lon": 0.0}, {"lat": 38.9218105, "is_disabled": 0, "type": "electric_scooter", "lon": -77.04698583333334, "bike_id": "4f2d3070d3144b2e1ef4b94fb55bb504", "fusion_lat": 0.0, "name": "4f2d3070d3144b2e1ef4b94fb55bb504", "is_reserved": 0, "rental_uris": {"android": "https://dc.lft.to/lastmile_qr_scan", "ios": "https://dc.lft.to/lastmile_qr_scan"}, "fusion_lon": 0.0}, {"lat": 38.91417783333333, "is_disabled": 0, "type": "electric_scooter", "lon": -77.0132615, "bike_id": "08b15319b2a64c521c0aa0ad532bd762", "fusion_lat": 0.0, "name": "08b15319b2a64c521c0aa0ad532bd762", "is_reserved": 0, "rental_uris": {"android": "https://dc.lft.to/lastmile_qr_scan", "ios": "https://dc.lft.to/lastmile_qr_scan"}, "fusion_lon": 0.0}, {"lat": 38.9479285, "is_disabled": 0, "type": "electric_scooter", "lon": -77.02168866666666, "bike_id": "dbbe4a8fd3e0dfbd68f2d9208659620e", "fusion_lat": 0.0, "name": "dbbe4a8fd3e0dfbd68f2d9208659620e", "is_reserved": 0, "rental_uris": {"android": "https://dc.lft.to/lastmile_qr_scan", "ios": "https://dc.lft.to/lastmile_qr_scan"}, "fusion_lon": 0.0}, {"lat": 38.92606166666667, "is_disabled": 0, "type": "electric_scooter", "lon": -77.05686533333333, "bike_id": "aabb9462cc4abf7bd754c1fc6e9aa399", "fusion_lat": 0.0, "name": "aabb9462cc4abf7bd754c1fc6e9aa399", "is_reserved": 0, "rental_uris": {"android": "https://dc.lft.to/lastmile_qr_scan", "ios": "https://dc.lft.to/lastmile_qr_scan"}, "fusion_lon": 0.0}, {"lat": 38.937376, "is_disabled": 0, "type": "electric_scooter", "lon": -77.03468916666667, "bike_id": "76824efe9de386a69d33cc6983e50221", "fusion_lat": 0.0, "name": "76824efe9de386a69d33cc6983e50221", "is_reserved": 0, "rental_uris": {"android": "https://dc.lft.to/lastmile_qr_scan", "ios": "https://dc.lft.to/lastmile_qr_scan"}, "fusion_lon": 0.0}, {"lat": 38.922494666666665, "is_disabled": 0, "type": "electric_scooter", "lon": -77.02973783333333, "bike_id": "7dc8b95983edcbb32ff39e5c1c9c8f9f", "fusion_lat": 0.0, "name": "7dc8b95983edcbb32ff39e5c1c9c8f9f", "is_reserved": 0, "rental_uris": {"android": "https://dc.lft.to/lastmile_qr_scan", "ios": "https://dc.lft.to/lastmile_qr_scan"}, "fusion_lon": 0.0}, {"lat": 38.901093333333336, "is_disabled": 0, "type": "electric_scooter", "lon": -76.99617433333333, "bike_id": "2dec14f6ccf7a7c580e3919fe29b6352", "fusion_lat": 0.0, "name": "2dec14f6ccf7a7c580e3919fe29b6352", "is_reserved": 0, "rental_uris": {"android": "https://dc.lft.to/lastmile_qr_scan", "ios": "https://dc.lft.to/lastmile_qr_scan"}, "fusion_lon": 0.0}, {"lat": 38.927471, "is_disabled": 0, "type": "electric_scooter", "lon": -77.02411416666666, "bike_id": "7635d9012b73e0e9d0216c4ca23a328f", "fusion_lat": 0.0, "name": "7635d9012b73e0e9d0216c4ca23a328f", "is_reserved": 0, "rental_uris": {"android": "https://dc.lft.to/lastmile_qr_scan", "ios": "https://dc.lft.to/lastmile_qr_scan"}, "fusion_lon": 0.0}, {"lat": 38.91325233333333, "is_disabled": 0, "type": "electric_scooter", "lon": -77.045342, "bike_id": "c584216d81478d3094e6029e422b49d5", "fusion_lat": 0.0, "name": "c584216d81478d3094e6029e422b49d5", "is_reserved": 0, "rental_uris": {"android": "https://dc.lft.to/lastmile_qr_scan", "ios": "https://dc.lft.to/lastmile_qr_scan"}, "fusion_lon": 0.0}, {"lat": 38.8858065, "is_disabled": 0, "type": "electric_scooter", "lon": -76.91908066666667, "bike_id": "e20810ca930e5446f85b8c6b31e1eea7", "fusion_lat": 0.0, "name": "e20810ca930e5446f85b8c6b31e1eea7", "is_reserved": 0, "rental_uris": {"android": "https://dc.lft.to/lastmile_qr_scan", "ios": "https://dc.lft.to/lastmile_qr_scan"}, "fusion_lon": 0.0}, {"lat": 38.8972995, "is_disabled": 0, "type": "electric_scooter", "lon": -77.04904183333333, "bike_id": "83c70a08e067306d7b08c48a0cc175e9", "fusion_lat": 0.0, "name": "83c70a08e067306d7b08c48a0cc175e9", "is_reserved": 0, "rental_uris": {"android": "https://dc.lft.to/lastmile_qr_scan", "ios": "https://dc.lft.to/lastmile_qr_scan"}, "fusion_lon": 0.0}, {"lat": 38.906288, "is_disabled": 0, "type": "electric_scooter", "lon": -77.03403083333333, "bike_id": "433bce9032a14603c869adb8f7290926", "fusion_lat": 0.0, "name": "433bce9032a14603c869adb8f7290926", "is_reserved": 0, "rental_uris": {"android": "https://dc.lft.to/lastmile_qr_scan", "ios": "https://dc.lft.to/lastmile_qr_scan"}, "fusion_lon": 0.0}, {"lat": 38.923308666666664, "is_disabled": 0, "type": "electric_scooter", "lon": -77.04301183333334, "bike_id": "cf5ed5577659b577d869491e3fedf982", "fusion_lat": 0.0, "name": "cf5ed5577659b577d869491e3fedf982", "is_reserved": 0, "rental_uris": {"android": "https://dc.lft.to/lastmile_qr_scan", "ios": "https://dc.lft.to/lastmile_qr_scan"}, "fusion_lon": 0.0}, {"lat": 38.91324983333333, "is_disabled": 0, "type": "electric_scooter", "lon": -77.03184766666666, "bike_id": "9e128b39c4c815f2ad1f5ae424339f47", "fusion_lat": 0.0, "name": "9e128b39c4c815f2ad1f5ae424339f47", "is_reserved": 0, "rental_uris": {"android": "https://dc.lft.to/lastmile_qr_scan", "ios": "https://dc.lft.to/lastmile_qr_scan"}, "fusion_lon": 0.0}, {"lat": 38.892249166666666, "is_disabled": 0, "type": "electric_bike", "lon": -77.03442833333334, "bike_id": "23f9e43d005c3d5534e4bfafc602344a", "fusion_lat": 0.0, "name": "23f9e43d005c3d5534e4bfafc602344a", "is_reserved": 0, "rental_uris": {"android": "https://dc.lft.to/lastmile_qr_scan", "ios": "https://dc.lft.to/lastmile_qr_scan"}, "fusion_lon": 0.0}, {"lat": 38.89653366666667, "is_disabled": 0, "type": "electric_scooter", "lon": -77.02392866666666, "bike_id": "e30f83f49abb3d57c6ec0f3510e52d5f", "fusion_lat": 0.0, "name": "e30f83f49abb3d57c6ec0f3510e52d5f", "is_reserved": 0, "rental_uris": {"android": "https://dc.lft.to/lastmile_qr_scan", "ios": "https://dc.lft.to/lastmile_qr_scan"}, "fusion_lon": 0.0}, {"lat": 38.926237666666665, "is_disabled": 0, "type": "electric_scooter", "lon": -77.04192833333333, "bike_id": "4d8e0aa9e5ac347269e58170b0aa3cb2", "fusion_lat": 0.0, "name": "4d8e0aa9e5ac347269e58170b0aa3cb2", "is_reserved": 0, "rental_uris": {"android": "https://dc.lft.to/lastmile_qr_scan", "ios": "https://dc.lft.to/lastmile_qr_scan"}, "fusion_lon": 0.0}, {"lat": 38.9202685, "is_disabled": 0, "type": "electric_scooter", "lon": -77.01321816666666, "bike_id": "81364cdcc5ce7a131ceb38ad4b48cddf", "fusion_lat": 0.0, "name": "81364cdcc5ce7a131ceb38ad4b48cddf", "is_reserved": 0, "rental_uris": {"android": "https://dc.lft.to/lastmile_qr_scan", "ios": "https://dc.lft.to/lastmile_qr_scan"}, "fusion_lon": 0.0}, {"lat": 38.896126333333335, "is_disabled": 0, "type": "electric_scooter", "lon": -77.04489, "bike_id": "39dbd0cc156782d23c4a48e0803c143d", "fusion_lat": 0.0, "name": "39dbd0cc156782d23c4a48e0803c143d", "is_reserved": 0, "rental_uris": {"android": "https://dc.lft.to/lastmile_qr_scan", "ios": "https://dc.lft.to/lastmile_qr_scan"}, "fusion_lon": 0.0}, {"lat": 38.93600716666667, "is_disabled": 0, "type": "electric_scooter", "lon": -77.03176633333334, "bike_id": "39c1d98ca0977475de77eab8f42aef80", "fusion_lat": 0.0, "name": "39c1d98ca0977475de77eab8f42aef80", "is_reserved": 0, "rental_uris": {"android": "https://dc.lft.to/lastmile_qr_scan", "ios": "https://dc.lft.to/lastmile_qr_scan"}, "fusion_lon": 0.0},