{"data": {"bikes": [{"lat": 38.90971233333333, "is_disabled": 0, "type": "electric_scooter", "lon": -77.033356, "bike_id": "e6016b0d5e4e4594b27b8b39bd4d2e11", "fusion_lat": 0.0, "name": "e6016b0d5e4e4594b27b8b39bd4d2e11", "is_reserved": 0, "rental_uris": {"android": "https://dc.lft.to/lastmile_qr_scan", "ios": "https://dc.lft.to/lastmile_qr_scan"}, "fusion_lon": 0.0}, {"lat": 38.914064833333335, "is_disabled": 0, "type": "electric_scooter", "lon": -77.032658, "bike_id": "adf7ea3f9ae6f356f6c76a5552393ed9", "fusion_lat": 0.0, "name": "adf7ea3f9ae6f356f6c76a5552393ed9", "is_reserved": 0, "rental_uris": {"android": "https://dc.lft.to/lastmile_qr_scan", "ios": "https://dc.lft.to/lastmile_qr_scan"}, "fusion_lon": 0.0}, {"lat": 38.965637, "is_disabled": 0, "type": "electric_bike", "lon": -77.0230335, "bike_id": "905cce5ca0a7133af5ce010e79bc4a77", "fusion_lat": 0.0, "name": "905cce5ca0a7133af5ce010e79bc4a77", "is_reserved": 0, "rental_uris": {"android": "https://dc.lft.to/lastmile_qr_scan", "ios": "https://dc.lft.to/lastmile_qr_scan"}, "fusion_lon": 0.0}, {"lat": 38.917795, "is_disabled": 0, "type": "electric_scooter", "lon": -77.041063, "bike_id": "cdbdeef41da933f9f8271bcf2d9409cc", "fusion_lat": 0.0, "name": "cdbdeef41da933f9f8271bcf2d9409cc", "is_reserved": 0, "rental_uris": {"android": "https://dc.lft.to/lastmile_qr_scan", "ios": "https://dc.lft.to/lastmile_qr_scan"}, "fusion_lon": 0.0}, {"lat": 38.914052166666664, "is_disabled": 0, "type": "electric_scooter", "lon": -77.02057983333333, "bike_id": "fa28697de3abd053b90270a7f51372ef", "fusion_lat": 0.0, "name": "fa28697de3abd053b90270a7f51372ef", "is_reserved": 0, "rental_uris": {"android": "https://dc.lft.to/lastmile_qr_scan", "ios": "https://dc.lft.to/lastmile_qr_scan"}, "fusion_lon": 0.0}, {"lat": 38.91988383333333, "is_disabled": 0, "type": "electric_scooter", "lon": -76.9730725, "bike_id": "3c578671e3fe8ac30518dc5c03adc3dc", "fusion_lat": 0.0, "name": "3c578671e3fe8ac30518dc5c03adc3dc", "is_reserved": 0, "rental_uris": {"android": "https://dc.lft.to/lastmile_qr_scan", "ios": "https://dc.lft.to/lastmile_qr_scan"}, "fusion_lon": 0.0}, {"lat": 38.860579, "is_disabled": 0, "type": "electric_bike", "lon": -77.05641533333333, "bike_id": "185b1d50b492f2df2a9655024e4d7485", "fusion_lat": 0.0, "name": "185b1d50b492f2df2a9655024e4d7485", "is_reserved": 0, "rental_uris": {"android": "https://dc.lft.to/lastmile_qr_scan", "ios": "https://dc.lft.to/lastmile_qr_scan"}, "fusion_lon": 0.0}, {"lat": 38.92863333333333, "is_disabled": 0, "type": "electric_bike", "lon": -77.03680316666667, "bike_id": "c5f25460043028f04610b4c8a67f3469", "fusion_lat": 0.0, "name": "c5f25460043028f04610b4c8a67f3469", "is_reserved": 0, "rental_uris": {"android": "https://dc.lft.to/lastmile_qr_scan", "ios": "https://dc.lft.to/lastmile_qr_scan"}, "fusion_lon": 0.0}, {"lat": 38.855194833333336, "is_disabled": 0, "type": "electric_bike", "lon": -77.12045266666667, "bike_id": "46b4e39b6805c9f8542784c688eaf8b7", "fusion_lat": 0.0, "name": "46b4e39b6805c9f8542784c688eaf8b7", "is_reserved": 0, "rental_uris": {"android": "https://dc.lft.to/lastmile_qr_scan", "ios": "https://dc.lft.to/lastmile_qr_scan"}, "fusion_lon": 0.0}, {"lat": 38.89647883333333, "is_disabled": 0, "type": "electric_scooter", "lon": -77.022865, "bike_id": "b458f3a45659c8f7734592564982007c", "fusion_lat": 0.0, "name": "b458f3a45659c8f7734592564982007c", "is_reserved": 0, "rental_uris": {"android": "https://dc.lft.to/lastmile_qr_scan", "ios": "https://dc.lft.to/lastmile_qr_scan"}, "fusion_lon": 0.0}, {"lat": 38.89738666666667, "is_disabled": 0, "type": "electric_scooter", "lon": -77.04464533333334, "bike_id": "02c1691ec403f5c46541cea03a4bfad4", "fusion_lat": 0.0, "name": "02c1691ec403f5c46541cea03a4bfad4", "is_reserved": 0, "rental_uris": {"android": "https://dc.lft.to/lastmile_qr_scan", "ios": "https://dc.lft.to/lastmile_qr_scan"}, "fusion_lon": 0.0}, {"lat": 38.9161025, "is_disabled": 0, "type": "electric_scooter", "lon": -77.048815, "bike_id": "ec1b0a674b2754d1b9d39d14cb947632", "fusion_lat": 0.0, "name": "ec1b0a674b2754d1b9d39d14cb947632", "is_reserved": 0, "rental_uris": {"android": "https://dc.lft.to/lastmile_qr_scan", "ios": "https://dc.lft.to/lastmile_qr_scan"}, "fusion_lon": 0.0}, {"lat": 38.899125833333336, "is_disabled": 0, "type": "electric_scooter", "lon": -76.933494, "bike_id": "211203f97ce2fc760a512619ed3cb130", "fusion_lat": 0.0, "name": "211203f97ce2fc760a512619ed3cb130", "is_reserved": 0, "rental_uris": {"android": "https://dc.lft.to/lastmile_qr_scan", "ios": "https://dc.lft.to/lastmile_qr_scan"}, "fusion_lon": 0.0}, {"lat": 38.915054, "is_disabled": 0, "type": "electric_scooter", "lon": -77.0138895, "bike_id": "aca3b5ef1abf1c8268d2e8fa96bb8943", "fusion_lat": 0.0, "name": "aca3b5ef1abf1c8268d2e8fa96bb8943", "is_reserved": 0, "rental_uris": {"android": "https://dc.lft.to/lastmile_qr_scan", "ios": "https://dc.lft.to/lastmile_qr_scan"}, "fusion_lon": 0.0}, {"lat": 38.930597666666664, "is_disabled": 0, "type": "electric_scooter", "lon": -77.04181916666667, "bike_id": "4c3f31a4fb2e85b678897d705661f0ac", "fusion_lat": 0.0, "name": "4c3f31a4fb2e85b678897d705661f0ac", "is_reserved": 0, "rental_uris": {"android": "https://dc.lft.to/lastmile_qr_scan", "ios": "https://dc.lft.to/lastmile_qr_scan"}, "fusion_lon": 0.0}, {"lat": 38.909580166666665, "is_disabled": 0, "type": "electric_scooter", "lon": -77.0326835, "bike_id": "143238670fba747cfd7190210db2e422", "fusion_lat": 0.0, "name": "143238670fba747cfd7190210db2e422", "is_reserved": 0, "rental_uris": {"android": "https://dc.lft.to/lastmile_qr_scan", "ios": "https://dc.lft.to/lastmile_qr_scan"}, "fusion_lon": 0.0}, {"lat": 38.87473283333333, "is_disabled": 0, "type": "electric_scooter", "lon": -77.0093745, "bike_id": "39c16b1718c9db0503df42dfbed121b6", "fusion_lat": 0.0, "name": "39c16b1718c9db0503df42dfbed121b6", "is_reserved": 0, "rental_uris": {"android": "https://dc.lft.to/lastmile_qr_scan", "ios": "https://dc.lft.to/lastmile_qr_scan"}, "fusion_lon": 0.0}, {"lat": 38.859095333333336, "is_disabled": 0, "type": "electric_scooter", "lon": -76.99143416666666, "bike_id": "93b0b4f94a5c139d4142a2a6105bbbc5", "fusion_lat": 0.0, "name": "93b0b4f94a5c139d4142a2a6105bbbc5", "is_reserved": 0, "rental_uris": {"android": "https://dc.lft.to/lastmile_qr_scan", "ios": "https://dc.lft.to/lastmile_qr_scan"}, "fusion_lon": 0.0}, {"lat": 38.87634, "is_disabled": 0, "type": "electric_scooter", "lon": -77.00919616666667, "bike_id": "c5851717d031af5ec60c9a85012651bb", "fusion_lat": 0.0, "name": "c5851717d031af5ec60c9a85012651bb", "is_reserved": 0, "rental_uris": {"android": "https://dc.lft.to/lastmile_qr_scan", "ios": "https://dc.lft.to/lastmile_qr_scan"}, "fusion_lon": 0.0}, {"lat": 38.91746666666667, "is_disabled": 0, "type": "electric_scooter", "lon": -77.0318585, "bike_id": "e2f2e5ceb68e6a9226f7bf825fdc311c", "fusion_lat": 0.0, "name": "e2f2e5ceb68e6a9226f7bf825fdc311c", "is_reserved": 0, "rental_uris": {"android": "https://dc.lft.to/lastmile_qr_scan", "ios": "https://dc.lft.to/lastmile_qr_scan"}, "fusion_lon": 0.0}, {"lat": 38.920478, "is_disabled": 0, "type": "electric_scooter", "lon": -77.041841, "bike_id": "6772250db21c7685284e51d82ed05c08", "fusion_lat": 0.0, "name": "6772250db21c7685284e51d82ed05c08", "is_reserved": 0, "rental_uris": {"android": "https://dc.lft.to/lastmile_qr_scan", "ios": "https://dc.lft.to/lastmile_qr_scan"}, "fusion_lon": 0.0}, {"lat": 38.89072983333333, "is_disabled": 0, "type": "electric_scooter", "lon": -76.93789416666667, "bike_id": "156628f9ef6ef56cc766e6696a7ad496", "fusion_lat": 0.0, "name": "156628f9ef6ef56cc766e6696a7ad496", "is_reserved": 0, "rental_uris": {"android": "https://dc.lft.to/lastmile_qr_scan", "ios": "https://dc.lft.to/lastmile_qr_scan"}, "fusion_lon": 0.0}, {"lat": 38.93633233333333, "is_disabled": 0, "type": "electric_scooter", "lon": -77.05879616666667, "bike_id": "330ac933a9ccfc80abb58a8fbaefbe4f", "fusion_lat": 0.0, "name": "330ac933a9ccfc80abb58a8fbaefbe4f", "is_reserved": 0, "rental_uris": {"android": "https://dc.lft.to/lastmile_qr_scan", "ios": "https://dc.lft.to/lastmile_qr_scan"}, "fusion_lon": 0.0}, {"lat": 38.90504816666667, "is_disabled": 0, "type": "electric_scooter", "lon": -77.04336283333333, "bike_id": "2ebf3620bd25cd16a31f7e1549fa93fb", "fusion_lat": 0.0, "name": "2ebf3620bd25cd16a31f7e1549fa93fb", "is_reserved": 0, "rental_uris": {"android": "https://dc.lft.to/lastmile_qr_scan", "ios": "https://dc.lft.to/lastmile_qr_scan"}, "fusion_lon": 0.0}, {"lat": 38.908998833333335, "is_disabled": 0, "type": "electric_scooter", "lon": -76.9992095, "bike_id": "1f1468dbf4676d3007f25678dffa3969", "fusion_lat": 0.0, "name": "1f1468dbf4676d3007f25678dffa3969", "is_reserved": 0, "rental_uris": {"android": "https://dc.lft.to/lastmile_qr_scan", "ios": "https://dc.lft.to/lastmile_qr_scan"}, "fusion_lon": 0.0}, {"lat": 38.90868183333333, "is_disabled": 0, "type": "electric_scooter", "lon": -77.0860075, "bike_id": "49b186da138e0ebbf8cc443aaecdfb9d", "fusion_lat": 0.0, "name": "49b186da138e0ebbf8cc443aaecdfb9d", "is_reserved": 0, "rental_uris": {"android": "https://dc.lft.to/lastmile_qr_scan", "ios": "https://dc.lft.to/lastmile_qr_scan"}, "fusion_lon": 0.0}, {"lat": 38.930472333333334, "is_disabled": 0, "type": "electric_scooter", "lon": -77.03220766666666, "bike_id": "de169de930af8c7941e569d98739e4aa", "fusion_lat": 0.0, "name": "de169de930af8c7941e569d98739e4aa", "is_reserved": 0, "rental_uris": {"android": "https://dc.lft.to/lastmile_qr_scan", "ios": "https://dc.lft.to/lastmile_qr_scan"}, "fusion_lon": 0.0}, {"lat": 38.8897145, "is_disabled": 0, "type": "electric_scooter", "lon": -76.9373705, "bike_id": "e1ddd24bb1251f9cc18cdbafe42973b2", "fusion_lat": 0.0, "name": "e1ddd24bb1251f9cc18cdbafe42973b2", "is_reserved": 0, "rental_uris": {"android": "https://dc.lft.to/lastmile_qr_scan", "ios": "https://dc.lft.to/lastmile_qr_scan"}, "fusion_lon": 0.0}, {"lat": 38.907523, "is_disabled": 0, "type": "electric_scooter", "lon": -77.000764, "bike_id": "392ecf6f2feef162b494a2199092b6ba", "fusion_lat": 0.0, "name": "392ecf6f2feef162b494a2199092b6ba", "is_reserved": 0, "rental_uris": {"android": "https://dc.lft.to/lastmile_qr_scan", "ios": "https://dc.lft.to/lastmile_qr_scan"}, "fusion_lon": 0.0}, {"lat": 38.874606, "is_disabled": 0, "type": "electric_scooter", "lon": -77.0049265, "bike_id": "7e1d96dfeab1e69c52861edd3abb1abc", "fusion_lat": 0.0, "name": "7e1d96dfeab1e69c52861edd3abb1abc", "is_reserved": 0, "rental_uris": {"android": "https://dc.lft.to/lastmile_qr_scan", "ios": "https://dc.lft.to/lastmile_qr_scan"}, "fusion_lon": 0.0}, {"lat": 38.92420366666666, "is_disabled": 0, "type": "electric_scooter", "lon": -77.05062616666666, "bike_id": "021102ef2672eb7490f415de236df016", "fusion_lat": 0.0, "name": "021102ef2672eb7490f415de236df016", "is_reserved": 0, "rental_uris": {"android": "https://dc.lft.to/lastmile_qr_scan", "ios": "https://dc.lft.to/lastmile_qr_scan"}, "fusion_lon": 0.0}, {"lat": 38.884302, "is_disabled": 0, "type": "electric_scooter", "lon": -76.95759833333334, "bike_id": "dea9ebce101613afe140569200abbfa6", "fusion_lat": 0.0, "name": "dea9ebce101613afe140569200abbfa6", "is_reserved": 0, "rental_uris": {"android": "https://dc.lft.to/lastmile_qr_scan", "ios": "https://dc.lft.to/lastmile_qr_scan"}, "fusion_lon": 0.0}, {"lat": 38.915623333333336, "is_disabled": 0, "type": "electric_scooter", "lon": -77.03321366666667, "bike_id": "ea00ac2f1dea4b721c8fbc0b19415e0c", "fusion_lat": 0.0, "name": "ea00ac2f1dea4b721c8fbc0b19415e0c", "is_reserved": 0, "rental_uris": {"android": "https://dc.lft.to/lastmile_qr_scan", "ios": "https://dc.lft.to/lastmile_qr_scan"}, "fusion_lon": 0.0}, {"lat": 38.90947516666667, "is_disabled": 0, "type": "electric_scooter", "lon": -77.0465655, "bike_id": "26c0410862606b896d7a62283358d290", "fusion_lat": 0.0, "name": "26c0410862606b896d7a62283358d290", "is_reserved": 0, "rental_uris": {"android": "https://dc.lft.to/lastmile_qr_scan", "ios": "https://dc.lft.to/lastmile_qr_scan"}, "fusion_lon": 0.0}, {"lat": 38.892238166666665, "is_disabled": 0, "type": "electric_scooter", "lon": -76.933039, "bike_id": "5449a850ee7e8097c0677ecac87acb6c", "fusion_lat": 0.0, "name": "5449a850ee7e8097c0677ecac87acb6c", "is_reserved": 0, "rental_uris": {"android": "https://dc.lft.to/lastmile_qr_scan", "ios": "https://dc.lft.to/lastmile_qr_scan"}, "fusion_lon": 0.0}, {"lat": 38.9039055, "is_disabled": 0, "type": "electric_scooter", "lon": -77.04387566666666, "bike_id": "efc550d609fd6de3f2739f8a75c3c5c4", "fusion_lat": 0.0, "name": "efc550d609fd6de3f2739f8a75c3c5c4", "is_reserved": 0, "rental_uris": {"android": "https://dc.lft.to/lastmile_qr_scan", "ios": "https://dc.lft.to/lastmile_qr_scan"}, "fusion_lon": 0.0}, {"lat": 38.91684216666667, "is_disabled": 0, "type": "electric_scooter", "lon": -77.0297455, "bike_id": "0c22946e62ee147d8713bd468dbb9a22", "fusion_lat": 0.0, "name": "0c22946e62ee147d8713bd468dbb9a22", "is_reserved": 0, "rental_uris": {"android": "https://dc.lft.to/lastmile_qr_scan", "ios": "https://dc.lft.to/lastmile_qr_scan"}, "fusion_lon": 0.0}, {"lat": 38.964949833333336, "is_disabled": 0, "type": "electric_bike", "lon": -77.06495916666667, "bike_id": "a6beb54000d409f5751f75dcc18a88bc", "fusion_lat": 0.0, "name": "a6beb54000d409f5751f75dcc18a88bc", "is_reserved": 0, "rental_uris": {"android": "https://dc.lft.to/lastmile_qr_scan", "ios": "https://dc.lft.to/lastmile_qr_scan"}, "fusion_lon": 0.0}, {"lat": 38.904399166666664, "is_disabled": 0, "type": "electric_scooter", "lon": -77.04062766666667, "bike_id": "b131398572a7fdde1099fce60625fbd6", "fusion_lat": 0.0, "name": "b131398572a7fdde1099fce60625fbd6", "is_reserved": 0, "rental_uris": {"android": "https://dc.lft.to/lastmile_qr_scan", "ios": "https://dc.lft.to/lastmile_qr_scan"}, "fusion_lon": 0.0}, {"lat": 38.866653, "is_disabled": 0, "type": "electric_scooter", "lon": -76.98902483333333, "bike_id": "1fc78b2f81effdb8ea52fa57d7de7ab9", "fusion_lat": 0.0, "name": "1fc78b2f81effdb8ea52fa57d7de7ab9", "is_reserved": 0, "rental_uris": {"android": "https://dc.lft.to/lastmile_qr_scan", "ios": "https://dc.lft.to/lastmile_qr_scan"}, "fusion_lon": 0.0}, {"lat": 38.931732833333335, "is_disabled": 0, "type": "electric_scooter", "lon": -77.02818716666667, "bike_id": "042537ea1e30d9499ec34c4b65a84dad", "fusion_lat": 0.0, "name": "042537ea1e30d9499ec34c4b65a84dad", "is_reserved": 0, "rental_uris": {"android": "https://dc.lft.to/lastmile_qr_scan", "ios": "https://dc.lft.to/lastmile_qr_scan"}, "fusion_lon": 0.0}, {"lat": 38.914068, "is_disabled": 0, "type": "electric_scooter", "lon": -77.0326725, "bike_id": "ac31b64441ec93bf4a79a95f56ac0a42", "fusion_lat": 0.0, "name": "ac31b64441ec93bf4a79a95f56ac0a42", "is_reserved": 0, "rental_uris": {"android": "https://dc.lft.to/lastmile_qr_scan", "ios": "https://dc.lft.to/lastmile_qr_scan"}, "fusion_lon": 0.0}, {"lat": 38.922049333333334, "is_disabled": 0, "type": "electric_scooter", "lon": -77.04019183333334, "bike_id": "11ad4beb0435809420784d568db579b5", "fusion_lat": 0.0, "name": "11ad4beb0435809420784d568db579b5", "is_reserved": 0, "rental_uris": {"android": "https://dc.lft.to/lastmile_qr_scan", "ios": "https://dc.lft.to/lastmile_qr_scan"}, "fusion_lon": 0.0}, {"lat": 38.90092083333333, "is_disabled": 0, "type": "electric_scooter", "lon": -77.02212183333333, "bike_id": "311aed1847384d6489a72d9436d36efa", "fusion_lat": 0.0, "name": "311aed1847384d6489a72d9436d36efa", "is_reserved": 0, "rental_uris": {"android": "https://dc.lft.to/lastmile_qr_scan", "ios": "https://dc.lft.to/lastmile_qr_scan"}, "fusion_lon": 0.0}, {"lat": 38.909432333333335, "is_disabled": 0, "type": "electric_scooter", "lon": -77.04430533333333, "bike_id": "fe7b267a7a1880a3a30c2b967181fa1d", "fusion_lat": 0.0, "name": "fe7b267a7a1880a3a30c2b967181fa1d", "is_reserved": 0, "rental_uris": {"android": "https://dc.lft.to/lastmile_qr_scan", "ios": "https://dc.lft.to/lastmile_qr_scan"}, "fusion_lon": 0.0}, {"lat": 38.9355935, "is_disabled": 0, "type": "electric_scooter", "lon": -77.0588195, "bike_id": "86d91a0016808ec7d60f2439b34bc6f4", "fusion_lat": 0.0, "name": "86d91a0016808ec7d60f2439b34bc6f4", "is_reserved": 0, "rental_uris": {"android": "https://dc.lft.to/lastmile_qr_scan", "ios": "https://dc.lft.to/lastmile_qr_scan"}, "fusion_lon": 0.0}, {"lat": 38.89471433333333, "is_disabled": 0, "type": "electric_bike", "lon": -77.02188766666667, "bike_id": "f051371aa7aa78fc32d473b9a738d49a", "fusion_lat": 0.0, "name": "f051371aa7aa78fc32d473b9a738d49a", "is_reserved": 0, "rental_uris": {"android": "https://dc.lft.to/lastmile_qr_scan", "ios": "https://dc.lft.to/lastmile_qr_scan"}, "fusion_lon": 0.0}, {"lat": 38.87644566666667, "is_disabled": 0, "type": "electric_scooter", "lon": -77.019315, "bike_id": "5b18ab3954d9565e77e43f6389e1577b", "fusion_lat": 0.0, "name": "5b18ab3954d9565e77e43f6389e1577b", "is_reserved": 0, "rental_uris": {"android": "https://dc.lft.to/lastmile_qr_scan", "ios": "https://dc.lft.to/lastmile_qr_scan"}, "fusion_lon": 0.0}, {"lat": 38.872426833333336, "is_disabled": 0, "type": "electric_scooter", "lon": -77.0121085, "bike_id": "cf53ac5440ccb8dbf16ed03b28ad6a99", "fusion_lat": 0.0, "name": "cf53ac5440ccb8dbf16ed03b28ad6a99", "is_reserved": 0, "rental_uris": {"android": "https://dc.lft.to/lastmile_qr_scan", "ios": "https://dc.lft.to/lastmile_qr_scan"}, "fusion_lon": 0.0}, {"lat": 38.9037605, "is_disabled": 0, "type": "electric_scooter", "lon": -77.04672116666667, "bike_id": "b43adf887deb8151a9b85cacc9991c5f", "fusion_lat": 0.0, "name": "b43adf887deb8151a9b85cacc9991c5f", "is_reserved": 0, "rental_uris": {"android": "https://dc.lft.to/lastmile_qr_scan", "ios": "https://dc.lft.to/lastmile_qr_scan"}, "fusion_lon": 0.0}, {"lat": 38.937362, "is_disabled": 0, "type": "electric_scooter", "lon": -77.034983, "bike_id": "9ddef772b398d7c25e1d08ffca316c25", "fusion_lat": 0.0, "name": "9ddef772b398d7c25e1d08ffca316c25", "is_reserved": 0, "rental_uris": {"android": "https://dc.lft.to/lastmile_qr_scan", "ios": "https://dc.lft.to/lastmile_qr_scan"}, "fusion_lon": 0.0}, {"lat": 38.90145616666667, "is_disabled": 0, "type": "electric_scooter", "lon": -77.003524, "bike_id": "722e6f3fd27f007e1da933a5df7a9126", "fusion_lat": 0.0, "name": "722e6f3fd27f007e1da933a5df7a9126", "is_reserved": 0, "rental_uris": {"android": "https://dc.lft.to/lastmile_qr_scan", "ios": "https://dc.lft.to/lastmile_qr_scan"}, "fusion_lon": 0.0}, {"lat": 38.90375266666667, "is_disabled": 0, "type": "electric_scooter", "lon": -77.0454825, "bike_id": "822103d42507353dd9586f8088974f3e", "fusion_lat": 0.0, "name": "822103d42507353dd9586f8088974f3e", "is_reserved": 0, "rental_uris": {"android": "https://dc.lft.to/lastmile_qr_scan", "ios": "https://dc.lft.to/lastmile_qr_scan"}, "fusion_lon": 0.0}, {"lat": 38.913253833333336, "is_disabled": 0, "type": "electric_scooter", "lon": -77.0449355, "bike_id": "3b1506eec03997d0ad7eaf87da34c06c", "fusion_lat": 0.0, "name": "3b1506eec03997d0ad7eaf87da34c06c", "is_reserved": 0, "rental_uris": {"android": "https://dc.lft.to/lastmile_qr_scan", "ios": "https://dc.lft.to/lastmile_qr_scan"}, "fusion_lon": 0.0}, {"lat": 38.907337, "is_disabled": 0, "type": "electric_scooter", "lon": -77.03986883333333, "bike_id": "b205b3f82ec2aa823170a06c63768b26", "fusion_lat": 0.0, "name": "b205b3f82ec2aa823170a06c63768b26", "is_reserved": 0, "rental_uris": {"android": "https://dc.lft.to/lastmile_qr_scan", "ios": "https://dc.lft.to/lastmile_qr_scan"}, "fusion_lon": 0.0}, {"lat": 38.85319633333334, "is_disabled": 0, "type": "electric_scooter", "lon": -76.98014866666666, "bike_id": "9dfe0ab0af6c47aa9343f2e9b550164e", "fusion_lat": 0.0, "name": "9dfe0ab0af6c47aa9343f2e9b550164e", "is_reserved": 0, "rental_uris": {"android": "https://dc.lft.to/lastmile_qr_scan", "ios": "https://dc.lft.to/lastmile_qr_scan"}, "fusion_lon": 0.0}, {"lat": 38.939795333333336, "is_disabled": 0, "type": "electric_scooter", "lon": -77.03264366666667, "bike_id": "d086dc5e303a20890a154b3ae4eb4ee7", "fusion_lat": 0.0, "name": "d086dc5e303a20890a154b3ae4eb4ee7", "is_reserved": 0, "rental_uris": {"android": "https://dc.lft.to/lastmile_qr_scan", "ios": "https://dc.lft.to/lastmile_qr_scan"}, "fusion_lon": 0.0}, {"lat": 38.89608916666667, "is_disabled": 0, "type": "electric_scooter", "lon": -76.956461, "bike_id": "c47160bfb8fa6bd4aed34378f32c6440", "fusion_lat": 0.0, "name": "c47160bfb8fa6bd4aed34378f32c6440", "is_reserved": 0, "rental_uris": {"android": "https://dc.lft.to/lastmile_qr_scan", "ios": "https://dc.lft.to/lastmile_qr_scan"}, "fusion_lon": 0.0}, {"lat": 38.92621666666667, "is_disabled": 0, "type": "electric_scooter", "lon": -77.0441265, "bike_id": "4ea6ce9e51ad50bf1bdebb706b13c209", "fusion_lat": 0.0, "name": "4ea6ce9e51ad50bf1bdebb706b13c209", "is_reserved": 0, "rental_uris": {"android": "https://dc.lft.to/lastmile_qr_scan", "ios": "https://dc.lft.to/lastmile_qr_scan"}, "fusion_lon": 0.0}, {"lat": 38.91421583333333, "is_disabled": 0, "type": "electric_scooter", "lon": -77.0325575, "bike_id": "23fc0a2eecf117d2d3366009115a544d", "fusion_lat": 0.0, "name": "23fc0a2eecf117d2d3366009115a544d", "is_reserved": 0, "rental_uris": {"android": "https://dc.lft.to/lastmile_qr_scan", "ios": "https://dc.lft.to/lastmile_qr_scan"}, "fusion_lon": 0.0}, {"lat": 38.88743483333333, "is_disabled": 0, "type": "electric_scooter", "lon": -77.02073683333333, "bike_id": "831f7b096c4c196bf4086b6866ec303b", "fusion_lat": 0.0, "name": "831f7b096c4c196bf4086b6866ec303b", "is_reserved": 0, "rental_uris": {"android": "https://dc.lft.to/lastmile_qr_scan", "ios": "https://dc.lft.to/lastmile_qr_scan"}, "fusion_lon": 0.0}, {"lat": 38.93865666666667, "is_disabled": 0, "type": "electric_scooter", "lon": -77.026517, "bike_id": "101f8059e37616a9903f213c57c781dd", "fusion_lat": 0.0, "name": "101f8059e37616a9903f213c57c781dd", "is_reserved": 0, "rental_uris": {"android": "https://dc.lft.to/lastmile_qr_scan", "ios": "https://dc.lft.to/lastmile_qr_scan"}, "fusion_lon": 0.0}, {"lat": 38.903948166666666, "is_disabled": 0, "type": "electric_scooter", "lon": -77.05380833333334, "bike_id": "f39eb2e70a122a02d22b2112be5092d1", "fusion_lat": 0.0, "name": "f39eb2e70a122a02d22b2112be5092d1", "is_reserved": 0, "rental_uris": {"android": "https://dc.lft.to/lastmile_qr_scan", "ios": "https://dc.lft.to/lastmile_qr_scan"}, "fusion_lon": 0.0}, {"lat": 38.892224666666664, "is_disabled": 0, "type": "electric_scooter", "lon": -77.04802583333333, "bike_id": "f1a284e263b4526627c3975c1aa5f7a6", "fusion_lat": 0.0, "name": "f1a284e263b4526627c3975c1aa5f7a6", "is_reserved": 0, "rental_uris": {"android": "https://dc.lft.to/lastmile_qr_scan", "ios": "https://dc.lft.to/lastmile_qr_scan"}, "fusion_lon": 0.0}, {"lat": 38.90965666666666, "is_disabled": 0, "type": "electric_scooter", "lon": -77.0314295, "bike_id": "3d8c74070546d28f4d8d7e60493145ec", "fusion_lat": 0.0, "name": "3d8c74070546d28f4d8d7e60493145ec", "is_reserved": 0, "rental_uris": {"android": "https://dc.lft.to/lastmile_qr_scan", "ios": "https://dc.lft.to/lastmile_qr_scan"}, "fusion_lon": 0.0}, {"lat": 38.9169755, "is_disabled": 0, "type": "electric_scooter", "lon": -77.02662033333333, "bike_id": "8e1d281d69d828e94c99b1f6208c053c", "fusion_lat": 0.0, "name": "8e1d281d69d828e94c99b1f6208c053c", "is_reserved": 0, "rental_uris": {"android": "https://dc.lft.to/lastmile_qr_scan", "ios": "https://dc.lft.to/lastmile_qr_scan"}, "fusion_lon": 0.0}, {"lat": 38.916794833333334, "is_disabled": 0, "type": "electric_scooter", "lon": -77.029541, "bike_id": "4c262ccfc102e1d514065b0ebf12d2dc", "fusion_lat": 0.0, "name": "4c262ccfc102e1d514065b0ebf12d2dc", "is_reserved": 0, "rental_uris": {"android": "https://dc.lft.to/lastmile_qr_scan", "ios": "https://dc.lft.to/lastmile_qr_scan"}, "fusion_lon": 0.0}, {"lat": 38.90071616666667, "is_disabled": 0, "type": "electric_scooter", "lon": -77.02596033333333, "bike_id": "487ea3b0fc35cee7943d45c886595249", "fusion_lat": 0.0, "name": "487ea3b0fc35cee7943d45c886595249", "is_reserved": 0, "rental_uris": {"android": "https://dc.lft.to/lastmile_qr_scan", "ios": "https://dc.lft.to/lastmile_qr_scan"}, "fusion_lon": 0.0}, {"lat": 38.916982, "is_disabled": 0, "type": "electric_scooter", "lon": -77.03102333333334, "bike_id": "f2373e7c5b4658a71ae2301673aba9c8", "fusion_lat": 0.0, "name": "f2373e7c5b4658a71ae2301673aba9c8", "is_reserved": 0, "rental_uris": {"android": "https://dc.lft.to/lastmile_qr_scan", "ios": "https://dc.lft.to/lastmile_qr_scan"}, "fusion_lon": 0.0}, {"lat": 38.900391, "is_disabled": 0, "type": "electric_scooter", "lon": -77.01174916666666, "bike_id": "62fde9904ef641c70494cd19bb9dd57b", "fusion_lat": 0.0, "name": "62fde9904ef641c70494cd19bb9dd57b", "is_reserved": 0, "rental_uris": {"android": "https://dc.lft.to/lastmile_qr_scan", "ios": "https://dc.lft.to/lastmile_qr_scan"}, "fusion_lon": 0.0}, {"lat": 39.052043166666664, "is_disabled": 0, "type": "electric_bike", "lon": -77.109177, "bike_id": "d4f6f26aed6fb187040b2fa0ddb75f9e", "fusion_lat": 0.0, "name": "d4f6f26aed6fb187040b2fa0ddb75f9e", "is_reserved": 0, "rental_uris": {"android": "https://dc.lft.to/lastmile_qr_scan", "ios": "https://dc.lft.to/lastmile_qr_scan"}, "fusion_lon": 0.0}, {"lat": 38.916954, "is_disabled": 0, "type": "electric_bike", "lon": -77.04294, "bike_id": "f8f24ae8aab8f7c6dd53dcc3d45e0757", "fusion_lat": 0.0, "name": "f8f24ae8aab8f7c6dd53dcc3d45e0757", "is_reserved": 0, "rental_uris": {"android": "https://dc.lft.to/lastmile_qr_scan", "ios": "https://dc.lft.to/lastmile_qr_scan"}, "fusion_lon": 0.0}, {"lat": 38.9106945, "is_disabled": 0, "type": "electric_scooter", "lon": -77.05481266666666, "bike_id": "4392c0eca63e87d023c61b747d90cb50", "fusion_lat": 0.0, "name": "4392c0eca63e87d023c61b747d90cb50", "is_reserved": 0, "rental_uris": {"android": "https://dc.lft.to/lastmile_qr_scan", "ios": "https://dc.lft.to/lastmile_qr_scan"}, "fusion_lon": 0.0}, {"lat": 38.90711816666666, "is_disabled": 0, "type": "electric_scooter", "lon": -77.03422783333333, "bike_id": "cd76870c08e211a3d21cccccdbec609b", "fusion_lat": 0.0, "name": "cd76870c08e211a3d21cccccdbec609b", "is_reserved": 0, "rental_uris": {"android": "https://dc.lft.to/lastmile_qr_scan", "ios": "https://dc.lft.to/lastmile_qr_scan"}, "fusion_lon": 0.0}, {"lat": 38.865063666666664, "is_disabled": 0, "type": "electric_scooter", "lon": -76.97432733333333, "bike_id": "d27f2f0c07d2a053f93665daa691653c", "fusion_lat": 0.0, "name": "d27f2f0c07d2a053f93665daa691653c", "is_reserved": 0, "rental_uris": {"android": "https://dc.lft.to/lastmile_qr_scan", "ios": "https://dc.lft.to/lastmile_qr_scan"}, "fusion_lon": 0.0}, {"lat": 38.91679966666667, "is_disabled": 0, "type": "electric_scooter", "lon": -77.0239645, "bike_id": "fc93d171e372c40b8041e40bf42a2827", "fusion_lat": 0.0, "name": "fc93d171e372c40b8041e40bf42a2827", "is_reserved": 0, "rental_uris": {"android": "https://dc.lft.to/lastmile_qr_scan", "ios": "https://dc.lft.to/lastmile_qr_scan"}, "fusion_lon": 0.0}, {"lat": 38.892801166666665, "is_disabled": 0, "type": "electric_scooter", "lon": -77.0503625, "bike_id": "448d3b5c72a6c7b5e573bb179a8224ef", "fusion_lat": 0.0, "name": "448d3b5c72a6c7b5e573bb179a8224ef", "is_reserved": 0, "rental_uris": {"android": "https://dc.lft.to/lastmile_qr_scan", "ios": "https://dc.lft.to/lastmile_qr_scan"}, "fusion_lon": 0.0}, {"lat": 38.84627916666667, "is_disabled": 0, "type": "electric_bike", "lon": -77.06937666666667, "bike_id": "ad1cb2b8bc6351a08b0413c167d1bd23", "fusion_lat": 0.0, "name": "ad1cb2b8bc6351a08b0413c167d1bd23", "is_reserved": 0, "rental_uris": {"android": "https://dc.lft.to/lastmile_qr_scan", "ios": "https://dc.lft.to/lastmile_qr_scan"}, "fusion_lon": 0.0}, {"lat": 38.9270975, "is_disabled": 0, "type": "electric_bike", "lon": -77.03736016666667, "bike_id": "89f1098adc2060e4f23eb4ba0b2c9bd4", "fusion_lat": 0.0, "name": "89f1098adc2060e4f23eb4ba0b2c9bd4", "is_reserved": 0, "rental_uris": {"android": "https://dc.lft.to/lastmile_qr_scan", "ios": "https://dc.lft.to/lastmile_qr_scan"}, "fusion_lon": 0.0}, {"lat": 38.89509116666667, "is_disabled": 0, "type": "electric_scooter", "lon": -77.02743633333333, "bike_id": "082023929f5911ab70e35a60208824fb", "fusion_lat": 0.0, "name": "082023929f5911ab70e35a60208824fb", "is_reserved": 0, "rental_uris": {"android": "https://dc.lft.to/lastmile_qr_scan", "ios": "https://dc.lft.to/lastmile_qr_scan"}, "fusion_lon": 0.0}, {"lat": 38.91842033333333, "is_disabled": 0, "type": "electric_scooter", "lon": -76.9654095, "bike_id": "3f5e78bd24e57f6c728a6e81a17c673c", "fusion_lat": 0.0, "name": "3f5e78bd24e57f6c728a6e81a17c673c", "is_reserved": 0, "rental_uris": {"android": "https://dc.lft.to/lastmile_qr_scan", "ios": "https://dc.lft.to/lastmile_qr_scan"}, "fusion_lon": 0.0}, {"lat": 38.92154816666667, "is_disabled": 0, "type": "electric_scooter", "lon": -77.04240533333333, "bike_id": "fa7b8a06bdfe80cff7fa01582c261e84", "fusion_lat": 0.0, "name": "fa7b8a06bdfe80cff7fa01582c261e84", "is_reserved": 0, "rental_uris": {"android": "https://dc.lft.to/lastmile_qr_scan", "ios": "https://dc.lft.to/lastmile_qr_scan"}, "fusion_lon": 0.0}, {"lat": 38.91136483333333, "is_disabled": 0, "type": "electric_scooter", "lon": -77.03204466666666, "bike_id": "18ef72ba141d1c302fdf2d2c4c87f635", "fusion_lat": 0.0, "name": "18ef72ba141d1c302fdf2d2c4c87f635", "is_reserved": 0, "rental_uris": {"android": "https://dc.lft.to/lastmile_qr_scan", "ios": "https://dc.lft.to/lastmile_qr_scan"}, "fusion_lon": 0.0}, {"lat": 38.90867733333333, "is_disabled": 0, "type": "electric_scooter", "lon": -77.0322075, "bike_id": "acc339cdc56938cac7ba567447c34ca2", "fusion_lat": 0.0, "name": "acc339cdc56938cac7ba567447c34ca2", "is_reserved": 0, "rental_uris": {"android": "https://dc.lft.to/lastmile_qr_scan", "ios": "https://dc.lft.to/lastmile_qr_scan"}, "fusion_lon": 0.0}, {"lat": 38.8521925, "is_disabled": 0, "type": "electric_bike", "lon": -77.12957533333334, "bike_id": "6dfec9b89cdecb7718485ff606231dae", "fusion_lat": 0.0, "name": "6dfec9b89cdecb7718485ff606231dae", "is_reserved": 0, "rental_uris": {"android": "https://dc.lft.to/lastmile_qr_scan", "ios": "https://dc.lft.to/lastmile_qr_scan"}, "fusion_lon": 0.0}, {"lat": 38.90047916666666, "is_disabled": 0, "type": "electric_scooter", "lon": -77.00781783333333, "bike_id": "d6f932073d80224476300aeb80d2e857", "fusion_lat": 0.0, "name": "d6f932073d80224476300aeb80d2e857", "is_reserved": 0, "rental_uris": {"android": "https://dc.lft.to/lastmile_qr_scan", "ios": "https://dc.lft.to/lastmile_qr_scan"}, "fusion_lon": 0.0}, {"lat": 38.91068833333333, "is_disabled": 0, "type": "electric_scooter", "lon": -77.01637133333334, "bike_id": "f55546ecf77e917db079d6e44ffe6249", "fusion_lat": 0.0, "name": "f55546ecf77e917db079d6e44ffe6249", "is_reserved": 0, "rental_uris": {"android": "https://dc.lft.to/lastmile_qr_scan", "ios": "https://dc.lft.to/lastmile_qr_scan"}, "fusion_lon": 0.0}, {"lat": 38.921716333333336, "is_disabled": 0, "type": "electric_scooter", "lon": -77.05136283333333, "bike_id": "46cded80f9dd2d6836e2edd54fadfe2d", "fusion_lat": 0.0, "name": "46cded80f9dd2d6836e2edd54fadfe2d", "is_reserved": 0, "rental_uris": {"android": "https://dc.lft.to/lastmile_qr_scan", "ios": "https://dc.lft.to/lastmile_qr_scan"}, "fusion_lon": 0.0}, {"lat": 38.923296, "is_disabled": 0, "type": "electric_scooter", "lon": -77.036681, "bike_id": "deb7d0dd14bbba2f19fc354c3446a3a9", "fusion_lat": 0.0, "name": "deb7d0dd14bbba2f19fc354c3446a3a9", "is_reserved": 0, "rental_uris": {"android": "https://dc.lft.to/lastmile_qr_scan", "ios": "https://dc.lft.to/lastmile_qr_scan"}, "fusion_lon": 0.0}, {"lat": 38.904522166666666, "is_disabled": 0, "type": "electric_scooter", "lon": -77.04042633333333, "bike_id": "b230a3321948396198ac5bcdac99243f", "fusion_lat": 0.0, "name": "b230a3321948396198ac5bcdac99243f", "is_reserved": 0, "rental_uris": {"android": "https://dc.lft.to/lastmile_qr_scan", "ios": "https://dc.lft.to/lastmile_qr_scan"}, "fusion_lon": 0.0}, {"lat": 38.962168, "is_disabled": 0, "type": "electric_bike", "lon": -77.02781066666667, "bike_id": "1d4f50a0041374f9968b2f20379feccf", "fusion_lat": 0.0, "name": "1d4f50a0041374f9968b2f20379feccf", "is_reserved": 0, "rental_uris": {"android": "https://dc.lft.to/lastmile_qr_scan", "ios": "https://dc.lft.to/lastmile_qr_scan"}, "fusion_lon": 0.0}, {"lat": 38.9140175, "is_disabled": 0, "type": "electric_scooter", "lon": -77.0317945, "bike_id": "ec03b5f6f70f2767a863f42fd9df38c1", "fusion_lat": 0.0, "name": "ec03b5f6f70f2767a863f42fd9df38c1", "is_reserved": 0, "rental_uris": {"android": "https://dc.lft.to/lastmile_qr_scan", "ios": "https://dc.lft.to/lastmile_qr_scan"}, "fusion_lon": 0.0}, {"lat": 38.985963, "is_disabled": 0, "type": "electric_bike", "lon": -77.03752283333333, "bike_id": "868db243bce997d2adec6c0c8ad67296", "fusion_lat": 0.0, "name": "868db243bce997d2adec6c0c8ad67296", "is_reserved": 0, "rental_uris": {"android": "https://dc.lft.to/lastmile_qr_scan", "ios": "https://dc.lft.to/lastmile_qr_scan"}, "fusion_lon": 0.0}, {"lat": 38.91787133333333, "is_disabled": 0, "type": "electric_scooter", "lon": -77.02307483333334, "bike_id": "b49d4e8916c3081293ca5db75e7fbe68", "fusion_lat": 0.0, "name": "b49d4e8916c3081293ca5db75e7fbe68", "is_reserved": 0, "rental_uris": {"android": "https://dc.lft.to/lastmile_qr_scan", "ios": "https://dc.lft.to/lastmile_qr_scan"}, "fusion_lon": 0.0}, {"lat": 38.92790516666667, "is_disabled": 0, "type": "electric_scooter", "lon": -77.03152583333333, "bike_id": "5395bd05e556ddf18bc1a56f3a689249", "fusion_lat": 0.0, "name": "5395bd05e556ddf18bc1a56f3a689249", "is_reserved": 0, "rental_uris": {"android": "https://dc.lft.to/lastmile_qr_scan", "ios": "https://dc.lft.to/lastmile_qr_scan"}, "fusion_lon": 0.0}, {"lat": 38.86598866666667, "is_disabled": 0, "type": "electric_bike", "lon": -76.93233766666667, "bike_id": "5b69e7f897a2ae521579bbadd29a6821", "fusion_lat": 0.0, "name": "5b69e7f897a2ae521579bbadd29a6821", "is_reserved": 0, "rental_uris": {"android": "https://dc.lft.to/lastmile_qr_scan", "ios": "https://dc.lft.to/lastmile_qr_scan"}, "fusion_lon": 0.0}, {"lat": 38.88107433333333, "is_disabled": 0, "type": "electric_scooter", "lon": -77.026326, "bike_id": "b10680f8e8a434db774f93715200c4ee", "fusion_lat": 0.0, "name": "b10680f8e8a434db774f93715200c4ee", "is_reserved": 0, "rental_uris": {"android": "https://dc.lft.to/lastmile_qr_scan", "ios": "https://dc.lft.to/lastmile_qr_scan"}, "fusion_lon": 0.0}, {"lat": 38.90753216666667, "is_disabled": 0, "type": "electric_scooter", "lon": -77.04244983333334, "bike_id": "60cfba6e36820d8a725757083d70809f", "fusion_lat": 0.0, "name": "60cfba6e36820d8a725757083d70809f", "is_reserved": 0, "rental_uris": {"android": "https://dc.lft.to/lastmile_qr_scan", "ios": "https://dc.lft.to/lastmile_qr_scan"}, "fusion_lon": 0.0}, {"lat": 38.90282583333333, "is_disabled": 0, "type": "electric_scooter", "lon": -77.03651133333334, "bike_id": "0da73ef604d599bf0889d95f90b7d40c", "fusion_lat": 0.0, "name": "0da73ef604d599bf0889d95f90b7d40c", "is_reserved": 0, "rental_uris": {"android": "https://dc.lft.to/lastmile_qr_scan", "ios": "https://dc.lft.to/lastmile_qr_scan"}, "fusion_lon": 0.0}, {"lat": 38.90012766666667, "is_disabled": 0, "type": "electric_scooter", "lon": -76.9912195, "bike_id": "2cba4da34841f0e099342f9b71441fa9", "fusion_lat": 0.0, "name": "2cba4da34841f0e099342f9b71441fa9", "is_reserved": 0, "rental_uris": {"android": "https://dc.lft.to/lastmile_qr_scan", "ios": "https://dc.lft.to/lastmile_qr_scan"}, "fusion_lon": 0.0}, {"lat": 38.901326833333336, "is_disabled": 0, "type": "electric_scooter", "lon": -77.03231216666667, "bike_id": "797dcd225b4282d174c04b2de83a40d5", "fusion_lat": 0.0, "name": "797dcd225b4282d174c04b2de83a40d5", "is_reserved": 0, "rental_uris": {"android": "https://dc.lft.to/lastmile_qr_scan", "ios": "https://dc.lft.to/lastmile_qr_scan"}, "fusion_lon": 0.0}, {"lat": 38.903750333333335, "is_disabled": 0, "type": "electric_scooter", "lon": -77.04030066666667, "bike_id": "7e6953243f5ff3f5284e26a7fce6bbc4", "fusion_lat": 0.0, "name": "7e6953243f5ff3f5284e26a7fce6bbc4", "is_reserved": 0, "rental_uris": {"android": "https://dc.lft.to/lastmile_qr_scan", "ios": "https://dc.lft.to/lastmile_qr_scan"}, "fusion_lon": 0.0}, {"lat": 38.878940166666666, "is_disabled": 0, "type": "electric_scooter", "lon": -77.0232325, "bike_id": "24eb08afb988866e8c024d0c2719d350", "fusion_lat": 0.0, "name": "24eb08afb988866e8c024d0c2719d350", "is_reserved": 0, "rental_uris": {"android": "https://dc.lft.to/lastmile_qr_scan", "ios": "https://dc.lft.to/lastmile_qr_scan"}, "fusion_lon": 0.0}, {"lat": 38.9214635, "is_disabled": 0, "type": "electric_scooter", "lon": -77.0424155, "bike_id": "7a2a0459d733c92b97392ce23556578a", "fusion_lat": 0.0, "name": "7a2a0459d733c92b97392ce23556578a", "is_reserved": 0, "rental_uris": {"android": "https://dc.lft.to/lastmile_qr_scan", "ios": "https://dc.lft.to/lastmile_qr_scan"}, "fusion_lon": 0.0}, {"lat": 38.922386833333334, "is_disabled": 0, "type": "electric_scooter", "lon": -77.03353866666667, "bike_id": "b91999f64700fb5e4e736e6752e57b75", "fusion_lat": 0.0, "name": "b91999f64700fb5e4e736e6752e57b75", "is_reserved": 0, "rental_uris": {"android": "https://dc.lft.to/lastmile_qr_scan", "ios": "https://dc.lft.to/lastmile_qr_scan"}, "fusion_lon": 0.0}, {"lat": 38.8709465, "is_disabled": 0, "type": "electric_scooter", "lon": -77.0120315, "bike_id": "26f90c8defaf542fedb5f2740e3e7886", "fusion_lat": 0.0, "name": "26f90c8defaf542fedb5f2740e3e7886", "is_reserved": 0, "rental_uris": {"android": "https://dc.lft.to/lastmile_qr_scan", "ios": "https://dc.lft.to/lastmile_qr_scan"}, "fusion_lon": 0.0}, {"lat": 38.922571166666664, "is_disabled": 0, "type": "electric_scooter", "lon": -77.04262316666667, "bike_id": "2cd2653df35f10dd35901fded40b7270", "fusion_lat": 0.0, "name": "2cd2653df35f10dd35901fded40b7270", "is_reserved": 0, "rental_uris": {"android": "https://dc.lft.to/lastmile_qr_scan", "ios": "https://dc.lft.to/lastmile_qr_scan"}, "fusion_lon": 0.0}, {"lat": 38.920641333333336, "is_disabled": 0, "type": "electric_scooter", "lon": -77.0427505, "bike_id": "709d5a060bd19c558d2c4d7060fdb308", "fusion_lat": 0.0, "name": "709d5a060bd19c558d2c4d7060fdb308", "is_reserved": 0, "rental_uris": {"android": "https://dc.lft.to/lastmile_qr_scan", "ios": "https://dc.lft.to/lastmile_qr_scan"}, "fusion_lon": 0.0}, {"lat": 38.900261666666665, "is_disabled": 0, "type": "electric_scooter", "lon": -77.04030133333333, "bike_id": "7b32a609b39605886f0e5e2b21010cda", "fusion_lat": 0.0, "name": "7b32a609b39605886f0e5e2b21010cda", "is_reserved": 0, "rental_uris": {"android": "https://dc.lft.to/lastmile_qr_scan", "ios": "https://dc.lft.to/lastmile_qr_scan"}, "fusion_lon": 0.0}, {"lat": 38.923557833333334, "is_disabled": 0, "type": "electric_scooter", "lon": -77.0506535, "bike_id": "274ad1de0cc7cffaf5386adab00b1c47", "fusion_lat": 0.0, "name": "274ad1de0cc7cffaf5386adab00b1c47", "is_reserved": 0, "rental_uris": {"android": "https://dc.lft.to/lastmile_qr_scan", "ios": "https://dc.lft.to/lastmile_qr_scan"}, "fusion_lon": 0.0}, {"lat": 38.91715716666667, "is_disabled": 0, "type": "electric_scooter", "lon": -77.02953466666666, "bike_id": "cb203280adc0aa6a5f9df3f13b81121e", "fusion_lat": 0.0, "name": "cb203280adc0aa6a5f9df3f13b81121e", "is_reserved": 0, "rental_uris": {"android": "https://dc.lft.to/lastmile_qr_scan", "ios": "https://dc.lft.to/lastmile_qr_scan"}, "fusion_lon": 0.0}, {"lat": 38.93468566666667, "is_disabled": 0, "type": "electric_scooter", "lon": -77.037013, "bike_id": "191a6d65831966733757d8bdccb9123c", "fusion_lat": 0.0, "name": "191a6d65831966733757d8bdccb9123c", "is_reserved": 0, "rental_uris": {"android": "https://dc.lft.to/lastmile_qr_scan", "ios": "https://dc.lft.to/lastmile_qr_scan"}, "fusion_lon": 0.0}, {"lat": 38.930123333333334, "is_disabled": 0, "type": "electric_scooter", "lon": -77.05524166666666, "bike_id": "57a745f317e169a720b0a2ee29769dc8", "fusion_lat": 0.0, "name": "57a745f317e169a720b0a2ee29769dc8", "is_reserved": 0, "rental_uris": {"android": "https://dc.lft.to/lastmile_qr_scan", "ios": "https://dc.lft.to/lastmile_qr_scan"}, "fusion_lon": 0.0}, {"lat": 38.926763333333334, "is_disabled": 0, "type": "electric_scooter", "lon": -77.095587, "bike_id": "c84a2eb01ad096f1c708eb663237678e", "fusion_lat": 0.0, "name": "c84a2eb01ad096f1c708eb663237678e", "is_reserved": 0, "rental_uris": {"android": "https://dc.lft.to/lastmile_qr_scan", "ios": "https://dc.lft.to/lastmile_qr_scan"}, "fusion_lon": 0.0}, {"lat": 38.9049795, "is_disabled": 0, "type": "electric_scooter", "lon": -77.051375, "bike_id": "d770a426d9baa196247df1ee0577d945", "fusion_lat": 0.0, "name": "d770a426d9baa196247df1ee0577d945", "is_reserved": 0, "rental_uris": {"android": "https://dc.lft.to/lastmile_qr_scan", "ios": "https://dc.lft.to/lastmile_qr_scan"}, "fusion_lon": 0.0}, {"lat": 38.8802925, "is_disabled": 0, "type": "electric_bike", "lon": -77.00564583333333, "bike_id": "3c7b9ba73dc8ca1ccadd30ff09f8d9ca", "fusion_lat": 0.0, "name": "3c7b9ba73dc8ca1ccadd30ff09f8d9ca", "is_reserved": 0, "rental_uris": {"android": "https://dc.lft.to/lastmile_qr_scan", "ios": "https://dc.lft.to/lastmile_qr_scan"}, "fusion_lon": 0.0}, {"lat": 38.902697333333336, "is_disabled": 0, "type": "electric_scooter", "lon": -77.034391, "bike_id": "a88228b9674a1e8781424c245d069e37", "fusion_lat": 0.0, "name": "a88228b9674a1e8781424c245d069e37", "is_reserved": 0, "rental_uris": {"android": "https://dc.lft.to/lastmile_qr_scan", "ios": "https://dc.lft.to/lastmile_qr_scan"}, "fusion_lon": 0.0}, {"lat": 38.946343166666665, "is_disabled": 0, "type": "electric_scooter", "lon": -77.0252095, "bike_id": "4303f010661aeeaa0878e0df8c0ec4ee", "fusion_lat": 0.0, "name": "4303f010661aeeaa0878e0df8c0ec4ee", "is_reserved": 0, "rental_uris": {"android": "https://dc.lft.to/lastmile_qr_scan", "ios": "https://dc.lft.to/lastmile_qr_scan"}, "fusion_lon": 0.0}, {"lat": 38.88616866666667, "is_disabled": 0, "type": "electric_scooter", "lon": -77.0217175, "bike_id": "d7e46d9f58c20378f713b5f0a6b1270e", "fusion_lat": 0.0, "name": "d7e46d9f58c20378f713b5f0a6b1270e", "is_reserved": 0, "rental_uris": {"android": "https://dc.lft.to/lastmile_qr_scan", "ios": "https://dc.lft.to/lastmile_qr_scan"}, "fusion_lon": 0.0}, {"lat": 38.913432, "is_disabled": 0, "type": "electric_scooter", "lon": -77.010641, "bike_id": "8dc8a314c9ab896a597760d4ee3f5d69", "fusion_lat": 0.0, "name": "8dc8a314c9ab896a597760d4ee3f5d69", "is_reserved": 0, "rental_uris": {"android": "https://dc.lft.to/lastmile_qr_scan", "ios": "https://dc.lft.to/lastmile_qr_scan"}, "fusion_lon": 0.0}, {"lat": 38.932431666666666, "is_disabled": 0, "type": "electric_bike", "lon": -76.99664666666666, "bike_id": "197067a95c7c5d86c445a15e1ec53c0c", "fusion_lat": 0.0, "name": "197067a95c7c5d86c445a15e1ec53c0c", "is_reserved": 0, "rental_uris": {"android": "https://dc.lft.to/lastmile_qr_scan", "ios": "https://dc.lft.to/lastmile_qr_scan"}, "fusion_lon": 0.0}, {"lat": 38.938689, "is_disabled": 0, "type": "electric_scooter", "lon": -77.02492833333334, "bike_id": "53f96fd4f6056868823a1be47c88178d", "fusion_lat": 0.0, "name": "53f96fd4f6056868823a1be47c88178d", "is_reserved": 0, "rental_uris": {"android": "https://dc.lft.to/lastmile_qr_scan", "ios": "https://dc.lft.to/lastmile_qr_scan"}, "fusion_lon": 0.0}, {"lat": 38.89638983333333, "is_disabled": 0, "type": "electric_scooter", "lon": -77.032088, "bike_id": "1bb73a2d6379b7cb4b0fa4d8aa7d506b", "fusion_lat": 0.0, "name": "1bb73a2d6379b7cb4b0fa4d8aa7d506b", "is_reserved": 0, "rental_uris": {"android": "https://dc.lft.to/lastmile_qr_scan", "ios": "https://dc.lft.to/lastmile_qr_scan"}, "fusion_lon": 0.0}, {"lat": 38.897468333333336, "is_disabled": 0, "type": "electric_scooter", "lon": -77.00870183333333, "bike_id": "e98b7dd2074b39efd783a6406b8e0101", "fusion_lat": 0.0, "name": "e98b7dd2074b39efd783a6406b8e0101", "is_reserved": 0, "rental_uris": {"android": "https://dc.lft.to/lastmile_qr_scan", "ios": "https://dc.lft.to/lastmile_qr_scan"}, "fusion_lon": 0.0}, {"lat": 38.8652385, "is_disabled": 0, "type": "electric_scooter", "lon": -76.99031916666667, "bike_id": "516f7de88a0d78ef9d8c88ce5268bbbf", "fusion_lat": 0.0, "name": "516f7de88a0d78ef9d8c88ce5268bbbf", "is_reserved": 0, "rental_uris": {"android": "https://dc.lft.to/lastmile_qr_scan", "ios": "https://dc.lft.to/lastmile_qr_scan"}, "fusion_lon": 0.0}, {"lat": 38.93942216666667, "is_disabled": 0, "type": "electric_scooter", "lon": -77.061105, "bike_id": "67d9740d1c7a84b4f7d8b4e937f2dcd5", "fusion_lat": 0.0, "name": "67d9740d1c7a84b4f7d8b4e937f2dcd5", "is_reserved": 0, "rental_uris": {"android": "https://dc.lft.to/lastmile_qr_scan", "ios": "https://dc.lft.to/lastmile_qr_scan"}, "fusion_lon": 0.0}, {"lat": 38.89233933333333, "is_disabled": 0, "type": "electric_scooter", "lon": -77.04893583333333, "bike_id": "cade29992fed6a579885c546fbdb85ab", "fusion_lat": 0.0, "name": "cade29992fed6a579885c546fbdb85ab", "is_reserved": 0, "rental_uris": {"android": "https://dc.lft.to/lastmile_qr_scan", "ios": "https://dc.lft.to/lastmile_qr_scan"}, "fusion_lon": 0.0}, {"lat": 38.8621, "is_disabled": 0, "type": "electric_bike", "lon": -76.9977885, "bike_id": "44bdb1bf4dbb48ec952ff0a4f416839f", "fusion_lat": 0.0, "name": "44bdb1bf4dbb48ec952ff0a4f416839f", "is_reserved": 0, "rental_uris": {"android": "https://dc.lft.to/lastmile_qr_scan", "ios": "https://dc.lft.to/lastmile_qr_scan"}, "fusion_lon": 0.0}, {"lat": 38.8706595, "is_disabled": 0, "type": "electric_scooter", "lon": -77.00840183333334, "bike_id": "f5bd8ce79d9985d36c86a1e534183d70", "fusion_lat": 0.0, "name": "f5bd8ce79d9985d36c86a1e534183d70", "is_reserved": 0, "rental_uris": {"android": "https://dc.lft.to/lastmile_qr_scan", "ios": "https://dc.lft.to/lastmile_qr_scan"}, "fusion_lon": 0.0}, {"lat": 38.901694166666665, "is_disabled": 0, "type": "electric_scooter", "lon": -77.048359, "bike_id": "60a9fd47debde7c5bf7870575c3a051c", "fusion_lat": 0.0, "name": "60a9fd47debde7c5bf7870575c3a051c", "is_reserved": 0, "rental_uris": {"android": "https://dc.lft.to/lastmile_qr_scan", "ios": "https://dc.lft.to/lastmile_qr_scan"}, "fusion_lon": 0.0}, {"lat": 38.93413266666667, "is_disabled": 0, "type": "electric_bike", "lon": -77.025056, "bike_id": "e25cedd9379c343137705a12f8dbd3ee", "fusion_lat": 0.0, "name": "e25cedd9379c343137705a12f8dbd3ee", "is_reserved": 0, "rental_uris": {"android": "https://dc.lft.to/lastmile_qr_scan", "ios": "https://dc.lft.to/lastmile_qr_scan"}, "fusion_lon": 0.0}, {"lat": 38.874721666666666, "is_disabled": 0, "type": "electric_scooter", "lon": -77.00552883333333, "bike_id": "bc3f34c87e349d73e3a8598b27be409e", "fusion_lat": 0.0, "name": "bc3f34c87e349d73e3a8598b27be409e", "is_reserved": 0, "rental_uris": {"android": "https://dc.lft.to/lastmile_qr_scan", "ios": "https://dc.lft.to/lastmile_qr_scan"}, "fusion_lon": 0.0}, {"lat": 38.92028716666667, "is_disabled": 0, "type": "electric_scooter", "lon": -77.04205616666667, "bike_id": "7ec4954661e4f9b82dca543ad9d093f4", "fusion_lat": 0.0, "name": "7ec4954661e4f9b82dca543ad9d093f4", "is_reserved": 0, "rental_uris": {"android": "https://dc.lft.to/lastmile_qr_scan", "ios": "https://dc.lft.to/lastmile_qr_scan"}, "fusion_lon": 0.0}, {"lat": 38.88170916666667, "is_disabled": 0, "type": "electric_scooter", "lon": -76.99487366666666, "bike_id": "f31720352fb20d00e0773e64fcf461ea", "fusion_lat": 0.0, "name": "f31720352fb20d00e0773e64fcf461ea", "is_reserved": 0, "rental_uris": {"android": "https://dc.lft.to/lastmile_qr_scan", "ios": "https://dc.lft.to/lastmile_qr_scan"}, "fusion_lon": 0.0}, {"lat": 38.9001515, "is_disabled": 0, "type": "electric_scooter", "lon": -76.986419, "bike_id": "fbf7a489795dcc5bcd6095126eb3cfe9", "fusion_lat": 0.0, "name": "fbf7a489795dcc5bcd6095126eb3cfe9", "is_reserved": 0, "rental_uris": {"android": "https://dc.lft.to/lastmile_qr_scan", "ios": "https://dc.lft.to/lastmile_qr_scan"}, "fusion_lon": 0.0}, {"lat": 38.914156166666665, "is_disabled": 0, "type": "electric_scooter", "lon": -77.01285933333334, "bike_id": "1f671714a2f9f43d18285a567758b919", "fusion_lat": 0.0, "name": "1f671714a2f9f43d18285a567758b919", "is_reserved": 0, "rental_uris": {"android": "https://dc.lft.to/lastmile_qr_scan", "ios": "https://dc.lft.to/lastmile_qr_scan"}, "fusion_lon": 0.0}, {"lat": 38.904171833333336, "is_disabled": 0, "type": "electric_scooter", "lon": -76.99071666666667, "bike_id": "4e6eec21a822f67f560ae1ebc25e7832", "fusion_lat": 0.0, "name": "4e6eec21a822f67f560ae1ebc25e7832", "is_reserved": 0, "rental_uris": {"android": "https://dc.lft.to/lastmile_qr_scan", "ios": "https://dc.lft.to/lastmile_qr_scan"}, "fusion_lon": 0.0}, {"lat": 38.932930999999996, "is_disabled": 0, "type": "electric_scooter", "lon": -76.98628283333333, "bike_id": "1dc30ac44d7a261112f1823a6ce8674f", "fusion_lat": 0.0, "name": "1dc30ac44d7a261112f1823a6ce8674f", "is_reserved": 0, "rental_uris": {"android": "https://dc.lft.to/lastmile_qr_scan", "ios": "https://dc.lft.to/lastmile_qr_scan"}, "fusion_lon": 0.0}, {"lat": 38.96024583333333, "is_disabled": 0, "type": "electric_scooter", "lon": -77.02822816666666, "bike_id": "32f28f92f72c5d1d8f6a52e9c8c51583", "fusion_lat": 0.0, "name": "32f28f92f72c5d1d8f6a52e9c8c51583", "is_reserved": 0, "rental_uris": {"android": "https://dc.lft.to/lastmile_qr_scan", "ios": "https://dc.lft.to/lastmile_qr_scan"}, "fusion_lon": 0.0}, {"lat": 38.9025155, "is_disabled": 0, "type": "electric_scooter", "lon": -77.06304083333333, "bike_id": "1ff4a7e25bc400416390a1cd7aec8240", "fusion_lat": 0.0, "name": "1ff4a7e25bc400416390a1cd7aec8240", "is_reserved": 0, "rental_uris": {"android": "https://dc.lft.to/lastmile_qr_scan", "ios": "https://dc.lft.to/lastmile_qr_scan"}, "fusion_lon": 0.0}, {"lat": 38.9146355, "is_disabled": 0, "type": "electric_scooter", "lon": -77.03183466666667, "bike_id": "bd12dcdadb3983edd6d6fc806cbab461", "fusion_lat": 0.0, "name": "bd12dcdadb3983edd6d6fc806cbab461", "is_reserved": 0, "rental_uris": {"android": "https://dc.lft.to/lastmile_qr_scan", "ios": "https://dc.lft.to/lastmile_qr_scan"}, "fusion_lon": 0.0}, {"lat": 38.892818, "is_disabled": 0, "type": "electric_scooter", "lon": -76.942363, "bike_id": "afc82d9f13c2be68f75a7eb79a446cd7", "fusion_lat": 0.0, "name": "afc82d9f13c2be68f75a7eb79a446cd7", "is_reserved": 0, "rental_uris": {"android": "https://dc.lft.to/lastmile_qr_scan", "ios": "https://dc.lft.to/lastmile_qr_scan"}, "fusion_lon": 0.0}, {"lat": 38.894946833333336, "is_disabled": 0, "type": "electric_scooter", "lon": -77.00256116666667, "bike_id": "2250d99e1f3d4f03ed92251767c6a60f", "fusion_lat": 0.0, "name": "2250d99e1f3d4f03ed92251767c6a60f", "is_reserved": 0, "rental_uris": {"android": "https://dc.lft.to/lastmile_qr_scan", "ios": "https://dc.lft.to/lastmile_qr_scan"}, "fusion_lon": 0.0}, {"lat": 38.901411, "is_disabled": 0, "type": "electric_scooter", "lon": -76.98057033333333, "bike_id": "b1e24cc3425d3eda6c7b667d8cad6a26", "fusion_lat": 0.0, "name": "b1e24cc3425d3eda6c7b667d8cad6a26", "is_reserved": 0, "rental_uris": {"android": "https://dc.lft.to/lastmile_qr_scan", "ios": "https://dc.lft.to/lastmile_qr_scan"}, "fusion_lon": 0.0}, {"lat": 38.921897, "is_disabled": 0, "type": "electric_scooter", "lon": -76.9962685, "bike_id": "5d30489778822d463a9b10db39d20561", "fusion_lat": 0.0, "name": "5d30489778822d463a9b10db39d20561", "is_reserved": 0, "rental_uris": {"android": "https://dc.lft.to/lastmile_qr_scan", "ios": "https://dc.lft.to/lastmile_qr_scan"}, "fusion_lon": 0.0}, {"lat": 38.9084445, "is_disabled": 0, "type": "electric_scooter", "lon": -77.038611, "bike_id": "25dc15a5848b966abe477a8e70e84a43", "fusion_lat": 0.0, "name": "25dc15a5848b966abe477a8e70e84a43", "is_reserved": 0, "rental_uris": {"android": "https://dc.lft.to/lastmile_qr_scan", "ios": "https://dc.lft.to/lastmile_qr_scan"}, "fusion_lon": 0.0}, {"lat": 38.8866485, "is_disabled": 0, "type": "electric_bike", "lon": -77.16230766666666, "bike_id": "b6fa2b4c06c7ef880aa6f63a4467a93a", "fusion_lat": 0.0, "name": "b6fa2b4c06c7ef880aa6f63a4467a93a", "is_reserved": 0, "rental_uris": {"android": "https://dc.lft.to/lastmile_qr_scan", "ios": "https://dc.lft.to/lastmile_qr_scan"}, "fusion_lon": 0.0}, {"lat": 38.901483166666665, "is_disabled": 0, "type": "electric_scooter", "lon": -77.04144266666667, "bike_id": "8c6747f22ec538ff7ab24ff155446d85", "fusion_lat": 0.0, "name": "8c6747f22ec538ff7ab24ff155446d85", "is_reserved": 0, "rental_uris": {"android": "https://dc.lft.to/lastmile_qr_scan", "ios": "https://dc.lft.to/lastmile_qr_scan"}, "fusion_lon": 0.0}, {"lat": 38.9215125, "is_disabled": 0, "type": "electric_scooter", "lon": -77.04223116666667, "bike_id": "d5bc2a566a130b2d14ea5f40bc7a68c6", "fusion_lat": 0.0, "name": "d5bc2a566a130b2d14ea5f40bc7a68c6", "is_reserved": 0, "rental_uris": {"android": "https://dc.lft.to/lastmile_qr_scan", "ios": "https://dc.lft.to/lastmile_qr_scan"}, "fusion_lon": 0.0}, {"lat": 38.918891333333335, "is_disabled": 0, "type": "electric_scooter", "lon": -77.0391315, "bike_id": "cc2ddaed61cffc036ba0f760bc018eba", "fusion_lat": 0.0, "name": "cc2ddaed61cffc036ba0f760bc018eba", "is_reserved": 0, "rental_uris": {"android": "https://dc.lft.to/lastmile_qr_scan", "ios": "https://dc.lft.to/lastmile_qr_scan"}, "fusion_lon": 0.0}, {"lat": 38.92319083333334, "is_disabled": 0, "type": "electric_scooter", "lon": -77.03960033333334, "bike_id": "aae688f86fc16f160435f3932f0931fd", "fusion_lat": 0.0, "name": "aae688f86fc16f160435f3932f0931fd", "is_reserved": 0, "rental_uris": {"android": "https://dc.lft.to/lastmile_qr_scan", "ios": "https://dc.lft.to/lastmile_qr_scan"}, "fusion_lon": 0.0}, {"lat": 38.9199595, "is_disabled": 0, "type": "electric_scooter", "lon": -77.047664, "bike_id": "1f3fdd723329377ba0650b77c673031f", "fusion_lat": 0.0, "name": "1f3fdd723329377ba0650b77c673031f", "is_reserved": 0, "rental_uris": {"android": "https://dc.lft.to/lastmile_qr_scan", "ios": "https://dc.lft.to/lastmile_qr_scan"}, "fusion_lon": 0.0}, {"lat": 38.902279666666665, "is_disabled": 0, "type": "electric_scooter", "lon": -77.047316, "bike_id": "1bd6fd4a7b0eca6434c920911138eae8", "fusion_lat": 0.0, "name": "1bd6fd4a7b0eca6434c920911138eae8", "is_reserved": 0, "rental_uris": {"android": "https://dc.lft.to/lastmile_qr_scan", "ios": "https://dc.lft.to/lastmile_qr_scan"}, "fusion_lon": 0.0}, {"lat": 38.921518666666664, "is_disabled": 0, "type": "electric_scooter", "lon": -77.04363683333334, "bike_id": "5fa5a6d2bceb81facfa8142ffc3cc2c1", "fusion_lat": 0.0, "name": "5fa5a6d2bceb81facfa8142ffc3cc2c1", "is_reserved": 0, "rental_uris": {"android": "https://dc.lft.to/lastmile_qr_scan", "ios": "https://dc.lft.to/lastmile_qr_scan"}, "fusion_lon": 0.0}, {"lat": 38.9012065, "is_disabled": 0, "type": "electric_scooter", "lon": -77.02602033333334, "bike_id": "e642ae750597e55fd4aaaf9ae8f5dcbc", "fusion_lat": 0.0, "name": "e642ae750597e55fd4aaaf9ae8f5dcbc", "is_reserved": 0, "rental_uris": {"android": "https://dc.lft.to/lastmile_qr_scan", "ios": "https://dc.lft.to/lastmile_qr_scan"}, "fusion_lon": 0.0}, {"lat": 38.937293, "is_disabled": 0, "type": "electric_scooter", "lon": -77.0327575, "bike_id": "01fdeabceb6b60c3a496c2384b54dd8c", "fusion_lat": 0.0, "name": "01fdeabceb6b60c3a496c2384b54dd8c", "is_reserved": 0, "rental_uris": {"android": "https://dc.lft.to/lastmile_qr_scan", "ios": "https://dc.lft.to/lastmile_qr_scan"}, "fusion_lon": 0.0}, {"lat": 38.8961455, "is_disabled": 0, "type": "electric_scooter", "lon": -76.95589266666667, "bike_id": "18276c9cc9fe166b8d3112e4338c147b", "fusion_lat": 0.0, "name": "18276c9cc9fe166b8d3112e4338c147b", "is_reserved": 0, "rental_uris": {"android": "https://dc.lft.to/lastmile_qr_scan", "ios": "https://dc.lft.to/lastmile_qr_scan"}, "fusion_lon": 0.0}, {"lat": 38.914035, "is_disabled": 0, "type": "electric_scooter", "lon": -77.03061233333334, "bike_id": "e21688d3860e7f1d86106a437d526b48", "fusion_lat": 0.0, "name": "e21688d3860e7f1d86106a437d526b48", "is_reserved": 0, "rental_uris": {"android": "https://dc.lft.to/lastmile_qr_scan", "ios": "https://dc.lft.to/lastmile_qr_scan"}, "fusion_lon": 0.0}, {"lat": 38.92109166666667, "is_disabled": 0, "type": "electric_scooter", "lon": -77.01753433333333, "bike_id": "6cee2aace6e3b071575bdb1c9326e5c4", "fusion_lat": 0.0, "name": "6cee2aace6e3b071575bdb1c9326e5c4", "is_reserved": 0, "rental_uris": {"android": "https://dc.lft.to/lastmile_qr_scan", "ios": "https://dc.lft.to/lastmile_qr_scan"}, "fusion_lon": 0.0}, {"lat": 38.904603333333334, "is_disabled": 0, "type": "electric_scooter", "lon": -77.00773466666666, "bike_id": "409e9694f33d9676a28e22881abd5fab", "fusion_lat": 0.0, "name": "409e9694f33d9676a28e22881abd5fab", "is_reserved": 0, "rental_uris": {"android": "https://dc.lft.to/lastmile_qr_scan", "ios": "https://dc.lft.to/lastmile_qr_scan"}, "fusion_lon": 0.0}, {"lat": 38.92756883333333, "is_disabled": 0, "type": "electric_scooter", "lon": -77.03219033333333, "bike_id": "660409a41fedc84b3d1b22f5f355a8d4", "fusion_lat": 0.0, "name": "660409a41fedc84b3d1b22f5f355a8d4", "is_reserved": 0, "rental_uris": {"android": "https://dc.lft.to/lastmile_qr_scan", "ios": "https://dc.lft.to/lastmile_qr_scan"}, "fusion_lon": 0.0}, {"lat": 38.90341, "is_disabled": 0, "type": "electric_scooter", "lon": -77.02008533333333, "bike_id": "306852c2cab5ee3f4d79c70de8add47b", "fusion_lat": 0.0, "name": "306852c2cab5ee3f4d79c70de8add47b", "is_reserved": 0, "rental_uris": {"android": "https://dc.lft.to/lastmile_qr_scan", "ios": "https://dc.lft.to/lastmile_qr_scan"}, "fusion_lon": 0.0}, {"lat": 38.918189, "is_disabled": 0, "type": "electric_scooter", "lon": -77.04172316666667, "bike_id": "d8b611978fc0aef0cc2d53bedd5e6b88", "fusion_lat": 0.0, "name": "d8b611978fc0aef0cc2d53bedd5e6b88", "is_reserved": 0, "rental_uris": {"android": "https://dc.lft.to/lastmile_qr_scan", "ios": "https://dc.lft.to/lastmile_qr_scan"}, "fusion_lon": 0.0}, {"lat": 38.919126166666665, "is_disabled": 0, "type": "electric_scooter", "lon": -77.02483883333333, "bike_id": "c633d44ff23c6a0a8f63b998bb076c0f", "fusion_lat": 0.0, "name": "c633d44ff23c6a0a8f63b998bb076c0f", "is_reserved": 0, "rental_uris": {"android": "https://dc.lft.to/lastmile_qr_scan", "ios": "https://dc.lft.to/lastmile_qr_scan"}, "fusion_lon": 0.0}, {"lat": 38.8997235, "is_disabled": 0, "type": "electric_scooter", "lon": -77.033657, "bike_id": "23b486763a9754b1d10be9c98b0f9584", "fusion_lat": 0.0, "name": "23b486763a9754b1d10be9c98b0f9584", "is_reserved": 0, "rental_uris": {"android": "https://dc.lft.to/lastmile_qr_scan", "ios": "https://dc.lft.to/lastmile_qr_scan"}, "fusion_lon": 0.0}, {"lat": 38.92201583333333, "is_disabled": 0, "type": "electric_scooter", "lon": -76.98368733333334, "bike_id": "f82cb1436ddcd226e44133561ef2fb77", "fusion_lat": 0.0, "name": "f82cb1436ddcd226e44133561ef2fb77", "is_reserved": 0, "rental_uris": {"android": "https://dc.lft.to/lastmile_qr_scan", "ios": "https://dc.lft.to/lastmile_qr_scan"}, "fusion_lon": 0.0}, {"lat": 38.89371583333333, "is_disabled": 0, "type": "electric_scooter", "lon": -76.949974, "bike_id": "bf37efe2eb7452deb9d7765be1636355", "fusion_lat": 0.0, "name": "bf37efe2eb7452deb9d7765be1636355", "is_reserved": 0, "rental_uris": {"android": "https://dc.lft.to/lastmile_qr_scan", "ios": "https://dc.lft.to/lastmile_qr_scan"}, "fusion_lon": 0.0}, {"lat": 38.973248, "is_disabled": 0, "type": "electric_bike", "lon": -77.02147266666667, "bike_id": "46955526a06bfa4f606d3ea6a5b42ae7", "fusion_lat": 0.0, "name": "46955526a06bfa4f606d3ea6a5b42ae7", "is_reserved": 0, "rental_uris": {"android": "https://dc.lft.to/lastmile_qr_scan", "ios": "https://dc.lft.to/lastmile_qr_scan"}, "fusion_lon": 0.0}, {"lat": 38.88312466666667, "is_disabled": 0, "type": "electric_bike", "lon": -77.03152183333333, "bike_id": "a720e30ae3d99a12cf12906ff95b597a", "fusion_lat": 0.0, "name": "a720e30ae3d99a12cf12906ff95b597a", "is_reserved": 0, "rental_uris": {"android": "https://dc.lft.to/lastmile_qr_scan", "ios": "https://dc.lft.to/lastmile_qr_scan"}, "fusion_lon": 0.0}, {"lat": 38.92188783333334, "is_disabled": 0, "type": "electric_scooter", "lon": -76.996851, "bike_id": "7d6a68499b0552818e52cf23973bb7f1", "fusion_lat": 0.0, "name": "7d6a68499b0552818e52cf23973bb7f1", "is_reserved": 0, "rental_uris": {"android": "https://dc.lft.to/lastmile_qr_scan", "ios": "https://dc.lft.to/lastmile_qr_scan"}, "fusion_lon": 0.0}, {"lat": 38.958875666666664, "is_disabled": 0, "type": "electric_bike", "lon": -76.92485516666666, "bike_id": "b2c5060d47e75fc7091af371b183892d", "fusion_lat": 0.0, "name": "b2c5060d47e75fc7091af371b183892d", "is_reserved": 0, "rental_uris": {"android": "https://dc.lft.to/lastmile_qr_scan", "ios": "https://dc.lft.to/lastmile_qr_scan"}, "fusion_lon": 0.0}, {"lat": 38.957509333333334, "is_disabled": 0, "type": "electric_scooter", "lon": -77.020742, "bike_id": "f9ab322b792c23fd82e1f7f13e6f15f7", "fusion_lat": 0.0, "name": "f9ab322b792c23fd82e1f7f13e6f15f7", "is_reserved": 0, "rental_uris": {"android": "https://dc.lft.to/lastmile_qr_scan", "ios": "https://dc.lft.to/lastmile_qr_scan"}, "fusion_lon": 0.0}, {"lat": 38.903263333333335, "is_disabled": 0, "type": "electric_scooter", "lon": -77.038386, "bike_id": "fa0bcec8ed16bb91e0260be0272d4da3", "fusion_lat": 0.0, "name": "fa0bcec8ed16bb91e0260be0272d4da3", "is_reserved": 0, "rental_uris": {"android": "https://dc.lft.to/lastmile_qr_scan", "ios": "https://dc.lft.to/lastmile_qr_scan"}, "fusion_lon": 0.0}, {"lat": 38.93669233333333, "is_disabled": 0, "type": "electric_scooter", "lon": -77.0359375, "bike_id": "55b6a334b2d93492996191f740b7de76", "fusion_lat": 0.0, "name": "55b6a334b2d93492996191f740b7de76", "is_reserved": 0, "rental_uris": {"android": "https://dc.lft.to/lastmile_qr_scan", "ios": "https://dc.lft.to/lastmile_qr_scan"}, "fusion_lon": 0.0}, {"lat": 38.9012875, "is_disabled": 0, "type": "electric_scooter", "lon": -77.04137166666666, "bike_id": "161a1c553a238989eb9179d8e5417916", "fusion_lat": 0.0, "name": "161a1c553a238989eb9179d8e5417916", "is_reserved": 0, "rental_uris": {"android": "https://dc.lft.to/lastmile_qr_scan", "ios": "https://dc.lft.to/lastmile_qr_scan"}, "fusion_lon": 0.0}, {"lat": 38.9054125, "is_disabled": 0, "type": "electric_bike", "lon": -77.05706233333333, "bike_id": "75bfa3f71de086909066e46e77728897", "fusion_lat": 0.0, "name": "75bfa3f71de086909066e46e77728897", "is_reserved": 0, "rental_uris": {"android": "https://dc.lft.to/lastmile_qr_scan", "ios": "https://dc.lft.to/lastmile_qr_scan"}, "fusion_lon": 0.0}, {"lat": 38.902662, "is_disabled": 0, "type": "electric_scooter", "lon": -77.0403025, "bike_id": "17074465457f8646437b856a7c2341d5", "fusion_lat": 0.0, "name": "17074465457f8646437b856a7c2341d5", "is_reserved": 0, "rental_uris": {"android": "https://dc.lft.to/lastmile_qr_scan", "ios": "https://dc.lft.to/lastmile_qr_scan"}, "fusion_lon": 0.0}, {"lat": 38.911388, "is_disabled": 0, "type": "electric_scooter", "lon": -77.02202416666667, "bike_id": "2b75316011493e8b1a0888fe6f90ab73", "fusion_lat": 0.0, "name": "2b75316011493e8b1a0888fe6f90ab73", "is_reserved": 0, "rental_uris": {"android": "https://dc.lft.to/lastmile_qr_scan", "ios": "https://dc.lft.to/lastmile_qr_scan"}, "fusion_lon": 0.0}, {"lat": 38.94449266666667, "is_disabled": 0, "type": "electric_scooter", "lon": -77.02343483333334, "bike_id": "addcfd5f4c1e088e18de3e1448f80dc3", "fusion_lat": 0.0, "name": "addcfd5f4c1e088e18de3e1448f80dc3", "is_reserved": 0, "rental_uris": {"android": "https://dc.lft.to/lastmile_qr_scan", "ios": "https://dc.lft.to/lastmile_qr_scan"}, "fusion_lon": 0.0}, {"lat": 38.8573835, "is_disabled": 0, "type": "electric_scooter", "lon": -76.9943695, "bike_id": "a472fc46db8eab6799b0660c389c70d2", "fusion_lat": 0.0, "name": "a472fc46db8eab6799b0660c389c70d2", "is_reserved": 0, "rental_uris": {"android": "https://dc.lft.to/lastmile_qr_scan", "ios": "https://dc.lft.to/lastmile_qr_scan"}, "fusion_lon": 0.0}, {"lat": 38.896089, "is_disabled": 0, "type": "electric_scooter", "lon": -76.955201, "bike_id": "e52917b246168445df4206587aeb6562", "fusion_lat": 0.0, "name": "e52917b246168445df4206587aeb6562", "is_reserved": 0, "rental_uris": {"android": "https://dc.lft.to/lastmile_qr_scan", "ios": "https://dc.lft.to/lastmile_qr_scan"}, "fusion_lon": 0.0}, {"lat": 38.93633333333333, "is_disabled": 0, "type": "electric_scooter", "lon": -77.05881933333333, "bike_id": "fc43ed1527f34f4323da64b9b0c76ab8", "fusion_lat": 0.0, "name": "fc43ed1527f34f4323da64b9b0c76ab8", "is_reserved": 0, "rental_uris": {"android": "https://dc.lft.to/lastmile_qr_scan", "ios": "https://dc.lft.to/lastmile_qr_scan"}, "fusion_lon": 0.0}, {"lat": 38.90814183333333, "is_disabled": 0, "type": "electric_scooter", "lon": -76.98293066666666, "bike_id": "26d310300778455f18bcddce610d380d", "fusion_lat": 0.0, "name": "26d310300778455f18bcddce610d380d", "is_reserved": 0, "rental_uris": {"android": "https://dc.lft.to/lastmile_qr_scan", "ios": "https://dc.lft.to/lastmile_qr_scan"}, "fusion_lon": 0.0}, {"lat": 38.90569983333334, "is_disabled": 0, "type": "electric_scooter", "lon": -77.022316, "bike_id": "938e1ded295498cd830232add7cc2825", "fusion_lat": 0.0, "name": "938e1ded295498cd830232add7cc2825", "is_reserved": 0, "rental_uris": {"android": "https://dc.lft.to/lastmile_qr_scan", "ios": "https://dc.lft.to/lastmile_qr_scan"}, "fusion_lon": 0.0}, {"lat": 38.88479916666667, "is_disabled": 0, "type": "electric_scooter", "lon": -76.94530666666667, "bike_id": "5513da49cd0c4b162ec694d0e6ca93c4", "fusion_lat": 0.0, "name": "5513da49cd0c4b162ec694d0e6ca93c4", "is_reserved": 0, "rental_uris": {"android": "https://dc.lft.to/lastmile_qr_scan", "ios": "https://dc.lft.to/lastmile_qr_scan"}, "fusion_lon": 0.0}, {"lat": 38.903388166666666, "is_disabled": 0, "type": "electric_scooter", "lon": -77.0260115, "bike_id": "6217c0d68b5498dd8e3f75bc70a62208", "fusion_lat": 0.0, "name": "6217c0d68b5498dd8e3f75bc70a62208", "is_reserved": 0, "rental_uris": {"android": "https://dc.lft.to/lastmile_qr_scan", "ios": "https://dc.lft.to/lastmile_qr_scan"}, "fusion_lon": 0.0}, {"lat": 38.91528616666667, "is_disabled": 0, "type": "electric_scooter", "lon": -77.02004983333333, "bike_id": "2e8d1472c95593ab7cdd0f294413f0ed", "fusion_lat": 0.0, "name": "2e8d1472c95593ab7cdd0f294413f0ed", "is_reserved": 0, "rental_uris": {"android": "https://dc.lft.to/lastmile_qr_scan", "ios": "https://dc.lft.to/lastmile_qr_scan"}, "fusion_lon": 0.0}, {"lat": 38.922325, "is_disabled": 0, "type": "electric_scooter", "lon": -77.0412365, "bike_id": "b563152254ef89fa9109b2897edaf3b6", "fusion_lat": 0.0, "name": "b563152254ef89fa9109b2897edaf3b6", "is_reserved": 0, "rental_uris": {"android": "https://dc.lft.to/lastmile_qr_scan", "ios": "https://dc.lft.to/lastmile_qr_scan"}, "fusion_lon": 0.0}, {"lat": 38.8816625, "is_disabled": 0, "type": "electric_scooter", "lon": -76.92968266666666, "bike_id": "4950b71224c64f3329ede126e15186c4", "fusion_lat": 0.0, "name": "4950b71224c64f3329ede126e15186c4", "is_reserved": 0, "rental_uris": {"android": "https://dc.lft.to/lastmile_qr_scan", "ios": "https://dc.lft.to/lastmile_qr_scan"}, "fusion_lon": 0.0}, {"lat": 38.924743166666666, "is_disabled": 0, "type": "electric_scooter", "lon": -77.03382466666666, "bike_id": "8c28b69d1d3e1763a4d5eab2eade209b", "fusion_lat": 0.0, "name": "8c28b69d1d3e1763a4d5eab2eade209b", "is_reserved": 0, "rental_uris": {"android": "https://dc.lft.to/lastmile_qr_scan", "ios": "https://dc.lft.to/lastmile_qr_scan"}, "fusion_lon": 0.0}, {"lat": 38.9246255, "is_disabled": 0, "type": "electric_scooter", "lon": -77.05760466666666, "bike_id": "475d1fcc3c81affc9cf5cbe8b79f214c", "fusion_lat": 0.0, "name": "475d1fcc3c81affc9cf5cbe8b79f214c", "is_reserved": 0, "rental_uris": {"android": "https://dc.lft.to/lastmile_qr_scan", "ios": "https://dc.lft.to/lastmile_qr_scan"}, "fusion_lon": 0.0}, {"lat": 38.907869833333336, "is_disabled": 0, "type": "electric_scooter", "lon": -77.0690005, "bike_id": "56d2be2408fba1107b6ef649bc48c455", "fusion_lat": 0.0, "name": "56d2be2408fba1107b6ef649bc48c455", "is_reserved": 0, "rental_uris": {"android": "https://dc.lft.to/lastmile_qr_scan", "ios": "https://dc.lft.to/lastmile_qr_scan"}, "fusion_lon": 0.0}, {"lat": 38.920533, "is_disabled": 0, "type": "electric_scooter", "lon": -77.03286433333334, "bike_id": "07bed58fc1498f85b87f2fde59d58b65", "fusion_lat": 0.0, "name": "07bed58fc1498f85b87f2fde59d58b65", "is_reserved": 0, "rental_uris": {"android": "https://dc.lft.to/lastmile_qr_scan", "ios": "https://dc.lft.to/lastmile_qr_scan"}, "fusion_lon": 0.0}, {"lat": 38.908748333333335, "is_disabled": 0, "type": "electric_scooter", "lon": -77.03676666666667, "bike_id": "cbf8ff85533f0914a522cbf2c186b001", "fusion_lat": 0.0, "name": "cbf8ff85533f0914a522cbf2c186b001", "is_reserved": 0, "rental_uris": {"android": "https://dc.lft.to/lastmile_qr_scan", "ios": "https://dc.lft.to/lastmile_qr_scan"}, "fusion_lon": 0.0}, {"lat": 38.894803833333334, "is_disabled": 0, "type": "electric_scooter", "lon": -77.0502005, "bike_id": "c5c5e42628e841f45b9a557e4d499553", "fusion_lat": 0.0, "name": "c5c5e42628e841f45b9a557e4d499553", "is_reserved": 0, "rental_uris": {"android": "https://dc.lft.to/lastmile_qr_scan", "ios": "https://dc.lft.to/lastmile_qr_scan"}, "fusion_lon": 0.0}, {"lat": 38.908970833333335, "is_disabled": 0, "type": "electric_scooter", "lon": -77.03642433333333, "bike_id": "988cb77f74e64d68015e4bb6aefd8889", "fusion_lat": 0.0, "name": "988cb77f74e64d68015e4bb6aefd8889", "is_reserved": 0, "rental_uris": {"android": "https://dc.lft.to/lastmile_qr_scan", "ios": "https://dc.lft.to/lastmile_qr_scan"}, "fusion_lon": 0.0}, {"lat": 38.90365, "is_disabled": 0, "type": "electric_scooter", "lon": -77.02012983333333, "bike_id": "d7a6a10155bbdc4e929401e1ed3a25f8", "fusion_lat": 0.0, "name": "d7a6a10155bbdc4e929401e1ed3a25f8", "is_reserved": 0, "rental_uris": {"android": "https://dc.lft.to/lastmile_qr_scan", "ios": "https://dc.lft.to/lastmile_qr_scan"}, "fusion_lon": 0.0}, {"lat": 38.887303333333335, "is_disabled": 0, "type": "electric_scooter", "lon": -77.02831883333333, "bike_id": "5ff2adf3012f4fbe6d304c623440e093", "fusion_lat": 0.0, "name": "5ff2adf3012f4fbe6d304c623440e093", "is_reserved": 0, "rental_uris": {"android": "https://dc.lft.to/lastmile_qr_scan", "ios": "https://dc.lft.to/lastmile_qr_scan"}, "fusion_lon": 0.0}, {"lat": 38.88723183333333, "is_disabled": 0, "type": "electric_scooter", "lon": -77.01382166666667, "bike_id": "41ca3c4747ac9e912fb0141027fd3f48", "fusion_lat": 0.0, "name": "41ca3c4747ac9e912fb0141027fd3f48", "is_reserved": 0, "rental_uris": {"android": "https://dc.lft.to/lastmile_qr_scan", "ios": "https://dc.lft.to/lastmile_qr_scan"}, "fusion_lon": 0.0}, {"lat": 38.939729666666665, "is_disabled": 0, "type": "electric_scooter", "lon": -77.03588633333334, "bike_id": "d617e444790532cb192a39cd61d2a6f8", "fusion_lat": 0.0, "name": "d617e444790532cb192a39cd61d2a6f8", "is_reserved": 0, "rental_uris": {"android": "https://dc.lft.to/lastmile_qr_scan", "ios": "https://dc.lft.to/lastmile_qr_scan"}, "fusion_lon": 0.0}, {"lat": 38.904664, "is_disabled": 0, "type": "electric_bike", "lon": -77.06747783333333, "bike_id": "0674e3e931ebdc647a819bf57760d9d7", "fusion_lat": 0.0, "name": "0674e3e931ebdc647a819bf57760d9d7", "is_reserved": 0, "rental_uris": {"android": "https://dc.lft.to/lastmile_qr_scan", "ios": "https://dc.lft.to/lastmile_qr_scan"}, "fusion_lon": 0.0}, {"lat": 38.86358533333333, "is_disabled": 0, "type": "electric_scooter", "lon": -76.9827595, "bike_id": "b8458c7239afac401df7050cff3f6bd5", "fusion_lat": 0.0, "name": "b8458c7239afac401df7050cff3f6bd5", "is_reserved": 0, "rental_uris": {"android": "https://dc.lft.to/lastmile_qr_scan", "ios": "https://dc.lft.to/lastmile_qr_scan"}, "fusion_lon": 0.0}, {"lat": 38.8024735, "is_disabled": 0, "type": "electric_bike", "lon": -77.06768516666666, "bike_id": "5eb6284887244774639904d38c239f3f", "fusion_lat": 0.0, "name": "5eb6284887244774639904d38c239f3f", "is_reserved": 0, "rental_uris": {"android": "https://dc.lft.to/lastmile_qr_scan", "ios": "https://dc.lft.to/lastmile_qr_scan"}, "fusion_lon": 0.0}, {"lat": 38.932331, "is_disabled": 0, "type": "electric_scooter", "lon": -77.03263966666667, "bike_id": "9cd85d31891dec58ee215e9f12f06730", "fusion_lat": 0.0, "name": "9cd85d31891dec58ee215e9f12f06730", "is_reserved": 0, "rental_uris": {"android": "https://dc.lft.to/lastmile_qr_scan", "ios": "https://dc.lft.to/lastmile_qr_scan"}, "fusion_lon": 0.0}, {"lat": 38.919255666666665, "is_disabled": 0, "type": "electric_scooter", "lon": -77.00096916666666, "bike_id": "970739312b69982bf3ad0a256def29ce", "fusion_lat": 0.0, "name": "970739312b69982bf3ad0a256def29ce", "is_reserved": 0, "rental_uris": {"android": "https://dc.lft.to/lastmile_qr_scan", "ios": "https://dc.lft.to/lastmile_qr_scan"}, "fusion_lon": 0.0}, {"lat": 38.92456633333333, "is_disabled": 0, "type": "electric_scooter", "lon": -77.01223866666666, "bike_id": "71989ffcd231325540f0917efb0b89eb", "fusion_lat": 0.0, "name": "71989ffcd231325540f0917efb0b89eb", "is_reserved": 0, "rental_uris": {"android": "https://dc.lft.to/lastmile_qr_scan", "ios": "https://dc.lft.to/lastmile_qr_scan"}, "fusion_lon": 0.0}, {"lat": 38.92386616666667, "is_disabled": 0, "type": "electric_scooter", "lon": -77.02767933333334, "bike_id": "9c7ad7d2bf32bf5e09505923a3aba71f", "fusion_lat": 0.0, "name": "9c7ad7d2bf32bf5e09505923a3aba71f", "is_reserved": 0, "rental_uris": {"android": "https://dc.lft.to/lastmile_qr_scan", "ios": "https://dc.lft.to/lastmile_qr_scan"}, "fusion_lon": 0.0}, {"lat": 38.85438666666667, "is_disabled": 0, "type": "electric_bike", "lon": -76.90974566666667, "bike_id": "e98e0a1320a5bbaa05e81a84c1ee32c7", "fusion_lat": 0.0, "name": "e98e0a1320a5bbaa05e81a84c1ee32c7", "is_reserved": 0, "rental_uris": {"android": "https://dc.lft.to/lastmile_qr_scan", "ios": "https://dc.lft.to/lastmile_qr_scan"}, "fusion_lon": 0.0}, {"lat": 38.90948783333333, "is_disabled": 0, "type": "electric_scooter", "lon": -77.04656633333333, "bike_id": "2b9d9a50944f5847e4e8ca2928c01926", "fusion_lat": 0.0, "name": "2b9d9a50944f5847e4e8ca2928c01926", "is_reserved": 0, "rental_uris": {"android": "https://dc.lft.to/lastmile_qr_scan", "ios": "https://dc.lft.to/lastmile_qr_scan"}, "fusion_lon": 0.0}, {"lat": 38.91555483333333, "is_disabled": 0, "type": "electric_scooter", "lon": -77.009791, "bike_id": "97abf0c2845c78db75256ba2935a9d68", "fusion_lat": 0.0, "name": "97abf0c2845c78db75256ba2935a9d68", "is_reserved": 0, "rental_uris": {"android": "https://dc.lft.to/lastmile_qr_scan", "ios": "https://dc.lft.to/lastmile_qr_scan"}, "fusion_lon": 0.0}, {"lat": 38.9049405, "is_disabled": 0, "type": "electric_scooter", "lon": -76.99543266666667, "bike_id": "e8763afa91d7f6b8bd9956fb83ee9181", "fusion_lat": 0.0, "name": "e8763afa91d7f6b8bd9956fb83ee9181", "is_reserved": 0, "rental_uris": {"android": "https://dc.lft.to/lastmile_qr_scan", "ios": "https://dc.lft.to/lastmile_qr_scan"}, "fusion_lon": 0.0}, {"lat": 38.9040335, "is_disabled": 0, "type": "electric_scooter", "lon": -77.053388, "bike_id": "12782696e4daea9dfbfd8da0a9807f80", "fusion_lat": 0.0, "name": "12782696e4daea9dfbfd8da0a9807f80", "is_reserved": 0, "rental_uris": {"android": "https://dc.lft.to/lastmile_qr_scan", "ios": "https://dc.lft.to/lastmile_qr_scan"}, "fusion_lon": 0.0}, {"lat": 38.81052866666667, "is_disabled": 0, "type": "electric_bike", "lon": -77.08505116666667, "bike_id": "4af8e01c4aef4a7a17ec8ced50d83f78", "fusion_lat": 0.0, "name": "4af8e01c4aef4a7a17ec8ced50d83f78", "is_reserved": 0, "rental_uris": {"android": "https://dc.lft.to/lastmile_qr_scan", "ios": "https://dc.lft.to/lastmile_qr_scan"}, "fusion_lon": 0.0}, {"lat": 38.905610333333335, "is_disabled": 0, "type": "electric_scooter", "lon": -77.04496433333334, "bike_id": "b15583693165db479f23c9cb7d50ee46", "fusion_lat": 0.0, "name": "b15583693165db479f23c9cb7d50ee46", "is_reserved": 0, "rental_uris": {"android": "https://dc.lft.to/lastmile_qr_scan", "ios": "https://dc.lft.to/lastmile_qr_scan"}, "fusion_lon": 0.0}, {"lat": 38.9210575, "is_disabled": 0, "type": "electric_scooter", "lon": -77.042213, "bike_id": "061f7ff1d6bcc8d232895506d52465c2", "fusion_lat": 0.0, "name": "061f7ff1d6bcc8d232895506d52465c2", "is_reserved": 0, "rental_uris": {"android": "https://dc.lft.to/lastmile_qr_scan", "ios": "https://dc.lft.to/lastmile_qr_scan"}, "fusion_lon": 0.0}, {"lat": 38.8997435, "is_disabled": 0, "type": "electric_scooter", "lon": -76.99497766666667, "bike_id": "ded6edf8b213fb4835dd0d1027267d6f", "fusion_lat": 0.0, "name": "ded6edf8b213fb4835dd0d1027267d6f", "is_reserved": 0, "rental_uris": {"android": "https://dc.lft.to/lastmile_qr_scan", "ios": "https://dc.lft.to/lastmile_qr_scan"}, "fusion_lon": 0.0}, {"lat": 38.89222433333333, "is_disabled": 0, "type": "electric_scooter", "lon": -77.04859066666667, "bike_id": "37f815de3f05041157acddfddf918dde", "fusion_lat": 0.0, "name": "37f815de3f05041157acddfddf918dde", "is_reserved": 0, "rental_uris": {"android": "https://dc.lft.to/lastmile_qr_scan", "ios": "https://dc.lft.to/lastmile_qr_scan"}, "fusion_lon": 0.0}, {"lat": 38.92606716666667, "is_disabled": 0, "type": "electric_scooter", "lon": -77.05698316666667, "bike_id": "cbf09a50f0fde6c6c169b086c82117e3", "fusion_lat": 0.0, "name": "cbf09a50f0fde6c6c169b086c82117e3", "is_reserved": 0, "rental_uris": {"android": "https://dc.lft.to/lastmile_qr_scan", "ios": "https://dc.lft.to/lastmile_qr_scan"}, "fusion_lon": 0.0}, {"lat": 38.899609166666664, "is_disabled": 0, "type": "electric_scooter", "lon": -77.051289, "bike_id": "dc82a7a7a8516bef757c3a92b7395dd3", "fusion_lat": 0.0, "name": "dc82a7a7a8516bef757c3a92b7395dd3", "is_reserved": 0, "rental_uris": {"android": "https://dc.lft.to/lastmile_qr_scan", "ios": "https://dc.lft.to/lastmile_qr_scan"}, "fusion_lon": 0.0}, {"lat": 38.844268166666666, "is_disabled": 0, "type": "electric_scooter", "lon": -76.9977585, "bike_id": "8447ea5ca5a477c3c5a90233b3e9028c", "fusion_lat": 0.0, "name": "8447ea5ca5a477c3c5a90233b3e9028c", "is_reserved": 0, "rental_uris": {"android": "https://dc.lft.to/lastmile_qr_scan", "ios": "https://dc.lft.to/lastmile_qr_scan"}, "fusion_lon": 0.0}, {"lat": 38.89914683333333, "is_disabled": 0, "type": "electric_scooter", "lon": -77.03948283333334, "bike_id": "21a97870cdd192666ab59c38f15a248d", "fusion_lat": 0.0, "name": "21a97870cdd192666ab59c38f15a248d", "is_reserved": 0, "rental_uris": {"android": "https://dc.lft.to/lastmile_qr_scan", "ios": "https://dc.lft.to/lastmile_qr_scan"}, "fusion_lon": 0.0}, {"lat": 38.9309285, "is_disabled": 0, "type": "electric_scooter", "lon": -76.96723516666667, "bike_id": "101397204d117fb2cfb2d919fdeff442", "fusion_lat": 0.0, "name": "101397204d117fb2cfb2d919fdeff442", "is_reserved": 0, "rental_uris": {"android": "https://dc.lft.to/lastmile_qr_scan", "ios": "https://dc.lft.to/lastmile_qr_scan"}, "fusion_lon": 0.0}, {"lat": 38.9986275, "is_disabled": 0, "type": "electric_bike", "lon": -76.90659016666666, "bike_id": "a128ef0dfb129234c73cc114d1e084de", "fusion_lat": 0.0, "name": "a128ef0dfb129234c73cc114d1e084de", "is_reserved": 0, "rental_uris": {"android": "https://dc.lft.to/lastmile_qr_scan", "ios": "https://dc.lft.to/lastmile_qr_scan"}, "fusion_lon": 0.0}, {"lat": 38.909503666666666, "is_disabled": 0, "type": "electric_scooter", "lon": -77.03208483333333, "bike_id": "29a01d6cbd2a8eac3066989e66965c5b", "fusion_lat": 0.0, "name": "29a01d6cbd2a8eac3066989e66965c5b", "is_reserved": 0, "rental_uris": {"android": "https://dc.lft.to/lastmile_qr_scan", "ios": "https://dc.lft.to/lastmile_qr_scan"}, "fusion_lon": 0.0}, {"lat": 39.0243145, "is_disabled": 0, "type": "electric_bike", "lon": -77.13096483333334, "bike_id": "9e9c64b9beeb225ca1409388e627afd3", "fusion_lat": 0.0, "name": "9e9c64b9beeb225ca1409388e627afd3", "is_reserved": 0, "rental_uris": {"android": "https://dc.lft.to/lastmile_qr_scan", "ios": "https://dc.lft.to/lastmile_qr_scan"}, "fusion_lon": 0.0}, {"lat": 38.905401499999996, "is_disabled": 0, "type": "electric_scooter", "lon": -77.02223616666667, "bike_id": "db21982a80ecc2f87da9f3107185d362", "fusion_lat": 0.0, "name": "db21982a80ecc2f87da9f3107185d362", "is_reserved": 0, "rental_uris": {"android": "https://dc.lft.to/lastmile_qr_scan", "ios": "https://dc.lft.to/lastmile_qr_scan"}, "fusion_lon": 0.0}, {"lat": 38.906046, "is_disabled": 0, "type": "electric_scooter", "lon": -77.06296366666666, "bike_id": "c5d3b93942b1e0c08e8433c7f176e128", "fusion_lat": 0.0, "name": "c5d3b93942b1e0c08e8433c7f176e128", "is_reserved": 0, "rental_uris": {"android": "https://dc.lft.to/lastmile_qr_scan", "ios": "https://dc.lft.to/lastmile_qr_scan"}, "fusion_lon": 0.0}, {"lat": 38.9353365, "is_disabled": 0, "type": "electric_scooter", "lon": -77.02358366666667, "bike_id": "c44b263fa90c1c44a392bfb46d86ac2b", "fusion_lat": 0.0, "name": "c44b263fa90c1c44a392bfb46d86ac2b", "is_reserved": 0, "rental_uris": {"android": "https://dc.lft.to/lastmile_qr_scan", "ios": "https://dc.lft.to/lastmile_qr_scan"}, "fusion_lon": 0.0}, {"lat": 39.030513666666664, "is_disabled": 0, "type": "electric_bike", "lon": -77.0948235, "bike_id": "81350a573cb90df6f7f9ef62e094d8cd", "fusion_lat": 0.0, "name": "81350a573cb90df6f7f9ef62e094d8cd", "is_reserved": 0, "rental_uris": {"android": "https://dc.lft.to/lastmile_qr_scan", "ios": "https://dc.lft.to/lastmile_qr_scan"}, "fusion_lon": 0.0}, {"lat": 38.93619483333333, "is_disabled": 0, "type": "electric_scooter", "lon": -77.0322075, "bike_id": "9c2f21ab0baeba2a7b7207dc01bffe9f", "fusion_lat": 0.0, "name": "9c2f21ab0baeba2a7b7207dc01bffe9f", "is_reserved": 0, "rental_uris": {"android": "https://dc.lft.to/lastmile_qr_scan", "ios": "https://dc.lft.to/lastmile_qr_scan"}, "fusion_lon": 0.0}, {"lat": 38.8858335, "is_disabled": 0, "type": "electric_scooter", "lon": -77.01225233333334, "bike_id": "114351374bd42bd2e6ea897193497834", "fusion_lat": 0.0, "name": "114351374bd42bd2e6ea897193497834", "is_reserved": 0, "rental_uris": {"android": "https://dc.lft.to/lastmile_qr_scan", "ios": "https://dc.lft.to/lastmile_qr_scan"}, "fusion_lon": 0.0}, {"lat": 38.910709, "is_disabled": 0, "type": "electric_scooter", "lon": -77.04107183333333, "bike_id": "99819e15514f0fe6a7d6eb8498167a4b", "fusion_lat": 0.0, "name": "99819e15514f0fe6a7d6eb8498167a4b", "is_reserved": 0, "rental_uris": {"android": "https://dc.lft.to/lastmile_qr_scan", "ios": "https://dc.lft.to/lastmile_qr_scan"}, "fusion_lon": 0.0}, {"lat": 38.91419466666667, "is_disabled": 0, "type": "electric_scooter", "lon": -77.0326035, "bike_id": "d3e4eb0dcad65e758a92b00111e91b87", "fusion_lat": 0.0, "name": "d3e4eb0dcad65e758a92b00111e91b87", "is_reserved": 0, "rental_uris": {"android": "https://dc.lft.to/lastmile_qr_scan", "ios": "https://dc.lft.to/lastmile_qr_scan"}, "fusion_lon": 0.0}, {"lat": 38.93082866666666, "is_disabled": 0, "type": "electric_scooter", "lon": -77.02798216666666, "bike_id": "34e65ab4e40fc8bdf23f837986a1d07c", "fusion_lat": 0.0, "name": "34e65ab4e40fc8bdf23f837986a1d07c", "is_reserved": 0, "rental_uris": {"android": "https://dc.lft.to/lastmile_qr_scan", "ios": "https://dc.lft.to/lastmile_qr_scan"}, "fusion_lon": 0.0}, {"lat": 38.9444965, "is_disabled": 0, "type": "electric_scooter", "lon": -77.03283983333333, "bike_id": "a58192bced942a3be56ffb5903fb251c", "fusion_lat": 0.0, "name": "a58192bced942a3be56ffb5903fb251c", "is_reserved": 0, "rental_uris": {"android": "https://dc.lft.to/lastmile_qr_scan", "ios": "https://dc.lft.to/lastmile_qr_scan"}, "fusion_lon": 0.0}, {"lat": 38.9321085, "is_disabled": 0, "type": "electric_scooter", "lon": -77.03892716666667, "bike_id": "a4f4ed6491aececf62b5ec4b1813a678", "fusion_lat": 0.0, "name": "a4f4ed6491aececf62b5ec4b1813a678", "is_reserved": 0, "rental_uris": {"android": "https://dc.lft.to/lastmile_qr_scan", "ios": "https://dc.lft.to/lastmile_qr_scan"}, "fusion_lon": 0.0}, {"lat": 38.96391333333333, "is_disabled": 0, "type": "electric_scooter", "lon": -77.02594183333333, "bike_id": "e0fdc82b20dd0ab5e22f80adf33b375e", "fusion_lat": 0.0, "name": "e0fdc82b20dd0ab5e22f80adf33b375e", "is_reserved": 0, "rental_uris": {"android": "https://dc.lft.to/lastmile_qr_scan", "ios": "https://dc.lft.to/lastmile_qr_scan"}, "fusion_lon": 0.0}, {"lat": 38.89100416666667, "is_disabled": 0, "type": "electric_scooter", "lon": -76.94298033333334, "bike_id": "d4e4f0d82a763282b939c127c6c931f9", "fusion_lat": 0.0, "name": "d4e4f0d82a763282b939c127c6c931f9", "is_reserved": 0, "rental_uris": {"android": "https://dc.lft.to/lastmile_qr_scan", "ios": "https://dc.lft.to/lastmile_qr_scan"}, "fusion_lon": 0.0}, {"lat": 38.95279283333333, "is_disabled": 0, "type": "electric_scooter", "lon": -77.0365715, "bike_id": "67377ebaecadb569048d587b87036f7f", "fusion_lat": 0.0, "name": "67377ebaecadb569048d587b87036f7f", "is_reserved": 0, "rental_uris": {"android": "https://dc.lft.to/lastmile_qr_scan", "ios": "https://dc.lft.to/lastmile_qr_scan"}, "fusion_lon": 0.0}, {"lat": 38.9003155, "is_disabled": 0, "type": "electric_scooter", "lon": -77.00567666666667, "bike_id": "78e79169be94d6a1bd0dd0601531c64b", "fusion_lat": 0.0, "name": "78e79169be94d6a1bd0dd0601531c64b", "is_reserved": 0, "rental_uris": {"android": "https://dc.lft.to/lastmile_qr_scan", "ios": "https://dc.lft.to/lastmile_qr_scan"}, "fusion_lon": 0.0}, {"lat": 38.9247395, "is_disabled": 0, "type": "electric_bike", "lon": -77.20848733333334, "bike_id": "356152561312d15d567fbf757283245e", "fusion_lat": 0.0, "name": "356152561312d15d567fbf757283245e", "is_reserved": 0, "rental_uris": {"android": "https://dc.lft.to/lastmile_qr_scan", "ios": "https://dc.lft.to/lastmile_qr_scan"}, "fusion_lon": 0.0}, {"lat": 38.91490566666667, "is_disabled": 0, "type": "electric_scooter", "lon": -77.04158916666667, "bike_id": "ddceb14d7512b0037bf7e858b93672d5", "fusion_lat": 0.0, "name": "ddceb14d7512b0037bf7e858b93672d5", "is_reserved": 0, "rental_uris": {"android": "https://dc.lft.to/lastmile_qr_scan", "ios": "https://dc.lft.to/lastmile_qr_scan"}, "fusion_lon": 0.0}, {"lat": 38.8964, "is_disabled": 0, "type": "electric_scooter", "lon": -77.03216166666667, "bike_id": "a5080de61375038b5b5049ffb9613892", "fusion_lat": 0.0, "name": "a5080de61375038b5b5049ffb9613892", "is_reserved": 0, "rental_uris": {"android": "https://dc.lft.to/lastmile_qr_scan", "ios": "https://dc.lft.to/lastmile_qr_scan"}, "fusion_lon": 0.0}, {"lat": 38.921042666666665, "is_disabled": 0, "type": "electric_scooter", "lon": -77.01772783333334, "bike_id": "e3cb4b6eaf9dd912d5621dbf6d7aa320", "fusion_lat": 0.0, "name": "e3cb4b6eaf9dd912d5621dbf6d7aa320", "is_reserved": 0, "rental_uris": {"android": "https://dc.lft.to/lastmile_qr_scan", "ios": "https://dc.lft.to/lastmile_qr_scan"}, "fusion_lon": 0.0}, {"lat": 38.880684333333335, "is_disabled": 0, "type": "electric_bike", "lon": -77.025524, "bike_id": "00f078f756be8ecc8e1079bef8da3f97", "fusion_lat": 0.0, "name": "00f078f756be8ecc8e1079bef8da3f97", "is_reserved": 0, "rental_uris": {"android": "https://dc.lft.to/lastmile_qr_scan", "ios": "https://dc.lft.to/lastmile_qr_scan"}, "fusion_lon": 0.0}, {"lat": 38.85808883333333, "is_disabled": 0, "type": "electric_scooter", "lon": -76.98655433333333, "bike_id": "a8beef129c73ad99434aa4fb887f024d", "fusion_lat": 0.0, "name": "a8beef129c73ad99434aa4fb887f024d", "is_reserved": 0, "rental_uris": {"android": "https://dc.lft.to/lastmile_qr_scan", "ios": "https://dc.lft.to/lastmile_qr_scan"}, "fusion_lon": 0.0}, {"lat": 38.8937235, "is_disabled": 0, "type": "electric_scooter", "lon": -77.047949, "bike_id": "c73bfb6661b3df61bde6608aee165e86", "fusion_lat": 0.0, "name": "c73bfb6661b3df61bde6608aee165e86", "is_reserved": 0, "rental_uris": {"android": "https://dc.lft.to/lastmile_qr_scan", "ios": "https://dc.lft.to/lastmile_qr_scan"}, "fusion_lon": 0.0}, {"lat": 38.91787683333333, "is_disabled": 0, "type": "electric_scooter", "lon": -77.04152233333333, "bike_id": "8f6d0e102997dcd856b204342527cd7c", "fusion_lat": 0.0, "name": "8f6d0e102997dcd856b204342527cd7c", "is_reserved": 0, "rental_uris": {"android": "https://dc.lft.to/lastmile_qr_scan", "ios": "https://dc.lft.to/lastmile_qr_scan"}, "fusion_lon": 0.0}, {"lat": 38.845870166666664, "is_disabled": 0, "type": "electric_scooter", "lon": -76.98161333333333, "bike_id": "384c03928be58a95f7e740c559e1138e", "fusion_lat": 0.0, "name": "384c03928be58a95f7e740c559e1138e", "is_reserved": 0, "rental_uris": {"android": "https://dc.lft.to/lastmile_qr_scan", "ios": "https://dc.lft.to/lastmile_qr_scan"}, "fusion_lon": 0.0}, {"lat": 38.90270983333333, "is_disabled": 0, "type": "electric_scooter", "lon": -77.0384825, "bike_id": "28881147c32b9bb22915ae1e6d02f0f6", "fusion_lat": 0.0, "name": "28881147c32b9bb22915ae1e6d02f0f6", "is_reserved": 0, "rental_uris": {"android": "https://dc.lft.to/lastmile_qr_scan", "ios": "https://dc.lft.to/lastmile_qr_scan"}, "fusion_lon": 0.0}, {"lat": 38.922581666666666, "is_disabled": 0, "type": "electric_scooter", "lon": -77.0425875, "bike_id": "841875faaa08c10d741a06a8edbad5e4", "fusion_lat": 0.0, "name": "841875faaa08c10d741a06a8edbad5e4", "is_reserved": 0, "rental_uris": {"android": "https://dc.lft.to/lastmile_qr_scan", "ios": "https://dc.lft.to/lastmile_qr_scan"}, "fusion_lon": 0.0}, {"lat": 38.936091833333336, "is_disabled": 0, "type": "electric_scooter", "lon": -77.03796683333333, "bike_id": "8a3cf004bd219ed2cdfd370ef582dd82", "fusion_lat": 0.0, "name": "8a3cf004bd219ed2cdfd370ef582dd82", "is_reserved": 0, "rental_uris": {"android": "https://dc.lft.to/lastmile_qr_scan", "ios": "https://dc.lft.to/lastmile_qr_scan"}, "fusion_lon": 0.0}, {"lat": 38.96492883333333, "is_disabled": 0, "type": "electric_scooter", "lon": -77.02785116666666, "bike_id": "1446672cdddda28e60e774c83ec79493", "fusion_lat": 0.0, "name": "1446672cdddda28e60e774c83ec79493", "is_reserved": 0, "rental_uris": {"android": "https://dc.lft.to/lastmile_qr_scan", "ios": "https://dc.lft.to/lastmile_qr_scan"}, "fusion_lon": 0.0}, {"lat": 38.921754166666666, "is_disabled": 0, "type": "electric_scooter", "lon": -77.04709383333334, "bike_id": "146ba4f6820977b53a2968943589ef94", "fusion_lat": 0.0, "name": "146ba4f6820977b53a2968943589ef94", "is_reserved": 0, "rental_uris": {"android": "https://dc.lft.to/lastmile_qr_scan", "ios": "https://dc.lft.to/lastmile_qr_scan"}, "fusion_lon": 0.0}, {"lat": 38.907495833333336, "is_disabled": 0, "type": "electric_scooter", "lon": -77.00018066666667, "bike_id": "d8bec55feed8a46f551f6c1695a3f2b9", "fusion_lat": 0.0, "name": "d8bec55feed8a46f551f6c1695a3f2b9", "is_reserved": 0, "rental_uris": {"android": "https://dc.lft.to/lastmile_qr_scan", "ios": "https://dc.lft.to/lastmile_qr_scan"}, "fusion_lon": 0.0}, {"lat": 38.911866333333336, "is_disabled": 0, "type": "electric_scooter", "lon": -77.03510516666667, "bike_id": "4782177f5eef8d98d989641f7a6915a1", "fusion_lat": 0.0, "name": "4782177f5eef8d98d989641f7a6915a1", "is_reserved": 0, "rental_uris": {"android": "https://dc.lft.to/lastmile_qr_scan", "ios": "https://dc.lft.to/lastmile_qr_scan"}, "fusion_lon": 0.0}, {"lat": 38.908363333333334, "is_disabled": 0, "type": "electric_scooter", "lon": -76.99966016666667, "bike_id": "ad78e381ea6433c8c8adc181de6f2f53", "fusion_lat": 0.0, "name": "ad78e381ea6433c8c8adc181de6f2f53", "is_reserved": 0, "rental_uris": {"android": "https://dc.lft.to/lastmile_qr_scan", "ios": "https://dc.lft.to/lastmile_qr_scan"}, "fusion_lon": 0.0}, {"lat": 38.92423466666666, "is_disabled": 0, "type": "electric_scooter", "lon": -77.05625933333333, "bike_id": "b39fe5c7636a7791f88222ee3eb5a75c", "fusion_lat": 0.0, "name": "b39fe5c7636a7791f88222ee3eb5a75c", "is_reserved": 0, "rental_uris": {"android": "https://dc.lft.to/lastmile_qr_scan", "ios": "https://dc.lft.to/lastmile_qr_scan"}, "fusion_lon": 0.0}, {"lat": 38.9067985, "is_disabled": 0, "type": "electric_scooter", "lon": -77.06266483333333, "bike_id": "3000984c0b160db7e37f782b5943f478", "fusion_lat": 0.0, "name": "3000984c0b160db7e37f782b5943f478", "is_reserved": 0, "rental_uris": {"android": "https://dc.lft.to/lastmile_qr_scan", "ios": "https://dc.lft.to/lastmile_qr_scan"}, "fusion_lon": 0.0}, {"lat": 38.93235716666667, "is_disabled": 0, "type": "electric_scooter", "lon": -77.03264233333333, "bike_id": "a38cf0bf35d5c40c8820f3ae249913d9", "fusion_lat": 0.0, "name": "a38cf0bf35d5c40c8820f3ae249913d9", "is_reserved": 0, "rental_uris": {"android": "https://dc.lft.to/lastmile_qr_scan", "ios": "https://dc.lft.to/lastmile_qr_scan"}, "fusion_lon": 0.0}, {"lat": 38.90642583333333, "is_disabled": 0, "type": "electric_scooter", "lon": -77.04247316666667, "bike_id": "d87ce2370ca918bfd65cd35a21e5dd5c", "fusion_lat": 0.0, "name": "d87ce2370ca918bfd65cd35a21e5dd5c", "is_reserved": 0, "rental_uris": {"android": "https://dc.lft.to/lastmile_qr_scan", "ios": "https://dc.lft.to/lastmile_qr_scan"}, "fusion_lon": 0.0}, {"lat": 38.916377, "is_disabled": 0, "type": "electric_scooter", "lon": -77.03198433333333, "bike_id": "f3dc887b0ebf9f85a1e71f145957241a", "fusion_lat": 0.0, "name": "f3dc887b0ebf9f85a1e71f145957241a", "is_reserved": 0, "rental_uris": {"android": "https://dc.lft.to/lastmile_qr_scan", "ios": "https://dc.lft.to/lastmile_qr_scan"}, "fusion_lon": 0.0}, {"lat": 38.90486416666667, "is_disabled": 0, "type": "electric_bike", "lon": -77.0684525, "bike_id": "1317b12e565f89eb0035614bce17a4b7", "fusion_lat": 0.0, "name": "1317b12e565f89eb0035614bce17a4b7", "is_reserved": 0, "rental_uris": {"android": "https://dc.lft.to/lastmile_qr_scan", "ios": "https://dc.lft.to/lastmile_qr_scan"}, "fusion_lon": 0.0}, {"lat": 38.916417333333335, "is_disabled": 0, "type": "electric_scooter", "lon": -77.0218015, "bike_id": "05962070156b6a9072d31f629866362c", "fusion_lat": 0.0, "name": "05962070156b6a9072d31f629866362c", "is_reserved": 0, "rental_uris": {"android": "https://dc.lft.to/lastmile_qr_scan", "ios": "https://dc.lft.to/lastmile_qr_scan"}, "fusion_lon": 0.0}, {"lat": 38.95889966666667, "is_disabled": 0, "type": "electric_bike", "lon": -76.92481366666667, "bike_id": "6bb6fd01566dcdd576faadfc8fbfe7f4", "fusion_lat": 0.0, "name": "6bb6fd01566dcdd576faadfc8fbfe7f4", "is_reserved": 0, "rental_uris": {"android": "https://dc.lft.to/lastmile_qr_scan", "ios": "https://dc.lft.to/lastmile_qr_scan"}, "fusion_lon": 0.0}, {"lat": 38.916636, "is_disabled": 0, "type": "electric_scooter", "lon": -77.038605, "bike_id": "207b89508ee10f14ae664ef29b3209f7", "fusion_lat": 0.0, "name": "207b89508ee10f14ae664ef29b3209f7", "is_reserved": 0, "rental_uris": {"android": "https://dc.lft.to/lastmile_qr_scan", "ios": "https://dc.lft.to/lastmile_qr_scan"}, "fusion_lon": 0.0}, {"lat": 38.90005583333333, "is_disabled": 0, "type": "electric_scooter", "lon": -77.05251116666666, "bike_id": "670d9f6c5082149855bc29b02e7a446a", "fusion_lat": 0.0, "name": "670d9f6c5082149855bc29b02e7a446a", "is_reserved": 0, "rental_uris": {"android": "https://dc.lft.to/lastmile_qr_scan", "ios": "https://dc.lft.to/lastmile_qr_scan"}, "fusion_lon": 0.0}, {"lat": 38.89042216666667, "is_disabled": 0, "type": "electric_scooter", "lon": -76.94077916666667, "bike_id": "ce00446c688500d8d115cf060cba8140", "fusion_lat": 0.0, "name": "ce00446c688500d8d115cf060cba8140", "is_reserved": 0, "rental_uris": {"android": "https://dc.lft.to/lastmile_qr_scan", "ios": "https://dc.lft.to/lastmile_qr_scan"}, "fusion_lon": 0.0}, {"lat": 38.89279333333333, "is_disabled": 0, "type": "electric_scooter", "lon": -77.05032166666666, "bike_id": "a315338e808ab2f8f89cd4231509c6d5", "fusion_lat": 0.0, "name": "a315338e808ab2f8f89cd4231509c6d5", "is_reserved": 0, "rental_uris": {"android": "https://dc.lft.to/lastmile_qr_scan", "ios": "https://dc.lft.to/lastmile_qr_scan"}, "fusion_lon": 0.0}, {"lat": 38.917434, "is_disabled": 0, "type": "electric_scooter", "lon": -77.03175716666667, "bike_id": "04994a1ae71ccea5a968a9362b598d3d", "fusion_lat": 0.0, "name": "04994a1ae71ccea5a968a9362b598d3d", "is_reserved": 0, "rental_uris": {"android": "https://dc.lft.to/lastmile_qr_scan", "ios": "https://dc.lft.to/lastmile_qr_scan"}, "fusion_lon": 0.0}, {"lat": 38.873132166666664, "is_disabled": 0, "type": "electric_scooter", "lon": -76.97105666666667, "bike_id": "404b22497f9514e1d15a242cfdb1b1f2", "fusion_lat": 0.0, "name": "404b22497f9514e1d15a242cfdb1b1f2", "is_reserved": 0, "rental_uris": {"android": "https://dc.lft.to/lastmile_qr_scan", "ios": "https://dc.lft.to/lastmile_qr_scan"}, "fusion_lon": 0.0}, {"lat": 38.921041333333335, "is_disabled": 0, "type": "electric_scooter", "lon": -77.04368333333333, "bike_id": "37fca760a2b6b34ec3a7475279a7f812", "fusion_lat": 0.0, "name": "37fca760a2b6b34ec3a7475279a7f812", "is_reserved": 0, "rental_uris": {"android": "https://dc.lft.to/lastmile_qr_scan", "ios": "https://dc.lft.to/lastmile_qr_scan"}, "fusion_lon": 0.0}, {"lat": 38.90555333333333, "is_disabled": 0, "type": "electric_scooter", "lon": -77.043561, "bike_id": "45c5e6409f9870869112d1f2e2d25ec7", "fusion_lat": 0.0, "name": "45c5e6409f9870869112d1f2e2d25ec7", "is_reserved": 0, "rental_uris": {"android": "https://dc.lft.to/lastmile_qr_scan", "ios": "https://dc.lft.to/lastmile_qr_scan"}, "fusion_lon": 0.0}, {"lat": 38.895305666666665, "is_disabled": 0, "type": "electric_scooter", "lon": -77.03352883333334, "bike_id": "098373c6fda711bef21deb9a1bd8d8f7", "fusion_lat": 0.0, "name": "098373c6fda711bef21deb9a1bd8d8f7", "is_reserved": 0, "rental_uris": {"android": "https://dc.lft.to/lastmile_qr_scan", "ios": "https://dc.lft.to/lastmile_qr_scan"}, "fusion_lon": 0.0}, {"lat": 38.9067095, "is_disabled": 0, "type": "electric_scooter", "lon": -76.98785466666666, "bike_id": "102c202b039b07931fb0621320529197", "fusion_lat": 0.0, "name": "102c202b039b07931fb0621320529197", "is_reserved": 0, "rental_uris": {"android": "https://dc.lft.to/lastmile_qr_scan", "ios": "https://dc.lft.to/lastmile_qr_scan"}, "fusion_lon": 0.0}, {"lat": 38.92555316666667, "is_disabled": 0, "type": "electric_scooter", "lon": -77.03660283333333, "bike_id": "b50f951a14ca9a0e8266691a9eed72e2", "fusion_lat": 0.0, "name": "b50f951a14ca9a0e8266691a9eed72e2", "is_reserved": 0, "rental_uris": {"android": "https://dc.lft.to/lastmile_qr_scan", "ios": "https://dc.lft.to/lastmile_qr_scan"}, "fusion_lon": 0.0}, {"lat": 38.93188216666667, "is_disabled": 0, "type": "electric_scooter", "lon": -77.038818, "bike_id": "0dfbbcf1b91ec46abf0928e8d34620f3", "fusion_lat": 0.0, "name": "0dfbbcf1b91ec46abf0928e8d34620f3", "is_reserved": 0, "rental_uris": {"android": "https://dc.lft.to/lastmile_qr_scan", "ios": "https://dc.lft.to/lastmile_qr_scan"}, "fusion_lon": 0.0}, {"lat": 38.9150445, "is_disabled": 0, "type": "electric_scooter", "lon": -77.02196166666667, "bike_id": "fb9927ea919e05fed54ab20450569a4d", "fusion_lat": 0.0, "name": "fb9927ea919e05fed54ab20450569a4d", "is_reserved": 0, "rental_uris": {"android": "https://dc.lft.to/lastmile_qr_scan", "ios": "https://dc.lft.to/lastmile_qr_scan"}, "fusion_lon": 0.0}, {"lat": 38.921113, "is_disabled": 0, "type": "electric_scooter", "lon": -77.04222433333334, "bike_id": "848177248334961e1032ab83b55da63e", "fusion_lat": 0.0, "name": "848177248334961e1032ab83b55da63e", "is_reserved": 0, "rental_uris": {"android": "https://dc.lft.to/lastmile_qr_scan", "ios": "https://dc.lft.to/lastmile_qr_scan"}, "fusion_lon": 0.0}, {"lat": 38.906368666666665, "is_disabled": 0, "type": "electric_scooter", "lon": -77.06296866666666, "bike_id": "372b56cc317276a08a7740fdd243a79d", "fusion_lat": 0.0, "name": "372b56cc317276a08a7740fdd243a79d", "is_reserved": 0, "rental_uris": {"android": "https://dc.lft.to/lastmile_qr_scan", "ios": "https://dc.lft.to/lastmile_qr_scan"}, "fusion_lon": 0.0}, {"lat": 38.914070333333335, "is_disabled": 0, "type": "electric_scooter", "lon": -77.020426, "bike_id": "8261a2c45fb22e947ea766fda6ac76b3", "fusion_lat": 0.0, "name": "8261a2c45fb22e947ea766fda6ac76b3", "is_reserved": 0, "rental_uris": {"android": "https://dc.lft.to/lastmile_qr_scan", "ios": "https://dc.lft.to/lastmile_qr_scan"}, "fusion_lon": 0.0}, {"lat": 38.91408916666666, "is_disabled": 0, "type": "electric_scooter", "lon": -77.025681, "bike_id": "9a74958d4cf774d430dc09e7133b5deb", "fusion_lat": 0.0, "name": "9a74958d4cf774d430dc09e7133b5deb", "is_reserved": 0, "rental_uris": {"android": "https://dc.lft.to/lastmile_qr_scan", "ios": "https://dc.lft.to/lastmile_qr_scan"}, "fusion_lon": 0.0},