{"data": {"bikes": [{"type": "electric_bike", "rental_uris": {"ios": "https://dc.lft.to/lastmile_qr_scan", "android": "https://dc.lft.to/lastmile_qr_scan"}, "lon": -77.0808385, "fusion_lon": 0.0, "is_disabled": 0, "lat": 38.9086335, "bike_id": "70ad239300ebb01b65c9a3fb92424b0a", "name": "70ad239300ebb01b65c9a3fb92424b0a", "is_reserved": 0, "fusion_lat": 0.0}, {"type": "electric_scooter", "rental_uris": {"ios": "https://dc.lft.to/lastmile_qr_scan", "android": "https://dc.lft.to/lastmile_qr_scan"}, "lon": -77.02286083333334, "fusion_lon": 0.0, "is_disabled": 0, "lat": 38.91682733333333, "bike_id": "4a7a51c37ef8b204bed65364d52e92a3", "name": "4a7a51c37ef8b204bed65364d52e92a3", "is_reserved": 0, "fusion_lat": 0.0}, {"type": "electric_scooter", "rental_uris": {"ios": "https://dc.lft.to/lastmile_qr_scan", "android": "https://dc.lft.to/lastmile_qr_scan"}, "lon": -77.03832566666667, "fusion_lon": 0.0, "is_disabled": 0, "lat": 38.921699, "bike_id": "af4aa8496930419f726646ec1981af2e", "name": "af4aa8496930419f726646ec1981af2e", "is_reserved": 0, "fusion_lat": 0.0}, {"type": "electric_scooter", "rental_uris": {"ios": "https://dc.lft.to/lastmile_qr_scan", "android": "https://dc.lft.to/lastmile_qr_scan"}, "lon": -77.04549866666666, "fusion_lon": 0.0, "is_disabled": 0, "lat": 38.9341125, "bike_id": "97c21823ba5c95880bf9715da0298d8e", "name": "97c21823ba5c95880bf9715da0298d8e", "is_reserved": 0, "fusion_lat": 0.0}, {"type": "electric_scooter", "rental_uris": {"ios": "https://dc.lft.to/lastmile_qr_scan", "android": "https://dc.lft.to/lastmile_qr_scan"}, "lon": -77.0300995, "fusion_lon": 0.0, "is_disabled": 0, "lat": 38.939726666666665, "bike_id": "c3954de76857f9faf7120dbeabc03984", "name": "c3954de76857f9faf7120dbeabc03984", "is_reserved": 0, "fusion_lat": 0.0}, {"type": "electric_scooter", "rental_uris": {"ios": "https://dc.lft.to/lastmile_qr_scan", "android": "https://dc.lft.to/lastmile_qr_scan"}, "lon": -77.01656133333333, "fusion_lon": 0.0, "is_disabled": 0, "lat": 38.881195166666664, "bike_id": "7eb962d649c7a28d0605f5cc31c62f1a", "name": "7eb962d649c7a28d0605f5cc31c62f1a", "is_reserved": 0, "fusion_lat": 0.0}, {"type": "electric_scooter", "rental_uris": {"ios": "https://dc.lft.to/lastmile_qr_scan", "android": "https://dc.lft.to/lastmile_qr_scan"}, "lon": -77.017572, "fusion_lon": 0.0, "is_disabled": 0, "lat": 38.8772775, "bike_id": "bd804fdf6e5b3afa2561df190fef0709", "name": "bd804fdf6e5b3afa2561df190fef0709", "is_reserved": 0, "fusion_lat": 0.0}, {"type": "electric_scooter", "rental_uris": {"ios": "https://dc.lft.to/lastmile_qr_scan", "android": "https://dc.lft.to/lastmile_qr_scan"}, "lon": -77.03071116666666, "fusion_lon": 0.0, "is_disabled": 0, "lat": 38.88602616666667, "bike_id": "7400cc919ab54accea522118b78f5556", "name": "7400cc919ab54accea522118b78f5556", "is_reserved": 0, "fusion_lat": 0.0}, {"type": "electric_scooter", "rental_uris": {"ios": "https://dc.lft.to/lastmile_qr_scan", "android": "https://dc.lft.to/lastmile_qr_scan"}, "lon": -77.02591183333334, "fusion_lon": 0.0, "is_disabled": 0, "lat": 38.907380833333335, "bike_id": "7a7ece795395bb62c783f542ea3e1890", "name": "7a7ece795395bb62c783f542ea3e1890", "is_reserved": 0, "fusion_lat": 0.0}, {"type": "electric_scooter", "rental_uris": {"ios": "https://dc.lft.to/lastmile_qr_scan", "android": "https://dc.lft.to/lastmile_qr_scan"}, "lon": -77.03475116666667, "fusion_lon": 0.0, "is_disabled": 0, "lat": 38.90665083333333, "bike_id": "115472a5de13289803d13837d36de486", "name": "115472a5de13289803d13837d36de486", "is_reserved": 0, "fusion_lat": 0.0}, {"type": "electric_scooter", "rental_uris": {"ios": "https://dc.lft.to/lastmile_qr_scan", "android": "https://dc.lft.to/lastmile_qr_scan"}, "lon": -77.03443633333333, "fusion_lon": 0.0, "is_disabled": 0, "lat": 38.91816716666666, "bike_id": "db65a32b53aee2916312188cfc70fc72", "name": "db65a32b53aee2916312188cfc70fc72", "is_reserved": 0, "fusion_lat": 0.0}, {"type": "electric_scooter", "rental_uris": {"ios": "https://dc.lft.to/lastmile_qr_scan", "android": "https://dc.lft.to/lastmile_qr_scan"}, "lon": -77.02982633333333, "fusion_lon": 0.0, "is_disabled": 0, "lat": 38.93244416666667, "bike_id": "414f35333f15e37b04a73bdcf8c8ee55", "name": "414f35333f15e37b04a73bdcf8c8ee55", "is_reserved": 0, "fusion_lat": 0.0}, {"type": "electric_scooter", "rental_uris": {"ios": "https://dc.lft.to/lastmile_qr_scan", "android": "https://dc.lft.to/lastmile_qr_scan"}, "lon": -77.0220925, "fusion_lon": 0.0, "is_disabled": 0, "lat": 38.887474833333336, "bike_id": "6f6d25ff22c61119afd738f76168a954", "name": "6f6d25ff22c61119afd738f76168a954", "is_reserved": 0, "fusion_lat": 0.0}, {"type": "electric_scooter", "rental_uris": {"ios": "https://dc.lft.to/lastmile_qr_scan", "android": "https://dc.lft.to/lastmile_qr_scan"}, "lon": -77.01744266666667, "fusion_lon": 0.0, "is_disabled": 0, "lat": 38.90249333333333, "bike_id": "f9a16f034aef92bcd49a7d7493f04390", "name": "f9a16f034aef92bcd49a7d7493f04390", "is_reserved": 0, "fusion_lat": 0.0}, {"type": "electric_scooter", "rental_uris": {"ios": "https://dc.lft.to/lastmile_qr_scan", "android": "https://dc.lft.to/lastmile_qr_scan"}, "lon": -76.97634516666666, "fusion_lon": 0.0, "is_disabled": 0, "lat": 38.851976666666665, "bike_id": "6debffc6e8d690ed9b4699f518a609e5", "name": "6debffc6e8d690ed9b4699f518a609e5", "is_reserved": 0, "fusion_lat": 0.0}, {"type": "electric_scooter", "rental_uris": {"ios": "https://dc.lft.to/lastmile_qr_scan", "android": "https://dc.lft.to/lastmile_qr_scan"}, "lon": -77.04362083333334, "fusion_lon": 0.0, "is_disabled": 0, "lat": 38.9206185, "bike_id": "aba0dd03d27c9f61e4ea18be4824680a", "name": "aba0dd03d27c9f61e4ea18be4824680a", "is_reserved": 0, "fusion_lat": 0.0}, {"type": "electric_scooter", "rental_uris": {"ios": "https://dc.lft.to/lastmile_qr_scan", "android": "https://dc.lft.to/lastmile_qr_scan"}, "lon": -77.03067333333334, "fusion_lon": 0.0, "is_disabled": 0, "lat": 38.899888833333335, "bike_id": "1a58bb17c1458b6ef7d7e004c11233ec", "name": "1a58bb17c1458b6ef7d7e004c11233ec", "is_reserved": 0, "fusion_lat": 0.0}, {"type": "electric_scooter", "rental_uris": {"ios": "https://dc.lft.to/lastmile_qr_scan", "android": "https://dc.lft.to/lastmile_qr_scan"}, "lon": -76.98978283333334, "fusion_lon": 0.0, "is_disabled": 0, "lat": 38.8650845, "bike_id": "406610492cb52f1b4eaf4f221a71cdfc", "name": "406610492cb52f1b4eaf4f221a71cdfc", "is_reserved": 0, "fusion_lat": 0.0}, {"type": "electric_scooter", "rental_uris": {"ios": "https://dc.lft.to/lastmile_qr_scan", "android": "https://dc.lft.to/lastmile_qr_scan"}, "lon": -77.02820683333333, "fusion_lon": 0.0, "is_disabled": 0, "lat": 38.902632, "bike_id": "171648282324dcf1fb6b8467b547e07c", "name": "171648282324dcf1fb6b8467b547e07c", "is_reserved": 0, "fusion_lat": 0.0}, {"type": "electric_bike", "rental_uris": {"ios": "https://dc.lft.to/lastmile_qr_scan", "android": "https://dc.lft.to/lastmile_qr_scan"}, "lon": -76.8953865, "fusion_lon": 0.0, "is_disabled": 0, "lat": 38.945549666666665, "bike_id": "cc253494d734b383afbc5bc4029c7df9", "name": "cc253494d734b383afbc5bc4029c7df9", "is_reserved": 0, "fusion_lat": 0.0}, {"type": "electric_scooter", "rental_uris": {"ios": "https://dc.lft.to/lastmile_qr_scan", "android": "https://dc.lft.to/lastmile_qr_scan"}, "lon": -77.03793066666667, "fusion_lon": 0.0, "is_disabled": 0, "lat": 38.90967916666666, "bike_id": "946423a2420b9bbb971a949f6d6519d8", "name": "946423a2420b9bbb971a949f6d6519d8", "is_reserved": 0, "fusion_lat": 0.0}, {"type": "electric_scooter", "rental_uris": {"ios": "https://dc.lft.to/lastmile_qr_scan", "android": "https://dc.lft.to/lastmile_qr_scan"}, "lon": -77.04142566666667, "fusion_lon": 0.0, "is_disabled": 0, "lat": 38.89349833333333, "bike_id": "a3a31b3327db785e9e7334ce26bfe0c4", "name": "a3a31b3327db785e9e7334ce26bfe0c4", "is_reserved": 0, "fusion_lat": 0.0}, {"type": "electric_scooter", "rental_uris": {"ios": "https://dc.lft.to/lastmile_qr_scan", "android": "https://dc.lft.to/lastmile_qr_scan"}, "lon": -77.044654, "fusion_lon": 0.0, "is_disabled": 0, "lat": 38.911175666666665, "bike_id": "20cd724ff083ee2b4312eb3ad94c20ff", "name": "20cd724ff083ee2b4312eb3ad94c20ff", "is_reserved": 0, "fusion_lat": 0.0}, {"type": "electric_scooter", "rental_uris": {"ios": "https://dc.lft.to/lastmile_qr_scan", "android": "https://dc.lft.to/lastmile_qr_scan"}, "lon": -77.04470683333334, "fusion_lon": 0.0, "is_disabled": 0, "lat": 38.89608116666667, "bike_id": "b84e564a24f3ec196fe23e52e6743aaa", "name": "b84e564a24f3ec196fe23e52e6743aaa", "is_reserved": 0, "fusion_lat": 0.0}, {"type": "electric_bike", "rental_uris": {"ios": "https://dc.lft.to/lastmile_qr_scan", "android": "https://dc.lft.to/lastmile_qr_scan"}, "lon": -76.979727, "fusion_lon": 0.0, "is_disabled": 0, "lat": 38.95375116666666, "bike_id": "b653b364d8d043ebf1090c960339c4a2", "name": "b653b364d8d043ebf1090c960339c4a2", "is_reserved": 0, "fusion_lat": 0.0}, {"type": "electric_scooter", "rental_uris": {"ios": "https://dc.lft.to/lastmile_qr_scan", "android": "https://dc.lft.to/lastmile_qr_scan"}, "lon": -77.03450866666667, "fusion_lon": 0.0, "is_disabled": 0, "lat": 38.937538333333336, "bike_id": "06f94904ba69fc1c073ec5b53f8afc0b", "name": "06f94904ba69fc1c073ec5b53f8afc0b", "is_reserved": 0, "fusion_lat": 0.0}, {"type": "electric_scooter", "rental_uris": {"ios": "https://dc.lft.to/lastmile_qr_scan", "android": "https://dc.lft.to/lastmile_qr_scan"}, "lon": -77.03389133333333, "fusion_lon": 0.0, "is_disabled": 0, "lat": 38.909781333333335, "bike_id": "799316d312b6d14a84dfa4223e7a13ae", "name": "799316d312b6d14a84dfa4223e7a13ae", "is_reserved": 0, "fusion_lat": 0.0}, {"type": "electric_scooter", "rental_uris": {"ios": "https://dc.lft.to/lastmile_qr_scan", "android": "https://dc.lft.to/lastmile_qr_scan"}, "lon": -77.039275, "fusion_lon": 0.0, "is_disabled": 0, "lat": 38.917038833333336, "bike_id": "b292d03cd55040100d363ccfb7ebaaf4", "name": "b292d03cd55040100d363ccfb7ebaaf4", "is_reserved": 0, "fusion_lat": 0.0}, {"type": "electric_scooter", "rental_uris": {"ios": "https://dc.lft.to/lastmile_qr_scan", "android": "https://dc.lft.to/lastmile_qr_scan"}, "lon": -77.01409366666667, "fusion_lon": 0.0, "is_disabled": 0, "lat": 38.881242666666665, "bike_id": "ff510500a78ca32fcb19e0c6dc036f43", "name": "ff510500a78ca32fcb19e0c6dc036f43", "is_reserved": 0, "fusion_lat": 0.0}, {"type": "electric_scooter", "rental_uris": {"ios": "https://dc.lft.to/lastmile_qr_scan", "android": "https://dc.lft.to/lastmile_qr_scan"}, "lon": -77.024322, "fusion_lon": 0.0, "is_disabled": 0, "lat": 38.91848433333333, "bike_id": "1e3680470a4fdf6f8ccff1543d6c249b", "name": "1e3680470a4fdf6f8ccff1543d6c249b", "is_reserved": 0, "fusion_lat": 0.0}, {"type": "electric_scooter", "rental_uris": {"ios": "https://dc.lft.to/lastmile_qr_scan", "android": "https://dc.lft.to/lastmile_qr_scan"}, "lon": -77.04360466666667, "fusion_lon": 0.0, "is_disabled": 0, "lat": 38.9206855, "bike_id": "5561fcbbfeb38e8270e56f415b835387", "name": "5561fcbbfeb38e8270e56f415b835387", "is_reserved": 0, "fusion_lat": 0.0}, {"type": "electric_scooter", "rental_uris": {"ios": "https://dc.lft.to/lastmile_qr_scan", "android": "https://dc.lft.to/lastmile_qr_scan"}, "lon": -77.03156516666667, "fusion_lon": 0.0, "is_disabled": 0, "lat": 38.91581633333333, "bike_id": "4201167dd77e2cd9600a4664856475a8", "name": "4201167dd77e2cd9600a4664856475a8", "is_reserved": 0, "fusion_lat": 0.0}, {"type": "electric_scooter", "rental_uris": {"ios": "https://dc.lft.to/lastmile_qr_scan", "android": "https://dc.lft.to/lastmile_qr_scan"}, "lon": -77.03484, "fusion_lon": 0.0, "is_disabled": 0, "lat": 38.924890833333336, "bike_id": "5d064b07d9858ef6f1c3755af46152f7", "name": "5d064b07d9858ef6f1c3755af46152f7", "is_reserved": 0, "fusion_lat": 0.0}, {"type": "electric_scooter", "rental_uris": {"ios": "https://dc.lft.to/lastmile_qr_scan", "android": "https://dc.lft.to/lastmile_qr_scan"}, "lon": -76.9852835, "fusion_lon": 0.0, "is_disabled": 0, "lat": 38.866852, "bike_id": "3e2e15910e310438d26187cb524636dd", "name": "3e2e15910e310438d26187cb524636dd", "is_reserved": 0, "fusion_lat": 0.0}, {"type": "electric_scooter", "rental_uris": {"ios": "https://dc.lft.to/lastmile_qr_scan", "android": "https://dc.lft.to/lastmile_qr_scan"}, "lon": -77.03520316666666, "fusion_lon": 0.0, "is_disabled": 0, "lat": 38.91883583333333, "bike_id": "a78e0bfad8bca30f156ac85fad73296f", "name": "a78e0bfad8bca30f156ac85fad73296f", "is_reserved": 0, "fusion_lat": 0.0}, {"type": "electric_scooter", "rental_uris": {"ios": "https://dc.lft.to/lastmile_qr_scan", "android": "https://dc.lft.to/lastmile_qr_scan"}, "lon": -77.02955766666666, "fusion_lon": 0.0, "is_disabled": 0, "lat": 38.922515833333335, "bike_id": "974441c08047d1569c7ad9df35af7ae7", "name": "974441c08047d1569c7ad9df35af7ae7", "is_reserved": 0, "fusion_lat": 0.0}, {"type": "electric_scooter", "rental_uris": {"ios": "https://dc.lft.to/lastmile_qr_scan", "android": "https://dc.lft.to/lastmile_qr_scan"}, "lon": -77.02161733333334, "fusion_lon": 0.0, "is_disabled": 0, "lat": 38.93076166666667, "bike_id": "cfa6b3464cbc5f4794d0504a088eb70a", "name": "cfa6b3464cbc5f4794d0504a088eb70a", "is_reserved": 0, "fusion_lat": 0.0}, {"type": "electric_scooter", "rental_uris": {"ios": "https://dc.lft.to/lastmile_qr_scan", "android": "https://dc.lft.to/lastmile_qr_scan"}, "lon": -77.0752575, "fusion_lon": 0.0, "is_disabled": 0, "lat": 38.93945983333333, "bike_id": "ae86193024077858d5950a64446a0b02", "name": "ae86193024077858d5950a64446a0b02", "is_reserved": 0, "fusion_lat": 0.0}, {"type": "electric_scooter", "rental_uris": {"ios": "https://dc.lft.to/lastmile_qr_scan", "android": "https://dc.lft.to/lastmile_qr_scan"}, "lon": -77.00945233333333, "fusion_lon": 0.0, "is_disabled": 0, "lat": 38.8954035, "bike_id": "909e7c6bb132fe5f72b03a34a9e9c3ae", "name": "909e7c6bb132fe5f72b03a34a9e9c3ae", "is_reserved": 0, "fusion_lat": 0.0}, {"type": "electric_scooter", "rental_uris": {"ios": "https://dc.lft.to/lastmile_qr_scan", "android": "https://dc.lft.to/lastmile_qr_scan"}, "lon": -77.02686583333333, "fusion_lon": 0.0, "is_disabled": 0, "lat": 38.925922, "bike_id": "4f529aacc0d16d5d2365976406a544fb", "name": "4f529aacc0d16d5d2365976406a544fb", "is_reserved": 0, "fusion_lat": 0.0}, {"type": "electric_scooter", "rental_uris": {"ios": "https://dc.lft.to/lastmile_qr_scan", "android": "https://dc.lft.to/lastmile_qr_scan"}, "lon": -76.99210666666667, "fusion_lon": 0.0, "is_disabled": 0, "lat": 38.90368433333333, "bike_id": "a38a92c1285b6d03a23680a702546f7c", "name": "a38a92c1285b6d03a23680a702546f7c", "is_reserved": 0, "fusion_lat": 0.0}, {"type": "electric_scooter", "rental_uris": {"ios": "https://dc.lft.to/lastmile_qr_scan", "android": "https://dc.lft.to/lastmile_qr_scan"}, "lon": -77.04449033333333, "fusion_lon": 0.0, "is_disabled": 0, "lat": 38.92418383333333, "bike_id": "0da63d2126cb11e9830c1c3309f268f0", "name": "0da63d2126cb11e9830c1c3309f268f0", "is_reserved": 0, "fusion_lat": 0.0}, {"type": "electric_scooter", "rental_uris": {"ios": "https://dc.lft.to/lastmile_qr_scan", "android": "https://dc.lft.to/lastmile_qr_scan"}, "lon": -77.03119633333333, "fusion_lon": 0.0, "is_disabled": 0, "lat": 38.95935333333333, "bike_id": "d6fd276ff69fd792004a5e9816aa870c", "name": "d6fd276ff69fd792004a5e9816aa870c", "is_reserved": 0, "fusion_lat": 0.0}, {"type": "electric_scooter", "rental_uris": {"ios": "https://dc.lft.to/lastmile_qr_scan", "android": "https://dc.lft.to/lastmile_qr_scan"}, "lon": -77.05000683333333, "fusion_lon": 0.0, "is_disabled": 0, "lat": 38.8923025, "bike_id": "c7e79b681b5257d4026f57fa3860316b", "name": "c7e79b681b5257d4026f57fa3860316b", "is_reserved": 0, "fusion_lat": 0.0}, {"type": "electric_bike", "rental_uris": {"ios": "https://dc.lft.to/lastmile_qr_scan", "android": "https://dc.lft.to/lastmile_qr_scan"}, "lon": -77.01771316666667, "fusion_lon": 0.0, "is_disabled": 0, "lat": 38.98274133333334, "bike_id": "6b21ed851666d5635b1178c6540cdf30", "name": "6b21ed851666d5635b1178c6540cdf30", "is_reserved": 0, "fusion_lat": 0.0}, {"type": "electric_scooter", "rental_uris": {"ios": "https://dc.lft.to/lastmile_qr_scan", "android": "https://dc.lft.to/lastmile_qr_scan"}, "lon": -77.02449216666666, "fusion_lon": 0.0, "is_disabled": 0, "lat": 38.938781166666665, "bike_id": "c114ac15f570e433f6c6b30f02c41536", "name": "c114ac15f570e433f6c6b30f02c41536", "is_reserved": 0, "fusion_lat": 0.0}, {"type": "electric_scooter", "rental_uris": {"ios": "https://dc.lft.to/lastmile_qr_scan", "android": "https://dc.lft.to/lastmile_qr_scan"}, "lon": -77.02975233333333, "fusion_lon": 0.0, "is_disabled": 0, "lat": 38.924645, "bike_id": "3663c65996442867fa2ef4300e3e3d5b", "name": "3663c65996442867fa2ef4300e3e3d5b", "is_reserved": 0, "fusion_lat": 0.0}, {"type": "electric_scooter", "rental_uris": {"ios": "https://dc.lft.to/lastmile_qr_scan", "android": "https://dc.lft.to/lastmile_qr_scan"}, "lon": -77.03266716666667, "fusion_lon": 0.0, "is_disabled": 0, "lat": 38.91930466666667, "bike_id": "7c73aecb7a78509ee62ebbffe8e82c57", "name": "7c73aecb7a78509ee62ebbffe8e82c57", "is_reserved": 0, "fusion_lat": 0.0}, {"type": "electric_scooter", "rental_uris": {"ios": "https://dc.lft.to/lastmile_qr_scan", "android": "https://dc.lft.to/lastmile_qr_scan"}, "lon": -77.03215466666667, "fusion_lon": 0.0, "is_disabled": 0, "lat": 38.9097255, "bike_id": "51b3fd35c0bad6997bc5129fe85a04fe", "name": "51b3fd35c0bad6997bc5129fe85a04fe", "is_reserved": 0, "fusion_lat": 0.0}, {"type": "electric_scooter", "rental_uris": {"ios": "https://dc.lft.to/lastmile_qr_scan", "android": "https://dc.lft.to/lastmile_qr_scan"}, "lon": -77.032121, "fusion_lon": 0.0, "is_disabled": 0, "lat": 38.917181, "bike_id": "c1b9297392671b3889f33d5e9e2cbda2", "name": "c1b9297392671b3889f33d5e9e2cbda2", "is_reserved": 0, "fusion_lat": 0.0}, {"type": "electric_scooter", "rental_uris": {"ios": "https://dc.lft.to/lastmile_qr_scan", "android": "https://dc.lft.to/lastmile_qr_scan"}, "lon": -77.0218095, "fusion_lon": 0.0, "is_disabled": 0, "lat": 38.893023166666666, "bike_id": "375c893ac2ba52d32d6db578f2cee9e2", "name": "375c893ac2ba52d32d6db578f2cee9e2", "is_reserved": 0, "fusion_lat": 0.0}, {"type": "electric_bike", "rental_uris": {"ios": "https://dc.lft.to/lastmile_qr_scan", "android": "https://dc.lft.to/lastmile_qr_scan"}, "lon": -77.07893316666667, "fusion_lon": 0.0, "is_disabled": 0, "lat": 38.839365, "bike_id": "176046b642a5c40e5ac8a0a5a756d5b9", "name": "176046b642a5c40e5ac8a0a5a756d5b9", "is_reserved": 0, "fusion_lat": 0.0}, {"type": "electric_scooter", "rental_uris": {"ios": "https://dc.lft.to/lastmile_qr_scan", "android": "https://dc.lft.to/lastmile_qr_scan"}, "lon": -76.97810166666666, "fusion_lon": 0.0, "is_disabled": 0, "lat": 38.894550333333335, "bike_id": "f0f0184cd8281cd0162d59a9f414a58e", "name": "f0f0184cd8281cd0162d59a9f414a58e", "is_reserved": 0, "fusion_lat": 0.0}, {"type": "electric_scooter", "rental_uris": {"ios": "https://dc.lft.to/lastmile_qr_scan", "android": "https://dc.lft.to/lastmile_qr_scan"}, "lon": -77.02510716666667, "fusion_lon": 0.0, "is_disabled": 0, "lat": 38.9197185, "bike_id": "60413ab65f930c78f9e83c80011c22e1", "name": "60413ab65f930c78f9e83c80011c22e1", "is_reserved": 0, "fusion_lat": 0.0}, {"type": "electric_bike", "rental_uris": {"ios": "https://dc.lft.to/lastmile_qr_scan", "android": "https://dc.lft.to/lastmile_qr_scan"}, "lon": -76.98214233333333, "fusion_lon": 0.0, "is_disabled": 0, "lat": 38.98509883333333, "bike_id": "7fa116fb0d257d88f6517654b54d8e47", "name": "7fa116fb0d257d88f6517654b54d8e47", "is_reserved": 0, "fusion_lat": 0.0}, {"type": "electric_bike", "rental_uris": {"ios": "https://dc.lft.to/lastmile_qr_scan", "android": "https://dc.lft.to/lastmile_qr_scan"}, "lon": -77.06860916666666, "fusion_lon": 0.0, "is_disabled": 0, "lat": 38.80577683333333, "bike_id": "91748457348f7de334aeb6ad363467e7", "name": "91748457348f7de334aeb6ad363467e7", "is_reserved": 0, "fusion_lat": 0.0}, {"type": "electric_scooter", "rental_uris": {"ios": "https://dc.lft.to/lastmile_qr_scan", "android": "https://dc.lft.to/lastmile_qr_scan"}, "lon": -77.02752216666667, "fusion_lon": 0.0, "is_disabled": 0, "lat": 38.927849333333334, "bike_id": "ed5b1172ad81af7ac827ce1e59b95e65", "name": "ed5b1172ad81af7ac827ce1e59b95e65", "is_reserved": 0, "fusion_lat": 0.0}, {"type": "electric_scooter", "rental_uris": {"ios": "https://dc.lft.to/lastmile_qr_scan", "android": "https://dc.lft.to/lastmile_qr_scan"}, "lon": -77.0210465, "fusion_lon": 0.0, "is_disabled": 0, "lat": 38.94576166666667, "bike_id": "6cf3821b378e9310c8962a64e483643c", "name": "6cf3821b378e9310c8962a64e483643c", "is_reserved": 0, "fusion_lat": 0.0}, {"type": "electric_scooter", "rental_uris": {"ios": "https://dc.lft.to/lastmile_qr_scan", "android": "https://dc.lft.to/lastmile_qr_scan"}, "lon": -77.02298, "fusion_lon": 0.0, "is_disabled": 0, "lat": 38.9166275, "bike_id": "be5e2e8cf39cf5d3c2e2d9d54ed280d3", "name": "be5e2e8cf39cf5d3c2e2d9d54ed280d3", "is_reserved": 0, "fusion_lat": 0.0}, {"type": "electric_bike", "rental_uris": {"ios": "https://dc.lft.to/lastmile_qr_scan", "android": "https://dc.lft.to/lastmile_qr_scan"}, "lon": -77.01032983333333, "fusion_lon": 0.0, "is_disabled": 0, "lat": 38.95880483333333, "bike_id": "d76eeaeae79a764127469e596bdcf5ab", "name": "d76eeaeae79a764127469e596bdcf5ab", "is_reserved": 0, "fusion_lat": 0.0}, {"type": "electric_scooter", "rental_uris": {"ios": "https://dc.lft.to/lastmile_qr_scan", "android": "https://dc.lft.to/lastmile_qr_scan"}, "lon": -77.0359195, "fusion_lon": 0.0, "is_disabled": 0, "lat": 38.9373695, "bike_id": "1b7070ad5c34e9b5647b68032981ef68", "name": "1b7070ad5c34e9b5647b68032981ef68", "is_reserved": 0, "fusion_lat": 0.0}, {"type": "electric_scooter", "rental_uris": {"ios": "https://dc.lft.to/lastmile_qr_scan", "android": "https://dc.lft.to/lastmile_qr_scan"}, "lon": -77.02157, "fusion_lon": 0.0, "is_disabled": 0, "lat": 38.93973183333333, "bike_id": "0600a7ec15639d0916d574a1a234aac1", "name": "0600a7ec15639d0916d574a1a234aac1", "is_reserved": 0, "fusion_lat": 0.0}, {"type": "electric_scooter", "rental_uris": {"ios": "https://dc.lft.to/lastmile_qr_scan", "android": "https://dc.lft.to/lastmile_qr_scan"}, "lon": -77.028909, "fusion_lon": 0.0, "is_disabled": 0, "lat": 38.9072415, "bike_id": "e1d01fd5d9c8908c3431bd412453a6ca", "name": "e1d01fd5d9c8908c3431bd412453a6ca", "is_reserved": 0, "fusion_lat": 0.0}, {"type": "electric_scooter", "rental_uris": {"ios": "https://dc.lft.to/lastmile_qr_scan", "android": "https://dc.lft.to/lastmile_qr_scan"}, "lon": -77.03219483333334, "fusion_lon": 0.0, "is_disabled": 0, "lat": 38.89226166666667, "bike_id": "abe0b13aeaee4b419ebb863005896042", "name": "abe0b13aeaee4b419ebb863005896042", "is_reserved": 0, "fusion_lat": 0.0}, {"type": "electric_scooter", "rental_uris": {"ios": "https://dc.lft.to/lastmile_qr_scan", "android": "https://dc.lft.to/lastmile_qr_scan"}, "lon": -77.02851033333333, "fusion_lon": 0.0, "is_disabled": 0, "lat": 38.925672666666664, "bike_id": "5db51335a332e4455b2588bc8b135086", "name": "5db51335a332e4455b2588bc8b135086", "is_reserved": 0, "fusion_lat": 0.0}, {"type": "electric_scooter", "rental_uris": {"ios": "https://dc.lft.to/lastmile_qr_scan", "android": "https://dc.lft.to/lastmile_qr_scan"}, "lon": -77.02098883333333, "fusion_lon": 0.0, "is_disabled": 0, "lat": 38.91079716666667, "bike_id": "b51bc3d8da03b72f8d62894bc0c31c62", "name": "b51bc3d8da03b72f8d62894bc0c31c62", "is_reserved": 0, "fusion_lat": 0.0}, {"type": "electric_scooter", "rental_uris": {"ios": "https://dc.lft.to/lastmile_qr_scan", "android": "https://dc.lft.to/lastmile_qr_scan"}, "lon": -77.0468795, "fusion_lon": 0.0, "is_disabled": 0, "lat": 38.897313833333335, "bike_id": "325a021779d232fc1a7c2f87ab307fee", "name": "325a021779d232fc1a7c2f87ab307fee", "is_reserved": 0, "fusion_lat": 0.0}, {"type": "electric_scooter", "rental_uris": {"ios": "https://dc.lft.to/lastmile_qr_scan", "android": "https://dc.lft.to/lastmile_qr_scan"}, "lon": -76.986153, "fusion_lon": 0.0, "is_disabled": 0, "lat": 38.88002766666666, "bike_id": "27e11b7eefd536749831e70b37980372", "name": "27e11b7eefd536749831e70b37980372", "is_reserved": 0, "fusion_lat": 0.0}, {"type": "electric_scooter", "rental_uris": {"ios": "https://dc.lft.to/lastmile_qr_scan", "android": "https://dc.lft.to/lastmile_qr_scan"}, "lon": -77.00305466666667, "fusion_lon": 0.0, "is_disabled": 0, "lat": 38.92478883333333, "bike_id": "5bbbd0c809426ad17726e33a111ab98a", "name": "5bbbd0c809426ad17726e33a111ab98a", "is_reserved": 0, "fusion_lat": 0.0}, {"type": "electric_scooter", "rental_uris": {"ios": "https://dc.lft.to/lastmile_qr_scan", "android": "https://dc.lft.to/lastmile_qr_scan"}, "lon": -76.95336333333333, "fusion_lon": 0.0, "is_disabled": 0, "lat": 38.892370166666666, "bike_id": "15875895d96fcdcc22dfdb8265730d2e", "name": "15875895d96fcdcc22dfdb8265730d2e", "is_reserved": 0, "fusion_lat": 0.0}, {"type": "electric_scooter", "rental_uris": {"ios": "https://dc.lft.to/lastmile_qr_scan", "android": "https://dc.lft.to/lastmile_qr_scan"}, "lon": -77.04173433333334, "fusion_lon": 0.0, "is_disabled": 0, "lat": 38.9173175, "bike_id": "f583e9075f7b7b9cb998b9dfdb852538", "name": "f583e9075f7b7b9cb998b9dfdb852538", "is_reserved": 0, "fusion_lat": 0.0}, {"type": "electric_scooter", "rental_uris": {"ios": "https://dc.lft.to/lastmile_qr_scan", "android": "https://dc.lft.to/lastmile_qr_scan"}, "lon": -77.04160416666667, "fusion_lon": 0.0, "is_disabled": 0, "lat": 38.91602, "bike_id": "62a3975bca716dcc2fdcc02cbd653ed9", "name": "62a3975bca716dcc2fdcc02cbd653ed9", "is_reserved": 0, "fusion_lat": 0.0}, {"type": "electric_scooter", "rental_uris": {"ios": "https://dc.lft.to/lastmile_qr_scan", "android": "https://dc.lft.to/lastmile_qr_scan"}, "lon": -77.01355066666666, "fusion_lon": 0.0, "is_disabled": 0, "lat": 38.8642265, "bike_id": "02db1a5bc49ffd8fee1a687517f035dd", "name": "02db1a5bc49ffd8fee1a687517f035dd", "is_reserved": 0, "fusion_lat": 0.0}, {"type": "electric_scooter", "rental_uris": {"ios": "https://dc.lft.to/lastmile_qr_scan", "android": "https://dc.lft.to/lastmile_qr_scan"}, "lon": -77.02190416666667, "fusion_lon": 0.0, "is_disabled": 0, "lat": 38.89879116666667, "bike_id": "e98477dab048e892a3ca7d76905093a0", "name": "e98477dab048e892a3ca7d76905093a0", "is_reserved": 0, "fusion_lat": 0.0}, {"type": "electric_scooter", "rental_uris": {"ios": "https://dc.lft.to/lastmile_qr_scan", "android": "https://dc.lft.to/lastmile_qr_scan"}, "lon": -77.02801483333333, "fusion_lon": 0.0, "is_disabled": 0, "lat": 38.9073605, "bike_id": "67d198ac2a7bce7fb027de8ec7c6b152", "name": "67d198ac2a7bce7fb027de8ec7c6b152", "is_reserved": 0, "fusion_lat": 0.0}, {"type": "electric_scooter", "rental_uris": {"ios": "https://dc.lft.to/lastmile_qr_scan", "android": "https://dc.lft.to/lastmile_qr_scan"}, "lon": -76.99515883333333, "fusion_lon": 0.0, "is_disabled": 0, "lat": 38.86256683333333, "bike_id": "9cc1a8cb721f4cfc138b04c71c269045", "name": "9cc1a8cb721f4cfc138b04c71c269045", "is_reserved": 0, "fusion_lat": 0.0}, {"type": "electric_scooter", "rental_uris": {"ios": "https://dc.lft.to/lastmile_qr_scan", "android": "https://dc.lft.to/lastmile_qr_scan"}, "lon": -77.02775216666667, "fusion_lon": 0.0, "is_disabled": 0, "lat": 38.89846983333333, "bike_id": "6b5c97bb9f3795a219636369e96d8218", "name": "6b5c97bb9f3795a219636369e96d8218", "is_reserved": 0, "fusion_lat": 0.0}, {"type": "electric_scooter", "rental_uris": {"ios": "https://dc.lft.to/lastmile_qr_scan", "android": "https://dc.lft.to/lastmile_qr_scan"}, "lon": -77.03438566666667, "fusion_lon": 0.0, "is_disabled": 0, "lat": 38.90830066666667, "bike_id": "5f71f2cc251e8d5d81ec23753c5d2666", "name": "5f71f2cc251e8d5d81ec23753c5d2666", "is_reserved": 0, "fusion_lat": 0.0}, {"type": "electric_scooter", "rental_uris": {"ios": "https://dc.lft.to/lastmile_qr_scan", "android": "https://dc.lft.to/lastmile_qr_scan"}, "lon": -77.0318195, "fusion_lon": 0.0, "is_disabled": 0, "lat": 38.892317, "bike_id": "f64c22508fb2fe777c0c62c424e6a70a", "name": "f64c22508fb2fe777c0c62c424e6a70a", "is_reserved": 0, "fusion_lat": 0.0}, {"type": "electric_scooter", "rental_uris": {"ios": "https://dc.lft.to/lastmile_qr_scan", "android": "https://dc.lft.to/lastmile_qr_scan"}, "lon": -77.03602233333334, "fusion_lon": 0.0, "is_disabled": 0, "lat": 38.907597833333334, "bike_id": "35c5a6b3eb68917e2ea05ab4e9d6f7ec", "name": "35c5a6b3eb68917e2ea05ab4e9d6f7ec", "is_reserved": 0, "fusion_lat": 0.0}, {"type": "electric_scooter", "rental_uris": {"ios": "https://dc.lft.to/lastmile_qr_scan", "android": "https://dc.lft.to/lastmile_qr_scan"}, "lon": -77.03853183333334, "fusion_lon": 0.0, "is_disabled": 0, "lat": 38.91552183333334, "bike_id": "2be949eb8b74199ced4295aba44b7c6e", "name": "2be949eb8b74199ced4295aba44b7c6e", "is_reserved": 0, "fusion_lat": 0.0}, {"type": "electric_scooter", "rental_uris": {"ios": "https://dc.lft.to/lastmile_qr_scan", "android": "https://dc.lft.to/lastmile_qr_scan"}, "lon": -77.02835833333333, "fusion_lon": 0.0, "is_disabled": 0, "lat": 38.892306166666664, "bike_id": "8203345b4187761029710650034725ca", "name": "8203345b4187761029710650034725ca", "is_reserved": 0, "fusion_lat": 0.0}, {"type": "electric_scooter", "rental_uris": {"ios": "https://dc.lft.to/lastmile_qr_scan", "android": "https://dc.lft.to/lastmile_qr_scan"}, "lon": -77.03159166666667, "fusion_lon": 0.0, "is_disabled": 0, "lat": 38.892233166666664, "bike_id": "9928fb783abacb0e9d294e5239b1d2ac", "name": "9928fb783abacb0e9d294e5239b1d2ac", "is_reserved": 0, "fusion_lat": 0.0}, {"type": "electric_scooter", "rental_uris": {"ios": "https://dc.lft.to/lastmile_qr_scan", "android": "https://dc.lft.to/lastmile_qr_scan"}, "lon": -77.0512945, "fusion_lon": 0.0, "is_disabled": 0, "lat": 38.92364383333334, "bike_id": "4af870902a4f4781dfa50b3de0397c73", "name": "4af870902a4f4781dfa50b3de0397c73", "is_reserved": 0, "fusion_lat": 0.0}, {"type": "electric_scooter", "rental_uris": {"ios": "https://dc.lft.to/lastmile_qr_scan", "android": "https://dc.lft.to/lastmile_qr_scan"}, "lon": -77.03424116666666, "fusion_lon": 0.0, "is_disabled": 0, "lat": 38.90974966666667, "bike_id": "d39da3249dcf73c5150a79d47dee621d", "name": "d39da3249dcf73c5150a79d47dee621d", "is_reserved": 0, "fusion_lat": 0.0}, {"type": "electric_scooter", "rental_uris": {"ios": "https://dc.lft.to/lastmile_qr_scan", "android": "https://dc.lft.to/lastmile_qr_scan"}, "lon": -77.018553, "fusion_lon": 0.0, "is_disabled": 0, "lat": 38.97370266666667, "bike_id": "51fc836a4812f75a9836cdc8d34f9161", "name": "51fc836a4812f75a9836cdc8d34f9161", "is_reserved": 0, "fusion_lat": 0.0}, {"type": "electric_scooter", "rental_uris": {"ios": "https://dc.lft.to/lastmile_qr_scan", "android": "https://dc.lft.to/lastmile_qr_scan"}, "lon": -76.99498783333334, "fusion_lon": 0.0, "is_disabled": 0, "lat": 38.862436, "bike_id": "2dedca1cc51038c08c3f4ecc76a1f7c4", "name": "2dedca1cc51038c08c3f4ecc76a1f7c4", "is_reserved": 0, "fusion_lat": 0.0}, {"type": "electric_scooter", "rental_uris": {"ios": "https://dc.lft.to/lastmile_qr_scan", "android": "https://dc.lft.to/lastmile_qr_scan"}, "lon": -77.0382795, "fusion_lon": 0.0, "is_disabled": 0, "lat": 38.9112435, "bike_id": "f3164ef4581e743161f2daf72610847f", "name": "f3164ef4581e743161f2daf72610847f", "is_reserved": 0, "fusion_lat": 0.0}, {"type": "electric_scooter", "rental_uris": {"ios": "https://dc.lft.to/lastmile_qr_scan", "android": "https://dc.lft.to/lastmile_qr_scan"}, "lon": -77.02508783333333, "fusion_lon": 0.0, "is_disabled": 0, "lat": 38.93756916666667, "bike_id": "669bf034d077afd529fc43846577c383", "name": "669bf034d077afd529fc43846577c383", "is_reserved": 0, "fusion_lat": 0.0}, {"type": "electric_scooter", "rental_uris": {"ios": "https://dc.lft.to/lastmile_qr_scan", "android": "https://dc.lft.to/lastmile_qr_scan"}, "lon": -77.04122216666667, "fusion_lon": 0.0, "is_disabled": 0, "lat": 38.917101, "bike_id": "95f7681b176e7a92db4e27c87f451760", "name": "95f7681b176e7a92db4e27c87f451760", "is_reserved": 0, "fusion_lat": 0.0}, {"type": "electric_scooter", "rental_uris": {"ios": "https://dc.lft.to/lastmile_qr_scan", "android": "https://dc.lft.to/lastmile_qr_scan"}, "lon": -77.04012233333333, "fusion_lon": 0.0, "is_disabled": 0, "lat": 38.924462166666665, "bike_id": "515717d73a030ea441773e15724ffbfa", "name": "515717d73a030ea441773e15724ffbfa", "is_reserved": 0, "fusion_lat": 0.0}, {"type": "electric_scooter", "rental_uris": {"ios": "https://dc.lft.to/lastmile_qr_scan", "android": "https://dc.lft.to/lastmile_qr_scan"}, "lon": -77.05562866666666, "fusion_lon": 0.0, "is_disabled": 0, "lat": 38.90002633333334, "bike_id": "39ab0a4e1bdada3cab59c086075a7f99", "name": "39ab0a4e1bdada3cab59c086075a7f99", "is_reserved": 0, "fusion_lat": 0.0}, {"type": "electric_bike", "rental_uris": {"ios": "https://dc.lft.to/lastmile_qr_scan", "android": "https://dc.lft.to/lastmile_qr_scan"}, "lon": -77.081196, "fusion_lon": 0.0, "is_disabled": 0, "lat": 38.806847166666664, "bike_id": "3e22771ba0190a565a377b880b4d0d53", "name": "3e22771ba0190a565a377b880b4d0d53", "is_reserved": 0, "fusion_lat": 0.0}, {"type": "electric_scooter", "rental_uris": {"ios": "https://dc.lft.to/lastmile_qr_scan", "android": "https://dc.lft.to/lastmile_qr_scan"}, "lon": -77.03222783333334, "fusion_lon": 0.0, "is_disabled": 0, "lat": 38.918482, "bike_id": "5d0e21b10e18015a19c7bccdb9a5be25", "name": "5d0e21b10e18015a19c7bccdb9a5be25", "is_reserved": 0, "fusion_lat": 0.0}, {"type": "electric_scooter", "rental_uris": {"ios": "https://dc.lft.to/lastmile_qr_scan", "android": "https://dc.lft.to/lastmile_qr_scan"}, "lon": -77.00462983333334, "fusion_lon": 0.0, "is_disabled": 0, "lat": 38.8766125, "bike_id": "3eb9423fea4d296bdde05e06f01037ea", "name": "3eb9423fea4d296bdde05e06f01037ea", "is_reserved": 0, "fusion_lat": 0.0}, {"type": "electric_scooter", "rental_uris": {"ios": "https://dc.lft.to/lastmile_qr_scan", "android": "https://dc.lft.to/lastmile_qr_scan"}, "lon": -77.0386675, "fusion_lon": 0.0, "is_disabled": 0, "lat": 38.91264733333333, "bike_id": "0733b5a2e1cc0c17dcc535ef6d248269", "name": "0733b5a2e1cc0c17dcc535ef6d248269", "is_reserved": 0, "fusion_lat": 0.0}, {"type": "electric_scooter", "rental_uris": {"ios": "https://dc.lft.to/lastmile_qr_scan", "android": "https://dc.lft.to/lastmile_qr_scan"}, "lon": -77.03185616666667, "fusion_lon": 0.0, "is_disabled": 0, "lat": 38.90979316666667, "bike_id": "5f7ff766e3db34060b480630f6a57ce9", "name": "5f7ff766e3db34060b480630f6a57ce9", "is_reserved": 0, "fusion_lat": 0.0}, {"type": "electric_scooter", "rental_uris": {"ios": "https://dc.lft.to/lastmile_qr_scan", "android": "https://dc.lft.to/lastmile_qr_scan"}, "lon": -77.0364035, "fusion_lon": 0.0, "is_disabled": 0, "lat": 38.913161, "bike_id": "904ad0a6c043cc1c8a7d627fc1283c3a", "name": "904ad0a6c043cc1c8a7d627fc1283c3a", "is_reserved": 0, "fusion_lat": 0.0}, {"type": "electric_bike", "rental_uris": {"ios": "https://dc.lft.to/lastmile_qr_scan", "android": "https://dc.lft.to/lastmile_qr_scan"}, "lon": -76.916042, "fusion_lon": 0.0, "is_disabled": 0, "lat": 38.87974233333333, "bike_id": "22e646eeccee1d6cc84f5e80dcb16064", "name": "22e646eeccee1d6cc84f5e80dcb16064", "is_reserved": 0, "fusion_lat": 0.0}, {"type": "electric_scooter", "rental_uris": {"ios": "https://dc.lft.to/lastmile_qr_scan", "android": "https://dc.lft.to/lastmile_qr_scan"}, "lon": -77.02694766666667, "fusion_lon": 0.0, "is_disabled": 0, "lat": 38.92569483333333, "bike_id": "0140f20d7cfcec281b13c7c4fec9b480", "name": "0140f20d7cfcec281b13c7c4fec9b480", "is_reserved": 0, "fusion_lat": 0.0}, {"type": "electric_scooter", "rental_uris": {"ios": "https://dc.lft.to/lastmile_qr_scan", "android": "https://dc.lft.to/lastmile_qr_scan"}, "lon": -77.023366, "fusion_lon": 0.0, "is_disabled": 0, "lat": 38.917872333333335, "bike_id": "ff71418ee3a71c978efbb08b5f6c194d", "name": "ff71418ee3a71c978efbb08b5f6c194d", "is_reserved": 0, "fusion_lat": 0.0}, {"type": "electric_scooter", "rental_uris": {"ios": "https://dc.lft.to/lastmile_qr_scan", "android": "https://dc.lft.to/lastmile_qr_scan"}, "lon": -77.04900116666667, "fusion_lon": 0.0, "is_disabled": 0, "lat": 38.89227, "bike_id": "9925b46e06f27841fa2dc418077f6eb4", "name": "9925b46e06f27841fa2dc418077f6eb4", "is_reserved": 0, "fusion_lat": 0.0}, {"type": "electric_bike", "rental_uris": {"ios": "https://dc.lft.to/lastmile_qr_scan", "android": "https://dc.lft.to/lastmile_qr_scan"}, "lon": -77.01209883333334, "fusion_lon": 0.0, "is_disabled": 0, "lat": 38.87091783333334, "bike_id": "3018bb113e1a4e3499bae3ad29e39ac7", "name": "3018bb113e1a4e3499bae3ad29e39ac7", "is_reserved": 0, "fusion_lat": 0.0}, {"type": "electric_scooter", "rental_uris": {"ios": "https://dc.lft.to/lastmile_qr_scan", "android": "https://dc.lft.to/lastmile_qr_scan"}, "lon": -76.98022766666666, "fusion_lon": 0.0, "is_disabled": 0, "lat": 38.90131733333333, "bike_id": "5f54e4a82d58b1bbf4222149652beeb8", "name": "5f54e4a82d58b1bbf4222149652beeb8", "is_reserved": 0, "fusion_lat": 0.0}, {"type": "electric_bike", "rental_uris": {"ios": "https://dc.lft.to/lastmile_qr_scan", "android": "https://dc.lft.to/lastmile_qr_scan"}, "lon": -77.00911983333333, "fusion_lon": 0.0, "is_disabled": 0, "lat": 38.8278565, "bike_id": "7df38425e30bd1e822e6570c4cdfc92d", "name": "7df38425e30bd1e822e6570c4cdfc92d", "is_reserved": 0, "fusion_lat": 0.0}, {"type": "electric_scooter", "rental_uris": {"ios": "https://dc.lft.to/lastmile_qr_scan", "android": "https://dc.lft.to/lastmile_qr_scan"}, "lon": -77.02763833333333, "fusion_lon": 0.0, "is_disabled": 0, "lat": 38.9562045, "bike_id": "1329909d97d792e7089f780d38dfe8cd", "name": "1329909d97d792e7089f780d38dfe8cd", "is_reserved": 0, "fusion_lat": 0.0}, {"type": "electric_scooter", "rental_uris": {"ios": "https://dc.lft.to/lastmile_qr_scan", "android": "https://dc.lft.to/lastmile_qr_scan"}, "lon": -77.05128616666667, "fusion_lon": 0.0, "is_disabled": 0, "lat": 38.923641, "bike_id": "34cc2482382809c88ce58b1d211d917d", "name": "34cc2482382809c88ce58b1d211d917d", "is_reserved": 0, "fusion_lat": 0.0}, {"type": "electric_scooter", "rental_uris": {"ios": "https://dc.lft.to/lastmile_qr_scan", "android": "https://dc.lft.to/lastmile_qr_scan"}, "lon": -77.01103216666667, "fusion_lon": 0.0, "is_disabled": 0, "lat": 38.893496999999996, "bike_id": "e29e7e69209d328163b3071679abd6e1", "name": "e29e7e69209d328163b3071679abd6e1", "is_reserved": 0, "fusion_lat": 0.0}, {"type": "electric_scooter", "rental_uris": {"ios": "https://dc.lft.to/lastmile_qr_scan", "android": "https://dc.lft.to/lastmile_qr_scan"}, "lon": -76.9921215, "fusion_lon": 0.0, "is_disabled": 0, "lat": 38.89517816666667, "bike_id": "3f03ae1adfdb4f2591b331ca6a4c6741", "name": "3f03ae1adfdb4f2591b331ca6a4c6741", "is_reserved": 0, "fusion_lat": 0.0}, {"type": "electric_scooter", "rental_uris": {"ios": "https://dc.lft.to/lastmile_qr_scan", "android": "https://dc.lft.to/lastmile_qr_scan"}, "lon": -76.98313516666667, "fusion_lon": 0.0, "is_disabled": 0, "lat": 38.8689245, "bike_id": "197d7a7673f110fd182aaf9f32d4d625", "name": "197d7a7673f110fd182aaf9f32d4d625", "is_reserved": 0, "fusion_lat": 0.0}, {"type": "electric_scooter", "rental_uris": {"ios": "https://dc.lft.to/lastmile_qr_scan", "android": "https://dc.lft.to/lastmile_qr_scan"}, "lon": -77.01744416666666, "fusion_lon": 0.0, "is_disabled": 0, "lat": 38.902577, "bike_id": "9aab67ed566f13f73389788798bd3496", "name": "9aab67ed566f13f73389788798bd3496", "is_reserved": 0, "fusion_lat": 0.0}, {"type": "electric_scooter", "rental_uris": {"ios": "https://dc.lft.to/lastmile_qr_scan", "android": "https://dc.lft.to/lastmile_qr_scan"}, "lon": -76.99032333333334, "fusion_lon": 0.0, "is_disabled": 0, "lat": 38.89853133333333, "bike_id": "1169be3d162900d5ef5ca055e068b0f3", "name": "1169be3d162900d5ef5ca055e068b0f3", "is_reserved": 0, "fusion_lat": 0.0}, {"type": "electric_scooter", "rental_uris": {"ios": "https://dc.lft.to/lastmile_qr_scan", "android": "https://dc.lft.to/lastmile_qr_scan"}, "lon": -77.0797645, "fusion_lon": 0.0, "is_disabled": 0, "lat": 38.9195205, "bike_id": "b1cff54093f2d7a41d85cb947f717e6d", "name": "b1cff54093f2d7a41d85cb947f717e6d", "is_reserved": 0, "fusion_lat": 0.0}, {"type": "electric_scooter", "rental_uris": {"ios": "https://dc.lft.to/lastmile_qr_scan", "android": "https://dc.lft.to/lastmile_qr_scan"}, "lon": -76.997808, "fusion_lon": 0.0, "is_disabled": 0, "lat": 38.844331833333335, "bike_id": "4318874da013f3eab0a639c0d81cdcdb", "name": "4318874da013f3eab0a639c0d81cdcdb", "is_reserved": 0, "fusion_lat": 0.0}, {"type": "electric_scooter", "rental_uris": {"ios": "https://dc.lft.to/lastmile_qr_scan", "android": "https://dc.lft.to/lastmile_qr_scan"}, "lon": -76.9317805, "fusion_lon": 0.0, "is_disabled": 0, "lat": 38.89886816666667, "bike_id": "5d2b9033fe9b597859d910b8225067ef", "name": "5d2b9033fe9b597859d910b8225067ef", "is_reserved": 0, "fusion_lat": 0.0}, {"type": "electric_scooter", "rental_uris": {"ios": "https://dc.lft.to/lastmile_qr_scan", "android": "https://dc.lft.to/lastmile_qr_scan"}, "lon": -77.0282545, "fusion_lon": 0.0, "is_disabled": 0, "lat": 38.887361166666665, "bike_id": "44afd2cb139a9c8e4b181c6120c98733", "name": "44afd2cb139a9c8e4b181c6120c98733", "is_reserved": 0, "fusion_lat": 0.0}, {"type": "electric_scooter", "rental_uris": {"ios": "https://dc.lft.to/lastmile_qr_scan", "android": "https://dc.lft.to/lastmile_qr_scan"}, "lon": -77.02167416666667, "fusion_lon": 0.0, "is_disabled": 0, "lat": 38.91434433333333, "bike_id": "a8c21514b4898aece5d7ef3f4cda4923", "name": "a8c21514b4898aece5d7ef3f4cda4923", "is_reserved": 0, "fusion_lat": 0.0}, {"type": "electric_scooter", "rental_uris": {"ios": "https://dc.lft.to/lastmile_qr_scan", "android": "https://dc.lft.to/lastmile_qr_scan"}, "lon": -77.02420216666667, "fusion_lon": 0.0, "is_disabled": 0, "lat": 38.92293633333333, "bike_id": "ccd8b2d69e686952835bc16afc282549", "name": "ccd8b2d69e686952835bc16afc282549", "is_reserved": 0, "fusion_lat": 0.0}, {"type": "electric_scooter", "rental_uris": {"ios": "https://dc.lft.to/lastmile_qr_scan", "android": "https://dc.lft.to/lastmile_qr_scan"}, "lon": -77.02989183333334, "fusion_lon": 0.0, "is_disabled": 0, "lat": 38.920427, "bike_id": "84c3a17342e763a6bf69962bb4c71a15", "name": "84c3a17342e763a6bf69962bb4c71a15", "is_reserved": 0, "fusion_lat": 0.0}, {"type": "electric_scooter", "rental_uris": {"ios": "https://dc.lft.to/lastmile_qr_scan", "android": "https://dc.lft.to/lastmile_qr_scan"}, "lon": -77.03863, "fusion_lon": 0.0, "is_disabled": 0, "lat": 38.909754166666666, "bike_id": "7894d5296f3ee5fd43818b94e8f0d046", "name": "7894d5296f3ee5fd43818b94e8f0d046", "is_reserved": 0, "fusion_lat": 0.0}, {"type": "electric_scooter", "rental_uris": {"ios": "https://dc.lft.to/lastmile_qr_scan", "android": "https://dc.lft.to/lastmile_qr_scan"}, "lon": -77.04445666666666, "fusion_lon": 0.0, "is_disabled": 0, "lat": 38.930274, "bike_id": "474264382e42f1d2ba4dbe451d699195", "name": "474264382e42f1d2ba4dbe451d699195", "is_reserved": 0, "fusion_lat": 0.0}, {"type": "electric_scooter", "rental_uris": {"ios": "https://dc.lft.to/lastmile_qr_scan", "android": "https://dc.lft.to/lastmile_qr_scan"}, "lon": -77.03164583333333, "fusion_lon": 0.0, "is_disabled": 0, "lat": 38.892228, "bike_id": "174c1ebd28849b7d056323e5a84cf79c", "name": "174c1ebd28849b7d056323e5a84cf79c", "is_reserved": 0, "fusion_lat": 0.0}, {"type": "electric_scooter", "rental_uris": {"ios": "https://dc.lft.to/lastmile_qr_scan", "android": "https://dc.lft.to/lastmile_qr_scan"}, "lon": -76.989849, "fusion_lon": 0.0, "is_disabled": 0, "lat": 38.864984166666666, "bike_id": "571e2e3516214bc22700d50696c3f0f8", "name": "571e2e3516214bc22700d50696c3f0f8", "is_reserved": 0, "fusion_lat": 0.0}, {"type": "electric_scooter", "rental_uris": {"ios": "https://dc.lft.to/lastmile_qr_scan", "android": "https://dc.lft.to/lastmile_qr_scan"}, "lon": -77.03166633333333, "fusion_lon": 0.0, "is_disabled": 0, "lat": 38.892238166666665, "bike_id": "fec4a56eea38fff81461d8273bb19a7d", "name": "fec4a56eea38fff81461d8273bb19a7d", "is_reserved": 0, "fusion_lat": 0.0}, {"type": "electric_scooter", "rental_uris": {"ios": "https://dc.lft.to/lastmile_qr_scan", "android": "https://dc.lft.to/lastmile_qr_scan"}, "lon": -77.03213466666666, "fusion_lon": 0.0, "is_disabled": 0, "lat": 38.9172035, "bike_id": "de1cb35b152c7072fb275ad76e9ce0ae", "name": "de1cb35b152c7072fb275ad76e9ce0ae", "is_reserved": 0, "fusion_lat": 0.0}, {"type": "electric_scooter", "rental_uris": {"ios": "https://dc.lft.to/lastmile_qr_scan", "android": "https://dc.lft.to/lastmile_qr_scan"}, "lon": -77.01205133333333, "fusion_lon": 0.0, "is_disabled": 0, "lat": 38.903111333333335, "bike_id": "32039cd0df57b4d51e132f65f0e8de91", "name": "32039cd0df57b4d51e132f65f0e8de91", "is_reserved": 0, "fusion_lat": 0.0}, {"type": "electric_scooter", "rental_uris": {"ios": "https://dc.lft.to/lastmile_qr_scan", "android": "https://dc.lft.to/lastmile_qr_scan"}, "lon": -76.9398845, "fusion_lon": 0.0, "is_disabled": 0, "lat": 38.899831166666665, "bike_id": "d68c20c6209033a259ca999112a14f38", "name": "d68c20c6209033a259ca999112a14f38", "is_reserved": 0, "fusion_lat": 0.0}, {"type": "electric_scooter", "rental_uris": {"ios": "https://dc.lft.to/lastmile_qr_scan", "android": "https://dc.lft.to/lastmile_qr_scan"}, "lon": -77.00461083333333, "fusion_lon": 0.0, "is_disabled": 0, "lat": 38.911716, "bike_id": "3e4fcafb7acdf6fc4220ee705e74b54b", "name": "3e4fcafb7acdf6fc4220ee705e74b54b", "is_reserved": 0, "fusion_lat": 0.0}, {"type": "electric_scooter", "rental_uris": {"ios": "https://dc.lft.to/lastmile_qr_scan", "android": "https://dc.lft.to/lastmile_qr_scan"}, "lon": -77.07001116666666, "fusion_lon": 0.0, "is_disabled": 0, "lat": 38.9524715, "bike_id": "497e697045829674e672740dde05415c", "name": "497e697045829674e672740dde05415c", "is_reserved": 0, "fusion_lat": 0.0}, {"type": "electric_bike", "rental_uris": {"ios": "https://dc.lft.to/lastmile_qr_scan", "android": "https://dc.lft.to/lastmile_qr_scan"}, "lon": -77.11216866666666, "fusion_lon": 0.0, "is_disabled": 0, "lat": 38.828764, "bike_id": "735e78baea9bf587f5ec2e30303d4fff", "name": "735e78baea9bf587f5ec2e30303d4fff", "is_reserved": 0, "fusion_lat": 0.0}, {"type": "electric_scooter", "rental_uris": {"ios": "https://dc.lft.to/lastmile_qr_scan", "android": "https://dc.lft.to/lastmile_qr_scan"}, "lon": -77.040144, "fusion_lon": 0.0, "is_disabled": 0, "lat": 38.94192666666667, "bike_id": "02b5a5f40850920800cf452864a73234", "name": "02b5a5f40850920800cf452864a73234", "is_reserved": 0, "fusion_lat": 0.0}, {"type": "electric_bike", "rental_uris": {"ios": "https://dc.lft.to/lastmile_qr_scan", "android": "https://dc.lft.to/lastmile_qr_scan"}, "lon": -77.08846533333333, "fusion_lon": 0.0, "is_disabled": 0, "lat": 38.966886833333334, "bike_id": "390432fecb50d7eeb6c604b81ab056df", "name": "390432fecb50d7eeb6c604b81ab056df", "is_reserved": 0, "fusion_lat": 0.0}, {"type": "electric_scooter", "rental_uris": {"ios": "https://dc.lft.to/lastmile_qr_scan", "android": "https://dc.lft.to/lastmile_qr_scan"}, "lon": -77.0155445, "fusion_lon": 0.0, "is_disabled": 0, "lat": 38.8799285, "bike_id": "1bc31ebb3d940cbe3d78119473985ce2", "name": "1bc31ebb3d940cbe3d78119473985ce2", "is_reserved": 0, "fusion_lat": 0.0}, {"type": "electric_scooter", "rental_uris": {"ios": "https://dc.lft.to/lastmile_qr_scan", "android": "https://dc.lft.to/lastmile_qr_scan"}, "lon": -77.02614033333333, "fusion_lon": 0.0, "is_disabled": 0, "lat": 38.93082483333333, "bike_id": "dff6af95895e36596af0768d372b6470", "name": "dff6af95895e36596af0768d372b6470", "is_reserved": 0, "fusion_lat": 0.0}, {"type": "electric_scooter", "rental_uris": {"ios": "https://dc.lft.to/lastmile_qr_scan", "android": "https://dc.lft.to/lastmile_qr_scan"}, "lon": -77.00764916666667, "fusion_lon": 0.0, "is_disabled": 0, "lat": 38.907094666666666, "bike_id": "463a132a126927dd8562ee36d0cce014", "name": "463a132a126927dd8562ee36d0cce014", "is_reserved": 0, "fusion_lat": 0.0}, {"type": "electric_bike", "rental_uris": {"ios": "https://dc.lft.to/lastmile_qr_scan", "android": "https://dc.lft.to/lastmile_qr_scan"}, "lon": -76.98814366666667, "fusion_lon": 0.0, "is_disabled": 0, "lat": 38.911396833333335, "bike_id": "57a06115e2339035b01bf45784c087d7", "name": "57a06115e2339035b01bf45784c087d7", "is_reserved": 0, "fusion_lat": 0.0}, {"type": "electric_scooter", "rental_uris": {"ios": "https://dc.lft.to/lastmile_qr_scan", "android": "https://dc.lft.to/lastmile_qr_scan"}, "lon": -77.04156516666667, "fusion_lon": 0.0, "is_disabled": 0, "lat": 38.9341995, "bike_id": "15e74a28a624d71697a848ba232199b6", "name": "15e74a28a624d71697a848ba232199b6", "is_reserved": 0, "fusion_lat": 0.0}, {"type": "electric_scooter", "rental_uris": {"ios": "https://dc.lft.to/lastmile_qr_scan", "android": "https://dc.lft.to/lastmile_qr_scan"}, "lon": -77.03644116666666, "fusion_lon": 0.0, "is_disabled": 0, "lat": 38.91615866666667, "bike_id": "efb284853ffedb5011e1bb2ca48c6b86", "name": "efb284853ffedb5011e1bb2ca48c6b86", "is_reserved": 0, "fusion_lat": 0.0}, {"type": "electric_scooter", "rental_uris": {"ios": "https://dc.lft.to/lastmile_qr_scan", "android": "https://dc.lft.to/lastmile_qr_scan"}, "lon": -77.02693416666666, "fusion_lon": 0.0, "is_disabled": 0, "lat": 38.91127783333334, "bike_id": "c20c0e28fc93fd2772964675e3f682bb", "name": "c20c0e28fc93fd2772964675e3f682bb", "is_reserved": 0, "fusion_lat": 0.0}, {"type": "electric_bike", "rental_uris": {"ios": "https://dc.lft.to/lastmile_qr_scan", "android": "https://dc.lft.to/lastmile_qr_scan"}, "lon": -77.12020666666666, "fusion_lon": 0.0, "is_disabled": 0, "lat": 38.854881166666665, "bike_id": "6c048cff8f7de1a7e508a303e3131e94", "name": "6c048cff8f7de1a7e508a303e3131e94", "is_reserved": 0, "fusion_lat": 0.0}, {"type": "electric_scooter", "rental_uris": {"ios": "https://dc.lft.to/lastmile_qr_scan", "android": "https://dc.lft.to/lastmile_qr_scan"}, "lon": -77.02142816666667, "fusion_lon": 0.0, "is_disabled": 0, "lat": 38.88640266666667, "bike_id": "eb3dd392baddf09adab497634909d39d", "name": "eb3dd392baddf09adab497634909d39d", "is_reserved": 0, "fusion_lat": 0.0}, {"type": "electric_scooter", "rental_uris": {"ios": "https://dc.lft.to/lastmile_qr_scan", "android": "https://dc.lft.to/lastmile_qr_scan"}, "lon": -77.037806, "fusion_lon": 0.0, "is_disabled": 0, "lat": 38.9302495, "bike_id": "d63ba19b2c58d5a521c4b2b8b12cf1f8", "name": "d63ba19b2c58d5a521c4b2b8b12cf1f8", "is_reserved": 0, "fusion_lat": 0.0}, {"type": "electric_bike", "rental_uris": {"ios": "https://dc.lft.to/lastmile_qr_scan", "android": "https://dc.lft.to/lastmile_qr_scan"}, "lon": -77.11618233333333, "fusion_lon": 0.0, "is_disabled": 0, "lat": 38.8549255, "bike_id": "c5b00624e3d291066bdea5757245cee8", "name": "c5b00624e3d291066bdea5757245cee8", "is_reserved": 0, "fusion_lat": 0.0}, {"type": "electric_scooter", "rental_uris": {"ios": "https://dc.lft.to/lastmile_qr_scan", "android": "https://dc.lft.to/lastmile_qr_scan"}, "lon": -76.98181266666667, "fusion_lon": 0.0, "is_disabled": 0, "lat": 38.895838499999996, "bike_id": "4706a3c0c82d7c61067ceaf42edb3dd2", "name": "4706a3c0c82d7c61067ceaf42edb3dd2", "is_reserved": 0, "fusion_lat": 0.0}, {"type": "electric_bike", "rental_uris": {"ios": "https://dc.lft.to/lastmile_qr_scan", "android": "https://dc.lft.to/lastmile_qr_scan"}, "lon": -77.1248505, "fusion_lon": 0.0, "is_disabled": 0, "lat": 38.85396583333333, "bike_id": "f8e3e7958dcd6f1c182453dbbac5c90d", "name": "f8e3e7958dcd6f1c182453dbbac5c90d", "is_reserved": 0, "fusion_lat": 0.0}, {"type": "electric_scooter", "rental_uris": {"ios": "https://dc.lft.to/lastmile_qr_scan", "android": "https://dc.lft.to/lastmile_qr_scan"}, "lon": -77.04690533333333, "fusion_lon": 0.0, "is_disabled": 0, "lat": 38.897318166666665, "bike_id": "4b66df5dcd4b9577de2a1a6bcc5310aa", "name": "4b66df5dcd4b9577de2a1a6bcc5310aa", "is_reserved": 0, "fusion_lat": 0.0}, {"type": "electric_bike", "rental_uris": {"ios": "https://dc.lft.to/lastmile_qr_scan", "android": "https://dc.lft.to/lastmile_qr_scan"}, "lon": -76.97530416666666, "fusion_lon": 0.0, "is_disabled": 0, "lat": 38.84013683333333, "bike_id": "b3d0c1469ab8080b58b967bc7141604e", "name": "b3d0c1469ab8080b58b967bc7141604e", "is_reserved": 0, "fusion_lat": 0.0}, {"type": "electric_scooter", "rental_uris": {"ios": "https://dc.lft.to/lastmile_qr_scan", "android": "https://dc.lft.to/lastmile_qr_scan"}, "lon": -77.03190833333333, "fusion_lon": 0.0, "is_disabled": 0, "lat": 38.8962375, "bike_id": "532353960e12b6518546176c05b0443c", "name": "532353960e12b6518546176c05b0443c", "is_reserved": 0, "fusion_lat": 0.0}, {"type": "electric_bike", "rental_uris": {"ios": "https://dc.lft.to/lastmile_qr_scan", "android": "https://dc.lft.to/lastmile_qr_scan"}, "lon": -77.02430116666666, "fusion_lon": 0.0, "is_disabled": 0, "lat": 38.8969275, "bike_id": "fff881d57235f1f5fbac4bb1c1129f0e", "name": "fff881d57235f1f5fbac4bb1c1129f0e", "is_reserved": 0, "fusion_lat": 0.0}, {"type": "electric_scooter", "rental_uris": {"ios": "https://dc.lft.to/lastmile_qr_scan", "android": "https://dc.lft.to/lastmile_qr_scan"}, "lon": -77.03030316666667, "fusion_lon": 0.0, "is_disabled": 0, "lat": 38.9311825, "bike_id": "94dacf0f23e2dc410a66a717fd427706", "name": "94dacf0f23e2dc410a66a717fd427706", "is_reserved": 0, "fusion_lat": 0.0}, {"type": "electric_scooter", "rental_uris": {"ios": "https://dc.lft.to/lastmile_qr_scan", "android": "https://dc.lft.to/lastmile_qr_scan"}, "lon": -76.9951995, "fusion_lon": 0.0, "is_disabled": 0, "lat": 38.88373283333333, "bike_id": "4b6c787b95ba2d5e3ee3ed578c0b7a24", "name": "4b6c787b95ba2d5e3ee3ed578c0b7a24", "is_reserved": 0, "fusion_lat": 0.0}, {"type": "electric_scooter", "rental_uris": {"ios": "https://dc.lft.to/lastmile_qr_scan", "android": "https://dc.lft.to/lastmile_qr_scan"}, "lon": -77.034764, "fusion_lon": 0.0, "is_disabled": 0, "lat": 38.90962183333333, "bike_id": "f40c24fd7d99fa6f35d829d1811a74c8", "name": "f40c24fd7d99fa6f35d829d1811a74c8", "is_reserved": 0, "fusion_lat": 0.0}, {"type": "electric_scooter", "rental_uris": {"ios": "https://dc.lft.to/lastmile_qr_scan", "android": "https://dc.lft.to/lastmile_qr_scan"}, "lon": -77.04005466666666, "fusion_lon": 0.0, "is_disabled": 0, "lat": 38.90781166666667, "bike_id": "3e4199068b540af7a95cd9c7b7bf20e0", "name": "3e4199068b540af7a95cd9c7b7bf20e0", "is_reserved": 0, "fusion_lat": 0.0}, {"type": "electric_scooter", "rental_uris": {"ios": "https://dc.lft.to/lastmile_qr_scan", "android": "https://dc.lft.to/lastmile_qr_scan"}, "lon": -77.00117966666667, "fusion_lon": 0.0, "is_disabled": 0, "lat": 38.91703783333333, "bike_id": "75e937f3e7d2a88badf48fd4c1eeab66", "name": "75e937f3e7d2a88badf48fd4c1eeab66", "is_reserved": 0, "fusion_lat": 0.0}, {"type": "electric_scooter", "rental_uris": {"ios": "https://dc.lft.to/lastmile_qr_scan", "android": "https://dc.lft.to/lastmile_qr_scan"}, "lon": -77.02496, "fusion_lon": 0.0, "is_disabled": 0, "lat": 38.91809116666667, "bike_id": "769ec66020e73068536220239b2387f6", "name": "769ec66020e73068536220239b2387f6", "is_reserved": 0, "fusion_lat": 0.0}, {"type": "electric_scooter", "rental_uris": {"ios": "https://dc.lft.to/lastmile_qr_scan", "android": "https://dc.lft.to/lastmile_qr_scan"}, "lon": -77.022929, "fusion_lon": 0.0, "is_disabled": 0, "lat": 38.9164915, "bike_id": "c4f658796bedf4f6f2f6faa265c3ff4c", "name": "c4f658796bedf4f6f2f6faa265c3ff4c", "is_reserved": 0, "fusion_lat": 0.0}, {"type": "electric_scooter", "rental_uris": {"ios": "https://dc.lft.to/lastmile_qr_scan", "android": "https://dc.lft.to/lastmile_qr_scan"}, "lon": -77.03410866666667, "fusion_lon": 0.0, "is_disabled": 0, "lat": 38.919252, "bike_id": "6dac03a01c6e9e3abf2e41f8bc681c94", "name": "6dac03a01c6e9e3abf2e41f8bc681c94", "is_reserved": 0, "fusion_lat": 0.0}, {"type": "electric_scooter", "rental_uris": {"ios": "https://dc.lft.to/lastmile_qr_scan", "android": "https://dc.lft.to/lastmile_qr_scan"}, "lon": -77.03179816666666, "fusion_lon": 0.0, "is_disabled": 0, "lat": 38.919143, "bike_id": "ad6c77c094b29cd252caba800d3b0a7b", "name": "ad6c77c094b29cd252caba800d3b0a7b", "is_reserved": 0, "fusion_lat": 0.0}, {"type": "electric_scooter", "rental_uris": {"ios": "https://dc.lft.to/lastmile_qr_scan", "android": "https://dc.lft.to/lastmile_qr_scan"}, "lon": -77.03349883333334, "fusion_lon": 0.0, "is_disabled": 0, "lat": 38.88757, "bike_id": "6fc148349e8e4dfea8c91fd347c83d3d", "name": "6fc148349e8e4dfea8c91fd347c83d3d", "is_reserved": 0, "fusion_lat": 0.0}, {"type": "electric_scooter", "rental_uris": {"ios": "https://dc.lft.to/lastmile_qr_scan", "android": "https://dc.lft.to/lastmile_qr_scan"}, "lon": -77.03856216666667, "fusion_lon": 0.0, "is_disabled": 0, "lat": 38.91017316666667, "bike_id": "066b8b7d4e0120eef021a17f304dbd83", "name": "066b8b7d4e0120eef021a17f304dbd83", "is_reserved": 0, "fusion_lat": 0.0}, {"type": "electric_bike", "rental_uris": {"ios": "https://dc.lft.to/lastmile_qr_scan", "android": "https://dc.lft.to/lastmile_qr_scan"}, "lon": -77.13459733333333, "fusion_lon": 0.0, "is_disabled": 0, "lat": 38.853597666666666, "bike_id": "628215860403edaf981aad29360254e4", "name": "628215860403edaf981aad29360254e4", "is_reserved": 0, "fusion_lat": 0.0}, {"type": "electric_scooter", "rental_uris": {"ios": "https://dc.lft.to/lastmile_qr_scan", "android": "https://dc.lft.to/lastmile_qr_scan"}, "lon": -77.0320825, "fusion_lon": 0.0, "is_disabled": 0, "lat": 38.9089615, "bike_id": "360e135102547fe3f2339fd6e53bb332", "name": "360e135102547fe3f2339fd6e53bb332", "is_reserved": 0, "fusion_lat": 0.0}, {"type": "electric_bike", "rental_uris": {"ios": "https://dc.lft.to/lastmile_qr_scan", "android": "https://dc.lft.to/lastmile_qr_scan"}, "lon": -76.9249155, "fusion_lon": 0.0, "is_disabled": 0, "lat": 38.95887916666667, "bike_id": "a4aabd32b4ad09e67ec27ade28c8b807", "name": "a4aabd32b4ad09e67ec27ade28c8b807", "is_reserved": 0, "fusion_lat": 0.0}, {"type": "electric_scooter", "rental_uris": {"ios": "https://dc.lft.to/lastmile_qr_scan", "android": "https://dc.lft.to/lastmile_qr_scan"}, "lon": -77.0325005, "fusion_lon": 0.0, "is_disabled": 0, "lat": 38.90717466666667, "bike_id": "89993e9179187b3e0ce4e2e4d5877e17", "name": "89993e9179187b3e0ce4e2e4d5877e17", "is_reserved": 0, "fusion_lat": 0.0}, {"type": "electric_scooter", "rental_uris": {"ios": "https://dc.lft.to/lastmile_qr_scan", "android": "https://dc.lft.to/lastmile_qr_scan"}, "lon": -77.0165605, "fusion_lon": 0.0, "is_disabled": 0, "lat": 38.910566, "bike_id": "6f85c1a70537380d167142f1e3c03e25", "name": "6f85c1a70537380d167142f1e3c03e25", "is_reserved": 0, "fusion_lat": 0.0}, {"type": "electric_bike", "rental_uris": {"ios": "https://dc.lft.to/lastmile_qr_scan", "android": "https://dc.lft.to/lastmile_qr_scan"}, "lon": -76.98025066666666, "fusion_lon": 0.0, "is_disabled": 0, "lat": 38.957548833333334, "bike_id": "29b0d73ce3b35fdd3bfa533ea46ca476", "name": "29b0d73ce3b35fdd3bfa533ea46ca476", "is_reserved": 0, "fusion_lat": 0.0}, {"type": "electric_scooter", "rental_uris": {"ios": "https://dc.lft.to/lastmile_qr_scan", "android": "https://dc.lft.to/lastmile_qr_scan"}, "lon": -76.93176266666667, "fusion_lon": 0.0, "is_disabled": 0, "lat": 38.8988725, "bike_id": "6e87fea25f03ba4a985804f387cec446", "name": "6e87fea25f03ba4a985804f387cec446", "is_reserved": 0, "fusion_lat": 0.0}, {"type": "electric_scooter", "rental_uris": {"ios": "https://dc.lft.to/lastmile_qr_scan", "android": "https://dc.lft.to/lastmile_qr_scan"}, "lon": -77.01232766666666, "fusion_lon": 0.0, "is_disabled": 0, "lat": 38.9149975, "bike_id": "870e2172d182e9070bf6a37372fd6915", "name": "870e2172d182e9070bf6a37372fd6915", "is_reserved": 0, "fusion_lat": 0.0}, {"type": "electric_scooter", "rental_uris": {"ios": "https://dc.lft.to/lastmile_qr_scan", "android": "https://dc.lft.to/lastmile_qr_scan"}, "lon": -77.03401066666666, "fusion_lon": 0.0, "is_disabled": 0, "lat": 38.931316833333334, "bike_id": "189f7897d49437d3dca10035de809df7", "name": "189f7897d49437d3dca10035de809df7", "is_reserved": 0, "fusion_lat": 0.0}, {"type": "electric_scooter", "rental_uris": {"ios": "https://dc.lft.to/lastmile_qr_scan", "android": "https://dc.lft.to/lastmile_qr_scan"}, "lon": -77.0575695, "fusion_lon": 0.0, "is_disabled": 0, "lat": 38.924629833333334, "bike_id": "619a94aa4bf1c423069b8fe25692a36d", "name": "619a94aa4bf1c423069b8fe25692a36d", "is_reserved": 0, "fusion_lat": 0.0}, {"type": "electric_scooter", "rental_uris": {"ios": "https://dc.lft.to/lastmile_qr_scan", "android": "https://dc.lft.to/lastmile_qr_scan"}, "lon": -77.036397, "fusion_lon": 0.0, "is_disabled": 0, "lat": 38.916891666666665, "bike_id": "6e28071a1bae862efaf7a76ead1188ae", "name": "6e28071a1bae862efaf7a76ead1188ae", "is_reserved": 0, "fusion_lat": 0.0}, {"type": "electric_scooter", "rental_uris": {"ios": "https://dc.lft.to/lastmile_qr_scan", "android": "https://dc.lft.to/lastmile_qr_scan"}, "lon": -77.038676, "fusion_lon": 0.0, "is_disabled": 0, "lat": 38.910379666666664, "bike_id": "56628670f661650d2635867f59f06a0a", "name": "56628670f661650d2635867f59f06a0a", "is_reserved": 0, "fusion_lat": 0.0}, {"type": "electric_bike", "rental_uris": {"ios": "https://dc.lft.to/lastmile_qr_scan", "android": "https://dc.lft.to/lastmile_qr_scan"}, "lon": -77.0372635, "fusion_lon": 0.0, "is_disabled": 0, "lat": 38.92033766666667, "bike_id": "af362141d8b1636c01a776521c5433d5", "name": "af362141d8b1636c01a776521c5433d5", "is_reserved": 0, "fusion_lat": 0.0}, {"type": "electric_scooter", "rental_uris": {"ios": "https://dc.lft.to/lastmile_qr_scan", "android": "https://dc.lft.to/lastmile_qr_scan"}, "lon": -76.98519283333333, "fusion_lon": 0.0, "is_disabled": 0, "lat": 38.91546533333333, "bike_id": "a399cb6b57972fc71684a0b1b5b31de2", "name": "a399cb6b57972fc71684a0b1b5b31de2", "is_reserved": 0, "fusion_lat": 0.0}, {"type": "electric_scooter", "rental_uris": {"ios": "https://dc.lft.to/lastmile_qr_scan", "android": "https://dc.lft.to/lastmile_qr_scan"}, "lon": -77.02980516666666, "fusion_lon": 0.0, "is_disabled": 0, "lat": 38.90505916666667, "bike_id": "f82966f8cf6de2e5ee514c07da999518", "name": "f82966f8cf6de2e5ee514c07da999518", "is_reserved": 0, "fusion_lat": 0.0}, {"type": "electric_scooter", "rental_uris": {"ios": "https://dc.lft.to/lastmile_qr_scan", "android": "https://dc.lft.to/lastmile_qr_scan"}, "lon": -77.05013883333334, "fusion_lon": 0.0, "is_disabled": 0, "lat": 38.9067615, "bike_id": "5d0b471d58fb48cffb24ed038e602f13", "name": "5d0b471d58fb48cffb24ed038e602f13", "is_reserved": 0, "fusion_lat": 0.0}, {"type": "electric_scooter", "rental_uris": {"ios": "https://dc.lft.to/lastmile_qr_scan", "android": "https://dc.lft.to/lastmile_qr_scan"}, "lon": -77.01766233333333, "fusion_lon": 0.0, "is_disabled": 0, "lat": 38.88145016666667, "bike_id": "d135968cce373af4e634cb15ec7bb6f9", "name": "d135968cce373af4e634cb15ec7bb6f9", "is_reserved": 0, "fusion_lat": 0.0}, {"type": "electric_scooter", "rental_uris": {"ios": "https://dc.lft.to/lastmile_qr_scan", "android": "https://dc.lft.to/lastmile_qr_scan"}, "lon": -77.02827766666667, "fusion_lon": 0.0, "is_disabled": 0, "lat": 38.887352166666666, "bike_id": "2ec78c2b87c5df367e5077eda639ee40", "name": "2ec78c2b87c5df367e5077eda639ee40", "is_reserved": 0, "fusion_lat": 0.0}, {"type": "electric_scooter", "rental_uris": {"ios": "https://dc.lft.to/lastmile_qr_scan", "android": "https://dc.lft.to/lastmile_qr_scan"}, "lon": -77.04646433333333, "fusion_lon": 0.0, "is_disabled": 0, "lat": 38.892255166666665, "bike_id": "608dd8d0fb355bbd8a6f68aa7d07dd16", "name": "608dd8d0fb355bbd8a6f68aa7d07dd16", "is_reserved": 0, "fusion_lat": 0.0}, {"type": "electric_scooter", "rental_uris": {"ios": "https://dc.lft.to/lastmile_qr_scan", "android": "https://dc.lft.to/lastmile_qr_scan"}, "lon": -77.0386235, "fusion_lon": 0.0, "is_disabled": 0, "lat": 38.911763, "bike_id": "7f902790acf1609249c137e9ff630dfc", "name": "7f902790acf1609249c137e9ff630dfc", "is_reserved": 0, "fusion_lat": 0.0}, {"type": "electric_scooter", "rental_uris": {"ios": "https://dc.lft.to/lastmile_qr_scan", "android": "https://dc.lft.to/lastmile_qr_scan"}, "lon": -77.05469333333333, "fusion_lon": 0.0, "is_disabled": 0, "lat": 38.89608116666667, "bike_id": "3424e7fc84cfa483586fb9d300c4cc6c", "name": "3424e7fc84cfa483586fb9d300c4cc6c", "is_reserved": 0, "fusion_lat": 0.0}, {"type": "electric_scooter", "rental_uris": {"ios": "https://dc.lft.to/lastmile_qr_scan", "android": "https://dc.lft.to/lastmile_qr_scan"}, "lon": -77.026138, "fusion_lon": 0.0, "is_disabled": 0, "lat": 38.914112, "bike_id": "b4fea019d624e67f631edf040062e159", "name": "b4fea019d624e67f631edf040062e159", "is_reserved": 0, "fusion_lat": 0.0}, {"type": "electric_scooter", "rental_uris": {"ios": "https://dc.lft.to/lastmile_qr_scan", "android": "https://dc.lft.to/lastmile_qr_scan"}, "lon": -77.025608, "fusion_lon": 0.0, "is_disabled": 0, "lat": 38.92424833333333, "bike_id": "d77ad25412d388f1dfe028375187b17f", "name": "d77ad25412d388f1dfe028375187b17f", "is_reserved": 0, "fusion_lat": 0.0}, {"type": "electric_scooter", "rental_uris": {"ios": "https://dc.lft.to/lastmile_qr_scan", "android": "https://dc.lft.to/lastmile_qr_scan"}, "lon": -77.04899666666667, "fusion_lon": 0.0, "is_disabled": 0, "lat": 38.892294, "bike_id": "fc00c363f4c7bd45c63becdced0073e8", "name": "fc00c363f4c7bd45c63becdced0073e8", "is_reserved": 0, "fusion_lat": 0.0}, {"type": "electric_scooter", "rental_uris": {"ios": "https://dc.lft.to/lastmile_qr_scan", "android": "https://dc.lft.to/lastmile_qr_scan"}, "lon": -77.01221583333333, "fusion_lon": 0.0, "is_disabled": 0, "lat": 38.9149975, "bike_id": "549bdfb2833a1e234bf5249d2ac4b0f2", "name": "549bdfb2833a1e234bf5249d2ac4b0f2", "is_reserved": 0, "fusion_lat": 0.0}, {"type": "electric_scooter", "rental_uris": {"ios": "https://dc.lft.to/lastmile_qr_scan", "android": "https://dc.lft.to/lastmile_qr_scan"}, "lon": -77.0228735, "fusion_lon": 0.0, "is_disabled": 0, "lat": 38.924219666666666, "bike_id": "ae1bd2a1511f889d84c7ef8f827ce45d", "name": "ae1bd2a1511f889d84c7ef8f827ce45d", "is_reserved": 0, "fusion_lat": 0.0}, {"type": "electric_scooter", "rental_uris": {"ios": "https://dc.lft.to/lastmile_qr_scan", "android": "https://dc.lft.to/lastmile_qr_scan"}, "lon": -77.025029, "fusion_lon": 0.0, "is_disabled": 0, "lat": 38.919730333333334, "bike_id": "c4acf0246cd32d9ffcfe9454e2ea8010", "name": "c4acf0246cd32d9ffcfe9454e2ea8010", "is_reserved": 0, "fusion_lat": 0.0}, {"type": "electric_scooter", "rental_uris": {"ios": "https://dc.lft.to/lastmile_qr_scan", "android": "https://dc.lft.to/lastmile_qr_scan"}, "lon": -77.03913283333333, "fusion_lon": 0.0, "is_disabled": 0, "lat": 38.924776666666666, "bike_id": "a39f21c3bd0c4ad83b8f6a87f09d2889", "name": "a39f21c3bd0c4ad83b8f6a87f09d2889", "is_reserved": 0, "fusion_lat": 0.0}, {"type": "electric_scooter", "rental_uris": {"ios": "https://dc.lft.to/lastmile_qr_scan", "android": "https://dc.lft.to/lastmile_qr_scan"}, "lon": -77.04602966666667, "fusion_lon": 0.0, "is_disabled": 0, "lat": 38.918631833333336, "bike_id": "5ccd59435e354b11d534bfa9409ef9b7", "name": "5ccd59435e354b11d534bfa9409ef9b7", "is_reserved": 0, "fusion_lat": 0.0}, {"type": "electric_bike", "rental_uris": {"ios": "https://dc.lft.to/lastmile_qr_scan", "android": "https://dc.lft.to/lastmile_qr_scan"}, "lon": -76.98691116666667, "fusion_lon": 0.0, "is_disabled": 0, "lat": 38.9447475, "bike_id": "17772c9dc3578f9490cbc7450f31e627", "name": "17772c9dc3578f9490cbc7450f31e627", "is_reserved": 0, "fusion_lat": 0.0}, {"type": "electric_scooter", "rental_uris": {"ios": "https://dc.lft.to/lastmile_qr_scan", "android": "https://dc.lft.to/lastmile_qr_scan"}, "lon": -77.0350675, "fusion_lon": 0.0, "is_disabled": 0, "lat": 38.92151583333333, "bike_id": "804a3a698af6099cf039af27e07b8d80", "name": "804a3a698af6099cf039af27e07b8d80", "is_reserved": 0, "fusion_lat": 0.0}, {"type": "electric_scooter", "rental_uris": {"ios": "https://dc.lft.to/lastmile_qr_scan", "android": "https://dc.lft.to/lastmile_qr_scan"}, "lon": -77.02754766666666, "fusion_lon": 0.0, "is_disabled": 0, "lat": 38.95779316666667, "bike_id": "266694e459ebbd7a654fd79e21d78a2f", "name": "266694e459ebbd7a654fd79e21d78a2f", "is_reserved": 0, "fusion_lat": 0.0}, {"type": "electric_scooter", "rental_uris": {"ios": "https://dc.lft.to/lastmile_qr_scan", "android": "https://dc.lft.to/lastmile_qr_scan"}, "lon": -77.05239133333333, "fusion_lon": 0.0, "is_disabled": 0, "lat": 38.924600166666664, "bike_id": "059f9f72c842fbd0d0966836e063434f", "name": "059f9f72c842fbd0d0966836e063434f", "is_reserved": 0, "fusion_lat": 0.0}, {"type": "electric_scooter", "rental_uris": {"ios": "https://dc.lft.to/lastmile_qr_scan", "android": "https://dc.lft.to/lastmile_qr_scan"}, "lon": -77.029856, "fusion_lon": 0.0, "is_disabled": 0, "lat": 38.92240733333333, "bike_id": "53f59b83851b64ad102069cf1f6818c7", "name": "53f59b83851b64ad102069cf1f6818c7", "is_reserved": 0, "fusion_lat": 0.0}, {"type": "electric_scooter", "rental_uris": {"ios": "https://dc.lft.to/lastmile_qr_scan", "android": "https://dc.lft.to/lastmile_qr_scan"}, "lon": -77.02176133333333, "fusion_lon": 0.0, "is_disabled": 0, "lat": 38.893018833333336, "bike_id": "4d18851ff90be2cab125236ca51e27be", "name": "4d18851ff90be2cab125236ca51e27be", "is_reserved": 0, "fusion_lat": 0.0}, {"type": "electric_scooter", "rental_uris": {"ios": "https://dc.lft.to/lastmile_qr_scan", "android": "https://dc.lft.to/lastmile_qr_scan"}, "lon": -76.9575535, "fusion_lon": 0.0, "is_disabled": 0, "lat": 38.884281666666666, "bike_id": "6e6cacf162cc93bf6431ccf6599b08af", "name": "6e6cacf162cc93bf6431ccf6599b08af", "is_reserved": 0, "fusion_lat": 0.0}, {"type": "electric_scooter", "rental_uris": {"ios": "https://dc.lft.to/lastmile_qr_scan", "android": "https://dc.lft.to/lastmile_qr_scan"}, "lon": -77.0342395, "fusion_lon": 0.0, "is_disabled": 0, "lat": 38.909624, "bike_id": "06aedd6ec282902a10823f955041b0bb", "name": "06aedd6ec282902a10823f955041b0bb", "is_reserved": 0, "fusion_lat": 0.0}, {"type": "electric_scooter", "rental_uris": {"ios": "https://dc.lft.to/lastmile_qr_scan", "android": "https://dc.lft.to/lastmile_qr_scan"}, "lon": -77.02427416666667, "fusion_lon": 0.0, "is_disabled": 0, "lat": 38.9275785, "bike_id": "3302eda2078381df0af08b93170f0b26", "name": "3302eda2078381df0af08b93170f0b26", "is_reserved": 0, "fusion_lat": 0.0}, {"type": "electric_scooter", "rental_uris": {"ios": "https://dc.lft.to/lastmile_qr_scan", "android": "https://dc.lft.to/lastmile_qr_scan"}, "lon": -77.0326215, "fusion_lon": 0.0, "is_disabled": 0, "lat": 38.919924333333334, "bike_id": "5569765e5e9f11e67b7be69e474ac239", "name": "5569765e5e9f11e67b7be69e474ac239", "is_reserved": 0, "fusion_lat": 0.0}, {"type": "electric_scooter", "rental_uris": {"ios": "https://dc.lft.to/lastmile_qr_scan", "android": "https://dc.lft.to/lastmile_qr_scan"}, "lon": -77.04925083333333, "fusion_lon": 0.0, "is_disabled": 0, "lat": 38.90086183333333, "bike_id": "dd70ee550e55e8c76b386628a43eee45", "name": "dd70ee550e55e8c76b386628a43eee45", "is_reserved": 0, "fusion_lat": 0.0}, {"type": "electric_scooter", "rental_uris": {"ios": "https://dc.lft.to/lastmile_qr_scan", "android": "https://dc.lft.to/lastmile_qr_scan"}, "lon": -77.02721533333333, "fusion_lon": 0.0, "is_disabled": 0, "lat": 38.95187883333333, "bike_id": "588df6b581e06b40526d9b387d8c65c1", "name": "588df6b581e06b40526d9b387d8c65c1", "is_reserved": 0, "fusion_lat": 0.0}, {"type": "electric_scooter", "rental_uris": {"ios": "https://dc.lft.to/lastmile_qr_scan", "android": "https://dc.lft.to/lastmile_qr_scan"}, "lon": -77.03663833333333, "fusion_lon": 0.0, "is_disabled": 0, "lat": 38.91727, "bike_id": "6c8f6a2efab804125b49beb9b41e4767", "name": "6c8f6a2efab804125b49beb9b41e4767", "is_reserved": 0, "fusion_lat": 0.0}, {"type": "electric_scooter", "rental_uris": {"ios": "https://dc.lft.to/lastmile_qr_scan", "android": "https://dc.lft.to/lastmile_qr_scan"}, "lon": -77.04054133333334, "fusion_lon": 0.0, "is_disabled": 0, "lat": 38.898863666666664, "bike_id": "b533d2a8b2c459d72add497ce4170c34", "name": "b533d2a8b2c459d72add497ce4170c34", "is_reserved": 0, "fusion_lat": 0.0}, {"type": "electric_scooter", "rental_uris": {"ios": "https://dc.lft.to/lastmile_qr_scan", "android": "https://dc.lft.to/lastmile_qr_scan"}, "lon": -77.03932866666666, "fusion_lon": 0.0, "is_disabled": 0, "lat": 38.91552816666667, "bike_id": "3620ccb952a660aa208629f256b1ef64", "name": "3620ccb952a660aa208629f256b1ef64", "is_reserved": 0, "fusion_lat": 0.0}, {"type": "electric_scooter", "rental_uris": {"ios": "https://dc.lft.to/lastmile_qr_scan", "android": "https://dc.lft.to/lastmile_qr_scan"}, "lon": -77.0033855, "fusion_lon": 0.0, "is_disabled": 0, "lat": 38.8874335, "bike_id": "a54cb8ae2a48670ecedece677cb61806", "name": "a54cb8ae2a48670ecedece677cb61806", "is_reserved": 0, "fusion_lat": 0.0}, {"type": "electric_scooter", "rental_uris": {"ios": "https://dc.lft.to/lastmile_qr_scan", "android": "https://dc.lft.to/lastmile_qr_scan"}, "lon": -77.036375, "fusion_lon": 0.0, "is_disabled": 0, "lat": 38.90274383333333, "bike_id": "a9dfdb0d68a7f278c895711e6aeac3c7", "name": "a9dfdb0d68a7f278c895711e6aeac3c7", "is_reserved": 0, "fusion_lat": 0.0}, {"type": "electric_scooter", "rental_uris": {"ios": "https://dc.lft.to/lastmile_qr_scan", "android": "https://dc.lft.to/lastmile_qr_scan"}, "lon": -77.07335116666667, "fusion_lon": 0.0, "is_disabled": 0, "lat": 38.9249175, "bike_id": "3041afa4e5cf5ed336cd79146dc19259", "name": "3041afa4e5cf5ed336cd79146dc19259", "is_reserved": 0, "fusion_lat": 0.0}, {"type": "electric_scooter", "rental_uris": {"ios": "https://dc.lft.to/lastmile_qr_scan", "android": "https://dc.lft.to/lastmile_qr_scan"}, "lon": -77.028001, "fusion_lon": 0.0, "is_disabled": 0, "lat": 38.917088, "bike_id": "4341289c1d00e4ba6a284741561c784e", "name": "4341289c1d00e4ba6a284741561c784e", "is_reserved": 0, "fusion_lat": 0.0}, {"type": "electric_scooter", "rental_uris": {"ios": "https://dc.lft.to/lastmile_qr_scan", "android": "https://dc.lft.to/lastmile_qr_scan"}, "lon": -77.03188616666667, "fusion_lon": 0.0, "is_disabled": 0, "lat": 38.91331783333333, "bike_id": "5685de7d79a833626f97c3aa0503c33b", "name": "5685de7d79a833626f97c3aa0503c33b", "is_reserved": 0, "fusion_lat": 0.0}, {"type": "electric_scooter", "rental_uris": {"ios": "https://dc.lft.to/lastmile_qr_scan", "android": "https://dc.lft.to/lastmile_qr_scan"}, "lon": -77.03801216666666, "fusion_lon": 0.0, "is_disabled": 0, "lat": 38.912659, "bike_id": "9bd9233e0a1ae09486372fa7241c7ad8", "name": "9bd9233e0a1ae09486372fa7241c7ad8", "is_reserved": 0, "fusion_lat": 0.0}, {"type": "electric_scooter", "rental_uris": {"ios": "https://dc.lft.to/lastmile_qr_scan", "android": "https://dc.lft.to/lastmile_qr_scan"}, "lon": -77.03148383333334, "fusion_lon": 0.0, "is_disabled": 0, "lat": 38.9156365, "bike_id": "447f73455a11592ec30b3ab11c9de703", "name": "447f73455a11592ec30b3ab11c9de703", "is_reserved": 0, "fusion_lat": 0.0}, {"type": "electric_scooter", "rental_uris": {"ios": "https://dc.lft.to/lastmile_qr_scan", "android": "https://dc.lft.to/lastmile_qr_scan"}, "lon": -77.03806366666667, "fusion_lon": 0.0, "is_disabled": 0, "lat": 38.92062516666667, "bike_id": "63a40d22eaecd6c94e7bb89f53b75244", "name": "63a40d22eaecd6c94e7bb89f53b75244", "is_reserved": 0, "fusion_lat": 0.0}, {"type": "electric_bike", "rental_uris": {"ios": "https://dc.lft.to/lastmile_qr_scan", "android": "https://dc.lft.to/lastmile_qr_scan"}, "lon": -77.11491783333334, "fusion_lon": 0.0, "is_disabled": 0, "lat": 39.06926466666667, "bike_id": "be4f5d58f2ae1475919ddd0aea143470", "name": "be4f5d58f2ae1475919ddd0aea143470", "is_reserved": 0, "fusion_lat": 0.0}, {"type": "electric_scooter", "rental_uris": {"ios": "https://dc.lft.to/lastmile_qr_scan", "android": "https://dc.lft.to/lastmile_qr_scan"}, "lon": -77.03297, "fusion_lon": 0.0, "is_disabled": 0, "lat": 38.95636616666667, "bike_id": "fd031c2a66d1033c3d91e159e8f6cf39", "name": "fd031c2a66d1033c3d91e159e8f6cf39", "is_reserved": 0, "fusion_lat": 0.0}, {"type": "electric_scooter", "rental_uris": {"ios": "https://dc.lft.to/lastmile_qr_scan", "android": "https://dc.lft.to/lastmile_qr_scan"}, "lon": -77.05138983333333, "fusion_lon": 0.0, "is_disabled": 0, "lat": 38.905835833333335, "bike_id": "7b11477b34e7355765367023e91482a4", "name": "7b11477b34e7355765367023e91482a4", "is_reserved": 0, "fusion_lat": 0.0}, {"type": "electric_scooter", "rental_uris": {"ios": "https://dc.lft.to/lastmile_qr_scan", "android": "https://dc.lft.to/lastmile_qr_scan"}, "lon": -77.03628733333333, "fusion_lon": 0.0, "is_disabled": 0, "lat": 38.93290366666667, "bike_id": "3f5881726e5a1b339087c883d55c9173", "name": "3f5881726e5a1b339087c883d55c9173", "is_reserved": 0, "fusion_lat": 0.0}, {"type": "electric_scooter", "rental_uris": {"ios": "https://dc.lft.to/lastmile_qr_scan", "android": "https://dc.lft.to/lastmile_qr_scan"}, "lon": -77.04025, "fusion_lon": 0.0, "is_disabled": 0, "lat": 38.921744333333336, "bike_id": "7c07d63d315d4500dfd7d041a690fd5b", "name": "7c07d63d315d4500dfd7d041a690fd5b", "is_reserved": 0, "fusion_lat": 0.0}, {"type": "electric_scooter", "rental_uris": {"ios": "https://dc.lft.to/lastmile_qr_scan", "android": "https://dc.lft.to/lastmile_qr_scan"}, "lon": -77.02405416666667, "fusion_lon": 0.0, "is_disabled": 0, "lat": 38.928968, "bike_id": "bb254cffc6d9700f8d72d01fafc2c88d", "name": "bb254cffc6d9700f8d72d01fafc2c88d", "is_reserved": 0, "fusion_lat": 0.0}, {"type": "electric_bike", "rental_uris": {"ios": "https://dc.lft.to/lastmile_qr_scan", "android": "https://dc.lft.to/lastmile_qr_scan"}, "lon": -77.09959916666666, "fusion_lon": 0.0, "is_disabled": 0, "lat": 38.93363016666667, "bike_id": "06b918ce60dc38ed005912d63ee36391", "name": "06b918ce60dc38ed005912d63ee36391", "is_reserved": 0, "fusion_lat": 0.0}, {"type": "electric_scooter", "rental_uris": {"ios": "https://dc.lft.to/lastmile_qr_scan", "android": "https://dc.lft.to/lastmile_qr_scan"}, "lon": -77.041591, "fusion_lon": 0.0, "is_disabled": 0, "lat": 38.927959, "bike_id": "4b414946d95327686582d218ab5c25ce", "name": "4b414946d95327686582d218ab5c25ce", "is_reserved": 0, "fusion_lat": 0.0}, {"type": "electric_scooter", "rental_uris": {"ios": "https://dc.lft.to/lastmile_qr_scan", "android": "https://dc.lft.to/lastmile_qr_scan"}, "lon": -77.0442205, "fusion_lon": 0.0, "is_disabled": 0, "lat": 38.910062833333335, "bike_id": "d84f37914059e776b440fea01118568b", "name": "d84f37914059e776b440fea01118568b", "is_reserved": 0, "fusion_lat": 0.0}, {"type": "electric_scooter", "rental_uris": {"ios": "https://dc.lft.to/lastmile_qr_scan", "android": "https://dc.lft.to/lastmile_qr_scan"}, "lon": -77.03166516666667, "fusion_lon": 0.0, "is_disabled": 0, "lat": 38.92367316666667, "bike_id": "3ed2eb8e18046aad289b41491819a0d1", "name": "3ed2eb8e18046aad289b41491819a0d1", "is_reserved": 0, "fusion_lat": 0.0}, {"type": "electric_bike", "rental_uris": {"ios": "https://dc.lft.to/lastmile_qr_scan", "android": "https://dc.lft.to/lastmile_qr_scan"}, "lon": -77.02390166666666, "fusion_lon": 0.0, "is_disabled": 0, "lat": 38.9627965, "bike_id": "bd47bfc758941b309ca181e37357befe", "name": "bd47bfc758941b309ca181e37357befe", "is_reserved": 0, "fusion_lat": 0.0}, {"type": "electric_scooter", "rental_uris": {"ios": "https://dc.lft.to/lastmile_qr_scan", "android": "https://dc.lft.to/lastmile_qr_scan"}, "lon": -77.02832566666666, "fusion_lon": 0.0, "is_disabled": 0, "lat": 38.9319385, "bike_id": "b25315f31f997bb3f9ce2e1e98ee4de0", "name": "b25315f31f997bb3f9ce2e1e98ee4de0", "is_reserved": 0, "fusion_lat": 0.0}, {"type": "electric_bike", "rental_uris": {"ios": "https://dc.lft.to/lastmile_qr_scan", "android": "https://dc.lft.to/lastmile_qr_scan"}, "lon": -77.007995, "fusion_lon": 0.0, "is_disabled": 0, "lat": 38.949230166666666, "bike_id": "f77071a12e83393bd6dcc35225756490", "name": "f77071a12e83393bd6dcc35225756490", "is_reserved": 0, "fusion_lat": 0.0}, {"type": "electric_scooter", "rental_uris": {"ios": "https://dc.lft.to/lastmile_qr_scan", "android": "https://dc.lft.to/lastmile_qr_scan"}, "lon": -77.04149416666667, "fusion_lon": 0.0, "is_disabled": 0, "lat": 38.91213716666667, "bike_id": "ae223a0757f717952dd06e33df225ce8", "name": "ae223a0757f717952dd06e33df225ce8", "is_reserved": 0, "fusion_lat": 0.0}, {"type": "electric_scooter", "rental_uris": {"ios": "https://dc.lft.to/lastmile_qr_scan", "android": "https://dc.lft.to/lastmile_qr_scan"}, "lon": -77.00620616666667, "fusion_lon": 0.0, "is_disabled": 0, "lat": 38.90624416666667, "bike_id": "56a63f2b7840c6571ef0cd0b8c295aff", "name": "56a63f2b7840c6571ef0cd0b8c295aff", "is_reserved": 0, "fusion_lat": 0.0}, {"type": "electric_scooter", "rental_uris": {"ios": "https://dc.lft.to/lastmile_qr_scan", "android": "https://dc.lft.to/lastmile_qr_scan"}, "lon": -77.03167683333334, "fusion_lon": 0.0, "is_disabled": 0, "lat": 38.89623616666667, "bike_id": "248b93701d7b29ccd5aaefc96f06ac3b", "name": "248b93701d7b29ccd5aaefc96f06ac3b", "is_reserved": 0, "fusion_lat": 0.0}, {"type": "electric_scooter", "rental_uris": {"ios": "https://dc.lft.to/lastmile_qr_scan", "android": "https://dc.lft.to/lastmile_qr_scan"}, "lon": -77.0328095, "fusion_lon": 0.0, "is_disabled": 0, "lat": 38.92945383333333, "bike_id": "9550b21961fdce159e5b4a1d99a75b0b", "name": "9550b21961fdce159e5b4a1d99a75b0b", "is_reserved": 0, "fusion_lat": 0.0}, {"type": "electric_scooter", "rental_uris": {"ios": "https://dc.lft.to/lastmile_qr_scan", "android": "https://dc.lft.to/lastmile_qr_scan"}, "lon": -77.01163083333333, "fusion_lon": 0.0, "is_disabled": 0, "lat": 38.90305983333333, "bike_id": "c7589be204ab5b0d144498396d0a0e8a", "name": "c7589be204ab5b0d144498396d0a0e8a", "is_reserved": 0, "fusion_lat": 0.0}, {"type": "electric_scooter", "rental_uris": {"ios": "https://dc.lft.to/lastmile_qr_scan", "android": "https://dc.lft.to/lastmile_qr_scan"}, "lon": -77.01367633333334, "fusion_lon": 0.0, "is_disabled": 0, "lat": 38.8922865, "bike_id": "9d4f7d20a176af8826855e4a3fcf8761", "name": "9d4f7d20a176af8826855e4a3fcf8761", "is_reserved": 0, "fusion_lat": 0.0}, {"type": "electric_scooter", "rental_uris": {"ios": "https://dc.lft.to/lastmile_qr_scan", "android": "https://dc.lft.to/lastmile_qr_scan"}, "lon": -77.01794266666667, "fusion_lon": 0.0, "is_disabled": 0, "lat": 38.920556833333336, "bike_id": "c68c91f1463666202c36408c39dfe2ea", "name": "c68c91f1463666202c36408c39dfe2ea", "is_reserved": 0, "fusion_lat": 0.0}, {"type": "electric_scooter", "rental_uris": {"ios": "https://dc.lft.to/lastmile_qr_scan", "android": "https://dc.lft.to/lastmile_qr_scan"}, "lon": -77.00568433333333, "fusion_lon": 0.0, "is_disabled": 0, "lat": 38.905608666666666, "bike_id": "9dffe1ccc973849e0cdb90f6e5b55842", "name": "9dffe1ccc973849e0cdb90f6e5b55842", "is_reserved": 0, "fusion_lat": 0.0}, {"type": "electric_bike", "rental_uris": {"ios": "https://dc.lft.to/lastmile_qr_scan", "android": "https://dc.lft.to/lastmile_qr_scan"}, "lon": -77.04978666666666, "fusion_lon": 0.0, "is_disabled": 0, "lat": 39.06294166666667, "bike_id": "3a88588659341826b36b18ddd6a74247", "name": "3a88588659341826b36b18ddd6a74247", "is_reserved": 0, "fusion_lat": 0.0}, {"type": "electric_scooter", "rental_uris": {"ios": "https://dc.lft.to/lastmile_qr_scan", "android": "https://dc.lft.to/lastmile_qr_scan"}, "lon": -77.03735866666666, "fusion_lon": 0.0, "is_disabled": 0, "lat": 38.928495, "bike_id": "775bbc5deb4abe813277bc740a39bcce", "name": "775bbc5deb4abe813277bc740a39bcce", "is_reserved": 0, "fusion_lat": 0.0}, {"type": "electric_scooter", "rental_uris": {"ios": "https://dc.lft.to/lastmile_qr_scan", "android": "https://dc.lft.to/lastmile_qr_scan"}, "lon": -77.03149733333333, "fusion_lon": 0.0, "is_disabled": 0, "lat": 38.915633, "bike_id": "0b9a3608201a01dd9f186a61fbd05418", "name": "0b9a3608201a01dd9f186a61fbd05418", "is_reserved": 0, "fusion_lat": 0.0}, {"type": "electric_scooter", "rental_uris": {"ios": "https://dc.lft.to/lastmile_qr_scan", "android": "https://dc.lft.to/lastmile_qr_scan"}, "lon": -77.039645, "fusion_lon": 0.0, "is_disabled": 0, "lat": 38.919824166666665, "bike_id": "a2f37843c4a53bb1b20dc624fc8ac95d", "name": "a2f37843c4a53bb1b20dc624fc8ac95d", "is_reserved": 0, "fusion_lat": 0.0}, {"type": "electric_scooter", "rental_uris": {"ios": "https://dc.lft.to/lastmile_qr_scan", "android": "https://dc.lft.to/lastmile_qr_scan"}, "lon": -76.99615383333334, "fusion_lon": 0.0, "is_disabled": 0, "lat": 38.899975833333336, "bike_id": "7e18bfa7cbdddcc71746eca80fe59343", "name": "7e18bfa7cbdddcc71746eca80fe59343", "is_reserved": 0, "fusion_lat": 0.0}, {"type": "electric_scooter", "rental_uris": {"ios": "https://dc.lft.to/lastmile_qr_scan", "android": "https://dc.lft.to/lastmile_qr_scan"}, "lon": -77.02055583333333, "fusion_lon": 0.0, "is_disabled": 0, "lat": 38.90851466666667, "bike_id": "7befde3989a0edc2c79acbf35bb025e9", "name": "7befde3989a0edc2c79acbf35bb025e9", "is_reserved": 0, "fusion_lat": 0.0}, {"type": "electric_bike", "rental_uris": {"ios": "https://dc.lft.to/lastmile_qr_scan", "android": "https://dc.lft.to/lastmile_qr_scan"}, "lon": -77.07111283333333, "fusion_lon": 0.0, "is_disabled": 0, "lat": 38.8007285, "bike_id": "fc1121835db40560fcaa4953d055d9a2", "name": "fc1121835db40560fcaa4953d055d9a2", "is_reserved": 0, "fusion_lat": 0.0}, {"type": "electric_scooter", "rental_uris": {"ios": "https://dc.lft.to/lastmile_qr_scan", "android": "https://dc.lft.to/lastmile_qr_scan"}, "lon": -76.99901216666666, "fusion_lon": 0.0, "is_disabled": 0, "lat": 38.898884, "bike_id": "1c2ddf10d95d89d68df5411cdc76333d", "name": "1c2ddf10d95d89d68df5411cdc76333d", "is_reserved": 0, "fusion_lat": 0.0}, {"type": "electric_scooter", "rental_uris": {"ios": "https://dc.lft.to/lastmile_qr_scan", "android": "https://dc.lft.to/lastmile_qr_scan"}, "lon": -77.0490075, "fusion_lon": 0.0, "is_disabled": 0, "lat": 38.900934166666666, "bike_id": "12dfb2402fa5b3e834609fe16facaf43", "name": "12dfb2402fa5b3e834609fe16facaf43", "is_reserved": 0, "fusion_lat": 0.0}, {"type": "electric_bike", "rental_uris": {"ios": "https://dc.lft.to/lastmile_qr_scan", "android": "https://dc.lft.to/lastmile_qr_scan"}, "lon": -77.06331316666666, "fusion_lon": 0.0, "is_disabled": 0, "lat": 38.921101166666666, "bike_id": "220388c8a3735ce0ad68eb2c8449e92b", "name": "220388c8a3735ce0ad68eb2c8449e92b", "is_reserved": 0, "fusion_lat": 0.0}, {"type": "electric_bike", "rental_uris": {"ios": "https://dc.lft.to/lastmile_qr_scan", "android": "https://dc.lft.to/lastmile_qr_scan"}, "lon": -77.0246785, "fusion_lon": 0.0, "is_disabled": 0, "lat": 38.952990666666665, "bike_id": "abb1b471689e13f89aaa400df8bc21bc", "name": "abb1b471689e13f89aaa400df8bc21bc", "is_reserved": 0, "fusion_lat": 0.0}, {"type": "electric_scooter", "rental_uris": {"ios": "https://dc.lft.to/lastmile_qr_scan", "android": "https://dc.lft.to/lastmile_qr_scan"}, "lon": -77.03224133333333, "fusion_lon": 0.0, "is_disabled": 0, "lat": 38.918487, "bike_id": "cfa5dabe7f24b4a3aa24d8dc327385aa", "name": "cfa5dabe7f24b4a3aa24d8dc327385aa", "is_reserved": 0, "fusion_lat": 0.0}, {"type": "electric_scooter", "rental_uris": {"ios": "https://dc.lft.to/lastmile_qr_scan", "android": "https://dc.lft.to/lastmile_qr_scan"}, "lon": -77.040861, "fusion_lon": 0.0, "is_disabled": 0, "lat": 38.916932833333334, "bike_id": "37f7dc9f74dd7a63724f9e9a7d7a64ab", "name": "37f7dc9f74dd7a63724f9e9a7d7a64ab", "is_reserved": 0, "fusion_lat": 0.0}, {"type": "electric_scooter", "rental_uris": {"ios": "https://dc.lft.to/lastmile_qr_scan", "android": "https://dc.lft.to/lastmile_qr_scan"}, "lon": -76.988873, "fusion_lon": 0.0, "is_disabled": 0, "lat": 38.866599666666666, "bike_id": "7a338a07f40e55bf020ce3e55dc84c4b", "name": "7a338a07f40e55bf020ce3e55dc84c4b", "is_reserved": 0, "fusion_lat": 0.0}, {"type": "electric_scooter", "rental_uris": {"ios": "https://dc.lft.to/lastmile_qr_scan", "android": "https://dc.lft.to/lastmile_qr_scan"}, "lon": -77.02488883333334, "fusion_lon": 0.0, "is_disabled": 0, "lat": 38.91954583333333, "bike_id": "f899a98c71cdba0b8da97ad4bdb95f84", "name": "f899a98c71cdba0b8da97ad4bdb95f84", "is_reserved": 0, "fusion_lat": 0.0}, {"type": "electric_scooter", "rental_uris": {"ios": "https://dc.lft.to/lastmile_qr_scan", "android": "https://dc.lft.to/lastmile_qr_scan"}, "lon": -77.02424383333333, "fusion_lon": 0.0, "is_disabled": 0, "lat": 38.918927833333335, "bike_id": "e18c1dd40364f310b8ec94cd58db3800", "name": "e18c1dd40364f310b8ec94cd58db3800", "is_reserved": 0, "fusion_lat": 0.0}, {"type": "electric_scooter", "rental_uris": {"ios": "https://dc.lft.to/lastmile_qr_scan", "android": "https://dc.lft.to/lastmile_qr_scan"}, "lon": -77.01036566666667, "fusion_lon": 0.0, "is_disabled": 0, "lat": 38.866639, "bike_id": "872ccfe2216071786644d9db9566a62d", "name": "872ccfe2216071786644d9db9566a62d", "is_reserved": 0, "fusion_lat": 0.0}, {"type": "electric_scooter", "rental_uris": {"ios": "https://dc.lft.to/lastmile_qr_scan", "android": "https://dc.lft.to/lastmile_qr_scan"}, "lon": -77.02980133333334, "fusion_lon": 0.0, "is_disabled": 0, "lat": 38.90499716666667, "bike_id": "fb9fea5eaed6076a0fb4fe78dc6a14a2", "name": "fb9fea5eaed6076a0fb4fe78dc6a14a2", "is_reserved": 0, "fusion_lat": 0.0}, {"type": "electric_scooter", "rental_uris": {"ios": "https://dc.lft.to/lastmile_qr_scan", "android": "https://dc.lft.to/lastmile_qr_scan"}, "lon": -77.02317566666666, "fusion_lon": 0.0, "is_disabled": 0, "lat": 38.916102333333335, "bike_id": "7f054d624437921759f1d7618d0e63f7", "name": "7f054d624437921759f1d7618d0e63f7", "is_reserved": 0, "fusion_lat": 0.0}, {"type": "electric_scooter", "rental_uris": {"ios": "https://dc.lft.to/lastmile_qr_scan", "android": "https://dc.lft.to/lastmile_qr_scan"}, "lon": -77.01978683333333, "fusion_lon": 0.0, "is_disabled": 0, "lat": 38.929365833333335, "bike_id": "1bfc0068920dc39172a42532628968ea", "name": "1bfc0068920dc39172a42532628968ea", "is_reserved": 0, "fusion_lat": 0.0}, {"type": "electric_scooter", "rental_uris": {"ios": "https://dc.lft.to/lastmile_qr_scan", "android": "https://dc.lft.to/lastmile_qr_scan"}, "lon": -76.98697883333334, "fusion_lon": 0.0, "is_disabled": 0, "lat": 38.867188666666664, "bike_id": "5197a3259c9888b80a0a1565f50ee539", "name": "5197a3259c9888b80a0a1565f50ee539", "is_reserved": 0, "fusion_lat": 0.0}, {"type": "electric_scooter", "rental_uris": {"ios": "https://dc.lft.to/lastmile_qr_scan", "android": "https://dc.lft.to/lastmile_qr_scan"}, "lon": -77.0338505, "fusion_lon": 0.0, "is_disabled": 0, "lat": 38.899195666666664, "bike_id": "9cc8da976f898572ca440d1cf730635d", "name": "9cc8da976f898572ca440d1cf730635d", "is_reserved": 0, "fusion_lat": 0.0}, {"type": "electric_scooter", "rental_uris": {"ios": "https://dc.lft.to/lastmile_qr_scan", "android": "https://dc.lft.to/lastmile_qr_scan"}, "lon": -77.03500033333333, "fusion_lon": 0.0, "is_disabled": 0, "lat": 38.9215155, "bike_id": "40661d20786369d4e6145107f5f67b5f", "name": "40661d20786369d4e6145107f5f67b5f", "is_reserved": 0, "fusion_lat": 0.0}, {"type": "electric_scooter", "rental_uris": {"ios": "https://dc.lft.to/lastmile_qr_scan", "android": "https://dc.lft.to/lastmile_qr_scan"}, "lon": -77.00296866666666, "fusion_lon": 0.0, "is_disabled": 0, "lat": 38.90878766666667, "bike_id": "a1fba11520712bfbf99dbb23c2ccda8b", "name": "a1fba11520712bfbf99dbb23c2ccda8b", "is_reserved": 0, "fusion_lat": 0.0}, {"type": "electric_scooter", "rental_uris": {"ios": "https://dc.lft.to/lastmile_qr_scan", "android": "https://dc.lft.to/lastmile_qr_scan"}, "lon": -77.04021166666666, "fusion_lon": 0.0, "is_disabled": 0, "lat": 38.930638, "bike_id": "1b5ad674dc5558989b688100989142b5", "name": "1b5ad674dc5558989b688100989142b5", "is_reserved": 0, "fusion_lat": 0.0}, {"type": "electric_scooter", "rental_uris": {"ios": "https://dc.lft.to/lastmile_qr_scan", "android": "https://dc.lft.to/lastmile_qr_scan"}, "lon": -77.02517733333333, "fusion_lon": 0.0, "is_disabled": 0, "lat": 38.9462305, "bike_id": "12a55cfcd64efdf82725fd8db41be84a", "name": "12a55cfcd64efdf82725fd8db41be84a", "is_reserved": 0, "fusion_lat": 0.0}, {"type": "electric_scooter", "rental_uris": {"ios": "https://dc.lft.to/lastmile_qr_scan", "android": "https://dc.lft.to/lastmile_qr_scan"}, "lon": -77.03339016666666, "fusion_lon": 0.0, "is_disabled": 0, "lat": 38.917012166666666, "bike_id": "fd04a07a7e2d85d61afc201ac4e9f77d", "name": "fd04a07a7e2d85d61afc201ac4e9f77d", "is_reserved": 0, "fusion_lat": 0.0}, {"type": "electric_scooter", "rental_uris": {"ios": "https://dc.lft.to/lastmile_qr_scan", "android": "https://dc.lft.to/lastmile_qr_scan"}, "lon": -77.03541733333333, "fusion_lon": 0.0, "is_disabled": 0, "lat": 38.923896, "bike_id": "262f9b24773fd9c1f970993064d298ea", "name": "262f9b24773fd9c1f970993064d298ea", "is_reserved": 0, "fusion_lat": 0.0}, {"type": "electric_scooter", "rental_uris": {"ios": "https://dc.lft.to/lastmile_qr_scan", "android": "https://dc.lft.to/lastmile_qr_scan"}, "lon": -77.04014566666666, "fusion_lon": 0.0, "is_disabled": 0, "lat": 38.91802333333333, "bike_id": "24caaa6cd3c36b8a5fa77919aa942629", "name": "24caaa6cd3c36b8a5fa77919aa942629", "is_reserved": 0, "fusion_lat": 0.0}, {"type": "electric_bike", "rental_uris": {"ios": "https://dc.lft.to/lastmile_qr_scan", "android": "https://dc.lft.to/lastmile_qr_scan"}, "lon": -77.05635066666666, "fusion_lon": 0.0, "is_disabled": 0, "lat": 38.986536, "bike_id": "8df3dcd2c84b9cb8090b8bc58a4f21bd", "name": "8df3dcd2c84b9cb8090b8bc58a4f21bd", "is_reserved": 0, "fusion_lat": 0.0}, {"type": "electric_scooter", "rental_uris": {"ios": "https://dc.lft.to/lastmile_qr_scan", "android": "https://dc.lft.to/lastmile_qr_scan"}, "lon": -77.03738466666667, "fusion_lon": 0.0, "is_disabled": 0, "lat": 38.92582933333333, "bike_id": "e8192adb59dcc6e38fe4c5b6042c97e6", "name": "e8192adb59dcc6e38fe4c5b6042c97e6", "is_reserved": 0, "fusion_lat": 0.0}, {"type": "electric_scooter", "rental_uris": {"ios": "https://dc.lft.to/lastmile_qr_scan", "android": "https://dc.lft.to/lastmile_qr_scan"}, "lon": -77.03579183333333, "fusion_lon": 0.0, "is_disabled": 0, "lat": 38.934765166666665, "bike_id": "2f86ae33ddfbc769226eb303d6eeec40", "name": "2f86ae33ddfbc769226eb303d6eeec40", "is_reserved": 0, "fusion_lat": 0.0}, {"type": "electric_bike", "rental_uris": {"ios": "https://dc.lft.to/lastmile_qr_scan", "android": "https://dc.lft.to/lastmile_qr_scan"}, "lon": -77.04974616666667, "fusion_lon": 0.0, "is_disabled": 0, "lat": 38.8322225, "bike_id": "89941ff69aa0591b76031b6b7155b4de", "name": "89941ff69aa0591b76031b6b7155b4de", "is_reserved": 0, "fusion_lat": 0.0}, {"type": "electric_scooter", "rental_uris": {"ios": "https://dc.lft.to/lastmile_qr_scan", "android": "https://dc.lft.to/lastmile_qr_scan"}, "lon": -77.0523795, "fusion_lon": 0.0, "is_disabled": 0, "lat": 38.924656666666664, "bike_id": "53a82c2cab02d0881e4b98f7487a5fd8", "name": "53a82c2cab02d0881e4b98f7487a5fd8", "is_reserved": 0, "fusion_lat": 0.0}, {"type": "electric_scooter", "rental_uris": {"ios": "https://dc.lft.to/lastmile_qr_scan", "android": "https://dc.lft.to/lastmile_qr_scan"}, "lon": -77.02246516666666, "fusion_lon": 0.0, "is_disabled": 0, "lat": 38.87864783333333, "bike_id": "543ae61aef08103664dc827f8f558326", "name": "543ae61aef08103664dc827f8f558326", "is_reserved": 0, "fusion_lat": 0.0}, {"type": "electric_scooter", "rental_uris": {"ios": "https://dc.lft.to/lastmile_qr_scan", "android": "https://dc.lft.to/lastmile_qr_scan"}, "lon": -77.02484516666667, "fusion_lon": 0.0, "is_disabled": 0, "lat": 38.91954366666667, "bike_id": "2c9c8c32663f540f9b27556cf60093f6", "name": "2c9c8c32663f540f9b27556cf60093f6", "is_reserved": 0, "fusion_lat": 0.0}, {"type": "electric_scooter", "rental_uris": {"ios": "https://dc.lft.to/lastmile_qr_scan", "android": "https://dc.lft.to/lastmile_qr_scan"}, "lon": -77.02836116666667, "fusion_lon": 0.0, "is_disabled": 0, "lat": 38.892288, "bike_id": "78e7a42b074c507f8c20c3f6223f36ea", "name": "78e7a42b074c507f8c20c3f6223f36ea", "is_reserved": 0, "fusion_lat": 0.0}, {"type": "electric_scooter", "rental_uris": {"ios": "https://dc.lft.to/lastmile_qr_scan", "android": "https://dc.lft.to/lastmile_qr_scan"}, "lon": -76.9951715, "fusion_lon": 0.0, "is_disabled": 0, "lat": 38.86258, "bike_id": "4f89cd9457f90f72d994ef47add52cc4", "name": "4f89cd9457f90f72d994ef47add52cc4", "is_reserved": 0, "fusion_lat": 0.0}, {"type": "electric_scooter", "rental_uris": {"ios": "https://dc.lft.to/lastmile_qr_scan", "android": "https://dc.lft.to/lastmile_qr_scan"}, "lon": -77.02801516666666, "fusion_lon": 0.0, "is_disabled": 0, "lat": 38.89697666666667, "bike_id": "71595865c0c1349a7732bb20f6406f8f", "name": "71595865c0c1349a7732bb20f6406f8f", "is_reserved": 0, "fusion_lat": 0.0}, {"type": "electric_scooter", "rental_uris": {"ios": "https://dc.lft.to/lastmile_qr_scan", "android": "https://dc.lft.to/lastmile_qr_scan"}, "lon": -77.04517516666667, "fusion_lon": 0.0, "is_disabled": 0, "lat": 38.919692166666664, "bike_id": "e0423410ae049c1793a244f29554329d", "name": "e0423410ae049c1793a244f29554329d", "is_reserved": 0, "fusion_lat": 0.0}, {"type": "electric_scooter", "rental_uris": {"ios": "https://dc.lft.to/lastmile_qr_scan", "android": "https://dc.lft.to/lastmile_qr_scan"}, "lon": -76.9898725, "fusion_lon": 0.0, "is_disabled": 0, "lat": 38.86499116666667, "bike_id": "9ef34ead0a0d6f3ab0fbf7baf863a72d", "name": "9ef34ead0a0d6f3ab0fbf7baf863a72d", "is_reserved": 0, "fusion_lat": 0.0}, {"type": "electric_scooter", "rental_uris": {"ios": "https://dc.lft.to/lastmile_qr_scan", "android": "https://dc.lft.to/lastmile_qr_scan"}, "lon": -77.0020965, "fusion_lon": 0.0, "is_disabled": 0, "lat": 38.92051216666667, "bike_id": "f0efa3081ec68664d8bf9b3411cf514f", "name": "f0efa3081ec68664d8bf9b3411cf514f", "is_reserved": 0, "fusion_lat": 0.0}, {"type": "electric_scooter", "rental_uris": {"ios": "https://dc.lft.to/lastmile_qr_scan", "android": "https://dc.lft.to/lastmile_qr_scan"}, "lon": -77.04472883333334, "fusion_lon": 0.0, "is_disabled": 0, "lat": 38.90943633333333, "bike_id": "57b1d191061356a76f18eabe1fafe4ea", "name": "57b1d191061356a76f18eabe1fafe4ea", "is_reserved": 0, "fusion_lat": 0.0}, {"type": "electric_bike", "rental_uris": {"ios": "https://dc.lft.to/lastmile_qr_scan", "android": "https://dc.lft.to/lastmile_qr_scan"}, "lon": -77.03428766666667, "fusion_lon": 0.0, "is_disabled": 0, "lat": 38.966271666666664, "bike_id": "00974e3d8823eb290e66b386f7586b5a", "name": "00974e3d8823eb290e66b386f7586b5a", "is_reserved": 0, "fusion_lat": 0.0}, {"type": "electric_scooter", "rental_uris": {"ios": "https://dc.lft.to/lastmile_qr_scan", "android": "https://dc.lft.to/lastmile_qr_scan"}, "lon": -77.00909083333333, "fusion_lon": 0.0, "is_disabled": 0, "lat": 38.918472333333334, "bike_id": "34649859d8ed76c5210d1ddd4e47e43f", "name": "34649859d8ed76c5210d1ddd4e47e43f", "is_reserved": 0, "fusion_lat": 0.0}, {"type": "electric_scooter", "rental_uris": {"ios": "https://dc.lft.to/lastmile_qr_scan", "android": "https://dc.lft.to/lastmile_qr_scan"}, "lon": -77.04026816666666, "fusion_lon": 0.0, "is_disabled": 0, "lat": 38.92447116666666, "bike_id": "863e057c806c5f4ebf7dab7fe6578135", "name": "863e057c806c5f4ebf7dab7fe6578135", "is_reserved": 0, "fusion_lat": 0.0}, {"type": "electric_scooter", "rental_uris": {"ios": "https://dc.lft.to/lastmile_qr_scan", "android": "https://dc.lft.to/lastmile_qr_scan"}, "lon": -77.0417485, "fusion_lon": 0.0, "is_disabled": 0, "lat": 38.90547466666666, "bike_id": "01c536230b996bc8528fabf51ed7cd1b", "name": "01c536230b996bc8528fabf51ed7cd1b", "is_reserved": 0, "fusion_lat": 0.0}, {"type": "electric_scooter", "rental_uris": {"ios": "https://dc.lft.to/lastmile_qr_scan", "android": "https://dc.lft.to/lastmile_qr_scan"}, "lon": -77.00207033333334, "fusion_lon": 0.0, "is_disabled": 0, "lat": 38.90032716666666, "bike_id": "ccbb78be7fb4304ab4d292c2a0a7baba", "name": "ccbb78be7fb4304ab4d292c2a0a7baba", "is_reserved": 0, "fusion_lat": 0.0}, {"type": "electric_scooter", "rental_uris": {"ios": "https://dc.lft.to/lastmile_qr_scan", "android": "https://dc.lft.to/lastmile_qr_scan"}, "lon": -77.01459666666666, "fusion_lon": 0.0, "is_disabled": 0, "lat": 38.877312833333335, "bike_id": "50ede4d7a04202601901c28985d54a32", "name": "50ede4d7a04202601901c28985d54a32", "is_reserved": 0, "fusion_lat": 0.0},