{"data": {"bikes": [{"bike_id": "caacac8d5030af8e420a58053fbcd6ad", "fusion_lon": 0.0, "lon": -76.93174233333333, "name": "caacac8d5030af8e420a58053fbcd6ad", "is_disabled": 0, "rental_uris": {"android": "https://dc.lft.to/lastmile_qr_scan", "ios": "https://dc.lft.to/lastmile_qr_scan"}, "type": "electric_scooter", "lat": 38.8988405, "is_reserved": 0, "fusion_lat": 0.0}, {"bike_id": "8ed1c93f33ae0cfbf59c70494c1c1133", "fusion_lon": 0.0, "lon": -77.015407, "name": "8ed1c93f33ae0cfbf59c70494c1c1133", "is_disabled": 0, "rental_uris": {"android": "https://dc.lft.to/lastmile_qr_scan", "ios": "https://dc.lft.to/lastmile_qr_scan"}, "type": "electric_scooter", "lat": 38.883317, "is_reserved": 0, "fusion_lat": 0.0}, {"bike_id": "7b671aa3272b6e833c451ddd85041536", "fusion_lon": 0.0, "lon": -76.99778316666666, "name": "7b671aa3272b6e833c451ddd85041536", "is_disabled": 0, "rental_uris": {"android": "https://dc.lft.to/lastmile_qr_scan", "ios": "https://dc.lft.to/lastmile_qr_scan"}, "type": "electric_scooter", "lat": 38.844319666666664, "is_reserved": 0, "fusion_lat": 0.0}, {"bike_id": "fcbbbd1165ef2e3218ba26895620e178", "fusion_lon": 0.0, "lon": -76.983088, "name": "fcbbbd1165ef2e3218ba26895620e178", "is_disabled": 0, "rental_uris": {"android": "https://dc.lft.to/lastmile_qr_scan", "ios": "https://dc.lft.to/lastmile_qr_scan"}, "type": "electric_scooter", "lat": 38.86890433333333, "is_reserved": 0, "fusion_lat": 0.0}, {"bike_id": "0f0d0e80bf577a9c5b5bb3c4a55558a0", "fusion_lon": 0.0, "lon": -77.0726575, "name": "0f0d0e80bf577a9c5b5bb3c4a55558a0", "is_disabled": 0, "rental_uris": {"android": "https://dc.lft.to/lastmile_qr_scan", "ios": "https://dc.lft.to/lastmile_qr_scan"}, "type": "electric_bike", "lat": 38.92247616666667, "is_reserved": 0, "fusion_lat": 0.0}, {"bike_id": "795143a2dcc5da10a8b206b28e04c1ca", "fusion_lon": 0.0, "lon": -77.02992716666667, "name": "795143a2dcc5da10a8b206b28e04c1ca", "is_disabled": 0, "rental_uris": {"android": "https://dc.lft.to/lastmile_qr_scan", "ios": "https://dc.lft.to/lastmile_qr_scan"}, "type": "electric_scooter", "lat": 38.92043866666667, "is_reserved": 0, "fusion_lat": 0.0}, {"bike_id": "c06335857e9efad618be13d616da4817", "fusion_lon": 0.0, "lon": -77.03210883333334, "name": "c06335857e9efad618be13d616da4817", "is_disabled": 0, "rental_uris": {"android": "https://dc.lft.to/lastmile_qr_scan", "ios": "https://dc.lft.to/lastmile_qr_scan"}, "type": "electric_scooter", "lat": 38.917049166666665, "is_reserved": 0, "fusion_lat": 0.0}, {"bike_id": "7066385f7673038daf2f129f6a69f3ad", "fusion_lon": 0.0, "lon": -77.04175766666667, "name": "7066385f7673038daf2f129f6a69f3ad", "is_disabled": 0, "rental_uris": {"android": "https://dc.lft.to/lastmile_qr_scan", "ios": "https://dc.lft.to/lastmile_qr_scan"}, "type": "electric_scooter", "lat": 38.91650816666667, "is_reserved": 0, "fusion_lat": 0.0}, {"bike_id": "d0588c69f72d8503a7110b6f5e2f5299", "fusion_lon": 0.0, "lon": -77.02762016666667, "name": "d0588c69f72d8503a7110b6f5e2f5299", "is_disabled": 0, "rental_uris": {"android": "https://dc.lft.to/lastmile_qr_scan", "ios": "https://dc.lft.to/lastmile_qr_scan"}, "type": "electric_scooter", "lat": 38.95616183333333, "is_reserved": 0, "fusion_lat": 0.0}, {"bike_id": "518889916d8d9bb0da0d78e04495b190", "fusion_lon": 0.0, "lon": -76.98517683333333, "name": "518889916d8d9bb0da0d78e04495b190", "is_disabled": 0, "rental_uris": {"android": "https://dc.lft.to/lastmile_qr_scan", "ios": "https://dc.lft.to/lastmile_qr_scan"}, "type": "electric_scooter", "lat": 38.866713833333336, "is_reserved": 0, "fusion_lat": 0.0}, {"bike_id": "79611dc1196ec4eb7b4e5433bd0a1735", "fusion_lon": 0.0, "lon": -77.0512775, "name": "79611dc1196ec4eb7b4e5433bd0a1735", "is_disabled": 0, "rental_uris": {"android": "https://dc.lft.to/lastmile_qr_scan", "ios": "https://dc.lft.to/lastmile_qr_scan"}, "type": "electric_scooter", "lat": 38.9236235, "is_reserved": 0, "fusion_lat": 0.0}, {"bike_id": "bf29fe263cc478116ed0bde9bc3d48f1", "fusion_lon": 0.0, "lon": -77.0282645, "name": "bf29fe263cc478116ed0bde9bc3d48f1", "is_disabled": 0, "rental_uris": {"android": "https://dc.lft.to/lastmile_qr_scan", "ios": "https://dc.lft.to/lastmile_qr_scan"}, "type": "electric_scooter", "lat": 38.8873405, "is_reserved": 0, "fusion_lat": 0.0}, {"bike_id": "32cd2098f90b5cd5a5b8e6a728cb1ba3", "fusion_lon": 0.0, "lon": -77.02102066666667, "name": "32cd2098f90b5cd5a5b8e6a728cb1ba3", "is_disabled": 0, "rental_uris": {"android": "https://dc.lft.to/lastmile_qr_scan", "ios": "https://dc.lft.to/lastmile_qr_scan"}, "type": "electric_scooter", "lat": 38.927090666666665, "is_reserved": 0, "fusion_lat": 0.0}, {"bike_id": "592ed0f5004446fff7f5b62ed7412c8f", "fusion_lon": 0.0, "lon": -77.04363416666666, "name": "592ed0f5004446fff7f5b62ed7412c8f", "is_disabled": 0, "rental_uris": {"android": "https://dc.lft.to/lastmile_qr_scan", "ios": "https://dc.lft.to/lastmile_qr_scan"}, "type": "electric_scooter", "lat": 38.921492, "is_reserved": 0, "fusion_lat": 0.0}, {"bike_id": "f73d8723c60db2a13e0827f2467fcd2a", "fusion_lon": 0.0, "lon": -77.02398283333333, "name": "f73d8723c60db2a13e0827f2467fcd2a", "is_disabled": 0, "rental_uris": {"android": "https://dc.lft.to/lastmile_qr_scan", "ios": "https://dc.lft.to/lastmile_qr_scan"}, "type": "electric_scooter", "lat": 38.919545166666666, "is_reserved": 0, "fusion_lat": 0.0}, {"bike_id": "fdaf92e3e121dd4b34d2ed5031549d7d", "fusion_lon": 0.0, "lon": -77.0385535, "name": "fdaf92e3e121dd4b34d2ed5031549d7d", "is_disabled": 0, "rental_uris": {"android": "https://dc.lft.to/lastmile_qr_scan", "ios": "https://dc.lft.to/lastmile_qr_scan"}, "type": "electric_scooter", "lat": 38.86748166666667, "is_reserved": 0, "fusion_lat": 0.0}, {"bike_id": "d13cdce7fa3c10809f65e2d10b96f1d0", "fusion_lon": 0.0, "lon": -76.9833575, "name": "d13cdce7fa3c10809f65e2d10b96f1d0", "is_disabled": 0, "rental_uris": {"android": "https://dc.lft.to/lastmile_qr_scan", "ios": "https://dc.lft.to/lastmile_qr_scan"}, "type": "electric_scooter", "lat": 38.90755016666667, "is_reserved": 0, "fusion_lat": 0.0}, {"bike_id": "f1b0093412c485c89f055d372c8ce190", "fusion_lon": 0.0, "lon": -77.03217733333334, "name": "f1b0093412c485c89f055d372c8ce190", "is_disabled": 0, "rental_uris": {"android": "https://dc.lft.to/lastmile_qr_scan", "ios": "https://dc.lft.to/lastmile_qr_scan"}, "type": "electric_scooter", "lat": 38.91699533333333, "is_reserved": 0, "fusion_lat": 0.0}, {"bike_id": "1b94d33c75e718a37253716d08b12549", "fusion_lon": 0.0, "lon": -77.035132, "name": "1b94d33c75e718a37253716d08b12549", "is_disabled": 0, "rental_uris": {"android": "https://dc.lft.to/lastmile_qr_scan", "ios": "https://dc.lft.to/lastmile_qr_scan"}, "type": "electric_scooter", "lat": 38.921494333333335, "is_reserved": 0, "fusion_lat": 0.0}, {"bike_id": "7eef0a4fe96455124485dd6c25cae9eb", "fusion_lon": 0.0, "lon": -76.9782795, "name": "7eef0a4fe96455124485dd6c25cae9eb", "is_disabled": 0, "rental_uris": {"android": "https://dc.lft.to/lastmile_qr_scan", "ios": "https://dc.lft.to/lastmile_qr_scan"}, "type": "electric_bike", "lat": 38.87071666666667, "is_reserved": 0, "fusion_lat": 0.0}, {"bike_id": "8f136f3937e7d5d427bea469f3d383c7", "fusion_lon": 0.0, "lon": -76.988721, "name": "8f136f3937e7d5d427bea469f3d383c7", "is_disabled": 0, "rental_uris": {"android": "https://dc.lft.to/lastmile_qr_scan", "ios": "https://dc.lft.to/lastmile_qr_scan"}, "type": "electric_bike", "lat": 38.95480883333333, "is_reserved": 0, "fusion_lat": 0.0}, {"bike_id": "2b460680f9232ab40c5c8d3da098c501", "fusion_lon": 0.0, "lon": -77.00610083333333, "name": "2b460680f9232ab40c5c8d3da098c501", "is_disabled": 0, "rental_uris": {"android": "https://dc.lft.to/lastmile_qr_scan", "ios": "https://dc.lft.to/lastmile_qr_scan"}, "type": "electric_scooter", "lat": 38.871828666666666, "is_reserved": 0, "fusion_lat": 0.0}, {"bike_id": "e8389330cfb68f39e9e7dffb398968d8", "fusion_lon": 0.0, "lon": -77.04866033333333, "name": "e8389330cfb68f39e9e7dffb398968d8", "is_disabled": 0, "rental_uris": {"android": "https://dc.lft.to/lastmile_qr_scan", "ios": "https://dc.lft.to/lastmile_qr_scan"}, "type": "electric_scooter", "lat": 38.904844, "is_reserved": 0, "fusion_lat": 0.0}, {"bike_id": "d9a8439d5a789f96c6d7c364da4a404b", "fusion_lon": 0.0, "lon": -76.94802883333334, "name": "d9a8439d5a789f96c6d7c364da4a404b", "is_disabled": 0, "rental_uris": {"android": "https://dc.lft.to/lastmile_qr_scan", "ios": "https://dc.lft.to/lastmile_qr_scan"}, "type": "electric_bike", "lat": 38.893959833333334, "is_reserved": 0, "fusion_lat": 0.0}, {"bike_id": "e51e32401933a5bb789f561b7c49bb7d", "fusion_lon": 0.0, "lon": -77.02197266666667, "name": "e51e32401933a5bb789f561b7c49bb7d", "is_disabled": 0, "rental_uris": {"android": "https://dc.lft.to/lastmile_qr_scan", "ios": "https://dc.lft.to/lastmile_qr_scan"}, "type": "electric_scooter", "lat": 38.9148505, "is_reserved": 0, "fusion_lat": 0.0}, {"bike_id": "3a348d8564e4f29a109821906caa63e1", "fusion_lon": 0.0, "lon": -77.06908766666666, "name": "3a348d8564e4f29a109821906caa63e1", "is_disabled": 0, "rental_uris": {"android": "https://dc.lft.to/lastmile_qr_scan", "ios": "https://dc.lft.to/lastmile_qr_scan"}, "type": "electric_scooter", "lat": 38.9101435, "is_reserved": 0, "fusion_lat": 0.0}, {"bike_id": "62c53ca45fb843398274ceee0777fbbb", "fusion_lon": 0.0, "lon": -77.043936, "name": "62c53ca45fb843398274ceee0777fbbb", "is_disabled": 0, "rental_uris": {"android": "https://dc.lft.to/lastmile_qr_scan", "ios": "https://dc.lft.to/lastmile_qr_scan"}, "type": "electric_scooter", "lat": 38.91069916666667, "is_reserved": 0, "fusion_lat": 0.0}, {"bike_id": "116d15f3456435a08020523421146311", "fusion_lon": 0.0, "lon": -77.03216716666667, "name": "116d15f3456435a08020523421146311", "is_disabled": 0, "rental_uris": {"android": "https://dc.lft.to/lastmile_qr_scan", "ios": "https://dc.lft.to/lastmile_qr_scan"}, "type": "electric_scooter", "lat": 38.917002333333336, "is_reserved": 0, "fusion_lat": 0.0}, {"bike_id": "3e5dfcad2a97b7883e4bf6ebdc91966d", "fusion_lon": 0.0, "lon": -77.01872516666667, "name": "3e5dfcad2a97b7883e4bf6ebdc91966d", "is_disabled": 0, "rental_uris": {"android": "https://dc.lft.to/lastmile_qr_scan", "ios": "https://dc.lft.to/lastmile_qr_scan"}, "type": "electric_scooter", "lat": 38.9315045, "is_reserved": 0, "fusion_lat": 0.0}, {"bike_id": "2d59eff8c61c4ffe838174919d5bb5a1", "fusion_lon": 0.0, "lon": -77.03674033333333, "name": "2d59eff8c61c4ffe838174919d5bb5a1", "is_disabled": 0, "rental_uris": {"android": "https://dc.lft.to/lastmile_qr_scan", "ios": "https://dc.lft.to/lastmile_qr_scan"}, "type": "electric_scooter", "lat": 38.91711333333333, "is_reserved": 0, "fusion_lat": 0.0}, {"bike_id": "915405db244c6dab6d0be9d92ca20a42", "fusion_lon": 0.0, "lon": -77.05768483333334, "name": "915405db244c6dab6d0be9d92ca20a42", "is_disabled": 0, "rental_uris": {"android": "https://dc.lft.to/lastmile_qr_scan", "ios": "https://dc.lft.to/lastmile_qr_scan"}, "type": "electric_scooter", "lat": 38.93431616666667, "is_reserved": 0, "fusion_lat": 0.0}, {"bike_id": "094da76480fb01ee5b55391210901c87", "fusion_lon": 0.0, "lon": -77.048044, "name": "094da76480fb01ee5b55391210901c87", "is_disabled": 0, "rental_uris": {"android": "https://dc.lft.to/lastmile_qr_scan", "ios": "https://dc.lft.to/lastmile_qr_scan"}, "type": "electric_scooter", "lat": 38.89222383333333, "is_reserved": 0, "fusion_lat": 0.0}, {"bike_id": "3d8caa21004897d1b3993c70a565176e", "fusion_lon": 0.0, "lon": -76.93305366666667, "name": "3d8caa21004897d1b3993c70a565176e", "is_disabled": 0, "rental_uris": {"android": "https://dc.lft.to/lastmile_qr_scan", "ios": "https://dc.lft.to/lastmile_qr_scan"}, "type": "electric_scooter", "lat": 38.88134083333333, "is_reserved": 0, "fusion_lat": 0.0}, {"bike_id": "aae200887b43a637f29583d5e4c3950f", "fusion_lon": 0.0, "lon": -77.0613395, "name": "aae200887b43a637f29583d5e4c3950f", "is_disabled": 0, "rental_uris": {"android": "https://dc.lft.to/lastmile_qr_scan", "ios": "https://dc.lft.to/lastmile_qr_scan"}, "type": "electric_scooter", "lat": 38.905147666666664, "is_reserved": 0, "fusion_lat": 0.0}, {"bike_id": "597e80c51a09b8e93637fb3f6f2d647c", "fusion_lon": 0.0, "lon": -77.0325665, "name": "597e80c51a09b8e93637fb3f6f2d647c", "is_disabled": 0, "rental_uris": {"android": "https://dc.lft.to/lastmile_qr_scan", "ios": "https://dc.lft.to/lastmile_qr_scan"}, "type": "electric_scooter", "lat": 38.93972733333333, "is_reserved": 0, "fusion_lat": 0.0}, {"bike_id": "bd8fedfa1bd220fda0712e6e433904db", "fusion_lon": 0.0, "lon": -76.99514033333334, "name": "bd8fedfa1bd220fda0712e6e433904db", "is_disabled": 0, "rental_uris": {"android": "https://dc.lft.to/lastmile_qr_scan", "ios": "https://dc.lft.to/lastmile_qr_scan"}, "type": "electric_scooter", "lat": 38.883640666666665, "is_reserved": 0, "fusion_lat": 0.0}, {"bike_id": "950197c97f0a5138a357ec9c1d2116f3", "fusion_lon": 0.0, "lon": -77.02194733333333, "name": "950197c97f0a5138a357ec9c1d2116f3", "is_disabled": 0, "rental_uris": {"android": "https://dc.lft.to/lastmile_qr_scan", "ios": "https://dc.lft.to/lastmile_qr_scan"}, "type": "electric_scooter", "lat": 38.918541, "is_reserved": 0, "fusion_lat": 0.0}, {"bike_id": "9f9f479b69399e250acc230ba5dae0cc", "fusion_lon": 0.0, "lon": -76.996995, "name": "9f9f479b69399e250acc230ba5dae0cc", "is_disabled": 0, "rental_uris": {"android": "https://dc.lft.to/lastmile_qr_scan", "ios": "https://dc.lft.to/lastmile_qr_scan"}, "type": "electric_scooter", "lat": 38.9084035, "is_reserved": 0, "fusion_lat": 0.0}, {"bike_id": "ca865cc26c2631529a57a9f3e0ba2de4", "fusion_lon": 0.0, "lon": -76.97174, "name": "ca865cc26c2631529a57a9f3e0ba2de4", "is_disabled": 0, "rental_uris": {"android": "https://dc.lft.to/lastmile_qr_scan", "ios": "https://dc.lft.to/lastmile_qr_scan"}, "type": "electric_scooter", "lat": 38.8543065, "is_reserved": 0, "fusion_lat": 0.0}, {"bike_id": "e508e253c7c3c77c19e6fec92d65267e", "fusion_lon": 0.0, "lon": -77.01786883333334, "name": "e508e253c7c3c77c19e6fec92d65267e", "is_disabled": 0, "rental_uris": {"android": "https://dc.lft.to/lastmile_qr_scan", "ios": "https://dc.lft.to/lastmile_qr_scan"}, "type": "electric_scooter", "lat": 38.9040155, "is_reserved": 0, "fusion_lat": 0.0}, {"bike_id": "b4c6e0f45f0531c59c1f03967f875349", "fusion_lon": 0.0, "lon": -76.99347116666667, "name": "b4c6e0f45f0531c59c1f03967f875349", "is_disabled": 0, "rental_uris": {"android": "https://dc.lft.to/lastmile_qr_scan", "ios": "https://dc.lft.to/lastmile_qr_scan"}, "type": "electric_bike", "lat": 38.97225666666667, "is_reserved": 0, "fusion_lat": 0.0}, {"bike_id": "a8b7c06cd7cca707b0a44bb4f83025a5", "fusion_lon": 0.0, "lon": -77.02516133333333, "name": "a8b7c06cd7cca707b0a44bb4f83025a5", "is_disabled": 0, "rental_uris": {"android": "https://dc.lft.to/lastmile_qr_scan", "ios": "https://dc.lft.to/lastmile_qr_scan"}, "type": "electric_scooter", "lat": 38.9462195, "is_reserved": 0, "fusion_lat": 0.0}, {"bike_id": "fd03e858ab3b0289e4040c933c5158e8", "fusion_lon": 0.0, "lon": -77.05390116666666, "name": "fd03e858ab3b0289e4040c933c5158e8", "is_disabled": 0, "rental_uris": {"android": "https://dc.lft.to/lastmile_qr_scan", "ios": "https://dc.lft.to/lastmile_qr_scan"}, "type": "electric_scooter", "lat": 38.928201666666666, "is_reserved": 0, "fusion_lat": 0.0}, {"bike_id": "8eac818ebe37124d9446043610b14d73", "fusion_lon": 0.0, "lon": -77.021311, "name": "8eac818ebe37124d9446043610b14d73", "is_disabled": 0, "rental_uris": {"android": "https://dc.lft.to/lastmile_qr_scan", "ios": "https://dc.lft.to/lastmile_qr_scan"}, "type": "electric_scooter", "lat": 38.926959, "is_reserved": 0, "fusion_lat": 0.0}, {"bike_id": "f214232c44894aa546288c3288a57c20", "fusion_lon": 0.0, "lon": -77.03536166666666, "name": "f214232c44894aa546288c3288a57c20", "is_disabled": 0, "rental_uris": {"android": "https://dc.lft.to/lastmile_qr_scan", "ios": "https://dc.lft.to/lastmile_qr_scan"}, "type": "electric_scooter", "lat": 38.923180333333335, "is_reserved": 0, "fusion_lat": 0.0}, {"bike_id": "46ba952b994bea1dea3ac8bfea77e560", "fusion_lon": 0.0, "lon": -77.04623483333333, "name": "46ba952b994bea1dea3ac8bfea77e560", "is_disabled": 0, "rental_uris": {"android": "https://dc.lft.to/lastmile_qr_scan", "ios": "https://dc.lft.to/lastmile_qr_scan"}, "type": "electric_scooter", "lat": 38.909739333333334, "is_reserved": 0, "fusion_lat": 0.0}, {"bike_id": "0381e7a761469983f33f2630bc24abd0", "fusion_lon": 0.0, "lon": -77.03210133333333, "name": "0381e7a761469983f33f2630bc24abd0", "is_disabled": 0, "rental_uris": {"android": "https://dc.lft.to/lastmile_qr_scan", "ios": "https://dc.lft.to/lastmile_qr_scan"}, "type": "electric_scooter", "lat": 38.915376333333334, "is_reserved": 0, "fusion_lat": 0.0}, {"bike_id": "f4bed6b10629aadec8c7ffb1d8028051", "fusion_lon": 0.0, "lon": -76.98712083333334, "name": "f4bed6b10629aadec8c7ffb1d8028051", "is_disabled": 0, "rental_uris": {"android": "https://dc.lft.to/lastmile_qr_scan", "ios": "https://dc.lft.to/lastmile_qr_scan"}, "type": "electric_scooter", "lat": 38.86703816666667, "is_reserved": 0, "fusion_lat": 0.0}, {"bike_id": "f1db57a306664631f4f701c922b1d464", "fusion_lon": 0.0, "lon": -77.005829, "name": "f1db57a306664631f4f701c922b1d464", "is_disabled": 0, "rental_uris": {"android": "https://dc.lft.to/lastmile_qr_scan", "ios": "https://dc.lft.to/lastmile_qr_scan"}, "type": "electric_bike", "lat": 38.874250833333335, "is_reserved": 0, "fusion_lat": 0.0}, {"bike_id": "f9644eb94ae67839244fafd7c699d955", "fusion_lon": 0.0, "lon": -77.01845033333333, "name": "f9644eb94ae67839244fafd7c699d955", "is_disabled": 0, "rental_uris": {"android": "https://dc.lft.to/lastmile_qr_scan", "ios": "https://dc.lft.to/lastmile_qr_scan"}, "type": "electric_scooter", "lat": 38.9463395, "is_reserved": 0, "fusion_lat": 0.0}, {"bike_id": "da31fdd957961537e6953a3f2d184dff", "fusion_lon": 0.0, "lon": -77.022149, "name": "da31fdd957961537e6953a3f2d184dff", "is_disabled": 0, "rental_uris": {"android": "https://dc.lft.to/lastmile_qr_scan", "ios": "https://dc.lft.to/lastmile_qr_scan"}, "type": "electric_scooter", "lat": 38.8789405, "is_reserved": 0, "fusion_lat": 0.0}, {"bike_id": "95015943dcd92b86a1d787cc82d69d31", "fusion_lon": 0.0, "lon": -77.0216705, "name": "95015943dcd92b86a1d787cc82d69d31", "is_disabled": 0, "rental_uris": {"android": "https://dc.lft.to/lastmile_qr_scan", "ios": "https://dc.lft.to/lastmile_qr_scan"}, "type": "electric_scooter", "lat": 38.89918633333333, "is_reserved": 0, "fusion_lat": 0.0}, {"bike_id": "dd170866a1bd3921af5ff0d8dfdffe4e", "fusion_lon": 0.0, "lon": -77.0276525, "name": "dd170866a1bd3921af5ff0d8dfdffe4e", "is_disabled": 0, "rental_uris": {"android": "https://dc.lft.to/lastmile_qr_scan", "ios": "https://dc.lft.to/lastmile_qr_scan"}, "type": "electric_scooter", "lat": 38.907295166666664, "is_reserved": 0, "fusion_lat": 0.0}, {"bike_id": "1836759cfeadedcf88736ce7b8c22878", "fusion_lon": 0.0, "lon": -76.935456, "name": "1836759cfeadedcf88736ce7b8c22878", "is_disabled": 0, "rental_uris": {"android": "https://dc.lft.to/lastmile_qr_scan", "ios": "https://dc.lft.to/lastmile_qr_scan"}, "type": "electric_bike", "lat": 38.951839, "is_reserved": 0, "fusion_lat": 0.0}, {"bike_id": "13bd6263a618139a5b212201088c67be", "fusion_lon": 0.0, "lon": -77.04178316666666, "name": "13bd6263a618139a5b212201088c67be", "is_disabled": 0, "rental_uris": {"android": "https://dc.lft.to/lastmile_qr_scan", "ios": "https://dc.lft.to/lastmile_qr_scan"}, "type": "electric_scooter", "lat": 38.91838666666666, "is_reserved": 0, "fusion_lat": 0.0}, {"bike_id": "cf3de03e2d4b38169af27554f59387aa", "fusion_lon": 0.0, "lon": -77.02763866666666, "name": "cf3de03e2d4b38169af27554f59387aa", "is_disabled": 0, "rental_uris": {"android": "https://dc.lft.to/lastmile_qr_scan", "ios": "https://dc.lft.to/lastmile_qr_scan"}, "type": "electric_scooter", "lat": 38.90729533333333, "is_reserved": 0, "fusion_lat": 0.0}, {"bike_id": "735551b18e455737887e36f2fad19c34", "fusion_lon": 0.0, "lon": -76.998385, "name": "735551b18e455737887e36f2fad19c34", "is_disabled": 0, "rental_uris": {"android": "https://dc.lft.to/lastmile_qr_scan", "ios": "https://dc.lft.to/lastmile_qr_scan"}, "type": "electric_scooter", "lat": 38.900375333333336, "is_reserved": 0, "fusion_lat": 0.0}, {"bike_id": "007a02694a76defa9b5c21d6313aa280", "fusion_lon": 0.0, "lon": -76.98713783333334, "name": "007a02694a76defa9b5c21d6313aa280", "is_disabled": 0, "rental_uris": {"android": "https://dc.lft.to/lastmile_qr_scan", "ios": "https://dc.lft.to/lastmile_qr_scan"}, "type": "electric_scooter", "lat": 38.86698883333333, "is_reserved": 0, "fusion_lat": 0.0}, {"bike_id": "606a699d89f15b958938877882db421d", "fusion_lon": 0.0, "lon": -77.00583433333334, "name": "606a699d89f15b958938877882db421d", "is_disabled": 0, "rental_uris": {"android": "https://dc.lft.to/lastmile_qr_scan", "ios": "https://dc.lft.to/lastmile_qr_scan"}, "type": "electric_scooter", "lat": 38.87583133333333, "is_reserved": 0, "fusion_lat": 0.0}, {"bike_id": "7a212db8ec937009a202c0ceb7e3c37f", "fusion_lon": 0.0, "lon": -76.93705016666667, "name": "7a212db8ec937009a202c0ceb7e3c37f", "is_disabled": 0, "rental_uris": {"android": "https://dc.lft.to/lastmile_qr_scan", "ios": "https://dc.lft.to/lastmile_qr_scan"}, "type": "electric_bike", "lat": 38.871444, "is_reserved": 0, "fusion_lat": 0.0}, {"bike_id": "25ce0a38b8de7ef81d9ec7cee6d6fdf2", "fusion_lon": 0.0, "lon": -76.99778866666666, "name": "25ce0a38b8de7ef81d9ec7cee6d6fdf2", "is_disabled": 0, "rental_uris": {"android": "https://dc.lft.to/lastmile_qr_scan", "ios": "https://dc.lft.to/lastmile_qr_scan"}, "type": "electric_scooter", "lat": 38.8443305, "is_reserved": 0, "fusion_lat": 0.0}, {"bike_id": "feae1898b7da02aaab423a6dd00230fb", "fusion_lon": 0.0, "lon": -76.970841, "name": "feae1898b7da02aaab423a6dd00230fb", "is_disabled": 0, "rental_uris": {"android": "https://dc.lft.to/lastmile_qr_scan", "ios": "https://dc.lft.to/lastmile_qr_scan"}, "type": "electric_bike", "lat": 38.857138166666665, "is_reserved": 0, "fusion_lat": 0.0}, {"bike_id": "793e7966348c33761b1457d280ae038a", "fusion_lon": 0.0, "lon": -77.02397233333333, "name": "793e7966348c33761b1457d280ae038a", "is_disabled": 0, "rental_uris": {"android": "https://dc.lft.to/lastmile_qr_scan", "ios": "https://dc.lft.to/lastmile_qr_scan"}, "type": "electric_scooter", "lat": 38.910818666666664, "is_reserved": 0, "fusion_lat": 0.0}, {"bike_id": "a14cdb44e569cf1452408343aa85e2ff", "fusion_lon": 0.0, "lon": -77.0281585, "name": "a14cdb44e569cf1452408343aa85e2ff", "is_disabled": 0, "rental_uris": {"android": "https://dc.lft.to/lastmile_qr_scan", "ios": "https://dc.lft.to/lastmile_qr_scan"}, "type": "electric_scooter", "lat": 38.928725166666666, "is_reserved": 0, "fusion_lat": 0.0}, {"bike_id": "836d841eb5756bd0fb1aee65b0a167c7", "fusion_lon": 0.0, "lon": -76.92689783333333, "name": "836d841eb5756bd0fb1aee65b0a167c7", "is_disabled": 0, "rental_uris": {"android": "https://dc.lft.to/lastmile_qr_scan", "ios": "https://dc.lft.to/lastmile_qr_scan"}, "type": "electric_scooter", "lat": 38.893677, "is_reserved": 0, "fusion_lat": 0.0}, {"bike_id": "c65a8f5459595ad2a72471fac38bb88f", "fusion_lon": 0.0, "lon": -77.02233783333334, "name": "c65a8f5459595ad2a72471fac38bb88f", "is_disabled": 0, "rental_uris": {"android": "https://dc.lft.to/lastmile_qr_scan", "ios": "https://dc.lft.to/lastmile_qr_scan"}, "type": "electric_scooter", "lat": 38.96136333333333, "is_reserved": 0, "fusion_lat": 0.0}, {"bike_id": "6a64715387465c32bea8e6d70e80bfa7", "fusion_lon": 0.0, "lon": -76.997765, "name": "6a64715387465c32bea8e6d70e80bfa7", "is_disabled": 0, "rental_uris": {"android": "https://dc.lft.to/lastmile_qr_scan", "ios": "https://dc.lft.to/lastmile_qr_scan"}, "type": "electric_scooter", "lat": 38.8442655, "is_reserved": 0, "fusion_lat": 0.0}, {"bike_id": "e77c369bffd63dd7f824ac61c3a6498e", "fusion_lon": 0.0, "lon": -77.051224, "name": "e77c369bffd63dd7f824ac61c3a6498e", "is_disabled": 0, "rental_uris": {"android": "https://dc.lft.to/lastmile_qr_scan", "ios": "https://dc.lft.to/lastmile_qr_scan"}, "type": "electric_scooter", "lat": 38.902197666666666, "is_reserved": 0, "fusion_lat": 0.0}, {"bike_id": "1d46dce3befdb1b6aaa7ec129e1d919d", "fusion_lon": 0.0, "lon": -76.9463845, "name": "1d46dce3befdb1b6aaa7ec129e1d919d", "is_disabled": 0, "rental_uris": {"android": "https://dc.lft.to/lastmile_qr_scan", "ios": "https://dc.lft.to/lastmile_qr_scan"}, "type": "electric_scooter", "lat": 38.89844316666667, "is_reserved": 0, "fusion_lat": 0.0}, {"bike_id": "76ad84c9c6bcf08d89077fbbb7318a05", "fusion_lon": 0.0, "lon": -76.95755133333333, "name": "76ad84c9c6bcf08d89077fbbb7318a05", "is_disabled": 0, "rental_uris": {"android": "https://dc.lft.to/lastmile_qr_scan", "ios": "https://dc.lft.to/lastmile_qr_scan"}, "type": "electric_scooter", "lat": 38.884305166666664, "is_reserved": 0, "fusion_lat": 0.0}, {"bike_id": "5868aa8c79143f1b5cd27cefd6300d96", "fusion_lon": 0.0, "lon": -77.0551265, "name": "5868aa8c79143f1b5cd27cefd6300d96", "is_disabled": 0, "rental_uris": {"android": "https://dc.lft.to/lastmile_qr_scan", "ios": "https://dc.lft.to/lastmile_qr_scan"}, "type": "electric_bike", "lat": 38.85329316666667, "is_reserved": 0, "fusion_lat": 0.0}, {"bike_id": "f0ad72cfe39ef472c0b0bc6d9202cfd5", "fusion_lon": 0.0, "lon": -77.02386383333334, "name": "f0ad72cfe39ef472c0b0bc6d9202cfd5", "is_disabled": 0, "rental_uris": {"android": "https://dc.lft.to/lastmile_qr_scan", "ios": "https://dc.lft.to/lastmile_qr_scan"}, "type": "electric_scooter", "lat": 38.9207805, "is_reserved": 0, "fusion_lat": 0.0}, {"bike_id": "498312f627c131eee9fbd5e6a46bb37a", "fusion_lon": 0.0, "lon": -77.04666766666666, "name": "498312f627c131eee9fbd5e6a46bb37a", "is_disabled": 0, "rental_uris": {"android": "https://dc.lft.to/lastmile_qr_scan", "ios": "https://dc.lft.to/lastmile_qr_scan"}, "type": "electric_scooter", "lat": 38.90131816666667, "is_reserved": 0, "fusion_lat": 0.0}, {"bike_id": "8ddf1f84b003df07ce47bcb1387d37a3", "fusion_lon": 0.0, "lon": -77.00553933333333, "name": "8ddf1f84b003df07ce47bcb1387d37a3", "is_disabled": 0, "rental_uris": {"android": "https://dc.lft.to/lastmile_qr_scan", "ios": "https://dc.lft.to/lastmile_qr_scan"}, "type": "electric_scooter", "lat": 38.875345, "is_reserved": 0, "fusion_lat": 0.0}, {"bike_id": "aa27756fc6a70f6f40f79709b711d283", "fusion_lon": 0.0, "lon": -77.03551616666667, "name": "aa27756fc6a70f6f40f79709b711d283", "is_disabled": 0, "rental_uris": {"android": "https://dc.lft.to/lastmile_qr_scan", "ios": "https://dc.lft.to/lastmile_qr_scan"}, "type": "electric_scooter", "lat": 38.928672, "is_reserved": 0, "fusion_lat": 0.0}, {"bike_id": "d1d1885f20bf1cfeff45b468f72ef3dc", "fusion_lon": 0.0, "lon": -77.03162016666667, "name": "d1d1885f20bf1cfeff45b468f72ef3dc", "is_disabled": 0, "rental_uris": {"android": "https://dc.lft.to/lastmile_qr_scan", "ios": "https://dc.lft.to/lastmile_qr_scan"}, "type": "electric_bike", "lat": 38.999448666666666, "is_reserved": 0, "fusion_lat": 0.0}, {"bike_id": "1b7c55f2f99f33bdbf4ae5d7d34d9671", "fusion_lon": 0.0, "lon": -77.0445605, "name": "1b7c55f2f99f33bdbf4ae5d7d34d9671", "is_disabled": 0, "rental_uris": {"android": "https://dc.lft.to/lastmile_qr_scan", "ios": "https://dc.lft.to/lastmile_qr_scan"}, "type": "electric_scooter", "lat": 38.91854, "is_reserved": 0, "fusion_lat": 0.0}, {"bike_id": "292811bfa5614499dcc3dab693f6531c", "fusion_lon": 0.0, "lon": -77.0414765, "name": "292811bfa5614499dcc3dab693f6531c", "is_disabled": 0, "rental_uris": {"android": "https://dc.lft.to/lastmile_qr_scan", "ios": "https://dc.lft.to/lastmile_qr_scan"}, "type": "electric_scooter", "lat": 38.893526333333334, "is_reserved": 0, "fusion_lat": 0.0}, {"bike_id": "78575af89ef300534f01fcbc9c1187ac", "fusion_lon": 0.0, "lon": -77.03935, "name": "78575af89ef300534f01fcbc9c1187ac", "is_disabled": 0, "rental_uris": {"android": "https://dc.lft.to/lastmile_qr_scan", "ios": "https://dc.lft.to/lastmile_qr_scan"}, "type": "electric_scooter", "lat": 38.9249625, "is_reserved": 0, "fusion_lat": 0.0}, {"bike_id": "f1ff1c9b53802547092f5458aa2d1d5b", "fusion_lon": 0.0, "lon": -77.036423, "name": "f1ff1c9b53802547092f5458aa2d1d5b", "is_disabled": 0, "rental_uris": {"android": "https://dc.lft.to/lastmile_qr_scan", "ios": "https://dc.lft.to/lastmile_qr_scan"}, "type": "electric_scooter", "lat": 38.915899833333334, "is_reserved": 0, "fusion_lat": 0.0}, {"bike_id": "048b4cc988cc48448ac5cb166876789a", "fusion_lon": 0.0, "lon": -77.00168066666667, "name": "048b4cc988cc48448ac5cb166876789a", "is_disabled": 0, "rental_uris": {"android": "https://dc.lft.to/lastmile_qr_scan", "ios": "https://dc.lft.to/lastmile_qr_scan"}, "type": "electric_scooter", "lat": 38.901373666666665, "is_reserved": 0, "fusion_lat": 0.0}, {"bike_id": "298bf18002f8693b5a596e52b2def619", "fusion_lon": 0.0, "lon": -76.9652995, "name": "298bf18002f8693b5a596e52b2def619", "is_disabled": 0, "rental_uris": {"android": "https://dc.lft.to/lastmile_qr_scan", "ios": "https://dc.lft.to/lastmile_qr_scan"}, "type": "electric_scooter", "lat": 38.8762575, "is_reserved": 0, "fusion_lat": 0.0}, {"bike_id": "8ae7951048c16c6cc7029f39feef9a5b", "fusion_lon": 0.0, "lon": -76.99962183333334, "name": "8ae7951048c16c6cc7029f39feef9a5b", "is_disabled": 0, "rental_uris": {"android": "https://dc.lft.to/lastmile_qr_scan", "ios": "https://dc.lft.to/lastmile_qr_scan"}, "type": "electric_scooter", "lat": 38.91900483333333, "is_reserved": 0, "fusion_lat": 0.0}, {"bike_id": "4b6e00c96cfa869b5d87eb5785ba1bf6", "fusion_lon": 0.0, "lon": -77.05856966666667, "name": "4b6e00c96cfa869b5d87eb5785ba1bf6", "is_disabled": 0, "rental_uris": {"android": "https://dc.lft.to/lastmile_qr_scan", "ios": "https://dc.lft.to/lastmile_qr_scan"}, "type": "electric_scooter", "lat": 38.936057166666664, "is_reserved": 0, "fusion_lat": 0.0}, {"bike_id": "3e8529a0d9b4f0ca16a0c3f1c323ede8", "fusion_lon": 0.0, "lon": -77.00924283333333, "name": "3e8529a0d9b4f0ca16a0c3f1c323ede8", "is_disabled": 0, "rental_uris": {"android": "https://dc.lft.to/lastmile_qr_scan", "ios": "https://dc.lft.to/lastmile_qr_scan"}, "type": "electric_scooter", "lat": 38.91346216666667, "is_reserved": 0, "fusion_lat": 0.0}, {"bike_id": "d591960ff70a4a11d3e35bb343266d67", "fusion_lon": 0.0, "lon": -76.94141083333334, "name": "d591960ff70a4a11d3e35bb343266d67", "is_disabled": 0, "rental_uris": {"android": "https://dc.lft.to/lastmile_qr_scan", "ios": "https://dc.lft.to/lastmile_qr_scan"}, "type": "electric_scooter", "lat": 38.87871633333334, "is_reserved": 0, "fusion_lat": 0.0}, {"bike_id": "751a9b619e29aad66537dba667a039d0", "fusion_lon": 0.0, "lon": -77.02392883333333, "name": "751a9b619e29aad66537dba667a039d0", "is_disabled": 0, "rental_uris": {"android": "https://dc.lft.to/lastmile_qr_scan", "ios": "https://dc.lft.to/lastmile_qr_scan"}, "type": "electric_bike", "lat": 38.927516833333335, "is_reserved": 0, "fusion_lat": 0.0}, {"bike_id": "cc3c49f8772d26939e985e7ad0788f93", "fusion_lon": 0.0, "lon": -77.00211083333333, "name": "cc3c49f8772d26939e985e7ad0788f93", "is_disabled": 0, "rental_uris": {"android": "https://dc.lft.to/lastmile_qr_scan", "ios": "https://dc.lft.to/lastmile_qr_scan"}, "type": "electric_scooter", "lat": 38.9007795, "is_reserved": 0, "fusion_lat": 0.0}, {"bike_id": "0c38fd7862672367c8e35cc6ae6a3ae4", "fusion_lon": 0.0, "lon": -77.04666483333334, "name": "0c38fd7862672367c8e35cc6ae6a3ae4", "is_disabled": 0, "rental_uris": {"android": "https://dc.lft.to/lastmile_qr_scan", "ios": "https://dc.lft.to/lastmile_qr_scan"}, "type": "electric_scooter", "lat": 38.902591666666666, "is_reserved": 0, "fusion_lat": 0.0}, {"bike_id": "44b0dce809c37603bfce2d59508e498b", "fusion_lon": 0.0, "lon": -76.92483316666667, "name": "44b0dce809c37603bfce2d59508e498b", "is_disabled": 0, "rental_uris": {"android": "https://dc.lft.to/lastmile_qr_scan", "ios": "https://dc.lft.to/lastmile_qr_scan"}, "type": "electric_bike", "lat": 38.95881083333333, "is_reserved": 0, "fusion_lat": 0.0}, {"bike_id": "9da574a9b10973f825164271df2c7d21", "fusion_lon": 0.0, "lon": -76.99646766666666, "name": "9da574a9b10973f825164271df2c7d21", "is_disabled": 0, "rental_uris": {"android": "https://dc.lft.to/lastmile_qr_scan", "ios": "https://dc.lft.to/lastmile_qr_scan"}, "type": "electric_bike", "lat": 38.98828116666667, "is_reserved": 0, "fusion_lat": 0.0}, {"bike_id": "b58fa0f60ae5f748dc0850a670b1d86e", "fusion_lon": 0.0, "lon": -77.02636216666667, "name": "b58fa0f60ae5f748dc0850a670b1d86e", "is_disabled": 0, "rental_uris": {"android": "https://dc.lft.to/lastmile_qr_scan", "ios": "https://dc.lft.to/lastmile_qr_scan"}, "type": "electric_scooter", "lat": 38.92541033333333, "is_reserved": 0, "fusion_lat": 0.0}, {"bike_id": "302559a0f0579bc9729808cb8fd7b0ae", "fusion_lon": 0.0, "lon": -77.03880666666667, "name": "302559a0f0579bc9729808cb8fd7b0ae", "is_disabled": 0, "rental_uris": {"android": "https://dc.lft.to/lastmile_qr_scan", "ios": "https://dc.lft.to/lastmile_qr_scan"}, "type": "electric_scooter", "lat": 38.925063, "is_reserved": 0, "fusion_lat": 0.0}, {"bike_id": "70f4126475f49f623ae49f98a9f1d229", "fusion_lon": 0.0, "lon": -77.00582716666666, "name": "70f4126475f49f623ae49f98a9f1d229", "is_disabled": 0, "rental_uris": {"android": "https://dc.lft.to/lastmile_qr_scan", "ios": "https://dc.lft.to/lastmile_qr_scan"}, "type": "electric_scooter", "lat": 38.906189499999996, "is_reserved": 0, "fusion_lat": 0.0}, {"bike_id": "9e4b724e5f80798d960602482ac33d19", "fusion_lon": 0.0, "lon": -77.023056, "name": "9e4b724e5f80798d960602482ac33d19", "is_disabled": 0, "rental_uris": {"android": "https://dc.lft.to/lastmile_qr_scan", "ios": "https://dc.lft.to/lastmile_qr_scan"}, "type": "electric_scooter", "lat": 38.91615733333333, "is_reserved": 0, "fusion_lat": 0.0}, {"bike_id": "947421866a3df6c395a4487b42cd5759", "fusion_lon": 0.0, "lon": -77.02684316666667, "name": "947421866a3df6c395a4487b42cd5759", "is_disabled": 0, "rental_uris": {"android": "https://dc.lft.to/lastmile_qr_scan", "ios": "https://dc.lft.to/lastmile_qr_scan"}, "type": "electric_scooter", "lat": 38.8961655, "is_reserved": 0, "fusion_lat": 0.0}, {"bike_id": "788eaf1d783e5e268336ecee27a926c0", "fusion_lon": 0.0, "lon": -76.98687933333333, "name": "788eaf1d783e5e268336ecee27a926c0", "is_disabled": 0, "rental_uris": {"android": "https://dc.lft.to/lastmile_qr_scan", "ios": "https://dc.lft.to/lastmile_qr_scan"}, "type": "electric_scooter", "lat": 38.86721683333333, "is_reserved": 0, "fusion_lat": 0.0}, {"bike_id": "d2b1a0712b61c9b8b0f98664527e981a", "fusion_lon": 0.0, "lon": -76.94550066666666, "name": "d2b1a0712b61c9b8b0f98664527e981a", "is_disabled": 0, "rental_uris": {"android": "https://dc.lft.to/lastmile_qr_scan", "ios": "https://dc.lft.to/lastmile_qr_scan"}, "type": "electric_scooter", "lat": 38.8649395, "is_reserved": 0, "fusion_lat": 0.0}, {"bike_id": "3f37486eec36a3aa96bc53dc55b6c6d3", "fusion_lon": 0.0, "lon": -77.04028883333334, "name": "3f37486eec36a3aa96bc53dc55b6c6d3", "is_disabled": 0, "rental_uris": {"android": "https://dc.lft.to/lastmile_qr_scan", "ios": "https://dc.lft.to/lastmile_qr_scan"}, "type": "electric_scooter", "lat": 38.930658333333334, "is_reserved": 0, "fusion_lat": 0.0}, {"bike_id": "40cb8b80f411b82fa7801a625459674d", "fusion_lon": 0.0, "lon": -77.04639783333333, "name": "40cb8b80f411b82fa7801a625459674d", "is_disabled": 0, "rental_uris": {"android": "https://dc.lft.to/lastmile_qr_scan", "ios": "https://dc.lft.to/lastmile_qr_scan"}, "type": "electric_scooter", "lat": 38.8953055, "is_reserved": 0, "fusion_lat": 0.0}, {"bike_id": "87fabeb910b9c8f50ba953900f5cc684", "fusion_lon": 0.0, "lon": -77.02216883333334, "name": "87fabeb910b9c8f50ba953900f5cc684", "is_disabled": 0, "rental_uris": {"android": "https://dc.lft.to/lastmile_qr_scan", "ios": "https://dc.lft.to/lastmile_qr_scan"}, "type": "electric_scooter", "lat": 38.914010833333336, "is_reserved": 0, "fusion_lat": 0.0}, {"bike_id": "e71a93957effd800d87a5e513071eb9d", "fusion_lon": 0.0, "lon": -77.02350433333334, "name": "e71a93957effd800d87a5e513071eb9d", "is_disabled": 0, "rental_uris": {"android": "https://dc.lft.to/lastmile_qr_scan", "ios": "https://dc.lft.to/lastmile_qr_scan"}, "type": "electric_scooter", "lat": 38.907258, "is_reserved": 0, "fusion_lat": 0.0}, {"bike_id": "74804bc75beaa43d3bd8a65b642b01cc", "fusion_lon": 0.0, "lon": -77.01777816666667, "name": "74804bc75beaa43d3bd8a65b642b01cc", "is_disabled": 0, "rental_uris": {"android": "https://dc.lft.to/lastmile_qr_scan", "ios": "https://dc.lft.to/lastmile_qr_scan"}, "type": "electric_scooter", "lat": 38.88718733333333, "is_reserved": 0, "fusion_lat": 0.0}, {"bike_id": "c95a73cf2128990f9c570c5fd72e1274", "fusion_lon": 0.0, "lon": -77.11896733333333, "name": "c95a73cf2128990f9c570c5fd72e1274", "is_disabled": 0, "rental_uris": {"android": "https://dc.lft.to/lastmile_qr_scan", "ios": "https://dc.lft.to/lastmile_qr_scan"}, "type": "electric_bike", "lat": 39.07505833333333, "is_reserved": 0, "fusion_lat": 0.0}, {"bike_id": "7fa14d8f8382d3d7d69632ff567b034f", "fusion_lon": 0.0, "lon": -77.03660466666666, "name": "7fa14d8f8382d3d7d69632ff567b034f", "is_disabled": 0, "rental_uris": {"android": "https://dc.lft.to/lastmile_qr_scan", "ios": "https://dc.lft.to/lastmile_qr_scan"}, "type": "electric_scooter", "lat": 38.923843, "is_reserved": 0, "fusion_lat": 0.0}, {"bike_id": "6a5cb9d928e1e7caf24bcee0bb2f5222", "fusion_lon": 0.0, "lon": -77.04341133333334, "name": "6a5cb9d928e1e7caf24bcee0bb2f5222", "is_disabled": 0, "rental_uris": {"android": "https://dc.lft.to/lastmile_qr_scan", "ios": "https://dc.lft.to/lastmile_qr_scan"}, "type": "electric_scooter", "lat": 38.909346666666664, "is_reserved": 0, "fusion_lat": 0.0}, {"bike_id": "78b8a1e3977ebd40184a648d4c60dddb", "fusion_lon": 0.0, "lon": -76.99782833333333, "name": "78b8a1e3977ebd40184a648d4c60dddb", "is_disabled": 0, "rental_uris": {"android": "https://dc.lft.to/lastmile_qr_scan", "ios": "https://dc.lft.to/lastmile_qr_scan"}, "type": "electric_scooter", "lat": 38.90905683333333, "is_reserved": 0, "fusion_lat": 0.0}, {"bike_id": "e4d6dbfe51a1ddec29974a0a1d9b64c6", "fusion_lon": 0.0, "lon": -77.05088633333334, "name": "e4d6dbfe51a1ddec29974a0a1d9b64c6", "is_disabled": 0, "rental_uris": {"android": "https://dc.lft.to/lastmile_qr_scan", "ios": "https://dc.lft.to/lastmile_qr_scan"}, "type": "electric_bike", "lat": 38.813319, "is_reserved": 0, "fusion_lat": 0.0}, {"bike_id": "b04bd253c1e00f2e651685e3bbefa3f6", "fusion_lon": 0.0, "lon": -77.004362, "name": "b04bd253c1e00f2e651685e3bbefa3f6", "is_disabled": 0, "rental_uris": {"android": "https://dc.lft.to/lastmile_qr_scan", "ios": "https://dc.lft.to/lastmile_qr_scan"}, "type": "electric_scooter", "lat": 38.87713083333333, "is_reserved": 0, "fusion_lat": 0.0}, {"bike_id": "ae380d6f3c7fe168d428b3d1395fb489", "fusion_lon": 0.0, "lon": -77.04191283333333, "name": "ae380d6f3c7fe168d428b3d1395fb489", "is_disabled": 0, "rental_uris": {"android": "https://dc.lft.to/lastmile_qr_scan", "ios": "https://dc.lft.to/lastmile_qr_scan"}, "type": "electric_scooter", "lat": 38.9205265, "is_reserved": 0, "fusion_lat": 0.0}, {"bike_id": "7094b9621362c3dc6f00396395c2e308", "fusion_lon": 0.0, "lon": -76.98463383333333, "name": "7094b9621362c3dc6f00396395c2e308", "is_disabled": 0, "rental_uris": {"android": "https://dc.lft.to/lastmile_qr_scan", "ios": "https://dc.lft.to/lastmile_qr_scan"}, "type": "electric_scooter", "lat": 38.880145, "is_reserved": 0, "fusion_lat": 0.0}, {"bike_id": "0f0ecc76aa6af37e85471af045fba212", "fusion_lon": 0.0, "lon": -77.02154233333333, "name": "0f0ecc76aa6af37e85471af045fba212", "is_disabled": 0, "rental_uris": {"android": "https://dc.lft.to/lastmile_qr_scan", "ios": "https://dc.lft.to/lastmile_qr_scan"}, "type": "electric_scooter", "lat": 38.90963966666666, "is_reserved": 0, "fusion_lat": 0.0}, {"bike_id": "9e05fa13837479f84da82b36791fd733", "fusion_lon": 0.0, "lon": -77.03174616666666, "name": "9e05fa13837479f84da82b36791fd733", "is_disabled": 0, "rental_uris": {"android": "https://dc.lft.to/lastmile_qr_scan", "ios": "https://dc.lft.to/lastmile_qr_scan"}, "type": "electric_scooter", "lat": 38.91810316666667, "is_reserved": 0, "fusion_lat": 0.0}, {"bike_id": "f24b12b8bb25c794d903b4532416cc65", "fusion_lon": 0.0, "lon": -76.99513233333333, "name": "f24b12b8bb25c794d903b4532416cc65", "is_disabled": 0, "rental_uris": {"android": "https://dc.lft.to/lastmile_qr_scan", "ios": "https://dc.lft.to/lastmile_qr_scan"}, "type": "electric_scooter", "lat": 38.88126116666667, "is_reserved": 0, "fusion_lat": 0.0}, {"bike_id": "9118acaa6534da2256e67535c951e4f3", "fusion_lon": 0.0, "lon": -76.99708833333334, "name": "9118acaa6534da2256e67535c951e4f3", "is_disabled": 0, "rental_uris": {"android": "https://dc.lft.to/lastmile_qr_scan", "ios": "https://dc.lft.to/lastmile_qr_scan"}, "type": "electric_scooter", "lat": 38.844298333333334, "is_reserved": 0, "fusion_lat": 0.0}, {"bike_id": "50df431fbd896ddd479174b63a323917", "fusion_lon": 0.0, "lon": -77.01693, "name": "50df431fbd896ddd479174b63a323917", "is_disabled": 0, "rental_uris": {"android": "https://dc.lft.to/lastmile_qr_scan", "ios": "https://dc.lft.to/lastmile_qr_scan"}, "type": "electric_scooter", "lat": 38.9749685, "is_reserved": 0, "fusion_lat": 0.0}, {"bike_id": "2d032d9dc48e8f9bc94bba529f085994", "fusion_lon": 0.0, "lon": -77.04164783333333, "name": "2d032d9dc48e8f9bc94bba529f085994", "is_disabled": 0, "rental_uris": {"android": "https://dc.lft.to/lastmile_qr_scan", "ios": "https://dc.lft.to/lastmile_qr_scan"}, "type": "electric_scooter", "lat": 38.91863683333333, "is_reserved": 0, "fusion_lat": 0.0}, {"bike_id": "6b89c28a003f68e702fbdb9b88c0b8a5", "fusion_lon": 0.0, "lon": -77.04332966666666, "name": "6b89c28a003f68e702fbdb9b88c0b8a5", "is_disabled": 0, "rental_uris": {"android": "https://dc.lft.to/lastmile_qr_scan", "ios": "https://dc.lft.to/lastmile_qr_scan"}, "type": "electric_scooter", "lat": 38.8922475, "is_reserved": 0, "fusion_lat": 0.0}, {"bike_id": "9a05ef426ca151c07fbccb7c418e6c9c", "fusion_lon": 0.0, "lon": -77.04834533333333, "name": "9a05ef426ca151c07fbccb7c418e6c9c", "is_disabled": 0, "rental_uris": {"android": "https://dc.lft.to/lastmile_qr_scan", "ios": "https://dc.lft.to/lastmile_qr_scan"}, "type": "electric_scooter", "lat": 38.910386333333335, "is_reserved": 0, "fusion_lat": 0.0}, {"bike_id": "8c9a0dae29149be409c694f48f4658e4", "fusion_lon": 0.0, "lon": -77.041366, "name": "8c9a0dae29149be409c694f48f4658e4", "is_disabled": 0, "rental_uris": {"android": "https://dc.lft.to/lastmile_qr_scan", "ios": "https://dc.lft.to/lastmile_qr_scan"}, "type": "electric_scooter", "lat": 38.8935355, "is_reserved": 0, "fusion_lat": 0.0}, {"bike_id": "17cbdc0332cd9229680410e984b16be1", "fusion_lon": 0.0, "lon": -77.03265116666667, "name": "17cbdc0332cd9229680410e984b16be1", "is_disabled": 0, "rental_uris": {"android": "https://dc.lft.to/lastmile_qr_scan", "ios": "https://dc.lft.to/lastmile_qr_scan"}, "type": "electric_scooter", "lat": 38.93774333333333, "is_reserved": 0, "fusion_lat": 0.0}, {"bike_id": "741941baa827f76e8127baf214093fee", "fusion_lon": 0.0, "lon": -76.99375066666667, "name": "741941baa827f76e8127baf214093fee", "is_disabled": 0, "rental_uris": {"android": "https://dc.lft.to/lastmile_qr_scan", "ios": "https://dc.lft.to/lastmile_qr_scan"}, "type": "electric_scooter", "lat": 38.9003355, "is_reserved": 0, "fusion_lat": 0.0}, {"bike_id": "cd40dbb009801404800bca2538871efb", "fusion_lon": 0.0, "lon": -77.047006, "name": "cd40dbb009801404800bca2538871efb", "is_disabled": 0, "rental_uris": {"android": "https://dc.lft.to/lastmile_qr_scan", "ios": "https://dc.lft.to/lastmile_qr_scan"}, "type": "electric_scooter", "lat": 38.9223395, "is_reserved": 0, "fusion_lat": 0.0}, {"bike_id": "65ad5d4def68da3021c187b5c65dc65d", "fusion_lon": 0.0, "lon": -77.0211295, "name": "65ad5d4def68da3021c187b5c65dc65d", "is_disabled": 0, "rental_uris": {"android": "https://dc.lft.to/lastmile_qr_scan", "ios": "https://dc.lft.to/lastmile_qr_scan"}, "type": "electric_scooter", "lat": 38.930186, "is_reserved": 0, "fusion_lat": 0.0}, {"bike_id": "8e9408685bf793a95541fc90c5c77e31", "fusion_lon": 0.0, "lon": -77.09962416666667, "name": "8e9408685bf793a95541fc90c5c77e31", "is_disabled": 0, "rental_uris": {"android": "https://dc.lft.to/lastmile_qr_scan", "ios": "https://dc.lft.to/lastmile_qr_scan"}, "type": "electric_bike", "lat": 38.857901, "is_reserved": 0, "fusion_lat": 0.0}, {"bike_id": "9453ea7035ac179021a8d9400428f678", "fusion_lon": 0.0, "lon": -76.9794705, "name": "9453ea7035ac179021a8d9400428f678", "is_disabled": 0, "rental_uris": {"android": "https://dc.lft.to/lastmile_qr_scan", "ios": "https://dc.lft.to/lastmile_qr_scan"}, "type": "electric_scooter", "lat": 38.945291, "is_reserved": 0, "fusion_lat": 0.0}, {"bike_id": "566bbc865d3a226aa18260b7ea0fc1de", "fusion_lon": 0.0, "lon": -76.99558683333333, "name": "566bbc865d3a226aa18260b7ea0fc1de", "is_disabled": 0, "rental_uris": {"android": "https://dc.lft.to/lastmile_qr_scan", "ios": "https://dc.lft.to/lastmile_qr_scan"}, "type": "electric_scooter", "lat": 38.9266615, "is_reserved": 0, "fusion_lat": 0.0}, {"bike_id": "0797488e19f7a4898ab5d97dd6d00453", "fusion_lon": 0.0, "lon": -77.02659516666667, "name": "0797488e19f7a4898ab5d97dd6d00453", "is_disabled": 0, "rental_uris": {"android": "https://dc.lft.to/lastmile_qr_scan", "ios": "https://dc.lft.to/lastmile_qr_scan"}, "type": "electric_scooter", "lat": 38.92219083333333, "is_reserved": 0, "fusion_lat": 0.0}, {"bike_id": "b47a09c902835fa8e7ec1a14b5f82625", "fusion_lon": 0.0, "lon": -77.09799733333334, "name": "b47a09c902835fa8e7ec1a14b5f82625", "is_disabled": 0, "rental_uris": {"android": "https://dc.lft.to/lastmile_qr_scan", "ios": "https://dc.lft.to/lastmile_qr_scan"}, "type": "electric_bike", "lat": 38.850306833333335, "is_reserved": 0, "fusion_lat": 0.0}, {"bike_id": "d4fac589f427bba575ca967cca05c922", "fusion_lon": 0.0, "lon": -77.04042183333334, "name": "d4fac589f427bba575ca967cca05c922", "is_disabled": 0, "rental_uris": {"android": "https://dc.lft.to/lastmile_qr_scan", "ios": "https://dc.lft.to/lastmile_qr_scan"}, "type": "electric_scooter", "lat": 38.91858633333333, "is_reserved": 0, "fusion_lat": 0.0}, {"bike_id": "78f45b80329e91ac512c0760b490f0f4", "fusion_lon": 0.0, "lon": -77.03957116666666, "name": "78f45b80329e91ac512c0760b490f0f4", "is_disabled": 0, "rental_uris": {"android": "https://dc.lft.to/lastmile_qr_scan", "ios": "https://dc.lft.to/lastmile_qr_scan"}, "type": "electric_scooter", "lat": 38.8924365, "is_reserved": 0, "fusion_lat": 0.0}, {"bike_id": "488cdb2fd91c8f22d95f78ea9fa6d979", "fusion_lon": 0.0, "lon": -77.035202, "name": "488cdb2fd91c8f22d95f78ea9fa6d979", "is_disabled": 0, "rental_uris": {"android": "https://dc.lft.to/lastmile_qr_scan", "ios": "https://dc.lft.to/lastmile_qr_scan"}, "type": "electric_scooter", "lat": 38.935992, "is_reserved": 0, "fusion_lat": 0.0}, {"bike_id": "763889e82137d38c36d359de4fbf01f5", "fusion_lon": 0.0, "lon": -77.0418805, "name": "763889e82137d38c36d359de4fbf01f5", "is_disabled": 0, "rental_uris": {"android": "https://dc.lft.to/lastmile_qr_scan", "ios": "https://dc.lft.to/lastmile_qr_scan"}, "type": "electric_scooter", "lat": 38.901644833333336, "is_reserved": 0, "fusion_lat": 0.0}, {"bike_id": "ed38d648f972c56a07428ef314505c9c", "fusion_lon": 0.0, "lon": -77.03520116666667, "name": "ed38d648f972c56a07428ef314505c9c", "is_disabled": 0, "rental_uris": {"android": "https://dc.lft.to/lastmile_qr_scan", "ios": "https://dc.lft.to/lastmile_qr_scan"}, "type": "electric_scooter", "lat": 38.92279283333333, "is_reserved": 0, "fusion_lat": 0.0}, {"bike_id": "9eb444616507659086e7b17e35419978", "fusion_lon": 0.0, "lon": -77.02479466666666, "name": "9eb444616507659086e7b17e35419978", "is_disabled": 0, "rental_uris": {"android": "https://dc.lft.to/lastmile_qr_scan", "ios": "https://dc.lft.to/lastmile_qr_scan"}, "type": "electric_scooter", "lat": 38.90967083333334, "is_reserved": 0, "fusion_lat": 0.0}, {"bike_id": "2216818f7644782601865194a8169e73", "fusion_lon": 0.0, "lon": -77.02072833333334, "name": "2216818f7644782601865194a8169e73", "is_disabled": 0, "rental_uris": {"android": "https://dc.lft.to/lastmile_qr_scan", "ios": "https://dc.lft.to/lastmile_qr_scan"}, "type": "electric_bike", "lat": 38.964384833333334, "is_reserved": 0, "fusion_lat": 0.0}, {"bike_id": "f1b784a15a2ab44c72fd77d64291a764", "fusion_lon": 0.0, "lon": -77.029681, "name": "f1b784a15a2ab44c72fd77d64291a764", "is_disabled": 0, "rental_uris": {"android": "https://dc.lft.to/lastmile_qr_scan", "ios": "https://dc.lft.to/lastmile_qr_scan"}, "type": "electric_scooter", "lat": 38.91685316666667, "is_reserved": 0, "fusion_lat": 0.0}, {"bike_id": "a3d9d043181aa7fcc3340617ee9d146a", "fusion_lon": 0.0, "lon": -77.01752966666666, "name": "a3d9d043181aa7fcc3340617ee9d146a", "is_disabled": 0, "rental_uris": {"android": "https://dc.lft.to/lastmile_qr_scan", "ios": "https://dc.lft.to/lastmile_qr_scan"}, "type": "electric_scooter", "lat": 38.877766, "is_reserved": 0, "fusion_lat": 0.0}, {"bike_id": "72d4594411dd6648e7a5d85603e0413c", "fusion_lon": 0.0, "lon": -77.02214316666667, "name": "72d4594411dd6648e7a5d85603e0413c", "is_disabled": 0, "rental_uris": {"android": "https://dc.lft.to/lastmile_qr_scan", "ios": "https://dc.lft.to/lastmile_qr_scan"}, "type": "electric_scooter", "lat": 38.91566266666667, "is_reserved": 0, "fusion_lat": 0.0}, {"bike_id": "534899aeb0d44bba33ced65e5bdd908f", "fusion_lon": 0.0, "lon": -76.88375266666667, "name": "534899aeb0d44bba33ced65e5bdd908f", "is_disabled": 0, "rental_uris": {"android": "https://dc.lft.to/lastmile_qr_scan", "ios": "https://dc.lft.to/lastmile_qr_scan"}, "type": "electric_bike", "lat": 38.99821433333334, "is_reserved": 0, "fusion_lat": 0.0}, {"bike_id": "67066dc4b4b7914b900d33f0d75a541c", "fusion_lon": 0.0, "lon": -77.02402733333334, "name": "67066dc4b4b7914b900d33f0d75a541c", "is_disabled": 0, "rental_uris": {"android": "https://dc.lft.to/lastmile_qr_scan", "ios": "https://dc.lft.to/lastmile_qr_scan"}, "type": "electric_scooter", "lat": 38.91960133333333, "is_reserved": 0, "fusion_lat": 0.0}, {"bike_id": "f36ab54752eac311b590727739a1a2b6", "fusion_lon": 0.0, "lon": -77.0295435, "name": "f36ab54752eac311b590727739a1a2b6", "is_disabled": 0, "rental_uris": {"android": "https://dc.lft.to/lastmile_qr_scan", "ios": "https://dc.lft.to/lastmile_qr_scan"}, "type": "electric_scooter", "lat": 38.916937833333336, "is_reserved": 0, "fusion_lat": 0.0}, {"bike_id": "9d9496a69fa6cea88315e28e1e7a3003", "fusion_lon": 0.0, "lon": -77.02397316666666, "name": "9d9496a69fa6cea88315e28e1e7a3003", "is_disabled": 0, "rental_uris": {"android": "https://dc.lft.to/lastmile_qr_scan", "ios": "https://dc.lft.to/lastmile_qr_scan"}, "type": "electric_scooter", "lat": 38.916057333333335, "is_reserved": 0, "fusion_lat": 0.0}, {"bike_id": "10c1649bfc93e81b2c4967dc12387c05", "fusion_lon": 0.0, "lon": -77.03954433333334, "name": "10c1649bfc93e81b2c4967dc12387c05", "is_disabled": 0, "rental_uris": {"android": "https://dc.lft.to/lastmile_qr_scan", "ios": "https://dc.lft.to/lastmile_qr_scan"}, "type": "electric_scooter", "lat": 38.894152, "is_reserved": 0, "fusion_lat": 0.0}, {"bike_id": "e4f4adc3471fa6445b671a9d0d9c781c", "fusion_lon": 0.0, "lon": -77.02976916666667, "name": "e4f4adc3471fa6445b671a9d0d9c781c", "is_disabled": 0, "rental_uris": {"android": "https://dc.lft.to/lastmile_qr_scan", "ios": "https://dc.lft.to/lastmile_qr_scan"}, "type": "electric_scooter", "lat": 38.89565966666667, "is_reserved": 0, "fusion_lat": 0.0}, {"bike_id": "e5a2780a85eb63d02949a24d08e57e09", "fusion_lon": 0.0, "lon": -77.032828, "name": "e5a2780a85eb63d02949a24d08e57e09", "is_disabled": 0, "rental_uris": {"android": "https://dc.lft.to/lastmile_qr_scan", "ios": "https://dc.lft.to/lastmile_qr_scan"}, "type": "electric_scooter", "lat": 38.9274635, "is_reserved": 0, "fusion_lat": 0.0}, {"bike_id": "5667f3bd511d490ca7d841c145ca6971", "fusion_lon": 0.0, "lon": -76.97703716666666, "name": "5667f3bd511d490ca7d841c145ca6971", "is_disabled": 0, "rental_uris": {"android": "https://dc.lft.to/lastmile_qr_scan", "ios": "https://dc.lft.to/lastmile_qr_scan"}, "type": "electric_bike", "lat": 38.94914633333333, "is_reserved": 0, "fusion_lat": 0.0}, {"bike_id": "53da882fe9c24f8347baadca6bf6c251", "fusion_lon": 0.0, "lon": -77.03288983333333, "name": "53da882fe9c24f8347baadca6bf6c251", "is_disabled": 0, "rental_uris": {"android": "https://dc.lft.to/lastmile_qr_scan", "ios": "https://dc.lft.to/lastmile_qr_scan"}, "type": "electric_scooter", "lat": 38.919917833333336, "is_reserved": 0, "fusion_lat": 0.0}, {"bike_id": "faa70098e7fa80c92d2baa25dadc9b34", "fusion_lon": 0.0, "lon": -77.0527125, "name": "faa70098e7fa80c92d2baa25dadc9b34", "is_disabled": 0, "rental_uris": {"android": "https://dc.lft.to/lastmile_qr_scan", "ios": "https://dc.lft.to/lastmile_qr_scan"}, "type": "electric_scooter", "lat": 38.92564766666667, "is_reserved": 0, "fusion_lat": 0.0}, {"bike_id": "be54c5ea404e779872544b5731378d92", "fusion_lon": 0.0, "lon": -76.951418, "name": "be54c5ea404e779872544b5731378d92", "is_disabled": 0, "rental_uris": {"android": "https://dc.lft.to/lastmile_qr_scan", "ios": "https://dc.lft.to/lastmile_qr_scan"}, "type": "electric_scooter", "lat": 38.89039183333333, "is_reserved": 0, "fusion_lat": 0.0}, {"bike_id": "b2bb739523c693af694c62f81742997e", "fusion_lon": 0.0, "lon": -77.03660616666667, "name": "b2bb739523c693af694c62f81742997e", "is_disabled": 0, "rental_uris": {"android": "https://dc.lft.to/lastmile_qr_scan", "ios": "https://dc.lft.to/lastmile_qr_scan"}, "type": "electric_scooter", "lat": 38.92284883333333, "is_reserved": 0, "fusion_lat": 0.0}, {"bike_id": "c35d3588927220dd27640aa922d62006", "fusion_lon": 0.0, "lon": -77.02626016666666, "name": "c35d3588927220dd27640aa922d62006", "is_disabled": 0, "rental_uris": {"android": "https://dc.lft.to/lastmile_qr_scan", "ios": "https://dc.lft.to/lastmile_qr_scan"}, "type": "electric_bike", "lat": 38.96219583333333, "is_reserved": 0, "fusion_lat": 0.0}, {"bike_id": "2477a57fefae5f90d7893eb6f6ff1b76", "fusion_lon": 0.0, "lon": -77.03767683333334, "name": "2477a57fefae5f90d7893eb6f6ff1b76", "is_disabled": 0, "rental_uris": {"android": "https://dc.lft.to/lastmile_qr_scan", "ios": "https://dc.lft.to/lastmile_qr_scan"}, "type": "electric_scooter", "lat": 38.92971883333333, "is_reserved": 0, "fusion_lat": 0.0}, {"bike_id": "c5d9aea465a5095b7fdd70f134a7f012", "fusion_lon": 0.0, "lon": -76.9905095, "name": "c5d9aea465a5095b7fdd70f134a7f012", "is_disabled": 0, "rental_uris": {"android": "https://dc.lft.to/lastmile_qr_scan", "ios": "https://dc.lft.to/lastmile_qr_scan"}, "type": "electric_scooter", "lat": 38.863607333333334, "is_reserved": 0, "fusion_lat": 0.0}, {"bike_id": "ca2ba8fa8bf9a06010eaa19cb9ad479c", "fusion_lon": 0.0, "lon": -77.04660983333333, "name": "ca2ba8fa8bf9a06010eaa19cb9ad479c", "is_disabled": 0, "rental_uris": {"android": "https://dc.lft.to/lastmile_qr_scan", "ios": "https://dc.lft.to/lastmile_qr_scan"}, "type": "electric_scooter", "lat": 38.89254866666667, "is_reserved": 0, "fusion_lat": 0.0}, {"bike_id": "8f9e29b6a5e1e64587bdccaf9554ddd7", "fusion_lon": 0.0, "lon": -77.01781816666667, "name": "8f9e29b6a5e1e64587bdccaf9554ddd7", "is_disabled": 0, "rental_uris": {"android": "https://dc.lft.to/lastmile_qr_scan", "ios": "https://dc.lft.to/lastmile_qr_scan"}, "type": "electric_scooter", "lat": 38.900859833333335, "is_reserved": 0, "fusion_lat": 0.0}, {"bike_id": "75d195a2c258327c2e1cbd95329825c9", "fusion_lon": 0.0, "lon": -77.027674, "name": "75d195a2c258327c2e1cbd95329825c9", "is_disabled": 0, "rental_uris": {"android": "https://dc.lft.to/lastmile_qr_scan", "ios": "https://dc.lft.to/lastmile_qr_scan"}, "type": "electric_scooter", "lat": 38.954258333333335, "is_reserved": 0, "fusion_lat": 0.0}, {"bike_id": "e7063eff0036727811aad7d886c9ffdd", "fusion_lon": 0.0, "lon": -77.05000066666666, "name": "e7063eff0036727811aad7d886c9ffdd", "is_disabled": 0, "rental_uris": {"android": "https://dc.lft.to/lastmile_qr_scan", "ios": "https://dc.lft.to/lastmile_qr_scan"}, "type": "electric_scooter", "lat": 38.89233816666667, "is_reserved": 0, "fusion_lat": 0.0}, {"bike_id": "5d6bc2a3241bf21201c5f2806eaf9279", "fusion_lon": 0.0, "lon": -77.03502566666667, "name": "5d6bc2a3241bf21201c5f2806eaf9279", "is_disabled": 0, "rental_uris": {"android": "https://dc.lft.to/lastmile_qr_scan", "ios": "https://dc.lft.to/lastmile_qr_scan"}, "type": "electric_scooter", "lat": 38.91708066666666, "is_reserved": 0, "fusion_lat": 0.0}, {"bike_id": "5de5cba532cbf7de45cec7ca159652b1", "fusion_lon": 0.0, "lon": -77.021277, "name": "5de5cba532cbf7de45cec7ca159652b1", "is_disabled": 0, "rental_uris": {"android": "https://dc.lft.to/lastmile_qr_scan", "ios": "https://dc.lft.to/lastmile_qr_scan"}, "type": "electric_scooter", "lat": 38.9232835, "is_reserved": 0, "fusion_lat": 0.0}, {"bike_id": "e1e48f5f8843064844ff01265047b674", "fusion_lon": 0.0, "lon": -77.02734633333333, "name": "e1e48f5f8843064844ff01265047b674", "is_disabled": 0, "rental_uris": {"android": "https://dc.lft.to/lastmile_qr_scan", "ios": "https://dc.lft.to/lastmile_qr_scan"}, "type": "electric_scooter", "lat": 38.9276525, "is_reserved": 0, "fusion_lat": 0.0}, {"bike_id": "74c63b32c8a546238586e8700bfddf62", "fusion_lon": 0.0, "lon": -77.01465766666666, "name": "74c63b32c8a546238586e8700bfddf62", "is_disabled": 0, "rental_uris": {"android": "https://dc.lft.to/lastmile_qr_scan", "ios": "https://dc.lft.to/lastmile_qr_scan"}, "type": "electric_scooter", "lat": 38.9177155, "is_reserved": 0, "fusion_lat": 0.0}, {"bike_id": "55c158b244d74d8c3da1e7a872e18de4", "fusion_lon": 0.0, "lon": -77.05327966666667, "name": "55c158b244d74d8c3da1e7a872e18de4", "is_disabled": 0, "rental_uris": {"android": "https://dc.lft.to/lastmile_qr_scan", "ios": "https://dc.lft.to/lastmile_qr_scan"}, "type": "electric_scooter", "lat": 38.923540333333335, "is_reserved": 0, "fusion_lat": 0.0}, {"bike_id": "2e4728c2185c26060a0668ba1a6124db", "fusion_lon": 0.0, "lon": -76.99506516666666, "name": "2e4728c2185c26060a0668ba1a6124db", "is_disabled": 0, "rental_uris": {"android": "https://dc.lft.to/lastmile_qr_scan", "ios": "https://dc.lft.to/lastmile_qr_scan"}, "type": "electric_scooter", "lat": 38.88253016666667, "is_reserved": 0, "fusion_lat": 0.0}, {"bike_id": "ff74261b7938fd0a2ae76aaa68e772f4", "fusion_lon": 0.0, "lon": -77.03173533333333, "name": "ff74261b7938fd0a2ae76aaa68e772f4", "is_disabled": 0, "rental_uris": {"android": "https://dc.lft.to/lastmile_qr_scan", "ios": "https://dc.lft.to/lastmile_qr_scan"}, "type": "electric_scooter", "lat": 38.91916766666667, "is_reserved": 0, "fusion_lat": 0.0}, {"bike_id": "a53f65b8026af792a5042fc7a354dbf3", "fusion_lon": 0.0, "lon": -76.9493335, "name": "a53f65b8026af792a5042fc7a354dbf3", "is_disabled": 0, "rental_uris": {"android": "https://dc.lft.to/lastmile_qr_scan", "ios": "https://dc.lft.to/lastmile_qr_scan"}, "type": "electric_scooter", "lat": 38.89349266666667, "is_reserved": 0, "fusion_lat": 0.0}, {"bike_id": "16b1e8bff839da45c3f6cfd8ff7bde8a", "fusion_lon": 0.0, "lon": -77.04018683333334, "name": "16b1e8bff839da45c3f6cfd8ff7bde8a", "is_disabled": 0, "rental_uris": {"android": "https://dc.lft.to/lastmile_qr_scan", "ios": "https://dc.lft.to/lastmile_qr_scan"}, "type": "electric_scooter", "lat": 38.90370166666666, "is_reserved": 0, "fusion_lat": 0.0}, {"bike_id": "19dd9c885f132d6a5f2bf862d02ef14c", "fusion_lon": 0.0, "lon": -77.03947166666667, "name": "19dd9c885f132d6a5f2bf862d02ef14c", "is_disabled": 0, "rental_uris": {"android": "https://dc.lft.to/lastmile_qr_scan", "ios": "https://dc.lft.to/lastmile_qr_scan"}, "type": "electric_scooter", "lat": 38.926215, "is_reserved": 0, "fusion_lat": 0.0}, {"bike_id": "260ad6c8ed51d797b759228cd1639346", "fusion_lon": 0.0, "lon": -77.02140133333333, "name": "260ad6c8ed51d797b759228cd1639346", "is_disabled": 0, "rental_uris": {"android": "https://dc.lft.to/lastmile_qr_scan", "ios": "https://dc.lft.to/lastmile_qr_scan"}, "type": "electric_scooter", "lat": 38.925884, "is_reserved": 0, "fusion_lat": 0.0}, {"bike_id": "510e0cde70b947d79404040716b09d0b", "fusion_lon": 0.0, "lon": -77.03101866666667, "name": "510e0cde70b947d79404040716b09d0b", "is_disabled": 0, "rental_uris": {"android": "https://dc.lft.to/lastmile_qr_scan", "ios": "https://dc.lft.to/lastmile_qr_scan"}, "type": "electric_scooter", "lat": 38.950739666666664, "is_reserved": 0, "fusion_lat": 0.0}, {"bike_id": "cbefcb587eec40f73c74a69e48d2e13e", "fusion_lon": 0.0, "lon": -77.0451955, "name": "cbefcb587eec40f73c74a69e48d2e13e", "is_disabled": 0, "rental_uris": {"android": "https://dc.lft.to/lastmile_qr_scan", "ios": "https://dc.lft.to/lastmile_qr_scan"}, "type": "electric_bike", "lat": 38.842878, "is_reserved": 0, "fusion_lat": 0.0}, {"bike_id": "f724552de8eb6248b5d02fed290e33fe", "fusion_lon": 0.0, "lon": -77.03955766666667, "name": "f724552de8eb6248b5d02fed290e33fe", "is_disabled": 0, "rental_uris": {"android": "https://dc.lft.to/lastmile_qr_scan", "ios": "https://dc.lft.to/lastmile_qr_scan"}, "type": "electric_scooter", "lat": 38.89266416666667, "is_reserved": 0, "fusion_lat": 0.0}, {"bike_id": "5c2ce62df327f6598db20dd0023d1fa5", "fusion_lon": 0.0, "lon": -77.02467916666667, "name": "5c2ce62df327f6598db20dd0023d1fa5", "is_disabled": 0, "rental_uris": {"android": "https://dc.lft.to/lastmile_qr_scan", "ios": "https://dc.lft.to/lastmile_qr_scan"}, "type": "electric_scooter", "lat": 38.93300116666666, "is_reserved": 0, "fusion_lat": 0.0}, {"bike_id": "a1c467d2e38ef61765e27313f937cb59", "fusion_lon": 0.0, "lon": -77.02578233333334, "name": "a1c467d2e38ef61765e27313f937cb59", "is_disabled": 0, "rental_uris": {"android": "https://dc.lft.to/lastmile_qr_scan", "ios": "https://dc.lft.to/lastmile_qr_scan"}, "type": "electric_scooter", "lat": 38.903437333333336, "is_reserved": 0, "fusion_lat": 0.0}, {"bike_id": "1885c5b64274e4ee5f1beb03d6a58e74", "fusion_lon": 0.0, "lon": -77.07284033333333, "name": "1885c5b64274e4ee5f1beb03d6a58e74", "is_disabled": 0, "rental_uris": {"android": "https://dc.lft.to/lastmile_qr_scan", "ios": "https://dc.lft.to/lastmile_qr_scan"}, "type": "electric_scooter", "lat": 38.93483283333333, "is_reserved": 0, "fusion_lat": 0.0}, {"bike_id": "545ceb126b29df956cc61a0682275327", "fusion_lon": 0.0, "lon": -77.04283366666667, "name": "545ceb126b29df956cc61a0682275327", "is_disabled": 0, "rental_uris": {"android": "https://dc.lft.to/lastmile_qr_scan", "ios": "https://dc.lft.to/lastmile_qr_scan"}, "type": "electric_scooter", "lat": 38.9228605, "is_reserved": 0, "fusion_lat": 0.0}, {"bike_id": "faf34ed497c8139c3d011b7cbeb5ebd3", "fusion_lon": 0.0, "lon": -77.03685483333334, "name": "faf34ed497c8139c3d011b7cbeb5ebd3", "is_disabled": 0, "rental_uris": {"android": "https://dc.lft.to/lastmile_qr_scan", "ios": "https://dc.lft.to/lastmile_qr_scan"}, "type": "electric_scooter", "lat": 38.9226305, "is_reserved": 0, "fusion_lat": 0.0}, {"bike_id": "d2fef7015dee696ba050cdd10ec18e07", "fusion_lon": 0.0, "lon": -77.05829566666667, "name": "d2fef7015dee696ba050cdd10ec18e07", "is_disabled": 0, "rental_uris": {"android": "https://dc.lft.to/lastmile_qr_scan", "ios": "https://dc.lft.to/lastmile_qr_scan"}, "type": "electric_scooter", "lat": 38.90529016666667, "is_reserved": 0, "fusion_lat": 0.0}, {"bike_id": "f239a4f033b63e035f66962ced6a0109", "fusion_lon": 0.0, "lon": -76.96919266666667, "name": "f239a4f033b63e035f66962ced6a0109", "is_disabled": 0, "rental_uris": {"android": "https://dc.lft.to/lastmile_qr_scan", "ios": "https://dc.lft.to/lastmile_qr_scan"}, "type": "electric_bike", "lat": 38.84599866666667, "is_reserved": 0, "fusion_lat": 0.0}, {"bike_id": "2d4b67f74e83427038c8101987d84c27", "fusion_lon": 0.0, "lon": -77.02692633333334, "name": "2d4b67f74e83427038c8101987d84c27", "is_disabled": 0, "rental_uris": {"android": "https://dc.lft.to/lastmile_qr_scan", "ios": "https://dc.lft.to/lastmile_qr_scan"}, "type": "electric_scooter", "lat": 38.90680233333333, "is_reserved": 0, "fusion_lat": 0.0}, {"bike_id": "0fdefa1186b4cd3f3c038af9226a541e", "fusion_lon": 0.0, "lon": -76.97892616666667, "name": "0fdefa1186b4cd3f3c038af9226a541e", "is_disabled": 0, "rental_uris": {"android": "https://dc.lft.to/lastmile_qr_scan", "ios": "https://dc.lft.to/lastmile_qr_scan"}, "type": "electric_bike", "lat": 38.915866, "is_reserved": 0, "fusion_lat": 0.0}, {"bike_id": "af9fc7a41b814516df5f66cd0744df05", "fusion_lon": 0.0, "lon": -76.9398885, "name": "af9fc7a41b814516df5f66cd0744df05", "is_disabled": 0, "rental_uris": {"android": "https://dc.lft.to/lastmile_qr_scan", "ios": "https://dc.lft.to/lastmile_qr_scan"}, "type": "electric_scooter", "lat": 38.89978766666667, "is_reserved": 0, "fusion_lat": 0.0}, {"bike_id": "9a3adbe9325d576c465982747856b1ef", "fusion_lon": 0.0, "lon": -77.178437, "name": "9a3adbe9325d576c465982747856b1ef", "is_disabled": 0, "rental_uris": {"android": "https://dc.lft.to/lastmile_qr_scan", "ios": "https://dc.lft.to/lastmile_qr_scan"}, "type": "electric_bike", "lat": 39.0885825, "is_reserved": 0, "fusion_lat": 0.0}, {"bike_id": "84678cfaeedaa9669e77688116acca8a", "fusion_lon": 0.0, "lon": -77.024194, "name": "84678cfaeedaa9669e77688116acca8a", "is_disabled": 0, "rental_uris": {"android": "https://dc.lft.to/lastmile_qr_scan", "ios": "https://dc.lft.to/lastmile_qr_scan"}, "type": "electric_scooter", "lat": 38.91407516666666, "is_reserved": 0, "fusion_lat": 0.0}, {"bike_id": "7ade0792e453f10d23aca90ee43148b4", "fusion_lon": 0.0, "lon": -76.96531983333334, "name": "7ade0792e453f10d23aca90ee43148b4", "is_disabled": 0, "rental_uris": {"android": "https://dc.lft.to/lastmile_qr_scan", "ios": "https://dc.lft.to/lastmile_qr_scan"}, "type": "electric_bike", "lat": 38.87482766666667, "is_reserved": 0, "fusion_lat": 0.0}, {"bike_id": "8a1cd69a4b6b372b6e7180d0300cb7c9", "fusion_lon": 0.0, "lon": -77.0424745, "name": "8a1cd69a4b6b372b6e7180d0300cb7c9", "is_disabled": 0, "rental_uris": {"android": "https://dc.lft.to/lastmile_qr_scan", "ios": "https://dc.lft.to/lastmile_qr_scan"}, "type": "electric_bike", "lat": 38.9221005, "is_reserved": 0, "fusion_lat": 0.0}, {"bike_id": "b5d32ede36a5450adca0b83d43000c39", "fusion_lon": 0.0, "lon": -77.03146633333333, "name": "b5d32ede36a5450adca0b83d43000c39", "is_disabled": 0, "rental_uris": {"android": "https://dc.lft.to/lastmile_qr_scan", "ios": "https://dc.lft.to/lastmile_qr_scan"}, "type": "electric_scooter", "lat": 38.9279085, "is_reserved": 0, "fusion_lat": 0.0}, {"bike_id": "fa83b3167038aa752ea20dc4b8c6d319", "fusion_lon": 0.0, "lon": -77.22224583333333, "name": "fa83b3167038aa752ea20dc4b8c6d319", "is_disabled": 0, "rental_uris": {"android": "https://dc.lft.to/lastmile_qr_scan", "ios": "https://dc.lft.to/lastmile_qr_scan"}, "type": "electric_bike", "lat": 38.928583833333334, "is_reserved": 0, "fusion_lat": 0.0}, {"bike_id": "0b77e8be1f6478bebd60ad2a9ac4c81f", "fusion_lon": 0.0, "lon": -77.023147, "name": "0b77e8be1f6478bebd60ad2a9ac4c81f", "is_disabled": 0, "rental_uris": {"android": "https://dc.lft.to/lastmile_qr_scan", "ios": "https://dc.lft.to/lastmile_qr_scan"}, "type": "electric_scooter", "lat": 38.89676866666667, "is_reserved": 0, "fusion_lat": 0.0}, {"bike_id": "9e6c2fec86f0c4a0bc790c77387214d5", "fusion_lon": 0.0, "lon": -77.00204016666666, "name": "9e6c2fec86f0c4a0bc790c77387214d5", "is_disabled": 0, "rental_uris": {"android": "https://dc.lft.to/lastmile_qr_scan", "ios": "https://dc.lft.to/lastmile_qr_scan"}, "type": "electric_scooter", "lat": 38.900822166666664, "is_reserved": 0, "fusion_lat": 0.0}, {"bike_id": "8f0fe5e8a4667a99db76e53a771692c6", "fusion_lon": 0.0, "lon": -77.0122245, "name": "8f0fe5e8a4667a99db76e53a771692c6", "is_disabled": 0, "rental_uris": {"android": "https://dc.lft.to/lastmile_qr_scan", "ios": "https://dc.lft.to/lastmile_qr_scan"}, "type": "electric_scooter", "lat": 38.91347666666667, "is_reserved": 0, "fusion_lat": 0.0}, {"bike_id": "8008a119c23842a8513eacd55c312e27", "fusion_lon": 0.0, "lon": -77.02195633333334, "name": "8008a119c23842a8513eacd55c312e27", "is_disabled": 0, "rental_uris": {"android": "https://dc.lft.to/lastmile_qr_scan", "ios": "https://dc.lft.to/lastmile_qr_scan"}, "type": "electric_scooter", "lat": 38.91663166666667, "is_reserved": 0, "fusion_lat": 0.0}, {"bike_id": "cade0a8ebbab9e7a139f1767eabde869", "fusion_lon": 0.0, "lon": -77.03181016666667, "name": "cade0a8ebbab9e7a139f1767eabde869", "is_disabled": 0, "rental_uris": {"android": "https://dc.lft.to/lastmile_qr_scan", "ios": "https://dc.lft.to/lastmile_qr_scan"}, "type": "electric_scooter", "lat": 38.92382083333333, "is_reserved": 0, "fusion_lat": 0.0}, {"bike_id": "b87825c25e495ad947c7eab07ee3ab5f", "fusion_lon": 0.0, "lon": -77.03263116666666, "name": "b87825c25e495ad947c7eab07ee3ab5f", "is_disabled": 0, "rental_uris": {"android": "https://dc.lft.to/lastmile_qr_scan", "ios": "https://dc.lft.to/lastmile_qr_scan"}, "type": "electric_scooter", "lat": 38.934511666666666, "is_reserved": 0, "fusion_lat": 0.0}, {"bike_id": "8b69a811170c1bb8486737edddd98bc0", "fusion_lon": 0.0, "lon": -77.032571, "name": "8b69a811170c1bb8486737edddd98bc0", "is_disabled": 0, "rental_uris": {"android": "https://dc.lft.to/lastmile_qr_scan", "ios": "https://dc.lft.to/lastmile_qr_scan"}, "type": "electric_scooter", "lat": 38.9397005, "is_reserved": 0, "fusion_lat": 0.0}, {"bike_id": "d3b5b5753b86828d836329e18fc06e4c", "fusion_lon": 0.0, "lon": -77.018025, "name": "d3b5b5753b86828d836329e18fc06e4c", "is_disabled": 0, "rental_uris": {"android": "https://dc.lft.to/lastmile_qr_scan", "ios": "https://dc.lft.to/lastmile_qr_scan"}, "type": "electric_scooter", "lat": 38.876699333333335, "is_reserved": 0, "fusion_lat": 0.0}, {"bike_id": "e6b933cd5b8f9516fb94e1b4ce9efe4f", "fusion_lon": 0.0, "lon": -77.05653583333333, "name": "e6b933cd5b8f9516fb94e1b4ce9efe4f", "is_disabled": 0, "rental_uris": {"android": "https://dc.lft.to/lastmile_qr_scan", "ios": "https://dc.lft.to/lastmile_qr_scan"}, "type": "electric_bike", "lat": 38.93580166666667, "is_reserved": 0, "fusion_lat": 0.0}, {"bike_id": "34b0b8c4a13a916a6f9fdde1666ab2c6", "fusion_lon": 0.0, "lon": -77.0404095, "name": "34b0b8c4a13a916a6f9fdde1666ab2c6", "is_disabled": 0, "rental_uris": {"android": "https://dc.lft.to/lastmile_qr_scan", "ios": "https://dc.lft.to/lastmile_qr_scan"}, "type": "electric_scooter", "lat": 38.918534666666666, "is_reserved": 0, "fusion_lat": 0.0}, {"bike_id": "d1665e2d79e109787f4cffdefb07ed64", "fusion_lon": 0.0, "lon": -76.983731, "name": "d1665e2d79e109787f4cffdefb07ed64", "is_disabled": 0, "rental_uris": {"android": "https://dc.lft.to/lastmile_qr_scan", "ios": "https://dc.lft.to/lastmile_qr_scan"}, "type": "electric_scooter", "lat": 38.8610685, "is_reserved": 0, "fusion_lat": 0.0}, {"bike_id": "90116d8a40e6c3dd0e5193850531bdb6", "fusion_lon": 0.0, "lon": -77.03187966666667, "name": "90116d8a40e6c3dd0e5193850531bdb6", "is_disabled": 0, "rental_uris": {"android": "https://dc.lft.to/lastmile_qr_scan", "ios": "https://dc.lft.to/lastmile_qr_scan"}, "type": "electric_scooter", "lat": 38.90997616666667, "is_reserved": 0, "fusion_lat": 0.0}, {"bike_id": "bf2a32df9cdd10e5f03bab892eba0214", "fusion_lon": 0.0, "lon": -77.02698916666667, "name": "bf2a32df9cdd10e5f03bab892eba0214", "is_disabled": 0, "rental_uris": {"android": "https://dc.lft.to/lastmile_qr_scan", "ios": "https://dc.lft.to/lastmile_qr_scan"}, "type": "electric_scooter", "lat": 38.90672633333333, "is_reserved": 0, "fusion_lat": 0.0}, {"bike_id": "5636ae26f2da5ac5bdf11fc09215dd93", "fusion_lon": 0.0, "lon": -77.03204933333333, "name": "5636ae26f2da5ac5bdf11fc09215dd93", "is_disabled": 0, "rental_uris": {"android": "https://dc.lft.to/lastmile_qr_scan", "ios": "https://dc.lft.to/lastmile_qr_scan"}, "type": "electric_scooter", "lat": 38.91474566666667, "is_reserved": 0, "fusion_lat": 0.0}, {"bike_id": "ecd3ed3bfcb6f11d8427ad65e022ef62", "fusion_lon": 0.0, "lon": -77.014658, "name": "ecd3ed3bfcb6f11d8427ad65e022ef62", "is_disabled": 0, "rental_uris": {"android": "https://dc.lft.to/lastmile_qr_scan", "ios": "https://dc.lft.to/lastmile_qr_scan"}, "type": "electric_scooter", "lat": 38.876414, "is_reserved": 0, "fusion_lat": 0.0}, {"bike_id": "982119ed51d3566587ea9f01ae68d473", "fusion_lon": 0.0, "lon": -77.03375466666667, "name": "982119ed51d3566587ea9f01ae68d473", "is_disabled": 0, "rental_uris": {"android": "https://dc.lft.to/lastmile_qr_scan", "ios": "https://dc.lft.to/lastmile_qr_scan"}, "type": "electric_scooter", "lat": 38.9321405, "is_reserved": 0, "fusion_lat": 0.0}, {"bike_id": "00549295483d4696f08c66fe56f146d1", "fusion_lon": 0.0, "lon": -77.032662, "name": "00549295483d4696f08c66fe56f146d1", "is_disabled": 0, "rental_uris": {"android": "https://dc.lft.to/lastmile_qr_scan", "ios": "https://dc.lft.to/lastmile_qr_scan"}, "type": "electric_scooter", "lat": 38.93012083333333, "is_reserved": 0, "fusion_lat": 0.0}, {"bike_id": "3dad78d34d24773f9fd1fc507a6726e4", "fusion_lon": 0.0, "lon": -77.09485966666666, "name": "3dad78d34d24773f9fd1fc507a6726e4", "is_disabled": 0, "rental_uris": {"android": "https://dc.lft.to/lastmile_qr_scan", "ios": "https://dc.lft.to/lastmile_qr_scan"}, "type": "electric_bike", "lat": 39.03042083333333, "is_reserved": 0, "fusion_lat": 0.0}, {"bike_id": "f3f052bab8b0120241dc6d64dfeb2c0b", "fusion_lon": 0.0, "lon": -77.02653683333334, "name": "f3f052bab8b0120241dc6d64dfeb2c0b", "is_disabled": 0, "rental_uris": {"android": "https://dc.lft.to/lastmile_qr_scan", "ios": "https://dc.lft.to/lastmile_qr_scan"}, "type": "electric_scooter", "lat": 38.892242833333334, "is_reserved": 0, "fusion_lat": 0.0}, {"bike_id": "b0cc17db04c5f0f57d8c43f393f5544f", "fusion_lon": 0.0, "lon": -77.0607595, "name": "b0cc17db04c5f0f57d8c43f393f5544f", "is_disabled": 0, "rental_uris": {"android": "https://dc.lft.to/lastmile_qr_scan", "ios": "https://dc.lft.to/lastmile_qr_scan"}, "type": "electric_bike", "lat": 38.88580816666666, "is_reserved": 0, "fusion_lat": 0.0}, {"bike_id": "03670fed056dd0ca93d41e23f90e913c", "fusion_lon": 0.0, "lon": -77.13105916666666, "name": "03670fed056dd0ca93d41e23f90e913c", "is_disabled": 0, "rental_uris": {"android": "https://dc.lft.to/lastmile_qr_scan", "ios": "https://dc.lft.to/lastmile_qr_scan"}, "type": "electric_bike", "lat": 39.024315, "is_reserved": 0, "fusion_lat": 0.0}, {"bike_id": "944bb56ccd63275d8d9de003b7bae713", "fusion_lon": 0.0, "lon": -77.00022316666667, "name": "944bb56ccd63275d8d9de003b7bae713", "is_disabled": 0, "rental_uris": {"android": "https://dc.lft.to/lastmile_qr_scan", "ios": "https://dc.lft.to/lastmile_qr_scan"}, "type": "electric_scooter", "lat": 38.90016766666667, "is_reserved": 0, "fusion_lat": 0.0}, {"bike_id": "fa29a4601ad1f9f087f803bfb6932bd1", "fusion_lon": 0.0, "lon": -76.99000866666667, "name": "fa29a4601ad1f9f087f803bfb6932bd1", "is_disabled": 0, "rental_uris": {"android": "https://dc.lft.to/lastmile_qr_scan", "ios": "https://dc.lft.to/lastmile_qr_scan"}, "type": "electric_scooter", "lat": 38.924409, "is_reserved": 0, "fusion_lat": 0.0}, {"bike_id": "8b4a85639f27833dcf9dd583afc4556c", "fusion_lon": 0.0, "lon": -76.9476435, "name": "8b4a85639f27833dcf9dd583afc4556c", "is_disabled": 0, "rental_uris": {"android": "https://dc.lft.to/lastmile_qr_scan", "ios": "https://dc.lft.to/lastmile_qr_scan"}, "type": "electric_scooter", "lat": 38.89680633333333, "is_reserved": 0, "fusion_lat": 0.0}, {"bike_id": "cffe70bbbceb9b0ad50de6abc27f0838", "fusion_lon": 0.0, "lon": -77.00928133333333, "name": "cffe70bbbceb9b0ad50de6abc27f0838", "is_disabled": 0, "rental_uris": {"android": "https://dc.lft.to/lastmile_qr_scan", "ios": "https://dc.lft.to/lastmile_qr_scan"}, "type": "electric_scooter", "lat": 38.916563, "is_reserved": 0, "fusion_lat": 0.0}, {"bike_id": "543c90c9117d889b7e7338c81c33a758", "fusion_lon": 0.0, "lon": -77.01216083333334, "name": "543c90c9117d889b7e7338c81c33a758", "is_disabled": 0, "rental_uris": {"android": "https://dc.lft.to/lastmile_qr_scan", "ios": "https://dc.lft.to/lastmile_qr_scan"}, "type": "electric_bike", "lat": 38.87084816666667, "is_reserved": 0, "fusion_lat": 0.0}, {"bike_id": "04fb83935df26c68ad68b4ba5672504f", "fusion_lon": 0.0, "lon": -77.0221405, "name": "04fb83935df26c68ad68b4ba5672504f", "is_disabled": 0, "rental_uris": {"android": "https://dc.lft.to/lastmile_qr_scan", "ios": "https://dc.lft.to/lastmile_qr_scan"}, "type": "electric_scooter", "lat": 38.878947333333336, "is_reserved": 0, "fusion_lat": 0.0}, {"bike_id": "5f6bb6c4e469936d4f55c6518e4141cf", "fusion_lon": 0.0, "lon": -77.02137566666667, "name": "5f6bb6c4e469936d4f55c6518e4141cf", "is_disabled": 0, "rental_uris": {"android": "https://dc.lft.to/lastmile_qr_scan", "ios": "https://dc.lft.to/lastmile_qr_scan"}, "type": "electric_scooter", "lat": 38.923094166666665, "is_reserved": 0, "fusion_lat": 0.0}, {"bike_id": "5c131a232656b864182c885a67b638cd", "fusion_lon": 0.0, "lon": -77.02205, "name": "5c131a232656b864182c885a67b638cd", "is_disabled": 0, "rental_uris": {"android": "https://dc.lft.to/lastmile_qr_scan", "ios": "https://dc.lft.to/lastmile_qr_scan"}, "type": "electric_scooter", "lat": 38.899935, "is_reserved": 0, "fusion_lat": 0.0}, {"bike_id": "4529221b0db6943ec03594c973075780", "fusion_lon": 0.0, "lon": -77.02776233333333, "name": "4529221b0db6943ec03594c973075780", "is_disabled": 0, "rental_uris": {"android": "https://dc.lft.to/lastmile_qr_scan", "ios": "https://dc.lft.to/lastmile_qr_scan"}, "type": "electric_scooter", "lat": 38.939650666666665, "is_reserved": 0, "fusion_lat": 0.0}, {"bike_id": "67d82ec55928db2eae8fd07e7eb35bb8", "fusion_lon": 0.0, "lon": -77.04861433333333, "name": "67d82ec55928db2eae8fd07e7eb35bb8", "is_disabled": 0, "rental_uris": {"android": "https://dc.lft.to/lastmile_qr_scan", "ios": "https://dc.lft.to/lastmile_qr_scan"}, "type": "electric_scooter", "lat": 38.9048895, "is_reserved": 0, "fusion_lat": 0.0}, {"bike_id": "49f6307d30079b1d056614a583e156ba", "fusion_lon": 0.0, "lon": -76.99840266666666, "name": "49f6307d30079b1d056614a583e156ba", "is_disabled": 0, "rental_uris": {"android": "https://dc.lft.to/lastmile_qr_scan", "ios": "https://dc.lft.to/lastmile_qr_scan"}, "type": "electric_scooter", "lat": 38.9005495, "is_reserved": 0, "fusion_lat": 0.0}, {"bike_id": "19f1a8774e5f796ce7b326dde5c3fd83", "fusion_lon": 0.0, "lon": -77.03169916666667, "name": "19f1a8774e5f796ce7b326dde5c3fd83", "is_disabled": 0, "rental_uris": {"android": "https://dc.lft.to/lastmile_qr_scan", "ios": "https://dc.lft.to/lastmile_qr_scan"}, "type": "electric_scooter", "lat": 38.89226516666667, "is_reserved": 0, "fusion_lat": 0.0}, {"bike_id": "24618ea093ea554bc19c6fb20ba02764", "fusion_lon": 0.0, "lon": -76.9695175, "name": "24618ea093ea554bc19c6fb20ba02764", "is_disabled": 0, "rental_uris": {"android": "https://dc.lft.to/lastmile_qr_scan", "ios": "https://dc.lft.to/lastmile_qr_scan"}, "type": "electric_bike", "lat": 38.8973895, "is_reserved": 0, "fusion_lat": 0.0}, {"bike_id": "e167ed1fbaae8ac04bb0db2a846865bc", "fusion_lon": 0.0, "lon": -77.01178433333334, "name": "e167ed1fbaae8ac04bb0db2a846865bc", "is_disabled": 0, "rental_uris": {"android": "https://dc.lft.to/lastmile_qr_scan", "ios": "https://dc.lft.to/lastmile_qr_scan"}, "type": "electric_scooter", "lat": 38.9096235, "is_reserved": 0, "fusion_lat": 0.0}, {"bike_id": "525aa7e876f6a4f5f18490ea4dcd6faf", "fusion_lon": 0.0, "lon": -77.02559183333334, "name": "525aa7e876f6a4f5f18490ea4dcd6faf", "is_disabled": 0, "rental_uris": {"android": "https://dc.lft.to/lastmile_qr_scan", "ios": "https://dc.lft.to/lastmile_qr_scan"}, "type": "electric_scooter", "lat": 38.915556, "is_reserved": 0, "fusion_lat": 0.0}, {"bike_id": "f7a0a542408f65670ee6cab5918317a6", "fusion_lon": 0.0, "lon": -77.025728, "name": "f7a0a542408f65670ee6cab5918317a6", "is_disabled": 0, "rental_uris": {"android": "https://dc.lft.to/lastmile_qr_scan", "ios": "https://dc.lft.to/lastmile_qr_scan"}, "type": "electric_scooter", "lat": 38.91602283333334, "is_reserved": 0, "fusion_lat": 0.0}, {"bike_id": "74b3db3fb2aff2cad210d37760cc99e7", "fusion_lon": 0.0, "lon": -77.03194783333333, "name": "74b3db3fb2aff2cad210d37760cc99e7", "is_disabled": 0, "rental_uris": {"android": "https://dc.lft.to/lastmile_qr_scan", "ios": "https://dc.lft.to/lastmile_qr_scan"}, "type": "electric_scooter", "lat": 38.903443833333334, "is_reserved": 0, "fusion_lat": 0.0}, {"bike_id": "f64c99209aaf36df7f981e3ca02f22c7", "fusion_lon": 0.0, "lon": -77.04211516666666, "name": "f64c99209aaf36df7f981e3ca02f22c7", "is_disabled": 0, "rental_uris": {"android": "https://dc.lft.to/lastmile_qr_scan", "ios": "https://dc.lft.to/lastmile_qr_scan"}, "type": "electric_scooter", "lat": 38.920813, "is_reserved": 0, "fusion_lat": 0.0}, {"bike_id": "059db60f82485325aff61ae5c2aa7c60", "fusion_lon": 0.0, "lon": -77.04880283333334, "name": "059db60f82485325aff61ae5c2aa7c60", "is_disabled": 0, "rental_uris": {"android": "https://dc.lft.to/lastmile_qr_scan", "ios": "https://dc.lft.to/lastmile_qr_scan"}, "type": "electric_scooter", "lat": 38.8988515, "is_reserved": 0, "fusion_lat": 0.0}, {"bike_id": "8577af557f9cff82bce5a88740494f75", "fusion_lon": 0.0, "lon": -77.05265583333333, "name": "8577af557f9cff82bce5a88740494f75", "is_disabled": 0, "rental_uris": {"android": "https://dc.lft.to/lastmile_qr_scan", "ios": "https://dc.lft.to/lastmile_qr_scan"}, "type": "electric_scooter", "lat": 38.925443333333334, "is_reserved": 0, "fusion_lat": 0.0}, {"bike_id": "92c1a54a916d6256a102acd56933b922", "fusion_lon": 0.0, "lon": -76.99968966666667, "name": "92c1a54a916d6256a102acd56933b922", "is_disabled": 0, "rental_uris": {"android": "https://dc.lft.to/lastmile_qr_scan", "ios": "https://dc.lft.to/lastmile_qr_scan"}, "type": "electric_scooter", "lat": 38.924497, "is_reserved": 0, "fusion_lat": 0.0}, {"bike_id": "782bec633ca4a53d0296f88e4020e858", "fusion_lon": 0.0, "lon": -77.0327505, "name": "782bec633ca4a53d0296f88e4020e858", "is_disabled": 0, "rental_uris": {"android": "https://dc.lft.to/lastmile_qr_scan", "ios": "https://dc.lft.to/lastmile_qr_scan"}, "type": "electric_scooter", "lat": 38.92067466666666, "is_reserved": 0, "fusion_lat": 0.0}, {"bike_id": "9698f95f230c25d8247f24b2c500786c", "fusion_lon": 0.0, "lon": -77.025594, "name": "9698f95f230c25d8247f24b2c500786c", "is_disabled": 0, "rental_uris": {"android": "https://dc.lft.to/lastmile_qr_scan", "ios": "https://dc.lft.to/lastmile_qr_scan"}, "type": "electric_scooter", "lat": 38.91482333333333, "is_reserved": 0, "fusion_lat": 0.0}, {"bike_id": "c5b8a33b0e059f7fe2158f8290b9d5dd", "fusion_lon": 0.0, "lon": -77.0435385, "name": "c5b8a33b0e059f7fe2158f8290b9d5dd", "is_disabled": 0, "rental_uris": {"android": "https://dc.lft.to/lastmile_qr_scan", "ios": "https://dc.lft.to/lastmile_qr_scan"}, "type": "electric_scooter", "lat": 38.921470166666666, "is_reserved": 0, "fusion_lat": 0.0}, {"bike_id": "19c2d658dbd6d46bcd766220a8b04a33", "fusion_lon": 0.0, "lon": -77.031971, "name": "19c2d658dbd6d46bcd766220a8b04a33", "is_disabled": 0, "rental_uris": {"android": "https://dc.lft.to/lastmile_qr_scan", "ios": "https://dc.lft.to/lastmile_qr_scan"}, "type": "electric_scooter", "lat": 38.90953866666667, "is_reserved": 0, "fusion_lat": 0.0}, {"bike_id": "fef61d193946fb73bcd043e773f646c2", "fusion_lon": 0.0, "lon": -77.04192683333333, "name": "fef61d193946fb73bcd043e773f646c2", "is_disabled": 0, "rental_uris": {"android": "https://dc.lft.to/lastmile_qr_scan", "ios": "https://dc.lft.to/lastmile_qr_scan"}, "type": "electric_scooter", "lat": 38.89363766666666, "is_reserved": 0, "fusion_lat": 0.0}, {"bike_id": "852e690fc266559ec529354ae5b9a536", "fusion_lon": 0.0, "lon": -77.02295416666666, "name": "852e690fc266559ec529354ae5b9a536", "is_disabled": 0, "rental_uris": {"android": "https://dc.lft.to/lastmile_qr_scan", "ios": "https://dc.lft.to/lastmile_qr_scan"}, "type": "electric_bike", "lat": 38.92331016666667, "is_reserved": 0, "fusion_lat": 0.0}, {"bike_id": "2ce2dc6bdb1f0a528a4e159871872dc3", "fusion_lon": 0.0, "lon": -76.94189433333334, "name": "2ce2dc6bdb1f0a528a4e159871872dc3", "is_disabled": 0, "rental_uris": {"android": "https://dc.lft.to/lastmile_qr_scan", "ios": "https://dc.lft.to/lastmile_qr_scan"}, "type": "electric_scooter", "lat": 38.897521, "is_reserved": 0, "fusion_lat": 0.0}, {"bike_id": "f4287bb197d5c0e7837ed0b27bc525eb", "fusion_lon": 0.0, "lon": -77.03214933333334, "name": "f4287bb197d5c0e7837ed0b27bc525eb", "is_disabled": 0, "rental_uris": {"android": "https://dc.lft.to/lastmile_qr_scan", "ios": "https://dc.lft.to/lastmile_qr_scan"}, "type": "electric_scooter", "lat": 38.916666, "is_reserved": 0, "fusion_lat": 0.0}, {"bike_id": "705740c94a59e24509a4a131cd266f0f", "fusion_lon": 0.0, "lon": -77.0447705, "name": "705740c94a59e24509a4a131cd266f0f", "is_disabled": 0, "rental_uris": {"android": "https://dc.lft.to/lastmile_qr_scan", "ios": "https://dc.lft.to/lastmile_qr_scan"}, "type": "electric_scooter", "lat": 38.91415, "is_reserved": 0, "fusion_lat": 0.0}, {"bike_id": "c1db4e688413002b45a5a2f0df195c6a", "fusion_lon": 0.0, "lon": -77.04008183333333, "name": "c1db4e688413002b45a5a2f0df195c6a", "is_disabled": 0, "rental_uris": {"android": "https://dc.lft.to/lastmile_qr_scan", "ios": "https://dc.lft.to/lastmile_qr_scan"}, "type": "electric_scooter", "lat": 38.9100425, "is_reserved": 0, "fusion_lat": 0.0}, {"bike_id": "896fbb2e837f0cbe0c2faaf1a1e347d5", "fusion_lon": 0.0, "lon": -77.00130216666666, "name": "896fbb2e837f0cbe0c2faaf1a1e347d5", "is_disabled": 0, "rental_uris": {"android": "https://dc.lft.to/lastmile_qr_scan", "ios": "https://dc.lft.to/lastmile_qr_scan"}, "type": "electric_scooter", "lat": 38.909547833333335, "is_reserved": 0, "fusion_lat": 0.0}, {"bike_id": "3f19bcd44da8983eaca2bd39438fd251", "fusion_lon": 0.0, "lon": -77.03426933333333, "name": "3f19bcd44da8983eaca2bd39438fd251", "is_disabled": 0, "rental_uris": {"android": "https://dc.lft.to/lastmile_qr_scan", "ios": "https://dc.lft.to/lastmile_qr_scan"}, "type": "electric_scooter", "lat": 38.92240316666667, "is_reserved": 0, "fusion_lat": 0.0}, {"bike_id": "543ef9c961922e72bb9b1b9dec805dd3", "fusion_lon": 0.0, "lon": -76.997327, "name": "543ef9c961922e72bb9b1b9dec805dd3", "is_disabled": 0, "rental_uris": {"android": "https://dc.lft.to/lastmile_qr_scan", "ios": "https://dc.lft.to/lastmile_qr_scan"}, "type": "electric_scooter", "lat": 38.901333666666666, "is_reserved": 0, "fusion_lat": 0.0}, {"bike_id": "ea005d034a9604632b6eb77ebab8e2b8", "fusion_lon": 0.0, "lon": -77.03520166666667, "name": "ea005d034a9604632b6eb77ebab8e2b8", "is_disabled": 0, "rental_uris": {"android": "https://dc.lft.to/lastmile_qr_scan", "ios": "https://dc.lft.to/lastmile_qr_scan"}, "type": "electric_scooter", "lat": 38.92216916666667, "is_reserved": 0, "fusion_lat": 0.0}, {"bike_id": "74fa6fc7be9f16c8f08d0520a92358d9", "fusion_lon": 0.0, "lon": -77.01906483333333, "name": "74fa6fc7be9f16c8f08d0520a92358d9", "is_disabled": 0, "rental_uris": {"android": "https://dc.lft.to/lastmile_qr_scan", "ios": "https://dc.lft.to/lastmile_qr_scan"}, "type": "electric_scooter", "lat": 38.9236905, "is_reserved": 0, "fusion_lat": 0.0}, {"bike_id": "17215e01fe5308610c0656a8c6bd6dff", "fusion_lon": 0.0, "lon": -77.12019766666667, "name": "17215e01fe5308610c0656a8c6bd6dff", "is_disabled": 0, "rental_uris": {"android": "https://dc.lft.to/lastmile_qr_scan", "ios": "https://dc.lft.to/lastmile_qr_scan"}, "type": "electric_bike", "lat": 38.8552635, "is_reserved": 0, "fusion_lat": 0.0}, {"bike_id": "56997667bb2c254975641662ad02ba24", "fusion_lon": 0.0, "lon": -77.02132266666666, "name": "56997667bb2c254975641662ad02ba24", "is_disabled": 0, "rental_uris": {"android": "https://dc.lft.to/lastmile_qr_scan", "ios": "https://dc.lft.to/lastmile_qr_scan"}, "type": "electric_scooter", "lat": 38.92327016666667, "is_reserved": 0, "fusion_lat": 0.0}, {"bike_id": "c9c87aeb5e724d5aeadaf74f81df41ba", "fusion_lon": 0.0, "lon": -77.03183316666667, "name": "c9c87aeb5e724d5aeadaf74f81df41ba", "is_disabled": 0, "rental_uris": {"android": "https://dc.lft.to/lastmile_qr_scan", "ios": "https://dc.lft.to/lastmile_qr_scan"}, "type": "electric_scooter", "lat": 38.91747216666667, "is_reserved": 0, "fusion_lat": 0.0}, {"bike_id": "5ac3c9b6a8c2b21378efda050ebb3a9a", "fusion_lon": 0.0, "lon": -77.0374565, "name": "5ac3c9b6a8c2b21378efda050ebb3a9a", "is_disabled": 0, "rental_uris": {"android": "https://dc.lft.to/lastmile_qr_scan", "ios": "https://dc.lft.to/lastmile_qr_scan"}, "type": "electric_scooter", "lat": 38.93604933333334, "is_reserved": 0, "fusion_lat": 0.0}, {"bike_id": "b8b9670a1889a32cbd515b6189f04914", "fusion_lon": 0.0, "lon": -76.9953085, "name": "b8b9670a1889a32cbd515b6189f04914", "is_disabled": 0, "rental_uris": {"android": "https://dc.lft.to/lastmile_qr_scan", "ios": "https://dc.lft.to/lastmile_qr_scan"}, "type": "electric_scooter", "lat": 38.920580666666666, "is_reserved": 0, "fusion_lat": 0.0}, {"bike_id": "da56e7ca59a210e98bd5c3e0a6c2d280", "fusion_lon": 0.0, "lon": -77.07305933333333, "name": "da56e7ca59a210e98bd5c3e0a6c2d280", "is_disabled": 0, "rental_uris": {"android": "https://dc.lft.to/lastmile_qr_scan", "ios": "https://dc.lft.to/lastmile_qr_scan"}, "type": "electric_scooter", "lat": 38.92880066666667, "is_reserved": 0, "fusion_lat": 0.0}, {"bike_id": "3e9c53f98b5f68afdd5c43d22bdcc507", "fusion_lon": 0.0, "lon": -77.028056, "name": "3e9c53f98b5f68afdd5c43d22bdcc507", "is_disabled": 0, "rental_uris": {"android": "https://dc.lft.to/lastmile_qr_scan", "ios": "https://dc.lft.to/lastmile_qr_scan"}, "type": "electric_scooter", "lat": 38.916891166666666, "is_reserved": 0, "fusion_lat": 0.0}, {"bike_id": "d0de2b1c6408d4b1c402152e43e4329d", "fusion_lon": 0.0, "lon": -76.9994645, "name": "d0de2b1c6408d4b1c402152e43e4329d", "is_disabled": 0, "rental_uris": {"android": "https://dc.lft.to/lastmile_qr_scan", "ios": "https://dc.lft.to/lastmile_qr_scan"}, "type": "electric_scooter", "lat": 38.84295316666667, "is_reserved": 0, "fusion_lat": 0.0}, {"bike_id": "4ff3e48ffd77dc465cb2b8e0f21bad4a", "fusion_lon": 0.0, "lon": -77.0074345, "name": "4ff3e48ffd77dc465cb2b8e0f21bad4a", "is_disabled": 0, "rental_uris": {"android": "https://dc.lft.to/lastmile_qr_scan", "ios": "https://dc.lft.to/lastmile_qr_scan"}, "type": "electric_scooter", "lat": 38.8774685, "is_reserved": 0, "fusion_lat": 0.0}, {"bike_id": "68c1ef8a958a438d24ed1e1787e742ef", "fusion_lon": 0.0, "lon": -77.06757766666666, "name": "68c1ef8a958a438d24ed1e1787e742ef", "is_disabled": 0, "rental_uris": {"android": "https://dc.lft.to/lastmile_qr_scan", "ios": "https://dc.lft.to/lastmile_qr_scan"}, "type": "electric_scooter", "lat": 38.90681033333333, "is_reserved": 0, "fusion_lat": 0.0}, {"bike_id": "027bf82f41ad4c7ba76019a613f62e5b", "fusion_lon": 0.0, "lon": -77.0221225, "name": "027bf82f41ad4c7ba76019a613f62e5b", "is_disabled": 0, "rental_uris": {"android": "https://dc.lft.to/lastmile_qr_scan", "ios": "https://dc.lft.to/lastmile_qr_scan"}, "type": "electric_scooter", "lat": 38.9156515, "is_reserved": 0, "fusion_lat": 0.0}, {"bike_id": "23e79a1ddafbaf2e5a9ea38cd9c8f939", "fusion_lon": 0.0, "lon": -77.0368945, "name": "23e79a1ddafbaf2e5a9ea38cd9c8f939", "is_disabled": 0, "rental_uris": {"android": "https://dc.lft.to/lastmile_qr_scan", "ios": "https://dc.lft.to/lastmile_qr_scan"}, "type": "electric_scooter", "lat": 38.91681766666667, "is_reserved": 0, "fusion_lat": 0.0}, {"bike_id": "95f62a14af0656d11ac8b3d23049d595", "fusion_lon": 0.0, "lon": -76.99796916666666, "name": "95f62a14af0656d11ac8b3d23049d595", "is_disabled": 0, "rental_uris": {"android": "https://dc.lft.to/lastmile_qr_scan", "ios": "https://dc.lft.to/lastmile_qr_scan"}, "type": "electric_bike", "lat": 38.95641216666667, "is_reserved": 0, "fusion_lat": 0.0}, {"bike_id": "a06e3321a119a95ab6b8f04d56e63e2a", "fusion_lon": 0.0, "lon": -77.04454883333334, "name": "a06e3321a119a95ab6b8f04d56e63e2a", "is_disabled": 0, "rental_uris": {"android": "https://dc.lft.to/lastmile_qr_scan", "ios": "https://dc.lft.to/lastmile_qr_scan"}, "type": "electric_scooter", "lat": 38.911872, "is_reserved": 0, "fusion_lat": 0.0}, {"bike_id": "7acedd38506050b21aba4376083f9383", "fusion_lon": 0.0, "lon": -77.01756833333333, "name": "7acedd38506050b21aba4376083f9383", "is_disabled": 0, "rental_uris": {"android": "https://dc.lft.to/lastmile_qr_scan", "ios": "https://dc.lft.to/lastmile_qr_scan"}, "type": "electric_scooter", "lat": 38.877773166666664, "is_reserved": 0, "fusion_lat": 0.0}, {"bike_id": "bd1739df06acb0d9dabef9aca2779079", "fusion_lon": 0.0, "lon": -77.0433505, "name": "bd1739df06acb0d9dabef9aca2779079", "is_disabled": 0, "rental_uris": {"android": "https://dc.lft.to/lastmile_qr_scan", "ios": "https://dc.lft.to/lastmile_qr_scan"}, "type": "electric_scooter", "lat": 38.895291, "is_reserved": 0, "fusion_lat": 0.0}, {"bike_id": "5bd89a628d93c4045a0b31b67c408ee8", "fusion_lon": 0.0, "lon": -77.034947, "name": "5bd89a628d93c4045a0b31b67c408ee8", "is_disabled": 0, "rental_uris": {"android": "https://dc.lft.to/lastmile_qr_scan", "ios": "https://dc.lft.to/lastmile_qr_scan"}, "type": "electric_scooter", "lat": 38.916966333333335, "is_reserved": 0, "fusion_lat": 0.0}, {"bike_id": "c2ce6d1986022122b6409dd24050183b", "fusion_lon": 0.0, "lon": -77.00874583333334, "name": "c2ce6d1986022122b6409dd24050183b", "is_disabled": 0, "rental_uris": {"android": "https://dc.lft.to/lastmile_qr_scan", "ios": "https://dc.lft.to/lastmile_qr_scan"}, "type": "electric_scooter", "lat": 38.906552, "is_reserved": 0, "fusion_lat": 0.0}, {"bike_id": "404badd378156c58dfd70e833d97877d", "fusion_lon": 0.0, "lon": -77.05718333333333, "name": "404badd378156c58dfd70e833d97877d", "is_disabled": 0, "rental_uris": {"android": "https://dc.lft.to/lastmile_qr_scan", "ios": "https://dc.lft.to/lastmile_qr_scan"}, "type": "electric_scooter", "lat": 38.93366266666666, "is_reserved": 0, "fusion_lat": 0.0}, {"bike_id": "5c609b0796adf5b834dac3a8d1284d2a", "fusion_lon": 0.0, "lon": -77.05552533333334, "name": "5c609b0796adf5b834dac3a8d1284d2a", "is_disabled": 0, "rental_uris": {"android": "https://dc.lft.to/lastmile_qr_scan", "ios": "https://dc.lft.to/lastmile_qr_scan"}, "type": "electric_scooter", "lat": 38.934301, "is_reserved": 0, "fusion_lat": 0.0}, {"bike_id": "01e1709d0ed79d5c8c3cd7761176004f", "fusion_lon": 0.0, "lon": -77.01473216666666, "name": "01e1709d0ed79d5c8c3cd7761176004f", "is_disabled": 0, "rental_uris": {"android": "https://dc.lft.to/lastmile_qr_scan", "ios": "https://dc.lft.to/lastmile_qr_scan"}, "type": "electric_scooter", "lat": 38.8763935, "is_reserved": 0, "fusion_lat": 0.0}, {"bike_id": "a5e0d7b490a62911d87f0f458131bba4", "fusion_lon": 0.0, "lon": -77.0240235, "name": "a5e0d7b490a62911d87f0f458131bba4", "is_disabled": 0, "rental_uris": {"android": "https://dc.lft.to/lastmile_qr_scan", "ios": "https://dc.lft.to/lastmile_qr_scan"}, "type": "electric_scooter", "lat": 38.90345883333333, "is_reserved": 0, "fusion_lat": 0.0}, {"bike_id": "870cac2f1eb6462520d2b7309b539a0e", "fusion_lon": 0.0, "lon": -77.026933, "name": "870cac2f1eb6462520d2b7309b539a0e", "is_disabled": 0, "rental_uris": {"android": "https://dc.lft.to/lastmile_qr_scan", "ios": "https://dc.lft.to/lastmile_qr_scan"}, "type": "electric_scooter", "lat": 38.91125233333333, "is_reserved": 0, "fusion_lat": 0.0}, {"bike_id": "5b1edb29ed5fa9d47c372fa09be94277", "fusion_lon": 0.0, "lon": -77.03221183333333, "name": "5b1edb29ed5fa9d47c372fa09be94277", "is_disabled": 0, "rental_uris": {"android": "https://dc.lft.to/lastmile_qr_scan", "ios": "https://dc.lft.to/lastmile_qr_scan"}, "type": "electric_scooter", "lat": 38.917032166666665, "is_reserved": 0, "fusion_lat": 0.0}, {"bike_id": "c2d630524c144e088f7bb7925529e19a", "fusion_lon": 0.0, "lon": -77.0043425, "name": "c2d630524c144e088f7bb7925529e19a", "is_disabled": 0, "rental_uris": {"android": "https://dc.lft.to/lastmile_qr_scan", "ios": "https://dc.lft.to/lastmile_qr_scan"}, "type": "electric_scooter", "lat": 38.877136166666666, "is_reserved": 0, "fusion_lat": 0.0}, {"bike_id": "641e943c72c81f3b6e942f85d34a4237", "fusion_lon": 0.0, "lon": -77.044006, "name": "641e943c72c81f3b6e942f85d34a4237", "is_disabled": 0, "rental_uris": {"android": "https://dc.lft.to/lastmile_qr_scan", "ios": "https://dc.lft.to/lastmile_qr_scan"}, "type": "electric_scooter", "lat": 38.912592, "is_reserved": 0, "fusion_lat": 0.0}, {"bike_id": "2f27a1f6b2eb7af2b4f76559d254476d", "fusion_lon": 0.0, "lon": -77.01725883333333, "name": "2f27a1f6b2eb7af2b4f76559d254476d", "is_disabled": 0, "rental_uris": {"android": "https://dc.lft.to/lastmile_qr_scan", "ios": "https://dc.lft.to/lastmile_qr_scan"}, "type": "electric_scooter", "lat": 38.87296883333333, "is_reserved": 0, "fusion_lat": 0.0}, {"bike_id": "6e08be35ec8326f60fd08c6bb979b9fd", "fusion_lon": 0.0, "lon": -77.04927483333333, "name": "6e08be35ec8326f60fd08c6bb979b9fd", "is_disabled": 0, "rental_uris": {"android": "https://dc.lft.to/lastmile_qr_scan", "ios": "https://dc.lft.to/lastmile_qr_scan"}, "type": "electric_bike", "lat": 38.81350466666667, "is_reserved": 0, "fusion_lat": 0.0}, {"bike_id": "99d05886cdff764ddaa6e1ccb8297d11", "fusion_lon": 0.0, "lon": -76.99470583333333, "name": "99d05886cdff764ddaa6e1ccb8297d11", "is_disabled": 0, "rental_uris": {"android": "https://dc.lft.to/lastmile_qr_scan", "ios": "https://dc.lft.to/lastmile_qr_scan"}, "type": "electric_scooter", "lat": 38.88267483333333, "is_reserved": 0, "fusion_lat": 0.0}, {"bike_id": "4cc05c842a7457f59c70f617cfd52755", "fusion_lon": 0.0, "lon": -77.07299866666666, "name": "4cc05c842a7457f59c70f617cfd52755", "is_disabled": 0, "rental_uris": {"android": "https://dc.lft.to/lastmile_qr_scan", "ios": "https://dc.lft.to/lastmile_qr_scan"}, "type": "electric_scooter", "lat": 38.9352965, "is_reserved": 0, "fusion_lat": 0.0}, {"bike_id": "89344cb5c495c0c1288103aa24dc714e", "fusion_lon": 0.0, "lon": -76.99034666666667, "name": "89344cb5c495c0c1288103aa24dc714e", "is_disabled": 0, "rental_uris": {"android": "https://dc.lft.to/lastmile_qr_scan", "ios": "https://dc.lft.to/lastmile_qr_scan"}, "type": "electric_scooter", "lat": 38.88870216666667, "is_reserved": 0, "fusion_lat": 0.0}, {"bike_id": "8c9d700566fbea1381bed44169ba625c", "fusion_lon": 0.0, "lon": -77.070168, "name": "8c9d700566fbea1381bed44169ba625c", "is_disabled": 0, "rental_uris": {"android": "https://dc.lft.to/lastmile_qr_scan", "ios": "https://dc.lft.to/lastmile_qr_scan"}, "type": "electric_scooter", "lat": 38.90453766666667, "is_reserved": 0, "fusion_lat": 0.0}, {"bike_id": "9c22e30ff516070b0538ce2dbc35cba2", "fusion_lon": 0.0, "lon": -77.026345, "name": "9c22e30ff516070b0538ce2dbc35cba2", "is_disabled": 0, "rental_uris": {"android": "https://dc.lft.to/lastmile_qr_scan", "ios": "https://dc.lft.to/lastmile_qr_scan"}, "type": "electric_scooter", "lat": 38.93005266666667, "is_reserved": 0, "fusion_lat": 0.0}, {"bike_id": "097d1e3f5607b10fe43cb005860a4717", "fusion_lon": 0.0, "lon": -76.97586066666666, "name": "097d1e3f5607b10fe43cb005860a4717", "is_disabled": 0, "rental_uris": {"android": "https://dc.lft.to/lastmile_qr_scan", "ios": "https://dc.lft.to/lastmile_qr_scan"}, "type": "electric_bike", "lat": 38.8402875, "is_reserved": 0, "fusion_lat": 0.0}, {"bike_id": "dedaa591dc019876a931c57dbea52927", "fusion_lon": 0.0, "lon": -77.01099616666667, "name": "dedaa591dc019876a931c57dbea52927", "is_disabled": 0, "rental_uris": {"android": "https://dc.lft.to/lastmile_qr_scan", "ios": "https://dc.lft.to/lastmile_qr_scan"}, "type": "electric_scooter", "lat": 38.90358483333333, "is_reserved": 0, "fusion_lat": 0.0}, {"bike_id": "61d6fe383937c6ba8fec5db9079073d7", "fusion_lon": 0.0, "lon": -77.04297266666667, "name": "61d6fe383937c6ba8fec5db9079073d7", "is_disabled": 0, "rental_uris": {"android": "https://dc.lft.to/lastmile_qr_scan", "ios": "https://dc.lft.to/lastmile_qr_scan"}, "type": "electric_scooter", "lat": 38.917881666666666, "is_reserved": 0, "fusion_lat": 0.0}, {"bike_id": "68a6d2eea07ad7e7d066ee95a3568df2", "fusion_lon": 0.0, "lon": -77.02552066666667, "name": "68a6d2eea07ad7e7d066ee95a3568df2", "is_disabled": 0, "rental_uris": {"android": "https://dc.lft.to/lastmile_qr_scan", "ios": "https://dc.lft.to/lastmile_qr_scan"}, "type": "electric_scooter", "lat": 38.92402933333334, "is_reserved": 0, "fusion_lat": 0.0},