{"data": {"bikes": [{"is_disabled": 0, "rental_uris": {"android": "https://dc.lft.to/lastmile_qr_scan", "ios": "https://dc.lft.to/lastmile_qr_scan"}, "is_reserved": 0, "name": "bf044e57b97b6220e3decaae4111eaf6", "lon": -77.0318265, "type": "electric_scooter", "bike_id": "bf044e57b97b6220e3decaae4111eaf6", "fusion_lon": 0.0, "lat": 38.91920266666666, "fusion_lat": 0.0}, {"is_disabled": 0, "rental_uris": {"android": "https://dc.lft.to/lastmile_qr_scan", "ios": "https://dc.lft.to/lastmile_qr_scan"}, "is_reserved": 0, "name": "8d0ba421ca9edc5287944fc42885e297", "lon": -77.050774, "type": "electric_scooter", "bike_id": "8d0ba421ca9edc5287944fc42885e297", "fusion_lon": 0.0, "lat": 38.900996666666664, "fusion_lat": 0.0}, {"is_disabled": 0, "rental_uris": {"android": "https://dc.lft.to/lastmile_qr_scan", "ios": "https://dc.lft.to/lastmile_qr_scan"}, "is_reserved": 0, "name": "88fb923df3eeebafdd8cf9b4a754cb31", "lon": -77.024933, "type": "electric_scooter", "bike_id": "88fb923df3eeebafdd8cf9b4a754cb31", "fusion_lon": 0.0, "lat": 38.9418805, "fusion_lat": 0.0}, {"is_disabled": 0, "rental_uris": {"android": "https://dc.lft.to/lastmile_qr_scan", "ios": "https://dc.lft.to/lastmile_qr_scan"}, "is_reserved": 0, "name": "324834cca90f85d7f663ac0f383b3ddd", "lon": -77.02976116666666, "type": "electric_scooter", "bike_id": "324834cca90f85d7f663ac0f383b3ddd", "fusion_lon": 0.0, "lat": 38.92039666666667, "fusion_lat": 0.0}, {"is_disabled": 0, "rental_uris": {"android": "https://dc.lft.to/lastmile_qr_scan", "ios": "https://dc.lft.to/lastmile_qr_scan"}, "is_reserved": 0, "name": "25f91e3f2572b916a9f2287196ff23d1", "lon": -77.04353716666667, "type": "electric_scooter", "bike_id": "25f91e3f2572b916a9f2287196ff23d1", "fusion_lon": 0.0, "lat": 38.89892666666667, "fusion_lat": 0.0}, {"is_disabled": 0, "rental_uris": {"android": "https://dc.lft.to/lastmile_qr_scan", "ios": "https://dc.lft.to/lastmile_qr_scan"}, "is_reserved": 0, "name": "8209f04ea5d72fb45b9ba4312c4a4249", "lon": -76.94635583333333, "type": "electric_scooter", "bike_id": "8209f04ea5d72fb45b9ba4312c4a4249", "fusion_lon": 0.0, "lat": 38.89847866666667, "fusion_lat": 0.0}, {"is_disabled": 0, "rental_uris": {"android": "https://dc.lft.to/lastmile_qr_scan", "ios": "https://dc.lft.to/lastmile_qr_scan"}, "is_reserved": 0, "name": "bced1c49cc154f2848e18da8f969a2f4", "lon": -76.9500025, "type": "electric_scooter", "bike_id": "bced1c49cc154f2848e18da8f969a2f4", "fusion_lon": 0.0, "lat": 38.893953, "fusion_lat": 0.0}, {"is_disabled": 0, "rental_uris": {"android": "https://dc.lft.to/lastmile_qr_scan", "ios": "https://dc.lft.to/lastmile_qr_scan"}, "is_reserved": 0, "name": "bf5fb19e0d3927fd2a4b72ee161f9537", "lon": -77.02819116666667, "type": "electric_scooter", "bike_id": "bf5fb19e0d3927fd2a4b72ee161f9537", "fusion_lon": 0.0, "lat": 38.90275233333333, "fusion_lat": 0.0}, {"is_disabled": 0, "rental_uris": {"android": "https://dc.lft.to/lastmile_qr_scan", "ios": "https://dc.lft.to/lastmile_qr_scan"}, "is_reserved": 0, "name": "bab406bb9f9cd6068f5e09e2a1027b90", "lon": -77.04756983333333, "type": "electric_scooter", "bike_id": "bab406bb9f9cd6068f5e09e2a1027b90", "fusion_lon": 0.0, "lat": 38.900854833333334, "fusion_lat": 0.0}, {"is_disabled": 0, "rental_uris": {"android": "https://dc.lft.to/lastmile_qr_scan", "ios": "https://dc.lft.to/lastmile_qr_scan"}, "is_reserved": 0, "name": "ad1d1766d71b0765ed11b23e1761640c", "lon": -76.92916533333333, "type": "electric_bike", "bike_id": "ad1d1766d71b0765ed11b23e1761640c", "fusion_lon": 0.0, "lat": 38.980299333333335, "fusion_lat": 0.0}, {"is_disabled": 0, "rental_uris": {"android": "https://dc.lft.to/lastmile_qr_scan", "ios": "https://dc.lft.to/lastmile_qr_scan"}, "is_reserved": 0, "name": "ae0b1eb075e688738ad445eca79e2cb3", "lon": -77.044878, "type": "electric_scooter", "bike_id": "ae0b1eb075e688738ad445eca79e2cb3", "fusion_lon": 0.0, "lat": 38.906628, "fusion_lat": 0.0}, {"is_disabled": 0, "rental_uris": {"android": "https://dc.lft.to/lastmile_qr_scan", "ios": "https://dc.lft.to/lastmile_qr_scan"}, "is_reserved": 0, "name": "cdfa9a46c11b70f36df3d27629e5c11c", "lon": -77.03586, "type": "electric_scooter", "bike_id": "cdfa9a46c11b70f36df3d27629e5c11c", "fusion_lon": 0.0, "lat": 38.906939333333334, "fusion_lat": 0.0}, {"is_disabled": 0, "rental_uris": {"android": "https://dc.lft.to/lastmile_qr_scan", "ios": "https://dc.lft.to/lastmile_qr_scan"}, "is_reserved": 0, "name": "40e1f5c80c7e73d97c24423f0d96e4a5", "lon": -77.022727, "type": "electric_scooter", "bike_id": "40e1f5c80c7e73d97c24423f0d96e4a5", "fusion_lon": 0.0, "lat": 38.8971575, "fusion_lat": 0.0}, {"is_disabled": 0, "rental_uris": {"android": "https://dc.lft.to/lastmile_qr_scan", "ios": "https://dc.lft.to/lastmile_qr_scan"}, "is_reserved": 0, "name": "c989a0ffe863ee533fbc4695e9b2aa6c", "lon": -77.04244783333333, "type": "electric_scooter", "bike_id": "c989a0ffe863ee533fbc4695e9b2aa6c", "fusion_lon": 0.0, "lat": 38.922254333333335, "fusion_lat": 0.0}, {"is_disabled": 0, "rental_uris": {"android": "https://dc.lft.to/lastmile_qr_scan", "ios": "https://dc.lft.to/lastmile_qr_scan"}, "is_reserved": 0, "name": "9c92e2c759cb4acd9e6ced5decfcc771", "lon": -77.026562, "type": "electric_scooter", "bike_id": "9c92e2c759cb4acd9e6ced5decfcc771", "fusion_lon": 0.0, "lat": 38.8959935, "fusion_lat": 0.0}, {"is_disabled": 0, "rental_uris": {"android": "https://dc.lft.to/lastmile_qr_scan", "ios": "https://dc.lft.to/lastmile_qr_scan"}, "is_reserved": 0, "name": "12c56d2ce6e43b306f4a7047e82d147c", "lon": -77.021817, "type": "electric_scooter", "bike_id": "12c56d2ce6e43b306f4a7047e82d147c", "fusion_lon": 0.0, "lat": 38.89741166666667, "fusion_lat": 0.0}, {"is_disabled": 0, "rental_uris": {"android": "https://dc.lft.to/lastmile_qr_scan", "ios": "https://dc.lft.to/lastmile_qr_scan"}, "is_reserved": 0, "name": "02536705f67d74bc069734d209595ae1", "lon": -77.03802483333334, "type": "electric_scooter", "bike_id": "02536705f67d74bc069734d209595ae1", "fusion_lon": 0.0, "lat": 38.905614, "fusion_lat": 0.0}, {"is_disabled": 0, "rental_uris": {"android": "https://dc.lft.to/lastmile_qr_scan", "ios": "https://dc.lft.to/lastmile_qr_scan"}, "is_reserved": 0, "name": "948ac76e0f59a62d77d28c1bcbe4f98d", "lon": -77.046082, "type": "electric_scooter", "bike_id": "948ac76e0f59a62d77d28c1bcbe4f98d", "fusion_lon": 0.0, "lat": 38.917136, "fusion_lat": 0.0}, {"is_disabled": 0, "rental_uris": {"android": "https://dc.lft.to/lastmile_qr_scan", "ios": "https://dc.lft.to/lastmile_qr_scan"}, "is_reserved": 0, "name": "3c51edb9438c3b6ebee7193af290b2f8", "lon": -77.013984, "type": "electric_scooter", "bike_id": "3c51edb9438c3b6ebee7193af290b2f8", "fusion_lon": 0.0, "lat": 38.919545, "fusion_lat": 0.0}, {"is_disabled": 0, "rental_uris": {"android": "https://dc.lft.to/lastmile_qr_scan", "ios": "https://dc.lft.to/lastmile_qr_scan"}, "is_reserved": 0, "name": "34a6cdd20fba8c1d0de780e26b1af762", "lon": -77.03524616666667, "type": "electric_scooter", "bike_id": "34a6cdd20fba8c1d0de780e26b1af762", "fusion_lon": 0.0, "lat": 38.92259033333333, "fusion_lat": 0.0}, {"is_disabled": 0, "rental_uris": {"android": "https://dc.lft.to/lastmile_qr_scan", "ios": "https://dc.lft.to/lastmile_qr_scan"}, "is_reserved": 0, "name": "384b84e936106c6dac317b5aaf1ff8d9", "lon": -76.99810383333333, "type": "electric_scooter", "bike_id": "384b84e936106c6dac317b5aaf1ff8d9", "fusion_lon": 0.0, "lat": 38.876702, "fusion_lat": 0.0}, {"is_disabled": 0, "rental_uris": {"android": "https://dc.lft.to/lastmile_qr_scan", "ios": "https://dc.lft.to/lastmile_qr_scan"}, "is_reserved": 0, "name": "270f20f9a387d379302662baa04c3fb7", "lon": -76.94469766666667, "type": "electric_scooter", "bike_id": "270f20f9a387d379302662baa04c3fb7", "fusion_lon": 0.0, "lat": 38.902825, "fusion_lat": 0.0}, {"is_disabled": 0, "rental_uris": {"android": "https://dc.lft.to/lastmile_qr_scan", "ios": "https://dc.lft.to/lastmile_qr_scan"}, "is_reserved": 0, "name": "7c8e41b0e3cb6be4e3ae61443a1f76a5", "lon": -77.0406055, "type": "electric_scooter", "bike_id": "7c8e41b0e3cb6be4e3ae61443a1f76a5", "fusion_lon": 0.0, "lat": 38.90023166666667, "fusion_lat": 0.0}, {"is_disabled": 0, "rental_uris": {"android": "https://dc.lft.to/lastmile_qr_scan", "ios": "https://dc.lft.to/lastmile_qr_scan"}, "is_reserved": 0, "name": "05aaac08bcd48ea372a4e9de5aba5f0e", "lon": -77.01106583333333, "type": "electric_scooter", "bike_id": "05aaac08bcd48ea372a4e9de5aba5f0e", "fusion_lon": 0.0, "lat": 38.909718833333336, "fusion_lat": 0.0}, {"is_disabled": 0, "rental_uris": {"android": "https://dc.lft.to/lastmile_qr_scan", "ios": "https://dc.lft.to/lastmile_qr_scan"}, "is_reserved": 0, "name": "bb71142ad4d01d86a5110ff852605583", "lon": -77.00716183333333, "type": "electric_scooter", "bike_id": "bb71142ad4d01d86a5110ff852605583", "fusion_lon": 0.0, "lat": 38.8849345, "fusion_lat": 0.0}, {"is_disabled": 0, "rental_uris": {"android": "https://dc.lft.to/lastmile_qr_scan", "ios": "https://dc.lft.to/lastmile_qr_scan"}, "is_reserved": 0, "name": "1c39efb656111c703a301f93243baa94", "lon": -77.01565216666667, "type": "electric_scooter", "bike_id": "1c39efb656111c703a301f93243baa94", "fusion_lon": 0.0, "lat": 38.8726715, "fusion_lat": 0.0}, {"is_disabled": 0, "rental_uris": {"android": "https://dc.lft.to/lastmile_qr_scan", "ios": "https://dc.lft.to/lastmile_qr_scan"}, "is_reserved": 0, "name": "5a644952e6d704d1609650e1fb555414", "lon": -77.09577116666667, "type": "electric_bike", "bike_id": "5a644952e6d704d1609650e1fb555414", "fusion_lon": 0.0, "lat": 38.916783833333334, "fusion_lat": 0.0}, {"is_disabled": 0, "rental_uris": {"android": "https://dc.lft.to/lastmile_qr_scan", "ios": "https://dc.lft.to/lastmile_qr_scan"}, "is_reserved": 0, "name": "e7eee503688b0793e3628f9f81812de9", "lon": -77.024165, "type": "electric_scooter", "bike_id": "e7eee503688b0793e3628f9f81812de9", "fusion_lon": 0.0, "lat": 38.92657, "fusion_lat": 0.0}, {"is_disabled": 0, "rental_uris": {"android": "https://dc.lft.to/lastmile_qr_scan", "ios": "https://dc.lft.to/lastmile_qr_scan"}, "is_reserved": 0, "name": "42d6539c444bff4994673ca69044d752", "lon": -76.99726, "type": "electric_scooter", "bike_id": "42d6539c444bff4994673ca69044d752", "fusion_lon": 0.0, "lat": 38.910283, "fusion_lat": 0.0}, {"is_disabled": 0, "rental_uris": {"android": "https://dc.lft.to/lastmile_qr_scan", "ios": "https://dc.lft.to/lastmile_qr_scan"}, "is_reserved": 0, "name": "c263f99bbb25bd820f45439d59900332", "lon": -76.99538466666667, "type": "electric_scooter", "bike_id": "c263f99bbb25bd820f45439d59900332", "fusion_lon": 0.0, "lat": 38.862540333333335, "fusion_lat": 0.0}, {"is_disabled": 0, "rental_uris": {"android": "https://dc.lft.to/lastmile_qr_scan", "ios": "https://dc.lft.to/lastmile_qr_scan"}, "is_reserved": 0, "name": "8cab1347a1c4cc2b8f3de01146481c3a", "lon": -77.01740716666667, "type": "electric_scooter", "bike_id": "8cab1347a1c4cc2b8f3de01146481c3a", "fusion_lon": 0.0, "lat": 38.88321416666667, "fusion_lat": 0.0}, {"is_disabled": 0, "rental_uris": {"android": "https://dc.lft.to/lastmile_qr_scan", "ios": "https://dc.lft.to/lastmile_qr_scan"}, "is_reserved": 0, "name": "a040e3b87247669e6db69fc80a47e17a", "lon": -77.01471916666667, "type": "electric_scooter", "bike_id": "a040e3b87247669e6db69fc80a47e17a", "fusion_lon": 0.0, "lat": 38.91773333333333, "fusion_lat": 0.0}, {"is_disabled": 0, "rental_uris": {"android": "https://dc.lft.to/lastmile_qr_scan", "ios": "https://dc.lft.to/lastmile_qr_scan"}, "is_reserved": 0, "name": "9fad7c7633e37108777417705dfeb821", "lon": -77.03987, "type": "electric_bike", "bike_id": "9fad7c7633e37108777417705dfeb821", "fusion_lon": 0.0, "lat": 38.802997, "fusion_lat": 0.0}, {"is_disabled": 0, "rental_uris": {"android": "https://dc.lft.to/lastmile_qr_scan", "ios": "https://dc.lft.to/lastmile_qr_scan"}, "is_reserved": 0, "name": "1d269279c5dfdf3e06a066967cc0f6eb", "lon": -77.07621816666666, "type": "electric_scooter", "bike_id": "1d269279c5dfdf3e06a066967cc0f6eb", "fusion_lon": 0.0, "lat": 38.91273183333333, "fusion_lat": 0.0}, {"is_disabled": 0, "rental_uris": {"android": "https://dc.lft.to/lastmile_qr_scan", "ios": "https://dc.lft.to/lastmile_qr_scan"}, "is_reserved": 0, "name": "dd8b5692b031f72fad43314f20721a74", "lon": -77.03320533333333, "type": "electric_scooter", "bike_id": "dd8b5692b031f72fad43314f20721a74", "fusion_lon": 0.0, "lat": 38.92879216666667, "fusion_lat": 0.0}, {"is_disabled": 0, "rental_uris": {"android": "https://dc.lft.to/lastmile_qr_scan", "ios": "https://dc.lft.to/lastmile_qr_scan"}, "is_reserved": 0, "name": "1cce67451578e8fefd2d4d3a67b6fe6a", "lon": -77.05934183333333, "type": "electric_bike", "bike_id": "1cce67451578e8fefd2d4d3a67b6fe6a", "fusion_lon": 0.0, "lat": 38.9053285, "fusion_lat": 0.0}, {"is_disabled": 0, "rental_uris": {"android": "https://dc.lft.to/lastmile_qr_scan", "ios": "https://dc.lft.to/lastmile_qr_scan"}, "is_reserved": 0, "name": "c2e589dbdf752f10adc14f1fb6eb539c", "lon": -77.03143133333333, "type": "electric_scooter", "bike_id": "c2e589dbdf752f10adc14f1fb6eb539c", "fusion_lon": 0.0, "lat": 38.924850666666664, "fusion_lat": 0.0}, {"is_disabled": 0, "rental_uris": {"android": "https://dc.lft.to/lastmile_qr_scan", "ios": "https://dc.lft.to/lastmile_qr_scan"}, "is_reserved": 0, "name": "1fc99f38e333b0d409b41141a036a95b", "lon": -77.04371366666666, "type": "electric_scooter", "bike_id": "1fc99f38e333b0d409b41141a036a95b", "fusion_lon": 0.0, "lat": 38.9028015, "fusion_lat": 0.0}, {"is_disabled": 0, "rental_uris": {"android": "https://dc.lft.to/lastmile_qr_scan", "ios": "https://dc.lft.to/lastmile_qr_scan"}, "is_reserved": 0, "name": "6738ea12d04afa889fadabf6d6291d91", "lon": -77.03229116666667, "type": "electric_scooter", "bike_id": "6738ea12d04afa889fadabf6d6291d91", "fusion_lon": 0.0, "lat": 38.9249895, "fusion_lat": 0.0}, {"is_disabled": 0, "rental_uris": {"android": "https://dc.lft.to/lastmile_qr_scan", "ios": "https://dc.lft.to/lastmile_qr_scan"}, "is_reserved": 0, "name": "63b5b8b17664b9c71fb69af34ebaa26e", "lon": -77.037938, "type": "electric_scooter", "bike_id": "63b5b8b17664b9c71fb69af34ebaa26e", "fusion_lon": 0.0, "lat": 38.9361655, "fusion_lat": 0.0}, {"is_disabled": 0, "rental_uris": {"android": "https://dc.lft.to/lastmile_qr_scan", "ios": "https://dc.lft.to/lastmile_qr_scan"}, "is_reserved": 0, "name": "ef59a5bffd384721f428f7f45be5b0b8", "lon": -77.06127833333333, "type": "electric_scooter", "bike_id": "ef59a5bffd384721f428f7f45be5b0b8", "fusion_lon": 0.0, "lat": 38.943631333333336, "fusion_lat": 0.0}, {"is_disabled": 0, "rental_uris": {"android": "https://dc.lft.to/lastmile_qr_scan", "ios": "https://dc.lft.to/lastmile_qr_scan"}, "is_reserved": 0, "name": "99b93b748dbb100ea8dd3b06812bab8a", "lon": -77.03057616666666, "type": "electric_scooter", "bike_id": "99b93b748dbb100ea8dd3b06812bab8a", "fusion_lon": 0.0, "lat": 38.901284, "fusion_lat": 0.0}, {"is_disabled": 0, "rental_uris": {"android": "https://dc.lft.to/lastmile_qr_scan", "ios": "https://dc.lft.to/lastmile_qr_scan"}, "is_reserved": 0, "name": "c1a49aa0ee21f5263aacba2aec64c384", "lon": -77.0322305, "type": "electric_scooter", "bike_id": "c1a49aa0ee21f5263aacba2aec64c384", "fusion_lon": 0.0, "lat": 38.89221766666667, "fusion_lat": 0.0}, {"is_disabled": 0, "rental_uris": {"android": "https://dc.lft.to/lastmile_qr_scan", "ios": "https://dc.lft.to/lastmile_qr_scan"}, "is_reserved": 0, "name": "73cc0ce4756cba7dd8c5da3f553390b2", "lon": -76.90966116666667, "type": "electric_bike", "bike_id": "73cc0ce4756cba7dd8c5da3f553390b2", "fusion_lon": 0.0, "lat": 38.854283333333335, "fusion_lat": 0.0}, {"is_disabled": 0, "rental_uris": {"android": "https://dc.lft.to/lastmile_qr_scan", "ios": "https://dc.lft.to/lastmile_qr_scan"}, "is_reserved": 0, "name": "a91cd59f06cb79874267d9876375d806", "lon": -77.05134483333333, "type": "electric_scooter", "bike_id": "a91cd59f06cb79874267d9876375d806", "fusion_lon": 0.0, "lat": 38.907169, "fusion_lat": 0.0}, {"is_disabled": 0, "rental_uris": {"android": "https://dc.lft.to/lastmile_qr_scan", "ios": "https://dc.lft.to/lastmile_qr_scan"}, "is_reserved": 0, "name": "a2a89b3a4efbc6b42148a4edaeadb074", "lon": -77.051785, "type": "electric_scooter", "bike_id": "a2a89b3a4efbc6b42148a4edaeadb074", "fusion_lon": 0.0, "lat": 38.903205166666666, "fusion_lat": 0.0}, {"is_disabled": 0, "rental_uris": {"android": "https://dc.lft.to/lastmile_qr_scan", "ios": "https://dc.lft.to/lastmile_qr_scan"}, "is_reserved": 0, "name": "20e38335de0471d146886c8e0ad2fe09", "lon": -77.00811833333333, "type": "electric_bike", "bike_id": "20e38335de0471d146886c8e0ad2fe09", "fusion_lon": 0.0, "lat": 38.953476, "fusion_lat": 0.0}, {"is_disabled": 0, "rental_uris": {"android": "https://dc.lft.to/lastmile_qr_scan", "ios": "https://dc.lft.to/lastmile_qr_scan"}, "is_reserved": 0, "name": "3cfd5054150b84287204014a947078e7", "lon": -77.010155, "type": "electric_scooter", "bike_id": "3cfd5054150b84287204014a947078e7", "fusion_lon": 0.0, "lat": 38.867203833333335, "fusion_lat": 0.0}, {"is_disabled": 0, "rental_uris": {"android": "https://dc.lft.to/lastmile_qr_scan", "ios": "https://dc.lft.to/lastmile_qr_scan"}, "is_reserved": 0, "name": "113e9331298e575d1eaee1e5714498d1", "lon": -76.9415515, "type": "electric_scooter", "bike_id": "113e9331298e575d1eaee1e5714498d1", "fusion_lon": 0.0, "lat": 38.883674666666664, "fusion_lat": 0.0}, {"is_disabled": 0, "rental_uris": {"android": "https://dc.lft.to/lastmile_qr_scan", "ios": "https://dc.lft.to/lastmile_qr_scan"}, "is_reserved": 0, "name": "0c1159fb179d38b29b36d0bb4fe77aa6", "lon": -77.050274, "type": "electric_scooter", "bike_id": "0c1159fb179d38b29b36d0bb4fe77aa6", "fusion_lon": 0.0, "lat": 38.89619966666667, "fusion_lat": 0.0}, {"is_disabled": 0, "rental_uris": {"android": "https://dc.lft.to/lastmile_qr_scan", "ios": "https://dc.lft.to/lastmile_qr_scan"}, "is_reserved": 0, "name": "e76cc1f08a96c6a9f05185e9e66fee0e", "lon": -77.014172, "type": "electric_scooter", "bike_id": "e76cc1f08a96c6a9f05185e9e66fee0e", "fusion_lon": 0.0, "lat": 38.928262833333335, "fusion_lat": 0.0}, {"is_disabled": 0, "rental_uris": {"android": "https://dc.lft.to/lastmile_qr_scan", "ios": "https://dc.lft.to/lastmile_qr_scan"}, "is_reserved": 0, "name": "e401fcbfbf124424329a0665068cddae", "lon": -77.00360983333333, "type": "electric_scooter", "bike_id": "e401fcbfbf124424329a0665068cddae", "fusion_lon": 0.0, "lat": 38.8850605, "fusion_lat": 0.0}, {"is_disabled": 0, "rental_uris": {"android": "https://dc.lft.to/lastmile_qr_scan", "ios": "https://dc.lft.to/lastmile_qr_scan"}, "is_reserved": 0, "name": "6feb7ca86af35be3a677f8054c2994ab", "lon": -77.0030825, "type": "electric_scooter", "bike_id": "6feb7ca86af35be3a677f8054c2994ab", "fusion_lon": 0.0, "lat": 38.892289, "fusion_lat": 0.0}, {"is_disabled": 0, "rental_uris": {"android": "https://dc.lft.to/lastmile_qr_scan", "ios": "https://dc.lft.to/lastmile_qr_scan"}, "is_reserved": 0, "name": "8e8ee1f590ec6ecad10133e6dafc9434", "lon": -77.041592, "type": "electric_scooter", "bike_id": "8e8ee1f590ec6ecad10133e6dafc9434", "fusion_lon": 0.0, "lat": 38.923340333333336, "fusion_lat": 0.0}, {"is_disabled": 0, "rental_uris": {"android": "https://dc.lft.to/lastmile_qr_scan", "ios": "https://dc.lft.to/lastmile_qr_scan"}, "is_reserved": 0, "name": "4194fe5e03f516df5d52234ce5ba0d82", "lon": -77.09032816666667, "type": "electric_bike", "bike_id": "4194fe5e03f516df5d52234ce5ba0d82", "fusion_lon": 0.0, "lat": 38.84120466666667, "fusion_lat": 0.0}, {"is_disabled": 0, "rental_uris": {"android": "https://dc.lft.to/lastmile_qr_scan", "ios": "https://dc.lft.to/lastmile_qr_scan"}, "is_reserved": 0, "name": "ae6251871ccebd2ef2684ce868ce707c", "lon": -77.0080045, "type": "electric_scooter", "bike_id": "ae6251871ccebd2ef2684ce868ce707c", "fusion_lon": 0.0, "lat": 38.89718933333333, "fusion_lat": 0.0}, {"is_disabled": 0, "rental_uris": {"android": "https://dc.lft.to/lastmile_qr_scan", "ios": "https://dc.lft.to/lastmile_qr_scan"}, "is_reserved": 0, "name": "475898d134a0626ebda859c2009cbd44", "lon": -76.94941283333333, "type": "electric_scooter", "bike_id": "475898d134a0626ebda859c2009cbd44", "fusion_lon": 0.0, "lat": 38.883218, "fusion_lat": 0.0}, {"is_disabled": 0, "rental_uris": {"android": "https://dc.lft.to/lastmile_qr_scan", "ios": "https://dc.lft.to/lastmile_qr_scan"}, "is_reserved": 0, "name": "b25d37ea6ddf2158248d580de0e186d5", "lon": -76.9830705, "type": "electric_scooter", "bike_id": "b25d37ea6ddf2158248d580de0e186d5", "fusion_lon": 0.0, "lat": 38.90378583333333, "fusion_lat": 0.0}, {"is_disabled": 0, "rental_uris": {"android": "https://dc.lft.to/lastmile_qr_scan", "ios": "https://dc.lft.to/lastmile_qr_scan"}, "is_reserved": 0, "name": "8756191b92c616696672faa6230c553b", "lon": -77.0283605, "type": "electric_scooter", "bike_id": "8756191b92c616696672faa6230c553b", "fusion_lon": 0.0, "lat": 38.9297975, "fusion_lat": 0.0}, {"is_disabled": 0, "rental_uris": {"android": "https://dc.lft.to/lastmile_qr_scan", "ios": "https://dc.lft.to/lastmile_qr_scan"}, "is_reserved": 0, "name": "f59fcc7f741b3100c58ea5aea8ea518f", "lon": -77.0403415, "type": "electric_scooter", "bike_id": "f59fcc7f741b3100c58ea5aea8ea518f", "fusion_lon": 0.0, "lat": 38.904825333333335, "fusion_lat": 0.0}, {"is_disabled": 0, "rental_uris": {"android": "https://dc.lft.to/lastmile_qr_scan", "ios": "https://dc.lft.to/lastmile_qr_scan"}, "is_reserved": 0, "name": "aa78df46cb59cbd2778ae16528fbe754", "lon": -77.00285233333334, "type": "electric_bike", "bike_id": "aa78df46cb59cbd2778ae16528fbe754", "fusion_lon": 0.0, "lat": 38.91177616666667, "fusion_lat": 0.0}, {"is_disabled": 0, "rental_uris": {"android": "https://dc.lft.to/lastmile_qr_scan", "ios": "https://dc.lft.to/lastmile_qr_scan"}, "is_reserved": 0, "name": "8324b4cf88cc35efe6695ec505571b2b", "lon": -77.03209666666666, "type": "electric_scooter", "bike_id": "8324b4cf88cc35efe6695ec505571b2b", "fusion_lon": 0.0, "lat": 38.907414833333334, "fusion_lat": 0.0}, {"is_disabled": 0, "rental_uris": {"android": "https://dc.lft.to/lastmile_qr_scan", "ios": "https://dc.lft.to/lastmile_qr_scan"}, "is_reserved": 0, "name": "5f3f84363643e10518b875babcb3778f", "lon": -77.024239, "type": "electric_scooter", "bike_id": "5f3f84363643e10518b875babcb3778f", "fusion_lon": 0.0, "lat": 38.893701166666666, "fusion_lat": 0.0}, {"is_disabled": 0, "rental_uris": {"android": "https://dc.lft.to/lastmile_qr_scan", "ios": "https://dc.lft.to/lastmile_qr_scan"}, "is_reserved": 0, "name": "d88b34eaac897434fb402b5b75d04a96", "lon": -77.09449516666666, "type": "electric_scooter", "bike_id": "d88b34eaac897434fb402b5b75d04a96", "fusion_lon": 0.0, "lat": 38.9179265, "fusion_lat": 0.0}, {"is_disabled": 0, "rental_uris": {"android": "https://dc.lft.to/lastmile_qr_scan", "ios": "https://dc.lft.to/lastmile_qr_scan"}, "is_reserved": 0, "name": "c2eea9d6811841c1e7395c25de2ce5a7", "lon": -77.00389366666667, "type": "electric_scooter", "bike_id": "c2eea9d6811841c1e7395c25de2ce5a7", "fusion_lon": 0.0, "lat": 38.910706, "fusion_lat": 0.0}, {"is_disabled": 0, "rental_uris": {"android": "https://dc.lft.to/lastmile_qr_scan", "ios": "https://dc.lft.to/lastmile_qr_scan"}, "is_reserved": 0, "name": "48dbb25951ca45223a9a42659a35a7fd", "lon": -76.94282683333333, "type": "electric_scooter", "bike_id": "48dbb25951ca45223a9a42659a35a7fd", "fusion_lon": 0.0, "lat": 38.883070000000004, "fusion_lat": 0.0}, {"is_disabled": 0, "rental_uris": {"android": "https://dc.lft.to/lastmile_qr_scan", "ios": "https://dc.lft.to/lastmile_qr_scan"}, "is_reserved": 0, "name": "36816dfa93c58e0ae76f8b598ebf17f0", "lon": -77.073666, "type": "electric_bike", "bike_id": "36816dfa93c58e0ae76f8b598ebf17f0", "fusion_lon": 0.0, "lat": 38.9618415, "fusion_lat": 0.0}, {"is_disabled": 0, "rental_uris": {"android": "https://dc.lft.to/lastmile_qr_scan", "ios": "https://dc.lft.to/lastmile_qr_scan"}, "is_reserved": 0, "name": "f9f3b6d137f34d6e20152e24c1782596", "lon": -77.022086, "type": "electric_scooter", "bike_id": "f9f3b6d137f34d6e20152e24c1782596", "fusion_lon": 0.0, "lat": 38.895154833333336, "fusion_lat": 0.0}, {"is_disabled": 0, "rental_uris": {"android": "https://dc.lft.to/lastmile_qr_scan", "ios": "https://dc.lft.to/lastmile_qr_scan"}, "is_reserved": 0, "name": "69cb934356be99ffaf990eb717c57359", "lon": -77.012131, "type": "electric_scooter", "bike_id": "69cb934356be99ffaf990eb717c57359", "fusion_lon": 0.0, "lat": 38.918248, "fusion_lat": 0.0}, {"is_disabled": 0, "rental_uris": {"android": "https://dc.lft.to/lastmile_qr_scan", "ios": "https://dc.lft.to/lastmile_qr_scan"}, "is_reserved": 0, "name": "d41705e06bff2e1738a6879ef37547d7", "lon": -76.922345, "type": "electric_scooter", "bike_id": "d41705e06bff2e1738a6879ef37547d7", "fusion_lon": 0.0, "lat": 38.900040833333335, "fusion_lat": 0.0}, {"is_disabled": 0, "rental_uris": {"android": "https://dc.lft.to/lastmile_qr_scan", "ios": "https://dc.lft.to/lastmile_qr_scan"}, "is_reserved": 0, "name": "55dee4d0ca358a0b52471fe408da46d0", "lon": -77.02163466666667, "type": "electric_scooter", "bike_id": "55dee4d0ca358a0b52471fe408da46d0", "fusion_lon": 0.0, "lat": 38.89931833333333, "fusion_lat": 0.0}, {"is_disabled": 0, "rental_uris": {"android": "https://dc.lft.to/lastmile_qr_scan", "ios": "https://dc.lft.to/lastmile_qr_scan"}, "is_reserved": 0, "name": "c0fd1f3871bfd1ff2e199d55969ab7ef", "lon": -77.0464245, "type": "electric_scooter", "bike_id": "c0fd1f3871bfd1ff2e199d55969ab7ef", "fusion_lon": 0.0, "lat": 38.893461333333335, "fusion_lat": 0.0}, {"is_disabled": 0, "rental_uris": {"android": "https://dc.lft.to/lastmile_qr_scan", "ios": "https://dc.lft.to/lastmile_qr_scan"}, "is_reserved": 0, "name": "3da5f9137a444445470e4a473da6d876", "lon": -76.97312366666667, "type": "electric_scooter", "bike_id": "3da5f9137a444445470e4a473da6d876", "fusion_lon": 0.0, "lat": 38.91978833333334, "fusion_lat": 0.0}, {"is_disabled": 0, "rental_uris": {"android": "https://dc.lft.to/lastmile_qr_scan", "ios": "https://dc.lft.to/lastmile_qr_scan"}, "is_reserved": 0, "name": "08777711a11df606eb714a32421a2818", "lon": -77.0449055, "type": "electric_scooter", "bike_id": "08777711a11df606eb714a32421a2818", "fusion_lon": 0.0, "lat": 38.8975025, "fusion_lat": 0.0}, {"is_disabled": 0, "rental_uris": {"android": "https://dc.lft.to/lastmile_qr_scan", "ios": "https://dc.lft.to/lastmile_qr_scan"}, "is_reserved": 0, "name": "b28af2ef39f5906a924270674b9f3909", "lon": -77.07797483333333, "type": "electric_bike", "bike_id": "b28af2ef39f5906a924270674b9f3909", "fusion_lon": 0.0, "lat": 38.84516933333333, "fusion_lat": 0.0}, {"is_disabled": 0, "rental_uris": {"android": "https://dc.lft.to/lastmile_qr_scan", "ios": "https://dc.lft.to/lastmile_qr_scan"}, "is_reserved": 0, "name": "7c7ddcea7a5fe0344e1a1e210083cbd7", "lon": -77.0249575, "type": "electric_scooter", "bike_id": "7c7ddcea7a5fe0344e1a1e210083cbd7", "fusion_lon": 0.0, "lat": 38.9418795, "fusion_lat": 0.0}, {"is_disabled": 0, "rental_uris": {"android": "https://dc.lft.to/lastmile_qr_scan", "ios": "https://dc.lft.to/lastmile_qr_scan"}, "is_reserved": 0, "name": "f7dc877bae404a19468667fd70f438af", "lon": -77.02960733333333, "type": "electric_scooter", "bike_id": "f7dc877bae404a19468667fd70f438af", "fusion_lon": 0.0, "lat": 38.921470166666666, "fusion_lat": 0.0}, {"is_disabled": 0, "rental_uris": {"android": "https://dc.lft.to/lastmile_qr_scan", "ios": "https://dc.lft.to/lastmile_qr_scan"}, "is_reserved": 0, "name": "da80e69885f0615d7f140c4cf0bee7fd", "lon": -77.0463075, "type": "electric_scooter", "bike_id": "da80e69885f0615d7f140c4cf0bee7fd", "fusion_lon": 0.0, "lat": 38.904624, "fusion_lat": 0.0}, {"is_disabled": 0, "rental_uris": {"android": "https://dc.lft.to/lastmile_qr_scan", "ios": "https://dc.lft.to/lastmile_qr_scan"}, "is_reserved": 0, "name": "b0deebb24022378450bbda73be0385fe", "lon": -77.07291216666667, "type": "electric_scooter", "bike_id": "b0deebb24022378450bbda73be0385fe", "fusion_lon": 0.0, "lat": 38.931903166666665, "fusion_lat": 0.0}, {"is_disabled": 0, "rental_uris": {"android": "https://dc.lft.to/lastmile_qr_scan", "ios": "https://dc.lft.to/lastmile_qr_scan"}, "is_reserved": 0, "name": "a9296d4d04730b7230692c28b26d7e73", "lon": -77.04757466666666, "type": "electric_scooter", "bike_id": "a9296d4d04730b7230692c28b26d7e73", "fusion_lon": 0.0, "lat": 38.9054245, "fusion_lat": 0.0}, {"is_disabled": 0, "rental_uris": {"android": "https://dc.lft.to/lastmile_qr_scan", "ios": "https://dc.lft.to/lastmile_qr_scan"}, "is_reserved": 0, "name": "77d860586152efaf9374b59c27e68351", "lon": -77.02409016666667, "type": "electric_scooter", "bike_id": "77d860586152efaf9374b59c27e68351", "fusion_lon": 0.0, "lat": 38.915691333333335, "fusion_lat": 0.0}, {"is_disabled": 0, "rental_uris": {"android": "https://dc.lft.to/lastmile_qr_scan", "ios": "https://dc.lft.to/lastmile_qr_scan"}, "is_reserved": 0, "name": "11d9c76c8c7809381cb3a74dee203cb9", "lon": -76.98017916666667, "type": "electric_scooter", "bike_id": "11d9c76c8c7809381cb3a74dee203cb9", "fusion_lon": 0.0, "lat": 38.86404533333334, "fusion_lat": 0.0}, {"is_disabled": 0, "rental_uris": {"android": "https://dc.lft.to/lastmile_qr_scan", "ios": "https://dc.lft.to/lastmile_qr_scan"}, "is_reserved": 0, "name": "fe116fe03672a4a79614f0cf4337f0bc", "lon": -77.04170266666667, "type": "electric_scooter", "bike_id": "fe116fe03672a4a79614f0cf4337f0bc", "fusion_lon": 0.0, "lat": 38.916235, "fusion_lat": 0.0}, {"is_disabled": 0, "rental_uris": {"android": "https://dc.lft.to/lastmile_qr_scan", "ios": "https://dc.lft.to/lastmile_qr_scan"}, "is_reserved": 0, "name": "d0f6927c367ef7dc5bea3d39fbe31bf0", "lon": -77.051058, "type": "electric_scooter", "bike_id": "d0f6927c367ef7dc5bea3d39fbe31bf0", "fusion_lon": 0.0, "lat": 38.92363116666667, "fusion_lat": 0.0}, {"is_disabled": 0, "rental_uris": {"android": "https://dc.lft.to/lastmile_qr_scan", "ios": "https://dc.lft.to/lastmile_qr_scan"}, "is_reserved": 0, "name": "c0d245d4e68bc809b78fec8063145cc1", "lon": -77.0110965, "type": "electric_scooter", "bike_id": "c0d245d4e68bc809b78fec8063145cc1", "fusion_lon": 0.0, "lat": 38.9079315, "fusion_lat": 0.0}, {"is_disabled": 0, "rental_uris": {"android": "https://dc.lft.to/lastmile_qr_scan", "ios": "https://dc.lft.to/lastmile_qr_scan"}, "is_reserved": 0, "name": "eee7462b0f0f9e5a0d277775d4bad4a2", "lon": -77.0029335, "type": "electric_scooter", "bike_id": "eee7462b0f0f9e5a0d277775d4bad4a2", "fusion_lon": 0.0, "lat": 38.892063, "fusion_lat": 0.0}, {"is_disabled": 0, "rental_uris": {"android": "https://dc.lft.to/lastmile_qr_scan", "ios": "https://dc.lft.to/lastmile_qr_scan"}, "is_reserved": 0, "name": "93877d757a7caf714f0c173c81172bfc", "lon": -77.02818983333333, "type": "electric_scooter", "bike_id": "93877d757a7caf714f0c173c81172bfc", "fusion_lon": 0.0, "lat": 38.8962185, "fusion_lat": 0.0}, {"is_disabled": 0, "rental_uris": {"android": "https://dc.lft.to/lastmile_qr_scan", "ios": "https://dc.lft.to/lastmile_qr_scan"}, "is_reserved": 0, "name": "44a0a0f3aac45be2381ddd817a72c703", "lon": -77.02992183333333, "type": "electric_scooter", "bike_id": "44a0a0f3aac45be2381ddd817a72c703", "fusion_lon": 0.0, "lat": 38.9247825, "fusion_lat": 0.0}, {"is_disabled": 0, "rental_uris": {"android": "https://dc.lft.to/lastmile_qr_scan", "ios": "https://dc.lft.to/lastmile_qr_scan"}, "is_reserved": 0, "name": "460e64a3f619b0b36154e460eec68a88", "lon": -77.058507, "type": "electric_scooter", "bike_id": "460e64a3f619b0b36154e460eec68a88", "fusion_lon": 0.0, "lat": 38.936983166666664, "fusion_lat": 0.0}, {"is_disabled": 0, "rental_uris": {"android": "https://dc.lft.to/lastmile_qr_scan", "ios": "https://dc.lft.to/lastmile_qr_scan"}, "is_reserved": 0, "name": "6f24cfea0de9d13c76c7417b4525b140", "lon": -77.02985633333333, "type": "electric_scooter", "bike_id": "6f24cfea0de9d13c76c7417b4525b140", "fusion_lon": 0.0, "lat": 38.924745, "fusion_lat": 0.0}, {"is_disabled": 0, "rental_uris": {"android": "https://dc.lft.to/lastmile_qr_scan", "ios": "https://dc.lft.to/lastmile_qr_scan"}, "is_reserved": 0, "name": "a280530793945d4d28d4170568407394", "lon": -77.0198005, "type": "electric_scooter", "bike_id": "a280530793945d4d28d4170568407394", "fusion_lon": 0.0, "lat": 38.95946166666667, "fusion_lat": 0.0}, {"is_disabled": 0, "rental_uris": {"android": "https://dc.lft.to/lastmile_qr_scan", "ios": "https://dc.lft.to/lastmile_qr_scan"}, "is_reserved": 0, "name": "d9bcf185e5c7de045f5440a98afa2890", "lon": -76.912373, "type": "electric_scooter", "bike_id": "d9bcf185e5c7de045f5440a98afa2890", "fusion_lon": 0.0, "lat": 38.89398383333333, "fusion_lat": 0.0}, {"is_disabled": 0, "rental_uris": {"android": "https://dc.lft.to/lastmile_qr_scan", "ios": "https://dc.lft.to/lastmile_qr_scan"}, "is_reserved": 0, "name": "658590713a4ae8e4c3c061927b3af985", "lon": -77.01806533333334, "type": "electric_scooter", "bike_id": "658590713a4ae8e4c3c061927b3af985", "fusion_lon": 0.0, "lat": 38.921072333333335, "fusion_lat": 0.0}, {"is_disabled": 0, "rental_uris": {"android": "https://dc.lft.to/lastmile_qr_scan", "ios": "https://dc.lft.to/lastmile_qr_scan"}, "is_reserved": 0, "name": "db6143c4e2001488e65db65c079aae5c", "lon": -76.98807166666667, "type": "electric_scooter", "bike_id": "db6143c4e2001488e65db65c079aae5c", "fusion_lon": 0.0, "lat": 38.9082705, "fusion_lat": 0.0}, {"is_disabled": 0, "rental_uris": {"android": "https://dc.lft.to/lastmile_qr_scan", "ios": "https://dc.lft.to/lastmile_qr_scan"}, "is_reserved": 0, "name": "e6b3d84c431e65834c823e4c194d58f2", "lon": -76.971825, "type": "electric_scooter", "bike_id": "e6b3d84c431e65834c823e4c194d58f2", "fusion_lon": 0.0, "lat": 38.91263566666667, "fusion_lat": 0.0}, {"is_disabled": 0, "rental_uris": {"android": "https://dc.lft.to/lastmile_qr_scan", "ios": "https://dc.lft.to/lastmile_qr_scan"}, "is_reserved": 0, "name": "196b3ffc10b4138f1d6522a2ec8870a6", "lon": -77.03801533333333, "type": "electric_scooter", "bike_id": "196b3ffc10b4138f1d6522a2ec8870a6", "fusion_lon": 0.0, "lat": 38.93609083333333, "fusion_lat": 0.0}, {"is_disabled": 0, "rental_uris": {"android": "https://dc.lft.to/lastmile_qr_scan", "ios": "https://dc.lft.to/lastmile_qr_scan"}, "is_reserved": 0, "name": "17efc9ce73fb03cc0a42b3bc5af7c56c", "lon": -77.06101266666667, "type": "electric_scooter", "bike_id": "17efc9ce73fb03cc0a42b3bc5af7c56c", "fusion_lon": 0.0, "lat": 38.93710466666667, "fusion_lat": 0.0}, {"is_disabled": 0, "rental_uris": {"android": "https://dc.lft.to/lastmile_qr_scan", "ios": "https://dc.lft.to/lastmile_qr_scan"}, "is_reserved": 0, "name": "37c89a69ac9b3b7f6cd0e8788b114742", "lon": -77.032269, "type": "electric_scooter", "bike_id": "37c89a69ac9b3b7f6cd0e8788b114742", "fusion_lon": 0.0, "lat": 38.908698666666666, "fusion_lat": 0.0}, {"is_disabled": 0, "rental_uris": {"android": "https://dc.lft.to/lastmile_qr_scan", "ios": "https://dc.lft.to/lastmile_qr_scan"}, "is_reserved": 0, "name": "642bf9cf15adb24f94dc9050d23aa5c2", "lon": -77.041468, "type": "electric_scooter", "bike_id": "642bf9cf15adb24f94dc9050d23aa5c2", "fusion_lon": 0.0, "lat": 38.90122616666667, "fusion_lat": 0.0}, {"is_disabled": 0, "rental_uris": {"android": "https://dc.lft.to/lastmile_qr_scan", "ios": "https://dc.lft.to/lastmile_qr_scan"}, "is_reserved": 0, "name": "8d3a80297842d7efb04062f40b0d32aa", "lon": -77.0279945, "type": "electric_scooter", "bike_id": "8d3a80297842d7efb04062f40b0d32aa", "fusion_lon": 0.0, "lat": 38.884310166666666, "fusion_lat": 0.0}, {"is_disabled": 0, "rental_uris": {"android": "https://dc.lft.to/lastmile_qr_scan", "ios": "https://dc.lft.to/lastmile_qr_scan"}, "is_reserved": 0, "name": "057a9f5edc900c96b91882a066901c91", "lon": -77.03524383333334, "type": "electric_scooter", "bike_id": "057a9f5edc900c96b91882a066901c91", "fusion_lon": 0.0, "lat": 38.92244066666667, "fusion_lat": 0.0}, {"is_disabled": 0, "rental_uris": {"android": "https://dc.lft.to/lastmile_qr_scan", "ios": "https://dc.lft.to/lastmile_qr_scan"}, "is_reserved": 0, "name": "e732bb6ed598315cb7d4e28e13963705", "lon": -77.04501816666667, "type": "electric_scooter", "bike_id": "e732bb6ed598315cb7d4e28e13963705", "fusion_lon": 0.0, "lat": 38.896161666666664, "fusion_lat": 0.0}, {"is_disabled": 0, "rental_uris": {"android": "https://dc.lft.to/lastmile_qr_scan", "ios": "https://dc.lft.to/lastmile_qr_scan"}, "is_reserved": 0, "name": "2ba622b2476e82c2c51df1f0c11a88a6", "lon": -77.00338183333334, "type": "electric_scooter", "bike_id": "2ba622b2476e82c2c51df1f0c11a88a6", "fusion_lon": 0.0, "lat": 38.8935635, "fusion_lat": 0.0}, {"is_disabled": 0, "rental_uris": {"android": "https://dc.lft.to/lastmile_qr_scan", "ios": "https://dc.lft.to/lastmile_qr_scan"}, "is_reserved": 0, "name": "ab49b55dbce2ae1c13598b077fee9c93", "lon": -76.97722949999999, "type": "electric_scooter", "bike_id": "ab49b55dbce2ae1c13598b077fee9c93", "fusion_lon": 0.0, "lat": 38.88832033333333, "fusion_lat": 0.0}, {"is_disabled": 0, "rental_uris": {"android": "https://dc.lft.to/lastmile_qr_scan", "ios": "https://dc.lft.to/lastmile_qr_scan"}, "is_reserved": 0, "name": "f080da06a1cdfa4aaa38794ded4019b1", "lon": -77.01052216666666, "type": "electric_scooter", "bike_id": "f080da06a1cdfa4aaa38794ded4019b1", "fusion_lon": 0.0, "lat": 38.8989855, "fusion_lat": 0.0}, {"is_disabled": 0, "rental_uris": {"android": "https://dc.lft.to/lastmile_qr_scan", "ios": "https://dc.lft.to/lastmile_qr_scan"}, "is_reserved": 0, "name": "e451be9bb6e3567b1e5af015993da036", "lon": -77.04509633333333, "type": "electric_scooter", "bike_id": "e451be9bb6e3567b1e5af015993da036", "fusion_lon": 0.0, "lat": 38.903810666666665, "fusion_lat": 0.0}, {"is_disabled": 0, "rental_uris": {"android": "https://dc.lft.to/lastmile_qr_scan", "ios": "https://dc.lft.to/lastmile_qr_scan"}, "is_reserved": 0, "name": "a881e768ae2b137e9835c08c454aedf3", "lon": -77.043523, "type": "electric_scooter", "bike_id": "a881e768ae2b137e9835c08c454aedf3", "fusion_lon": 0.0, "lat": 38.91130883333334, "fusion_lat": 0.0}, {"is_disabled": 0, "rental_uris": {"android": "https://dc.lft.to/lastmile_qr_scan", "ios": "https://dc.lft.to/lastmile_qr_scan"}, "is_reserved": 0, "name": "bbc4ccd15b8054acf5b31cfe77669f5d", "lon": -77.03223733333333, "type": "electric_scooter", "bike_id": "bbc4ccd15b8054acf5b31cfe77669f5d", "fusion_lon": 0.0, "lat": 38.90957816666667, "fusion_lat": 0.0}, {"is_disabled": 0, "rental_uris": {"android": "https://dc.lft.to/lastmile_qr_scan", "ios": "https://dc.lft.to/lastmile_qr_scan"}, "is_reserved": 0, "name": "5b4d2ddd8a7fbd0d93300875aadb559e", "lon": -77.02288283333333, "type": "electric_scooter", "bike_id": "5b4d2ddd8a7fbd0d93300875aadb559e", "fusion_lon": 0.0, "lat": 38.917033, "fusion_lat": 0.0}, {"is_disabled": 0, "rental_uris": {"android": "https://dc.lft.to/lastmile_qr_scan", "ios": "https://dc.lft.to/lastmile_qr_scan"}, "is_reserved": 0, "name": "595754771cde325105f0aa3952325415", "lon": -77.0441965, "type": "electric_scooter", "bike_id": "595754771cde325105f0aa3952325415", "fusion_lon": 0.0, "lat": 38.917748, "fusion_lat": 0.0}, {"is_disabled": 0, "rental_uris": {"android": "https://dc.lft.to/lastmile_qr_scan", "ios": "https://dc.lft.to/lastmile_qr_scan"}, "is_reserved": 0, "name": "20128fc807851c6cda21ff3d5996beda", "lon": -76.98469166666666, "type": "electric_scooter", "bike_id": "20128fc807851c6cda21ff3d5996beda", "fusion_lon": 0.0, "lat": 38.8935865, "fusion_lat": 0.0}, {"is_disabled": 0, "rental_uris": {"android": "https://dc.lft.to/lastmile_qr_scan", "ios": "https://dc.lft.to/lastmile_qr_scan"}, "is_reserved": 0, "name": "c9a207f700f8a9782cd3285bbbc778c2", "lon": -77.03449416666666, "type": "electric_scooter", "bike_id": "c9a207f700f8a9782cd3285bbbc778c2", "fusion_lon": 0.0, "lat": 38.915855666666666, "fusion_lat": 0.0}, {"is_disabled": 0, "rental_uris": {"android": "https://dc.lft.to/lastmile_qr_scan", "ios": "https://dc.lft.to/lastmile_qr_scan"}, "is_reserved": 0, "name": "ba1ffde3f89f332715f626a71b50dfc4", "lon": -77.115223, "type": "electric_bike", "bike_id": "ba1ffde3f89f332715f626a71b50dfc4", "fusion_lon": 0.0, "lat": 38.882267, "fusion_lat": 0.0}, {"is_disabled": 0, "rental_uris": {"android": "https://dc.lft.to/lastmile_qr_scan", "ios": "https://dc.lft.to/lastmile_qr_scan"}, "is_reserved": 0, "name": "7fb2ac95efd8fdd2fda70fb76de3fc15", "lon": -77.03085266666666, "type": "electric_scooter", "bike_id": "7fb2ac95efd8fdd2fda70fb76de3fc15", "fusion_lon": 0.0, "lat": 38.922438, "fusion_lat": 0.0}, {"is_disabled": 0, "rental_uris": {"android": "https://dc.lft.to/lastmile_qr_scan", "ios": "https://dc.lft.to/lastmile_qr_scan"}, "is_reserved": 0, "name": "1d35315398ad33232037f9239009d9c6", "lon": -76.98001016666667, "type": "electric_scooter", "bike_id": "1d35315398ad33232037f9239009d9c6", "fusion_lon": 0.0, "lat": 38.88872716666667, "fusion_lat": 0.0}, {"is_disabled": 0, "rental_uris": {"android": "https://dc.lft.to/lastmile_qr_scan", "ios": "https://dc.lft.to/lastmile_qr_scan"}, "is_reserved": 0, "name": "b8e595d9ea10fc7d338db96c72b83ca7", "lon": -77.02796316666667, "type": "electric_scooter", "bike_id": "b8e595d9ea10fc7d338db96c72b83ca7", "fusion_lon": 0.0, "lat": 38.9297295, "fusion_lat": 0.0}, {"is_disabled": 0, "rental_uris": {"android": "https://dc.lft.to/lastmile_qr_scan", "ios": "https://dc.lft.to/lastmile_qr_scan"}, "is_reserved": 0, "name": "0185f91f95b4066c22877c44ed61e580", "lon": -77.044213, "type": "electric_scooter", "bike_id": "0185f91f95b4066c22877c44ed61e580", "fusion_lon": 0.0, "lat": 38.91131083333333, "fusion_lat": 0.0}, {"is_disabled": 0, "rental_uris": {"android": "https://dc.lft.to/lastmile_qr_scan", "ios": "https://dc.lft.to/lastmile_qr_scan"}, "is_reserved": 0, "name": "89ea2ef6d52186e5b5eda078c409e98a", "lon": -77.06534783333333, "type": "electric_scooter", "bike_id": "89ea2ef6d52186e5b5eda078c409e98a", "fusion_lon": 0.0, "lat": 38.905249166666664, "fusion_lat": 0.0}, {"is_disabled": 0, "rental_uris": {"android": "https://dc.lft.to/lastmile_qr_scan", "ios": "https://dc.lft.to/lastmile_qr_scan"}, "is_reserved": 0, "name": "a4e7a70f31eb22fa0826b96facdbcc67", "lon": -77.06991616666667, "type": "electric_scooter", "bike_id": "a4e7a70f31eb22fa0826b96facdbcc67", "fusion_lon": 0.0, "lat": 38.946993, "fusion_lat": 0.0}, {"is_disabled": 0, "rental_uris": {"android": "https://dc.lft.to/lastmile_qr_scan", "ios": "https://dc.lft.to/lastmile_qr_scan"}, "is_reserved": 0, "name": "34a524ae9993bd2be608d03ee5f03701", "lon": -76.996029, "type": "electric_scooter", "bike_id": "34a524ae9993bd2be608d03ee5f03701", "fusion_lon": 0.0, "lat": 38.8909375, "fusion_lat": 0.0}, {"is_disabled": 0, "rental_uris": {"android": "https://dc.lft.to/lastmile_qr_scan", "ios": "https://dc.lft.to/lastmile_qr_scan"}, "is_reserved": 0, "name": "ec1028db3d63b7d10e4ee0185e7a456d", "lon": -77.0389935, "type": "electric_scooter", "bike_id": "ec1028db3d63b7d10e4ee0185e7a456d", "fusion_lon": 0.0, "lat": 38.924992333333336, "fusion_lat": 0.0}, {"is_disabled": 0, "rental_uris": {"android": "https://dc.lft.to/lastmile_qr_scan", "ios": "https://dc.lft.to/lastmile_qr_scan"}, "is_reserved": 0, "name": "f23dc76d8d9d1631ad909ca5cec6ef56", "lon": -76.993969, "type": "electric_scooter", "bike_id": "f23dc76d8d9d1631ad909ca5cec6ef56", "fusion_lon": 0.0, "lat": 38.9216655, "fusion_lat": 0.0}, {"is_disabled": 0, "rental_uris": {"android": "https://dc.lft.to/lastmile_qr_scan", "ios": "https://dc.lft.to/lastmile_qr_scan"}, "is_reserved": 0, "name": "f1ab84edd99e5a924f2241f3bf0b41bf", "lon": -76.98600916666666, "type": "electric_scooter", "bike_id": "f1ab84edd99e5a924f2241f3bf0b41bf", "fusion_lon": 0.0, "lat": 38.906556333333334, "fusion_lat": 0.0}, {"is_disabled": 0, "rental_uris": {"android": "https://dc.lft.to/lastmile_qr_scan", "ios": "https://dc.lft.to/lastmile_qr_scan"}, "is_reserved": 0, "name": "213f708729f0e949b028431268b60618", "lon": -76.9799585, "type": "electric_bike", "bike_id": "213f708729f0e949b028431268b60618", "fusion_lon": 0.0, "lat": 38.877581166666666, "fusion_lat": 0.0}, {"is_disabled": 0, "rental_uris": {"android": "https://dc.lft.to/lastmile_qr_scan", "ios": "https://dc.lft.to/lastmile_qr_scan"}, "is_reserved": 0, "name": "abf4b2a80bc448b867c0d58c6b679820", "lon": -77.36095633333333, "type": "electric_bike", "bike_id": "abf4b2a80bc448b867c0d58c6b679820", "fusion_lon": 0.0, "lat": 38.93964733333333, "fusion_lat": 0.0}, {"is_disabled": 0, "rental_uris": {"android": "https://dc.lft.to/lastmile_qr_scan", "ios": "https://dc.lft.to/lastmile_qr_scan"}, "is_reserved": 0, "name": "7f31fa4e24ab9f0fba381c5eb394cb75", "lon": -77.04364483333333, "type": "electric_scooter", "bike_id": "7f31fa4e24ab9f0fba381c5eb394cb75", "fusion_lon": 0.0, "lat": 38.9022725, "fusion_lat": 0.0}, {"is_disabled": 0, "rental_uris": {"android": "https://dc.lft.to/lastmile_qr_scan", "ios": "https://dc.lft.to/lastmile_qr_scan"}, "is_reserved": 0, "name": "3914e2e61c0a398cd7aacef4f960ca06", "lon": -77.0217415, "type": "electric_scooter", "bike_id": "3914e2e61c0a398cd7aacef4f960ca06", "fusion_lon": 0.0, "lat": 38.94298366666666, "fusion_lat": 0.0}, {"is_disabled": 0, "rental_uris": {"android": "https://dc.lft.to/lastmile_qr_scan", "ios": "https://dc.lft.to/lastmile_qr_scan"}, "is_reserved": 0, "name": "616d1193393afc93c990fec8f917f644", "lon": -77.05013, "type": "electric_scooter", "bike_id": "616d1193393afc93c990fec8f917f644", "fusion_lon": 0.0, "lat": 38.905269833333335, "fusion_lat": 0.0}, {"is_disabled": 0, "rental_uris": {"android": "https://dc.lft.to/lastmile_qr_scan", "ios": "https://dc.lft.to/lastmile_qr_scan"}, "is_reserved": 0, "name": "f2f0865cf3483e2dfa8b1a1a9fc08286", "lon": -77.0306035, "type": "electric_scooter", "bike_id": "f2f0865cf3483e2dfa8b1a1a9fc08286", "fusion_lon": 0.0, "lat": 38.93981216666667, "fusion_lat": 0.0}, {"is_disabled": 0, "rental_uris": {"android": "https://dc.lft.to/lastmile_qr_scan", "ios": "https://dc.lft.to/lastmile_qr_scan"}, "is_reserved": 0, "name": "4276fd9a4a75a0fe05d1babb6e1934d2", "lon": -77.01366166666666, "type": "electric_scooter", "bike_id": "4276fd9a4a75a0fe05d1babb6e1934d2", "fusion_lon": 0.0, "lat": 38.87903816666667, "fusion_lat": 0.0}, {"is_disabled": 0, "rental_uris": {"android": "https://dc.lft.to/lastmile_qr_scan", "ios": "https://dc.lft.to/lastmile_qr_scan"}, "is_reserved": 0, "name": "cfbd68448e0b42a98e9a879ea5ffa02e", "lon": -77.027241, "type": "electric_scooter", "bike_id": "cfbd68448e0b42a98e9a879ea5ffa02e", "fusion_lon": 0.0, "lat": 38.90859666666667, "fusion_lat": 0.0}, {"is_disabled": 0, "rental_uris": {"android": "https://dc.lft.to/lastmile_qr_scan", "ios": "https://dc.lft.to/lastmile_qr_scan"}, "is_reserved": 0, "name": "1d7b0bf0883dda044fb4d69ef9ab0333", "lon": -77.0367345, "type": "electric_scooter", "bike_id": "1d7b0bf0883dda044fb4d69ef9ab0333", "fusion_lon": 0.0, "lat": 38.918200166666665, "fusion_lat": 0.0}, {"is_disabled": 0, "rental_uris": {"android": "https://dc.lft.to/lastmile_qr_scan", "ios": "https://dc.lft.to/lastmile_qr_scan"}, "is_reserved": 0, "name": "97242b66384fd82cc33afe8422361566", "lon": -77.01523916666666, "type": "electric_scooter", "bike_id": "97242b66384fd82cc33afe8422361566", "fusion_lon": 0.0, "lat": 38.910274, "fusion_lat": 0.0}, {"is_disabled": 0, "rental_uris": {"android": "https://dc.lft.to/lastmile_qr_scan", "ios": "https://dc.lft.to/lastmile_qr_scan"}, "is_reserved": 0, "name": "0386522b2f044e47fdb2dcb76e3dc8bc", "lon": -77.03114033333334, "type": "electric_scooter", "bike_id": "0386522b2f044e47fdb2dcb76e3dc8bc", "fusion_lon": 0.0, "lat": 38.9202085, "fusion_lat": 0.0}, {"is_disabled": 0, "rental_uris": {"android": "https://dc.lft.to/lastmile_qr_scan", "ios": "https://dc.lft.to/lastmile_qr_scan"}, "is_reserved": 0, "name": "4ce6a44da770446aa093cc32a0ebe657", "lon": -77.0417635, "type": "electric_scooter", "bike_id": "4ce6a44da770446aa093cc32a0ebe657", "fusion_lon": 0.0, "lat": 38.920137833333335, "fusion_lat": 0.0}, {"is_disabled": 0, "rental_uris": {"android": "https://dc.lft.to/lastmile_qr_scan", "ios": "https://dc.lft.to/lastmile_qr_scan"}, "is_reserved": 0, "name": "5f33eaf55f2534b68dbb7576414870e7", "lon": -77.04135566666666, "type": "electric_bike", "bike_id": "5f33eaf55f2534b68dbb7576414870e7", "fusion_lon": 0.0, "lat": 38.944007666666664, "fusion_lat": 0.0}, {"is_disabled": 0, "rental_uris": {"android": "https://dc.lft.to/lastmile_qr_scan", "ios": "https://dc.lft.to/lastmile_qr_scan"}, "is_reserved": 0, "name": "409b2e573cf0eb0f78d2ed3f41b90b31", "lon": -77.03849466666667, "type": "electric_scooter", "bike_id": "409b2e573cf0eb0f78d2ed3f41b90b31", "fusion_lon": 0.0, "lat": 38.91478216666667, "fusion_lat": 0.0}, {"is_disabled": 0, "rental_uris": {"android": "https://dc.lft.to/lastmile_qr_scan", "ios": "https://dc.lft.to/lastmile_qr_scan"}, "is_reserved": 0, "name": "ad27e0c6e9a94de3b69b2f3cbf4ab502", "lon": -77.04579583333333, "type": "electric_scooter", "bike_id": "ad27e0c6e9a94de3b69b2f3cbf4ab502", "fusion_lon": 0.0, "lat": 38.9243175, "fusion_lat": 0.0}, {"is_disabled": 0, "rental_uris": {"android": "https://dc.lft.to/lastmile_qr_scan", "ios": "https://dc.lft.to/lastmile_qr_scan"}, "is_reserved": 0, "name": "aac91dd9b6ee28e7c3627b55703395b8", "lon": -77.023876, "type": "electric_scooter", "bike_id": "aac91dd9b6ee28e7c3627b55703395b8", "fusion_lon": 0.0, "lat": 38.92800033333333, "fusion_lat": 0.0}, {"is_disabled": 0, "rental_uris": {"android": "https://dc.lft.to/lastmile_qr_scan", "ios": "https://dc.lft.to/lastmile_qr_scan"}, "is_reserved": 0, "name": "102a2fbc0ca865fa3f5b03ca343b8f7a", "lon": -77.02704983333334, "type": "electric_scooter", "bike_id": "102a2fbc0ca865fa3f5b03ca343b8f7a", "fusion_lon": 0.0, "lat": 38.89719983333333, "fusion_lat": 0.0}, {"is_disabled": 0, "rental_uris": {"android": "https://dc.lft.to/lastmile_qr_scan", "ios": "https://dc.lft.to/lastmile_qr_scan"}, "is_reserved": 0, "name": "de20b42c7ad0b370c756dd8189629f2b", "lon": -77.009161, "type": "electric_scooter", "bike_id": "de20b42c7ad0b370c756dd8189629f2b", "fusion_lon": 0.0, "lat": 38.896504666666665, "fusion_lat": 0.0}, {"is_disabled": 0, "rental_uris": {"android": "https://dc.lft.to/lastmile_qr_scan", "ios": "https://dc.lft.to/lastmile_qr_scan"}, "is_reserved": 0, "name": "287161fd5eacac42e3deff6a649fd7ec", "lon": -77.036998, "type": "electric_scooter", "bike_id": "287161fd5eacac42e3deff6a649fd7ec", "fusion_lon": 0.0, "lat": 38.92650916666667, "fusion_lat": 0.0}, {"is_disabled": 0, "rental_uris": {"android": "https://dc.lft.to/lastmile_qr_scan", "ios": "https://dc.lft.to/lastmile_qr_scan"}, "is_reserved": 0, "name": "d2510b9b51d635d18fb3e96ed4ad1484", "lon": -77.02001616666666, "type": "electric_scooter", "bike_id": "d2510b9b51d635d18fb3e96ed4ad1484", "fusion_lon": 0.0, "lat": 38.966323333333335, "fusion_lat": 0.0}, {"is_disabled": 0, "rental_uris": {"android": "https://dc.lft.to/lastmile_qr_scan", "ios": "https://dc.lft.to/lastmile_qr_scan"}, "is_reserved": 0, "name": "82958907c577ae3e6cf777a6418c134b", "lon": -77.03924666666667, "type": "electric_scooter", "bike_id": "82958907c577ae3e6cf777a6418c134b", "fusion_lon": 0.0, "lat": 38.919143, "fusion_lat": 0.0}, {"is_disabled": 0, "rental_uris": {"android": "https://dc.lft.to/lastmile_qr_scan", "ios": "https://dc.lft.to/lastmile_qr_scan"}, "is_reserved": 0, "name": "5b1a4cb5f9efedd55a49ee544ac44807", "lon": -77.12406666666666, "type": "electric_bike", "bike_id": "5b1a4cb5f9efedd55a49ee544ac44807", "fusion_lon": 0.0, "lat": 38.89335766666667, "fusion_lat": 0.0}, {"is_disabled": 0, "rental_uris": {"android": "https://dc.lft.to/lastmile_qr_scan", "ios": "https://dc.lft.to/lastmile_qr_scan"}, "is_reserved": 0, "name": "94447e74f3740cc447632422cd3ab8d4", "lon": -77.0295365, "type": "electric_scooter", "bike_id": "94447e74f3740cc447632422cd3ab8d4", "fusion_lon": 0.0, "lat": 38.896282666666664, "fusion_lat": 0.0}, {"is_disabled": 0, "rental_uris": {"android": "https://dc.lft.to/lastmile_qr_scan", "ios": "https://dc.lft.to/lastmile_qr_scan"}, "is_reserved": 0, "name": "8466fbd03801ff408cfa7e7e8d6ba58a", "lon": -77.04155833333333, "type": "electric_scooter", "bike_id": "8466fbd03801ff408cfa7e7e8d6ba58a", "fusion_lon": 0.0, "lat": 38.914233, "fusion_lat": 0.0}, {"is_disabled": 0, "rental_uris": {"android": "https://dc.lft.to/lastmile_qr_scan", "ios": "https://dc.lft.to/lastmile_qr_scan"}, "is_reserved": 0, "name": "f3494eb6de826711cc5a9b7d92db927e", "lon": -77.02226566666667, "type": "electric_scooter", "bike_id": "f3494eb6de826711cc5a9b7d92db927e", "fusion_lon": 0.0, "lat": 38.9355515, "fusion_lat": 0.0}, {"is_disabled": 0, "rental_uris": {"android": "https://dc.lft.to/lastmile_qr_scan", "ios": "https://dc.lft.to/lastmile_qr_scan"}, "is_reserved": 0, "name": "d9d97d7b684bbe23525f3c0773da4a4d", "lon": -77.03337083333334, "type": "electric_scooter", "bike_id": "d9d97d7b684bbe23525f3c0773da4a4d", "fusion_lon": 0.0, "lat": 38.91813066666667, "fusion_lat": 0.0}, {"is_disabled": 0, "rental_uris": {"android": "https://dc.lft.to/lastmile_qr_scan", "ios": "https://dc.lft.to/lastmile_qr_scan"}, "is_reserved": 0, "name": "e0a1c3d0b50e12fb207402ac0554df4e", "lon": -76.93049533333334, "type": "electric_scooter", "bike_id": "e0a1c3d0b50e12fb207402ac0554df4e", "fusion_lon": 0.0, "lat": 38.89796583333333, "fusion_lat": 0.0}, {"is_disabled": 0, "rental_uris": {"android": "https://dc.lft.to/lastmile_qr_scan", "ios": "https://dc.lft.to/lastmile_qr_scan"}, "is_reserved": 0, "name": "7a900213fed6025ee88587f9314dd9f3", "lon": -77.04037783333334, "type": "electric_scooter", "bike_id": "7a900213fed6025ee88587f9314dd9f3", "fusion_lon": 0.0, "lat": 38.90033583333334, "fusion_lat": 0.0}, {"is_disabled": 0, "rental_uris": {"android": "https://dc.lft.to/lastmile_qr_scan", "ios": "https://dc.lft.to/lastmile_qr_scan"}, "is_reserved": 0, "name": "53e53c8bbef960945e822ea2e52539b3", "lon": -77.0317905, "type": "electric_scooter", "bike_id": "53e53c8bbef960945e822ea2e52539b3", "fusion_lon": 0.0, "lat": 38.91419966666667, "fusion_lat": 0.0}, {"is_disabled": 0, "rental_uris": {"android": "https://dc.lft.to/lastmile_qr_scan", "ios": "https://dc.lft.to/lastmile_qr_scan"}, "is_reserved": 0, "name": "a9af34f6d365157cfdda5f013a5270db", "lon": -77.03209733333334, "type": "electric_scooter", "bike_id": "a9af34f6d365157cfdda5f013a5270db", "fusion_lon": 0.0, "lat": 38.91842783333333, "fusion_lat": 0.0}, {"is_disabled": 0, "rental_uris": {"android": "https://dc.lft.to/lastmile_qr_scan", "ios": "https://dc.lft.to/lastmile_qr_scan"}, "is_reserved": 0, "name": "386d405a15625a9f7e3edb0a12d2d2f3", "lon": -77.04326433333334, "type": "electric_scooter", "bike_id": "386d405a15625a9f7e3edb0a12d2d2f3", "fusion_lon": 0.0, "lat": 38.91114433333333, "fusion_lat": 0.0}, {"is_disabled": 0, "rental_uris": {"android": "https://dc.lft.to/lastmile_qr_scan", "ios": "https://dc.lft.to/lastmile_qr_scan"}, "is_reserved": 0, "name": "ebb6ed02c1d4ebf1e4fdc463766d63e5", "lon": -76.99632, "type": "electric_scooter", "bike_id": "ebb6ed02c1d4ebf1e4fdc463766d63e5", "fusion_lon": 0.0, "lat": 38.846229666666666, "fusion_lat": 0.0}, {"is_disabled": 0, "rental_uris": {"android": "https://dc.lft.to/lastmile_qr_scan", "ios": "https://dc.lft.to/lastmile_qr_scan"}, "is_reserved": 0, "name": "392fccbd9b905ebe39fed3732314844a", "lon": -77.0366105, "type": "electric_scooter", "bike_id": "392fccbd9b905ebe39fed3732314844a", "fusion_lon": 0.0, "lat": 38.90319083333333, "fusion_lat": 0.0}, {"is_disabled": 0, "rental_uris": {"android": "https://dc.lft.to/lastmile_qr_scan", "ios": "https://dc.lft.to/lastmile_qr_scan"}, "is_reserved": 0, "name": "a1ff065565ad53388401f572db4cefe4", "lon": -77.033606, "type": "electric_scooter", "bike_id": "a1ff065565ad53388401f572db4cefe4", "fusion_lon": 0.0, "lat": 38.8984585, "fusion_lat": 0.0}, {"is_disabled": 0, "rental_uris": {"android": "https://dc.lft.to/lastmile_qr_scan", "ios": "https://dc.lft.to/lastmile_qr_scan"}, "is_reserved": 0, "name": "ab51be672f27fdebad30c3e2e10784a5", "lon": -77.017665, "type": "electric_scooter", "bike_id": "ab51be672f27fdebad30c3e2e10784a5", "fusion_lon": 0.0, "lat": 38.92121733333333, "fusion_lat": 0.0}, {"is_disabled": 0, "rental_uris": {"android": "https://dc.lft.to/lastmile_qr_scan", "ios": "https://dc.lft.to/lastmile_qr_scan"}, "is_reserved": 0, "name": "720c5760b06a31664a9abce01e5a4717", "lon": -77.009482, "type": "electric_scooter", "bike_id": "720c5760b06a31664a9abce01e5a4717", "fusion_lon": 0.0, "lat": 38.895000833333334, "fusion_lat": 0.0}, {"is_disabled": 0, "rental_uris": {"android": "https://dc.lft.to/lastmile_qr_scan", "ios": "https://dc.lft.to/lastmile_qr_scan"}, "is_reserved": 0, "name": "affd0bb41b39b2d49f01888f5b17f38b", "lon": -76.9482455, "type": "electric_scooter", "bike_id": "affd0bb41b39b2d49f01888f5b17f38b", "fusion_lon": 0.0, "lat": 38.8852125, "fusion_lat": 0.0}, {"is_disabled": 0, "rental_uris": {"android": "https://dc.lft.to/lastmile_qr_scan", "ios": "https://dc.lft.to/lastmile_qr_scan"}, "is_reserved": 0, "name": "9d70418b5c880197c03eb8fdf0680630", "lon": -77.002248, "type": "electric_scooter", "bike_id": "9d70418b5c880197c03eb8fdf0680630", "fusion_lon": 0.0, "lat": 38.913410666666664, "fusion_lat": 0.0}, {"is_disabled": 0, "rental_uris": {"android": "https://dc.lft.to/lastmile_qr_scan", "ios": "https://dc.lft.to/lastmile_qr_scan"}, "is_reserved": 0, "name": "fbcf48a71455aa6a181370ae990cee2f", "lon": -76.99742033333334, "type": "electric_scooter", "bike_id": "fbcf48a71455aa6a181370ae990cee2f", "fusion_lon": 0.0, "lat": 38.89935883333333, "fusion_lat": 0.0}, {"is_disabled": 0, "rental_uris": {"android": "https://dc.lft.to/lastmile_qr_scan", "ios": "https://dc.lft.to/lastmile_qr_scan"}, "is_reserved": 0, "name": "2bd7ae42c490bc6dd114ee9326ce69c8", "lon": -77.03479166666666, "type": "electric_scooter", "bike_id": "2bd7ae42c490bc6dd114ee9326ce69c8", "fusion_lon": 0.0, "lat": 38.90245, "fusion_lat": 0.0}, {"is_disabled": 0, "rental_uris": {"android": "https://dc.lft.to/lastmile_qr_scan", "ios": "https://dc.lft.to/lastmile_qr_scan"}, "is_reserved": 0, "name": "8438457bb95900bdfd86bfbc84eaaed2", "lon": -76.9750535, "type": "electric_bike", "bike_id": "8438457bb95900bdfd86bfbc84eaaed2", "fusion_lon": 0.0, "lat": 38.9193905, "fusion_lat": 0.0}, {"is_disabled": 0, "rental_uris": {"android": "https://dc.lft.to/lastmile_qr_scan", "ios": "https://dc.lft.to/lastmile_qr_scan"}, "is_reserved": 0, "name": "8740b6d251c11404dfabfc967760d9cc", "lon": -77.03854983333333, "type": "electric_scooter", "bike_id": "8740b6d251c11404dfabfc967760d9cc", "fusion_lon": 0.0, "lat": 38.926481333333335, "fusion_lat": 0.0}, {"is_disabled": 0, "rental_uris": {"android": "https://dc.lft.to/lastmile_qr_scan", "ios": "https://dc.lft.to/lastmile_qr_scan"}, "is_reserved": 0, "name": "53ade57c4673b5681113a3aeeee6cd16", "lon": -77.02337283333334, "type": "electric_scooter", "bike_id": "53ade57c4673b5681113a3aeeee6cd16", "fusion_lon": 0.0, "lat": 38.922338, "fusion_lat": 0.0}, {"is_disabled": 0, "rental_uris": {"android": "https://dc.lft.to/lastmile_qr_scan", "ios": "https://dc.lft.to/lastmile_qr_scan"}, "is_reserved": 0, "name": "143f78484af9aca4870ded2afe040677", "lon": -76.99034566666667, "type": "electric_scooter", "bike_id": "143f78484af9aca4870ded2afe040677", "fusion_lon": 0.0, "lat": 38.89880133333333, "fusion_lat": 0.0}, {"is_disabled": 0, "rental_uris": {"android": "https://dc.lft.to/lastmile_qr_scan", "ios": "https://dc.lft.to/lastmile_qr_scan"}, "is_reserved": 0, "name": "266a4c7e6f121a9917e7f64ff9696b2e", "lon": -77.00338533333333, "type": "electric_scooter", "bike_id": "266a4c7e6f121a9917e7f64ff9696b2e", "fusion_lon": 0.0, "lat": 38.8898925, "fusion_lat": 0.0}, {"is_disabled": 0, "rental_uris": {"android": "https://dc.lft.to/lastmile_qr_scan", "ios": "https://dc.lft.to/lastmile_qr_scan"}, "is_reserved": 0, "name": "368bd593e6b42c12d54b16f78acf56ae", "lon": -77.03208066666667, "type": "electric_scooter", "bike_id": "368bd593e6b42c12d54b16f78acf56ae", "fusion_lon": 0.0, "lat": 38.916943333333336, "fusion_lat": 0.0}, {"is_disabled": 0, "rental_uris": {"android": "https://dc.lft.to/lastmile_qr_scan", "ios": "https://dc.lft.to/lastmile_qr_scan"}, "is_reserved": 0, "name": "4e3f7f2e06b01b914d3d3561e923c3b1", "lon": -77.053343, "type": "electric_scooter", "bike_id": "4e3f7f2e06b01b914d3d3561e923c3b1", "fusion_lon": 0.0, "lat": 38.9051, "fusion_lat": 0.0}, {"is_disabled": 0, "rental_uris": {"android": "https://dc.lft.to/lastmile_qr_scan", "ios": "https://dc.lft.to/lastmile_qr_scan"}, "is_reserved": 0, "name": "50e825d92569c4eb25115c389abd8615", "lon": -77.04282583333334, "type": "electric_scooter", "bike_id": "50e825d92569c4eb25115c389abd8615", "fusion_lon": 0.0, "lat": 38.916998666666665, "fusion_lat": 0.0}, {"is_disabled": 0, "rental_uris": {"android": "https://dc.lft.to/lastmile_qr_scan", "ios": "https://dc.lft.to/lastmile_qr_scan"}, "is_reserved": 0, "name": "2c1e6436540b4cc161467e6d0f9430a9", "lon": -77.08437233333333, "type": "electric_bike", "bike_id": "2c1e6436540b4cc161467e6d0f9430a9", "fusion_lon": 0.0, "lat": 38.8102675, "fusion_lat": 0.0}, {"is_disabled": 0, "rental_uris": {"android": "https://dc.lft.to/lastmile_qr_scan", "ios": "https://dc.lft.to/lastmile_qr_scan"}, "is_reserved": 0, "name": "1724a8252ec7681223e60f54f0da7fef", "lon": -77.02762016666667, "type": "electric_scooter", "bike_id": "1724a8252ec7681223e60f54f0da7fef", "fusion_lon": 0.0, "lat": 38.94305216666667, "fusion_lat": 0.0}, {"is_disabled": 0, "rental_uris": {"android": "https://dc.lft.to/lastmile_qr_scan", "ios": "https://dc.lft.to/lastmile_qr_scan"}, "is_reserved": 0, "name": "286883bdb87787a583bdec6f67fea745", "lon": -76.97910383333334, "type": "electric_scooter", "bike_id": "286883bdb87787a583bdec6f67fea745", "fusion_lon": 0.0, "lat": 38.90430883333333, "fusion_lat": 0.0}, {"is_disabled": 0, "rental_uris": {"android": "https://dc.lft.to/lastmile_qr_scan", "ios": "https://dc.lft.to/lastmile_qr_scan"}, "is_reserved": 0, "name": "07af1ad2c669f091cbdcd1bbab9601bf", "lon": -77.02390816666667, "type": "electric_scooter", "bike_id": "07af1ad2c669f091cbdcd1bbab9601bf", "fusion_lon": 0.0, "lat": 38.907112166666664, "fusion_lat": 0.0}, {"is_disabled": 0, "rental_uris": {"android": "https://dc.lft.to/lastmile_qr_scan", "ios": "https://dc.lft.to/lastmile_qr_scan"}, "is_reserved": 0, "name": "796a18c44918668fcc292b7f2dd70ce7", "lon": -77.05093083333334, "type": "electric_scooter", "bike_id": "796a18c44918668fcc292b7f2dd70ce7", "fusion_lon": 0.0, "lat": 38.923433833333334, "fusion_lat": 0.0}, {"is_disabled": 0, "rental_uris": {"android": "https://dc.lft.to/lastmile_qr_scan", "ios": "https://dc.lft.to/lastmile_qr_scan"}, "is_reserved": 0, "name": "72bfb42887f22183fab3eb84d484ee5c", "lon": -77.042369, "type": "electric_scooter", "bike_id": "72bfb42887f22183fab3eb84d484ee5c", "fusion_lon": 0.0, "lat": 38.922723500000004, "fusion_lat": 0.0}, {"is_disabled": 0, "rental_uris": {"android": "https://dc.lft.to/lastmile_qr_scan", "ios": "https://dc.lft.to/lastmile_qr_scan"}, "is_reserved": 0, "name": "7a7b76b961894a3c59744dc40fb8cb29", "lon": -77.04181733333333, "type": "electric_scooter", "bike_id": "7a7b76b961894a3c59744dc40fb8cb29", "fusion_lon": 0.0, "lat": 38.9053775, "fusion_lat": 0.0}, {"is_disabled": 0, "rental_uris": {"android": "https://dc.lft.to/lastmile_qr_scan", "ios": "https://dc.lft.to/lastmile_qr_scan"}, "is_reserved": 0, "name": "cf2f5329a64559521f97e82416405972", "lon": -77.04427016666666, "type": "electric_scooter", "bike_id": "cf2f5329a64559521f97e82416405972", "fusion_lon": 0.0, "lat": 38.90949583333333, "fusion_lat": 0.0}, {"is_disabled": 0, "rental_uris": {"android": "https://dc.lft.to/lastmile_qr_scan", "ios": "https://dc.lft.to/lastmile_qr_scan"}, "is_reserved": 0, "name": "668485f36e4808d405584d00e97e9f12", "lon": -77.0334115, "type": "electric_scooter", "bike_id": "668485f36e4808d405584d00e97e9f12", "fusion_lon": 0.0, "lat": 38.892241166666665, "fusion_lat": 0.0}, {"is_disabled": 0, "rental_uris": {"android": "https://dc.lft.to/lastmile_qr_scan", "ios": "https://dc.lft.to/lastmile_qr_scan"}, "is_reserved": 0, "name": "f39d1acf80bf084805b2e03e5be61633", "lon": -77.03611233333334, "type": "electric_scooter", "bike_id": "f39d1acf80bf084805b2e03e5be61633", "fusion_lon": 0.0, "lat": 38.931491333333334, "fusion_lat": 0.0}, {"is_disabled": 0, "rental_uris": {"android": "https://dc.lft.to/lastmile_qr_scan", "ios": "https://dc.lft.to/lastmile_qr_scan"}, "is_reserved": 0, "name": "c7283259819102f02c95fb8218506cc0", "lon": -77.02280216666666, "type": "electric_scooter", "bike_id": "c7283259819102f02c95fb8218506cc0", "fusion_lon": 0.0, "lat": 38.92692183333333, "fusion_lat": 0.0}, {"is_disabled": 0, "rental_uris": {"android": "https://dc.lft.to/lastmile_qr_scan", "ios": "https://dc.lft.to/lastmile_qr_scan"}, "is_reserved": 0, "name": "693d44c1d0c5ee187d8cec948d92cf4b", "lon": -77.03252, "type": "electric_scooter", "bike_id": "693d44c1d0c5ee187d8cec948d92cf4b", "fusion_lon": 0.0, "lat": 38.90245566666667, "fusion_lat": 0.0}, {"is_disabled": 0, "rental_uris": {"android": "https://dc.lft.to/lastmile_qr_scan", "ios": "https://dc.lft.to/lastmile_qr_scan"}, "is_reserved": 0, "name": "edbc2ddf22bc48fc0d0037581a18c244", "lon": -76.97331066666666, "type": "electric_bike", "bike_id": "edbc2ddf22bc48fc0d0037581a18c244", "fusion_lon": 0.0, "lat": 38.85070566666667, "fusion_lat": 0.0}, {"is_disabled": 0, "rental_uris": {"android": "https://dc.lft.to/lastmile_qr_scan", "ios": "https://dc.lft.to/lastmile_qr_scan"}, "is_reserved": 0, "name": "f5f5b492a3d11046b8c5922832f8fc63", "lon": -77.0320885, "type": "electric_scooter", "bike_id": "f5f5b492a3d11046b8c5922832f8fc63", "fusion_lon": 0.0, "lat": 38.91129466666667, "fusion_lat": 0.0}, {"is_disabled": 0, "rental_uris": {"android": "https://dc.lft.to/lastmile_qr_scan", "ios": "https://dc.lft.to/lastmile_qr_scan"}, "is_reserved": 0, "name": "f69d4900e47c094418c05a21d9c04b76", "lon": -77.04501833333333, "type": "electric_scooter", "bike_id": "f69d4900e47c094418c05a21d9c04b76", "fusion_lon": 0.0, "lat": 38.91374416666667, "fusion_lat": 0.0}, {"is_disabled": 0, "rental_uris": {"android": "https://dc.lft.to/lastmile_qr_scan", "ios": "https://dc.lft.to/lastmile_qr_scan"}, "is_reserved": 0, "name": "1dceb5aa6ac3b10171c3c3acafab6e80", "lon": -77.04019716666667, "type": "electric_scooter", "bike_id": "1dceb5aa6ac3b10171c3c3acafab6e80", "fusion_lon": 0.0, "lat": 38.92205333333333, "fusion_lat": 0.0}, {"is_disabled": 0, "rental_uris": {"android": "https://dc.lft.to/lastmile_qr_scan", "ios": "https://dc.lft.to/lastmile_qr_scan"}, "is_reserved": 0, "name": "02665dad265eaf0e9d1971714aabda1a", "lon": -77.01386366666667, "type": "electric_scooter", "bike_id": "02665dad265eaf0e9d1971714aabda1a", "fusion_lon": 0.0, "lat": 38.928643, "fusion_lat": 0.0}, {"is_disabled": 0, "rental_uris": {"android": "https://dc.lft.to/lastmile_qr_scan", "ios": "https://dc.lft.to/lastmile_qr_scan"}, "is_reserved": 0, "name": "64485dc6773bb0f73e0b80f1225b3729", "lon": -77.02484383333334, "type": "electric_scooter", "bike_id": "64485dc6773bb0f73e0b80f1225b3729", "fusion_lon": 0.0, "lat": 38.91614966666667, "fusion_lat": 0.0}, {"is_disabled": 0, "rental_uris": {"android": "https://dc.lft.to/lastmile_qr_scan", "ios": "https://dc.lft.to/lastmile_qr_scan"}, "is_reserved": 0, "name": "f7093355fecb02d89dd644143bc4a00c", "lon": -77.00086233333333, "type": "electric_scooter", "bike_id": "f7093355fecb02d89dd644143bc4a00c", "fusion_lon": 0.0, "lat": 38.92553733333333, "fusion_lat": 0.0}, {"is_disabled": 0, "rental_uris": {"android": "https://dc.lft.to/lastmile_qr_scan", "ios": "https://dc.lft.to/lastmile_qr_scan"}, "is_reserved": 0, "name": "146753a7c51e4d1b28d32adfe4db223c", "lon": -76.93754183333333, "type": "electric_scooter", "bike_id": "146753a7c51e4d1b28d32adfe4db223c", "fusion_lon": 0.0, "lat": 38.890396, "fusion_lat": 0.0}, {"is_disabled": 0, "rental_uris": {"android": "https://dc.lft.to/lastmile_qr_scan", "ios": "https://dc.lft.to/lastmile_qr_scan"}, "is_reserved": 0, "name": "4b5ba029a41307b6d7a831aebfe3e071", "lon": -77.03950466666667, "type": "electric_scooter", "bike_id": "4b5ba029a41307b6d7a831aebfe3e071", "fusion_lon": 0.0, "lat": 38.90075616666667, "fusion_lat": 0.0}, {"is_disabled": 0, "rental_uris": {"android": "https://dc.lft.to/lastmile_qr_scan", "ios": "https://dc.lft.to/lastmile_qr_scan"}, "is_reserved": 0, "name": "28d0cbb5d7d618d5a885ef5f270769f5", "lon": -77.07319683333333, "type": "electric_scooter", "bike_id": "28d0cbb5d7d618d5a885ef5f270769f5", "fusion_lon": 0.0, "lat": 38.92278566666667, "fusion_lat": 0.0}, {"is_disabled": 0, "rental_uris": {"android": "https://dc.lft.to/lastmile_qr_scan", "ios": "https://dc.lft.to/lastmile_qr_scan"}, "is_reserved": 0, "name": "94d6ecb578a8d9c0799946967f0fb18a", "lon": -77.01763083333333, "type": "electric_scooter", "bike_id": "94d6ecb578a8d9c0799946967f0fb18a", "fusion_lon": 0.0, "lat": 38.921174666666666, "fusion_lat": 0.0}, {"is_disabled": 0, "rental_uris": {"android": "https://dc.lft.to/lastmile_qr_scan", "ios": "https://dc.lft.to/lastmile_qr_scan"}, "is_reserved": 0, "name": "579d5331f6ec07284c5d47c9088098eb", "lon": -77.02805766666667, "type": "electric_scooter", "bike_id": "579d5331f6ec07284c5d47c9088098eb", "fusion_lon": 0.0, "lat": 38.89721316666667, "fusion_lat": 0.0}, {"is_disabled": 0, "rental_uris": {"android": "https://dc.lft.to/lastmile_qr_scan", "ios": "https://dc.lft.to/lastmile_qr_scan"}, "is_reserved": 0, "name": "714d6810f139cd876c419dc7f39c5bd5", "lon": -77.0420415, "type": "electric_scooter", "bike_id": "714d6810f139cd876c419dc7f39c5bd5", "fusion_lon": 0.0, "lat": 38.90918966666667, "fusion_lat": 0.0}, {"is_disabled": 0, "rental_uris": {"android": "https://dc.lft.to/lastmile_qr_scan", "ios": "https://dc.lft.to/lastmile_qr_scan"}, "is_reserved": 0, "name": "bc2f591d385dec78644df73b46d66614", "lon": -77.04594883333333, "type": "electric_scooter", "bike_id": "bc2f591d385dec78644df73b46d66614", "fusion_lon": 0.0, "lat": 38.89615033333333, "fusion_lat": 0.0}, {"is_disabled": 0, "rental_uris": {"android": "https://dc.lft.to/lastmile_qr_scan", "ios": "https://dc.lft.to/lastmile_qr_scan"}, "is_reserved": 0, "name": "08e45c283ef504d72d064ccbd34d8559", "lon": -77.04341516666666, "type": "electric_scooter", "bike_id": "08e45c283ef504d72d064ccbd34d8559", "fusion_lon": 0.0, "lat": 38.903541833333335, "fusion_lat": 0.0}, {"is_disabled": 0, "rental_uris": {"android": "https://dc.lft.to/lastmile_qr_scan", "ios": "https://dc.lft.to/lastmile_qr_scan"}, "is_reserved": 0, "name": "dfbc0a89d97809fc8335ac747203b9ba", "lon": -77.01996333333334, "type": "electric_scooter", "bike_id": "dfbc0a89d97809fc8335ac747203b9ba", "fusion_lon": 0.0, "lat": 38.89566466666667, "fusion_lat": 0.0}, {"is_disabled": 0, "rental_uris": {"android": "https://dc.lft.to/lastmile_qr_scan", "ios": "https://dc.lft.to/lastmile_qr_scan"}, "is_reserved": 0, "name": "9ba4fa730ec55f18c5479786f218176d", "lon": -76.87495633333333, "type": "electric_bike", "bike_id": "9ba4fa730ec55f18c5479786f218176d", "fusion_lon": 0.0, "lat": 38.99092866666667, "fusion_lat": 0.0}, {"is_disabled": 0, "rental_uris": {"android": "https://dc.lft.to/lastmile_qr_scan", "ios": "https://dc.lft.to/lastmile_qr_scan"}, "is_reserved": 0, "name": "adff141ba24fabf8343fb3b539550cdb", "lon": -77.031911, "type": "electric_scooter", "bike_id": "adff141ba24fabf8343fb3b539550cdb", "fusion_lon": 0.0, "lat": 38.89230583333333, "fusion_lat": 0.0}, {"is_disabled": 0, "rental_uris": {"android": "https://dc.lft.to/lastmile_qr_scan", "ios": "https://dc.lft.to/lastmile_qr_scan"}, "is_reserved": 0, "name": "9143016894b317446a861e7af3158c4d", "lon": -77.11222933333333, "type": "electric_bike", "bike_id": "9143016894b317446a861e7af3158c4d", "fusion_lon": 0.0, "lat": 38.8287685, "fusion_lat": 0.0}, {"is_disabled": 0, "rental_uris": {"android": "https://dc.lft.to/lastmile_qr_scan", "ios": "https://dc.lft.to/lastmile_qr_scan"}, "is_reserved": 0, "name": "129f0d5293503ee99f4ee1b5bcf6f1b3", "lon": -77.02848583333333, "type": "electric_scooter", "bike_id": "129f0d5293503ee99f4ee1b5bcf6f1b3", "fusion_lon": 0.0, "lat": 38.901526, "fusion_lat": 0.0}, {"is_disabled": 0, "rental_uris": {"android": "https://dc.lft.to/lastmile_qr_scan", "ios": "https://dc.lft.to/lastmile_qr_scan"}, "is_reserved": 0, "name": "cc7dd502453cdb6cd8be7e3dab85ba0a", "lon": -76.94883966666667, "type": "electric_scooter", "bike_id": "cc7dd502453cdb6cd8be7e3dab85ba0a", "fusion_lon": 0.0, "lat": 38.895847, "fusion_lat": 0.0}, {"is_disabled": 0, "rental_uris": {"android": "https://dc.lft.to/lastmile_qr_scan", "ios": "https://dc.lft.to/lastmile_qr_scan"}, "is_reserved": 0, "name": "34ff7c0d4e8ab93adc0900b7cdbcd958", "lon": -76.99521383333334, "type": "electric_scooter", "bike_id": "34ff7c0d4e8ab93adc0900b7cdbcd958", "fusion_lon": 0.0, "lat": 38.894858666666664, "fusion_lat": 0.0}, {"is_disabled": 0, "rental_uris": {"android": "https://dc.lft.to/lastmile_qr_scan", "ios": "https://dc.lft.to/lastmile_qr_scan"}, "is_reserved": 0, "name": "580746aee10ef35650e9dceaa09ac92d", "lon": -77.0385685, "type": "electric_scooter", "bike_id": "580746aee10ef35650e9dceaa09ac92d", "fusion_lon": 0.0, "lat": 38.91839383333333, "fusion_lat": 0.0}, {"is_disabled": 0, "rental_uris": {"android": "https://dc.lft.to/lastmile_qr_scan", "ios": "https://dc.lft.to/lastmile_qr_scan"}, "is_reserved": 0, "name": "f781772766020e314030a8b02492e4c0", "lon": -77.05205183333334, "type": "electric_scooter", "bike_id": "f781772766020e314030a8b02492e4c0", "fusion_lon": 0.0, "lat": 38.92444033333334, "fusion_lat": 0.0}, {"is_disabled": 0, "rental_uris": {"android": "https://dc.lft.to/lastmile_qr_scan", "ios": "https://dc.lft.to/lastmile_qr_scan"}, "is_reserved": 0, "name": "681b5396adfababbfc5a40f510081056", "lon": -77.0004975, "type": "electric_scooter", "bike_id": "681b5396adfababbfc5a40f510081056", "fusion_lon": 0.0, "lat": 38.91906016666667, "fusion_lat": 0.0}, {"is_disabled": 0, "rental_uris": {"android": "https://dc.lft.to/lastmile_qr_scan", "ios": "https://dc.lft.to/lastmile_qr_scan"}, "is_reserved": 0, "name": "e7a4a0e6cda5f15c7b5beb06245b8885", "lon": -77.03210683333333, "type": "electric_scooter", "bike_id": "e7a4a0e6cda5f15c7b5beb06245b8885", "fusion_lon": 0.0, "lat": 38.91641416666667, "fusion_lat": 0.0}, {"is_disabled": 0, "rental_uris": {"android": "https://dc.lft.to/lastmile_qr_scan", "ios": "https://dc.lft.to/lastmile_qr_scan"}, "is_reserved": 0, "name": "67cae54b0483bb8400a1be2962daffb9", "lon": -77.033504, "type": "electric_scooter", "bike_id": "67cae54b0483bb8400a1be2962daffb9", "fusion_lon": 0.0, "lat": 38.8923385, "fusion_lat": 0.0}, {"is_disabled": 0, "rental_uris": {"android": "https://dc.lft.to/lastmile_qr_scan", "ios": "https://dc.lft.to/lastmile_qr_scan"}, "is_reserved": 0, "name": "b494e22df5201e101a07069949c1ea24", "lon": -77.04600283333333, "type": "electric_scooter", "bike_id": "b494e22df5201e101a07069949c1ea24", "fusion_lon": 0.0, "lat": 38.902838333333335, "fusion_lat": 0.0}, {"is_disabled": 0, "rental_uris": {"android": "https://dc.lft.to/lastmile_qr_scan", "ios": "https://dc.lft.to/lastmile_qr_scan"}, "is_reserved": 0, "name": "7de722ebf57cb2059216b09d67f8df59", "lon": -77.050604, "type": "electric_scooter", "bike_id": "7de722ebf57cb2059216b09d67f8df59", "fusion_lon": 0.0, "lat": 38.91639983333334, "fusion_lat": 0.0}, {"is_disabled": 0, "rental_uris": {"android": "https://dc.lft.to/lastmile_qr_scan", "ios": "https://dc.lft.to/lastmile_qr_scan"}, "is_reserved": 0, "name": "02b77132bd641321ce3401dff669af37", "lon": -76.98568333333333, "type": "electric_scooter", "bike_id": "02b77132bd641321ce3401dff669af37", "fusion_lon": 0.0, "lat": 38.9104065, "fusion_lat": 0.0}, {"is_disabled": 0, "rental_uris": {"android": "https://dc.lft.to/lastmile_qr_scan", "ios": "https://dc.lft.to/lastmile_qr_scan"}, "is_reserved": 0, "name": "3d53c906ec0105b5bca8499ff6ab74de", "lon": -77.03452183333333, "type": "electric_scooter", "bike_id": "3d53c906ec0105b5bca8499ff6ab74de", "fusion_lon": 0.0, "lat": 38.90440483333333, "fusion_lat": 0.0}, {"is_disabled": 0, "rental_uris": {"android": "https://dc.lft.to/lastmile_qr_scan", "ios": "https://dc.lft.to/lastmile_qr_scan"}, "is_reserved": 0, "name": "a5e359fbf5d5b36b0ff450d3d3f8abc0", "lon": -77.03182783333334, "type": "electric_scooter", "bike_id": "a5e359fbf5d5b36b0ff450d3d3f8abc0", "fusion_lon": 0.0, "lat": 38.9082925, "fusion_lat": 0.0}, {"is_disabled": 0, "rental_uris": {"android": "https://dc.lft.to/lastmile_qr_scan", "ios": "https://dc.lft.to/lastmile_qr_scan"}, "is_reserved": 0, "name": "384c4670c3b7631ccb86bdd8ac828177", "lon": -76.9375515, "type": "electric_scooter", "bike_id": "384c4670c3b7631ccb86bdd8ac828177", "fusion_lon": 0.0, "lat": 38.890387833333335, "fusion_lat": 0.0}, {"is_disabled": 0, "rental_uris": {"android": "https://dc.lft.to/lastmile_qr_scan", "ios": "https://dc.lft.to/lastmile_qr_scan"}, "is_reserved": 0, "name": "5ffdf236eab8586308188e27a759ebd7", "lon": -77.02468766666667, "type": "electric_scooter", "bike_id": "5ffdf236eab8586308188e27a759ebd7", "fusion_lon": 0.0, "lat": 38.93918333333333, "fusion_lat": 0.0}, {"is_disabled": 0, "rental_uris": {"android": "https://dc.lft.to/lastmile_qr_scan", "ios": "https://dc.lft.to/lastmile_qr_scan"}, "is_reserved": 0, "name": "33a74cced25b3d109f8550bdb40ee8ac", "lon": -77.04497233333333, "type": "electric_scooter", "bike_id": "33a74cced25b3d109f8550bdb40ee8ac", "fusion_lon": 0.0, "lat": 38.90660666666667, "fusion_lat": 0.0}, {"is_disabled": 0, "rental_uris": {"android": "https://dc.lft.to/lastmile_qr_scan", "ios": "https://dc.lft.to/lastmile_qr_scan"}, "is_reserved": 0, "name": "9dd57d1e526994055d836bf94e79b273", "lon": -77.35308616666667, "type": "electric_bike", "bike_id": "9dd57d1e526994055d836bf94e79b273", "fusion_lon": 0.0, "lat": 38.95006733333334, "fusion_lat": 0.0}, {"is_disabled": 0, "rental_uris": {"android": "https://dc.lft.to/lastmile_qr_scan", "ios": "https://dc.lft.to/lastmile_qr_scan"}, "is_reserved": 0, "name": "e99f02f0ba0865e4f9f0950c55bf7666", "lon": -77.04335133333333, "type": "electric_scooter", "bike_id": "e99f02f0ba0865e4f9f0950c55bf7666", "fusion_lon": 0.0, "lat": 38.911144666666665, "fusion_lat": 0.0}, {"is_disabled": 0, "rental_uris": {"android": "https://dc.lft.to/lastmile_qr_scan", "ios": "https://dc.lft.to/lastmile_qr_scan"}, "is_reserved": 0, "name": "914352b6ce7862dfce4bdb045543524c", "lon": -77.02669483333334, "type": "electric_bike", "bike_id": "914352b6ce7862dfce4bdb045543524c", "fusion_lon": 0.0, "lat": 38.9548765, "fusion_lat": 0.0}, {"is_disabled": 0, "rental_uris": {"android": "https://dc.lft.to/lastmile_qr_scan", "ios": "https://dc.lft.to/lastmile_qr_scan"}, "is_reserved": 0, "name": "fa710b00ae16cfb4ed980012ca1e8d4b", "lon": -77.02970733333333, "type": "electric_scooter", "bike_id": "fa710b00ae16cfb4ed980012ca1e8d4b", "fusion_lon": 0.0, "lat": 38.897744833333334, "fusion_lat": 0.0}, {"is_disabled": 0, "rental_uris": {"android": "https://dc.lft.to/lastmile_qr_scan", "ios": "https://dc.lft.to/lastmile_qr_scan"}, "is_reserved": 0, "name": "d19418b355577eb1787d86b7772d8ffc", "lon": -77.04936133333334, "type": "electric_scooter", "bike_id": "d19418b355577eb1787d86b7772d8ffc", "fusion_lon": 0.0, "lat": 38.908508166666664, "fusion_lat": 0.0}, {"is_disabled": 0, "rental_uris": {"android": "https://dc.lft.to/lastmile_qr_scan", "ios": "https://dc.lft.to/lastmile_qr_scan"}, "is_reserved": 0, "name": "128fc67ec33a6cdf1450c6e3fff30684", "lon": -77.0162485, "type": "electric_scooter", "bike_id": "128fc67ec33a6cdf1450c6e3fff30684", "fusion_lon": 0.0, "lat": 38.89861883333333, "fusion_lat": 0.0}, {"is_disabled": 0, "rental_uris": {"android": "https://dc.lft.to/lastmile_qr_scan", "ios": "https://dc.lft.to/lastmile_qr_scan"}, "is_reserved": 0, "name": "157dbee6244d146a130f64cdb02f8de5", "lon": -76.986837, "type": "electric_scooter", "bike_id": "157dbee6244d146a130f64cdb02f8de5", "fusion_lon": 0.0, "lat": 38.85818533333333, "fusion_lat": 0.0}, {"is_disabled": 0, "rental_uris": {"android": "https://dc.lft.to/lastmile_qr_scan", "ios": "https://dc.lft.to/lastmile_qr_scan"}, "is_reserved": 0, "name": "a8a707e5a1090e16ad5ec2982e8aa43c", "lon": -77.02378516666667, "type": "electric_scooter", "bike_id": "a8a707e5a1090e16ad5ec2982e8aa43c", "fusion_lon": 0.0, "lat": 38.896109333333335, "fusion_lat": 0.0}, {"is_disabled": 0, "rental_uris": {"android": "https://dc.lft.to/lastmile_qr_scan", "ios": "https://dc.lft.to/lastmile_qr_scan"}, "is_reserved": 0, "name": "708faf87218d12cf5b01f66d0244d7bc", "lon": -77.040304, "type": "electric_scooter", "bike_id": "708faf87218d12cf5b01f66d0244d7bc", "fusion_lon": 0.0, "lat": 38.9047385, "fusion_lat": 0.0}, {"is_disabled": 0, "rental_uris": {"android": "https://dc.lft.to/lastmile_qr_scan", "ios": "https://dc.lft.to/lastmile_qr_scan"}, "is_reserved": 0, "name": "0dd7038f0d1344adff7645667f098d68", "lon": -77.04497866666667, "type": "electric_scooter", "bike_id": "0dd7038f0d1344adff7645667f098d68", "fusion_lon": 0.0, "lat": 38.90386183333333, "fusion_lat": 0.0}, {"is_disabled": 0, "rental_uris": {"android": "https://dc.lft.to/lastmile_qr_scan", "ios": "https://dc.lft.to/lastmile_qr_scan"}, "is_reserved": 0, "name": "3662af051e8d13eeac099de3ac5f7c4a", "lon": -77.041729, "type": "electric_scooter", "bike_id": "3662af051e8d13eeac099de3ac5f7c4a", "fusion_lon": 0.0, "lat": 38.915523666666665, "fusion_lat": 0.0}, {"is_disabled": 0, "rental_uris": {"android": "https://dc.lft.to/lastmile_qr_scan", "ios": "https://dc.lft.to/lastmile_qr_scan"}, "is_reserved": 0, "name": "dbd60172a87c912a1a1dbb4824919bd6", "lon": -77.03629083333334, "type": "electric_scooter", "bike_id": "dbd60172a87c912a1a1dbb4824919bd6", "fusion_lon": 0.0, "lat": 38.95608633333333, "fusion_lat": 0.0}, {"is_disabled": 0, "rental_uris": {"android": "https://dc.lft.to/lastmile_qr_scan", "ios": "https://dc.lft.to/lastmile_qr_scan"}, "is_reserved": 0, "name": "c2ca59de5b94d0c917fd8454d44128d3", "lon": -76.99517483333334, "type": "electric_scooter", "bike_id": "c2ca59de5b94d0c917fd8454d44128d3", "fusion_lon": 0.0, "lat": 38.89484916666667, "fusion_lat": 0.0}, {"is_disabled": 0, "rental_uris": {"android": "https://dc.lft.to/lastmile_qr_scan", "ios": "https://dc.lft.to/lastmile_qr_scan"}, "is_reserved": 0, "name": "77eebd3cd8fe8d66d7b40ae29d219bd9", "lon": -77.0328715, "type": "electric_scooter", "bike_id": "77eebd3cd8fe8d66d7b40ae29d219bd9", "fusion_lon": 0.0, "lat": 38.923549, "fusion_lat": 0.0}, {"is_disabled": 0, "rental_uris": {"android": "https://dc.lft.to/lastmile_qr_scan", "ios": "https://dc.lft.to/lastmile_qr_scan"}, "is_reserved": 0, "name": "15153e97aa0bffd653e4dce7259b8db9", "lon": -77.02623883333334, "type": "electric_scooter", "bike_id": "15153e97aa0bffd653e4dce7259b8db9", "fusion_lon": 0.0, "lat": 38.94423916666667, "fusion_lat": 0.0}, {"is_disabled": 0, "rental_uris": {"android": "https://dc.lft.to/lastmile_qr_scan", "ios": "https://dc.lft.to/lastmile_qr_scan"}, "is_reserved": 0, "name": "24fb776b1317f38e01ac4d29b6927312", "lon": -77.09159883333334, "type": "electric_bike", "bike_id": "24fb776b1317f38e01ac4d29b6927312", "fusion_lon": 0.0, "lat": 38.96761566666667, "fusion_lat": 0.0}, {"is_disabled": 0, "rental_uris": {"android": "https://dc.lft.to/lastmile_qr_scan", "ios": "https://dc.lft.to/lastmile_qr_scan"}, "is_reserved": 0, "name": "47f914d6fcca1129d478cbe325abb8b4", "lon": -77.045868, "type": "electric_scooter", "bike_id": "47f914d6fcca1129d478cbe325abb8b4", "fusion_lon": 0.0, "lat": 38.902847, "fusion_lat": 0.0}, {"is_disabled": 0, "rental_uris": {"android": "https://dc.lft.to/lastmile_qr_scan", "ios": "https://dc.lft.to/lastmile_qr_scan"}, "is_reserved": 0, "name": "47caf47de5a4471d81b4c9224fac0b8e", "lon": -77.017615, "type": "electric_scooter", "bike_id": "47caf47de5a4471d81b4c9224fac0b8e", "fusion_lon": 0.0, "lat": 38.876867833333336, "fusion_lat": 0.0}, {"is_disabled": 0, "rental_uris": {"android": "https://dc.lft.to/lastmile_qr_scan", "ios": "https://dc.lft.to/lastmile_qr_scan"}, "is_reserved": 0, "name": "94eb02ffb83e1069b5e4624c821b7a65", "lon": -77.06133133333333, "type": "electric_bike", "bike_id": "94eb02ffb83e1069b5e4624c821b7a65", "fusion_lon": 0.0, "lat": 38.94364516666667, "fusion_lat": 0.0}, {"is_disabled": 0, "rental_uris": {"android": "https://dc.lft.to/lastmile_qr_scan", "ios": "https://dc.lft.to/lastmile_qr_scan"}, "is_reserved": 0, "name": "500e7044c30a547c4a261e965ab139d8", "lon": -77.046611, "type": "electric_scooter", "bike_id": "500e7044c30a547c4a261e965ab139d8", "fusion_lon": 0.0, "lat": 38.89303966666667, "fusion_lat": 0.0}, {"is_disabled": 0, "rental_uris": {"android": "https://dc.lft.to/lastmile_qr_scan", "ios": "https://dc.lft.to/lastmile_qr_scan"}, "is_reserved": 0, "name": "28ac29fcd370e55bc1925ed4d4200be8", "lon": -76.99710033333334, "type": "electric_scooter", "bike_id": "28ac29fcd370e55bc1925ed4d4200be8", "fusion_lon": 0.0, "lat": 38.83870533333333, "fusion_lat": 0.0}, {"is_disabled": 0, "rental_uris": {"android": "https://dc.lft.to/lastmile_qr_scan", "ios": "https://dc.lft.to/lastmile_qr_scan"}, "is_reserved": 0, "name": "2c94a3cf30e196106444b43851b4bea7", "lon": -76.94624683333333, "type": "electric_bike", "bike_id": "2c94a3cf30e196106444b43851b4bea7", "fusion_lon": 0.0, "lat": 38.83238733333334, "fusion_lat": 0.0}, {"is_disabled": 0, "rental_uris": {"android": "https://dc.lft.to/lastmile_qr_scan", "ios": "https://dc.lft.to/lastmile_qr_scan"}, "is_reserved": 0, "name": "a9e6e9b1b6c4bb1dea34ec8ee15c883a", "lon": -76.98662966666667, "type": "electric_scooter", "bike_id": "a9e6e9b1b6c4bb1dea34ec8ee15c883a", "fusion_lon": 0.0, "lat": 38.901379666666664, "fusion_lat": 0.0}, {"is_disabled": 0, "rental_uris": {"android": "https://dc.lft.to/lastmile_qr_scan", "ios": "https://dc.lft.to/lastmile_qr_scan"}, "is_reserved": 0, "name": "12151630ddf27644c36201bac48c89f5", "lon": -76.93185166666666, "type": "electric_scooter", "bike_id": "12151630ddf27644c36201bac48c89f5", "fusion_lon": 0.0, "lat": 38.89879583333333, "fusion_lat": 0.0}, {"is_disabled": 0, "rental_uris": {"android": "https://dc.lft.to/lastmile_qr_scan", "ios": "https://dc.lft.to/lastmile_qr_scan"}, "is_reserved": 0, "name": "cd0c85950db9416497e133350de7960b", "lon": -77.00143583333333, "type": "electric_bike", "bike_id": "cd0c85950db9416497e133350de7960b", "fusion_lon": 0.0, "lat": 38.925581333333334, "fusion_lat": 0.0}, {"is_disabled": 0, "rental_uris": {"android": "https://dc.lft.to/lastmile_qr_scan", "ios": "https://dc.lft.to/lastmile_qr_scan"}, "is_reserved": 0, "name": "6cf4dc56b433c475068ac307ff46fe9b", "lon": -77.047492, "type": "electric_scooter", "bike_id": "6cf4dc56b433c475068ac307ff46fe9b", "fusion_lon": 0.0, "lat": 38.90555, "fusion_lat": 0.0}, {"is_disabled": 0, "rental_uris": {"android": "https://dc.lft.to/lastmile_qr_scan", "ios": "https://dc.lft.to/lastmile_qr_scan"}, "is_reserved": 0, "name": "d24322d73a62e2d890d9e4c852e0002d", "lon": -77.022613, "type": "electric_scooter", "bike_id": "d24322d73a62e2d890d9e4c852e0002d", "fusion_lon": 0.0, "lat": 38.92830266666667, "fusion_lat": 0.0}, {"is_disabled": 0, "rental_uris": {"android": "https://dc.lft.to/lastmile_qr_scan", "ios": "https://dc.lft.to/lastmile_qr_scan"}, "is_reserved": 0, "name": "b14f3677c802464db1b1bf7a789400d8", "lon": -77.01829333333333, "type": "electric_scooter", "bike_id": "b14f3677c802464db1b1bf7a789400d8", "fusion_lon": 0.0, "lat": 38.92203266666667, "fusion_lat": 0.0}, {"is_disabled": 0, "rental_uris": {"android": "https://dc.lft.to/lastmile_qr_scan", "ios": "https://dc.lft.to/lastmile_qr_scan"}, "is_reserved": 0, "name": "5a76da1a10366a6b91911f8a0a3492a8", "lon": -77.04485033333333, "type": "electric_scooter", "bike_id": "5a76da1a10366a6b91911f8a0a3492a8", "fusion_lon": 0.0, "lat": 38.9084835, "fusion_lat": 0.0}, {"is_disabled": 0, "rental_uris": {"android": "https://dc.lft.to/lastmile_qr_scan", "ios": "https://dc.lft.to/lastmile_qr_scan"}, "is_reserved": 0, "name": "fe804e776425a05f2ed1fe8b66247645", "lon": -77.04307533333333, "type": "electric_bike", "bike_id": "fe804e776425a05f2ed1fe8b66247645", "fusion_lon": 0.0, "lat": 39.054506333333336, "fusion_lat": 0.0}, {"is_disabled": 0, "rental_uris": {"android": "https://dc.lft.to/lastmile_qr_scan", "ios": "https://dc.lft.to/lastmile_qr_scan"}, "is_reserved": 0, "name": "4dcdd12ed122aa8c7eb7eecbb8381475", "lon": -77.0306915, "type": "electric_scooter", "bike_id": "4dcdd12ed122aa8c7eb7eecbb8381475", "fusion_lon": 0.0, "lat": 38.89978083333333, "fusion_lat": 0.0}, {"is_disabled": 0, "rental_uris": {"android": "https://dc.lft.to/lastmile_qr_scan", "ios": "https://dc.lft.to/lastmile_qr_scan"}, "is_reserved": 0, "name": "30eea8216939d57b0017153ec74da099", "lon": -77.03501266666666, "type": "electric_scooter", "bike_id": "30eea8216939d57b0017153ec74da099", "fusion_lon": 0.0, "lat": 38.923414666666666, "fusion_lat": 0.0}, {"is_disabled": 0, "rental_uris": {"android": "https://dc.lft.to/lastmile_qr_scan", "ios": "https://dc.lft.to/lastmile_qr_scan"}, "is_reserved": 0, "name": "be714a3cfbb76a623f49540f49fca093", "lon": -77.01976116666667, "type": "electric_scooter", "bike_id": "be714a3cfbb76a623f49540f49fca093", "fusion_lon": 0.0, "lat": 38.8952185, "fusion_lat": 0.0}, {"is_disabled": 0, "rental_uris": {"android": "https://dc.lft.to/lastmile_qr_scan", "ios": "https://dc.lft.to/lastmile_qr_scan"}, "is_reserved": 0, "name": "615cc11f18d947b6822d87407429b648", "lon": -77.044631, "type": "electric_scooter", "bike_id": "615cc11f18d947b6822d87407429b648", "fusion_lon": 0.0, "lat": 38.91411016666667, "fusion_lat": 0.0}, {"is_disabled": 0, "rental_uris": {"android": "https://dc.lft.to/lastmile_qr_scan", "ios": "https://dc.lft.to/lastmile_qr_scan"}, "is_reserved": 0, "name": "36ba970c915ceee6cfb4e596d959b4db", "lon": -76.9488865, "type": "electric_scooter", "bike_id": "36ba970c915ceee6cfb4e596d959b4db", "fusion_lon": 0.0, "lat": 38.895145166666666, "fusion_lat": 0.0}, {"is_disabled": 0, "rental_uris": {"android": "https://dc.lft.to/lastmile_qr_scan", "ios": "https://dc.lft.to/lastmile_qr_scan"}, "is_reserved": 0, "name": "cf0d3d30f9f6840f5221bc439fb3d430", "lon": -77.02939516666666, "type": "electric_scooter", "bike_id": "cf0d3d30f9f6840f5221bc439fb3d430", "fusion_lon": 0.0, "lat": 38.89608333333334, "fusion_lat": 0.0}, {"is_disabled": 0, "rental_uris": {"android": "https://dc.lft.to/lastmile_qr_scan", "ios": "https://dc.lft.to/lastmile_qr_scan"}, "is_reserved": 0, "name": "2e410e76c10bcb82bbb8d6b9486929c0", "lon": -77.02670183333333, "type": "electric_scooter", "bike_id": "2e410e76c10bcb82bbb8d6b9486929c0", "fusion_lon": 0.0, "lat": 38.924765, "fusion_lat": 0.0}, {"is_disabled": 0, "rental_uris": {"android": "https://dc.lft.to/lastmile_qr_scan", "ios": "https://dc.lft.to/lastmile_qr_scan"}, "is_reserved": 0, "name": "cf2a136fd2f479ff3484a9260a58e8b2", "lon": -77.04182833333333, "type": "electric_scooter", "bike_id": "cf2a136fd2f479ff3484a9260a58e8b2", "fusion_lon": 0.0, "lat": 38.915586, "fusion_lat": 0.0}, {"is_disabled": 0, "rental_uris": {"android": "https://dc.lft.to/lastmile_qr_scan", "ios": "https://dc.lft.to/lastmile_qr_scan"}, "is_reserved": 0, "name": "e5c9131eb81a56fede1a69a41fd27810", "lon": -77.06757016666667, "type": "electric_scooter", "bike_id": "e5c9131eb81a56fede1a69a41fd27810", "fusion_lon": 0.0, "lat": 38.905101333333334, "fusion_lat": 0.0}, {"is_disabled": 0, "rental_uris": {"android": "https://dc.lft.to/lastmile_qr_scan", "ios": "https://dc.lft.to/lastmile_qr_scan"}, "is_reserved": 0, "name": "1a5324b73913187829e1214af2f475bf", "lon": -77.0070625, "type": "electric_scooter", "bike_id": "1a5324b73913187829e1214af2f475bf", "fusion_lon": 0.0, "lat": 38.90571933333333, "fusion_lat": 0.0}, {"is_disabled": 0, "rental_uris": {"android": "https://dc.lft.to/lastmile_qr_scan", "ios": "https://dc.lft.to/lastmile_qr_scan"}, "is_reserved": 0, "name": "fc2ef3b83f470e742b6301787175d684", "lon": -76.99564433333333, "type": "electric_scooter", "bike_id": "fc2ef3b83f470e742b6301787175d684", "fusion_lon": 0.0, "lat": 38.920316666666665, "fusion_lat": 0.0}, {"is_disabled": 0, "rental_uris": {"android": "https://dc.lft.to/lastmile_qr_scan", "ios": "https://dc.lft.to/lastmile_qr_scan"}, "is_reserved": 0, "name": "ae45abfccd8a949ec119f2f776cfda34", "lon": -77.0284675, "type": "electric_scooter", "bike_id": "ae45abfccd8a949ec119f2f776cfda34", "fusion_lon": 0.0, "lat": 38.90231516666667, "fusion_lat": 0.0}, {"is_disabled": 0, "rental_uris": {"android": "https://dc.lft.to/lastmile_qr_scan", "ios": "https://dc.lft.to/lastmile_qr_scan"}, "is_reserved": 0, "name": "700c8f6ca605035b96f7101125f68590", "lon": -77.02786783333333, "type": "electric_scooter", "bike_id": "700c8f6ca605035b96f7101125f68590", "fusion_lon": 0.0, "lat": 38.961382666666665, "fusion_lat": 0.0}, {"is_disabled": 0, "rental_uris": {"android": "https://dc.lft.to/lastmile_qr_scan", "ios": "https://dc.lft.to/lastmile_qr_scan"}, "is_reserved": 0, "name": "3387e04bc3ea818e096ee63dffc32464", "lon": -77.02219616666666, "type": "electric_scooter", "bike_id": "3387e04bc3ea818e096ee63dffc32464", "fusion_lon": 0.0, "lat": 38.914176499999996, "fusion_lat": 0.0}, {"is_disabled": 0, "rental_uris": {"android": "https://dc.lft.to/lastmile_qr_scan", "ios": "https://dc.lft.to/lastmile_qr_scan"}, "is_reserved": 0, "name": "c800bd910ce0aea6f7e714cac14c8daa", "lon": -77.0147235, "type": "electric_scooter", "bike_id": "c800bd910ce0aea6f7e714cac14c8daa", "fusion_lon": 0.0, "lat": 38.926664833333334, "fusion_lat": 0.0}, {"is_disabled": 0, "rental_uris": {"android": "https://dc.lft.to/lastmile_qr_scan", "ios": "https://dc.lft.to/lastmile_qr_scan"}, "is_reserved": 0, "name": "ec0df2e986896a689a8a08aeee036ca6", "lon": -77.0220635, "type": "electric_scooter", "bike_id": "ec0df2e986896a689a8a08aeee036ca6", "fusion_lon": 0.0, "lat": 38.910215, "fusion_lat": 0.0}, {"is_disabled": 0, "rental_uris": {"android": "https://dc.lft.to/lastmile_qr_scan", "ios": "https://dc.lft.to/lastmile_qr_scan"}, "is_reserved": 0, "name": "d57ef8e06ebcf0f89c1798b5c26a552f", "lon": -77.049347, "type": "electric_scooter", "bike_id": "d57ef8e06ebcf0f89c1798b5c26a552f", "fusion_lon": 0.0, "lat": 38.9072645, "fusion_lat": 0.0}, {"is_disabled": 0, "rental_uris": {"android": "https://dc.lft.to/lastmile_qr_scan", "ios": "https://dc.lft.to/lastmile_qr_scan"}, "is_reserved": 0, "name": "99a245b50c5ac25d2af3f98203047c2f", "lon": -77.0725575, "type": "electric_scooter", "bike_id": "99a245b50c5ac25d2af3f98203047c2f", "fusion_lon": 0.0, "lat": 38.90789183333333, "fusion_lat": 0.0}, {"is_disabled": 0, "rental_uris": {"android": "https://dc.lft.to/lastmile_qr_scan", "ios": "https://dc.lft.to/lastmile_qr_scan"}, "is_reserved": 0, "name": "9305872511f7a4b7b5e9fd65387604fa", "lon": -77.00679183333334, "type": "electric_bike", "bike_id": "9305872511f7a4b7b5e9fd65387604fa", "fusion_lon": 0.0, "lat": 38.945155, "fusion_lat": 0.0}, {"is_disabled": 0, "rental_uris": {"android": "https://dc.lft.to/lastmile_qr_scan", "ios": "https://dc.lft.to/lastmile_qr_scan"}, "is_reserved": 0, "name": "f8efc0200c916415dc2432a1feded2ca", "lon": -77.028086, "type": "electric_scooter", "bike_id": "f8efc0200c916415dc2432a1feded2ca", "fusion_lon": 0.0, "lat": 38.9621985, "fusion_lat": 0.0}, {"is_disabled": 0, "rental_uris": {"android": "https://dc.lft.to/lastmile_qr_scan", "ios": "https://dc.lft.to/lastmile_qr_scan"}, "is_reserved": 0, "name": "be88bb77855abc9da31c5c63a1f89d7d", "lon": -76.96529183333334, "type": "electric_scooter", "bike_id": "be88bb77855abc9da31c5c63a1f89d7d", "fusion_lon": 0.0, "lat": 38.876362, "fusion_lat": 0.0}, {"is_disabled": 0, "rental_uris": {"android": "https://dc.lft.to/lastmile_qr_scan", "ios": "https://dc.lft.to/lastmile_qr_scan"}, "is_reserved": 0, "name": "90cfad36e960649c4032befa3b6f9482", "lon": -77.02701983333333, "type": "electric_scooter", "bike_id": "90cfad36e960649c4032befa3b6f9482", "fusion_lon": 0.0, "lat": 38.949852166666666, "fusion_lat": 0.0}, {"is_disabled": 0, "rental_uris": {"android": "https://dc.lft.to/lastmile_qr_scan", "ios": "https://dc.lft.to/lastmile_qr_scan"}, "is_reserved": 0, "name": "ae758b863ace8d3e9f180e53807fd369", "lon": -77.02888683333333, "type": "electric_scooter", "bike_id": "ae758b863ace8d3e9f180e53807fd369", "fusion_lon": 0.0, "lat": 38.90131483333333, "fusion_lat": 0.0}, {"is_disabled": 0, "rental_uris": {"android": "https://dc.lft.to/lastmile_qr_scan", "ios": "https://dc.lft.to/lastmile_qr_scan"}, "is_reserved": 0, "name": "6aef6f854acfbccecd43018d07080855", "lon": -77.00327433333334, "type": "electric_scooter", "bike_id": "6aef6f854acfbccecd43018d07080855", "fusion_lon": 0.0, "lat": 38.902699, "fusion_lat": 0.0}, {"is_disabled": 0, "rental_uris": {"android": "https://dc.lft.to/lastmile_qr_scan", "ios": "https://dc.lft.to/lastmile_qr_scan"}, "is_reserved": 0, "name": "9be71920adb4d88a3565f00c9b4f4546", "lon": -77.03636816666666, "type": "electric_scooter", "bike_id": "9be71920adb4d88a3565f00c9b4f4546", "fusion_lon": 0.0, "lat": 38.930512666666665, "fusion_lat": 0.0}, {"is_disabled": 0, "rental_uris": {"android": "https://dc.lft.to/lastmile_qr_scan", "ios": "https://dc.lft.to/lastmile_qr_scan"}, "is_reserved": 0, "name": "5abd7376896d31d14c279157fc7628a8", "lon": -77.042447, "type": "electric_scooter", "bike_id": "5abd7376896d31d14c279157fc7628a8", "fusion_lon": 0.0, "lat": 38.92221283333333, "fusion_lat": 0.0}, {"is_disabled": 0, "rental_uris": {"android": "https://dc.lft.to/lastmile_qr_scan", "ios": "https://dc.lft.to/lastmile_qr_scan"}, "is_reserved": 0, "name": "d433c90597aea669b65446125e62350d", "lon": -77.143321, "type": "electric_bike", "bike_id": "d433c90597aea669b65446125e62350d", "fusion_lon": 0.0, "lat": 39.054658333333336, "fusion_lat": 0.0}, {"is_disabled": 0, "rental_uris": {"android": "https://dc.lft.to/lastmile_qr_scan", "ios": "https://dc.lft.to/lastmile_qr_scan"}, "is_reserved": 0, "name": "65e23fab6f15c7a2e0ce08525cd43ce5", "lon": -77.0296585, "type": "electric_scooter", "bike_id": "65e23fab6f15c7a2e0ce08525cd43ce5", "fusion_lon": 0.0, "lat": 38.89875883333333, "fusion_lat": 0.0}, {"is_disabled": 0, "rental_uris": {"android": "https://dc.lft.to/lastmile_qr_scan", "ios": "https://dc.lft.to/lastmile_qr_scan"}, "is_reserved": 0, "name": "d812199330056ca9ac0132edb584efdf", "lon": -77.012267, "type": "electric_scooter", "bike_id": "d812199330056ca9ac0132edb584efdf", "fusion_lon": 0.0, "lat": 38.9150265, "fusion_lat": 0.0}, {"is_disabled": 0, "rental_uris": {"android": "https://dc.lft.to/lastmile_qr_scan", "ios": "https://dc.lft.to/lastmile_qr_scan"}, "is_reserved": 0, "name": "96f9bca0871817f8679facff4dabe451", "lon": -77.00604033333333, "type": "electric_scooter", "bike_id": "96f9bca0871817f8679facff4dabe451", "fusion_lon": 0.0, "lat": 38.91117066666666, "fusion_lat": 0.0}, {"is_disabled": 0, "rental_uris": {"android": "https://dc.lft.to/lastmile_qr_scan", "ios": "https://dc.lft.to/lastmile_qr_scan"}, "is_reserved": 0, "name": "a236a325f5bc9b24f5e9aa274477e00a", "lon": -77.06193033333334, "type": "electric_scooter", "bike_id": "a236a325f5bc9b24f5e9aa274477e00a", "fusion_lon": 0.0, "lat": 38.93017, "fusion_lat": 0.0}, {"is_disabled": 0, "rental_uris": {"android": "https://dc.lft.to/lastmile_qr_scan", "ios": "https://dc.lft.to/lastmile_qr_scan"}, "is_reserved": 0, "name": "fb073100ca87fe4cb3285ed7a2894fcd", "lon": -77.01178933333334, "type": "electric_scooter", "bike_id": "fb073100ca87fe4cb3285ed7a2894fcd", "fusion_lon": 0.0, "lat": 38.8681185, "fusion_lat": 0.0}, {"is_disabled": 0, "rental_uris": {"android": "https://dc.lft.to/lastmile_qr_scan", "ios": "https://dc.lft.to/lastmile_qr_scan"}, "is_reserved": 0, "name": "8731ce49a22cfff5291b14d5302c2140", "lon": -77.03466383333334, "type": "electric_scooter", "bike_id": "8731ce49a22cfff5291b14d5302c2140", "fusion_lon": 0.0, "lat": 38.916723833333336, "fusion_lat": 0.0}, {"is_disabled": 0, "rental_uris": {"android": "https://dc.lft.to/lastmile_qr_scan", "ios": "https://dc.lft.to/lastmile_qr_scan"}, "is_reserved": 0, "name": "a3ceafaeefa004920feb2df35841b5e7", "lon": -76.99496216666667, "type": "electric_scooter", "bike_id": "a3ceafaeefa004920feb2df35841b5e7", "fusion_lon": 0.0, "lat": 38.86245916666667, "fusion_lat": 0.0}, {"is_disabled": 0, "rental_uris": {"android": "https://dc.lft.to/lastmile_qr_scan", "ios": "https://dc.lft.to/lastmile_qr_scan"},