{"data": {"bikes": [{"name": "91a57ffb204ffdc598e55fb955a2306d", "lon": -77.02209616666667, "lat": 38.886455, "type": "electric_scooter", "fusion_lon": 0.0, "is_reserved": 0, "bike_id": "91a57ffb204ffdc598e55fb955a2306d", "fusion_lat": 0.0, "is_disabled": 0, "rental_uris": {"ios": "https://dc.lft.to/lastmile_qr_scan", "android": "https://dc.lft.to/lastmile_qr_scan"}}, {"name": "8793264a0bafb3bbd5107ad3001f5454", "lon": -77.03704666666667, "lat": 38.920393, "type": "electric_bike", "fusion_lon": 0.0, "is_reserved": 0, "bike_id": "8793264a0bafb3bbd5107ad3001f5454", "fusion_lat": 0.0, "is_disabled": 0, "rental_uris": {"ios": "https://dc.lft.to/lastmile_qr_scan", "android": "https://dc.lft.to/lastmile_qr_scan"}}, {"name": "cb3da9485d6044c2bfa59e86529a1dfc", "lon": -77.08588433333334, "lat": 38.844394, "type": "electric_bike", "fusion_lon": 0.0, "is_reserved": 0, "bike_id": "cb3da9485d6044c2bfa59e86529a1dfc", "fusion_lat": 0.0, "is_disabled": 0, "rental_uris": {"ios": "https://dc.lft.to/lastmile_qr_scan", "android": "https://dc.lft.to/lastmile_qr_scan"}}, {"name": "8ef3b6629aea96d3e3bbb92f793e7d3a", "lon": -77.006723, "lat": 38.900084666666665, "type": "electric_scooter", "fusion_lon": 0.0, "is_reserved": 0, "bike_id": "8ef3b6629aea96d3e3bbb92f793e7d3a", "fusion_lat": 0.0, "is_disabled": 0, "rental_uris": {"ios": "https://dc.lft.to/lastmile_qr_scan", "android": "https://dc.lft.to/lastmile_qr_scan"}}, {"name": "4def521c2663f1463868a97748438646", "lon": -77.038511, "lat": 38.902651166666665, "type": "electric_scooter", "fusion_lon": 0.0, "is_reserved": 0, "bike_id": "4def521c2663f1463868a97748438646", "fusion_lat": 0.0, "is_disabled": 0, "rental_uris": {"ios": "https://dc.lft.to/lastmile_qr_scan", "android": "https://dc.lft.to/lastmile_qr_scan"}}, {"name": "50506e25da82fb53e4124d68c20614f6", "lon": -76.98481783333334, "lat": 38.91525466666667, "type": "electric_scooter", "fusion_lon": 0.0, "is_reserved": 0, "bike_id": "50506e25da82fb53e4124d68c20614f6", "fusion_lat": 0.0, "is_disabled": 0, "rental_uris": {"ios": "https://dc.lft.to/lastmile_qr_scan", "android": "https://dc.lft.to/lastmile_qr_scan"}}, {"name": "74bda8fa7a42c0bee663ec0e40856fba", "lon": -77.057421, "lat": 38.933891, "type": "electric_scooter", "fusion_lon": 0.0, "is_reserved": 0, "bike_id": "74bda8fa7a42c0bee663ec0e40856fba", "fusion_lat": 0.0, "is_disabled": 0, "rental_uris": {"ios": "https://dc.lft.to/lastmile_qr_scan", "android": "https://dc.lft.to/lastmile_qr_scan"}}, {"name": "2cedbca55cc3bb8314741f43483c9570", "lon": -76.99330533333334, "lat": 38.924404333333335, "type": "electric_scooter", "fusion_lon": 0.0, "is_reserved": 0, "bike_id": "2cedbca55cc3bb8314741f43483c9570", "fusion_lat": 0.0, "is_disabled": 0, "rental_uris": {"ios": "https://dc.lft.to/lastmile_qr_scan", "android": "https://dc.lft.to/lastmile_qr_scan"}}, {"name": "bdb1a1a84227874dcd5396cb85133553", "lon": -77.04302283333334, "lat": 38.9233245, "type": "electric_scooter", "fusion_lon": 0.0, "is_reserved": 0, "bike_id": "bdb1a1a84227874dcd5396cb85133553", "fusion_lat": 0.0, "is_disabled": 0, "rental_uris": {"ios": "https://dc.lft.to/lastmile_qr_scan", "android": "https://dc.lft.to/lastmile_qr_scan"}}, {"name": "4be21da67ca3550962c08f695983b9d6", "lon": -77.04340716666667, "lat": 38.903287166666665, "type": "electric_scooter", "fusion_lon": 0.0, "is_reserved": 0, "bike_id": "4be21da67ca3550962c08f695983b9d6", "fusion_lat": 0.0, "is_disabled": 0, "rental_uris": {"ios": "https://dc.lft.to/lastmile_qr_scan", "android": "https://dc.lft.to/lastmile_qr_scan"}}, {"name": "45327eb73477faf561dbf492e9203b9f", "lon": -77.03886383333334, "lat": 38.922487, "type": "electric_scooter", "fusion_lon": 0.0, "is_reserved": 0, "bike_id": "45327eb73477faf561dbf492e9203b9f", "fusion_lat": 0.0, "is_disabled": 0, "rental_uris": {"ios": "https://dc.lft.to/lastmile_qr_scan", "android": "https://dc.lft.to/lastmile_qr_scan"}}, {"name": "a7481d9f4898319471a0fa9c92c36c56", "lon": -76.9723925, "lat": 38.949061666666665, "type": "electric_bike", "fusion_lon": 0.0, "is_reserved": 0, "bike_id": "a7481d9f4898319471a0fa9c92c36c56", "fusion_lat": 0.0, "is_disabled": 0, "rental_uris": {"ios": "https://dc.lft.to/lastmile_qr_scan", "android": "https://dc.lft.to/lastmile_qr_scan"}}, {"name": "4f6bc024e993d49dc5090b08a5fb0680", "lon": -77.0448115, "lat": 38.9110405, "type": "electric_scooter", "fusion_lon": 0.0, "is_reserved": 0, "bike_id": "4f6bc024e993d49dc5090b08a5fb0680", "fusion_lat": 0.0, "is_disabled": 0, "rental_uris": {"ios": "https://dc.lft.to/lastmile_qr_scan", "android": "https://dc.lft.to/lastmile_qr_scan"}}, {"name": "652a94fd2cc125ce5687e74fcbf832ff", "lon": -76.996004, "lat": 38.85688783333333, "type": "electric_scooter", "fusion_lon": 0.0, "is_reserved": 0, "bike_id": "652a94fd2cc125ce5687e74fcbf832ff", "fusion_lat": 0.0, "is_disabled": 0, "rental_uris": {"ios": "https://dc.lft.to/lastmile_qr_scan", "android": "https://dc.lft.to/lastmile_qr_scan"}}, {"name": "eeb1959f2b67b336797a3356719d5589", "lon": -77.0344205, "lat": 38.90972083333333, "type": "electric_scooter", "fusion_lon": 0.0, "is_reserved": 0, "bike_id": "eeb1959f2b67b336797a3356719d5589", "fusion_lat": 0.0, "is_disabled": 0, "rental_uris": {"ios": "https://dc.lft.to/lastmile_qr_scan", "android": "https://dc.lft.to/lastmile_qr_scan"}}, {"name": "6498f494e851d11161eb20dfd5345497", "lon": -77.00830633333334, "lat": 38.829095, "type": "electric_bike", "fusion_lon": 0.0, "is_reserved": 0, "bike_id": "6498f494e851d11161eb20dfd5345497", "fusion_lat": 0.0, "is_disabled": 0, "rental_uris": {"ios": "https://dc.lft.to/lastmile_qr_scan", "android": "https://dc.lft.to/lastmile_qr_scan"}}, {"name": "279f6f787d8d12c0eca26ec06ed8e519", "lon": -77.07191466666667, "lat": 38.9595675, "type": "electric_scooter", "fusion_lon": 0.0, "is_reserved": 0, "bike_id": "279f6f787d8d12c0eca26ec06ed8e519", "fusion_lat": 0.0, "is_disabled": 0, "rental_uris": {"ios": "https://dc.lft.to/lastmile_qr_scan", "android": "https://dc.lft.to/lastmile_qr_scan"}}, {"name": "4c7508bcf5cbbf719c43c0bd99bcfe54", "lon": -76.94941433333334, "lat": 38.895071, "type": "electric_scooter", "fusion_lon": 0.0, "is_reserved": 0, "bike_id": "4c7508bcf5cbbf719c43c0bd99bcfe54", "fusion_lat": 0.0, "is_disabled": 0, "rental_uris": {"ios": "https://dc.lft.to/lastmile_qr_scan", "android": "https://dc.lft.to/lastmile_qr_scan"}}, {"name": "d6e134f31c7cc2a6c5f4d28ffe665bfc", "lon": -77.021674, "lat": 38.91915566666667, "type": "electric_scooter", "fusion_lon": 0.0, "is_reserved": 0, "bike_id": "d6e134f31c7cc2a6c5f4d28ffe665bfc", "fusion_lat": 0.0, "is_disabled": 0, "rental_uris": {"ios": "https://dc.lft.to/lastmile_qr_scan", "android": "https://dc.lft.to/lastmile_qr_scan"}}, {"name": "d959781a89df23a53184e2fe5bd46927", "lon": -77.00355066666667, "lat": 38.89898566666667, "type": "electric_scooter", "fusion_lon": 0.0, "is_reserved": 0, "bike_id": "d959781a89df23a53184e2fe5bd46927", "fusion_lat": 0.0, "is_disabled": 0, "rental_uris": {"ios": "https://dc.lft.to/lastmile_qr_scan", "android": "https://dc.lft.to/lastmile_qr_scan"}}, {"name": "53a0de7d29caabc4b7de7d56a9ccf0d5", "lon": -77.0413555, "lat": 38.922699, "type": "electric_scooter", "fusion_lon": 0.0, "is_reserved": 0, "bike_id": "53a0de7d29caabc4b7de7d56a9ccf0d5", "fusion_lat": 0.0, "is_disabled": 0, "rental_uris": {"ios": "https://dc.lft.to/lastmile_qr_scan", "android": "https://dc.lft.to/lastmile_qr_scan"}}, {"name": "bf0c51bccaefce8e67eba0f9e5ace655", "lon": -77.02595933333333, "lat": 38.89616, "type": "electric_scooter", "fusion_lon": 0.0, "is_reserved": 0, "bike_id": "bf0c51bccaefce8e67eba0f9e5ace655", "fusion_lat": 0.0, "is_disabled": 0, "rental_uris": {"ios": "https://dc.lft.to/lastmile_qr_scan", "android": "https://dc.lft.to/lastmile_qr_scan"}}, {"name": "0eef53605ad24f6df4946cf612d01d32", "lon": -77.00895283333334, "lat": 38.90350733333333, "type": "electric_scooter", "fusion_lon": 0.0, "is_reserved": 0, "bike_id": "0eef53605ad24f6df4946cf612d01d32", "fusion_lat": 0.0, "is_disabled": 0, "rental_uris": {"ios": "https://dc.lft.to/lastmile_qr_scan", "android": "https://dc.lft.to/lastmile_qr_scan"}}, {"name": "9d2b0c5e19878a55a9eb9b39a22b3ac3", "lon": -77.00927683333333, "lat": 38.896068166666666, "type": "electric_scooter", "fusion_lon": 0.0, "is_reserved": 0, "bike_id": "9d2b0c5e19878a55a9eb9b39a22b3ac3", "fusion_lat": 0.0, "is_disabled": 0, "rental_uris": {"ios": "https://dc.lft.to/lastmile_qr_scan", "android": "https://dc.lft.to/lastmile_qr_scan"}}, {"name": "e61a63ca831505cf92a01b408f3c0cf8", "lon": -77.0431345, "lat": 38.92654533333334, "type": "electric_scooter", "fusion_lon": 0.0, "is_reserved": 0, "bike_id": "e61a63ca831505cf92a01b408f3c0cf8", "fusion_lat": 0.0, "is_disabled": 0, "rental_uris": {"ios": "https://dc.lft.to/lastmile_qr_scan", "android": "https://dc.lft.to/lastmile_qr_scan"}}, {"name": "17052736a9243cdc6f3e2952872e2a9a", "lon": -77.04071666666667, "lat": 38.917797166666666, "type": "electric_scooter", "fusion_lon": 0.0, "is_reserved": 0, "bike_id": "17052736a9243cdc6f3e2952872e2a9a", "fusion_lat": 0.0, "is_disabled": 0, "rental_uris": {"ios": "https://dc.lft.to/lastmile_qr_scan", "android": "https://dc.lft.to/lastmile_qr_scan"}}, {"name": "ed51fc8eec19b1d24672fb54b1ea3618", "lon": -77.023062, "lat": 38.9016005, "type": "electric_scooter", "fusion_lon": 0.0, "is_reserved": 0, "bike_id": "ed51fc8eec19b1d24672fb54b1ea3618", "fusion_lat": 0.0, "is_disabled": 0, "rental_uris": {"ios": "https://dc.lft.to/lastmile_qr_scan", "android": "https://dc.lft.to/lastmile_qr_scan"}}, {"name": "702e5a84931137f2fa00cdc00c7ce447", "lon": -77.05120233333334, "lat": 38.9234415, "type": "electric_scooter", "fusion_lon": 0.0, "is_reserved": 0, "bike_id": "702e5a84931137f2fa00cdc00c7ce447", "fusion_lat": 0.0, "is_disabled": 0, "rental_uris": {"ios": "https://dc.lft.to/lastmile_qr_scan", "android": "https://dc.lft.to/lastmile_qr_scan"}}, {"name": "3817ec35ec0131aacea02bb8c6e315ef", "lon": -77.02197333333334, "lat": 38.902294166666664, "type": "electric_scooter", "fusion_lon": 0.0, "is_reserved": 0, "bike_id": "3817ec35ec0131aacea02bb8c6e315ef", "fusion_lat": 0.0, "is_disabled": 0, "rental_uris": {"ios": "https://dc.lft.to/lastmile_qr_scan", "android": "https://dc.lft.to/lastmile_qr_scan"}}, {"name": "e66bad3a6fcde34cb0399ad03f09034e", "lon": -77.02386733333333, "lat": 38.89621266666666, "type": "electric_scooter", "fusion_lon": 0.0, "is_reserved": 0, "bike_id": "e66bad3a6fcde34cb0399ad03f09034e", "fusion_lat": 0.0, "is_disabled": 0, "rental_uris": {"ios": "https://dc.lft.to/lastmile_qr_scan", "android": "https://dc.lft.to/lastmile_qr_scan"}}, {"name": "46ab4b135c3bbdced2e965dcae0dd188", "lon": -77.02949766666667, "lat": 38.8993135, "type": "electric_scooter", "fusion_lon": 0.0, "is_reserved": 0, "bike_id": "46ab4b135c3bbdced2e965dcae0dd188", "fusion_lat": 0.0, "is_disabled": 0, "rental_uris": {"ios": "https://dc.lft.to/lastmile_qr_scan", "android": "https://dc.lft.to/lastmile_qr_scan"}}, {"name": "2b9235efd55ea77604524370027574fa", "lon": -76.98884433333333, "lat": 38.86651166666667, "type": "electric_scooter", "fusion_lon": 0.0, "is_reserved": 0, "bike_id": "2b9235efd55ea77604524370027574fa", "fusion_lat": 0.0, "is_disabled": 0, "rental_uris": {"ios": "https://dc.lft.to/lastmile_qr_scan", "android": "https://dc.lft.to/lastmile_qr_scan"}}, {"name": "9e0379e81b0bb27709ec6f2cd82310a0", "lon": -77.04802083333334, "lat": 38.892218666666665, "type": "electric_scooter", "fusion_lon": 0.0, "is_reserved": 0, "bike_id": "9e0379e81b0bb27709ec6f2cd82310a0", "fusion_lat": 0.0, "is_disabled": 0, "rental_uris": {"ios": "https://dc.lft.to/lastmile_qr_scan", "android": "https://dc.lft.to/lastmile_qr_scan"}}, {"name": "efccaf9b99759bafea03bb0c31e33d20", "lon": -77.0087935, "lat": 38.89955633333334, "type": "electric_scooter", "fusion_lon": 0.0, "is_reserved": 0, "bike_id": "efccaf9b99759bafea03bb0c31e33d20", "fusion_lat": 0.0, "is_disabled": 0, "rental_uris": {"ios": "https://dc.lft.to/lastmile_qr_scan", "android": "https://dc.lft.to/lastmile_qr_scan"}}, {"name": "63dc3aa2dfb82df332e26596f2aad670", "lon": -76.937591, "lat": 38.890422666666666, "type": "electric_scooter", "fusion_lon": 0.0, "is_reserved": 0, "bike_id": "63dc3aa2dfb82df332e26596f2aad670", "fusion_lat": 0.0, "is_disabled": 0, "rental_uris": {"ios": "https://dc.lft.to/lastmile_qr_scan", "android": "https://dc.lft.to/lastmile_qr_scan"}}, {"name": "9d7e4cd7e9eb482a5c6c873291460bf5", "lon": -77.22563983333333, "lat": 38.929753, "type": "electric_bike", "fusion_lon": 0.0, "is_reserved": 0, "bike_id": "9d7e4cd7e9eb482a5c6c873291460bf5", "fusion_lat": 0.0, "is_disabled": 0, "rental_uris": {"ios": "https://dc.lft.to/lastmile_qr_scan", "android": "https://dc.lft.to/lastmile_qr_scan"}}, {"name": "8032181b7966e00aff137923e87154bb", "lon": -77.04061716666666, "lat": 38.91112016666666, "type": "electric_scooter", "fusion_lon": 0.0, "is_reserved": 0, "bike_id": "8032181b7966e00aff137923e87154bb", "fusion_lat": 0.0, "is_disabled": 0, "rental_uris": {"ios": "https://dc.lft.to/lastmile_qr_scan", "android": "https://dc.lft.to/lastmile_qr_scan"}}, {"name": "0cea96d034226c2fa1caf7f845237965", "lon": -76.98276783333333, "lat": 38.86307766666667, "type": "electric_scooter", "fusion_lon": 0.0, "is_reserved": 0, "bike_id": "0cea96d034226c2fa1caf7f845237965", "fusion_lat": 0.0, "is_disabled": 0, "rental_uris": {"ios": "https://dc.lft.to/lastmile_qr_scan", "android": "https://dc.lft.to/lastmile_qr_scan"}}, {"name": "40c06b003c970b07b7f3f47c05d3524d", "lon": -77.0779255, "lat": 38.996075833333336, "type": "electric_bike", "fusion_lon": 0.0, "is_reserved": 0, "bike_id": "40c06b003c970b07b7f3f47c05d3524d", "fusion_lat": 0.0, "is_disabled": 0, "rental_uris": {"ios": "https://dc.lft.to/lastmile_qr_scan", "android": "https://dc.lft.to/lastmile_qr_scan"}}, {"name": "e1d33cb0a8fdd45ddbf92d4c25112992", "lon": -77.00199416666666, "lat": 38.9023665, "type": "electric_scooter", "fusion_lon": 0.0, "is_reserved": 0, "bike_id": "e1d33cb0a8fdd45ddbf92d4c25112992", "fusion_lat": 0.0, "is_disabled": 0, "rental_uris": {"ios": "https://dc.lft.to/lastmile_qr_scan", "android": "https://dc.lft.to/lastmile_qr_scan"}}, {"name": "788da8db8e441a9680607a8378c321ff", "lon": -77.03447316666667, "lat": 38.908171833333334, "type": "electric_scooter", "fusion_lon": 0.0, "is_reserved": 0, "bike_id": "788da8db8e441a9680607a8378c321ff", "fusion_lat": 0.0, "is_disabled": 0, "rental_uris": {"ios": "https://dc.lft.to/lastmile_qr_scan", "android": "https://dc.lft.to/lastmile_qr_scan"}}, {"name": "67d6b6059683641758baa705507a19b0", "lon": -77.0071185, "lat": 38.8849, "type": "electric_scooter", "fusion_lon": 0.0, "is_reserved": 0, "bike_id": "67d6b6059683641758baa705507a19b0", "fusion_lat": 0.0, "is_disabled": 0, "rental_uris": {"ios": "https://dc.lft.to/lastmile_qr_scan", "android": "https://dc.lft.to/lastmile_qr_scan"}}, {"name": "525122812313b9c3fae99222d32d627a", "lon": -76.965287, "lat": 38.8762915, "type": "electric_scooter", "fusion_lon": 0.0, "is_reserved": 0, "bike_id": "525122812313b9c3fae99222d32d627a", "fusion_lat": 0.0, "is_disabled": 0, "rental_uris": {"ios": "https://dc.lft.to/lastmile_qr_scan", "android": "https://dc.lft.to/lastmile_qr_scan"}}, {"name": "59df2edfacb127dece4da6f026275c4b", "lon": -76.93736566666666, "lat": 38.890171333333335, "type": "electric_scooter", "fusion_lon": 0.0, "is_reserved": 0, "bike_id": "59df2edfacb127dece4da6f026275c4b", "fusion_lat": 0.0, "is_disabled": 0, "rental_uris": {"ios": "https://dc.lft.to/lastmile_qr_scan", "android": "https://dc.lft.to/lastmile_qr_scan"}}, {"name": "db5bd3726583abd1f8501222b899ecb5", "lon": -77.0112895, "lat": 38.91592383333333, "type": "electric_scooter", "fusion_lon": 0.0, "is_reserved": 0, "bike_id": "db5bd3726583abd1f8501222b899ecb5", "fusion_lat": 0.0, "is_disabled": 0, "rental_uris": {"ios": "https://dc.lft.to/lastmile_qr_scan", "android": "https://dc.lft.to/lastmile_qr_scan"}}, {"name": "3277bb66f745dd69b2d3bd69e730379a", "lon": -77.03254383333334, "lat": 38.89745933333333, "type": "electric_scooter", "fusion_lon": 0.0, "is_reserved": 0, "bike_id": "3277bb66f745dd69b2d3bd69e730379a", "fusion_lat": 0.0, "is_disabled": 0, "rental_uris": {"ios": "https://dc.lft.to/lastmile_qr_scan", "android": "https://dc.lft.to/lastmile_qr_scan"}}, {"name": "4269886cbabc4a811f664787a5c2eac6", "lon": -76.99929683333333, "lat": 38.90028866666667, "type": "electric_scooter", "fusion_lon": 0.0, "is_reserved": 0, "bike_id": "4269886cbabc4a811f664787a5c2eac6", "fusion_lat": 0.0, "is_disabled": 0, "rental_uris": {"ios": "https://dc.lft.to/lastmile_qr_scan", "android": "https://dc.lft.to/lastmile_qr_scan"}}, {"name": "749fefe82ed7818128d7139767ddfe24", "lon": -77.02718066666667, "lat": 38.9013395, "type": "electric_scooter", "fusion_lon": 0.0, "is_reserved": 0, "bike_id": "749fefe82ed7818128d7139767ddfe24", "fusion_lat": 0.0, "is_disabled": 0, "rental_uris": {"ios": "https://dc.lft.to/lastmile_qr_scan", "android": "https://dc.lft.to/lastmile_qr_scan"}}, {"name": "c5eec45bbf4373d09819730ef41fb77d", "lon": -77.118037, "lat": 38.873739666666665, "type": "electric_bike", "fusion_lon": 0.0, "is_reserved": 0, "bike_id": "c5eec45bbf4373d09819730ef41fb77d", "fusion_lat": 0.0, "is_disabled": 0, "rental_uris": {"ios": "https://dc.lft.to/lastmile_qr_scan", "android": "https://dc.lft.to/lastmile_qr_scan"}}, {"name": "c91a1e0632bd8a97f8a9200108b55ef3", "lon": -76.96527333333333, "lat": 38.876302833333334, "type": "electric_scooter", "fusion_lon": 0.0, "is_reserved": 0, "bike_id": "c91a1e0632bd8a97f8a9200108b55ef3", "fusion_lat": 0.0, "is_disabled": 0, "rental_uris": {"ios": "https://dc.lft.to/lastmile_qr_scan", "android": "https://dc.lft.to/lastmile_qr_scan"}}, {"name": "0166fed4fd5100515eb4be1d492cb227", "lon": -76.97011183333333, "lat": 38.86369466666667, "type": "electric_bike", "fusion_lon": 0.0, "is_reserved": 0, "bike_id": "0166fed4fd5100515eb4be1d492cb227", "fusion_lat": 0.0, "is_disabled": 0, "rental_uris": {"ios": "https://dc.lft.to/lastmile_qr_scan", "android": "https://dc.lft.to/lastmile_qr_scan"}}, {"name": "9edd0294e6835cbfec28e84e23df1c34", "lon": -77.0559725, "lat": 38.93612316666667, "type": "electric_scooter", "fusion_lon": 0.0, "is_reserved": 0, "bike_id": "9edd0294e6835cbfec28e84e23df1c34", "fusion_lat": 0.0, "is_disabled": 0, "rental_uris": {"ios": "https://dc.lft.to/lastmile_qr_scan", "android": "https://dc.lft.to/lastmile_qr_scan"}}, {"name": "23058042725ea3dd14c8608465be35a7", "lon": -77.044847, "lat": 38.9240135, "type": "electric_scooter", "fusion_lon": 0.0, "is_reserved": 0, "bike_id": "23058042725ea3dd14c8608465be35a7", "fusion_lat": 0.0, "is_disabled": 0, "rental_uris": {"ios": "https://dc.lft.to/lastmile_qr_scan", "android": "https://dc.lft.to/lastmile_qr_scan"}}, {"name": "9f6d5afefb8acca4b98d7aac134d5c53", "lon": -76.9938425, "lat": 38.87760316666667, "type": "electric_scooter", "fusion_lon": 0.0, "is_reserved": 0, "bike_id": "9f6d5afefb8acca4b98d7aac134d5c53", "fusion_lat": 0.0, "is_disabled": 0, "rental_uris": {"ios": "https://dc.lft.to/lastmile_qr_scan", "android": "https://dc.lft.to/lastmile_qr_scan"}}, {"name": "112ecbac7b09ceea3b773c4c772770d8", "lon": -77.02202216666667, "lat": 38.89985216666667, "type": "electric_scooter", "fusion_lon": 0.0, "is_reserved": 0, "bike_id": "112ecbac7b09ceea3b773c4c772770d8", "fusion_lat": 0.0, "is_disabled": 0, "rental_uris": {"ios": "https://dc.lft.to/lastmile_qr_scan", "android": "https://dc.lft.to/lastmile_qr_scan"}}, {"name": "f4bacd178aece47992c0f94e6da83769", "lon": -77.0058675, "lat": 38.9064905, "type": "electric_scooter", "fusion_lon": 0.0, "is_reserved": 0, "bike_id": "f4bacd178aece47992c0f94e6da83769", "fusion_lat": 0.0, "is_disabled": 0, "rental_uris": {"ios": "https://dc.lft.to/lastmile_qr_scan", "android": "https://dc.lft.to/lastmile_qr_scan"}}, {"name": "002c92655d26ffbcb7748060ffc17a9c", "lon": -77.00918116666666, "lat": 38.8278705, "type": "electric_scooter", "fusion_lon": 0.0, "is_reserved": 0, "bike_id": "002c92655d26ffbcb7748060ffc17a9c", "fusion_lat": 0.0, "is_disabled": 0, "rental_uris": {"ios": "https://dc.lft.to/lastmile_qr_scan", "android": "https://dc.lft.to/lastmile_qr_scan"}}, {"name": "939f3e96bc2f4a69ba0b41d7e6485f67", "lon": -77.01760083333333, "lat": 38.91713816666667, "type": "electric_scooter", "fusion_lon": 0.0, "is_reserved": 0, "bike_id": "939f3e96bc2f4a69ba0b41d7e6485f67", "fusion_lat": 0.0, "is_disabled": 0, "rental_uris": {"ios": "https://dc.lft.to/lastmile_qr_scan", "android": "https://dc.lft.to/lastmile_qr_scan"}}, {"name": "e25e24eb7d07101ce5df73b383b610c0", "lon": -77.050378, "lat": 38.923561166666666, "type": "electric_scooter", "fusion_lon": 0.0, "is_reserved": 0, "bike_id": "e25e24eb7d07101ce5df73b383b610c0", "fusion_lat": 0.0, "is_disabled": 0, "rental_uris": {"ios": "https://dc.lft.to/lastmile_qr_scan", "android": "https://dc.lft.to/lastmile_qr_scan"}}, {"name": "daebcf35b5da6b2fc046ab8d0273eee4", "lon": -77.02202516666667, "lat": 38.920009666666665, "type": "electric_scooter", "fusion_lon": 0.0, "is_reserved": 0, "bike_id": "daebcf35b5da6b2fc046ab8d0273eee4", "fusion_lat": 0.0, "is_disabled": 0, "rental_uris": {"ios": "https://dc.lft.to/lastmile_qr_scan", "android": "https://dc.lft.to/lastmile_qr_scan"}}, {"name": "6ee495fecb2f857f54307f0b5ba09be0", "lon": -77.05235266666666, "lat": 38.92466566666667, "type": "electric_scooter", "fusion_lon": 0.0, "is_reserved": 0, "bike_id": "6ee495fecb2f857f54307f0b5ba09be0", "fusion_lat": 0.0, "is_disabled": 0, "rental_uris": {"ios": "https://dc.lft.to/lastmile_qr_scan", "android": "https://dc.lft.to/lastmile_qr_scan"}}, {"name": "b0d7844ad8212e751adbcf911cc99118", "lon": -77.06272683333333, "lat": 38.905461333333335, "type": "electric_scooter", "fusion_lon": 0.0, "is_reserved": 0, "bike_id": "b0d7844ad8212e751adbcf911cc99118", "fusion_lat": 0.0, "is_disabled": 0, "rental_uris": {"ios": "https://dc.lft.to/lastmile_qr_scan", "android": "https://dc.lft.to/lastmile_qr_scan"}}, {"name": "bae4700a584e08de7bd2280606e4a643", "lon": -76.99878666666666, "lat": 38.901284833333335, "type": "electric_scooter", "fusion_lon": 0.0, "is_reserved": 0, "bike_id": "bae4700a584e08de7bd2280606e4a643", "fusion_lat": 0.0, "is_disabled": 0, "rental_uris": {"ios": "https://dc.lft.to/lastmile_qr_scan", "android": "https://dc.lft.to/lastmile_qr_scan"}}, {"name": "ca6040b1d5d50e2c4d028b2dfcd74e14", "lon": -77.0290315, "lat": 38.928125666666666, "type": "electric_scooter", "fusion_lon": 0.0, "is_reserved": 0, "bike_id": "ca6040b1d5d50e2c4d028b2dfcd74e14", "fusion_lat": 0.0, "is_disabled": 0, "rental_uris": {"ios": "https://dc.lft.to/lastmile_qr_scan", "android": "https://dc.lft.to/lastmile_qr_scan"}}, {"name": "03f2d20a42951a445e567e364f4418c8", "lon": -77.00667733333333, "lat": 38.89691166666667, "type": "electric_scooter", "fusion_lon": 0.0, "is_reserved": 0, "bike_id": "03f2d20a42951a445e567e364f4418c8", "fusion_lat": 0.0, "is_disabled": 0, "rental_uris": {"ios": "https://dc.lft.to/lastmile_qr_scan", "android": "https://dc.lft.to/lastmile_qr_scan"}}, {"name": "5acab9206a0c31af7f556947b148ee35", "lon": -77.05297816666666, "lat": 38.89850416666667, "type": "electric_bike", "fusion_lon": 0.0, "is_reserved": 0, "bike_id": "5acab9206a0c31af7f556947b148ee35", "fusion_lat": 0.0, "is_disabled": 0, "rental_uris": {"ios": "https://dc.lft.to/lastmile_qr_scan", "android": "https://dc.lft.to/lastmile_qr_scan"}}, {"name": "b489db0c0851ff892e7f6504ff8a4abe", "lon": -77.0386105, "lat": 38.9104355, "type": "electric_scooter", "fusion_lon": 0.0, "is_reserved": 0, "bike_id": "b489db0c0851ff892e7f6504ff8a4abe", "fusion_lat": 0.0, "is_disabled": 0, "rental_uris": {"ios": "https://dc.lft.to/lastmile_qr_scan", "android": "https://dc.lft.to/lastmile_qr_scan"}}, {"name": "a5e21955d5a70b7df5425324dca2831e", "lon": -77.02296216666667, "lat": 38.93669966666667, "type": "electric_scooter", "fusion_lon": 0.0, "is_reserved": 0, "bike_id": "a5e21955d5a70b7df5425324dca2831e", "fusion_lat": 0.0, "is_disabled": 0, "rental_uris": {"ios": "https://dc.lft.to/lastmile_qr_scan", "android": "https://dc.lft.to/lastmile_qr_scan"}}, {"name": "6d0b42dfa1152a7821a715bf0b8f422a", "lon": -77.0402135, "lat": 38.92252966666667, "type": "electric_scooter", "fusion_lon": 0.0, "is_reserved": 0, "bike_id": "6d0b42dfa1152a7821a715bf0b8f422a", "fusion_lat": 0.0, "is_disabled": 0, "rental_uris": {"ios": "https://dc.lft.to/lastmile_qr_scan", "android": "https://dc.lft.to/lastmile_qr_scan"}}, {"name": "5b0b1341c40ad9311241eaed0486aa5b", "lon": -77.04346233333334, "lat": 38.902178, "type": "electric_scooter", "fusion_lon": 0.0, "is_reserved": 0, "bike_id": "5b0b1341c40ad9311241eaed0486aa5b", "fusion_lat": 0.0, "is_disabled": 0, "rental_uris": {"ios": "https://dc.lft.to/lastmile_qr_scan", "android": "https://dc.lft.to/lastmile_qr_scan"}}, {"name": "1103c8e80995ad34ae19ec3aa718bb47", "lon": -77.0048445, "lat": 38.87478633333333, "type": "electric_scooter", "fusion_lon": 0.0, "is_reserved": 0, "bike_id": "1103c8e80995ad34ae19ec3aa718bb47", "fusion_lat": 0.0, "is_disabled": 0, "rental_uris": {"ios": "https://dc.lft.to/lastmile_qr_scan", "android": "https://dc.lft.to/lastmile_qr_scan"}}, {"name": "56654270436b91c8a2cda39398f04595", "lon": -77.0457955, "lat": 38.90237616666667, "type": "electric_scooter", "fusion_lon": 0.0, "is_reserved": 0, "bike_id": "56654270436b91c8a2cda39398f04595", "fusion_lat": 0.0, "is_disabled": 0, "rental_uris": {"ios": "https://dc.lft.to/lastmile_qr_scan", "android": "https://dc.lft.to/lastmile_qr_scan"}}, {"name": "13545ecfbe1e0e88fd9a53b86cd3fad9", "lon": -77.017641, "lat": 38.878633, "type": "electric_scooter", "fusion_lon": 0.0, "is_reserved": 0, "bike_id": "13545ecfbe1e0e88fd9a53b86cd3fad9", "fusion_lat": 0.0, "is_disabled": 0, "rental_uris": {"ios": "https://dc.lft.to/lastmile_qr_scan", "android": "https://dc.lft.to/lastmile_qr_scan"}}, {"name": "d7cfb2e46a1a7f243976d0b1cbc4b58e", "lon": -77.03259166666666, "lat": 38.9462735, "type": "electric_scooter", "fusion_lon": 0.0, "is_reserved": 0, "bike_id": "d7cfb2e46a1a7f243976d0b1cbc4b58e", "fusion_lat": 0.0, "is_disabled": 0, "rental_uris": {"ios": "https://dc.lft.to/lastmile_qr_scan", "android": "https://dc.lft.to/lastmile_qr_scan"}}, {"name": "d8e4e5c99b90d69b38be6e0480772d29", "lon": -77.0221115, "lat": 38.896025, "type": "electric_scooter", "fusion_lon": 0.0, "is_reserved": 0, "bike_id": "d8e4e5c99b90d69b38be6e0480772d29", "fusion_lat": 0.0, "is_disabled": 0, "rental_uris": {"ios": "https://dc.lft.to/lastmile_qr_scan", "android": "https://dc.lft.to/lastmile_qr_scan"}}, {"name": "9a17ce5f514b4085b7dc36d897a677f0", "lon": -77.04334133333333, "lat": 38.892219833333336, "type": "electric_scooter", "fusion_lon": 0.0, "is_reserved": 0, "bike_id": "9a17ce5f514b4085b7dc36d897a677f0", "fusion_lat": 0.0, "is_disabled": 0, "rental_uris": {"ios": "https://dc.lft.to/lastmile_qr_scan", "android": "https://dc.lft.to/lastmile_qr_scan"}}, {"name": "e9bc5cbfe448ecbc7c3a6f8882595edf", "lon": -77.00589616666667, "lat": 38.9021465, "type": "electric_scooter", "fusion_lon": 0.0, "is_reserved": 0, "bike_id": "e9bc5cbfe448ecbc7c3a6f8882595edf", "fusion_lat": 0.0, "is_disabled": 0, "rental_uris": {"ios": "https://dc.lft.to/lastmile_qr_scan", "android": "https://dc.lft.to/lastmile_qr_scan"}}, {"name": "77679914ede6a995c05434b1693de267", "lon": -77.02595466666666, "lat": 38.90752616666666, "type": "electric_scooter", "fusion_lon": 0.0, "is_reserved": 0, "bike_id": "77679914ede6a995c05434b1693de267", "fusion_lat": 0.0, "is_disabled": 0, "rental_uris": {"ios": "https://dc.lft.to/lastmile_qr_scan", "android": "https://dc.lft.to/lastmile_qr_scan"}}, {"name": "a0aadbe6023c2876bbf7c94ef0623703", "lon": -77.02165283333333, "lat": 38.90207783333334, "type": "electric_scooter", "fusion_lon": 0.0, "is_reserved": 0, "bike_id": "a0aadbe6023c2876bbf7c94ef0623703", "fusion_lat": 0.0, "is_disabled": 0, "rental_uris": {"ios": "https://dc.lft.to/lastmile_qr_scan", "android": "https://dc.lft.to/lastmile_qr_scan"}}, {"name": "7871480875d0f72df54856440771445d", "lon": -76.9337085, "lat": 38.89911766666667, "type": "electric_scooter", "fusion_lon": 0.0, "is_reserved": 0, "bike_id": "7871480875d0f72df54856440771445d", "fusion_lat": 0.0, "is_disabled": 0, "rental_uris": {"ios": "https://dc.lft.to/lastmile_qr_scan", "android": "https://dc.lft.to/lastmile_qr_scan"}}, {"name": "c91db1cce3a337c19d7597be68de585c", "lon": -77.01513333333334, "lat": 38.91046466666667, "type": "electric_scooter", "fusion_lon": 0.0, "is_reserved": 0, "bike_id": "c91db1cce3a337c19d7597be68de585c", "fusion_lat": 0.0, "is_disabled": 0, "rental_uris": {"ios": "https://dc.lft.to/lastmile_qr_scan", "android": "https://dc.lft.to/lastmile_qr_scan"}}, {"name": "46e506cdc8023cf1d593a8cdc84197bc", "lon": -76.98093766666666, "lat": 38.9211365, "type": "electric_bike", "fusion_lon": 0.0, "is_reserved": 0, "bike_id": "46e506cdc8023cf1d593a8cdc84197bc", "fusion_lat": 0.0, "is_disabled": 0, "rental_uris": {"ios": "https://dc.lft.to/lastmile_qr_scan", "android": "https://dc.lft.to/lastmile_qr_scan"}}, {"name": "5fe957588652ef78e3f49bc909c06ccf", "lon": -77.04097266666666, "lat": 38.91774783333334, "type": "electric_scooter", "fusion_lon": 0.0, "is_reserved": 0, "bike_id": "5fe957588652ef78e3f49bc909c06ccf", "fusion_lat": 0.0, "is_disabled": 0, "rental_uris": {"ios": "https://dc.lft.to/lastmile_qr_scan", "android": "https://dc.lft.to/lastmile_qr_scan"}}, {"name": "47e786a819d5457786fb6a6e4e36d0ec", "lon": -76.90975233333333, "lat": 38.8543595, "type": "electric_bike", "fusion_lon": 0.0, "is_reserved": 0, "bike_id": "47e786a819d5457786fb6a6e4e36d0ec", "fusion_lat": 0.0, "is_disabled": 0, "rental_uris": {"ios": "https://dc.lft.to/lastmile_qr_scan", "android": "https://dc.lft.to/lastmile_qr_scan"}}, {"name": "97ea82b54b9b98ee43e810b4de6cdb38", "lon": -77.07420466666666, "lat": 38.91305533333333, "type": "electric_scooter", "fusion_lon": 0.0, "is_reserved": 0, "bike_id": "97ea82b54b9b98ee43e810b4de6cdb38", "fusion_lat": 0.0, "is_disabled": 0, "rental_uris": {"ios": "https://dc.lft.to/lastmile_qr_scan", "android": "https://dc.lft.to/lastmile_qr_scan"}}, {"name": "d5371499c63c268336ac8866ec93d4af", "lon": -77.04674483333334, "lat": 38.90039516666667, "type": "electric_scooter", "fusion_lon": 0.0, "is_reserved": 0, "bike_id": "d5371499c63c268336ac8866ec93d4af", "fusion_lat": 0.0, "is_disabled": 0, "rental_uris": {"ios": "https://dc.lft.to/lastmile_qr_scan", "android": "https://dc.lft.to/lastmile_qr_scan"}}, {"name": "4126d870586a3fffbe38ff46cd05ef5c", "lon": -77.02501233333334, "lat": 38.930417166666665, "type": "electric_scooter", "fusion_lon": 0.0, "is_reserved": 0, "bike_id": "4126d870586a3fffbe38ff46cd05ef5c", "fusion_lat": 0.0, "is_disabled": 0, "rental_uris": {"ios": "https://dc.lft.to/lastmile_qr_scan", "android": "https://dc.lft.to/lastmile_qr_scan"}}, {"name": "e27db214cd305875fdc1ef380a3d624c", "lon": -77.0182365, "lat": 38.9228275, "type": "electric_scooter", "fusion_lon": 0.0, "is_reserved": 0, "bike_id": "e27db214cd305875fdc1ef380a3d624c", "fusion_lat": 0.0, "is_disabled": 0, "rental_uris": {"ios": "https://dc.lft.to/lastmile_qr_scan", "android": "https://dc.lft.to/lastmile_qr_scan"}}, {"name": "32908a67ea0d05b1ae29a9944c3f3459", "lon": -77.04679133333333, "lat": 38.895079833333334, "type": "electric_scooter", "fusion_lon": 0.0, "is_reserved": 0, "bike_id": "32908a67ea0d05b1ae29a9944c3f3459", "fusion_lat": 0.0, "is_disabled": 0, "rental_uris": {"ios": "https://dc.lft.to/lastmile_qr_scan", "android": "https://dc.lft.to/lastmile_qr_scan"}}, {"name": "24c1773ee9aecc796ddfdc6ee22560a0", "lon": -77.0404755, "lat": 38.904432, "type": "electric_scooter", "fusion_lon": 0.0, "is_reserved": 0, "bike_id": "24c1773ee9aecc796ddfdc6ee22560a0", "fusion_lat": 0.0, "is_disabled": 0, "rental_uris": {"ios": "https://dc.lft.to/lastmile_qr_scan", "android": "https://dc.lft.to/lastmile_qr_scan"}}, {"name": "9c36ad13a2c5291e5801c5b3a207345e", "lon": -77.07446583333333, "lat": 38.912665833333335, "type": "electric_bike", "fusion_lon": 0.0, "is_reserved": 0, "bike_id": "9c36ad13a2c5291e5801c5b3a207345e", "fusion_lat": 0.0, "is_disabled": 0, "rental_uris": {"ios": "https://dc.lft.to/lastmile_qr_scan", "android": "https://dc.lft.to/lastmile_qr_scan"}}, {"name": "ebef259ee5ce5070cf6745174e736f87", "lon": -76.9462985, "lat": 38.898411333333335, "type": "electric_scooter", "fusion_lon": 0.0, "is_reserved": 0, "bike_id": "ebef259ee5ce5070cf6745174e736f87", "fusion_lat": 0.0, "is_disabled": 0, "rental_uris": {"ios": "https://dc.lft.to/lastmile_qr_scan", "android": "https://dc.lft.to/lastmile_qr_scan"}}, {"name": "883f60d3ce595d9de69fd69fa3b466ba", "lon": -77.026328, "lat": 38.8967545, "type": "electric_scooter", "fusion_lon": 0.0, "is_reserved": 0, "bike_id": "883f60d3ce595d9de69fd69fa3b466ba", "fusion_lat": 0.0, "is_disabled": 0, "rental_uris": {"ios": "https://dc.lft.to/lastmile_qr_scan", "android": "https://dc.lft.to/lastmile_qr_scan"}}, {"name": "d867f9d92f50863d5058e0301e379c23", "lon": -76.93614966666667, "lat": 38.886699666666665, "type": "electric_scooter", "fusion_lon": 0.0, "is_reserved": 0, "bike_id": "d867f9d92f50863d5058e0301e379c23", "fusion_lat": 0.0, "is_disabled": 0, "rental_uris": {"ios": "https://dc.lft.to/lastmile_qr_scan", "android": "https://dc.lft.to/lastmile_qr_scan"}}, {"name": "f1209623b62b98f5b82fdcfd0e2ad555", "lon": -77.04554633333333, "lat": 38.924223, "type": "electric_scooter", "fusion_lon": 0.0, "is_reserved": 0, "bike_id": "f1209623b62b98f5b82fdcfd0e2ad555", "fusion_lat": 0.0, "is_disabled": 0, "rental_uris": {"ios": "https://dc.lft.to/lastmile_qr_scan", "android": "https://dc.lft.to/lastmile_qr_scan"}}, {"name": "ab2f6c74b55d6c79727732e3bafc4571", "lon": -77.00626733333333, "lat": 38.832673166666666, "type": "electric_scooter", "fusion_lon": 0.0, "is_reserved": 0, "bike_id": "ab2f6c74b55d6c79727732e3bafc4571", "fusion_lat": 0.0, "is_disabled": 0, "rental_uris": {"ios": "https://dc.lft.to/lastmile_qr_scan", "android": "https://dc.lft.to/lastmile_qr_scan"}}, {"name": "a63d90d3f5efcaf67d511de7c43200b8", "lon": -77.043432, "lat": 38.90221583333334, "type": "electric_scooter", "fusion_lon": 0.0, "is_reserved": 0, "bike_id": "a63d90d3f5efcaf67d511de7c43200b8", "fusion_lat": 0.0, "is_disabled": 0, "rental_uris": {"ios": "https://dc.lft.to/lastmile_qr_scan", "android": "https://dc.lft.to/lastmile_qr_scan"}}, {"name": "e065eab9e36ccd6fb0b4db78fbc9a7f1", "lon": -76.98399216666667, "lat": 38.8669265, "type": "electric_scooter", "fusion_lon": 0.0, "is_reserved": 0, "bike_id": "e065eab9e36ccd6fb0b4db78fbc9a7f1", "fusion_lat": 0.0, "is_disabled": 0, "rental_uris": {"ios": "https://dc.lft.to/lastmile_qr_scan", "android": "https://dc.lft.to/lastmile_qr_scan"}}, {"name": "415b594386f0b575186f8d619855a6e0", "lon": -76.9987655, "lat": 38.900487166666665, "type": "electric_scooter", "fusion_lon": 0.0, "is_reserved": 0, "bike_id": "415b594386f0b575186f8d619855a6e0", "fusion_lat": 0.0, "is_disabled": 0, "rental_uris": {"ios": "https://dc.lft.to/lastmile_qr_scan", "android": "https://dc.lft.to/lastmile_qr_scan"}}, {"name": "d9db8380761882d1420e2fe47fc19fa9", "lon": -77.03705733333334, "lat": 38.92035933333333, "type": "electric_bike", "fusion_lon": 0.0, "is_reserved": 0, "bike_id": "d9db8380761882d1420e2fe47fc19fa9", "fusion_lat": 0.0, "is_disabled": 0, "rental_uris": {"ios": "https://dc.lft.to/lastmile_qr_scan", "android": "https://dc.lft.to/lastmile_qr_scan"}}, {"name": "518256cd04a0e83849ae103f446d8d22", "lon": -77.02551633333333, "lat": 38.942238833333334, "type": "electric_scooter", "fusion_lon": 0.0, "is_reserved": 0, "bike_id": "518256cd04a0e83849ae103f446d8d22", "fusion_lat": 0.0, "is_disabled": 0, "rental_uris": {"ios": "https://dc.lft.to/lastmile_qr_scan", "android": "https://dc.lft.to/lastmile_qr_scan"}}, {"name": "aded8fdfca41e463901c3bfb01615bc9", "lon": -77.043033, "lat": 38.9231565, "type": "electric_scooter", "fusion_lon": 0.0, "is_reserved": 0, "bike_id": "aded8fdfca41e463901c3bfb01615bc9", "fusion_lat": 0.0, "is_disabled": 0, "rental_uris": {"ios": "https://dc.lft.to/lastmile_qr_scan", "android": "https://dc.lft.to/lastmile_qr_scan"}}, {"name": "ff7e10f962d2e0905c7fb74c4594b1d0", "lon": -77.06075266666667, "lat": 38.885869166666666, "type": "electric_bike", "fusion_lon": 0.0, "is_reserved": 0, "bike_id": "ff7e10f962d2e0905c7fb74c4594b1d0", "fusion_lat": 0.0, "is_disabled": 0, "rental_uris": {"ios": "https://dc.lft.to/lastmile_qr_scan", "android": "https://dc.lft.to/lastmile_qr_scan"}}, {"name": "58d73e1b9be96a0ee85b9ff267e2c68c", "lon": -77.13100466666667, "lat": 39.02434516666667, "type": "electric_bike", "fusion_lon": 0.0, "is_reserved": 0, "bike_id": "58d73e1b9be96a0ee85b9ff267e2c68c", "fusion_lat": 0.0, "is_disabled": 0, "rental_uris": {"ios": "https://dc.lft.to/lastmile_qr_scan", "android": "https://dc.lft.to/lastmile_qr_scan"}}, {"name": "5acd64a8194fc2f892d221da6c87e5e5", "lon": -77.000747, "lat": 38.90143116666667, "type": "electric_scooter", "fusion_lon": 0.0, "is_reserved": 0, "bike_id": "5acd64a8194fc2f892d221da6c87e5e5", "fusion_lat": 0.0, "is_disabled": 0, "rental_uris": {"ios": "https://dc.lft.to/lastmile_qr_scan", "android": "https://dc.lft.to/lastmile_qr_scan"}}, {"name": "e1a4f249510f00735f91d462fc5afc66", "lon": -77.013882, "lat": 38.88731966666667, "type": "electric_scooter", "fusion_lon": 0.0, "is_reserved": 0, "bike_id": "e1a4f249510f00735f91d462fc5afc66", "fusion_lat": 0.0, "is_disabled": 0, "rental_uris": {"ios": "https://dc.lft.to/lastmile_qr_scan", "android": "https://dc.lft.to/lastmile_qr_scan"}}, {"name": "be229cb8e0fe3372a193c663e4d4d69e", "lon": -77.023917, "lat": 38.91654466666667, "type": "electric_scooter", "fusion_lon": 0.0, "is_reserved": 0, "bike_id": "be229cb8e0fe3372a193c663e4d4d69e", "fusion_lat": 0.0, "is_disabled": 0, "rental_uris": {"ios": "https://dc.lft.to/lastmile_qr_scan", "android": "https://dc.lft.to/lastmile_qr_scan"}}, {"name": "84051492a0d2871d8a8c93215c36b0f3", "lon": -77.0296055, "lat": 38.93985833333333, "type": "electric_scooter", "fusion_lon": 0.0, "is_reserved": 0, "bike_id": "84051492a0d2871d8a8c93215c36b0f3", "fusion_lat": 0.0, "is_disabled": 0, "rental_uris": {"ios": "https://dc.lft.to/lastmile_qr_scan", "android": "https://dc.lft.to/lastmile_qr_scan"}}, {"name": "c01ae7361cb93bb1d6e0bb91a992a1f6", "lon": -77.094821, "lat": 39.0304465, "type": "electric_bike", "fusion_lon": 0.0, "is_reserved": 0, "bike_id": "c01ae7361cb93bb1d6e0bb91a992a1f6", "fusion_lat": 0.0, "is_disabled": 0, "rental_uris": {"ios": "https://dc.lft.to/lastmile_qr_scan", "android": "https://dc.lft.to/lastmile_qr_scan"}}, {"name": "bcd0b54190051a0211a9e7c0b47bb5a1", "lon": -77.02594133333334, "lat": 38.963944166666664, "type": "electric_scooter", "fusion_lon": 0.0, "is_reserved": 0, "bike_id": "bcd0b54190051a0211a9e7c0b47bb5a1", "fusion_lat": 0.0, "is_disabled": 0, "rental_uris": {"ios": "https://dc.lft.to/lastmile_qr_scan", "android": "https://dc.lft.to/lastmile_qr_scan"}}, {"name": "3bbbe283a15f07b41dae203922afa58e", "lon": -77.02812966666667, "lat": 38.88176166666667, "type": "electric_scooter", "fusion_lon": 0.0, "is_reserved": 0, "bike_id": "3bbbe283a15f07b41dae203922afa58e", "fusion_lat": 0.0, "is_disabled": 0, "rental_uris": {"ios": "https://dc.lft.to/lastmile_qr_scan", "android": "https://dc.lft.to/lastmile_qr_scan"}}, {"name": "9243a50fade91f97456dbb4e3de0ab2c", "lon": -77.030946, "lat": 38.931667166666664, "type": "electric_scooter", "fusion_lon": 0.0, "is_reserved": 0, "bike_id": "9243a50fade91f97456dbb4e3de0ab2c", "fusion_lat": 0.0, "is_disabled": 0, "rental_uris": {"ios": "https://dc.lft.to/lastmile_qr_scan", "android": "https://dc.lft.to/lastmile_qr_scan"}}, {"name": "3d324419c95cb846d44285f6b9f7bc02", "lon": -77.0174815, "lat": 38.88737866666666, "type": "electric_scooter", "fusion_lon": 0.0, "is_reserved": 0, "bike_id": "3d324419c95cb846d44285f6b9f7bc02", "fusion_lat": 0.0, "is_disabled": 0, "rental_uris": {"ios": "https://dc.lft.to/lastmile_qr_scan", "android": "https://dc.lft.to/lastmile_qr_scan"}}, {"name": "48ae58ebf0a4066f1447681616d2746a", "lon": -77.039697, "lat": 38.902654166666665, "type": "electric_scooter", "fusion_lon": 0.0, "is_reserved": 0, "bike_id": "48ae58ebf0a4066f1447681616d2746a", "fusion_lat": 0.0, "is_disabled": 0, "rental_uris": {"ios": "https://dc.lft.to/lastmile_qr_scan", "android": "https://dc.lft.to/lastmile_qr_scan"}}, {"name": "5f5efef6b899a3026106b8d286de77d6", "lon": -77.02709783333333, "lat": 38.906688833333334, "type": "electric_scooter", "fusion_lon": 0.0, "is_reserved": 0, "bike_id": "5f5efef6b899a3026106b8d286de77d6", "fusion_lat": 0.0, "is_disabled": 0, "rental_uris": {"ios": "https://dc.lft.to/lastmile_qr_scan", "android": "https://dc.lft.to/lastmile_qr_scan"}}, {"name": "5575d756a9fa603b8d5842b51c6621f1", "lon": -76.98714733333334, "lat": 38.86625983333333, "type": "electric_scooter", "fusion_lon": 0.0, "is_reserved": 0, "bike_id": "5575d756a9fa603b8d5842b51c6621f1", "fusion_lat": 0.0, "is_disabled": 0, "rental_uris": {"ios": "https://dc.lft.to/lastmile_qr_scan", "android": "https://dc.lft.to/lastmile_qr_scan"}}, {"name": "eaa8fc38d2c2d885b25f2df0d71e1249", "lon": -77.04342683333333, "lat": 38.90788033333333, "type": "electric_scooter", "fusion_lon": 0.0, "is_reserved": 0, "bike_id": "eaa8fc38d2c2d885b25f2df0d71e1249", "fusion_lat": 0.0, "is_disabled": 0, "rental_uris": {"ios": "https://dc.lft.to/lastmile_qr_scan", "android": "https://dc.lft.to/lastmile_qr_scan"}}, {"name": "ae4c61c19f3257f9649ae54776e4af07", "lon": -77.02637183333333, "lat": 38.904217, "type": "electric_scooter", "fusion_lon": 0.0, "is_reserved": 0, "bike_id": "ae4c61c19f3257f9649ae54776e4af07", "fusion_lat": 0.0, "is_disabled": 0, "rental_uris": {"ios": "https://dc.lft.to/lastmile_qr_scan", "android": "https://dc.lft.to/lastmile_qr_scan"}}, {"name": "470002256110661334e3ce46b6227420", "lon": -77.019832, "lat": 38.95029433333333, "type": "electric_scooter", "fusion_lon": 0.0, "is_reserved": 0, "bike_id": "470002256110661334e3ce46b6227420", "fusion_lat": 0.0, "is_disabled": 0, "rental_uris": {"ios": "https://dc.lft.to/lastmile_qr_scan", "android": "https://dc.lft.to/lastmile_qr_scan"}}, {"name": "58aa1a64dd6b2ca9d8d70f68b27b4f67", "lon": -76.94880083333334, "lat": 38.89548166666667, "type": "electric_scooter", "fusion_lon": 0.0, "is_reserved": 0, "bike_id": "58aa1a64dd6b2ca9d8d70f68b27b4f67", "fusion_lat": 0.0, "is_disabled": 0, "rental_uris": {"ios": "https://dc.lft.to/lastmile_qr_scan", "android": "https://dc.lft.to/lastmile_qr_scan"}}, {"name": "1e3269f35e7be7f9b3fc7f13761f068d", "lon": -77.03298483333333, "lat": 38.9098535, "type": "electric_scooter", "fusion_lon": 0.0, "is_reserved": 0, "bike_id": "1e3269f35e7be7f9b3fc7f13761f068d", "fusion_lat": 0.0, "is_disabled": 0, "rental_uris": {"ios": "https://dc.lft.to/lastmile_qr_scan", "android": "https://dc.lft.to/lastmile_qr_scan"}}, {"name": "23f0402588eed3846ef6a267443b0821", "lon": -77.04650483333333, "lat": 38.915927833333335, "type": "electric_scooter", "fusion_lon": 0.0, "is_reserved": 0, "bike_id": "23f0402588eed3846ef6a267443b0821", "fusion_lat": 0.0, "is_disabled": 0, "rental_uris": {"ios": "https://dc.lft.to/lastmile_qr_scan", "android": "https://dc.lft.to/lastmile_qr_scan"}}, {"name": "3ddaf8124096ba37971b12bc93a8f9b1", "lon": -77.06922866666666, "lat": 38.907742666666664, "type": "electric_scooter", "fusion_lon": 0.0, "is_reserved": 0, "bike_id": "3ddaf8124096ba37971b12bc93a8f9b1", "fusion_lat": 0.0, "is_disabled": 0, "rental_uris": {"ios": "https://dc.lft.to/lastmile_qr_scan", "android": "https://dc.lft.to/lastmile_qr_scan"}}, {"name": "095f8e0509562cc879d3d65970ea3375", "lon": -77.013517, "lat": 38.869677, "type": "electric_scooter", "fusion_lon": 0.0, "is_reserved": 0, "bike_id": "095f8e0509562cc879d3d65970ea3375", "fusion_lat": 0.0, "is_disabled": 0, "rental_uris": {"ios": "https://dc.lft.to/lastmile_qr_scan", "android": "https://dc.lft.to/lastmile_qr_scan"}}, {"name": "0f697238ba9b1b318470b852923b98bc", "lon": -77.11848433333333, "lat": 38.8773325, "type": "electric_bike", "fusion_lon": 0.0, "is_reserved": 0, "bike_id": "0f697238ba9b1b318470b852923b98bc", "fusion_lat": 0.0, "is_disabled": 0, "rental_uris": {"ios": "https://dc.lft.to/lastmile_qr_scan", "android": "https://dc.lft.to/lastmile_qr_scan"}}, {"name": "d3e8295e53b5fd6106f409615f25c2d3", "lon": -77.02366083333334, "lat": 38.902189166666666, "type": "electric_scooter", "fusion_lon": 0.0, "is_reserved": 0, "bike_id": "d3e8295e53b5fd6106f409615f25c2d3", "fusion_lat": 0.0, "is_disabled": 0, "rental_uris": {"ios": "https://dc.lft.to/lastmile_qr_scan", "android": "https://dc.lft.to/lastmile_qr_scan"}}, {"name": "03d015137ed697a3a10e97025c9eea6e", "lon": -77.00758366666666, "lat": 38.92674483333333, "type": "electric_scooter", "fusion_lon": 0.0, "is_reserved": 0, "bike_id": "03d015137ed697a3a10e97025c9eea6e", "fusion_lat": 0.0, "is_disabled": 0, "rental_uris": {"ios": "https://dc.lft.to/lastmile_qr_scan", "android": "https://dc.lft.to/lastmile_qr_scan"}}, {"name": "345b16e1b2807650e8ca0f46459a40a7", "lon": -76.99379816666666, "lat": 38.9064145, "type": "electric_scooter", "fusion_lon": 0.0, "is_reserved": 0, "bike_id": "345b16e1b2807650e8ca0f46459a40a7", "fusion_lat": 0.0, "is_disabled": 0, "rental_uris": {"ios": "https://dc.lft.to/lastmile_qr_scan", "android": "https://dc.lft.to/lastmile_qr_scan"}}, {"name": "0226599b0490f07aedb2f40da49130c5", "lon": -76.93546616666667, "lat": 38.951849333333335, "type": "electric_bike", "fusion_lon": 0.0, "is_reserved": 0, "bike_id": "0226599b0490f07aedb2f40da49130c5", "fusion_lat": 0.0, "is_disabled": 0, "rental_uris": {"ios": "https://dc.lft.to/lastmile_qr_scan", "android": "https://dc.lft.to/lastmile_qr_scan"}}, {"name": "3cc3c99912013967001a8b05eabb6694", "lon": -77.002134, "lat": 38.924521166666665, "type": "electric_scooter", "fusion_lon": 0.0, "is_reserved": 0, "bike_id": "3cc3c99912013967001a8b05eabb6694", "fusion_lat": 0.0, "is_disabled": 0, "rental_uris": {"ios": "https://dc.lft.to/lastmile_qr_scan", "android": "https://dc.lft.to/lastmile_qr_scan"}}, {"name": "9f05fe45a6e85971da5cc94958709a5c", "lon": -77.02489883333334, "lat": 38.9386505, "type": "electric_scooter", "fusion_lon": 0.0, "is_reserved": 0, "bike_id": "9f05fe45a6e85971da5cc94958709a5c", "fusion_lat": 0.0, "is_disabled": 0, "rental_uris": {"ios": "https://dc.lft.to/lastmile_qr_scan", "android": "https://dc.lft.to/lastmile_qr_scan"}}, {"name": "2c02460caecb694982b988b878396197", "lon": -77.04689433333333, "lat": 38.8922355, "type": "electric_scooter", "fusion_lon": 0.0, "is_reserved": 0, "bike_id": "2c02460caecb694982b988b878396197", "fusion_lat": 0.0, "is_disabled": 0, "rental_uris": {"ios": "https://dc.lft.to/lastmile_qr_scan", "android": "https://dc.lft.to/lastmile_qr_scan"}}, {"name": "775ea8e9e46c841ca64a2eb743b975a5", "lon": -76.9987265, "lat": 38.900334666666666, "type": "electric_scooter", "fusion_lon": 0.0, "is_reserved": 0, "bike_id": "775ea8e9e46c841ca64a2eb743b975a5", "fusion_lat": 0.0, "is_disabled": 0, "rental_uris": {"ios": "https://dc.lft.to/lastmile_qr_scan", "android": "https://dc.lft.to/lastmile_qr_scan"}}, {"name": "589f483d7e9c267d02d6502b58ebdf3e", "lon": -77.01051216666667, "lat": 38.89793383333333, "type": "electric_bike", "fusion_lon": 0.0, "is_reserved": 0, "bike_id": "589f483d7e9c267d02d6502b58ebdf3e", "fusion_lat": 0.0, "is_disabled": 0, "rental_uris": {"ios": "https://dc.lft.to/lastmile_qr_scan", "android": "https://dc.lft.to/lastmile_qr_scan"}}, {"name": "4934166c530915f5de88f72970650b6d", "lon": -77.03514783333334, "lat": 38.92154683333333, "type": "electric_scooter", "fusion_lon": 0.0, "is_reserved": 0, "bike_id": "4934166c530915f5de88f72970650b6d", "fusion_lat": 0.0, "is_disabled": 0, "rental_uris": {"ios": "https://dc.lft.to/lastmile_qr_scan", "android": "https://dc.lft.to/lastmile_qr_scan"}}, {"name": "b522972c1eede77969b212af336645ec", "lon": -76.97244433333333, "lat": 38.854579666666666, "type": "electric_bike", "fusion_lon": 0.0, "is_reserved": 0, "bike_id": "b522972c1eede77969b212af336645ec", "fusion_lat": 0.0, "is_disabled": 0, "rental_uris": {"ios": "https://dc.lft.to/lastmile_qr_scan", "android": "https://dc.lft.to/lastmile_qr_scan"}}, {"name": "629146cfa7ac6686102473d7b0490e28", "lon": -77.02552233333333, "lat": 38.9422205, "type": "electric_scooter", "fusion_lon": 0.0, "is_reserved": 0, "bike_id": "629146cfa7ac6686102473d7b0490e28", "fusion_lat": 0.0, "is_disabled": 0, "rental_uris": {"ios": "https://dc.lft.to/lastmile_qr_scan", "android": "https://dc.lft.to/lastmile_qr_scan"}}, {"name": "5064b8798b4209d5d816795ae8f60281", "lon": -77.03838133333333, "lat": 38.9087585, "type": "electric_scooter", "fusion_lon": 0.0, "is_reserved": 0, "bike_id": "5064b8798b4209d5d816795ae8f60281", "fusion_lat": 0.0, "is_disabled": 0, "rental_uris": {"ios": "https://dc.lft.to/lastmile_qr_scan", "android": "https://dc.lft.to/lastmile_qr_scan"}}, {"name": "943dddfdc730325899d67e2cbca6e3be", "lon": -77.01996866666667, "lat": 38.93053616666667, "type": "electric_scooter", "fusion_lon": 0.0, "is_reserved": 0, "bike_id": "943dddfdc730325899d67e2cbca6e3be", "fusion_lat": 0.0, "is_disabled": 0, "rental_uris": {"ios": "https://dc.lft.to/lastmile_qr_scan", "android": "https://dc.lft.to/lastmile_qr_scan"}}, {"name": "ddd8c68c825c3e59a33e1c0dc1f76d6b", "lon": -77.00776166666667, "lat": 38.92668883333333, "type": "electric_scooter", "fusion_lon": 0.0, "is_reserved": 0, "bike_id": "ddd8c68c825c3e59a33e1c0dc1f76d6b", "fusion_lat": 0.0, "is_disabled": 0, "rental_uris": {"ios": "https://dc.lft.to/lastmile_qr_scan", "android": "https://dc.lft.to/lastmile_qr_scan"}}, {"name": "d8f5ef446ce3791a4e2db25341990f9f", "lon": -77.05324033333333, "lat": 38.927926166666666, "type": "electric_scooter", "fusion_lon": 0.0, "is_reserved": 0, "bike_id": "d8f5ef446ce3791a4e2db25341990f9f", "fusion_lat": 0.0, "is_disabled": 0, "rental_uris": {"ios": "https://dc.lft.to/lastmile_qr_scan", "android": "https://dc.lft.to/lastmile_qr_scan"}}, {"name": "2745b986cca38ca644c20463c6e1e118", "lon": -77.02988683333334, "lat": 38.97440533333334, "type": "electric_bike", "fusion_lon": 0.0, "is_reserved": 0, "bike_id": "2745b986cca38ca644c20463c6e1e118", "fusion_lat": 0.0, "is_disabled": 0, "rental_uris": {"ios": "https://dc.lft.to/lastmile_qr_scan", "android": "https://dc.lft.to/lastmile_qr_scan"}}, {"name": "ed73774e392b20835f393fce46ddde19", "lon": -76.9514075, "lat": 38.89038566666667, "type": "electric_scooter", "fusion_lon": 0.0, "is_reserved": 0, "bike_id": "ed73774e392b20835f393fce46ddde19", "fusion_lat": 0.0, "is_disabled": 0, "rental_uris": {"ios": "https://dc.lft.to/lastmile_qr_scan", "android": "https://dc.lft.to/lastmile_qr_scan"}}, {"name": "5a82903d0867e05d2a9ab6eeada2e740", "lon": -77.0262645, "lat": 38.962202166666664, "type": "electric_bike", "fusion_lon": 0.0, "is_reserved": 0, "bike_id": "5a82903d0867e05d2a9ab6eeada2e740", "fusion_lat": 0.0, "is_disabled": 0, "rental_uris": {"ios": "https://dc.lft.to/lastmile_qr_scan", "android": "https://dc.lft.to/lastmile_qr_scan"}}, {"name": "b67f771a23c677c71a5baab231700e81", "lon": -77.03855266666666, "lat": 38.9320075, "type": "electric_scooter", "fusion_lon": 0.0, "is_reserved": 0, "bike_id": "b67f771a23c677c71a5baab231700e81", "fusion_lat": 0.0, "is_disabled": 0, "rental_uris": {"ios": "https://dc.lft.to/lastmile_qr_scan", "android": "https://dc.lft.to/lastmile_qr_scan"}}, {"name": "d6600ef1bbdff35290105c4806cd6f66", "lon": -77.02985766666667, "lat": 38.895692, "type": "electric_scooter", "fusion_lon": 0.0, "is_reserved": 0, "bike_id": "d6600ef1bbdff35290105c4806cd6f66", "fusion_lat": 0.0, "is_disabled": 0, "rental_uris": {"ios": "https://dc.lft.to/lastmile_qr_scan", "android": "https://dc.lft.to/lastmile_qr_scan"}}, {"name": "01c6d5932ecbb46420bcb282e7f18939", "lon": -77.03642, "lat": 38.922493, "type": "electric_scooter", "fusion_lon": 0.0, "is_reserved": 0, "bike_id": "01c6d5932ecbb46420bcb282e7f18939", "fusion_lat": 0.0, "is_disabled": 0, "rental_uris": {"ios": "https://dc.lft.to/lastmile_qr_scan", "android": "https://dc.lft.to/lastmile_qr_scan"}}, {"name": "a535a127c83be22bc5e9e6bbb144c892", "lon": -77.03277016666667, "lat": 38.900328333333334, "type": "electric_scooter", "fusion_lon": 0.0, "is_reserved": 0, "bike_id": "a535a127c83be22bc5e9e6bbb144c892", "fusion_lat": 0.0, "is_disabled": 0, "rental_uris": {"ios": "https://dc.lft.to/lastmile_qr_scan", "android": "https://dc.lft.to/lastmile_qr_scan"}}, {"name": "32eaa1486f1ab96230291939730ec305", "lon": -77.01698333333333, "lat": 38.974983333333334, "type": "electric_scooter", "fusion_lon": 0.0, "is_reserved": 0, "bike_id": "32eaa1486f1ab96230291939730ec305", "fusion_lat": 0.0, "is_disabled": 0, "rental_uris": {"ios": "https://dc.lft.to/lastmile_qr_scan", "android": "https://dc.lft.to/lastmile_qr_scan"}}, {"name": "9dacee239a3bf85bc324afada4d9367a", "lon": -77.36089783333334, "lat": 38.939586, "type": "electric_bike", "fusion_lon": 0.0, "is_reserved": 0, "bike_id": "9dacee239a3bf85bc324afada4d9367a", "fusion_lat": 0.0, "is_disabled": 0, "rental_uris": {"ios": "https://dc.lft.to/lastmile_qr_scan", "android": "https://dc.lft.to/lastmile_qr_scan"}}, {"name": "c908a79df2fb2d51f6f99b2386629d74", "lon": -77.00746416666667, "lat": 38.92676383333333, "type": "electric_scooter", "fusion_lon": 0.0, "is_reserved": 0, "bike_id": "c908a79df2fb2d51f6f99b2386629d74", "fusion_lat": 0.0, "is_disabled": 0, "rental_uris": {"ios": "https://dc.lft.to/lastmile_qr_scan", "android": "https://dc.lft.to/lastmile_qr_scan"}}, {"name": "e1b887bc20be1769f6d6788d9ad630fa", "lon": -77.02196366666666, "lat": 38.901527, "type": "electric_scooter", "fusion_lon": 0.0, "is_reserved": 0, "bike_id": "e1b887bc20be1769f6d6788d9ad630fa", "fusion_lat": 0.0, "is_disabled": 0, "rental_uris": {"ios": "https://dc.lft.to/lastmile_qr_scan", "android": "https://dc.lft.to/lastmile_qr_scan"}}, {"name": "e7c06028af1ad9675ddeb9a301e1c9d6", "lon": -76.97702883333334, "lat": 38.94915483333333, "type": "electric_bike", "fusion_lon": 0.0, "is_reserved": 0, "bike_id": "e7c06028af1ad9675ddeb9a301e1c9d6", "fusion_lat": 0.0, "is_disabled": 0, "rental_uris": {"ios": "https://dc.lft.to/lastmile_qr_scan", "android": "https://dc.lft.to/lastmile_qr_scan"}}, {"name": "25c1bb01881a52f71cc3480f5683db73", "lon": -77.03976566666667, "lat": 38.91192616666667, "type": "electric_scooter", "fusion_lon": 0.0, "is_reserved": 0, "bike_id": "25c1bb01881a52f71cc3480f5683db73", "fusion_lat": 0.0, "is_disabled": 0, "rental_uris": {"ios": "https://dc.lft.to/lastmile_qr_scan", "android": "https://dc.lft.to/lastmile_qr_scan"}}, {"name": "69203db79f1d9f2ca69274daf1e5d71f", "lon": -77.0503855, "lat": 38.9235775, "type": "electric_scooter", "fusion_lon": 0.0, "is_reserved": 0, "bike_id": "69203db79f1d9f2ca69274daf1e5d71f", "fusion_lat": 0.0, "is_disabled": 0, "rental_uris": {"ios": "https://dc.lft.to/lastmile_qr_scan", "android": "https://dc.lft.to/lastmile_qr_scan"}}, {"name": "1d524d17b1f322082a25b1bdeda08349", "lon": -77.0465075, "lat": 38.905553166666664, "type": "electric_scooter", "fusion_lon": 0.0, "is_reserved": 0, "bike_id": "1d524d17b1f322082a25b1bdeda08349", "fusion_lat": 0.0, "is_disabled": 0, "rental_uris": {"ios": "https://dc.lft.to/lastmile_qr_scan", "android": "https://dc.lft.to/lastmile_qr_scan"}}, {"name": "d9fd11d38360c5817a367d46fea53f64", "lon": -77.0174565, "lat": 38.883339, "type": "electric_scooter", "fusion_lon": 0.0, "is_reserved": 0, "bike_id": "d9fd11d38360c5817a367d46fea53f64", "fusion_lat": 0.0, "is_disabled": 0, "rental_uris": {"ios": "https://dc.lft.to/lastmile_qr_scan", "android": "https://dc.lft.to/lastmile_qr_scan"}}, {"name": "6f670cc07a9e8ff3798dc5f63f320388", "lon": -77.0314805, "lat": 38.9110785, "type": "electric_scooter", "fusion_lon": 0.0, "is_reserved": 0, "bike_id": "6f670cc07a9e8ff3798dc5f63f320388", "fusion_lat": 0.0, "is_disabled": 0, "rental_uris": {"ios": "https://dc.lft.to/lastmile_qr_scan", "android": "https://dc.lft.to/lastmile_qr_scan"}}, {"name": "59bf1419b109ac49cb06db0cb5e03970", "lon": -76.88374183333333, "lat": 38.998347333333335, "type": "electric_bike", "fusion_lon": 0.0, "is_reserved": 0, "bike_id": "59bf1419b109ac49cb06db0cb5e03970", "fusion_lat": 0.0, "is_disabled": 0, "rental_uris": {"ios": "https://dc.lft.to/lastmile_qr_scan", "android": "https://dc.lft.to/lastmile_qr_scan"}}, {"name": "2f4505a7532079ef7da3646086b77aad", "lon": -77.00735783333333, "lat": 38.8984595, "type": "electric_scooter", "fusion_lon": 0.0, "is_reserved": 0, "bike_id": "2f4505a7532079ef7da3646086b77aad", "fusion_lat": 0.0, "is_disabled": 0, "rental_uris": {"ios": "https://dc.lft.to/lastmile_qr_scan", "android": "https://dc.lft.to/lastmile_qr_scan"}}, {"name": "896d07bf42f90b2fe11ecfab95d34496", "lon": -77.02531766666667, "lat": 38.942586, "type": "electric_scooter", "fusion_lon": 0.0, "is_reserved": 0, "bike_id": "896d07bf42f90b2fe11ecfab95d34496", "fusion_lat": 0.0, "is_disabled": 0, "rental_uris": {"ios": "https://dc.lft.to/lastmile_qr_scan", "android": "https://dc.lft.to/lastmile_qr_scan"}}, {"name": "72cc4999a5bd5bb107c75238970cb827", "lon": -77.05171733333333, "lat": 38.923417666666666, "type": "electric_scooter", "fusion_lon": 0.0, "is_reserved": 0, "bike_id": "72cc4999a5bd5bb107c75238970cb827", "fusion_lat": 0.0, "is_disabled": 0, "rental_uris": {"ios": "https://dc.lft.to/lastmile_qr_scan", "android": "https://dc.lft.to/lastmile_qr_scan"}}, {"name": "b3363b53ea0b74b6976df944b5245a02", "lon": -76.97835083333334, "lat": 38.872089, "type": "electric_scooter", "fusion_lon": 0.0, "is_reserved": 0, "bike_id": "b3363b53ea0b74b6976df944b5245a02", "fusion_lat": 0.0, "is_disabled": 0, "rental_uris": {"ios": "https://dc.lft.to/lastmile_qr_scan", "android": "https://dc.lft.to/lastmile_qr_scan"}}, {"name": "c3c4b71d052ddfa7330375e3f536117f", "lon": -77.0461975, "lat": 38.90957216666666, "type": "electric_scooter", "fusion_lon": 0.0, "is_reserved": 0, "bike_id": "c3c4b71d052ddfa7330375e3f536117f", "fusion_lat": 0.0, "is_disabled": 0, "rental_uris": {"ios": "https://dc.lft.to/lastmile_qr_scan", "android": "https://dc.lft.to/lastmile_qr_scan"}}, {"name": "0b6d463cdc9d90ecc42270eb79ff5043", "lon": -77.04277283333333, "lat": 38.913393, "type": "electric_scooter", "fusion_lon": 0.0, "is_reserved": 0, "bike_id": "0b6d463cdc9d90ecc42270eb79ff5043", "fusion_lat": 0.0, "is_disabled": 0, "rental_uris": {"ios": "https://dc.lft.to/lastmile_qr_scan", "android": "https://dc.lft.to/lastmile_qr_scan"}}, {"name": "698698035e5886364ad01577e3824930", "lon": -77.011691, "lat": 38.87233833333333, "type": "electric_bike", "fusion_lon": 0.0, "is_reserved": 0, "bike_id": "698698035e5886364ad01577e3824930", "fusion_lat": 0.0, "is_disabled": 0, "rental_uris": {"ios": "https://dc.lft.to/lastmile_qr_scan", "android": "https://dc.lft.to/lastmile_qr_scan"}}, {"name": "0a46471bd94ab29a194395417dec4ce1", "lon": -76.98552066666667, "lat": 38.90417266666667, "type": "electric_scooter", "fusion_lon": 0.0, "is_reserved": 0, "bike_id": "0a46471bd94ab29a194395417dec4ce1", "fusion_lat": 0.0, "is_disabled": 0, "rental_uris": {"ios": "https://dc.lft.to/lastmile_qr_scan", "android": "https://dc.lft.to/lastmile_qr_scan"}}, {"name": "47918adbfcb9b82a77034f1def1a0828", "lon": -77.03781016666667, "lat": 38.9168485, "type": "electric_scooter", "fusion_lon": 0.0, "is_reserved": 0, "bike_id": "47918adbfcb9b82a77034f1def1a0828", "fusion_lat": 0.0, "is_disabled": 0, "rental_uris": {"ios": "https://dc.lft.to/lastmile_qr_scan", "android": "https://dc.lft.to/lastmile_qr_scan"}}, {"name": "9b3bf749c2a4209d96a1c0014344dec7", "lon": -77.00937916666666, "lat": 38.8745745, "type": "electric_scooter", "fusion_lon": 0.0, "is_reserved": 0, "bike_id": "9b3bf749c2a4209d96a1c0014344dec7", "fusion_lat": 0.0, "is_disabled": 0, "rental_uris": {"ios": "https://dc.lft.to/lastmile_qr_scan", "android": "https://dc.lft.to/lastmile_qr_scan"}}, {"name": "a0b4839907b2f89ccef1411cfc83be19", "lon": -77.041811, "lat": 38.91978116666667, "type": "electric_scooter", "fusion_lon": 0.0, "is_reserved": 0, "bike_id": "a0b4839907b2f89ccef1411cfc83be19", "fusion_lat": 0.0, "is_disabled": 0, "rental_uris": {"ios": "https://dc.lft.to/lastmile_qr_scan", "android": "https://dc.lft.to/lastmile_qr_scan"}}, {"name": "72bf921b7c27989626ea97c53652278b", "lon": -77.02969916666666, "lat": 38.907241166666665, "type": "electric_scooter", "fusion_lon": 0.0, "is_reserved": 0, "bike_id": "72bf921b7c27989626ea97c53652278b", "fusion_lat": 0.0, "is_disabled": 0, "rental_uris": {"ios": "https://dc.lft.to/lastmile_qr_scan", "android": "https://dc.lft.to/lastmile_qr_scan"}}, {"name": "3056f4c10ff38e01d4550571a3ff4df0", "lon": -77.0207475, "lat": 38.88486266666666, "type": "electric_scooter", "fusion_lon": 0.0, "is_reserved": 0, "bike_id": "3056f4c10ff38e01d4550571a3ff4df0", "fusion_lat": 0.0, "is_disabled": 0, "rental_uris": {"ios": "https://dc.lft.to/lastmile_qr_scan", "android": "https://dc.lft.to/lastmile_qr_scan"}}, {"name": "71a75bcaac8f2568587830f397d169ac", "lon": -77.0249405, "lat": 38.9385525, "type": "electric_scooter", "fusion_lon": 0.0, "is_reserved": 0, "bike_id": "71a75bcaac8f2568587830f397d169ac", "fusion_lat": 0.0, "is_disabled": 0, "rental_uris": {"ios": "https://dc.lft.to/lastmile_qr_scan", "android": "https://dc.lft.to/lastmile_qr_scan"}}, {"name": "dbcf43e13bce1032c48ca2c03fcc54c1", "lon": -77.03467616666667, "lat": 38.902613333333335, "type": "electric_scooter", "fusion_lon": 0.0, "is_reserved": 0, "bike_id": "dbcf43e13bce1032c48ca2c03fcc54c1", "fusion_lat": 0.0, "is_disabled": 0, "rental_uris": {"ios": "https://dc.lft.to/lastmile_qr_scan", "android": "https://dc.lft.to/lastmile_qr_scan"}}, {"name": "579b8c2988919f5d4f6289c4b6e2a509", "lon": -76.98884016666666, "lat": 38.866588166666666, "type": "electric_scooter", "fusion_lon": 0.0, "is_reserved": 0, "bike_id": "579b8c2988919f5d4f6289c4b6e2a509", "fusion_lat": 0.0, "is_disabled": 0, "rental_uris": {"ios": "https://dc.lft.to/lastmile_qr_scan", "android": "https://dc.lft.to/lastmile_qr_scan"}}, {"name": "c3d450681462749db1e49e0e6d36c51b", "lon": -77.05584766666666, "lat": 38.89327566666667, "type": "electric_scooter", "fusion_lon": 0.0, "is_reserved": 0, "bike_id": "c3d450681462749db1e49e0e6d36c51b", "fusion_lat": 0.0, "is_disabled": 0, "rental_uris": {"ios": "https://dc.lft.to/lastmile_qr_scan", "android": "https://dc.lft.to/lastmile_qr_scan"}}, {"name": "8a870c5397b2cf803bba64c811898b3c", "lon": -77.07271416666667, "lat": 38.934863666666665, "type": "electric_scooter", "fusion_lon": 0.0, "is_reserved": 0, "bike_id": "8a870c5397b2cf803bba64c811898b3c", "fusion_lat": 0.0, "is_disabled": 0, "rental_uris": {"ios": "https://dc.lft.to/lastmile_qr_scan", "android": "https://dc.lft.to/lastmile_qr_scan"}}, {"name": "d13d4bbc125d740b90f3716550992920", "lon": -77.01805116666667, "lat": 38.91417233333333, "type": "electric_scooter", "fusion_lon": 0.0, "is_reserved": 0, "bike_id": "d13d4bbc125d740b90f3716550992920", "fusion_lat": 0.0, "is_disabled": 0, "rental_uris": {"ios": "https://dc.lft.to/lastmile_qr_scan", "android": "https://dc.lft.to/lastmile_qr_scan"}}, {"name": "e126d7ee030f348d598476ff5eab125f", "lon": -77.02383083333334, "lat": 38.9173315, "type": "electric_scooter", "fusion_lon": 0.0, "is_reserved": 0, "bike_id": "e126d7ee030f348d598476ff5eab125f", "fusion_lat": 0.0, "is_disabled": 0, "rental_uris": {"ios": "https://dc.lft.to/lastmile_qr_scan", "android": "https://dc.lft.to/lastmile_qr_scan"}}, {"name": "2eda4fe568db26f817bace6ce10172f4", "lon": -77.03858333333334, "lat": 38.90359633333333, "type": "electric_scooter", "fusion_lon": 0.0, "is_reserved": 0, "bike_id": "2eda4fe568db26f817bace6ce10172f4", "fusion_lat": 0.0, "is_disabled": 0, "rental_uris": {"ios": "https://dc.lft.to/lastmile_qr_scan", "android": "https://dc.lft.to/lastmile_qr_scan"}}, {"name": "68e8ebaaebf805b58c00701d4373ab14", "lon": -77.03663583333334, "lat": 38.90912933333333, "type": "electric_scooter", "fusion_lon": 0.0, "is_reserved": 0, "bike_id": "68e8ebaaebf805b58c00701d4373ab14", "fusion_lat": 0.0, "is_disabled": 0, "rental_uris": {"ios": "https://dc.lft.to/lastmile_qr_scan", "android": "https://dc.lft.to/lastmile_qr_scan"}}, {"name": "a56934a13e102d4e7a70b8a620591cc5", "lon": -76.99034066666667, "lat": 38.8985455, "type": "electric_scooter", "fusion_lon": 0.0, "is_reserved": 0, "bike_id": "a56934a13e102d4e7a70b8a620591cc5", "fusion_lat": 0.0, "is_disabled": 0, "rental_uris": {"ios": "https://dc.lft.to/lastmile_qr_scan", "android": "https://dc.lft.to/lastmile_qr_scan"}}, {"name": "97821e9a6bdcd08c613e427cd3019fe3", "lon": -77.02286166666667, "lat": 38.89707666666666, "type": "electric_scooter", "fusion_lon": 0.0, "is_reserved": 0, "bike_id": "97821e9a6bdcd08c613e427cd3019fe3", "fusion_lat": 0.0, "is_disabled": 0, "rental_uris": {"ios": "https://dc.lft.to/lastmile_qr_scan", "android": "https://dc.lft.to/lastmile_qr_scan"}}, {"name": "a2e52624b2f88105493d8e1ec436918d", "lon": -77.00736166666667, "lat": 38.89841, "type": "electric_scooter", "fusion_lon": 0.0, "is_reserved": 0, "bike_id": "a2e52624b2f88105493d8e1ec436918d", "fusion_lat": 0.0, "is_disabled": 0, "rental_uris": {"ios": "https://dc.lft.to/lastmile_qr_scan", "android": "https://dc.lft.to/lastmile_qr_scan"}}, {"name": "7a6ad9b707fe7e02671fd45524d01e91", "lon": -77.00604366666667, "lat": 38.875482166666664, "type": "electric_scooter", "fusion_lon": 0.0, "is_reserved": 0, "bike_id": "7a6ad9b707fe7e02671fd45524d01e91", "fusion_lat": 0.0, "is_disabled": 0, "rental_uris": {"ios": "https://dc.lft.to/lastmile_qr_scan", "android": "https://dc.lft.to/lastmile_qr_scan"}}, {"name": "bdebc6a00a41acaeb972633d7c525482", "lon": -77.03515166666666, "lat": 38.962032666666666, "type": "electric_bike", "fusion_lon": 0.0, "is_reserved": 0, "bike_id": "bdebc6a00a41acaeb972633d7c525482", "fusion_lat": 0.0, "is_disabled": 0, "rental_uris": {"ios": "https://dc.lft.to/lastmile_qr_scan", "android": "https://dc.lft.to/lastmile_qr_scan"}}, {"name": "dd19554cadd3c0ef17974c6f600af0d4", "lon": -77.04463283333334, "lat": 38.91118516666667, "type": "electric_scooter", "fusion_lon": 0.0, "is_reserved": 0, "bike_id": "dd19554cadd3c0ef17974c6f600af0d4", "fusion_lat": 0.0, "is_disabled": 0, "rental_uris": {"ios": "https://dc.lft.to/lastmile_qr_scan", "android": "https://dc.lft.to/lastmile_qr_scan"}}, {"name": "9c97e6bae95aab487686245002448584", "lon": -77.03006116666667, "lat": 38.902793, "type": "electric_bike", "fusion_lon": 0.0, "is_reserved": 0, "bike_id": "9c97e6bae95aab487686245002448584", "fusion_lat": 0.0, "is_disabled": 0, "rental_uris": {"ios": "https://dc.lft.to/lastmile_qr_scan", "android": "https://dc.lft.to/lastmile_qr_scan"}}, {"name": "fd50c436db87e9c93d41002b304ef4ca", "lon": -77.07269033333333, "lat": 38.934826666666666, "type": "electric_scooter", "fusion_lon": 0.0, "is_reserved": 0, "bike_id": "fd50c436db87e9c93d41002b304ef4ca", "fusion_lat": 0.0, "is_disabled": 0, "rental_uris": {"ios": "https://dc.lft.to/lastmile_qr_scan", "android": "https://dc.lft.to/lastmile_qr_scan"}}, {"name": "41165e883be69d32a0b32d6b2d41809a", "lon": -77.01819733333333, "lat": 38.923680166666664, "type": "electric_scooter", "fusion_lon": 0.0, "is_reserved": 0, "bike_id": "41165e883be69d32a0b32d6b2d41809a", "fusion_lat": 0.0, "is_disabled": 0, "rental_uris": {"ios": "https://dc.lft.to/lastmile_qr_scan", "android": "https://dc.lft.to/lastmile_qr_scan"}}, {"name": "266cb2065556df42b5587da33dde177c", "lon": -77.03621233333334, "lat": 38.928553, "type": "electric_scooter", "fusion_lon": 0.0, "is_reserved": 0, "bike_id": "266cb2065556df42b5587da33dde177c", "fusion_lat": 0.0, "is_disabled": 0, "rental_uris": {"ios": "https://dc.lft.to/lastmile_qr_scan", "android": "https://dc.lft.to/lastmile_qr_scan"}}, {"name": "598d631e65192e9a650f3ae8734f08bf", "lon": -77.03516266666666, "lat": 38.900624666666666, "type": "electric_scooter", "fusion_lon": 0.0, "is_reserved": 0, "bike_id": "598d631e65192e9a650f3ae8734f08bf", "fusion_lat": 0.0, "is_disabled": 0, "rental_uris": {"ios": "https://dc.lft.to/lastmile_qr_scan", "android": "https://dc.lft.to/lastmile_qr_scan"}}, {"name": "cb83ecaea5a6824b8f2496686b4fe208", "lon": -77.00759983333333, "lat": 38.910245, "type": "electric_scooter", "fusion_lon": 0.0, "is_reserved": 0, "bike_id": "cb83ecaea5a6824b8f2496686b4fe208", "fusion_lat": 0.0, "is_disabled": 0, "rental_uris": {"ios": "https://dc.lft.to/lastmile_qr_scan", "android": "https://dc.lft.to/lastmile_qr_scan"}}, {"name": "a4c36fb26b8f1a04fc220f693df8f159", "lon": -77.04579033333333, "lat": 38.913334666666664, "type": "electric_scooter", "fusion_lon": 0.0, "is_reserved": 0, "bike_id": "a4c36fb26b8f1a04fc220f693df8f159", "fusion_lat": 0.0, "is_disabled": 0, "rental_uris": {"ios": "https://dc.lft.to/lastmile_qr_scan", "android": "https://dc.lft.to/lastmile_qr_scan"}}, {"name": "bc4d211de3b277e1b19da6a88a4ce1ea", "lon": -77.08398133333333, "lat": 38.908022333333335, "type": "electric_scooter", "fusion_lon": 0.0, "is_reserved": 0, "bike_id": "bc4d211de3b277e1b19da6a88a4ce1ea", "fusion_lat": 0.0, "is_disabled": 0, "rental_uris": {"ios": "https://dc.lft.to/lastmile_qr_scan", "android": "https://dc.lft.to/lastmile_qr_scan"}}, {"name": "926079f3c1710684525fbd9004962fcc", "lon": -77.04532316666666, "lat": 38.934588166666664, "type": "electric_bike", "fusion_lon": 0.0, "is_reserved": 0, "bike_id": "926079f3c1710684525fbd9004962fcc", "fusion_lat": 0.0, "is_disabled": 0, "rental_uris": {"ios": "https://dc.lft.to/lastmile_qr_scan", "android": "https://dc.lft.to/lastmile_qr_scan"}}, {"name": "9c6eefeb45aef3778aa56142e6a77145", "lon": -76.96909816666667, "lat": 38.84611966666667, "type": "electric_bike", "fusion_lon": 0.0, "is_reserved": 0, "bike_id": "9c6eefeb45aef3778aa56142e6a77145", "fusion_lat": 0.0, "is_disabled": 0, "rental_uris": {"ios": "https://dc.lft.to/lastmile_qr_scan", "android": "https://dc.lft.to/lastmile_qr_scan"}}, {"name": "75684b89b554bbb05d285ed6d62df274", "lon": -76.99776083333333, "lat": 38.86210533333333, "type": "electric_bike", "fusion_lon": 0.0, "is_reserved": 0, "bike_id": "75684b89b554bbb05d285ed6d62df274", "fusion_lat": 0.0, "is_disabled": 0, "rental_uris": {"ios": "https://dc.lft.to/lastmile_qr_scan", "android": "https://dc.lft.to/lastmile_qr_scan"}}, {"name": "8ad7dfc3c99a92a9881cd889a89ca280", "lon": -76.94934816666667, "lat": 38.89348483333333, "type": "electric_scooter", "fusion_lon": 0.0, "is_reserved": 0, "bike_id": "8ad7dfc3c99a92a9881cd889a89ca280", "fusion_lat": 0.0, "is_disabled": 0, "rental_uris": {"ios": "https://dc.lft.to/lastmile_qr_scan", "android": "https://dc.lft.to/lastmile_qr_scan"}}, {"name": "c17fa197902f2e6ca2784b3a325c6012", "lon": -77.03475516666667, "lat": 38.906054833333336, "type": "electric_scooter", "fusion_lon": 0.0, "is_reserved": 0, "bike_id": "c17fa197902f2e6ca2784b3a325c6012", "fusion_lat": 0.0, "is_disabled": 0, "rental_uris": {"ios": "https://dc.lft.to/lastmile_qr_scan", "android": "https://dc.lft.to/lastmile_qr_scan"}}, {"name": "151bb68663ec37791a7f2bb4eb1f278c", "lon": -76.99836816666667, "lat": 38.88469333333333, "type": "electric_scooter", "fusion_lon": 0.0, "is_reserved": 0, "bike_id": "151bb68663ec37791a7f2bb4eb1f278c", "fusion_lat": 0.0, "is_disabled": 0, "rental_uris": {"ios": "https://dc.lft.to/lastmile_qr_scan", "android": "https://dc.lft.to/lastmile_qr_scan"}}, {"name": "e30aaad120ed767b16afd379f718c444", "lon": -76.99369866666666, "lat": 38.87675983333333, "type": "electric_scooter", "fusion_lon": 0.0, "is_reserved": 0, "bike_id": "e30aaad120ed767b16afd379f718c444", "fusion_lat": 0.0, "is_disabled": 0, "rental_uris": {"ios": "https://dc.lft.to/lastmile_qr_scan", "android": "https://dc.lft.to/lastmile_qr_scan"}}, {"name": "b27a8d774e5b509087c3afdd5de831c0", "lon": -77.042857, "lat": 38.908495333333335, "type": "electric_scooter", "fusion_lon": 0.0, "is_reserved": 0, "bike_id": "b27a8d774e5b509087c3afdd5de831c0", "fusion_lat": 0.0, "is_disabled": 0, "rental_uris": {"ios": "https://dc.lft.to/lastmile_qr_scan", "android": "https://dc.lft.to/lastmile_qr_scan"}}, {"name": "ea8741d544a8e4acef71c056e5e03444", "lon": -77.0450605, "lat": 38.84280866666667, "type": "electric_bike", "fusion_lon": 0.0, "is_reserved": 0, "bike_id": "ea8741d544a8e4acef71c056e5e03444", "fusion_lat": 0.0, "is_disabled": 0, "rental_uris": {"ios": "https://dc.lft.to/lastmile_qr_scan", "android": "https://dc.lft.to/lastmile_qr_scan"}}, {"name": "af77d7308b07daa75659cc8220dfbb25", "lon": -77.047521, "lat": 38.900800333333336, "type": "electric_scooter", "fusion_lon": 0.0, "is_reserved": 0, "bike_id": "af77d7308b07daa75659cc8220dfbb25", "fusion_lat": 0.0, "is_disabled": 0, "rental_uris": {"ios": "https://dc.lft.to/lastmile_qr_scan", "android": "https://dc.lft.to/lastmile_qr_scan"}}, {"name": "1ca8fdbab2e6d84de7d371209c14135a", "lon": -77.03102666666666, "lat": 38.950751833333335, "type": "electric_scooter", "fusion_lon": 0.0, "is_reserved": 0, "bike_id": "1ca8fdbab2e6d84de7d371209c14135a", "fusion_lat": 0.0, "is_disabled": 0, "rental_uris": {"ios": "https://dc.lft.to/lastmile_qr_scan", "android": "https://dc.lft.to/lastmile_qr_scan"}}, {"name": "d8661cd17c63abb4542f3aafa8e4ab81", "lon": -76.9336395, "lat": 38.89916616666667, "type": "electric_scooter", "fusion_lon": 0.0, "is_reserved": 0, "bike_id": "d8661cd17c63abb4542f3aafa8e4ab81", "fusion_lat": 0.0, "is_disabled": 0, "rental_uris": {"ios": "https://dc.lft.to/lastmile_qr_scan", "android": "https://dc.lft.to/lastmile_qr_scan"}}, {"name": "5dc867a835e192cd33bf27da8ed3d47f", "lon": -77.02715716666667, "lat": 38.904846166666665, "type": "electric_scooter", "fusion_lon": 0.0, "is_reserved": 0, "bike_id": "5dc867a835e192cd33bf27da8ed3d47f", "fusion_lat": 0.0, "is_disabled": 0, "rental_uris": {"ios": "https://dc.lft.to/lastmile_qr_scan", "android": "https://dc.lft.to/lastmile_qr_scan"}}, {"name": "1e8adaea75544b8f96ede5da5adc8f63", "lon": -77.04490066666666, "lat": 38.909619666666664, "type": "electric_bike", "fusion_lon": 0.0, "is_reserved": 0, "bike_id": "1e8adaea75544b8f96ede5da5adc8f63", "fusion_lat": 0.0, "is_disabled": 0, "rental_uris": {"ios": "https://dc.lft.to/lastmile_qr_scan", "android": "https://dc.lft.to/lastmile_qr_scan"}}, {"name": "0122d9e78086df98150b4115e95fea00", "lon": -77.0397475, "lat": 38.899183, "type": "electric_scooter", "fusion_lon": 0.0, "is_reserved": 0, "bike_id": "0122d9e78086df98150b4115e95fea00", "fusion_lat": 0.0, "is_disabled": 0, "rental_uris": {"ios": "https://dc.lft.to/lastmile_qr_scan", "android": "https://dc.lft.to/lastmile_qr_scan"}}, {"name": "5ead8665e112d93a5204a01f9370cd51", "lon": -76.94637516666667, "lat": 38.89841066666666, "type": "electric_scooter", "fusion_lon": 0.0, "is_reserved": 0, "bike_id": "5ead8665e112d93a5204a01f9370cd51", "fusion_lat": 0.0, "is_disabled": 0, "rental_uris": {"ios": "https://dc.lft.to/lastmile_qr_scan", "android": "https://dc.lft.to/lastmile_qr_scan"}}, {"name": "595777cec53b948e3e3cd518c1ac4f8e", "lon": -76.96986133333333, "lat": 38.856161666666665, "type": "electric_scooter", "fusion_lon": 0.0, "is_reserved": 0, "bike_id": "595777cec53b948e3e3cd518c1ac4f8e", "fusion_lat": 0.0, "is_disabled": 0, "rental_uris": {"ios": "https://dc.lft.to/lastmile_qr_scan", "android": "https://dc.lft.to/lastmile_qr_scan"}}, {"name": "795a18994af28250dae32bbb43db69aa", "lon": -77.04650983333333, "lat": 38.9158585, "type": "electric_scooter", "fusion_lon": 0.0, "is_reserved": 0, "bike_id": "795a18994af28250dae32bbb43db69aa", "fusion_lat": 0.0, "is_disabled": 0, "rental_uris": {"ios": "https://dc.lft.to/lastmile_qr_scan", "android": "https://dc.lft.to/lastmile_qr_scan"}}, {"name": "bcf9a48c87024d66c8f7c491c1806184", "lon": -77.03437683333334, "lat": 38.910136333333334, "type": "electric_scooter", "fusion_lon": 0.0, "is_reserved": 0, "bike_id": "bcf9a48c87024d66c8f7c491c1806184", "fusion_lat": 0.0, "is_disabled": 0, "rental_uris": {"ios": "https://dc.lft.to/lastmile_qr_scan", "android": "https://dc.lft.to/lastmile_qr_scan"}}, {"name": "b825420556acd509de5ac4d0f5dce8ae", "lon": -77.024198, "lat": 38.957327166666666, "type": "electric_scooter", "fusion_lon": 0.0, "is_reserved": 0, "bike_id": "b825420556acd509de5ac4d0f5dce8ae", "fusion_lat": 0.0, "is_disabled": 0, "rental_uris": {"ios": "https://dc.lft.to/lastmile_qr_scan", "android": "https://dc.lft.to/lastmile_qr_scan"}}, {"name": "a9337e8d3e281bef754f03c737f34e4a", "lon": -77.0350055, "lat": 38.917105166666666, "type": "electric_scooter", "fusion_lon": 0.0, "is_reserved": 0, "bike_id": "a9337e8d3e281bef754f03c737f34e4a", "fusion_lat": 0.0, "is_disabled": 0, "rental_uris": {"ios": "https://dc.lft.to/lastmile_qr_scan", "android": "https://dc.lft.to/lastmile_qr_scan"}}, {"name": "997c6ba40759f4dd8dae659c4aa47618", "lon": -77.02189116666666, "lat": 38.901493333333335, "type": "electric_scooter", "fusion_lon": 0.0, "is_reserved": 0, "bike_id": "997c6ba40759f4dd8dae659c4aa47618", "fusion_lat": 0.0, "is_disabled": 0, "rental_uris": {"ios": "https://dc.lft.to/lastmile_qr_scan", "android": "https://dc.lft.to/lastmile_qr_scan"}}, {"name": "b33c5ac921e882d7269f34371aa9105a", "lon": -76.9487875, "lat": 38.8955045, "type": "electric_scooter", "fusion_lon": 0.0, "is_reserved": 0, "bike_id": "b33c5ac921e882d7269f34371aa9105a", "fusion_lat": 0.0, "is_disabled": 0, "rental_uris": {"ios": "https://dc.lft.to/lastmile_qr_scan", "android": "https://dc.lft.to/lastmile_qr_scan"}}, {"name": "45bf8c89c485c0074aae4047724de8c8", "lon": -77.0274835, "lat": 38.935854, "type": "electric_scooter", "fusion_lon": 0.0, "is_reserved": 0, "bike_id": "45bf8c89c485c0074aae4047724de8c8", "fusion_lat": 0.0, "is_disabled": 0, "rental_uris": {"ios": "https://dc.lft.to/lastmile_qr_scan", "android": "https://dc.lft.to/lastmile_qr_scan"}}, {"name": "39c46147391d42c2578d01359c8c05ed", "lon": -77.02768, "lat": 38.954265, "type": "electric_scooter", "fusion_lon": 0.0, "is_reserved": 0, "bike_id": "39c46147391d42c2578d01359c8c05ed", "fusion_lat": 0.0, "is_disabled": 0, "rental_uris": {"ios": "https://dc.lft.to/lastmile_qr_scan", "android": "https://dc.lft.to/lastmile_qr_scan"}}, {"name": "05e31d5eae4c3c5b5e190f68291dda2d", "lon": -77.05351716666667, "lat": 38.923486833333335, "type": "electric_scooter", "fusion_lon": 0.0, "is_reserved": 0, "bike_id": "05e31d5eae4c3c5b5e190f68291dda2d", "fusion_lat": 0.0, "is_disabled": 0, "rental_uris": {"ios": "https://dc.lft.to/lastmile_qr_scan", "android": "https://dc.lft.to/lastmile_qr_scan"}}, {"name": "97a77858f01d2e4a94afe56272008635", "lon": -77.03282633333333, "lat": 38.9367445, "type": "electric_scooter", "fusion_lon": 0.0, "is_reserved": 0, "bike_id": "97a77858f01d2e4a94afe56272008635", "fusion_lat": 0.0, "is_disabled": 0, "rental_uris": {"ios": "https://dc.lft.to/lastmile_qr_scan", "android": "https://dc.lft.to/lastmile_qr_scan"}}, {"name": "4f061ed21e4336a8e096e39fca11b662", "lon": -77.03208333333333, "lat": 38.917842, "type": "electric_scooter", "fusion_lon": 0.0, "is_reserved": 0, "bike_id": "4f061ed21e4336a8e096e39fca11b662", "fusion_lat": 0.0, "is_disabled": 0, "rental_uris": {"ios": "https://dc.lft.to/lastmile_qr_scan", "android": "https://dc.lft.to/lastmile_qr_scan"}}, {"name": "f5a1d814e22d45a992a47b8e692a4864", "lon": -76.98691066666666, "lat": 38.862605333333335, "type": "electric_scooter", "fusion_lon": 0.0, "is_reserved": 0, "bike_id": "f5a1d814e22d45a992a47b8e692a4864", "fusion_lat": 0.0, "is_disabled": 0, "rental_uris": {"ios": "https://dc.lft.to/lastmile_qr_scan", "android": "https://dc.lft.to/lastmile_qr_scan"}}, {"name": "2abc07e71b16a7d2a37af36817728473", "lon": -77.04386883333333, "lat": 38.9024875, "type": "electric_scooter", "fusion_lon": 0.0, "is_reserved": 0, "bike_id": "2abc07e71b16a7d2a37af36817728473", "fusion_lat": 0.0, "is_disabled": 0, "rental_uris": {"ios": "https://dc.lft.to/lastmile_qr_scan", "android": "https://dc.lft.to/lastmile_qr_scan"}}, {"name": "186ea28bee1bd896444e40ab45b07316", "lon": -77.06329316666667, "lat": 38.9076945, "type": "electric_scooter", "fusion_lon": 0.0, "is_reserved": 0, "bike_id": "186ea28bee1bd896444e40ab45b07316", "fusion_lat": 0.0, "is_disabled": 0, "rental_uris": {"ios": "https://dc.lft.to/lastmile_qr_scan", "android": "https://dc.lft.to/lastmile_qr_scan"}}, {"name": "328f0368712e28cc0907166c5ef6488c", "lon": -77.03201783333333, "lat": 38.91657583333333, "type": "electric_scooter", "fusion_lon": 0.0, "is_reserved": 0, "bike_id": "328f0368712e28cc0907166c5ef6488c", "fusion_lat": 0.0, "is_disabled": 0, "rental_uris": {"ios": "https://dc.lft.to/lastmile_qr_scan", "android": "https://dc.lft.to/lastmile_qr_scan"}}, {"name": "1c9f4a4c2542e828f1f7c8e2ac7cc3dc", "lon": -77.026414, "lat": 38.891967, "type": "electric_scooter", "fusion_lon": 0.0, "is_reserved": 0, "bike_id": "1c9f4a4c2542e828f1f7c8e2ac7cc3dc", "fusion_lat": 0.0, "is_disabled": 0, "rental_uris": {"ios": "https://dc.lft.to/lastmile_qr_scan", "android": "https://dc.lft.to/lastmile_qr_scan"}}, {"name": "9adad5c041becd028fd5a485a91757d5", "lon": -77.03209566666666, "lat": 38.9096915, "type": "electric_scooter", "fusion_lon": 0.0, "is_reserved": 0, "bike_id": "9adad5c041becd028fd5a485a91757d5", "fusion_lat": 0.0, "is_disabled": 0, "rental_uris": {"ios": "https://dc.lft.to/lastmile_qr_scan", "android": "https://dc.lft.to/lastmile_qr_scan"}}, {"name": "426292ba8f9371d7c13bd230655b7147", "lon": -77.03152183333333, "lat": 38.929567166666665, "type": "electric_scooter", "fusion_lon": 0.0, "is_reserved": 0, "bike_id": "426292ba8f9371d7c13bd230655b7147", "fusion_lat": 0.0, "is_disabled": 0, "rental_uris": {"ios": "https://dc.lft.to/lastmile_qr_scan", "android": "https://dc.lft.to/lastmile_qr_scan"}}, {"name": "90078cf5c11f7493bd714f699da8ce33", "lon": -77.01904783333333, "lat": 38.9138335, "type": "electric_scooter", "fusion_lon": 0.0, "is_reserved": 0, "bike_id": "90078cf5c11f7493bd714f699da8ce33", "fusion_lat": 0.0, "is_disabled": 0, "rental_uris": {"ios": "https://dc.lft.to/lastmile_qr_scan", "android": "https://dc.lft.to/lastmile_qr_scan"}}, {"name": "fb5f59bb402f63d77944ecaf38997f7e", "lon": -77.02744983333334, "lat": 38.92413466666667, "type": "electric_scooter", "fusion_lon": 0.0, "is_reserved": 0, "bike_id": "fb5f59bb402f63d77944ecaf38997f7e", "fusion_lat": 0.0, "is_disabled": 0, "rental_uris": {"ios": "https://dc.lft.to/lastmile_qr_scan", "android": "https://dc.lft.to/lastmile_qr_scan"}}, {"name": "26b2351597aa824698afdf7211804e4e", "lon": -77.05424583333334, "lat": 38.923578666666664, "type": "electric_scooter", "fusion_lon": 0.0, "is_reserved": 0, "bike_id": "26b2351597aa824698afdf7211804e4e", "fusion_lat": 0.0, "is_disabled": 0, "rental_uris": {"ios": "https://dc.lft.to/lastmile_qr_scan", "android": "https://dc.lft.to/lastmile_qr_scan"}}, {"name": "9df40c931e741a966d3c3748c289e114", "lon": -77.02736066666667, "lat": 38.927665166666664, "type": "electric_scooter", "fusion_lon": 0.0, "is_reserved": 0, "bike_id": "9df40c931e741a966d3c3748c289e114", "fusion_lat": 0.0, "is_disabled": 0, "rental_uris": {"ios": "https://dc.lft.to/lastmile_qr_scan", "android": "https://dc.lft.to/lastmile_qr_scan"}}, {"name": "2c199480943eda00e05126f28ee6adc4", "lon": -77.037646, "lat": 38.91689133333333, "type": "electric_scooter", "fusion_lon": 0.0, "is_reserved": 0, "bike_id": "2c199480943eda00e05126f28ee6adc4", "fusion_lat": 0.0, "is_disabled": 0, "rental_uris": {"ios": "https://dc.lft.to/lastmile_qr_scan", "android": "https://dc.lft.to/lastmile_qr_scan"}}, {"name": "4ab925e8837e9d390c01797ed77499e7", "lon": -77.042424, "lat": 38.906498166666665, "type": "electric_scooter", "fusion_lon": 0.0, "is_reserved": 0, "bike_id": "4ab925e8837e9d390c01797ed77499e7", "fusion_lat": 0.0, "is_disabled": 0, "rental_uris": {"ios": "https://dc.lft.to/lastmile_qr_scan", "android": "https://dc.lft.to/lastmile_qr_scan"}}, {"name": "cadd34b2c8e6896de936b0ccc7ef4f89", "lon": -77.03917433333334, "lat": 38.903792333333335, "type": "electric_scooter", "fusion_lon": 0.0, "is_reserved": 0, "bike_id": "cadd34b2c8e6896de936b0ccc7ef4f89", "fusion_lat": 0.0, "is_disabled": 0, "rental_uris": {"ios": "https://dc.lft.to/lastmile_qr_scan", "android": "https://dc.lft.to/lastmile_qr_scan"}}, {"name": "6de53597274e52bf3147dafdb1d67779", "lon": -77.0227875, "lat": 38.895062, "type": "electric_scooter", "fusion_lon": 0.0, "is_reserved": 0, "bike_id": "6de53597274e52bf3147dafdb1d67779", "fusion_lat": 0.0, "is_disabled": 0, "rental_uris": {"ios": "https://dc.lft.to/lastmile_qr_scan", "android": "https://dc.lft.to/lastmile_qr_scan"}}, {"name": "7c80565348c9003823f18b7a425e2c69", "lon": -77.02088566666667, "lat": 38.930118, "type": "electric_scooter", "fusion_lon": 0.0, "is_reserved": 0, "bike_id": "7c80565348c9003823f18b7a425e2c69", "fusion_lat": 0.0, "is_disabled": 0, "rental_uris": {"ios": "https://dc.lft.to/lastmile_qr_scan", "android": "https://dc.lft.to/lastmile_qr_scan"}}, {"name": "c5068424649215050e778332f26caaf5", "lon": -77.063816, "lat": 38.9052435, "type": "electric_scooter", "fusion_lon": 0.0, "is_reserved": 0, "bike_id": "c5068424649215050e778332f26caaf5", "fusion_lat": 0.0, "is_disabled": 0, "rental_uris": {"ios": "https://dc.lft.to/lastmile_qr_scan", "android": "https://dc.lft.to/lastmile_qr_scan"}}, {"name": "8e3bb990d36d08c58624c019a9e538be", "lon": -77.02199316666666, "lat": 38.905802, "type": "electric_scooter", "fusion_lon": 0.0, "is_reserved": 0, "bike_id": "8e3bb990d36d08c58624c019a9e538be", "fusion_lat": 0.0, "is_disabled": 0, "rental_uris": {"ios": "https://dc.lft.to/lastmile_qr_scan", "android": "https://dc.lft.to/lastmile_qr_scan"}}, {"name": "2267bf48835c57526205b4473966bfc5", "lon": -77.02050383333334, "lat": 38.915548333333334, "type": "electric_scooter", "fusion_lon": 0.0, "is_reserved": 0, "bike_id": "2267bf48835c57526205b4473966bfc5", "fusion_lat": 0.0, "is_disabled": 0, "rental_uris": {"ios": "https://dc.lft.to/lastmile_qr_scan", "android": "https://dc.lft.to/lastmile_qr_scan"}}, {"name": "00c30b63568f53cc8adb6bc4a3e4103c", "lon": -77.035408, "lat": 38.92405183333333, "type": "electric_scooter", "fusion_lon": 0.0, "is_reserved": 0, "bike_id": "00c30b63568f53cc8adb6bc4a3e4103c", "fusion_lat": 0.0, "is_disabled": 0, "rental_uris": {"ios": "https://dc.lft.to/lastmile_qr_scan", "android": "https://dc.lft.to/lastmile_qr_scan"}}, {"name": "ee1b39d1074a5799e80a05c83267b888", "lon": -77.0348305, "lat": 38.932763333333334, "type": "electric_scooter", "fusion_lon": 0.0, "is_reserved": 0, "bike_id": "ee1b39d1074a5799e80a05c83267b888", "fusion_lat": 0.0, "is_disabled": 0, "rental_uris": {"ios": "https://dc.lft.to/lastmile_qr_scan", "android": "https://dc.lft.to/lastmile_qr_scan"}}, {"name": "4114092f425e20709f931213b09698ac", "lon": -77.02764483333333, "lat": 38.95425183333333, "type": "electric_scooter", "fusion_lon": 0.0, "is_reserved": 0, "bike_id": "4114092f425e20709f931213b09698ac", "fusion_lat": 0.0, "is_disabled": 0, "rental_uris": {"ios": "https://dc.lft.to/lastmile_qr_scan", "android": "https://dc.lft.to/lastmile_qr_scan"}}, {"name": "19071012487b0122ec8f15d5842c080b", "lon": -76.99085083333334, "lat": 38.862401166666665, "type": "electric_bike", "fusion_lon": 0.0, "is_reserved": 0, "bike_id": "19071012487b0122ec8f15d5842c080b", "fusion_lat": 0.0, "is_disabled": 0, "rental_uris": {"ios": "https://dc.lft.to/lastmile_qr_scan", "android": "https://dc.lft.to/lastmile_qr_scan"}}, {"name": "e209f528bf088c6dd573382582030624", "lon": -76.98990216666667, "lat": 38.86387783333333, "type": "electric_bike", "fusion_lon": 0.0, "is_reserved": 0, "bike_id": "e209f528bf088c6dd573382582030624", "fusion_lat": 0.0, "is_disabled": 0, "rental_uris": {"ios": "https://dc.lft.to/lastmile_qr_scan", "android": "https://dc.lft.to/lastmile_qr_scan"}}, {"name": "1d3f86417e5922c06031ff01c09e5932", "lon": -76.93735666666667, "lat": 38.89017316666666, "type": "electric_scooter", "fusion_lon": 0.0, "is_reserved": 0, "bike_id": "1d3f86417e5922c06031ff01c09e5932", "fusion_lat": 0.0, "is_disabled": 0, "rental_uris": {"ios": "https://dc.lft.to/lastmile_qr_scan", "android": "https://dc.lft.to/lastmile_qr_scan"}}, {"name": "6ae5fb60b46c66ed342568ce8dacf7dc", "lon": -77.0240525, "lat": 38.90738866666667, "type": "electric_scooter", "fusion_lon": 0.0, "is_reserved": 0, "bike_id": "6ae5fb60b46c66ed342568ce8dacf7dc", "fusion_lat": 0.0, "is_disabled": 0, "rental_uris": {"ios": "https://dc.lft.to/lastmile_qr_scan", "android": "https://dc.lft.to/lastmile_qr_scan"}}, {"name": "1793579f7f30a0cbad10bf4285eab1f8", "lon": -77.028243, "lat": 38.887328, "type": "electric_scooter", "fusion_lon": 0.0, "is_reserved": 0, "bike_id": "1793579f7f30a0cbad10bf4285eab1f8", "fusion_lat": 0.0, "is_disabled": 0, "rental_uris": {"ios": "https://dc.lft.to/lastmile_qr_scan", "android": "https://dc.lft.to/lastmile_qr_scan"}}, {"name": "d94cb976385d83469ac0b6413d4dcad6", "lon": -77.046127, "lat": 38.90241866666667, "type": "electric_scooter", "fusion_lon": 0.0, "is_reserved": 0, "bike_id": "d94cb976385d83469ac0b6413d4dcad6", "fusion_lat": 0.0, "is_disabled": 0, "rental_uris": {"ios": "https://dc.lft.to/lastmile_qr_scan", "android": "https://dc.lft.to/lastmile_qr_scan"}}, {"name": "5f24dc4711ed9f0b4007a9a9ae4cb38c", "lon": -77.058614, "lat": 38.936077833333336, "type": "electric_scooter", "fusion_lon": 0.0, "is_reserved": 0, "bike_id": "5f24dc4711ed9f0b4007a9a9ae4cb38c", "fusion_lat": 0.0, "is_disabled": 0, "rental_uris": {"ios": "https://dc.lft.to/lastmile_qr_scan", "android": "https://dc.lft.to/lastmile_qr_scan"}}, {"name": "a63ee2cf1eed3fc0758eed10e0a20816", "lon": -77.03304383333334, "lat": 38.956344333333334, "type": "electric_scooter", "fusion_lon": 0.0, "is_reserved": 0, "bike_id": "a63ee2cf1eed3fc0758eed10e0a20816", "fusion_lat": 0.0, "is_disabled": 0, "rental_uris": {"ios": "https://dc.lft.to/lastmile_qr_scan", "android": "https://dc.lft.to/lastmile_qr_scan"}}, {"name": "a6b8db6304db41b9f3055b8dee71941f", "lon": -77.0294735, "lat": 38.9053535, "type": "electric_scooter", "fusion_lon": 0.0, "is_reserved": 0, "bike_id": "a6b8db6304db41b9f3055b8dee71941f", "fusion_lat": 0.0, "is_disabled": 0, "rental_uris": {"ios": "https://dc.lft.to/lastmile_qr_scan", "android": "https://dc.lft.to/lastmile_qr_scan"}}, {"name": "1e62e45d422d129609f9942b630b354d", "lon": -77.02965166666667, "lat": 38.91679216666667, "type": "electric_scooter", "fusion_lon": 0.0, "is_reserved": 0, "bike_id": "1e62e45d422d129609f9942b630b354d", "fusion_lat": 0.0, "is_disabled": 0, "rental_uris": {"ios": "https://dc.lft.to/lastmile_qr_scan", "android": "https://dc.lft.to/lastmile_qr_scan"}}, {"name": "9e9a93c548da547628764820470c85dd", "lon": -77.05207983333334, "lat": 38.92470483333334, "type": "electric_scooter", "fusion_lon": 0.0, "is_reserved": 0, "bike_id": "9e9a93c548da547628764820470c85dd", "fusion_lat": 0.0, "is_disabled": 0, "rental_uris": {"ios": "https://dc.lft.to/lastmile_qr_scan", "android": "https://dc.lft.to/lastmile_qr_scan"}}, {"name": "96e12824297934722a71b0b8be4a79c8", "lon": -77.02684183333334, "lat": 38.912676166666664, "type": "electric_scooter", "fusion_lon": 0.0, "is_reserved": 0, "bike_id": "96e12824297934722a71b0b8be4a79c8", "fusion_lat": 0.0, "is_disabled": 0, "rental_uris": {"ios": "https://dc.lft.to/lastmile_qr_scan", "android": "https://dc.lft.to/lastmile_qr_scan"}}, {"name": "b364f48c6bc2fa94d846ac0e63e05ac1", "lon": -77.07430533333333, "lat": 38.999457166666666, "type": "electric_bike", "fusion_lon": 0.0, "is_reserved": 0, "bike_id": "b364f48c6bc2fa94d846ac0e63e05ac1", "fusion_lat": 0.0, "is_disabled": 0, "rental_uris": {"ios": "https://dc.lft.to/lastmile_qr_scan", "android": "https://dc.lft.to/lastmile_qr_scan"}}, {"name": "ab564a3c0d0893ddf370d5436bb5810b", "lon": -76.97535066666667, "lat": 38.8401465, "type": "electric_bike", "fusion_lon": 0.0, "is_reserved": 0, "bike_id": "ab564a3c0d0893ddf370d5436bb5810b", "fusion_lat": 0.0, "is_disabled": 0, "rental_uris": {"ios": "https://dc.lft.to/lastmile_qr_scan", "android": "https://dc.lft.to/lastmile_qr_scan"}}, {"name": "9635a178e1faa9624a2d3795d36bbd52", "lon": -76.98716783333333, "lat": 38.8662645, "type": "electric_scooter", "fusion_lon": 0.0, "is_reserved": 0, "bike_id": "9635a178e1faa9624a2d3795d36bbd52", "fusion_lat": 0.0, "is_disabled": 0, "rental_uris": {"ios": "https://dc.lft.to/lastmile_qr_scan", "android": "https://dc.lft.to/lastmile_qr_scan"}}, {"name": "66952d0cf5a38d388cc097650227b0ea", "lon": -77.0243345, "lat": 38.927264, "type": "electric_scooter", "fusion_lon": 0.0, "is_reserved": 0, "bike_id": "66952d0cf5a38d388cc097650227b0ea", "fusion_lat": 0.0, "is_disabled": 0, "rental_uris": {"ios": "https://dc.lft.to/lastmile_qr_scan", "android": "https://dc.lft.to/lastmile_qr_scan"}}, {"name": "c9fbad4fb1a1886f70b0329488a2ad3b", "lon": -77.00762983333334, "lat": 38.825971, "type": "electric_scooter", "fusion_lon": 0.0, "is_reserved": 0, "bike_id": "c9fbad4fb1a1886f70b0329488a2ad3b", "fusion_lat": 0.0, "is_disabled": 0, "rental_uris": {"ios": "https://dc.lft.to/lastmile_qr_scan", "android": "https://dc.lft.to/lastmile_qr_scan"}}, {"name": "f1683232e19c2b72312ffcf4281217db", "lon": -77.00571716666667, "lat": 38.88573933333333, "type": "electric_scooter", "fusion_lon": 0.0, "is_reserved": 0, "bike_id": "f1683232e19c2b72312ffcf4281217db", "fusion_lat": 0.0, "is_disabled": 0, "rental_uris": {"ios": "https://dc.lft.to/lastmile_qr_scan", "android": "https://dc.lft.to/lastmile_qr_scan"}}, {"name": "05db41763d23afc5168d87ccb2726b3a", "lon": -77.12484166666667, "lat": 38.85396083333333, "type": "electric_bike", "fusion_lon": 0.0, "is_reserved": 0, "bike_id": "05db41763d23afc5168d87ccb2726b3a", "fusion_lat": 0.0, "is_disabled": 0, "rental_uris": {"ios": "https://dc.lft.to/lastmile_qr_scan", "android": "https://dc.lft.to/lastmile_qr_scan"}}, {"name": "824e61c6805345a0067ed2cea42df484", "lon": -77.01751583333333, "lat": 38.907172, "type": "electric_scooter", "fusion_lon": 0.0, "is_reserved": 0, "bike_id": "824e61c6805345a0067ed2cea42df484", "fusion_lat": 0.0, "is_disabled": 0, "rental_uris": {"ios": "https://dc.lft.to/lastmile_qr_scan", "android": "https://dc.lft.to/lastmile_qr_scan"}}, {"name": "a2a2f551b3902f9f311e9621971a8b49", "lon": -77.03812, "lat": 38.90689483333333, "type": "electric_scooter", "fusion_lon": 0.0, "is_reserved": 0, "bike_id": "a2a2f551b3902f9f311e9621971a8b49", "fusion_lat": 0.0, "is_disabled": 0, "rental_uris": {"ios": "https://dc.lft.to/lastmile_qr_scan", "android": "https://dc.lft.to/lastmile_qr_scan"}}, {"name": "c93198f65a5af1bb450824b60f9da0bf", "lon": -76.90707033333334, "lat": 38.89597633333333, "type": "electric_bike", "fusion_lon": 0.0, "is_reserved": 0, "bike_id": "c93198f65a5af1bb450824b60f9da0bf", "fusion_lat": 0.0, "is_disabled": 0, "rental_uris": {"ios": "https://dc.lft.to/lastmile_qr_scan", "android": "https://dc.lft.to/lastmile_qr_scan"}}, {"name": "cf8a2ecd29d2fbabb2246047f0568d1e", "lon": -77.019848, "lat": 38.922691666666665, "type": "electric_bike", "fusion_lon": 0.0, "is_reserved": 0, "bike_id": "cf8a2ecd29d2fbabb2246047f0568d1e", "fusion_lat": 0.0, "is_disabled": 0, "rental_uris": {"ios": "https://dc.lft.to/lastmile_qr_scan", "android": "https://dc.lft.to/lastmile_qr_scan"}}, {"name": "80ee62575a38425a0bbbe1cdc464556c", "lon": -76.99814416666666, "lat": 38.844319, "type": "electric_scooter", "fusion_lon": 0.0, "is_reserved": 0, "bike_id": "80ee62575a38425a0bbbe1cdc464556c", "fusion_lat": 0.0, "is_disabled": 0, "rental_uris": {"ios": "https://dc.lft.to/lastmile_qr_scan", "android": "https://dc.lft.to/lastmile_qr_scan"}}, {"name": "6b3306b4b78850bf3bf0bdc974739b79", "lon": -77.04356033333333, "lat": 38.907618, "type": "electric_scooter", "fusion_lon": 0.0, "is_reserved": 0, "bike_id": "6b3306b4b78850bf3bf0bdc974739b79", "fusion_lat": 0.0, "is_disabled": 0, "rental_uris": {"ios": "https://dc.lft.to/lastmile_qr_scan", "android": "https://dc.lft.to/lastmile_qr_scan"}}, {"name": "1d14206df971573b3048bfa63587c460", "lon": -77.054147, "lat": 38.927879833333336, "type": "electric_scooter", "fusion_lon": 0.0, "is_reserved": 0, "bike_id": "1d14206df971573b3048bfa63587c460", "fusion_lat": 0.0, "is_disabled": 0, "rental_uris": {"ios": "https://dc.lft.to/lastmile_qr_scan", "android": "https://dc.lft.to/lastmile_qr_scan"}}, {"name": "58d6293e4bff6858151c0e387ad28236", "lon": -77.0344715, "lat": 38.91799916666667, "type": "electric_scooter", "fusion_lon": 0.0, "is_reserved": 0, "bike_id": "58d6293e4bff6858151c0e387ad28236", "fusion_lat": 0.0, "is_disabled": 0, "rental_uris": {"ios": "https://dc.lft.to/lastmile_qr_scan", "android": "https://dc.lft.to/lastmile_qr_scan"}}, {"name": "ca1920d21d94dee7902bda75c3365516", "lon": -76.99738966666666, "lat": 38.900211666666664, "type": "electric_scooter", "fusion_lon": 0.0, "is_reserved": 0, "bike_id": "ca1920d21d94dee7902bda75c3365516", "fusion_lat": 0.0, "is_disabled": 0, "rental_uris": {"ios": "https://dc.lft.to/lastmile_qr_scan", "android": "https://dc.lft.to/lastmile_qr_scan"}}, {"name": "96ef26960486783a7242fab11e3ae9ce", "lon": -77.00199316666667, "lat": 38.90237466666667, "type": "electric_scooter", "fusion_lon": 0.0, "is_reserved": 0, "bike_id": "96ef26960486783a7242fab11e3ae9ce", "fusion_lat": 0.0, "is_disabled": 0, "rental_uris": {"ios": "https://dc.lft.to/lastmile_qr_scan", "android": "https://dc.lft.to/lastmile_qr_scan"}}, {"name": "9f11ee6a0112dc3eadaa527750d76cc9", "lon": -77.04596033333333, "lat": 38.9025225, "type": "electric_scooter", "fusion_lon": 0.0, "is_reserved": 0, "bike_id": "9f11ee6a0112dc3eadaa527750d76cc9", "fusion_lat": 0.0, "is_disabled": 0, "rental_uris": {"ios": "https://dc.lft.to/lastmile_qr_scan", "android": "https://dc.lft.to/lastmile_qr_scan"}}, {"name": "f43a4563ea9061529d22b7707d0c7e6e", "lon": -76.9892345, "lat": 38.858136, "type": "electric_scooter", "fusion_lon": 0.0, "is_reserved": 0, "bike_id": "f43a4563ea9061529d22b7707d0c7e6e", "fusion_lat": 0.0, "is_disabled": 0, "rental_uris": {"ios": "https://dc.lft.to/lastmile_qr_scan", "android": "https://dc.lft.to/lastmile_qr_scan"}}, {"name": "d596eaaee054e4248d1da279ddc6c63c", "lon": -76.99032616666666, "lat": 38.89855816666667, "type": "electric_scooter", "fusion_lon": 0.0, "is_reserved": 0, "bike_id": "d596eaaee054e4248d1da279ddc6c63c", "fusion_lat": 0.0, "is_disabled": 0, "rental_uris": {"ios": "https://dc.lft.to/lastmile_qr_scan", "android": "https://dc.lft.to/lastmile_qr_scan"}}, {"name": "a47717dfd3075ce71c8252484f385e05", "lon": -76.98476233333334, "lat": 38.9109285, "type": "electric_bike", "fusion_lon": 0.0, "is_reserved": 0, "bike_id": "a47717dfd3075ce71c8252484f385e05", "fusion_lat": 0.0, "is_disabled": 0, "rental_uris": {"ios": "https://dc.lft.to/lastmile_qr_scan", "android": "https://dc.lft.to/lastmile_qr_scan"}}, {"name": "02d7dccd3e15a9919728be5d86097538", "lon": -77.03670166666667, "lat": 38.92651983333333, "type": "electric_scooter", "fusion_lon": 0.0, "is_reserved": 0, "bike_id": "02d7dccd3e15a9919728be5d86097538", "fusion_lat": 0.0, "is_disabled": 0, "rental_uris": {"ios": "https://dc.lft.to/lastmile_qr_scan", "android": "https://dc.lft.to/lastmile_qr_scan"}}, {"name": "1cff45f591e1f47eea49235fe2945b67", "lon": -77.03040666666666, "lat": 38.913295833333336, "type": "electric_scooter", "fusion_lon": 0.0, "is_reserved": 0, "bike_id": "1cff45f591e1f47eea49235fe2945b67", "fusion_lat": 0.0, "is_disabled": 0, "rental_uris": {"ios": "https://dc.lft.to/lastmile_qr_scan", "android": "https://dc.lft.to/lastmile_qr_scan"}}, {"name": "bca90aa1dcc7ee5d5ff3b24857150884", "lon": -76.9827175, "lat": 38.885326666666664, "type": "electric_scooter", "fusion_lon": 0.0, "is_reserved": 0, "bike_id": "bca90aa1dcc7ee5d5ff3b24857150884", "fusion_lat": 0.0, "is_disabled": 0, "rental_uris": {"ios": "https://dc.lft.to/lastmile_qr_scan", "android": "https://dc.lft.to/lastmile_qr_scan"}}, {"name": "d1dfa8ff1b1e35408302e52e8b669ac6", "lon": -77.03374116666667, "lat": 38.90388866666667, "type": "electric_scooter", "fusion_lon": 0.0, "is_reserved": 0, "bike_id": "d1dfa8ff1b1e35408302e52e8b669ac6", "fusion_lat": 0.0, "is_disabled": 0, "rental_uris": {"ios": "https://dc.lft.to/lastmile_qr_scan", "android": "https://dc.lft.to/lastmile_qr_scan"}},