{"data": {"bikes": [{"bike_id": "eaa3d15bed9d1f0af4e35553b4b8146a", "type": "electric_scooter", "is_disabled": 0, "lat": 38.915931, "rental_uris": {"ios": "https://dc.lft.to/lastmile_qr_scan", "android": "https://dc.lft.to/lastmile_qr_scan"}, "is_reserved": 0, "fusion_lon": 0.0, "fusion_lat": 0.0, "lon": -77.00192216666666, "name": "eaa3d15bed9d1f0af4e35553b4b8146a"}, {"bike_id": "a4153c77cf0bd4eb6ebb79e97cbf0b55", "type": "electric_scooter", "is_disabled": 0, "lat": 38.9169265, "rental_uris": {"ios": "https://dc.lft.to/lastmile_qr_scan", "android": "https://dc.lft.to/lastmile_qr_scan"}, "is_reserved": 0, "fusion_lon": 0.0, "fusion_lat": 0.0, "lon": -77.02884166666666, "name": "a4153c77cf0bd4eb6ebb79e97cbf0b55"}, {"bike_id": "da78e95f94e51de4f9953e206f1075a9", "type": "electric_scooter", "is_disabled": 0, "lat": 38.89783833333333, "rental_uris": {"ios": "https://dc.lft.to/lastmile_qr_scan", "android": "https://dc.lft.to/lastmile_qr_scan"}, "is_reserved": 0, "fusion_lon": 0.0, "fusion_lat": 0.0, "lon": -77.0516405, "name": "da78e95f94e51de4f9953e206f1075a9"}, {"bike_id": "c4d9c1982dabfb2c1579053dee9888c2", "type": "electric_scooter", "is_disabled": 0, "lat": 38.91961033333333, "rental_uris": {"ios": "https://dc.lft.to/lastmile_qr_scan", "android": "https://dc.lft.to/lastmile_qr_scan"}, "is_reserved": 0, "fusion_lon": 0.0, "fusion_lat": 0.0, "lon": -77.01438533333334, "name": "c4d9c1982dabfb2c1579053dee9888c2"}, {"bike_id": "1efa98a6ccd0d995b051f8494d4e8fdd", "type": "electric_scooter", "is_disabled": 0, "lat": 38.901329, "rental_uris": {"ios": "https://dc.lft.to/lastmile_qr_scan", "android": "https://dc.lft.to/lastmile_qr_scan"}, "is_reserved": 0, "fusion_lon": 0.0, "fusion_lat": 0.0, "lon": -76.9906895, "name": "1efa98a6ccd0d995b051f8494d4e8fdd"}, {"bike_id": "d8305a1aa7247c8a8377afa1b8d9ea10", "type": "electric_bike", "is_disabled": 0, "lat": 39.01479116666667, "rental_uris": {"ios": "https://dc.lft.to/lastmile_qr_scan", "android": "https://dc.lft.to/lastmile_qr_scan"}, "is_reserved": 0, "fusion_lon": 0.0, "fusion_lat": 0.0, "lon": -77.05491016666667, "name": "d8305a1aa7247c8a8377afa1b8d9ea10"}, {"bike_id": "a96508034a80ae8c0d2da0eb86804446", "type": "electric_scooter", "is_disabled": 0, "lat": 38.920537333333336, "rental_uris": {"ios": "https://dc.lft.to/lastmile_qr_scan", "android": "https://dc.lft.to/lastmile_qr_scan"}, "is_reserved": 0, "fusion_lon": 0.0, "fusion_lat": 0.0, "lon": -77.02366333333333, "name": "a96508034a80ae8c0d2da0eb86804446"}, {"bike_id": "5905d00cee4da08fdfb2ee0885de9787", "type": "electric_scooter", "is_disabled": 0, "lat": 38.90769133333333, "rental_uris": {"ios": "https://dc.lft.to/lastmile_qr_scan", "android": "https://dc.lft.to/lastmile_qr_scan"}, "is_reserved": 0, "fusion_lon": 0.0, "fusion_lat": 0.0, "lon": -77.02719516666667, "name": "5905d00cee4da08fdfb2ee0885de9787"}, {"bike_id": "4a03c7a34f0b63911fbe5882944f8f9c", "type": "electric_scooter", "is_disabled": 0, "lat": 38.906036666666665, "rental_uris": {"ios": "https://dc.lft.to/lastmile_qr_scan", "android": "https://dc.lft.to/lastmile_qr_scan"}, "is_reserved": 0, "fusion_lon": 0.0, "fusion_lat": 0.0, "lon": -77.07357416666666, "name": "4a03c7a34f0b63911fbe5882944f8f9c"}, {"bike_id": "31062564da11f3b6f167e3de1f75cf30", "type": "electric_scooter", "is_disabled": 0, "lat": 38.90489383333333, "rental_uris": {"ios": "https://dc.lft.to/lastmile_qr_scan", "android": "https://dc.lft.to/lastmile_qr_scan"}, "is_reserved": 0, "fusion_lon": 0.0, "fusion_lat": 0.0, "lon": -76.949627, "name": "31062564da11f3b6f167e3de1f75cf30"}, {"bike_id": "b285ddf9ad199211169fc03eb9704ecd", "type": "electric_scooter", "is_disabled": 0, "lat": 38.9221065, "rental_uris": {"ios": "https://dc.lft.to/lastmile_qr_scan", "android": "https://dc.lft.to/lastmile_qr_scan"}, "is_reserved": 0, "fusion_lon": 0.0, "fusion_lat": 0.0, "lon": -77.03661033333333, "name": "b285ddf9ad199211169fc03eb9704ecd"}, {"bike_id": "039d67e6704cdf1af140bdd0b61b717f", "type": "electric_scooter", "is_disabled": 0, "lat": 38.924792333333336, "rental_uris": {"ios": "https://dc.lft.to/lastmile_qr_scan", "android": "https://dc.lft.to/lastmile_qr_scan"}, "is_reserved": 0, "fusion_lon": 0.0, "fusion_lat": 0.0, "lon": -77.0282695, "name": "039d67e6704cdf1af140bdd0b61b717f"}, {"bike_id": "7693f188c13c91d4027646e3c2c883c1", "type": "electric_scooter", "is_disabled": 0, "lat": 38.91071933333333, "rental_uris": {"ios": "https://dc.lft.to/lastmile_qr_scan", "android": "https://dc.lft.to/lastmile_qr_scan"}, "is_reserved": 0, "fusion_lon": 0.0, "fusion_lat": 0.0, "lon": -77.02723133333333, "name": "7693f188c13c91d4027646e3c2c883c1"}, {"bike_id": "6a7aa1340e2f561fda155248a70303c3", "type": "electric_scooter", "is_disabled": 0, "lat": 38.863736833333334, "rental_uris": {"ios": "https://dc.lft.to/lastmile_qr_scan", "android": "https://dc.lft.to/lastmile_qr_scan"}, "is_reserved": 0, "fusion_lon": 0.0, "fusion_lat": 0.0, "lon": -76.99061183333333, "name": "6a7aa1340e2f561fda155248a70303c3"}, {"bike_id": "fd08b475f8cd6400b389a5051baeca07", "type": "electric_scooter", "is_disabled": 0, "lat": 38.8667845, "rental_uris": {"ios": "https://dc.lft.to/lastmile_qr_scan", "android": "https://dc.lft.to/lastmile_qr_scan"}, "is_reserved": 0, "fusion_lon": 0.0, "fusion_lat": 0.0, "lon": -76.98548683333334, "name": "fd08b475f8cd6400b389a5051baeca07"}, {"bike_id": "72bf02eee893e2e1161a14137ed8cc44", "type": "electric_scooter", "is_disabled": 0, "lat": 38.92192583333333, "rental_uris": {"ios": "https://dc.lft.to/lastmile_qr_scan", "android": "https://dc.lft.to/lastmile_qr_scan"}, "is_reserved": 0, "fusion_lon": 0.0, "fusion_lat": 0.0, "lon": -77.04701616666667, "name": "72bf02eee893e2e1161a14137ed8cc44"}, {"bike_id": "9b64d2a2dacda68f893aeba19aae65e5", "type": "electric_scooter", "is_disabled": 0, "lat": 38.92334866666667, "rental_uris": {"ios": "https://dc.lft.to/lastmile_qr_scan", "android": "https://dc.lft.to/lastmile_qr_scan"}, "is_reserved": 0, "fusion_lon": 0.0, "fusion_lat": 0.0, "lon": -77.03614, "name": "9b64d2a2dacda68f893aeba19aae65e5"}, {"bike_id": "70cfba058693f675ec1a4d91f8490b2d", "type": "electric_scooter", "is_disabled": 0, "lat": 38.93365133333333, "rental_uris": {"ios": "https://dc.lft.to/lastmile_qr_scan", "android": "https://dc.lft.to/lastmile_qr_scan"}, "is_reserved": 0, "fusion_lon": 0.0, "fusion_lat": 0.0, "lon": -77.05730283333334, "name": "70cfba058693f675ec1a4d91f8490b2d"}, {"bike_id": "a5c849c40c7da0451e1c890f7bf053fd", "type": "electric_scooter", "is_disabled": 0, "lat": 38.93350866666667, "rental_uris": {"ios": "https://dc.lft.to/lastmile_qr_scan", "android": "https://dc.lft.to/lastmile_qr_scan"}, "is_reserved": 0, "fusion_lon": 0.0, "fusion_lat": 0.0, "lon": -76.99258266666666, "name": "a5c849c40c7da0451e1c890f7bf053fd"}, {"bike_id": "a155ca65b854795c54caf48383789116", "type": "electric_scooter", "is_disabled": 0, "lat": 38.8990695, "rental_uris": {"ios": "https://dc.lft.to/lastmile_qr_scan", "android": "https://dc.lft.to/lastmile_qr_scan"}, "is_reserved": 0, "fusion_lon": 0.0, "fusion_lat": 0.0, "lon": -76.98176966666666, "name": "a155ca65b854795c54caf48383789116"}, {"bike_id": "bff07919951403f37716a7bf2eb855b4", "type": "electric_scooter", "is_disabled": 0, "lat": 38.900737, "rental_uris": {"ios": "https://dc.lft.to/lastmile_qr_scan", "android": "https://dc.lft.to/lastmile_qr_scan"}, "is_reserved": 0, "fusion_lon": 0.0, "fusion_lat": 0.0, "lon": -77.01820533333333, "name": "bff07919951403f37716a7bf2eb855b4"}, {"bike_id": "dd18a3fec96459899088ee1723179efe", "type": "electric_scooter", "is_disabled": 0, "lat": 38.90840566666667, "rental_uris": {"ios": "https://dc.lft.to/lastmile_qr_scan", "android": "https://dc.lft.to/lastmile_qr_scan"}, "is_reserved": 0, "fusion_lon": 0.0, "fusion_lat": 0.0, "lon": -77.02351416666667, "name": "dd18a3fec96459899088ee1723179efe"}, {"bike_id": "e426ceffa1e2d5f13224c5042daac7ed", "type": "electric_scooter", "is_disabled": 0, "lat": 38.91783916666667, "rental_uris": {"ios": "https://dc.lft.to/lastmile_qr_scan", "android": "https://dc.lft.to/lastmile_qr_scan"}, "is_reserved": 0, "fusion_lon": 0.0, "fusion_lat": 0.0, "lon": -77.04552, "name": "e426ceffa1e2d5f13224c5042daac7ed"}, {"bike_id": "5e4138f52c0c53785ef3c2007947507e", "type": "electric_scooter", "is_disabled": 0, "lat": 38.866883666666666, "rental_uris": {"ios": "https://dc.lft.to/lastmile_qr_scan", "android": "https://dc.lft.to/lastmile_qr_scan"}, "is_reserved": 0, "fusion_lon": 0.0, "fusion_lat": 0.0, "lon": -76.98575833333334, "name": "5e4138f52c0c53785ef3c2007947507e"}, {"bike_id": "5ca6bdfa352519a2ff6342f2d94cf327", "type": "electric_scooter", "is_disabled": 0, "lat": 38.907520833333336, "rental_uris": {"ios": "https://dc.lft.to/lastmile_qr_scan", "android": "https://dc.lft.to/lastmile_qr_scan"}, "is_reserved": 0, "fusion_lon": 0.0, "fusion_lat": 0.0, "lon": -77.00367283333334, "name": "5ca6bdfa352519a2ff6342f2d94cf327"}, {"bike_id": "96e95d16436ae29adcbb9a97595e8d8f", "type": "electric_scooter", "is_disabled": 0, "lat": 38.917095, "rental_uris": {"ios": "https://dc.lft.to/lastmile_qr_scan", "android": "https://dc.lft.to/lastmile_qr_scan"}, "is_reserved": 0, "fusion_lon": 0.0, "fusion_lat": 0.0, "lon": -77.034689, "name": "96e95d16436ae29adcbb9a97595e8d8f"}, {"bike_id": "fd7f403694f343e419f08c1d204f1087", "type": "electric_scooter", "is_disabled": 0, "lat": 38.866793333333334, "rental_uris": {"ios": "https://dc.lft.to/lastmile_qr_scan", "android": "https://dc.lft.to/lastmile_qr_scan"}, "is_reserved": 0, "fusion_lon": 0.0, "fusion_lat": 0.0, "lon": -76.98587716666667, "name": "fd7f403694f343e419f08c1d204f1087"}, {"bike_id": "a959ba82f43fce640f499f85c5cf93ef", "type": "electric_scooter", "is_disabled": 0, "lat": 38.92191066666667, "rental_uris": {"ios": "https://dc.lft.to/lastmile_qr_scan", "android": "https://dc.lft.to/lastmile_qr_scan"}, "is_reserved": 0, "fusion_lon": 0.0, "fusion_lat": 0.0, "lon": -77.03780933333333, "name": "a959ba82f43fce640f499f85c5cf93ef"}, {"bike_id": "9a697b0d3e96a396b98d0892781b4519", "type": "electric_scooter", "is_disabled": 0, "lat": 38.904970166666665, "rental_uris": {"ios": "https://dc.lft.to/lastmile_qr_scan", "android": "https://dc.lft.to/lastmile_qr_scan"}, "is_reserved": 0, "fusion_lon": 0.0, "fusion_lat": 0.0, "lon": -77.01981533333333, "name": "9a697b0d3e96a396b98d0892781b4519"}, {"bike_id": "9e36f47c04651593ee0f8165f4e65170", "type": "electric_scooter", "is_disabled": 0, "lat": 38.942275333333335, "rental_uris": {"ios": "https://dc.lft.to/lastmile_qr_scan", "android": "https://dc.lft.to/lastmile_qr_scan"}, "is_reserved": 0, "fusion_lon": 0.0, "fusion_lat": 0.0, "lon": -77.01443716666667, "name": "9e36f47c04651593ee0f8165f4e65170"}, {"bike_id": "8edd9923d41b067acce24f54739964d2", "type": "electric_scooter", "is_disabled": 0, "lat": 38.9111615, "rental_uris": {"ios": "https://dc.lft.to/lastmile_qr_scan", "android": "https://dc.lft.to/lastmile_qr_scan"}, "is_reserved": 0, "fusion_lon": 0.0, "fusion_lat": 0.0, "lon": -77.04224116666667, "name": "8edd9923d41b067acce24f54739964d2"}, {"bike_id": "75d9584e60cdd5f6d62f8f6e8f17d34e", "type": "electric_scooter", "is_disabled": 0, "lat": 38.897345333333334, "rental_uris": {"ios": "https://dc.lft.to/lastmile_qr_scan", "android": "https://dc.lft.to/lastmile_qr_scan"}, "is_reserved": 0, "fusion_lon": 0.0, "fusion_lat": 0.0, "lon": -77.0547465, "name": "75d9584e60cdd5f6d62f8f6e8f17d34e"}, {"bike_id": "16576012a7f4841fa41ba248eee9437b", "type": "electric_scooter", "is_disabled": 0, "lat": 38.90597233333333, "rental_uris": {"ios": "https://dc.lft.to/lastmile_qr_scan", "android": "https://dc.lft.to/lastmile_qr_scan"}, "is_reserved": 0, "fusion_lon": 0.0, "fusion_lat": 0.0, "lon": -77.02712683333333, "name": "16576012a7f4841fa41ba248eee9437b"}, {"bike_id": "41562519fbd728eb858076a66dce53eb", "type": "electric_scooter", "is_disabled": 0, "lat": 38.91221616666667, "rental_uris": {"ios": "https://dc.lft.to/lastmile_qr_scan", "android": "https://dc.lft.to/lastmile_qr_scan"}, "is_reserved": 0, "fusion_lon": 0.0, "fusion_lat": 0.0, "lon": -76.98788716666667, "name": "41562519fbd728eb858076a66dce53eb"}, {"bike_id": "73758520d69bf623bf57887a4c10bb83", "type": "electric_scooter", "is_disabled": 0, "lat": 38.90410766666667, "rental_uris": {"ios": "https://dc.lft.to/lastmile_qr_scan", "android": "https://dc.lft.to/lastmile_qr_scan"}, "is_reserved": 0, "fusion_lon": 0.0, "fusion_lat": 0.0, "lon": -76.97336333333334, "name": "73758520d69bf623bf57887a4c10bb83"}, {"bike_id": "b88d48ebac347d65fbf1007432846397", "type": "electric_scooter", "is_disabled": 0, "lat": 38.941441833333336, "rental_uris": {"ios": "https://dc.lft.to/lastmile_qr_scan", "android": "https://dc.lft.to/lastmile_qr_scan"}, "is_reserved": 0, "fusion_lon": 0.0, "fusion_lat": 0.0, "lon": -77.09269166666667, "name": "b88d48ebac347d65fbf1007432846397"}, {"bike_id": "844b690aec40f2758729c756f6d6265c", "type": "electric_scooter", "is_disabled": 0, "lat": 38.91500333333333, "rental_uris": {"ios": "https://dc.lft.to/lastmile_qr_scan", "android": "https://dc.lft.to/lastmile_qr_scan"}, "is_reserved": 0, "fusion_lon": 0.0, "fusion_lat": 0.0, "lon": -77.01772966666667, "name": "844b690aec40f2758729c756f6d6265c"}, {"bike_id": "d53bbcf8e3408f464888723138053cb0", "type": "electric_scooter", "is_disabled": 0, "lat": 38.92239466666667, "rental_uris": {"ios": "https://dc.lft.to/lastmile_qr_scan", "android": "https://dc.lft.to/lastmile_qr_scan"}, "is_reserved": 0, "fusion_lon": 0.0, "fusion_lat": 0.0, "lon": -77.03714683333334, "name": "d53bbcf8e3408f464888723138053cb0"}, {"bike_id": "700bd95a429bf28624a735b9ca60dc95", "type": "electric_scooter", "is_disabled": 0, "lat": 38.9041415, "rental_uris": {"ios": "https://dc.lft.to/lastmile_qr_scan", "android": "https://dc.lft.to/lastmile_qr_scan"}, "is_reserved": 0, "fusion_lon": 0.0, "fusion_lat": 0.0, "lon": -77.0687705, "name": "700bd95a429bf28624a735b9ca60dc95"}, {"bike_id": "2051b79946f06f8f6bf29c679a9407e5", "type": "electric_scooter", "is_disabled": 0, "lat": 38.926663833333336, "rental_uris": {"ios": "https://dc.lft.to/lastmile_qr_scan", "android": "https://dc.lft.to/lastmile_qr_scan"}, "is_reserved": 0, "fusion_lon": 0.0, "fusion_lat": 0.0, "lon": -77.03192566666667, "name": "2051b79946f06f8f6bf29c679a9407e5"}, {"bike_id": "5bd155757501a76159211a18b6d64595", "type": "electric_scooter", "is_disabled": 0, "lat": 38.866582, "rental_uris": {"ios": "https://dc.lft.to/lastmile_qr_scan", "android": "https://dc.lft.to/lastmile_qr_scan"}, "is_reserved": 0, "fusion_lon": 0.0, "fusion_lat": 0.0, "lon": -76.98884933333333, "name": "5bd155757501a76159211a18b6d64595"}, {"bike_id": "d70834c22fe67946cea5d52f4bb1914f", "type": "electric_scooter", "is_disabled": 0, "lat": 38.9181305, "rental_uris": {"ios": "https://dc.lft.to/lastmile_qr_scan", "android": "https://dc.lft.to/lastmile_qr_scan"}, "is_reserved": 0, "fusion_lon": 0.0, "fusion_lat": 0.0, "lon": -77.01216766666667, "name": "d70834c22fe67946cea5d52f4bb1914f"}, {"bike_id": "e8561025e141944ca455cf986d02f7b1", "type": "electric_scooter", "is_disabled": 0, "lat": 38.91712183333333, "rental_uris": {"ios": "https://dc.lft.to/lastmile_qr_scan", "android": "https://dc.lft.to/lastmile_qr_scan"}, "is_reserved": 0, "fusion_lon": 0.0, "fusion_lat": 0.0, "lon": -77.01211966666666, "name": "e8561025e141944ca455cf986d02f7b1"}, {"bike_id": "302784c60e750d05c32ab0fc0e9cecc3", "type": "electric_bike", "is_disabled": 0, "lat": 38.944683, "rental_uris": {"ios": "https://dc.lft.to/lastmile_qr_scan", "android": "https://dc.lft.to/lastmile_qr_scan"}, "is_reserved": 0, "fusion_lon": 0.0, "fusion_lat": 0.0, "lon": -76.98692833333334, "name": "302784c60e750d05c32ab0fc0e9cecc3"}, {"bike_id": "51e09b9adbb033fb53c537406ad54037", "type": "electric_bike", "is_disabled": 0, "lat": 38.84967533333333, "rental_uris": {"ios": "https://dc.lft.to/lastmile_qr_scan", "android": "https://dc.lft.to/lastmile_qr_scan"}, "is_reserved": 0, "fusion_lon": 0.0, "fusion_lat": 0.0, "lon": -77.07762466666667, "name": "51e09b9adbb033fb53c537406ad54037"}, {"bike_id": "8e80a09737c0aa321b3e25e1d3871fa6", "type": "electric_scooter", "is_disabled": 0, "lat": 38.9259415, "rental_uris": {"ios": "https://dc.lft.to/lastmile_qr_scan", "android": "https://dc.lft.to/lastmile_qr_scan"}, "is_reserved": 0, "fusion_lon": 0.0, "fusion_lat": 0.0, "lon": -77.024468, "name": "8e80a09737c0aa321b3e25e1d3871fa6"}, {"bike_id": "c78d84b413059bfe1d1cc666da8f4dd6", "type": "electric_bike", "is_disabled": 0, "lat": 38.933630666666666, "rental_uris": {"ios": "https://dc.lft.to/lastmile_qr_scan", "android": "https://dc.lft.to/lastmile_qr_scan"}, "is_reserved": 0, "fusion_lon": 0.0, "fusion_lat": 0.0, "lon": -77.02424683333334, "name": "c78d84b413059bfe1d1cc666da8f4dd6"}, {"bike_id": "1f961697c4e55833db29809909441103", "type": "electric_scooter", "is_disabled": 0, "lat": 38.923747666666664, "rental_uris": {"ios": "https://dc.lft.to/lastmile_qr_scan", "android": "https://dc.lft.to/lastmile_qr_scan"}, "is_reserved": 0, "fusion_lon": 0.0, "fusion_lat": 0.0, "lon": -77.0298295, "name": "1f961697c4e55833db29809909441103"}, {"bike_id": "6dc2a05c9539a0a25e4d9c300c48f88f", "type": "electric_scooter", "is_disabled": 0, "lat": 38.90569166666667, "rental_uris": {"ios": "https://dc.lft.to/lastmile_qr_scan", "android": "https://dc.lft.to/lastmile_qr_scan"}, "is_reserved": 0, "fusion_lon": 0.0, "fusion_lat": 0.0, "lon": -77.0424595, "name": "6dc2a05c9539a0a25e4d9c300c48f88f"}, {"bike_id": "82829412c2f684c894c5d43b5f368047", "type": "electric_scooter", "is_disabled": 0, "lat": 38.911161, "rental_uris": {"ios": "https://dc.lft.to/lastmile_qr_scan", "android": "https://dc.lft.to/lastmile_qr_scan"}, "is_reserved": 0, "fusion_lon": 0.0, "fusion_lat": 0.0, "lon": -77.03729783333333, "name": "82829412c2f684c894c5d43b5f368047"}, {"bike_id": "342bf23355ab892f8c35382d5581776e", "type": "electric_scooter", "is_disabled": 0, "lat": 38.88200066666667, "rental_uris": {"ios": "https://dc.lft.to/lastmile_qr_scan", "android": "https://dc.lft.to/lastmile_qr_scan"}, "is_reserved": 0, "fusion_lon": 0.0, "fusion_lat": 0.0, "lon": -76.98930583333333, "name": "342bf23355ab892f8c35382d5581776e"}, {"bike_id": "3e9ad344490c0bb1085cdd7dcf911818", "type": "electric_scooter", "is_disabled": 0, "lat": 38.90752833333333, "rental_uris": {"ios": "https://dc.lft.to/lastmile_qr_scan", "android": "https://dc.lft.to/lastmile_qr_scan"}, "is_reserved": 0, "fusion_lon": 0.0, "fusion_lat": 0.0, "lon": -77.04346733333334, "name": "3e9ad344490c0bb1085cdd7dcf911818"}, {"bike_id": "464fb13dbb422af93e0a49af9c4e1a5a", "type": "electric_scooter", "is_disabled": 0, "lat": 38.9177365, "rental_uris": {"ios": "https://dc.lft.to/lastmile_qr_scan", "android": "https://dc.lft.to/lastmile_qr_scan"}, "is_reserved": 0, "fusion_lon": 0.0, "fusion_lat": 0.0, "lon": -77.023124, "name": "464fb13dbb422af93e0a49af9c4e1a5a"}, {"bike_id": "52604dea1f6505d85d13490c9381babf", "type": "electric_scooter", "is_disabled": 0, "lat": 38.90052933333333, "rental_uris": {"ios": "https://dc.lft.to/lastmile_qr_scan", "android": "https://dc.lft.to/lastmile_qr_scan"}, "is_reserved": 0, "fusion_lon": 0.0, "fusion_lat": 0.0, "lon": -77.048351, "name": "52604dea1f6505d85d13490c9381babf"}, {"bike_id": "49fda52e82e9555dfa569ad8d0421fd8", "type": "electric_scooter", "is_disabled": 0, "lat": 38.92482716666667, "rental_uris": {"ios": "https://dc.lft.to/lastmile_qr_scan", "android": "https://dc.lft.to/lastmile_qr_scan"}, "is_reserved": 0, "fusion_lon": 0.0, "fusion_lat": 0.0, "lon": -77.0283095, "name": "49fda52e82e9555dfa569ad8d0421fd8"}, {"bike_id": "88e1534cf038be8858588bf8917f243e", "type": "electric_scooter", "is_disabled": 0, "lat": 38.918170833333335, "rental_uris": {"ios": "https://dc.lft.to/lastmile_qr_scan", "android": "https://dc.lft.to/lastmile_qr_scan"}, "is_reserved": 0, "fusion_lon": 0.0, "fusion_lat": 0.0, "lon": -77.0247515, "name": "88e1534cf038be8858588bf8917f243e"}, {"bike_id": "c64ea98f6ebc24ec13a7c84f27a6a066", "type": "electric_scooter", "is_disabled": 0, "lat": 38.8987335, "rental_uris": {"ios": "https://dc.lft.to/lastmile_qr_scan", "android": "https://dc.lft.to/lastmile_qr_scan"}, "is_reserved": 0, "fusion_lon": 0.0, "fusion_lat": 0.0, "lon": -76.93188566666667, "name": "c64ea98f6ebc24ec13a7c84f27a6a066"}, {"bike_id": "6f350e04e9afd27543d54d3256b84cdb", "type": "electric_bike", "is_disabled": 0, "lat": 38.93976033333333, "rental_uris": {"ios": "https://dc.lft.to/lastmile_qr_scan", "android": "https://dc.lft.to/lastmile_qr_scan"}, "is_reserved": 0, "fusion_lon": 0.0, "fusion_lat": 0.0, "lon": -77.052503, "name": "6f350e04e9afd27543d54d3256b84cdb"}, {"bike_id": "86c137968ed73d1ab416cf003a1a03a4", "type": "electric_scooter", "is_disabled": 0, "lat": 38.9180195, "rental_uris": {"ios": "https://dc.lft.to/lastmile_qr_scan", "android": "https://dc.lft.to/lastmile_qr_scan"}, "is_reserved": 0, "fusion_lon": 0.0, "fusion_lat": 0.0, "lon": -77.03623166666667, "name": "86c137968ed73d1ab416cf003a1a03a4"}, {"bike_id": "83a68dd5a2af012bd5019cbfd86ffedd", "type": "electric_scooter", "is_disabled": 0, "lat": 38.83826466666667, "rental_uris": {"ios": "https://dc.lft.to/lastmile_qr_scan", "android": "https://dc.lft.to/lastmile_qr_scan"}, "is_reserved": 0, "fusion_lon": 0.0, "fusion_lat": 0.0, "lon": -77.0026965, "name": "83a68dd5a2af012bd5019cbfd86ffedd"}, {"bike_id": "96a1faca3705c9e093d87678561421a4", "type": "electric_scooter", "is_disabled": 0, "lat": 38.904109166666665, "rental_uris": {"ios": "https://dc.lft.to/lastmile_qr_scan", "android": "https://dc.lft.to/lastmile_qr_scan"}, "is_reserved": 0, "fusion_lon": 0.0, "fusion_lat": 0.0, "lon": -77.02743216666667, "name": "96a1faca3705c9e093d87678561421a4"}, {"bike_id": "ad91f74a4fcdcd7e01ed844816762758", "type": "electric_scooter", "is_disabled": 0, "lat": 38.9147975, "rental_uris": {"ios": "https://dc.lft.to/lastmile_qr_scan", "android": "https://dc.lft.to/lastmile_qr_scan"}, "is_reserved": 0, "fusion_lon": 0.0, "fusion_lat": 0.0, "lon": -76.98568966666667, "name": "ad91f74a4fcdcd7e01ed844816762758"}, {"bike_id": "e3764f54bfbfc84d00746db9bb1285fe", "type": "electric_scooter", "is_disabled": 0, "lat": 38.90463116666667, "rental_uris": {"ios": "https://dc.lft.to/lastmile_qr_scan", "android": "https://dc.lft.to/lastmile_qr_scan"}, "is_reserved": 0, "fusion_lon": 0.0, "fusion_lat": 0.0, "lon": -77.00736466666666, "name": "e3764f54bfbfc84d00746db9bb1285fe"}, {"bike_id": "220e235ddc4080e7805f338e5b30bfda", "type": "electric_scooter", "is_disabled": 0, "lat": 38.9225035, "rental_uris": {"ios": "https://dc.lft.to/lastmile_qr_scan", "android": "https://dc.lft.to/lastmile_qr_scan"}, "is_reserved": 0, "fusion_lon": 0.0, "fusion_lat": 0.0, "lon": -77.028487, "name": "220e235ddc4080e7805f338e5b30bfda"}, {"bike_id": "aaeb3f946d6557de3b1e77520652b05a", "type": "electric_scooter", "is_disabled": 0, "lat": 38.92156466666667, "rental_uris": {"ios": "https://dc.lft.to/lastmile_qr_scan", "android": "https://dc.lft.to/lastmile_qr_scan"}, "is_reserved": 0, "fusion_lon": 0.0, "fusion_lat": 0.0, "lon": -77.03310383333333, "name": "aaeb3f946d6557de3b1e77520652b05a"}, {"bike_id": "15f5d013eea1357a69f2db1fc9c83099", "type": "electric_scooter", "is_disabled": 0, "lat": 38.90251266666667, "rental_uris": {"ios": "https://dc.lft.to/lastmile_qr_scan", "android": "https://dc.lft.to/lastmile_qr_scan"}, "is_reserved": 0, "fusion_lon": 0.0, "fusion_lat": 0.0, "lon": -76.98672966666666, "name": "15f5d013eea1357a69f2db1fc9c83099"}, {"bike_id": "9df13bcb80b182f22f57e7acb082946e", "type": "electric_scooter", "is_disabled": 0, "lat": 38.9000595, "rental_uris": {"ios": "https://dc.lft.to/lastmile_qr_scan", "android": "https://dc.lft.to/lastmile_qr_scan"}, "is_reserved": 0, "fusion_lon": 0.0, "fusion_lat": 0.0, "lon": -77.010342, "name": "9df13bcb80b182f22f57e7acb082946e"}, {"bike_id": "8852411cc14a759cd672db17f8720d15", "type": "electric_scooter", "is_disabled": 0, "lat": 38.915660833333334, "rental_uris": {"ios": "https://dc.lft.to/lastmile_qr_scan", "android": "https://dc.lft.to/lastmile_qr_scan"}, "is_reserved": 0, "fusion_lon": 0.0, "fusion_lat": 0.0, "lon": -77.02024016666667, "name": "8852411cc14a759cd672db17f8720d15"}, {"bike_id": "459ba674b38a9aaac9b7d613032cf2b9", "type": "electric_scooter", "is_disabled": 0, "lat": 38.89671116666667, "rental_uris": {"ios": "https://dc.lft.to/lastmile_qr_scan", "android": "https://dc.lft.to/lastmile_qr_scan"}, "is_reserved": 0, "fusion_lon": 0.0, "fusion_lat": 0.0, "lon": -77.02373316666667, "name": "459ba674b38a9aaac9b7d613032cf2b9"}, {"bike_id": "45670c9935e5720d43b7430b4cbf7800", "type": "electric_scooter", "is_disabled": 0, "lat": 38.88587166666667, "rental_uris": {"ios": "https://dc.lft.to/lastmile_qr_scan", "android": "https://dc.lft.to/lastmile_qr_scan"}, "is_reserved": 0, "fusion_lon": 0.0, "fusion_lat": 0.0, "lon": -77.02836583333334, "name": "45670c9935e5720d43b7430b4cbf7800"}, {"bike_id": "f6e56828e12d7da2b0a5af10977253d5", "type": "electric_bike", "is_disabled": 0, "lat": 38.8360835, "rental_uris": {"ios": "https://dc.lft.to/lastmile_qr_scan", "android": "https://dc.lft.to/lastmile_qr_scan"}, "is_reserved": 0, "fusion_lon": 0.0, "fusion_lat": 0.0, "lon": -77.00381383333334, "name": "f6e56828e12d7da2b0a5af10977253d5"}, {"bike_id": "16dcc0f20d6ec5df02ccc6ea8dabc012", "type": "electric_scooter", "is_disabled": 0, "lat": 38.90101766666667, "rental_uris": {"ios": "https://dc.lft.to/lastmile_qr_scan", "android": "https://dc.lft.to/lastmile_qr_scan"}, "is_reserved": 0, "fusion_lon": 0.0, "fusion_lat": 0.0, "lon": -77.0382925, "name": "16dcc0f20d6ec5df02ccc6ea8dabc012"}, {"bike_id": "a26e039fac5b2a72c3fc9463d5825dba", "type": "electric_scooter", "is_disabled": 0, "lat": 38.843129833333336, "rental_uris": {"ios": "https://dc.lft.to/lastmile_qr_scan", "android": "https://dc.lft.to/lastmile_qr_scan"}, "is_reserved": 0, "fusion_lon": 0.0, "fusion_lat": 0.0, "lon": -76.99928633333333, "name": "a26e039fac5b2a72c3fc9463d5825dba"}, {"bike_id": "40fad7043e2e1bba3a6f7256f14980ba", "type": "electric_scooter", "is_disabled": 0, "lat": 38.919819333333336, "rental_uris": {"ios": "https://dc.lft.to/lastmile_qr_scan", "android": "https://dc.lft.to/lastmile_qr_scan"}, "is_reserved": 0, "fusion_lon": 0.0, "fusion_lat": 0.0, "lon": -77.0180475, "name": "40fad7043e2e1bba3a6f7256f14980ba"}, {"bike_id": "0fdd23f4935d2b962fab412cedfcdb73", "type": "electric_scooter", "is_disabled": 0, "lat": 38.91117716666667, "rental_uris": {"ios": "https://dc.lft.to/lastmile_qr_scan", "android": "https://dc.lft.to/lastmile_qr_scan"}, "is_reserved": 0, "fusion_lon": 0.0, "fusion_lat": 0.0, "lon": -77.04517416666667, "name": "0fdd23f4935d2b962fab412cedfcdb73"}, {"bike_id": "ae46c515047804f21598f36edaacae1e", "type": "electric_scooter", "is_disabled": 0, "lat": 38.91329666666667, "rental_uris": {"ios": "https://dc.lft.to/lastmile_qr_scan", "android": "https://dc.lft.to/lastmile_qr_scan"}, "is_reserved": 0, "fusion_lon": 0.0, "fusion_lat": 0.0, "lon": -77.03983116666667, "name": "ae46c515047804f21598f36edaacae1e"}, {"bike_id": "c5a87ba2341332dc7c1ead9e8a11668b", "type": "electric_scooter", "is_disabled": 0, "lat": 38.914655, "rental_uris": {"ios": "https://dc.lft.to/lastmile_qr_scan", "android": "https://dc.lft.to/lastmile_qr_scan"}, "is_reserved": 0, "fusion_lon": 0.0, "fusion_lat": 0.0, "lon": -77.00205116666666, "name": "c5a87ba2341332dc7c1ead9e8a11668b"}, {"bike_id": "3660630f14b36a196acb53b95f470fd2", "type": "electric_scooter", "is_disabled": 0, "lat": 38.92363483333333, "rental_uris": {"ios": "https://dc.lft.to/lastmile_qr_scan", "android": "https://dc.lft.to/lastmile_qr_scan"}, "is_reserved": 0, "fusion_lon": 0.0, "fusion_lat": 0.0, "lon": -77.05127616666667, "name": "3660630f14b36a196acb53b95f470fd2"}, {"bike_id": "0a344530c88ff31719fab58b6a7de91e", "type": "electric_bike", "is_disabled": 0, "lat": 38.895645, "rental_uris": {"ios": "https://dc.lft.to/lastmile_qr_scan", "android": "https://dc.lft.to/lastmile_qr_scan"}, "is_reserved": 0, "fusion_lon": 0.0, "fusion_lat": 0.0, "lon": -77.12737016666667, "name": "0a344530c88ff31719fab58b6a7de91e"}, {"bike_id": "4f8fb0f870e9e0ee81273641d26b8c3d", "type": "electric_scooter", "is_disabled": 0, "lat": 38.92274366666667, "rental_uris": {"ios": "https://dc.lft.to/lastmile_qr_scan", "android": "https://dc.lft.to/lastmile_qr_scan"}, "is_reserved": 0, "fusion_lon": 0.0, "fusion_lat": 0.0, "lon": -77.03662166666666, "name": "4f8fb0f870e9e0ee81273641d26b8c3d"}, {"bike_id": "1667d4fdc938fb94536962dbcc6cc3f7", "type": "electric_scooter", "is_disabled": 0, "lat": 38.93956133333333, "rental_uris": {"ios": "https://dc.lft.to/lastmile_qr_scan", "android": "https://dc.lft.to/lastmile_qr_scan"}, "is_reserved": 0, "fusion_lon": 0.0, "fusion_lat": 0.0, "lon": -77.07257066666666, "name": "1667d4fdc938fb94536962dbcc6cc3f7"}, {"bike_id": "11250e39f8429b4ecef0c6e9bc8c9e96", "type": "electric_scooter", "is_disabled": 0, "lat": 38.916802833333335, "rental_uris": {"ios": "https://dc.lft.to/lastmile_qr_scan", "android": "https://dc.lft.to/lastmile_qr_scan"}, "is_reserved": 0, "fusion_lon": 0.0, "fusion_lat": 0.0, "lon": -77.03050266666666, "name": "11250e39f8429b4ecef0c6e9bc8c9e96"}, {"bike_id": "cee2823f40b753acfc63898a77ae548c", "type": "electric_scooter", "is_disabled": 0, "lat": 38.91763533333334, "rental_uris": {"ios": "https://dc.lft.to/lastmile_qr_scan", "android": "https://dc.lft.to/lastmile_qr_scan"}, "is_reserved": 0, "fusion_lon": 0.0, "fusion_lat": 0.0, "lon": -77.01463116666666, "name": "cee2823f40b753acfc63898a77ae548c"}, {"bike_id": "0c8bd1b00e8431d5ba5544727e301e9a", "type": "electric_scooter", "is_disabled": 0, "lat": 38.89739633333333, "rental_uris": {"ios": "https://dc.lft.to/lastmile_qr_scan", "android": "https://dc.lft.to/lastmile_qr_scan"}, "is_reserved": 0, "fusion_lon": 0.0, "fusion_lat": 0.0, "lon": -77.02722433333334, "name": "0c8bd1b00e8431d5ba5544727e301e9a"}, {"bike_id": "b4677c2dfa1915e5c63fe6c8fc3ed5bf", "type": "electric_scooter", "is_disabled": 0, "lat": 38.939565333333334, "rental_uris": {"ios": "https://dc.lft.to/lastmile_qr_scan", "android": "https://dc.lft.to/lastmile_qr_scan"}, "is_reserved": 0, "fusion_lon": 0.0, "fusion_lat": 0.0, "lon": -77.060693, "name": "b4677c2dfa1915e5c63fe6c8fc3ed5bf"}, {"bike_id": "01f53a15c58890317ffa0fdf89d84d41", "type": "electric_scooter", "is_disabled": 0, "lat": 38.9071125, "rental_uris": {"ios": "https://dc.lft.to/lastmile_qr_scan", "android": "https://dc.lft.to/lastmile_qr_scan"}, "is_reserved": 0, "fusion_lon": 0.0, "fusion_lat": 0.0, "lon": -77.02386583333333, "name": "01f53a15c58890317ffa0fdf89d84d41"}, {"bike_id": "8686c9f484c02e1d49a6568b2e6a4c44", "type": "electric_scooter", "is_disabled": 0, "lat": 38.870803, "rental_uris": {"ios": "https://dc.lft.to/lastmile_qr_scan", "android": "https://dc.lft.to/lastmile_qr_scan"}, "is_reserved": 0, "fusion_lon": 0.0, "fusion_lat": 0.0, "lon": -77.012029, "name": "8686c9f484c02e1d49a6568b2e6a4c44"}, {"bike_id": "4092e78a5a6641b63ff4492c56aa7c90", "type": "electric_scooter", "is_disabled": 0, "lat": 38.9012195, "rental_uris": {"ios": "https://dc.lft.to/lastmile_qr_scan", "android": "https://dc.lft.to/lastmile_qr_scan"}, "is_reserved": 0, "fusion_lon": 0.0, "fusion_lat": 0.0, "lon": -77.04341066666667, "name": "4092e78a5a6641b63ff4492c56aa7c90"}, {"bike_id": "7bd5f10660f93d53eea9860a03e17359", "type": "electric_scooter", "is_disabled": 0, "lat": 38.920512, "rental_uris": {"ios": "https://dc.lft.to/lastmile_qr_scan", "android": "https://dc.lft.to/lastmile_qr_scan"}, "is_reserved": 0, "fusion_lon": 0.0, "fusion_lat": 0.0, "lon": -76.99875866666666, "name": "7bd5f10660f93d53eea9860a03e17359"}, {"bike_id": "489e7b31be02b308cfc8ade03b0305ff", "type": "electric_scooter", "is_disabled": 0, "lat": 38.8762815, "rental_uris": {"ios": "https://dc.lft.to/lastmile_qr_scan", "android": "https://dc.lft.to/lastmile_qr_scan"}, "is_reserved": 0, "fusion_lon": 0.0, "fusion_lat": 0.0, "lon": -76.96525783333334, "name": "489e7b31be02b308cfc8ade03b0305ff"}, {"bike_id": "84569217ead0b30c9bb9bfec22f23e40", "type": "electric_scooter", "is_disabled": 0, "lat": 38.905774, "rental_uris": {"ios": "https://dc.lft.to/lastmile_qr_scan", "android": "https://dc.lft.to/lastmile_qr_scan"}, "is_reserved": 0, "fusion_lon": 0.0, "fusion_lat": 0.0, "lon": -77.04705, "name": "84569217ead0b30c9bb9bfec22f23e40"}, {"bike_id": "35cc66df4561167649c60fd8537c1876", "type": "electric_scooter", "is_disabled": 0, "lat": 38.95612166666667, "rental_uris": {"ios": "https://dc.lft.to/lastmile_qr_scan", "android": "https://dc.lft.to/lastmile_qr_scan"}, "is_reserved": 0, "fusion_lon": 0.0, "fusion_lat": 0.0, "lon": -77.01012416666667, "name": "35cc66df4561167649c60fd8537c1876"}, {"bike_id": "36b45c9daf4b7360e21c02195960e371", "type": "electric_scooter", "is_disabled": 0, "lat": 38.9021375, "rental_uris": {"ios": "https://dc.lft.to/lastmile_qr_scan", "android": "https://dc.lft.to/lastmile_qr_scan"}, "is_reserved": 0, "fusion_lon": 0.0, "fusion_lat": 0.0, "lon": -77.043085, "name": "36b45c9daf4b7360e21c02195960e371"}, {"bike_id": "8dfe7cd40399bbc31c68e80c515693e8", "type": "electric_scooter", "is_disabled": 0, "lat": 38.90969066666667, "rental_uris": {"ios": "https://dc.lft.to/lastmile_qr_scan", "android": "https://dc.lft.to/lastmile_qr_scan"}, "is_reserved": 0, "fusion_lon": 0.0, "fusion_lat": 0.0, "lon": -77.03860416666667, "name": "8dfe7cd40399bbc31c68e80c515693e8"}, {"bike_id": "88d71ddda466036f28b0c40d62f59de0", "type": "electric_scooter", "is_disabled": 0, "lat": 38.94016766666667, "rental_uris": {"ios": "https://dc.lft.to/lastmile_qr_scan", "android": "https://dc.lft.to/lastmile_qr_scan"}, "is_reserved": 0, "fusion_lon": 0.0, "fusion_lat": 0.0, "lon": -77.0264075, "name": "88d71ddda466036f28b0c40d62f59de0"}, {"bike_id": "e92d97d6f3d23abbe9a5f864c31a5564", "type": "electric_scooter", "is_disabled": 0, "lat": 38.91679366666666, "rental_uris": {"ios": "https://dc.lft.to/lastmile_qr_scan", "android": "https://dc.lft.to/lastmile_qr_scan"}, "is_reserved": 0, "fusion_lon": 0.0, "fusion_lat": 0.0, "lon": -77.01575966666667, "name": "e92d97d6f3d23abbe9a5f864c31a5564"}, {"bike_id": "6a775a15f7565456b3651807c303a0a0", "type": "electric_scooter", "is_disabled": 0, "lat": 38.92752316666667, "rental_uris": {"ios": "https://dc.lft.to/lastmile_qr_scan", "android": "https://dc.lft.to/lastmile_qr_scan"}, "is_reserved": 0, "fusion_lon": 0.0, "fusion_lat": 0.0, "lon": -77.05640866666667, "name": "6a775a15f7565456b3651807c303a0a0"}, {"bike_id": "98a6e5405ad272efe5cc3522f55851ba", "type": "electric_scooter", "is_disabled": 0, "lat": 38.9168485, "rental_uris": {"ios": "https://dc.lft.to/lastmile_qr_scan", "android": "https://dc.lft.to/lastmile_qr_scan"}, "is_reserved": 0, "fusion_lon": 0.0, "fusion_lat": 0.0, "lon": -77.02398016666666, "name": "98a6e5405ad272efe5cc3522f55851ba"}, {"bike_id": "4bb647159d13f1a379aa4c734b7fc0ac", "type": "electric_scooter", "is_disabled": 0, "lat": 38.911045, "rental_uris": {"ios": "https://dc.lft.to/lastmile_qr_scan", "android": "https://dc.lft.to/lastmile_qr_scan"}, "is_reserved": 0, "fusion_lon": 0.0, "fusion_lat": 0.0, "lon": -77.00215966666667, "name": "4bb647159d13f1a379aa4c734b7fc0ac"}, {"bike_id": "331d832054d888b2e47884ba7f3dc371", "type": "electric_scooter", "is_disabled": 0, "lat": 38.9097405, "rental_uris": {"ios": "https://dc.lft.to/lastmile_qr_scan", "android": "https://dc.lft.to/lastmile_qr_scan"}, "is_reserved": 0, "fusion_lon": 0.0, "fusion_lat": 0.0, "lon": -77.02807, "name": "331d832054d888b2e47884ba7f3dc371"}, {"bike_id": "8a83513e8fee915195987d2f0125a0cc", "type": "electric_scooter", "is_disabled": 0, "lat": 38.9023985, "rental_uris": {"ios": "https://dc.lft.to/lastmile_qr_scan", "android": "https://dc.lft.to/lastmile_qr_scan"}, "is_reserved": 0, "fusion_lon": 0.0, "fusion_lat": 0.0, "lon": -77.01792233333333, "name": "8a83513e8fee915195987d2f0125a0cc"}, {"bike_id": "c0dec5b3243ab9a61274659b06da557a", "type": "electric_scooter", "is_disabled": 0, "lat": 38.88431816666667, "rental_uris": {"ios": "https://dc.lft.to/lastmile_qr_scan", "android": "https://dc.lft.to/lastmile_qr_scan"}, "is_reserved": 0, "fusion_lon": 0.0, "fusion_lat": 0.0, "lon": -76.95742716666666, "name": "c0dec5b3243ab9a61274659b06da557a"}, {"bike_id": "a83163ae0babcf2a38c307b22901b6d0", "type": "electric_scooter", "is_disabled": 0, "lat": 38.90277833333333, "rental_uris": {"ios": "https://dc.lft.to/lastmile_qr_scan", "android": "https://dc.lft.to/lastmile_qr_scan"}, "is_reserved": 0, "fusion_lon": 0.0, "fusion_lat": 0.0, "lon": -77.0365705, "name": "a83163ae0babcf2a38c307b22901b6d0"}, {"bike_id": "f537c1fc52c9697057b76f83da8c1c24", "type": "electric_scooter", "is_disabled": 0, "lat": 38.917848666666664, "rental_uris": {"ios": "https://dc.lft.to/lastmile_qr_scan", "android": "https://dc.lft.to/lastmile_qr_scan"}, "is_reserved": 0, "fusion_lon": 0.0, "fusion_lat": 0.0, "lon": -77.031803, "name": "f537c1fc52c9697057b76f83da8c1c24"}, {"bike_id": "e354925650490b8a8d126b072e0dbc7d", "type": "electric_scooter", "is_disabled": 0, "lat": 38.87470016666666, "rental_uris": {"ios": "https://dc.lft.to/lastmile_qr_scan", "android": "https://dc.lft.to/lastmile_qr_scan"}, "is_reserved": 0, "fusion_lon": 0.0, "fusion_lat": 0.0, "lon": -77.01071466666667, "name": "e354925650490b8a8d126b072e0dbc7d"}, {"bike_id": "b55bd34cb739e60bb0e26e5455121c52", "type": "electric_scooter", "is_disabled": 0, "lat": 38.90519283333333, "rental_uris": {"ios": "https://dc.lft.to/lastmile_qr_scan", "android": "https://dc.lft.to/lastmile_qr_scan"}, "is_reserved": 0, "fusion_lon": 0.0, "fusion_lat": 0.0, "lon": -77.06245166666666, "name": "b55bd34cb739e60bb0e26e5455121c52"}, {"bike_id": "52970bb401a93019231f5ddcbe8a77c9", "type": "electric_scooter", "is_disabled": 0, "lat": 38.91820416666667, "rental_uris": {"ios": "https://dc.lft.to/lastmile_qr_scan", "android": "https://dc.lft.to/lastmile_qr_scan"}, "is_reserved": 0, "fusion_lon": 0.0, "fusion_lat": 0.0, "lon": -77.0316215, "name": "52970bb401a93019231f5ddcbe8a77c9"}, {"bike_id": "0dc74094e4bbe7a482c6463b08c22077", "type": "electric_scooter", "is_disabled": 0, "lat": 38.957355666666665, "rental_uris": {"ios": "https://dc.lft.to/lastmile_qr_scan", "android": "https://dc.lft.to/lastmile_qr_scan"}, "is_reserved": 0, "fusion_lon": 0.0, "fusion_lat": 0.0, "lon": -77.02418433333334, "name": "0dc74094e4bbe7a482c6463b08c22077"}, {"bike_id": "866ca71fae6db5d1ba54611d0eb93233", "type": "electric_scooter", "is_disabled": 0, "lat": 38.887372, "rental_uris": {"ios": "https://dc.lft.to/lastmile_qr_scan", "android": "https://dc.lft.to/lastmile_qr_scan"}, "is_reserved": 0, "fusion_lon": 0.0, "fusion_lat": 0.0, "lon": -77.01529516666666, "name": "866ca71fae6db5d1ba54611d0eb93233"}, {"bike_id": "81184838aeb74f3bc1daa697266f8281", "type": "electric_scooter", "is_disabled": 0, "lat": 38.91425433333333, "rental_uris": {"ios": "https://dc.lft.to/lastmile_qr_scan", "android": "https://dc.lft.to/lastmile_qr_scan"}, "is_reserved": 0, "fusion_lon": 0.0, "fusion_lat": 0.0, "lon": -77.02202116666666, "name": "81184838aeb74f3bc1daa697266f8281"}, {"bike_id": "f7346e306499c99be5b6e0d65668d315", "type": "electric_scooter", "is_disabled": 0, "lat": 38.902409166666665, "rental_uris": {"ios": "https://dc.lft.to/lastmile_qr_scan", "android": "https://dc.lft.to/lastmile_qr_scan"}, "is_reserved": 0, "fusion_lon": 0.0, "fusion_lat": 0.0, "lon": -77.01792583333334, "name": "f7346e306499c99be5b6e0d65668d315"}, {"bike_id": "48b63de1bb42efc2c09ca6d4f2de39b1", "type": "electric_scooter", "is_disabled": 0, "lat": 38.928595666666666, "rental_uris": {"ios": "https://dc.lft.to/lastmile_qr_scan", "android": "https://dc.lft.to/lastmile_qr_scan"}, "is_reserved": 0, "fusion_lon": 0.0, "fusion_lat": 0.0, "lon": -77.0230595, "name": "48b63de1bb42efc2c09ca6d4f2de39b1"}, {"bike_id": "cd9ff9b8fb6ede6c0285ee8199844cfd", "type": "electric_scooter", "is_disabled": 0, "lat": 38.93791433333333, "rental_uris": {"ios": "https://dc.lft.to/lastmile_qr_scan", "android": "https://dc.lft.to/lastmile_qr_scan"}, "is_reserved": 0, "fusion_lon": 0.0, "fusion_lat": 0.0, "lon": -77.0248505, "name": "cd9ff9b8fb6ede6c0285ee8199844cfd"}, {"bike_id": "267a4fc3bb443819933b2f6de72538ae", "type": "electric_scooter", "is_disabled": 0, "lat": 38.91930833333333, "rental_uris": {"ios": "https://dc.lft.to/lastmile_qr_scan", "android": "https://dc.lft.to/lastmile_qr_scan"}, "is_reserved": 0, "fusion_lon": 0.0, "fusion_lat": 0.0, "lon": -77.00236466666667, "name": "267a4fc3bb443819933b2f6de72538ae"}, {"bike_id": "817551b78cbf1ff8bea0223032a6afdd", "type": "electric_scooter", "is_disabled": 0, "lat": 38.90383466666667, "rental_uris": {"ios": "https://dc.lft.to/lastmile_qr_scan", "android": "https://dc.lft.to/lastmile_qr_scan"}, "is_reserved": 0, "fusion_lon": 0.0, "fusion_lat": 0.0, "lon": -76.9820795, "name": "817551b78cbf1ff8bea0223032a6afdd"}, {"bike_id": "fb80e164eb0d19fab3da20736f687a0e", "type": "electric_scooter", "is_disabled": 0, "lat": 38.91682266666667, "rental_uris": {"ios": "https://dc.lft.to/lastmile_qr_scan", "android": "https://dc.lft.to/lastmile_qr_scan"}, "is_reserved": 0, "fusion_lon": 0.0, "fusion_lat": 0.0, "lon": -77.02967083333333, "name": "fb80e164eb0d19fab3da20736f687a0e"}, {"bike_id": "a71f16e04e3f2d439624883ded78432c", "type": "electric_bike", "is_disabled": 0, "lat": 38.838505166666664, "rental_uris": {"ios": "https://dc.lft.to/lastmile_qr_scan", "android": "https://dc.lft.to/lastmile_qr_scan"}, "is_reserved": 0, "fusion_lon": 0.0, "fusion_lat": 0.0, "lon": -77.050256, "name": "a71f16e04e3f2d439624883ded78432c"}, {"bike_id": "3b9701478d09766783930eb3674c7fee", "type": "electric_scooter", "is_disabled": 0, "lat": 38.93652566666667, "rental_uris": {"ios": "https://dc.lft.to/lastmile_qr_scan", "android": "https://dc.lft.to/lastmile_qr_scan"}, "is_reserved": 0, "fusion_lon": 0.0, "fusion_lat": 0.0, "lon": -77.026391, "name": "3b9701478d09766783930eb3674c7fee"}, {"bike_id": "073536b2b961b1a17015b60a488ecc4f", "type": "electric_scooter", "is_disabled": 0, "lat": 38.91062183333333, "rental_uris": {"ios": "https://dc.lft.to/lastmile_qr_scan", "android": "https://dc.lft.to/lastmile_qr_scan"}, "is_reserved": 0, "fusion_lon": 0.0, "fusion_lat": 0.0, "lon": -77.03727116666667, "name": "073536b2b961b1a17015b60a488ecc4f"}, {"bike_id": "e5febf6f79cdca941076ae686a12296d", "type": "electric_scooter", "is_disabled": 0, "lat": 38.9225625, "rental_uris": {"ios": "https://dc.lft.to/lastmile_qr_scan", "android": "https://dc.lft.to/lastmile_qr_scan"}, "is_reserved": 0, "fusion_lon": 0.0, "fusion_lat": 0.0, "lon": -77.04303683333333, "name": "e5febf6f79cdca941076ae686a12296d"}, {"bike_id": "86af2b74141babf441bde1ed05140704", "type": "electric_scooter", "is_disabled": 0, "lat": 38.905676, "rental_uris": {"ios": "https://dc.lft.to/lastmile_qr_scan", "android": "https://dc.lft.to/lastmile_qr_scan"}, "is_reserved": 0, "fusion_lon": 0.0, "fusion_lat": 0.0, "lon": -76.976271, "name": "86af2b74141babf441bde1ed05140704"}, {"bike_id": "8f9b8214ec2311cf350b2724500b1f81", "type": "electric_bike", "is_disabled": 0, "lat": 38.90819316666666, "rental_uris": {"ios": "https://dc.lft.to/lastmile_qr_scan", "android": "https://dc.lft.to/lastmile_qr_scan"}, "is_reserved": 0, "fusion_lon": 0.0, "fusion_lat": 0.0, "lon": -76.9403395, "name": "8f9b8214ec2311cf350b2724500b1f81"}, {"bike_id": "21917c3881a06e994551052950596c0f", "type": "electric_scooter", "is_disabled": 0, "lat": 38.87087483333333, "rental_uris": {"ios": "https://dc.lft.to/lastmile_qr_scan", "android": "https://dc.lft.to/lastmile_qr_scan"}, "is_reserved": 0, "fusion_lon": 0.0, "fusion_lat": 0.0, "lon": -77.012124, "name": "21917c3881a06e994551052950596c0f"}, {"bike_id": "742dad832159de41c61eedaa66151173", "type": "electric_scooter", "is_disabled": 0, "lat": 38.9008935, "rental_uris": {"ios": "https://dc.lft.to/lastmile_qr_scan", "android": "https://dc.lft.to/lastmile_qr_scan"}, "is_reserved": 0, "fusion_lon": 0.0, "fusion_lat": 0.0, "lon": -77.01820233333333, "name": "742dad832159de41c61eedaa66151173"}, {"bike_id": "0a2123effc183ce32bfe171f4f3b14f5", "type": "electric_scooter", "is_disabled": 0, "lat": 38.90865, "rental_uris": {"ios": "https://dc.lft.to/lastmile_qr_scan", "android": "https://dc.lft.to/lastmile_qr_scan"}, "is_reserved": 0, "fusion_lon": 0.0, "fusion_lat": 0.0, "lon": -77.0858815, "name": "0a2123effc183ce32bfe171f4f3b14f5"}, {"bike_id": "e51bbfeba757da04ed3629c30d5a50c8", "type": "electric_scooter", "is_disabled": 0, "lat": 38.925726166666664, "rental_uris": {"ios": "https://dc.lft.to/lastmile_qr_scan", "android": "https://dc.lft.to/lastmile_qr_scan"}, "is_reserved": 0, "fusion_lon": 0.0, "fusion_lat": 0.0, "lon": -77.0378345, "name": "e51bbfeba757da04ed3629c30d5a50c8"}, {"bike_id": "d7377afb5f016b4ae09a40c43207b44d", "type": "electric_scooter", "is_disabled": 0, "lat": 38.88402383333333, "rental_uris": {"ios": "https://dc.lft.to/lastmile_qr_scan", "android": "https://dc.lft.to/lastmile_qr_scan"}, "is_reserved": 0, "fusion_lon": 0.0, "fusion_lat": 0.0, "lon": -76.95396983333333, "name": "d7377afb5f016b4ae09a40c43207b44d"}, {"bike_id": "5537db6a9e3ab2872629c695bc84fb8a", "type": "electric_scooter", "is_disabled": 0, "lat": 38.890933833333335, "rental_uris": {"ios": "https://dc.lft.to/lastmile_qr_scan", "android": "https://dc.lft.to/lastmile_qr_scan"}, "is_reserved": 0, "fusion_lon": 0.0, "fusion_lat": 0.0, "lon": -76.93853416666667, "name": "5537db6a9e3ab2872629c695bc84fb8a"}, {"bike_id": "5ab8bd2bab83d37b7ac61a75f1f69ef5", "type": "electric_scooter", "is_disabled": 0, "lat": 38.932431666666666, "rental_uris": {"ios": "https://dc.lft.to/lastmile_qr_scan", "android": "https://dc.lft.to/lastmile_qr_scan"}, "is_reserved": 0, "fusion_lon": 0.0, "fusion_lat": 0.0, "lon": -77.0327485, "name": "5ab8bd2bab83d37b7ac61a75f1f69ef5"}, {"bike_id": "9aac6f3055c8875690bda479b14315ad", "type": "electric_scooter", "is_disabled": 0, "lat": 38.91521016666667, "rental_uris": {"ios": "https://dc.lft.to/lastmile_qr_scan", "android": "https://dc.lft.to/lastmile_qr_scan"}, "is_reserved": 0, "fusion_lon": 0.0, "fusion_lat": 0.0, "lon": -77.04844466666667, "name": "9aac6f3055c8875690bda479b14315ad"}, {"bike_id": "91865f348e5a11ca5614a724f16ed2af", "type": "electric_scooter", "is_disabled": 0, "lat": 38.907881333333336, "rental_uris": {"ios": "https://dc.lft.to/lastmile_qr_scan", "android": "https://dc.lft.to/lastmile_qr_scan"}, "is_reserved": 0, "fusion_lon": 0.0, "fusion_lat": 0.0, "lon": -77.038648, "name": "91865f348e5a11ca5614a724f16ed2af"}, {"bike_id": "f3beedcd8cc1a83a73fa08eb70c443f3", "type": "electric_bike", "is_disabled": 0, "lat": 38.865067333333336, "rental_uris": {"ios": "https://dc.lft.to/lastmile_qr_scan", "android": "https://dc.lft.to/lastmile_qr_scan"}, "is_reserved": 0, "fusion_lon": 0.0, "fusion_lat": 0.0, "lon": -76.97343, "name": "f3beedcd8cc1a83a73fa08eb70c443f3"}, {"bike_id": "2ff326e09f4a8ec7e0dca099a550db74", "type": "electric_scooter", "is_disabled": 0, "lat": 38.93869866666667, "rental_uris": {"ios": "https://dc.lft.to/lastmile_qr_scan", "android": "https://dc.lft.to/lastmile_qr_scan"}, "is_reserved": 0, "fusion_lon": 0.0, "fusion_lat": 0.0, "lon": -77.07782783333333, "name": "2ff326e09f4a8ec7e0dca099a550db74"}, {"bike_id": "9a6b8403c2b215cdf3f80cd34f8c48a3", "type": "electric_scooter", "is_disabled": 0, "lat": 38.92220733333333, "rental_uris": {"ios": "https://dc.lft.to/lastmile_qr_scan", "android": "https://dc.lft.to/lastmile_qr_scan"}, "is_reserved": 0, "fusion_lon": 0.0, "fusion_lat": 0.0, "lon": -77.0237515, "name": "9a6b8403c2b215cdf3f80cd34f8c48a3"}, {"bike_id": "634dc0a5eda9e2b856264b5d26e10f4d", "type": "electric_scooter", "is_disabled": 0, "lat": 38.907288666666666, "rental_uris": {"ios": "https://dc.lft.to/lastmile_qr_scan", "android": "https://dc.lft.to/lastmile_qr_scan"}, "is_reserved": 0, "fusion_lon": 0.0, "fusion_lat": 0.0, "lon": -77.02240666666667, "name": "634dc0a5eda9e2b856264b5d26e10f4d"}, {"bike_id": "8b4b5911832745389725dd2016f1cae4", "type": "electric_scooter", "is_disabled": 0, "lat": 38.911343, "rental_uris": {"ios": "https://dc.lft.to/lastmile_qr_scan", "android": "https://dc.lft.to/lastmile_qr_scan"}, "is_reserved": 0, "fusion_lon": 0.0, "fusion_lat": 0.0, "lon": -77.02201933333333, "name": "8b4b5911832745389725dd2016f1cae4"}, {"bike_id": "e81a47f64ab452b9fd7816f451ea751a", "type": "electric_scooter", "is_disabled": 0, "lat": 38.8431315, "rental_uris": {"ios": "https://dc.lft.to/lastmile_qr_scan", "android": "https://dc.lft.to/lastmile_qr_scan"}, "is_reserved": 0, "fusion_lon": 0.0, "fusion_lat": 0.0, "lon": -76.9992385, "name": "e81a47f64ab452b9fd7816f451ea751a"}, {"bike_id": "20b7b3aa999e531cdd3c08322c0142d6", "type": "electric_scooter", "is_disabled": 0, "lat": 38.908413333333336, "rental_uris": {"ios": "https://dc.lft.to/lastmile_qr_scan", "android": "https://dc.lft.to/lastmile_qr_scan"}, "is_reserved": 0, "fusion_lon": 0.0, "fusion_lat": 0.0, "lon": -77.0270855, "name": "20b7b3aa999e531cdd3c08322c0142d6"}, {"bike_id": "69d4abb26b5d95dd006aa62b4d1851ce", "type": "electric_scooter", "is_disabled": 0, "lat": 38.92323583333334, "rental_uris": {"ios": "https://dc.lft.to/lastmile_qr_scan", "android": "https://dc.lft.to/lastmile_qr_scan"}, "is_reserved": 0, "fusion_lon": 0.0, "fusion_lat": 0.0, "lon": -77.04637166666667, "name": "69d4abb26b5d95dd006aa62b4d1851ce"}, {"bike_id": "bcd40da15e13ae14a6e984f859b5e207", "type": "electric_scooter", "is_disabled": 0, "lat": 38.89540683333333, "rental_uris": {"ios": "https://dc.lft.to/lastmile_qr_scan", "android": "https://dc.lft.to/lastmile_qr_scan"}, "is_reserved": 0, "fusion_lon": 0.0, "fusion_lat": 0.0, "lon": -76.9886285, "name": "bcd40da15e13ae14a6e984f859b5e207"}, {"bike_id": "b05a4e20a6dd8528fd4041c4497ab1c6", "type": "electric_scooter", "is_disabled": 0, "lat": 38.91394916666667, "rental_uris": {"ios": "https://dc.lft.to/lastmile_qr_scan", "android": "https://dc.lft.to/lastmile_qr_scan"}, "is_reserved": 0, "fusion_lon": 0.0, "fusion_lat": 0.0, "lon": -77.017921, "name": "b05a4e20a6dd8528fd4041c4497ab1c6"}, {"bike_id": "f0c8093fe135a5ba2a0dc7a1ce37a308", "type": "electric_scooter", "is_disabled": 0, "lat": 38.902463833333336, "rental_uris": {"ios": "https://dc.lft.to/lastmile_qr_scan", "android": "https://dc.lft.to/lastmile_qr_scan"}, "is_reserved": 0, "fusion_lon": 0.0, "fusion_lat": 0.0, "lon": -77.04678566666666, "name": "f0c8093fe135a5ba2a0dc7a1ce37a308"}, {"bike_id": "45c8592de26e36328ad970106552b6ed", "type": "electric_scooter", "is_disabled": 0, "lat": 38.9110905, "rental_uris": {"ios": "https://dc.lft.to/lastmile_qr_scan", "android": "https://dc.lft.to/lastmile_qr_scan"}, "is_reserved": 0, "fusion_lon": 0.0, "fusion_lat": 0.0, "lon": -77.04905566666666, "name": "45c8592de26e36328ad970106552b6ed"}, {"bike_id": "c2d8230fa8e76b633850eedf0d901832", "type": "electric_scooter", "is_disabled": 0, "lat": 38.90267166666667, "rental_uris": {"ios": "https://dc.lft.to/lastmile_qr_scan", "android": "https://dc.lft.to/lastmile_qr_scan"}, "is_reserved": 0, "fusion_lon": 0.0, "fusion_lat": 0.0, "lon": -77.00250933333334, "name": "c2d8230fa8e76b633850eedf0d901832"}, {"bike_id": "fe3d39a590e35abf81b7a1292dc6b721", "type": "electric_scooter", "is_disabled": 0, "lat": 38.845336833333334, "rental_uris": {"ios": "https://dc.lft.to/lastmile_qr_scan", "android": "https://dc.lft.to/lastmile_qr_scan"}, "is_reserved": 0, "fusion_lon": 0.0, "fusion_lat": 0.0, "lon": -76.98545766666666, "name": "fe3d39a590e35abf81b7a1292dc6b721"}, {"bike_id": "1417f7c1e88ae8579350c1ae966fc03f", "type": "electric_scooter", "is_disabled": 0, "lat": 38.9276285, "rental_uris": {"ios": "https://dc.lft.to/lastmile_qr_scan", "android": "https://dc.lft.to/lastmile_qr_scan"}, "is_reserved": 0, "fusion_lon": 0.0, "fusion_lat": 0.0, "lon": -77.028373, "name": "1417f7c1e88ae8579350c1ae966fc03f"}, {"bike_id": "329f55b71f774e2838f6f0fa0c6e87a4", "type": "electric_bike", "is_disabled": 0, "lat": 38.866184, "rental_uris": {"ios": "https://dc.lft.to/lastmile_qr_scan", "android": "https://dc.lft.to/lastmile_qr_scan"}, "is_reserved": 0, "fusion_lon": 0.0, "fusion_lat": 0.0, "lon": -76.94571316666666, "name": "329f55b71f774e2838f6f0fa0c6e87a4"}, {"bike_id": "a0bb0b705e5753bc948b3d78514daf01", "type": "electric_scooter", "is_disabled": 0, "lat": 38.89792, "rental_uris": {"ios": "https://dc.lft.to/lastmile_qr_scan", "android": "https://dc.lft.to/lastmile_qr_scan"}, "is_reserved": 0, "fusion_lon": 0.0, "fusion_lat": 0.0, "lon": -77.0219225, "name": "a0bb0b705e5753bc948b3d78514daf01"}, {"bike_id": "a00a82485b1cbba4871090c6460c195d", "type": "electric_scooter", "is_disabled": 0, "lat": 38.898511666666664, "rental_uris": {"ios": "https://dc.lft.to/lastmile_qr_scan", "android": "https://dc.lft.to/lastmile_qr_scan"}, "is_reserved": 0, "fusion_lon": 0.0, "fusion_lat": 0.0, "lon": -76.99031016666666, "name": "a00a82485b1cbba4871090c6460c195d"}, {"bike_id": "d50695086f71e84f897a71f21fe96482", "type": "electric_scooter", "is_disabled": 0, "lat": 38.92059483333333, "rental_uris": {"ios": "https://dc.lft.to/lastmile_qr_scan", "android": "https://dc.lft.to/lastmile_qr_scan"}, "is_reserved": 0, "fusion_lon": 0.0, "fusion_lat": 0.0, "lon": -77.0242415, "name": "d50695086f71e84f897a71f21fe96482"}, {"bike_id": "fc498d71267ff678b569cc31de88b77c", "type": "electric_scooter", "is_disabled": 0, "lat": 38.92914016666667, "rental_uris": {"ios": "https://dc.lft.to/lastmile_qr_scan", "android": "https://dc.lft.to/lastmile_qr_scan"}, "is_reserved": 0, "fusion_lon": 0.0, "fusion_lat": 0.0, "lon": -77.0208775, "name": "fc498d71267ff678b569cc31de88b77c"}, {"bike_id": "17f435cd237f5d4fab617bd66b8b6c8d", "type": "electric_scooter", "is_disabled": 0, "lat": 38.905152333333334, "rental_uris": {"ios": "https://dc.lft.to/lastmile_qr_scan", "android": "https://dc.lft.to/lastmile_qr_scan"}, "is_reserved": 0, "fusion_lon": 0.0, "fusion_lat": 0.0, "lon": -77.063812, "name": "17f435cd237f5d4fab617bd66b8b6c8d"}, {"bike_id": "dc244087d9360165f3351a78830dbdca", "type": "electric_scooter", "is_disabled": 0, "lat": 38.927727833333336, "rental_uris": {"ios": "https://dc.lft.to/lastmile_qr_scan", "android": "https://dc.lft.to/lastmile_qr_scan"}, "is_reserved": 0, "fusion_lon": 0.0, "fusion_lat": 0.0, "lon": -77.02920766666666, "name": "dc244087d9360165f3351a78830dbdca"}, {"bike_id": "bfe081132b14b1961d73a9aac4638ec2", "type": "electric_scooter", "is_disabled": 0, "lat": 38.90769616666667, "rental_uris": {"ios": "https://dc.lft.to/lastmile_qr_scan", "android": "https://dc.lft.to/lastmile_qr_scan"}, "is_reserved": 0, "fusion_lon": 0.0, "fusion_lat": 0.0, "lon": -77.071705, "name": "bfe081132b14b1961d73a9aac4638ec2"}, {"bike_id": "7b79d1a9e89608b9ba3322050111f1bf", "type": "electric_scooter", "is_disabled": 0, "lat": 38.90527566666667, "rental_uris": {"ios": "https://dc.lft.to/lastmile_qr_scan", "android": "https://dc.lft.to/lastmile_qr_scan"}, "is_reserved": 0, "fusion_lon": 0.0, "fusion_lat": 0.0, "lon": -77.05904983333333, "name": "7b79d1a9e89608b9ba3322050111f1bf"}, {"bike_id": "dbfde398438076ca5602181f01e14cd1", "type": "electric_scooter", "is_disabled": 0, "lat": 38.909542, "rental_uris": {"ios": "https://dc.lft.to/lastmile_qr_scan", "android": "https://dc.lft.to/lastmile_qr_scan"}, "is_reserved": 0, "fusion_lon": 0.0, "fusion_lat": 0.0, "lon": -77.02605966666667, "name": "dbfde398438076ca5602181f01e14cd1"}, {"bike_id": "d0ede69c9ff4e7db1338b4f7f9a31cfe", "type": "electric_scooter", "is_disabled": 0, "lat": 38.908105, "rental_uris": {"ios": "https://dc.lft.to/lastmile_qr_scan", "android": "https://dc.lft.to/lastmile_qr_scan"}, "is_reserved": 0, "fusion_lon": 0.0, "fusion_lat": 0.0, "lon": -77.02971166666667, "name": "d0ede69c9ff4e7db1338b4f7f9a31cfe"}, {"bike_id": "07de1b033bd25f1c7a05d57b78db3237", "type": "electric_scooter", "is_disabled": 0, "lat": 38.91266, "rental_uris": {"ios": "https://dc.lft.to/lastmile_qr_scan", "android": "https://dc.lft.to/lastmile_qr_scan"}, "is_reserved": 0, "fusion_lon": 0.0, "fusion_lat": 0.0, "lon": -77.01887666666667, "name": "07de1b033bd25f1c7a05d57b78db3237"}, {"bike_id": "86c61b2c3dd94bf06a5ccc8bffd1fd70", "type": "electric_scooter", "is_disabled": 0, "lat": 38.89884383333333, "rental_uris": {"ios": "https://dc.lft.to/lastmile_qr_scan", "android": "https://dc.lft.to/lastmile_qr_scan"}, "is_reserved": 0, "fusion_lon": 0.0, "fusion_lat": 0.0, "lon": -76.93180766666667, "name": "86c61b2c3dd94bf06a5ccc8bffd1fd70"}, {"bike_id": "c2d252525a3a5a00b50e6595c7dbfad0", "type": "electric_scooter", "is_disabled": 0, "lat": 38.89715666666667, "rental_uris": {"ios": "https://dc.lft.to/lastmile_qr_scan", "android": "https://dc.lft.to/lastmile_qr_scan"}, "is_reserved": 0, "fusion_lon": 0.0, "fusion_lat": 0.0, "lon": -77.04607833333333, "name": "c2d252525a3a5a00b50e6595c7dbfad0"}, {"bike_id": "981c458e706b240d276161e693498f45", "type": "electric_scooter", "is_disabled": 0, "lat": 38.944192666666666, "rental_uris": {"ios": "https://dc.lft.to/lastmile_qr_scan", "android": "https://dc.lft.to/lastmile_qr_scan"}, "is_reserved": 0, "fusion_lon": 0.0, "fusion_lat": 0.0, "lon": -77.0178085, "name": "981c458e706b240d276161e693498f45"}, {"bike_id": "3b6d87e799c2118328cece823c4a65ef", "type": "electric_scooter", "is_disabled": 0, "lat": 38.9345815, "rental_uris": {"ios": "https://dc.lft.to/lastmile_qr_scan", "android": "https://dc.lft.to/lastmile_qr_scan"}, "is_reserved": 0, "fusion_lon": 0.0, "fusion_lat": 0.0, "lon": -77.02768683333333, "name": "3b6d87e799c2118328cece823c4a65ef"}, {"bike_id": "f58d8c51e5c168a170ef26da407aa4f5", "type": "electric_scooter", "is_disabled": 0, "lat": 38.8664505, "rental_uris": {"ios": "https://dc.lft.to/lastmile_qr_scan", "android": "https://dc.lft.to/lastmile_qr_scan"}, "is_reserved": 0, "fusion_lon": 0.0, "fusion_lat": 0.0, "lon": -76.988137, "name": "f58d8c51e5c168a170ef26da407aa4f5"}, {"bike_id": "71bf56e6284ff52b5e082a43e13c2cf0", "type": "electric_bike", "is_disabled": 0, "lat": 38.983659833333334, "rental_uris": {"ios": "https://dc.lft.to/lastmile_qr_scan", "android": "https://dc.lft.to/lastmile_qr_scan"}, "is_reserved": 0, "fusion_lon": 0.0, "fusion_lat": 0.0, "lon": -76.972129, "name": "71bf56e6284ff52b5e082a43e13c2cf0"}, {"bike_id": "46bc85342cedc8bba8625807306f13c8", "type": "electric_scooter", "is_disabled": 0, "lat": 38.927475333333334, "rental_uris": {"ios": "https://dc.lft.to/lastmile_qr_scan", "android": "https://dc.lft.to/lastmile_qr_scan"}, "is_reserved": 0, "fusion_lon": 0.0, "fusion_lat": 0.0, "lon": -77.02532883333333, "name": "46bc85342cedc8bba8625807306f13c8"}, {"bike_id": "dfbc69525533691b753fa5852ee1cb0e", "type": "electric_scooter", "is_disabled": 0, "lat": 38.866896, "rental_uris": {"ios": "https://dc.lft.to/lastmile_qr_scan", "android": "https://dc.lft.to/lastmile_qr_scan"}, "is_reserved": 0, "fusion_lon": 0.0, "fusion_lat": 0.0, "lon": -76.985687, "name": "dfbc69525533691b753fa5852ee1cb0e"}, {"bike_id": "642f2f047f0e7c5124b048e190321b0d", "type": "electric_bike", "is_disabled": 0, "lat": 38.937739, "rental_uris": {"ios": "https://dc.lft.to/lastmile_qr_scan", "android": "https://dc.lft.to/lastmile_qr_scan"}, "is_reserved": 0, "fusion_lon": 0.0, "fusion_lat": 0.0, "lon": -77.01877216666666, "name": "642f2f047f0e7c5124b048e190321b0d"}, {"bike_id": "01c9b564c492e6a704166388ad59ca78", "type": "electric_scooter", "is_disabled": 0, "lat": 38.9072255, "rental_uris": {"ios": "https://dc.lft.to/lastmile_qr_scan", "android": "https://dc.lft.to/lastmile_qr_scan"}, "is_reserved": 0, "fusion_lon": 0.0, "fusion_lat": 0.0, "lon": -77.0319095, "name": "01c9b564c492e6a704166388ad59ca78"}, {"bike_id": "d5f5a091b7455153083fa98484c6096a", "type": "electric_scooter", "is_disabled": 0, "lat": 38.8650215, "rental_uris": {"ios": "https://dc.lft.to/lastmile_qr_scan", "android": "https://dc.lft.to/lastmile_qr_scan"}, "is_reserved": 0, "fusion_lon": 0.0, "fusion_lat": 0.0, "lon": -76.98997133333333, "name": "d5f5a091b7455153083fa98484c6096a"}, {"bike_id": "fdf45e40d805fe7264d0c3e834b99fb5", "type": "electric_bike", "is_disabled": 0, "lat": 38.80759366666667, "rental_uris": {"ios": "https://dc.lft.to/lastmile_qr_scan", "android": "https://dc.lft.to/lastmile_qr_scan"}, "is_reserved": 0, "fusion_lon": 0.0, "fusion_lat": 0.0, "lon": -77.09467366666667, "name": "fdf45e40d805fe7264d0c3e834b99fb5"}, {"bike_id": "19241965c0f894cdf702b5142d03f4c6", "type": "electric_scooter", "is_disabled": 0, "lat": 38.91604483333333, "rental_uris": {"ios": "https://dc.lft.to/lastmile_qr_scan", "android": "https://dc.lft.to/lastmile_qr_scan"}, "is_reserved": 0, "fusion_lon": 0.0, "fusion_lat": 0.0, "lon": -77.033807, "name": "19241965c0f894cdf702b5142d03f4c6"}, {"bike_id": "842ba57d97069cfeadd0cd1b8c26839a", "type": "electric_scooter", "is_disabled": 0, "lat": 38.919927666666666, "rental_uris": {"ios": "https://dc.lft.to/lastmile_qr_scan", "android": "https://dc.lft.to/lastmile_qr_scan"}, "is_reserved": 0, "fusion_lon": 0.0, "fusion_lat": 0.0, "lon": -77.01785433333333, "name": "842ba57d97069cfeadd0cd1b8c26839a"}, {"bike_id": "adef5c4f4fbf539fa5ccd25157b93e8c", "type": "electric_scooter", "is_disabled": 0, "lat": 38.92259283333333, "rental_uris": {"ios": "https://dc.lft.to/lastmile_qr_scan", "android": "https://dc.lft.to/lastmile_qr_scan"}, "is_reserved": 0, "fusion_lon": 0.0, "fusion_lat": 0.0, "lon": -77.03524133333333, "name": "adef5c4f4fbf539fa5ccd25157b93e8c"}, {"bike_id": "b6ebe972bd8e3a208472b050fc288ca0", "type": "electric_scooter", "is_disabled": 0, "lat": 38.913273333333336, "rental_uris": {"ios": "https://dc.lft.to/lastmile_qr_scan", "android": "https://dc.lft.to/lastmile_qr_scan"}, "is_reserved": 0, "fusion_lon": 0.0, "fusion_lat": 0.0, "lon": -77.0398405, "name": "b6ebe972bd8e3a208472b050fc288ca0"}, {"bike_id": "bdfff8fd2c0b6c1076899015408470cd", "type": "electric_scooter", "is_disabled": 0, "lat": 38.92393083333333, "rental_uris": {"ios": "https://dc.lft.to/lastmile_qr_scan", "android": "https://dc.lft.to/lastmile_qr_scan"}, "is_reserved": 0, "fusion_lon": 0.0, "fusion_lat": 0.0, "lon": -77.04465916666666, "name": "bdfff8fd2c0b6c1076899015408470cd"}, {"bike_id": "8474171bdd953abafc2edd0c252bb4da", "type": "electric_scooter", "is_disabled": 0, "lat": 38.91692416666667, "rental_uris": {"ios": "https://dc.lft.to/lastmile_qr_scan", "android": "https://dc.lft.to/lastmile_qr_scan"}, "is_reserved": 0, "fusion_lon": 0.0, "fusion_lat": 0.0, "lon": -77.03216133333333, "name": "8474171bdd953abafc2edd0c252bb4da"}, {"bike_id": "a8d6b2278799687381bcafdb275a207b", "type": "electric_scooter", "is_disabled": 0, "lat": 38.918662, "rental_uris": {"ios": "https://dc.lft.to/lastmile_qr_scan", "android": "https://dc.lft.to/lastmile_qr_scan"}, "is_reserved": 0, "fusion_lon": 0.0, "fusion_lat": 0.0, "lon": -77.01508583333333, "name": "a8d6b2278799687381bcafdb275a207b"}, {"bike_id": "77a43e3a9fab91a0277d8a5cb0c49048", "type": "electric_scooter", "is_disabled": 0, "lat": 38.88266083333333, "rental_uris": {"ios": "https://dc.lft.to/lastmile_qr_scan", "android": "https://dc.lft.to/lastmile_qr_scan"}, "is_reserved": 0, "fusion_lon": 0.0, "fusion_lat": 0.0, "lon": -76.99253966666667, "name": "77a43e3a9fab91a0277d8a5cb0c49048"}, {"bike_id": "14ab06321a2489db2b1872abb030dfc8", "type": "electric_scooter", "is_disabled": 0, "lat": 38.94330866666667, "rental_uris": {"ios": "https://dc.lft.to/lastmile_qr_scan", "android": "https://dc.lft.to/lastmile_qr_scan"}, "is_reserved": 0, "fusion_lon": 0.0, "fusion_lat": 0.0, "lon": -77.01476783333334, "name": "14ab06321a2489db2b1872abb030dfc8"}, {"bike_id": "e2f890a4370478e43da4c7e0c7fac840", "type": "electric_scooter", "is_disabled": 0, "lat": 38.92167283333333, "rental_uris": {"ios": "https://dc.lft.to/lastmile_qr_scan", "android": "https://dc.lft.to/lastmile_qr_scan"}, "is_reserved": 0, "fusion_lon": 0.0, "fusion_lat": 0.0, "lon": -77.0331835, "name": "e2f890a4370478e43da4c7e0c7fac840"}, {"bike_id": "d276919d398f224581905835c10ad3bf", "type": "electric_scooter", "is_disabled": 0, "lat": 38.931394, "rental_uris": {"ios": "https://dc.lft.to/lastmile_qr_scan", "android": "https://dc.lft.to/lastmile_qr_scan"}, "is_reserved": 0, "fusion_lon": 0.0, "fusion_lat": 0.0, "lon": -77.033492, "name": "d276919d398f224581905835c10ad3bf"}, {"bike_id": "febef3c14d5837b0ee2af37dfc44ac6d", "type": "electric_scooter", "is_disabled": 0, "lat": 38.911386666666665, "rental_uris": {"ios": "https://dc.lft.to/lastmile_qr_scan", "android": "https://dc.lft.to/lastmile_qr_scan"}, "is_reserved": 0, "fusion_lon": 0.0, "fusion_lat": 0.0, "lon": -77.06548416666666, "name": "febef3c14d5837b0ee2af37dfc44ac6d"}, {"bike_id": "5dc2c237583bdcc60bfe5f8f48293633", "type": "electric_scooter", "is_disabled": 0, "lat": 38.90962016666667, "rental_uris": {"ios": "https://dc.lft.to/lastmile_qr_scan", "android": "https://dc.lft.to/lastmile_qr_scan"}, "is_reserved": 0, "fusion_lon": 0.0, "fusion_lat": 0.0, "lon": -77.03225683333334, "name": "5dc2c237583bdcc60bfe5f8f48293633"}, {"bike_id": "992455cf15990e856c114826362a2a58", "type": "electric_scooter", "is_disabled": 0, "lat": 38.903865, "rental_uris": {"ios": "https://dc.lft.to/lastmile_qr_scan", "android": "https://dc.lft.to/lastmile_qr_scan"}, "is_reserved": 0, "fusion_lon": 0.0, "fusion_lat": 0.0, "lon": -77.068564, "name": "992455cf15990e856c114826362a2a58"}, {"bike_id": "6131bf2bb9fd39dc73728193edda3a96", "type": "electric_scooter", "is_disabled": 0, "lat": 38.90423883333333, "rental_uris": {"ios": "https://dc.lft.to/lastmile_qr_scan", "android": "https://dc.lft.to/lastmile_qr_scan"}, "is_reserved": 0, "fusion_lon": 0.0, "fusion_lat": 0.0, "lon": -77.054486, "name": "6131bf2bb9fd39dc73728193edda3a96"}, {"bike_id": "9799bfd8a144cb2e99ff6ed8a9e1d176", "type": "electric_scooter", "is_disabled": 0, "lat": 38.91272883333333, "rental_uris": {"ios": "https://dc.lft.to/lastmile_qr_scan", "android": "https://dc.lft.to/lastmile_qr_scan"}, "is_reserved": 0, "fusion_lon": 0.0, "fusion_lat": 0.0, "lon": -77.05156616666666, "name": "9799bfd8a144cb2e99ff6ed8a9e1d176"}, {"bike_id": "5cb43deb8a9e6a70aa4453fe5f230a62", "type": "electric_scooter", "is_disabled": 0, "lat": 38.922671666666666, "rental_uris": {"ios": "https://dc.lft.to/lastmile_qr_scan", "android": "https://dc.lft.to/lastmile_qr_scan"}, "is_reserved": 0, "fusion_lon": 0.0, "fusion_lat": 0.0, "lon": -76.99119966666666, "name": "5cb43deb8a9e6a70aa4453fe5f230a62"}, {"bike_id": "f6ac675551bc3dddabc2e7bc1fecbb76", "type": "electric_scooter", "is_disabled": 0, "lat": 38.916939, "rental_uris": {"ios": "https://dc.lft.to/lastmile_qr_scan", "android": "https://dc.lft.to/lastmile_qr_scan"}, "is_reserved": 0, "fusion_lon": 0.0, "fusion_lat": 0.0, "lon": -77.032106, "name": "f6ac675551bc3dddabc2e7bc1fecbb76"}, {"bike_id": "e1e1c7f4ccb18d1b1fbfe579b4a12157", "type": "electric_scooter", "is_disabled": 0, "lat": 38.929025333333335, "rental_uris": {"ios": "https://dc.lft.to/lastmile_qr_scan", "android": "https://dc.lft.to/lastmile_qr_scan"}, "is_reserved": 0, "fusion_lon": 0.0, "fusion_lat": 0.0, "lon": -77.0325065, "name": "e1e1c7f4ccb18d1b1fbfe579b4a12157"}, {"bike_id": "738e005fa90f98aad3d91c50f481b749", "type": "electric_scooter", "is_disabled": 0, "lat": 38.90421666666667, "rental_uris": {"ios": "https://dc.lft.to/lastmile_qr_scan", "android": "https://dc.lft.to/lastmile_qr_scan"}, "is_reserved": 0, "fusion_lon": 0.0, "fusion_lat": 0.0, "lon": -77.04868083333334, "name": "738e005fa90f98aad3d91c50f481b749"}, {"bike_id": "5dbb90866bd5f1147d79176b36da495d", "type": "electric_scooter", "is_disabled": 0, "lat": 38.90568583333334, "rental_uris": {"ios": "https://dc.lft.to/lastmile_qr_scan", "android": "https://dc.lft.to/lastmile_qr_scan"}, "is_reserved": 0, "fusion_lon": 0.0, "fusion_lat": 0.0, "lon": -77.02492916666667, "name": "5dbb90866bd5f1147d79176b36da495d"}, {"bike_id": "2bf413f1d807eb94a10daabb5fa10238", "type": "electric_scooter", "is_disabled": 0, "lat": 38.9078785, "rental_uris": {"ios": "https://dc.lft.to/lastmile_qr_scan", "android": "https://dc.lft.to/lastmile_qr_scan"}, "is_reserved": 0, "fusion_lon": 0.0, "fusion_lat": 0.0, "lon": -77.01851916666666, "name": "2bf413f1d807eb94a10daabb5fa10238"}, {"bike_id": "603c2e4958c23e1eb7d9f76c152e7e98", "type": "electric_scooter", "is_disabled": 0, "lat": 38.85696733333333, "rental_uris": {"ios": "https://dc.lft.to/lastmile_qr_scan", "android": "https://dc.lft.to/lastmile_qr_scan"}, "is_reserved": 0, "fusion_lon": 0.0, "fusion_lat": 0.0, "lon": -76.98972966666666, "name": "603c2e4958c23e1eb7d9f76c152e7e98"}, {"bike_id": "b26219701379301382921d72b5c6aab6", "type": "electric_bike", "is_disabled": 0, "lat": 39.05788366666667, "rental_uris": {"ios": "https://dc.lft.to/lastmile_qr_scan", "android": "https://dc.lft.to/lastmile_qr_scan"}, "is_reserved": 0, "fusion_lon": 0.0, "fusion_lat": 0.0, "lon": -77.1502425, "name": "b26219701379301382921d72b5c6aab6"}, {"bike_id": "23c9af2babd0939006513385bf01466d", "type": "electric_scooter", "is_disabled": 0, "lat": 38.907678833333335, "rental_uris": {"ios": "https://dc.lft.to/lastmile_qr_scan", "android": "https://dc.lft.to/lastmile_qr_scan"}, "is_reserved": 0, "fusion_lon": 0.0, "fusion_lat": 0.0, "lon": -77.04345066666667, "name": "23c9af2babd0939006513385bf01466d"}, {"bike_id": "984cbcaa1d4a8214bb935ecfe3d6bd41", "type": "electric_scooter", "is_disabled": 0, "lat": 38.8711705, "rental_uris": {"ios": "https://dc.lft.to/lastmile_qr_scan", "android": "https://dc.lft.to/lastmile_qr_scan"}, "is_reserved": 0, "fusion_lon": 0.0, "fusion_lat": 0.0, "lon": -76.98236283333334, "name": "984cbcaa1d4a8214bb935ecfe3d6bd41"}, {"bike_id": "8f4ef49b4ac5fd2cc9db886bdd4e2c1f", "type": "electric_bike", "is_disabled": 0, "lat": 38.91633616666667, "rental_uris": {"ios": "https://dc.lft.to/lastmile_qr_scan", "android": "https://dc.lft.to/lastmile_qr_scan"}, "is_reserved": 0, "fusion_lon": 0.0, "fusion_lat": 0.0, "lon": -76.97167066666667, "name": "8f4ef49b4ac5fd2cc9db886bdd4e2c1f"}, {"bike_id": "8686ea628be7175e5121c80f71e29399", "type": "electric_scooter", "is_disabled": 0, "lat": 38.90055733333333, "rental_uris": {"ios": "https://dc.lft.to/lastmile_qr_scan", "android": "https://dc.lft.to/lastmile_qr_scan"}, "is_reserved": 0, "fusion_lon": 0.0, "fusion_lat": 0.0, "lon": -76.93471666666667, "name": "8686ea628be7175e5121c80f71e29399"}, {"bike_id": "0dbee1a97ccfb1775bf9a096bb8bfd6c", "type": "electric_bike", "is_disabled": 0, "lat": 38.819911833333336, "rental_uris": {"ios": "https://dc.lft.to/lastmile_qr_scan", "android": "https://dc.lft.to/lastmile_qr_scan"}, "is_reserved": 0, "fusion_lon": 0.0, "fusion_lat": 0.0, "lon": -76.998194, "name": "0dbee1a97ccfb1775bf9a096bb8bfd6c"}, {"bike_id": "c8c618b47533389d529acabc5eb27736", "type": "electric_scooter", "is_disabled": 0, "lat": 38.9057545, "rental_uris": {"ios": "https://dc.lft.to/lastmile_qr_scan", "android": "https://dc.lft.to/lastmile_qr_scan"}, "is_reserved": 0, "fusion_lon": 0.0, "fusion_lat": 0.0, "lon": -77.043653, "name": "c8c618b47533389d529acabc5eb27736"}, {"bike_id": "340de86c35c43e1106e269c14e18e590", "type": "electric_scooter", "is_disabled": 0, "lat": 38.905469, "rental_uris": {"ios": "https://dc.lft.to/lastmile_qr_scan", "android": "https://dc.lft.to/lastmile_qr_scan"}, "is_reserved": 0, "fusion_lon": 0.0, "fusion_lat": 0.0, "lon": -77.00567033333333, "name": "340de86c35c43e1106e269c14e18e590"}, {"bike_id": "c96129c05524201a9f2bb829e261d2fa", "type": "electric_scooter", "is_disabled": 0, "lat": 38.91114616666667, "rental_uris": {"ios": "https://dc.lft.to/lastmile_qr_scan", "android": "https://dc.lft.to/lastmile_qr_scan"}, "is_reserved": 0, "fusion_lon": 0.0, "fusion_lat": 0.0, "lon": -77.024127, "name": "c96129c05524201a9f2bb829e261d2fa"}, {"bike_id": "b7172b67e9b88c705a1774ac6a463db3", "type": "electric_scooter", "is_disabled": 0, "lat": 38.922310833333334, "rental_uris": {"ios": "https://dc.lft.to/lastmile_qr_scan", "android": "https://dc.lft.to/lastmile_qr_scan"}, "is_reserved": 0, "fusion_lon": 0.0, "fusion_lat": 0.0, "lon": -77.042635, "name": "b7172b67e9b88c705a1774ac6a463db3"}, {"bike_id": "ed89e782ba61d7743d355787d23d557d", "type": "electric_scooter", "is_disabled": 0, "lat": 38.942907166666664, "rental_uris": {"ios": "https://dc.lft.to/lastmile_qr_scan", "android": "https://dc.lft.to/lastmile_qr_scan"}, "is_reserved": 0, "fusion_lon": 0.0, "fusion_lat": 0.0, "lon": -77.021707, "name": "ed89e782ba61d7743d355787d23d557d"}, {"bike_id": "7329a07d4afa46f56ce70d811996b8ad", "type": "electric_scooter", "is_disabled": 0, "lat": 38.914178, "rental_uris": {"ios": "https://dc.lft.to/lastmile_qr_scan", "android": "https://dc.lft.to/lastmile_qr_scan"}, "is_reserved": 0, "fusion_lon": 0.0, "fusion_lat": 0.0, "lon": -77.02257866666666, "name": "7329a07d4afa46f56ce70d811996b8ad"}, {"bike_id": "202dc2124531420588cf9be921bd8384", "type": "electric_scooter", "is_disabled": 0, "lat": 38.93183766666667, "rental_uris": {"ios": "https://dc.lft.to/lastmile_qr_scan", "android": "https://dc.lft.to/lastmile_qr_scan"}, "is_reserved": 0, "fusion_lon": 0.0, "fusion_lat": 0.0, "lon": -77.023691, "name": "202dc2124531420588cf9be921bd8384"}, {"bike_id": "ab5518fb12686cba89da547d3e024aa8", "type": "electric_scooter", "is_disabled": 0, "lat": 38.91892216666667, "rental_uris": {"ios": "https://dc.lft.to/lastmile_qr_scan", "android": "https://dc.lft.to/lastmile_qr_scan"}, "is_reserved": 0, "fusion_lon": 0.0, "fusion_lat": 0.0, "lon": -77.03200483333333, "name": "ab5518fb12686cba89da547d3e024aa8"}, {"bike_id": "cc6112f4c86705131466915e2783112b", "type": "electric_scooter", "is_disabled": 0, "lat": 38.93336816666667, "rental_uris": {"ios": "https://dc.lft.to/lastmile_qr_scan", "android": "https://dc.lft.to/lastmile_qr_scan"}, "is_reserved": 0, "fusion_lon": 0.0, "fusion_lat": 0.0, "lon": -77.0398285, "name": "cc6112f4c86705131466915e2783112b"}, {"bike_id": "076e69f69fec4068444765224a7bff91", "type": "electric_scooter", "is_disabled": 0, "lat": 38.91414266666666, "rental_uris": {"ios": "https://dc.lft.to/lastmile_qr_scan", "android": "https://dc.lft.to/lastmile_qr_scan"}, "is_reserved": 0, "fusion_lon": 0.0, "fusion_lat": 0.0, "lon": -77.03174316666667, "name": "076e69f69fec4068444765224a7bff91"}, {"bike_id": "36011119d12c1d64dec0364e9cee154f", "type": "electric_scooter", "is_disabled": 0, "lat": 38.920346, "rental_uris": {"ios": "https://dc.lft.to/lastmile_qr_scan", "android": "https://dc.lft.to/lastmile_qr_scan"}, "is_reserved": 0, "fusion_lon": 0.0, "fusion_lat": 0.0, "lon": -77.03394383333334, "name": "36011119d12c1d64dec0364e9cee154f"}, {"bike_id": "c76b3d5a621dfddc8b48f45d512639f7", "type": "electric_scooter", "is_disabled": 0, "lat": 38.900242166666665, "rental_uris": {"ios": "https://dc.lft.to/lastmile_qr_scan", "android": "https://dc.lft.to/lastmile_qr_scan"}, "is_reserved": 0, "fusion_lon": 0.0, "fusion_lat": 0.0, "lon": -77.00175566666667, "name": "c76b3d5a621dfddc8b48f45d512639f7"}, {"bike_id": "de7d68f3dae958ba596de11bc7f0da3d", "type": "electric_scooter", "is_disabled": 0, "lat": 38.884745, "rental_uris": {"ios": "https://dc.lft.to/lastmile_qr_scan", "android": "https://dc.lft.to/lastmile_qr_scan"}, "is_reserved": 0, "fusion_lon": 0.0, "fusion_lat": 0.0, "lon": -76.98216666666667, "name": "de7d68f3dae958ba596de11bc7f0da3d"}, {"bike_id": "f3ce8b8cf25bb81176e2feb2dc86e59f", "type": "electric_scooter", "is_disabled": 0, "lat": 38.920778, "rental_uris": {"ios": "https://dc.lft.to/lastmile_qr_scan", "android": "https://dc.lft.to/lastmile_qr_scan"}, "is_reserved": 0, "fusion_lon": 0.0, "fusion_lat": 0.0, "lon": -77.02842166666667, "name": "f3ce8b8cf25bb81176e2feb2dc86e59f"}, {"bike_id": "2332e66649b8bcb065e8538007029433", "type": "electric_scooter", "is_disabled": 0, "lat": 38.9162845, "rental_uris": {"ios": "https://dc.lft.to/lastmile_qr_scan", "android": "https://dc.lft.to/lastmile_qr_scan"}, "is_reserved": 0, "fusion_lon": 0.0, "fusion_lat": 0.0, "lon": -77.025695, "name": "2332e66649b8bcb065e8538007029433"}, {"bike_id": "298c2b7b6b8fc55a483af6fdb39fda00", "type": "electric_scooter", "is_disabled": 0, "lat": 38.92027083333333, "rental_uris": {"ios": "https://dc.lft.to/lastmile_qr_scan", "android": "https://dc.lft.to/lastmile_qr_scan"}, "is_reserved": 0, "fusion_lon": 0.0, "fusion_lat": 0.0, "lon": -77.01316516666667, "name": "298c2b7b6b8fc55a483af6fdb39fda00"}, {"bike_id": "88419607c94d58c6c2bbbae00f557655", "type": "electric_scooter", "is_disabled": 0, "lat": 38.91629016666667, "rental_uris": {"ios": "https://dc.lft.to/lastmile_qr_scan", "android": "https://dc.lft.to/lastmile_qr_scan"}, "is_reserved": 0, "fusion_lon": 0.0, "fusion_lat": 0.0, "lon": -77.04003183333333, "name": "88419607c94d58c6c2bbbae00f557655"}, {"bike_id": "6961ac975d6f163179f9b2c2fa1df7cc", "type": "electric_scooter", "is_disabled": 0, "lat": 38.915694333333334, "rental_uris": {"ios": "https://dc.lft.to/lastmile_qr_scan", "android": "https://dc.lft.to/lastmile_qr_scan"}, "is_reserved": 0, "fusion_lon": 0.0, "fusion_lat": 0.0, "lon": -77.02415083333334, "name": "6961ac975d6f163179f9b2c2fa1df7cc"}, {"bike_id": "d736392a98ed91221235bccfdc3c0773", "type": "electric_scooter", "is_disabled": 0, "lat": 38.93172833333333, "rental_uris": {"ios": "https://dc.lft.to/lastmile_qr_scan", "android": "https://dc.lft.to/lastmile_qr_scan"}, "is_reserved": 0, "fusion_lon": 0.0, "fusion_lat": 0.0, "lon": -77.03161816666666, "name": "d736392a98ed91221235bccfdc3c0773"}, {"bike_id": "2efda60f24cd8e0deeb730ab69e28c8e", "type": "electric_scooter", "is_disabled": 0, "lat": 38.901127, "rental_uris": {"ios": "https://dc.lft.to/lastmile_qr_scan", "android": "https://dc.lft.to/lastmile_qr_scan"}, "is_reserved": 0, "fusion_lon": 0.0, "fusion_lat": 0.0, "lon": -77.0502175, "name": "2efda60f24cd8e0deeb730ab69e28c8e"}, {"bike_id": "d19fb43af05e9ecce66a546cbb60cdb2", "type": "electric_scooter", "is_disabled": 0, "lat": 38.92363316666667, "rental_uris": {"ios": "https://dc.lft.to/lastmile_qr_scan", "android": "https://dc.lft.to/lastmile_qr_scan"}, "is_reserved": 0, "fusion_lon": 0.0, "fusion_lat": 0.0, "lon": -77.05046533333334, "name": "d19fb43af05e9ecce66a546cbb60cdb2"}, {"bike_id": "cc58fd3a5e3dc20d9a2a78ef28c116be", "type": "electric_scooter", "is_disabled": 0, "lat": 38.90578333333333, "rental_uris": {"ios": "https://dc.lft.to/lastmile_qr_scan", "android": "https://dc.lft.to/lastmile_qr_scan"}, "is_reserved": 0, "fusion_lon": 0.0, "fusion_lat": 0.0, "lon": -76.98427033333333, "name": "cc58fd3a5e3dc20d9a2a78ef28c116be"}, {"bike_id": "d48a1572d1ff2a0fe15c845f9e5cab77", "type": "electric_scooter", "is_disabled": 0, "lat": 38.939187, "rental_uris": {"ios": "https://dc.lft.to/lastmile_qr_scan", "android": "https://dc.lft.to/lastmile_qr_scan"}, "is_reserved": 0, "fusion_lon": 0.0, "fusion_lat": 0.0, "lon": -77.06050383333333, "name": "d48a1572d1ff2a0fe15c845f9e5cab77"}, {"bike_id": "58f7f6d4ee073be51bc35f303c069d97", "type": "electric_scooter", "is_disabled": 0, "lat": 38.91549, "rental_uris": {"ios": "https://dc.lft.to/lastmile_qr_scan", "android": "https://dc.lft.to/lastmile_qr_scan"}, "is_reserved": 0, "fusion_lon": 0.0, "fusion_lat": 0.0, "lon": -77.03176116666667, "name": "58f7f6d4ee073be51bc35f303c069d97"}, {"bike_id": "d930dfb8d570df1264440c5042ee3795", "type": "electric_scooter", "is_disabled": 0, "lat": 38.942072, "rental_uris": {"ios": "https://dc.lft.to/lastmile_qr_scan", "android": "https://dc.lft.to/lastmile_qr_scan"}, "is_reserved": 0, "fusion_lon": 0.0, "fusion_lat": 0.0, "lon": -77.01738483333334, "name": "d930dfb8d570df1264440c5042ee3795"}, {"bike_id": "a84d9e777f3d5042a20c99d1c935868b", "type": "electric_bike", "is_disabled": 0, "lat": 38.87294033333333, "rental_uris": {"ios": "https://dc.lft.to/lastmile_qr_scan", "android": "https://dc.lft.to/lastmile_qr_scan"}, "is_reserved": 0, "fusion_lon": 0.0, "fusion_lat": 0.0, "lon": -77.139294, "name": "a84d9e777f3d5042a20c99d1c935868b"}, {"bike_id": "61bd13a1609ee23698d7a3f776d932e7", "type": "electric_scooter", "is_disabled": 0, "lat": 38.881065666666665, "rental_uris": {"ios": "https://dc.lft.to/lastmile_qr_scan", "android": "https://dc.lft.to/lastmile_qr_scan"}, "is_reserved": 0, "fusion_lon": 0.0, "fusion_lat": 0.0, "lon": -77.01666283333333, "name": "61bd13a1609ee23698d7a3f776d932e7"}, {"bike_id": "2b79afacbe793999316e565f34652713", "type": "electric_scooter", "is_disabled": 0, "lat": 38.91706883333333, "rental_uris": {"ios": "https://dc.lft.to/lastmile_qr_scan", "android": "https://dc.lft.to/lastmile_qr_scan"}, "is_reserved": 0, "fusion_lon": 0.0, "fusion_lat": 0.0, "lon": -77.02877916666667, "name": "2b79afacbe793999316e565f34652713"}, {"bike_id": "20f37f0467fc4d204c51984fe8f67cfa", "type": "electric_scooter", "is_disabled": 0, "lat": 38.937427, "rental_uris": {"ios": "https://dc.lft.to/lastmile_qr_scan", "android": "https://dc.lft.to/lastmile_qr_scan"}, "is_reserved": 0, "fusion_lon": 0.0, "fusion_lat": 0.0, "lon": -77.02422366666667, "name": "20f37f0467fc4d204c51984fe8f67cfa"}, {"bike_id": "79d78c8458793fa5342dfeb647248fdd", "type": "electric_scooter", "is_disabled": 0, "lat": 38.913953666666664, "rental_uris": {"ios": "https://dc.lft.to/lastmile_qr_scan", "android": "https://dc.lft.to/lastmile_qr_scan"}, "is_reserved": 0, "fusion_lon": 0.0, "fusion_lat": 0.0, "lon": -77.0179075, "name": "79d78c8458793fa5342dfeb647248fdd"}, {"bike_id": "ee5f0c90b16e4d61ec67c38e570f4f37", "type": "electric_scooter", "is_disabled": 0, "lat": 38.928616833333336, "rental_uris": {"ios": "https://dc.lft.to/lastmile_qr_scan", "android": "https://dc.lft.to/lastmile_qr_scan"}, "is_reserved": 0, "fusion_lon": 0.0, "fusion_lat": 0.0, "lon": -77.03713916666666, "name": "ee5f0c90b16e4d61ec67c38e570f4f37"}, {"bike_id": "c937af96d73b917f16d9ea6427fbca65", "type": "electric_scooter", "is_disabled": 0, "lat": 38.912692666666665, "rental_uris": {"ios": "https://dc.lft.to/lastmile_qr_scan", "android": "https://dc.lft.to/lastmile_qr_scan"}, "is_reserved": 0, "fusion_lon": 0.0, "fusion_lat": 0.0, "lon": -77.022116, "name": "c937af96d73b917f16d9ea6427fbca65"}, {"bike_id": "529f8c129c07a3c931acca232ac706b0", "type": "electric_scooter", "is_disabled": 0, "lat": 38.912681, "rental_uris": {"ios": "https://dc.lft.to/lastmile_qr_scan", "android": "https://dc.lft.to/lastmile_qr_scan"}, "is_reserved": 0, "fusion_lon": 0.0, "fusion_lat": 0.0, "lon": -77.02213883333333, "name": "529f8c129c07a3c931acca232ac706b0"}, {"bike_id": "a72a5efca844f04a6b453050b7636dd7", "type": "electric_scooter", "is_disabled": 0, "lat": 38.921900666666666, "rental_uris": {"ios": "https://dc.lft.to/lastmile_qr_scan", "android": "https://dc.lft.to/lastmile_qr_scan"}, "is_reserved": 0, "fusion_lon": 0.0, "fusion_lat": 0.0, "lon": -77.0379845, "name": "a72a5efca844f04a6b453050b7636dd7"}, {"bike_id": "a1d90e5c67f4349f0604b5d251db2428", "type": "electric_scooter", "is_disabled": 0, "lat": 38.918213333333334, "rental_uris": {"ios": "https://dc.lft.to/lastmile_qr_scan", "android": "https://dc.lft.to/lastmile_qr_scan"}, "is_reserved": 0, "fusion_lon": 0.0, "fusion_lat": 0.0, "lon": -77.00252966666666, "name": "a1d90e5c67f4349f0604b5d251db2428"}, {"bike_id": "87f47e2e2b9aabf4cc3bda8eba242bdb", "type": "electric_scooter", "is_disabled": 0, "lat": 38.919897, "rental_uris": {"ios": "https://dc.lft.to/lastmile_qr_scan", "android": "https://dc.lft.to/lastmile_qr_scan"}, "is_reserved": 0, "fusion_lon": 0.0, "fusion_lat": 0.0, "lon": -77.0397215, "name": "87f47e2e2b9aabf4cc3bda8eba242bdb"}, {"bike_id": "e92008bf6bdda72dbd5e31ef5421bb4a", "type": "electric_scooter", "is_disabled": 0, "lat": 38.914217666666666, "rental_uris": {"ios": "https://dc.lft.to/lastmile_qr_scan", "android": "https://dc.lft.to/lastmile_qr_scan"}, "is_reserved": 0, "fusion_lon": 0.0, "fusion_lat": 0.0, "lon": -77.0230275, "name": "e92008bf6bdda72dbd5e31ef5421bb4a"}, {"bike_id": "b3425d6b755b6be7ba2bb3a4cf1f7281", "type": "electric_scooter", "is_disabled": 0, "lat": 38.917888166666664, "rental_uris": {"ios": "https://dc.lft.to/lastmile_qr_scan", "android": "https://dc.lft.to/lastmile_qr_scan"}, "is_reserved": 0, "fusion_lon": 0.0, "fusion_lat": 0.0, "lon": -77.02313916666667, "name": "b3425d6b755b6be7ba2bb3a4cf1f7281"}, {"bike_id": "26a8ccdb5b1bc6ebeee6f58384ec5248", "type": "electric_scooter", "is_disabled": 0, "lat": 38.917705166666664, "rental_uris": {"ios": "https://dc.lft.to/lastmile_qr_scan", "android": "https://dc.lft.to/lastmile_qr_scan"}, "is_reserved": 0, "fusion_lon": 0.0, "fusion_lat": 0.0, "lon": -77.04771133333334, "name": "26a8ccdb5b1bc6ebeee6f58384ec5248"}, {"bike_id": "3b7662629e066277cc9fb9a781101bac", "type": "electric_scooter", "is_disabled": 0, "lat": 38.916926833333335, "rental_uris": {"ios": "https://dc.lft.to/lastmile_qr_scan", "android": "https://dc.lft.to/lastmile_qr_scan"}, "is_reserved": 0, "fusion_lon": 0.0, "fusion_lat": 0.0, "lon": -77.02364283333333, "name": "3b7662629e066277cc9fb9a781101bac"}, {"bike_id": "1752cb6cbca32c92ec3572a10376e726", "type": "electric_scooter", "is_disabled": 0, "lat": 38.91351066666667, "rental_uris": {"ios": "https://dc.lft.to/lastmile_qr_scan", "android": "https://dc.lft.to/lastmile_qr_scan"}, "is_reserved": 0, "fusion_lon": 0.0, "fusion_lat": 0.0, "lon": -77.025616, "name": "1752cb6cbca32c92ec3572a10376e726"}, {"bike_id": "8b08a37d04b50a7b4e174d3c6a9298d8", "type": "electric_bike", "is_disabled": 0, "lat": 38.86260083333333, "rental_uris": {"ios": "https://dc.lft.to/lastmile_qr_scan", "android": "https://dc.lft.to/lastmile_qr_scan"}, "is_reserved": 0, "fusion_lon": 0.0, "fusion_lat": 0.0, "lon": -76.9834775, "name": "8b08a37d04b50a7b4e174d3c6a9298d8"}, {"bike_id": "fa750266c1f3504426b6004035d91527", "type": "electric_scooter", "is_disabled": 0, "lat": 38.924815333333335, "rental_uris": {"ios": "https://dc.lft.to/lastmile_qr_scan", "android": "https://dc.lft.to/lastmile_qr_scan"}, "is_reserved": 0, "fusion_lon": 0.0, "fusion_lat": 0.0, "lon": -77.026324, "name": "fa750266c1f3504426b6004035d91527"}, {"bike_id": "132fd578b81295e33bf58b533ba314de", "type": "electric_scooter", "is_disabled": 0, "lat": 38.90888566666667, "rental_uris": {"ios": "https://dc.lft.to/lastmile_qr_scan", "android": "https://dc.lft.to/lastmile_qr_scan"}, "is_reserved": 0, "fusion_lon": 0.0, "fusion_lat": 0.0, "lon": -77.00313316666667, "name": "132fd578b81295e33bf58b533ba314de"}, {"bike_id": "148462b76a4ca0b06ff2b162d71871bc", "type": "electric_bike", "is_disabled": 0, "lat": 38.96129216666667, "rental_uris": {"ios": "https://dc.lft.to/lastmile_qr_scan", "android": "https://dc.lft.to/lastmile_qr_scan"}, "is_reserved": 0, "fusion_lon": 0.0, "fusion_lat": 0.0, "lon": -77.03332066666667, "name": "148462b76a4ca0b06ff2b162d71871bc"}, {"bike_id": "b88d509496cabf4c1ad2ef06741c365d", "type": "electric_bike", "is_disabled": 0, "lat": 38.8824655, "rental_uris": {"ios": "https://dc.lft.to/lastmile_qr_scan", "android": "https://dc.lft.to/lastmile_qr_scan"}, "is_reserved": 0, "fusion_lon": 0.0, "fusion_lat": 0.0, "lon": -76.96256816666667, "name": "b88d509496cabf4c1ad2ef06741c365d"}, {"bike_id": "0039dad9dd05077bd1526c9278b97aad", "type": "electric_scooter", "is_disabled": 0, "lat": 38.906772, "rental_uris": {"ios": "https://dc.lft.to/lastmile_qr_scan", "android": "https://dc.lft.to/lastmile_qr_scan"}, "is_reserved": 0, "fusion_lon": 0.0, "fusion_lat": 0.0, "lon": -76.979993, "name": "0039dad9dd05077bd1526c9278b97aad"}, {"bike_id": "0a0e45dc106e5b0554a04105185250fa", "type": "electric_scooter", "is_disabled": 0, "lat": 38.916586, "rental_uris": {"ios": "https://dc.lft.to/lastmile_qr_scan", "android": "https://dc.lft.to/lastmile_qr_scan"}, "is_reserved": 0, "fusion_lon": 0.0, "fusion_lat": 0.0, "lon": -77.03855583333333, "name": "0a0e45dc106e5b0554a04105185250fa"}, {"bike_id": "a4251034bb2563b8d90e0eface2f7148", "type": "electric_scooter", "is_disabled": 0, "lat": 38.93144916666667, "rental_uris": {"ios": "https://dc.lft.to/lastmile_qr_scan", "android": "https://dc.lft.to/lastmile_qr_scan"}, "is_reserved": 0, "fusion_lon": 0.0, "fusion_lat": 0.0, "lon": -77.03354666666667, "name": "a4251034bb2563b8d90e0eface2f7148"}, {"bike_id": "add58d7105a00c7c311678d9ff6453c1", "type": "electric_scooter", "is_disabled": 0, "lat": 38.9027075, "rental_uris": {"ios": "https://dc.lft.to/lastmile_qr_scan", "android": "https://dc.lft.to/lastmile_qr_scan"}, "is_reserved": 0, "fusion_lon": 0.0, "fusion_lat": 0.0, "lon": -77.01630983333334, "name": "add58d7105a00c7c311678d9ff6453c1"}, {"bike_id": "b61c997858a6473a3d79001acc756ebd", "type": "electric_bike", "is_disabled": 0, "lat": 38.9322755, "rental_uris": {"ios": "https://dc.lft.to/lastmile_qr_scan", "android": "https://dc.lft.to/lastmile_qr_scan"}, "is_reserved": 0, "fusion_lon": 0.0, "fusion_lat": 0.0, "lon": -77.18119633333333, "name": "b61c997858a6473a3d79001acc756ebd"}, {"bike_id": "7404d9d336b086f9783fbf1fd793ed5c", "type": "electric_scooter", "is_disabled": 0, "lat": 38.9226115, "rental_uris": {"ios": "https://dc.lft.to/lastmile_qr_scan", "android": "https://dc.lft.to/lastmile_qr_scan"}, "is_reserved": 0, "fusion_lon": 0.0, "fusion_lat": 0.0, "lon": -77.0420605, "name": "7404d9d336b086f9783fbf1fd793ed5c"}, {"bike_id": "b005f12f6b20255cd66255c45ff6385d", "type": "electric_scooter", "is_disabled": 0, "lat": 38.90852233333333, "rental_uris": {"ios": "https://dc.lft.to/lastmile_qr_scan", "android": "https://dc.lft.to/lastmile_qr_scan"}, "is_reserved": 0, "fusion_lon": 0.0, "fusion_lat": 0.0, "lon": -77.0549, "name": "b005f12f6b20255cd66255c45ff6385d"}, {"bike_id": "860a1c250c6afc40f35a9fcd7b2dc216", "type": "electric_scooter", "is_disabled": 0, "lat": 38.90955916666667, "rental_uris": {"ios": "https://dc.lft.to/lastmile_qr_scan", "android": "https://dc.lft.to/lastmile_qr_scan"}, "is_reserved": 0, "fusion_lon": 0.0, "fusion_lat": 0.0, "lon": -77.02300883333334, "name": "860a1c250c6afc40f35a9fcd7b2dc216"}, {"bike_id": "749d153f48944f96c37f5e2cb3b46764", "type": "electric_scooter", "is_disabled": 0, "lat": 38.93456233333333, "rental_uris": {"ios": "https://dc.lft.to/lastmile_qr_scan", "android": "https://dc.lft.to/lastmile_qr_scan"}, "is_reserved": 0, "fusion_lon": 0.0, "fusion_lat": 0.0, "lon": -77.027977, "name": "749d153f48944f96c37f5e2cb3b46764"}, {"bike_id": "5121b656f88b800a8cf6558887a9f73b", "type": "electric_scooter", "is_disabled": 0, "lat": 38.9475805, "rental_uris": {"ios": "https://dc.lft.to/lastmile_qr_scan", "android": "https://dc.lft.to/lastmile_qr_scan"}, "is_reserved": 0, "fusion_lon": 0.0, "fusion_lat": 0.0, "lon": -77.06563066666666, "name": "5121b656f88b800a8cf6558887a9f73b"}, {"bike_id": "071dd01685490c72b82f72efb6ac74eb", "type": "electric_scooter", "is_disabled": 0, "lat": 38.904686166666664, "rental_uris": {"ios": "https://dc.lft.to/lastmile_qr_scan", "android": "https://dc.lft.to/lastmile_qr_scan"}, "is_reserved": 0, "fusion_lon": 0.0, "fusion_lat": 0.0, "lon": -76.97612566666666, "name": "071dd01685490c72b82f72efb6ac74eb"}, {"bike_id": "4929c1fc846053916184683a7f28f55b", "type": "electric_scooter", "is_disabled": 0, "lat": 38.929497, "rental_uris": {"ios": "https://dc.lft.to/lastmile_qr_scan", "android": "https://dc.lft.to/lastmile_qr_scan"}, "is_reserved": 0, "fusion_lon": 0.0, "fusion_lat": 0.0, "lon": -77.04405316666667, "name": "4929c1fc846053916184683a7f28f55b"}, {"bike_id": "e0c2934a9b979d43ca012e675dab29ab", "type": "electric_scooter", "is_disabled": 0, "lat": 38.900337, "rental_uris": {"ios": "https://dc.lft.to/lastmile_qr_scan", "android": "https://dc.lft.to/lastmile_qr_scan"}, "is_reserved": 0, "fusion_lon": 0.0, "fusion_lat": 0.0, "lon": -77.00379366666667, "name": "e0c2934a9b979d43ca012e675dab29ab"}, {"bike_id": "fa85189dbfa4251fe2c2e0288f10840d", "type": "electric_scooter", "is_disabled": 0, "lat": 38.918366166666665, "rental_uris": {"ios": "https://dc.lft.to/lastmile_qr_scan", "android": "https://dc.lft.to/lastmile_qr_scan"}, "is_reserved": 0, "fusion_lon": 0.0, "fusion_lat": 0.0, "lon": -77.02597133333333, "name": "fa85189dbfa4251fe2c2e0288f10840d"}, {"bike_id": "7573b8dd4e702f4229893d8033be9d99", "type": "electric_scooter", "is_disabled": 0, "lat": 38.88315633333333, "rental_uris": {"ios": "https://dc.lft.to/lastmile_qr_scan", "android": "https://dc.lft.to/lastmile_qr_scan"}, "is_reserved": 0, "fusion_lon": 0.0, "fusion_lat": 0.0, "lon": -77.01749416666667, "name": "7573b8dd4e702f4229893d8033be9d99"}, {"bike_id": "72aadb2997c87b5569f7d5019f714d5e", "type": "electric_scooter", "is_disabled": 0, "lat": 38.9241245, "rental_uris": {"ios": "https://dc.lft.to/lastmile_qr_scan", "android": "https://dc.lft.to/lastmile_qr_scan"}, "is_reserved": 0, "fusion_lon": 0.0, "fusion_lat": 0.0, "lon": -77.03637916666666, "name": "72aadb2997c87b5569f7d5019f714d5e"}, {"bike_id": "723a5334fa9526b99a8c4caf683f6b8d", "type": "electric_scooter", "is_disabled": 0, "lat": 38.8919455, "rental_uris": {"ios": "https://dc.lft.to/lastmile_qr_scan", "android": "https://dc.lft.to/lastmile_qr_scan"}, "is_reserved": 0, "fusion_lon": 0.0, "fusion_lat": 0.0, "lon": -77.00226433333333, "name": "723a5334fa9526b99a8c4caf683f6b8d"}, {"bike_id": "32ab028e1eaff6a99bf1f2d455ccb8d6", "type": "electric_scooter", "is_disabled": 0, "lat": 38.91714733333333, "rental_uris": {"ios": "https://dc.lft.to/lastmile_qr_scan", "android": "https://dc.lft.to/lastmile_qr_scan"}, "is_reserved": 0, "fusion_lon": 0.0, "fusion_lat": 0.0, "lon": -77.04602216666666, "name": "32ab028e1eaff6a99bf1f2d455ccb8d6"}, {"bike_id": "2941648b3630a7235931f1c8a2e1eaff", "type": "electric_scooter", "is_disabled": 0, "lat": 38.877858833333335, "rental_uris": {"ios": "https://dc.lft.to/lastmile_qr_scan", "android": "https://dc.lft.to/lastmile_qr_scan"}, "is_reserved": 0, "fusion_lon": 0.0, "fusion_lat": 0.0, "lon": -77.01745633333333, "name": "2941648b3630a7235931f1c8a2e1eaff"}, {"bike_id": "d81ea49bc6418b4c1e611a64fc33bfd2", "type": "electric_scooter", "is_disabled": 0, "lat": 38.966041833333335, "rental_uris": {"ios": "https://dc.lft.to/lastmile_qr_scan", "android": "https://dc.lft.to/lastmile_qr_scan"}, "is_reserved": 0, "fusion_lon": 0.0, "fusion_lat": 0.0, "lon": -77.01979133333333, "name": "d81ea49bc6418b4c1e611a64fc33bfd2"}, {"bike_id": "1d31cbc35c297aa4e6eb89f7cf39d406", "type": "electric_scooter", "is_disabled": 0, "lat": 38.919107, "rental_uris": {"ios": "https://dc.lft.to/lastmile_qr_scan", "android": "https://dc.lft.to/lastmile_qr_scan"}, "is_reserved": 0, "fusion_lon": 0.0, "fusion_lat": 0.0, "lon": -77.044759, "name": "1d31cbc35c297aa4e6eb89f7cf39d406"}, {"bike_id": "6fb362e96f8a8d19596f74f667e62062", "type": "electric_scooter", "is_disabled": 0, "lat": 38.914192666666665, "rental_uris": {"ios": "https://dc.lft.to/lastmile_qr_scan", "android": "https://dc.lft.to/lastmile_qr_scan"}, "is_reserved": 0, "fusion_lon": 0.0, "fusion_lat": 0.0, "lon": -77.02201933333333, "name": "6fb362e96f8a8d19596f74f667e62062"}, {"bike_id": "15363589049b27cbe2dd827c42c08714", "type": "electric_scooter", "is_disabled": 0, "lat": 38.9204405, "rental_uris": {"ios": "https://dc.lft.to/lastmile_qr_scan", "android": "https://dc.lft.to/lastmile_qr_scan"}, "is_reserved": 0, "fusion_lon": 0.0, "fusion_lat": 0.0, "lon": -77.03470216666666, "name": "15363589049b27cbe2dd827c42c08714"}, {"bike_id": "44344b5615ba7f9622f2b29831f2b1c7", "type": "electric_scooter", "is_disabled": 0, "lat": 38.896670666666665, "rental_uris": {"ios": "https://dc.lft.to/lastmile_qr_scan", "android": "https://dc.lft.to/lastmile_qr_scan"}, "is_reserved": 0, "fusion_lon": 0.0, "fusion_lat": 0.0, "lon": -76.98812966666667, "name": "44344b5615ba7f9622f2b29831f2b1c7"}, {"bike_id": "d99eb46b52150e23cad7bdca41903460", "type": "electric_scooter", "is_disabled": 0, "lat": 38.9105925, "rental_uris": {"ios": "https://dc.lft.to/lastmile_qr_scan", "android": "https://dc.lft.to/lastmile_qr_scan"}, "is_reserved": 0, "fusion_lon": 0.0, "fusion_lat": 0.0, "lon": -77.05289466666666, "name": "d99eb46b52150e23cad7bdca41903460"}, {"bike_id": "13a6a6c2c77f260915a15d94aa1de40d", "type": "electric_scooter", "is_disabled": 0, "lat": 38.90972033333333, "rental_uris": {"ios": "https://dc.lft.to/lastmile_qr_scan", "android": "https://dc.lft.to/lastmile_qr_scan"}, "is_reserved": 0, "fusion_lon": 0.0, "fusion_lat": 0.0, "lon": -77.038635, "name": "13a6a6c2c77f260915a15d94aa1de40d"}, {"bike_id": "b1b016368783afd7c9603dffcb8407b9", "type": "electric_scooter", "is_disabled": 0, "lat": 38.908186, "rental_uris": {"ios": "https://dc.lft.to/lastmile_qr_scan", "android": "https://dc.lft.to/lastmile_qr_scan"}, "is_reserved": 0, "fusion_lon": 0.0, "fusion_lat": 0.0, "lon": -77.03673916666666, "name": "b1b016368783afd7c9603dffcb8407b9"}, {"bike_id": "fad661170cceee840965ae76a672ebc0", "type": "electric_scooter", "is_disabled": 0, "lat": 38.92331166666666, "rental_uris": {"ios": "https://dc.lft.to/lastmile_qr_scan", "android": "https://dc.lft.to/lastmile_qr_scan"}, "is_reserved": 0, "fusion_lon": 0.0, "fusion_lat": 0.0, "lon": -77.02305533333333, "name": "fad661170cceee840965ae76a672ebc0"}, {"bike_id": "480bb1069251f671680ae1b76bfb9521", "type": "electric_scooter", "is_disabled": 0, "lat": 38.880307, "rental_uris": {"ios": "https://dc.lft.to/lastmile_qr_scan", "android": "https://dc.lft.to/lastmile_qr_scan"}, "is_reserved": 0, "fusion_lon": 0.0, "fusion_lat": 0.0, "lon": -77.00567133333334, "name": "480bb1069251f671680ae1b76bfb9521"}, {"bike_id": "0f3343115796ebf1e75c517d641a4a37", "type": "electric_scooter", "is_disabled": 0, "lat": 38.89673766666667, "rental_uris": {"ios": "https://dc.lft.to/lastmile_qr_scan", "android": "https://dc.lft.to/lastmile_qr_scan"}, "is_reserved": 0, "fusion_lon": 0.0, "fusion_lat": 0.0, "lon": -77.00515983333334, "name": "0f3343115796ebf1e75c517d641a4a37"}, {"bike_id": "faae7a26e333a9e95e458c0e2a982746", "type": "electric_scooter", "is_disabled": 0, "lat": 38.923303, "rental_uris": {"ios": "https://dc.lft.to/lastmile_qr_scan", "android": "https://dc.lft.to/lastmile_qr_scan"}, "is_reserved": 0, "fusion_lon": 0.0, "fusion_lat": 0.0, "lon": -77.046124, "name": "faae7a26e333a9e95e458c0e2a982746"}, {"bike_id": "5abe722b2f0edbc92bf39a52d6caaba9", "type": "electric_scooter", "is_disabled": 0, "lat": 38.90971283333333, "rental_uris": {"ios": "https://dc.lft.to/lastmile_qr_scan", "android": "https://dc.lft.to/lastmile_qr_scan"}, "is_reserved": 0, "fusion_lon": 0.0, "fusion_lat": 0.0, "lon": -77.0228195, "name": "5abe722b2f0edbc92bf39a52d6caaba9"}, {"bike_id": "aa7d041029eb5a07c2b0ed9f0df4e1c6", "type": "electric_bike", "is_disabled": 0, "lat": 38.953528166666665, "rental_uris": {"ios": "https://dc.lft.to/lastmile_qr_scan", "android": "https://dc.lft.to/lastmile_qr_scan"}, "is_reserved": 0, "fusion_lon": 0.0, "fusion_lat": 0.0, "lon": -76.980899, "name": "aa7d041029eb5a07c2b0ed9f0df4e1c6"}, {"bike_id": "d64017bd03f616a71fff89b85e934b2e", "type": "electric_scooter", "is_disabled": 0, "lat": 38.91567966666667, "rental_uris": {"ios": "https://dc.lft.to/lastmile_qr_scan", "android": "https://dc.lft.to/lastmile_qr_scan"}, "is_reserved": 0, "fusion_lon": 0.0, "fusion_lat": 0.0, "lon": -77.02021083333334, "name": "d64017bd03f616a71fff89b85e934b2e"}, {"bike_id": "2abe9231e6fca99180a4a2b0947f246e", "type": "electric_bike", "is_disabled": 0, "lat": 39.01368883333333, "rental_uris": {"ios": "https://dc.lft.to/lastmile_qr_scan", "android": "https://dc.lft.to/lastmile_qr_scan"}, "is_reserved": 0, "fusion_lon": 0.0, "fusion_lat": 0.0, "lon": -76.921316, "name": "2abe9231e6fca99180a4a2b0947f246e"}, {"bike_id": "64bf7c1621b66eddad2fa60da5264a54", "type": "electric_scooter", "is_disabled": 0, "lat": 38.93890833333333, "rental_uris": {"ios": "https://dc.lft.to/lastmile_qr_scan", "android": "https://dc.lft.to/lastmile_qr_scan"}, "is_reserved": 0, "fusion_lon": 0.0, "fusion_lat": 0.0, "lon": -77.02819683333334, "name": "64bf7c1621b66eddad2fa60da5264a54"}, {"bike_id": "7b22d105fc22c431da815c8e6388b124", "type": "electric_scooter", "is_disabled": 0, "lat": 38.92091516666667, "rental_uris": {"ios": "https://dc.lft.to/lastmile_qr_scan", "android": "https://dc.lft.to/lastmile_qr_scan"}, "is_reserved": 0, "fusion_lon": 0.0, "fusion_lat": 0.0, "lon": -77.0043635, "name": "7b22d105fc22c431da815c8e6388b124"},