{"data": {"bikes": [{"rental_uris": {"android": "https://dc.lft.to/lastmile_qr_scan", "ios": "https://dc.lft.to/lastmile_qr_scan"}, "lon": -77.07272983333333, "name": "2e8b75e609eb87fd106f30cfd3bcafc9", "fusion_lon": 0.0, "bike_id": "2e8b75e609eb87fd106f30cfd3bcafc9", "is_reserved": 0, "type": "electric_scooter", "lat": 38.935387166666665, "fusion_lat": 0.0, "is_disabled": 0}, {"rental_uris": {"android": "https://dc.lft.to/lastmile_qr_scan", "ios": "https://dc.lft.to/lastmile_qr_scan"}, "lon": -77.03661083333333, "name": "2bfe63e20e5c788d3a2e917902d34e97", "fusion_lon": 0.0, "bike_id": "2bfe63e20e5c788d3a2e917902d34e97", "is_reserved": 0, "type": "electric_scooter", "lat": 38.930135666666665, "fusion_lat": 0.0, "is_disabled": 0}, {"rental_uris": {"android": "https://dc.lft.to/lastmile_qr_scan", "ios": "https://dc.lft.to/lastmile_qr_scan"}, "lon": -77.04691966666667, "name": "cbfddbf5add8b2dbbe5994330434fd8a", "fusion_lon": 0.0, "bike_id": "cbfddbf5add8b2dbbe5994330434fd8a", "is_reserved": 0, "type": "electric_scooter", "lat": 38.922626666666666, "fusion_lat": 0.0, "is_disabled": 0}, {"rental_uris": {"android": "https://dc.lft.to/lastmile_qr_scan", "ios": "https://dc.lft.to/lastmile_qr_scan"}, "lon": -76.92424783333334, "name": "3ad9cacff3e24ba6d27365066a870fae", "fusion_lon": 0.0, "bike_id": "3ad9cacff3e24ba6d27365066a870fae", "is_reserved": 0, "type": "electric_scooter", "lat": 38.883700166666664, "fusion_lat": 0.0, "is_disabled": 0}, {"rental_uris": {"android": "https://dc.lft.to/lastmile_qr_scan", "ios": "https://dc.lft.to/lastmile_qr_scan"}, "lon": -77.04662883333333, "name": "31bdf5f14f45452dcd5f235e585c0697", "fusion_lon": 0.0, "bike_id": "31bdf5f14f45452dcd5f235e585c0697", "is_reserved": 0, "type": "electric_scooter", "lat": 38.90015183333333, "fusion_lat": 0.0, "is_disabled": 0}, {"rental_uris": {"android": "https://dc.lft.to/lastmile_qr_scan", "ios": "https://dc.lft.to/lastmile_qr_scan"}, "lon": -77.0289455, "name": "45c793e6181a2c42a39b17b7fd4946fd", "fusion_lon": 0.0, "bike_id": "45c793e6181a2c42a39b17b7fd4946fd", "is_reserved": 0, "type": "electric_scooter", "lat": 38.91682616666667, "fusion_lat": 0.0, "is_disabled": 0}, {"rental_uris": {"android": "https://dc.lft.to/lastmile_qr_scan", "ios": "https://dc.lft.to/lastmile_qr_scan"}, "lon": -76.98754383333333, "name": "a4b9811f558769761ae13ab643672f95", "fusion_lon": 0.0, "bike_id": "a4b9811f558769761ae13ab643672f95", "is_reserved": 0, "type": "electric_scooter", "lat": 38.878335, "fusion_lat": 0.0, "is_disabled": 0}, {"rental_uris": {"android": "https://dc.lft.to/lastmile_qr_scan", "ios": "https://dc.lft.to/lastmile_qr_scan"}, "lon": -77.029951, "name": "4c2dffb1cd7a7eab09a54da0fc39518d", "fusion_lon": 0.0, "bike_id": "4c2dffb1cd7a7eab09a54da0fc39518d", "is_reserved": 0, "type": "electric_scooter", "lat": 38.91692183333333, "fusion_lat": 0.0, "is_disabled": 0}, {"rental_uris": {"android": "https://dc.lft.to/lastmile_qr_scan", "ios": "https://dc.lft.to/lastmile_qr_scan"}, "lon": -76.93854783333333, "name": "a3d79b55f36f35112fb9e58916f9d4dd", "fusion_lon": 0.0, "bike_id": "a3d79b55f36f35112fb9e58916f9d4dd", "is_reserved": 0, "type": "electric_scooter", "lat": 38.899694333333336, "fusion_lat": 0.0, "is_disabled": 0}, {"rental_uris": {"android": "https://dc.lft.to/lastmile_qr_scan", "ios": "https://dc.lft.to/lastmile_qr_scan"}, "lon": -77.02089383333333, "name": "48fbba06624a61f0cb2c09ae154f5672", "fusion_lon": 0.0, "bike_id": "48fbba06624a61f0cb2c09ae154f5672", "is_reserved": 0, "type": "electric_scooter", "lat": 38.91546683333333, "fusion_lat": 0.0, "is_disabled": 0}, {"rental_uris": {"android": "https://dc.lft.to/lastmile_qr_scan", "ios": "https://dc.lft.to/lastmile_qr_scan"}, "lon": -77.02832233333334, "name": "52cf1b1fc788e1a81488aa8eac5897f5", "fusion_lon": 0.0, "bike_id": "52cf1b1fc788e1a81488aa8eac5897f5", "is_reserved": 0, "type": "electric_scooter", "lat": 38.9026175, "fusion_lat": 0.0, "is_disabled": 0}, {"rental_uris": {"android": "https://dc.lft.to/lastmile_qr_scan", "ios": "https://dc.lft.to/lastmile_qr_scan"}, "lon": -77.03204216666667, "name": "d65396a4e473c2bdb2042f7e7f153cfa", "fusion_lon": 0.0, "bike_id": "d65396a4e473c2bdb2042f7e7f153cfa", "is_reserved": 0, "type": "electric_scooter", "lat": 38.913393166666665, "fusion_lat": 0.0, "is_disabled": 0}, {"rental_uris": {"android": "https://dc.lft.to/lastmile_qr_scan", "ios": "https://dc.lft.to/lastmile_qr_scan"}, "lon": -77.191342, "name": "122c18cdbc1c026976cad647fdc1bc36", "fusion_lon": 0.0, "bike_id": "122c18cdbc1c026976cad647fdc1bc36", "is_reserved": 0, "type": "electric_bike", "lat": 38.89452383333333, "fusion_lat": 0.0, "is_disabled": 0}, {"rental_uris": {"android": "https://dc.lft.to/lastmile_qr_scan", "ios": "https://dc.lft.to/lastmile_qr_scan"}, "lon": -77.03188466666667, "name": "aee9aa039370a20725ca2a90b2aa57b3", "fusion_lon": 0.0, "bike_id": "aee9aa039370a20725ca2a90b2aa57b3", "is_reserved": 0, "type": "electric_scooter", "lat": 38.913392333333334, "fusion_lat": 0.0, "is_disabled": 0}, {"rental_uris": {"android": "https://dc.lft.to/lastmile_qr_scan", "ios": "https://dc.lft.to/lastmile_qr_scan"}, "lon": -76.93045966666666, "name": "b53bf371b5b948261ded78afee0d8160", "fusion_lon": 0.0, "bike_id": "b53bf371b5b948261ded78afee0d8160", "is_reserved": 0, "type": "electric_scooter", "lat": 38.88390283333333, "fusion_lat": 0.0, "is_disabled": 0}, {"rental_uris": {"android": "https://dc.lft.to/lastmile_qr_scan", "ios": "https://dc.lft.to/lastmile_qr_scan"}, "lon": -77.03411033333333, "name": "3b1bb598e905557b0ff4f628b758ae21", "fusion_lon": 0.0, "bike_id": "3b1bb598e905557b0ff4f628b758ae21", "is_reserved": 0, "type": "electric_scooter", "lat": 38.925391166666664, "fusion_lat": 0.0, "is_disabled": 0}, {"rental_uris": {"android": "https://dc.lft.to/lastmile_qr_scan", "ios": "https://dc.lft.to/lastmile_qr_scan"}, "lon": -77.00385116666666, "name": "ab33caeaccd09fc6c10b9d193505402b", "fusion_lon": 0.0, "bike_id": "ab33caeaccd09fc6c10b9d193505402b", "is_reserved": 0, "type": "electric_bike", "lat": 38.836055, "fusion_lat": 0.0, "is_disabled": 0}, {"rental_uris": {"android": "https://dc.lft.to/lastmile_qr_scan", "ios": "https://dc.lft.to/lastmile_qr_scan"}, "lon": -77.01807716666667, "name": "514e52b0f21b4444660d69bfd288142e", "fusion_lon": 0.0, "bike_id": "514e52b0f21b4444660d69bfd288142e", "is_reserved": 0, "type": "electric_scooter", "lat": 38.902475833333334, "fusion_lat": 0.0, "is_disabled": 0}, {"rental_uris": {"android": "https://dc.lft.to/lastmile_qr_scan", "ios": "https://dc.lft.to/lastmile_qr_scan"}, "lon": -76.9899355, "name": "9c2398a48bb3c661feb96c1aedc52567", "fusion_lon": 0.0, "bike_id": "9c2398a48bb3c661feb96c1aedc52567", "is_reserved": 0, "type": "electric_bike", "lat": 38.936718, "fusion_lat": 0.0, "is_disabled": 0}, {"rental_uris": {"android": "https://dc.lft.to/lastmile_qr_scan", "ios": "https://dc.lft.to/lastmile_qr_scan"}, "lon": -77.036734, "name": "462da17cf25ae04835e7cbe4c086a8f1", "fusion_lon": 0.0, "bike_id": "462da17cf25ae04835e7cbe4c086a8f1", "is_reserved": 0, "type": "electric_scooter", "lat": 38.901359166666666, "fusion_lat": 0.0, "is_disabled": 0}, {"rental_uris": {"android": "https://dc.lft.to/lastmile_qr_scan", "ios": "https://dc.lft.to/lastmile_qr_scan"}, "lon": -76.9472875, "name": "887b8fd86b6b24b49a42f5dad65b59db", "fusion_lon": 0.0, "bike_id": "887b8fd86b6b24b49a42f5dad65b59db", "is_reserved": 0, "type": "electric_scooter", "lat": 38.89677066666667, "fusion_lat": 0.0, "is_disabled": 0}, {"rental_uris": {"android": "https://dc.lft.to/lastmile_qr_scan", "ios": "https://dc.lft.to/lastmile_qr_scan"}, "lon": -76.94703933333334, "name": "c771e535eb79facf424f759eac098a65", "fusion_lon": 0.0, "bike_id": "c771e535eb79facf424f759eac098a65", "is_reserved": 0, "type": "electric_scooter", "lat": 38.89727166666667, "fusion_lat": 0.0, "is_disabled": 0}, {"rental_uris": {"android": "https://dc.lft.to/lastmile_qr_scan", "ios": "https://dc.lft.to/lastmile_qr_scan"}, "lon": -77.00614283333333, "name": "48ac90c6fb4dfe4bfd768861977372fe", "fusion_lon": 0.0, "bike_id": "48ac90c6fb4dfe4bfd768861977372fe", "is_reserved": 0, "type": "electric_scooter", "lat": 38.87178633333333, "fusion_lat": 0.0, "is_disabled": 0}, {"rental_uris": {"android": "https://dc.lft.to/lastmile_qr_scan", "ios": "https://dc.lft.to/lastmile_qr_scan"}, "lon": -77.05295616666666, "name": "2426aa7642d1966867606f79586ba644", "fusion_lon": 0.0, "bike_id": "2426aa7642d1966867606f79586ba644", "is_reserved": 0, "type": "electric_scooter", "lat": 38.91694183333333, "fusion_lat": 0.0, "is_disabled": 0}, {"rental_uris": {"android": "https://dc.lft.to/lastmile_qr_scan", "ios": "https://dc.lft.to/lastmile_qr_scan"}, "lon": -77.00987916666666, "name": "1621ce58cec950d8dac56917b9071d22", "fusion_lon": 0.0, "bike_id": "1621ce58cec950d8dac56917b9071d22", "is_reserved": 0, "type": "electric_scooter", "lat": 38.872864, "fusion_lat": 0.0, "is_disabled": 0}, {"rental_uris": {"android": "https://dc.lft.to/lastmile_qr_scan", "ios": "https://dc.lft.to/lastmile_qr_scan"}, "lon": -77.00928283333333, "name": "c0ee5fd6b25a912022f0285f152a8678", "fusion_lon": 0.0, "bike_id": "c0ee5fd6b25a912022f0285f152a8678", "is_reserved": 0, "type": "electric_scooter", "lat": 38.91800416666667, "fusion_lat": 0.0, "is_disabled": 0}, {"rental_uris": {"android": "https://dc.lft.to/lastmile_qr_scan", "ios": "https://dc.lft.to/lastmile_qr_scan"}, "lon": -77.051653, "name": "61dfcc2bbdf5ab2549623883b1c28ca8", "fusion_lon": 0.0, "bike_id": "61dfcc2bbdf5ab2549623883b1c28ca8", "is_reserved": 0, "type": "electric_bike", "lat": 38.85061916666667, "fusion_lat": 0.0, "is_disabled": 0}, {"rental_uris": {"android": "https://dc.lft.to/lastmile_qr_scan", "ios": "https://dc.lft.to/lastmile_qr_scan"}, "lon": -77.02188783333334, "name": "c59dd4b643ada6d4b9d9dec53503f1a0", "fusion_lon": 0.0, "bike_id": "c59dd4b643ada6d4b9d9dec53503f1a0", "is_reserved": 0, "type": "electric_scooter", "lat": 38.9188595, "fusion_lat": 0.0, "is_disabled": 0}, {"rental_uris": {"android": "https://dc.lft.to/lastmile_qr_scan", "ios": "https://dc.lft.to/lastmile_qr_scan"}, "lon": -77.04596916666667, "name": "c934e26c5982f851a38b2d2f4290a03f", "fusion_lon": 0.0, "bike_id": "c934e26c5982f851a38b2d2f4290a03f", "is_reserved": 0, "type": "electric_scooter", "lat": 38.90253, "fusion_lat": 0.0, "is_disabled": 0}, {"rental_uris": {"android": "https://dc.lft.to/lastmile_qr_scan", "ios": "https://dc.lft.to/lastmile_qr_scan"}, "lon": -77.03355733333333, "name": "1d5c1817966d6ced0479bc31f5146b9e", "fusion_lon": 0.0, "bike_id": "1d5c1817966d6ced0479bc31f5146b9e", "is_reserved": 0, "type": "electric_scooter", "lat": 38.897543166666665, "fusion_lat": 0.0, "is_disabled": 0}, {"rental_uris": {"android": "https://dc.lft.to/lastmile_qr_scan", "ios": "https://dc.lft.to/lastmile_qr_scan"}, "lon": -77.025096, "name": "68a26cbefd2342e802438454089cd0dc", "fusion_lon": 0.0, "bike_id": "68a26cbefd2342e802438454089cd0dc", "is_reserved": 0, "type": "electric_scooter", "lat": 38.920640666666664, "fusion_lat": 0.0, "is_disabled": 0}, {"rental_uris": {"android": "https://dc.lft.to/lastmile_qr_scan", "ios": "https://dc.lft.to/lastmile_qr_scan"}, "lon": -77.0508915, "name": "60dbc5257691770490881c5504edf184", "fusion_lon": 0.0, "bike_id": "60dbc5257691770490881c5504edf184", "is_reserved": 0, "type": "electric_scooter", "lat": 38.901877166666665, "fusion_lat": 0.0, "is_disabled": 0}, {"rental_uris": {"android": "https://dc.lft.to/lastmile_qr_scan", "ios": "https://dc.lft.to/lastmile_qr_scan"}, "lon": -77.00596516666667, "name": "aa8e4c44eed23f453399650a0e78dab8", "fusion_lon": 0.0, "bike_id": "aa8e4c44eed23f453399650a0e78dab8", "is_reserved": 0, "type": "electric_scooter", "lat": 38.9056555, "fusion_lat": 0.0, "is_disabled": 0}, {"rental_uris": {"android": "https://dc.lft.to/lastmile_qr_scan", "ios": "https://dc.lft.to/lastmile_qr_scan"}, "lon": -77.03087183333334, "name": "2d2dfa469ff735fa2e3ace190d4473ba", "fusion_lon": 0.0, "bike_id": "2d2dfa469ff735fa2e3ace190d4473ba", "is_reserved": 0, "type": "electric_scooter", "lat": 38.92790733333333, "fusion_lat": 0.0, "is_disabled": 0}, {"rental_uris": {"android": "https://dc.lft.to/lastmile_qr_scan", "ios": "https://dc.lft.to/lastmile_qr_scan"}, "lon": -77.00336116666666, "name": "d4d34f3daa6a8ee29214e7e9b47392a4", "fusion_lon": 0.0, "bike_id": "d4d34f3daa6a8ee29214e7e9b47392a4", "is_reserved": 0, "type": "electric_scooter", "lat": 38.89354316666667, "fusion_lat": 0.0, "is_disabled": 0}, {"rental_uris": {"android": "https://dc.lft.to/lastmile_qr_scan", "ios": "https://dc.lft.to/lastmile_qr_scan"}, "lon": -77.34462066666667, "name": "af660d0c5b3d5d6acb86c01a1c48f31d", "fusion_lon": 0.0, "bike_id": "af660d0c5b3d5d6acb86c01a1c48f31d", "is_reserved": 0, "type": "electric_bike", "lat": 38.945364833333336, "fusion_lat": 0.0, "is_disabled": 0}, {"rental_uris": {"android": "https://dc.lft.to/lastmile_qr_scan", "ios": "https://dc.lft.to/lastmile_qr_scan"}, "lon": -77.02796683333334, "name": "5688c9ba4f762cbc4491fc1a1d34bffe", "fusion_lon": 0.0, "bike_id": "5688c9ba4f762cbc4491fc1a1d34bffe", "is_reserved": 0, "type": "electric_scooter", "lat": 38.929647, "fusion_lat": 0.0, "is_disabled": 0}, {"rental_uris": {"android": "https://dc.lft.to/lastmile_qr_scan", "ios": "https://dc.lft.to/lastmile_qr_scan"}, "lon": -77.024254, "name": "199b9e115ee53e76630abe0a5d9c39d6", "fusion_lon": 0.0, "bike_id": "199b9e115ee53e76630abe0a5d9c39d6", "is_reserved": 0, "type": "electric_scooter", "lat": 38.905631666666665, "fusion_lat": 0.0, "is_disabled": 0}, {"rental_uris": {"android": "https://dc.lft.to/lastmile_qr_scan", "ios": "https://dc.lft.to/lastmile_qr_scan"}, "lon": -76.93674266666666, "name": "62ad28770ac715db9d4e4be65ec1ce8d", "fusion_lon": 0.0, "bike_id": "62ad28770ac715db9d4e4be65ec1ce8d", "is_reserved": 0, "type": "electric_scooter", "lat": 38.886593166666664, "fusion_lat": 0.0, "is_disabled": 0}, {"rental_uris": {"android": "https://dc.lft.to/lastmile_qr_scan", "ios": "https://dc.lft.to/lastmile_qr_scan"}, "lon": -76.95151266666667, "name": "e1c9c07ba12ae822bc25f2688ce29fba", "fusion_lon": 0.0, "bike_id": "e1c9c07ba12ae822bc25f2688ce29fba", "is_reserved": 0, "type": "electric_bike", "lat": 39.08428883333333, "fusion_lat": 0.0, "is_disabled": 0}, {"rental_uris": {"android": "https://dc.lft.to/lastmile_qr_scan", "ios": "https://dc.lft.to/lastmile_qr_scan"}, "lon": -76.98070866666667, "name": "52cebea7aca9f8429a2db00038c21a5d", "fusion_lon": 0.0, "bike_id": "52cebea7aca9f8429a2db00038c21a5d", "is_reserved": 0, "type": "electric_scooter", "lat": 38.8650095, "fusion_lat": 0.0, "is_disabled": 0}, {"rental_uris": {"android": "https://dc.lft.to/lastmile_qr_scan", "ios": "https://dc.lft.to/lastmile_qr_scan"}, "lon": -77.071685, "name": "7f499e4cc3a8ca3ed0a8ae6e501a3a87", "fusion_lon": 0.0, "bike_id": "7f499e4cc3a8ca3ed0a8ae6e501a3a87", "is_reserved": 0, "type": "electric_bike", "lat": 38.90866916666667, "fusion_lat": 0.0, "is_disabled": 0}, {"rental_uris": {"android": "https://dc.lft.to/lastmile_qr_scan", "ios": "https://dc.lft.to/lastmile_qr_scan"}, "lon": -77.02403616666666, "name": "889b3fb1e9dde904859eb59d53ad6814", "fusion_lon": 0.0, "bike_id": "889b3fb1e9dde904859eb59d53ad6814", "is_reserved": 0, "type": "electric_scooter", "lat": 38.909882, "fusion_lat": 0.0, "is_disabled": 0}, {"rental_uris": {"android": "https://dc.lft.to/lastmile_qr_scan", "ios": "https://dc.lft.to/lastmile_qr_scan"}, "lon": -77.02167233333333, "name": "fce1ca967482eb9ab55c3ae55bfd51b4", "fusion_lon": 0.0, "bike_id": "fce1ca967482eb9ab55c3ae55bfd51b4", "is_reserved": 0, "type": "electric_scooter", "lat": 38.924444, "fusion_lat": 0.0, "is_disabled": 0}, {"rental_uris": {"android": "https://dc.lft.to/lastmile_qr_scan", "ios": "https://dc.lft.to/lastmile_qr_scan"}, "lon": -77.02714866666666, "name": "99c41c5a5be3943f2f58bf5197342a0e", "fusion_lon": 0.0, "bike_id": "99c41c5a5be3943f2f58bf5197342a0e", "is_reserved": 0, "type": "electric_scooter", "lat": 38.9248315, "fusion_lat": 0.0, "is_disabled": 0}, {"rental_uris": {"android": "https://dc.lft.to/lastmile_qr_scan", "ios": "https://dc.lft.to/lastmile_qr_scan"}, "lon": -77.04032, "name": "0c4e6fc7c5afb6a845c58c51efca31a9", "fusion_lon": 0.0, "bike_id": "0c4e6fc7c5afb6a845c58c51efca31a9", "is_reserved": 0, "type": "electric_scooter", "lat": 38.9051705, "fusion_lat": 0.0, "is_disabled": 0}, {"rental_uris": {"android": "https://dc.lft.to/lastmile_qr_scan", "ios": "https://dc.lft.to/lastmile_qr_scan"}, "lon": -77.0318315, "name": "2aa49c2a80d3fb8fbd9f2dc3f3f060b5", "fusion_lon": 0.0, "bike_id": "2aa49c2a80d3fb8fbd9f2dc3f3f060b5", "is_reserved": 0, "type": "electric_scooter", "lat": 38.887212, "fusion_lat": 0.0, "is_disabled": 0}, {"rental_uris": {"android": "https://dc.lft.to/lastmile_qr_scan", "ios": "https://dc.lft.to/lastmile_qr_scan"}, "lon": -77.041567, "name": "b16c61cbe29b58821e4703c22df835c2", "fusion_lon": 0.0, "bike_id": "b16c61cbe29b58821e4703c22df835c2", "is_reserved": 0, "type": "electric_scooter", "lat": 38.9174735, "fusion_lat": 0.0, "is_disabled": 0}, {"rental_uris": {"android": "https://dc.lft.to/lastmile_qr_scan", "ios": "https://dc.lft.to/lastmile_qr_scan"}, "lon": -77.02844433333334, "name": "79d0f3c04d57cd6d186cb6fa28d7716d", "fusion_lon": 0.0, "bike_id": "79d0f3c04d57cd6d186cb6fa28d7716d", "is_reserved": 0, "type": "electric_scooter", "lat": 38.93276616666667, "fusion_lat": 0.0, "is_disabled": 0}, {"rental_uris": {"android": "https://dc.lft.to/lastmile_qr_scan", "ios": "https://dc.lft.to/lastmile_qr_scan"}, "lon": -77.083244, "name": "223fd178d3e280dcf1bbcfcef0d8b25d", "fusion_lon": 0.0, "bike_id": "223fd178d3e280dcf1bbcfcef0d8b25d", "is_reserved": 0, "type": "electric_bike", "lat": 38.854311333333335, "fusion_lat": 0.0, "is_disabled": 0}, {"rental_uris": {"android": "https://dc.lft.to/lastmile_qr_scan", "ios": "https://dc.lft.to/lastmile_qr_scan"}, "lon": -77.01954316666667, "name": "02c89c0ec73fa7e90fcc26bad3100ea7", "fusion_lon": 0.0, "bike_id": "02c89c0ec73fa7e90fcc26bad3100ea7", "is_reserved": 0, "type": "electric_scooter", "lat": 38.923261, "fusion_lat": 0.0, "is_disabled": 0}, {"rental_uris": {"android": "https://dc.lft.to/lastmile_qr_scan", "ios": "https://dc.lft.to/lastmile_qr_scan"}, "lon": -77.03251983333334, "name": "96ea37e491abd6a1752606241c11633e", "fusion_lon": 0.0, "bike_id": "96ea37e491abd6a1752606241c11633e", "is_reserved": 0, "type": "electric_scooter", "lat": 38.93756666666667, "fusion_lat": 0.0, "is_disabled": 0}, {"rental_uris": {"android": "https://dc.lft.to/lastmile_qr_scan", "ios": "https://dc.lft.to/lastmile_qr_scan"}, "lon": -77.05061966666666, "name": "5fc4e7168ee105046a5e76f91802786d", "fusion_lon": 0.0, "bike_id": "5fc4e7168ee105046a5e76f91802786d", "is_reserved": 0, "type": "electric_scooter", "lat": 38.9251945, "fusion_lat": 0.0, "is_disabled": 0}, {"rental_uris": {"android": "https://dc.lft.to/lastmile_qr_scan", "ios": "https://dc.lft.to/lastmile_qr_scan"}, "lon": -77.032901, "name": "9f116ed6bd7a4669a3874234b8827474", "fusion_lon": 0.0, "bike_id": "9f116ed6bd7a4669a3874234b8827474", "is_reserved": 0, "type": "electric_scooter", "lat": 38.92045316666667, "fusion_lat": 0.0, "is_disabled": 0}, {"rental_uris": {"android": "https://dc.lft.to/lastmile_qr_scan", "ios": "https://dc.lft.to/lastmile_qr_scan"}, "lon": -77.03652866666667, "name": "123f7d8cf3ebc6432dea348e7d18f70a", "fusion_lon": 0.0, "bike_id": "123f7d8cf3ebc6432dea348e7d18f70a", "is_reserved": 0, "type": "electric_scooter", "lat": 38.95258883333333, "fusion_lat": 0.0, "is_disabled": 0}, {"rental_uris": {"android": "https://dc.lft.to/lastmile_qr_scan", "ios": "https://dc.lft.to/lastmile_qr_scan"}, "lon": -77.02329733333333, "name": "f593c142f397b076fe5d72f83e1982e3", "fusion_lon": 0.0, "bike_id": "f593c142f397b076fe5d72f83e1982e3", "is_reserved": 0, "type": "electric_scooter", "lat": 38.930612833333335, "fusion_lat": 0.0, "is_disabled": 0}, {"rental_uris": {"android": "https://dc.lft.to/lastmile_qr_scan", "ios": "https://dc.lft.to/lastmile_qr_scan"}, "lon": -77.04109833333334, "name": "bc193affcd936ad23c38353da0a9c866", "fusion_lon": 0.0, "bike_id": "bc193affcd936ad23c38353da0a9c866", "is_reserved": 0, "type": "electric_scooter", "lat": 38.916949833333334, "fusion_lat": 0.0, "is_disabled": 0}, {"rental_uris": {"android": "https://dc.lft.to/lastmile_qr_scan", "ios": "https://dc.lft.to/lastmile_qr_scan"}, "lon": -77.05034683333334, "name": "60cb2db4c572b6ae917de8114f45a9aa", "fusion_lon": 0.0, "bike_id": "60cb2db4c572b6ae917de8114f45a9aa", "is_reserved": 0, "type": "electric_bike", "lat": 39.038990166666665, "fusion_lat": 0.0, "is_disabled": 0}, {"rental_uris": {"android": "https://dc.lft.to/lastmile_qr_scan", "ios": "https://dc.lft.to/lastmile_qr_scan"}, "lon": -77.02823633333334, "name": "7064a953473f684ccc9a8d2e7ae9e830", "fusion_lon": 0.0, "bike_id": "7064a953473f684ccc9a8d2e7ae9e830", "is_reserved": 0, "type": "electric_scooter", "lat": 38.898334166666665, "fusion_lat": 0.0, "is_disabled": 0}, {"rental_uris": {"android": "https://dc.lft.to/lastmile_qr_scan", "ios": "https://dc.lft.to/lastmile_qr_scan"}, "lon": -77.003238, "name": "c95d615358cb4471974d2e3a849aa411", "fusion_lon": 0.0, "bike_id": "c95d615358cb4471974d2e3a849aa411", "is_reserved": 0, "type": "electric_scooter", "lat": 38.8776155, "fusion_lat": 0.0, "is_disabled": 0}, {"rental_uris": {"android": "https://dc.lft.to/lastmile_qr_scan", "ios": "https://dc.lft.to/lastmile_qr_scan"}, "lon": -77.02348016666667, "name": "f1974f4185db124272abcc498606eed1", "fusion_lon": 0.0, "bike_id": "f1974f4185db124272abcc498606eed1", "is_reserved": 0, "type": "electric_scooter", "lat": 38.931172333333336, "fusion_lat": 0.0, "is_disabled": 0}, {"rental_uris": {"android": "https://dc.lft.to/lastmile_qr_scan", "ios": "https://dc.lft.to/lastmile_qr_scan"}, "lon": -76.996803, "name": "f7aeb2322fef140ffeac1b033f925b34", "fusion_lon": 0.0, "bike_id": "f7aeb2322fef140ffeac1b033f925b34", "is_reserved": 0, "type": "electric_scooter", "lat": 38.887214, "fusion_lat": 0.0, "is_disabled": 0}, {"rental_uris": {"android": "https://dc.lft.to/lastmile_qr_scan", "ios": "https://dc.lft.to/lastmile_qr_scan"}, "lon": -77.00334416666666, "name": "ea0663b2e36ece4ed42b7913c7ea573f", "fusion_lon": 0.0, "bike_id": "ea0663b2e36ece4ed42b7913c7ea573f", "is_reserved": 0, "type": "electric_scooter", "lat": 38.89352783333333, "fusion_lat": 0.0, "is_disabled": 0}, {"rental_uris": {"android": "https://dc.lft.to/lastmile_qr_scan", "ios": "https://dc.lft.to/lastmile_qr_scan"}, "lon": -77.01430766666667, "name": "751cebcfe6f0836e18ca9d6225d04db0", "fusion_lon": 0.0, "bike_id": "751cebcfe6f0836e18ca9d6225d04db0", "is_reserved": 0, "type": "electric_scooter", "lat": 38.906380666666664, "fusion_lat": 0.0, "is_disabled": 0}, {"rental_uris": {"android": "https://dc.lft.to/lastmile_qr_scan", "ios": "https://dc.lft.to/lastmile_qr_scan"}, "lon": -76.99269383333333, "name": "bc046add02df0e798ba0362bce4d34b1", "fusion_lon": 0.0, "bike_id": "bc046add02df0e798ba0362bce4d34b1", "is_reserved": 0, "type": "electric_scooter", "lat": 38.883487, "fusion_lat": 0.0, "is_disabled": 0}, {"rental_uris": {"android": "https://dc.lft.to/lastmile_qr_scan", "ios": "https://dc.lft.to/lastmile_qr_scan"}, "lon": -77.03249466666666, "name": "40a4862be93fc46769a0fe82e534b55e", "fusion_lon": 0.0, "bike_id": "40a4862be93fc46769a0fe82e534b55e", "is_reserved": 0, "type": "electric_scooter", "lat": 38.90125666666667, "fusion_lat": 0.0, "is_disabled": 0}, {"rental_uris": {"android": "https://dc.lft.to/lastmile_qr_scan", "ios": "https://dc.lft.to/lastmile_qr_scan"}, "lon": -77.02202333333334, "name": "2ad7daedbbf26bc5a5e8ed7b0b659a07", "fusion_lon": 0.0, "bike_id": "2ad7daedbbf26bc5a5e8ed7b0b659a07", "is_reserved": 0, "type": "electric_scooter", "lat": 38.91121966666667, "fusion_lat": 0.0, "is_disabled": 0}, {"rental_uris": {"android": "https://dc.lft.to/lastmile_qr_scan", "ios": "https://dc.lft.to/lastmile_qr_scan"}, "lon": -76.98216283333333, "name": "0c8544e0a8fb1a9ac7422ab5d0f087c1", "fusion_lon": 0.0, "bike_id": "0c8544e0a8fb1a9ac7422ab5d0f087c1", "is_reserved": 0, "type": "electric_scooter", "lat": 38.85704283333333, "fusion_lat": 0.0, "is_disabled": 0}, {"rental_uris": {"android": "https://dc.lft.to/lastmile_qr_scan", "ios": "https://dc.lft.to/lastmile_qr_scan"}, "lon": -77.03538666666667, "name": "082a961bc0da3773239692a2fbcf294d", "fusion_lon": 0.0, "bike_id": "082a961bc0da3773239692a2fbcf294d", "is_reserved": 0, "type": "electric_scooter", "lat": 38.92465283333333, "fusion_lat": 0.0, "is_disabled": 0}, {"rental_uris": {"android": "https://dc.lft.to/lastmile_qr_scan", "ios": "https://dc.lft.to/lastmile_qr_scan"}, "lon": -77.02502266666667, "name": "57fcc0084e970138e685681430571eb3", "fusion_lon": 0.0, "bike_id": "57fcc0084e970138e685681430571eb3", "is_reserved": 0, "type": "electric_scooter", "lat": 38.897358833333335, "fusion_lat": 0.0, "is_disabled": 0}, {"rental_uris": {"android": "https://dc.lft.to/lastmile_qr_scan", "ios": "https://dc.lft.to/lastmile_qr_scan"}, "lon": -77.03307366666667, "name": "7cd087b294b3f24cec0ee9a09c3eb8f5", "fusion_lon": 0.0, "bike_id": "7cd087b294b3f24cec0ee9a09c3eb8f5", "is_reserved": 0, "type": "electric_scooter", "lat": 38.918035333333336, "fusion_lat": 0.0, "is_disabled": 0}, {"rental_uris": {"android": "https://dc.lft.to/lastmile_qr_scan", "ios": "https://dc.lft.to/lastmile_qr_scan"}, "lon": -77.0482325, "name": "42224dd7ca2641c3c98f0074dfae08b6", "fusion_lon": 0.0, "bike_id": "42224dd7ca2641c3c98f0074dfae08b6", "is_reserved": 0, "type": "electric_scooter", "lat": 38.92037916666666, "fusion_lat": 0.0, "is_disabled": 0}, {"rental_uris": {"android": "https://dc.lft.to/lastmile_qr_scan", "ios": "https://dc.lft.to/lastmile_qr_scan"}, "lon": -77.06325733333334, "name": "cfd0223e3306fd3c6f1638c9db61e8af", "fusion_lon": 0.0, "bike_id": "cfd0223e3306fd3c6f1638c9db61e8af", "is_reserved": 0, "type": "electric_scooter", "lat": 38.94408683333333, "fusion_lat": 0.0, "is_disabled": 0}, {"rental_uris": {"android": "https://dc.lft.to/lastmile_qr_scan", "ios": "https://dc.lft.to/lastmile_qr_scan"}, "lon": -77.04512033333333, "name": "025812c1b3c927dfb9be9af1de7e4bec", "fusion_lon": 0.0, "bike_id": "025812c1b3c927dfb9be9af1de7e4bec", "is_reserved": 0, "type": "electric_scooter", "lat": 38.88604766666667, "fusion_lat": 0.0, "is_disabled": 0}, {"rental_uris": {"android": "https://dc.lft.to/lastmile_qr_scan", "ios": "https://dc.lft.to/lastmile_qr_scan"}, "lon": -77.03657266666667, "name": "bb3ca819f3fc137592794fb1be3ea21a", "fusion_lon": 0.0, "bike_id": "bb3ca819f3fc137592794fb1be3ea21a", "is_reserved": 0, "type": "electric_scooter", "lat": 38.930159, "fusion_lat": 0.0, "is_disabled": 0}, {"rental_uris": {"android": "https://dc.lft.to/lastmile_qr_scan", "ios": "https://dc.lft.to/lastmile_qr_scan"}, "lon": -77.025436, "name": "b9b9eae1204896665d128314dc30b9a4", "fusion_lon": 0.0, "bike_id": "b9b9eae1204896665d128314dc30b9a4", "is_reserved": 0, "type": "electric_bike", "lat": 38.98910133333333, "fusion_lat": 0.0, "is_disabled": 0}, {"rental_uris": {"android": "https://dc.lft.to/lastmile_qr_scan", "ios": "https://dc.lft.to/lastmile_qr_scan"}, "lon": -77.01685566666667, "name": "83894989a9c5ccf33f0d538d7678963a", "fusion_lon": 0.0, "bike_id": "83894989a9c5ccf33f0d538d7678963a", "is_reserved": 0, "type": "electric_scooter", "lat": 38.904703166666664, "fusion_lat": 0.0, "is_disabled": 0}, {"rental_uris": {"android": "https://dc.lft.to/lastmile_qr_scan", "ios": "https://dc.lft.to/lastmile_qr_scan"}, "lon": -77.03224383333334, "name": "be9118e484a4ece8d26b9d11fa3fd222", "fusion_lon": 0.0, "bike_id": "be9118e484a4ece8d26b9d11fa3fd222", "is_reserved": 0, "type": "electric_scooter", "lat": 38.92858783333333, "fusion_lat": 0.0, "is_disabled": 0}, {"rental_uris": {"android": "https://dc.lft.to/lastmile_qr_scan", "ios": "https://dc.lft.to/lastmile_qr_scan"}, "lon": -77.03662116666666, "name": "40af8b9e40352192076166f23279e655", "fusion_lon": 0.0, "bike_id": "40af8b9e40352192076166f23279e655", "is_reserved": 0, "type": "electric_scooter", "lat": 38.9227855, "fusion_lat": 0.0, "is_disabled": 0}, {"rental_uris": {"android": "https://dc.lft.to/lastmile_qr_scan", "ios": "https://dc.lft.to/lastmile_qr_scan"}, "lon": -77.01797433333333, "name": "f719621852b7237bee9b79cb5095721b", "fusion_lon": 0.0, "bike_id": "f719621852b7237bee9b79cb5095721b", "is_reserved": 0, "type": "electric_scooter", "lat": 38.91943066666666, "fusion_lat": 0.0, "is_disabled": 0}, {"rental_uris": {"android": "https://dc.lft.to/lastmile_qr_scan", "ios": "https://dc.lft.to/lastmile_qr_scan"}, "lon": -77.057119, "name": "3b27c5425df6337771d96b4b8c31820f", "fusion_lon": 0.0, "bike_id": "3b27c5425df6337771d96b4b8c31820f", "is_reserved": 0, "type": "electric_scooter", "lat": 38.93344616666667, "fusion_lat": 0.0, "is_disabled": 0}, {"rental_uris": {"android": "https://dc.lft.to/lastmile_qr_scan", "ios": "https://dc.lft.to/lastmile_qr_scan"}, "lon": -77.038342, "name": "64deba78cdf72d1804f28194c63e72b3", "fusion_lon": 0.0, "bike_id": "64deba78cdf72d1804f28194c63e72b3", "is_reserved": 0, "type": "electric_scooter", "lat": 38.911888, "fusion_lat": 0.0, "is_disabled": 0}, {"rental_uris": {"android": "https://dc.lft.to/lastmile_qr_scan", "ios": "https://dc.lft.to/lastmile_qr_scan"}, "lon": -77.016154, "name": "f66a869210e40f878b4a172a5be6a52e", "fusion_lon": 0.0, "bike_id": "f66a869210e40f878b4a172a5be6a52e", "is_reserved": 0, "type": "electric_scooter", "lat": 38.90595483333333, "fusion_lat": 0.0, "is_disabled": 0}, {"rental_uris": {"android": "https://dc.lft.to/lastmile_qr_scan", "ios": "https://dc.lft.to/lastmile_qr_scan"}, "lon": -77.11871783333333, "name": "0c60551be2b8a0e91d15490e4e618b59", "fusion_lon": 0.0, "bike_id": "0c60551be2b8a0e91d15490e4e618b59", "is_reserved": 0, "type": "electric_bike", "lat": 38.8984605, "fusion_lat": 0.0, "is_disabled": 0}, {"rental_uris": {"android": "https://dc.lft.to/lastmile_qr_scan", "ios": "https://dc.lft.to/lastmile_qr_scan"}, "lon": -77.02008616666667, "name": "92a785c3c97b39b376991b4456c1710e", "fusion_lon": 0.0, "bike_id": "92a785c3c97b39b376991b4456c1710e", "is_reserved": 0, "type": "electric_scooter", "lat": 38.93503583333333, "fusion_lat": 0.0, "is_disabled": 0}, {"rental_uris": {"android": "https://dc.lft.to/lastmile_qr_scan", "ios": "https://dc.lft.to/lastmile_qr_scan"}, "lon": -77.03211783333333, "name": "4eca851c688be30fe23851b808ef6206", "fusion_lon": 0.0, "bike_id": "4eca851c688be30fe23851b808ef6206", "is_reserved": 0, "type": "electric_scooter", "lat": 38.914731833333335, "fusion_lat": 0.0, "is_disabled": 0}, {"rental_uris": {"android": "https://dc.lft.to/lastmile_qr_scan", "ios": "https://dc.lft.to/lastmile_qr_scan"}, "lon": -77.0256365, "name": "6b2c5be0bdff5e498da4d88cbacde095", "fusion_lon": 0.0, "bike_id": "6b2c5be0bdff5e498da4d88cbacde095", "is_reserved": 0, "type": "electric_scooter", "lat": 38.93347683333333, "fusion_lat": 0.0, "is_disabled": 0}, {"rental_uris": {"android": "https://dc.lft.to/lastmile_qr_scan", "ios": "https://dc.lft.to/lastmile_qr_scan"}, "lon": -77.02659216666666, "name": "b9e3928e2c5a1b4243db7558587af5fe", "fusion_lon": 0.0, "bike_id": "b9e3928e2c5a1b4243db7558587af5fe", "is_reserved": 0, "type": "electric_scooter", "lat": 38.894799666666664, "fusion_lat": 0.0, "is_disabled": 0}, {"rental_uris": {"android": "https://dc.lft.to/lastmile_qr_scan", "ios": "https://dc.lft.to/lastmile_qr_scan"}, "lon": -77.041896, "name": "2c3cf2064dd0eb15dc79f31b6c0c8c24", "fusion_lon": 0.0, "bike_id": "2c3cf2064dd0eb15dc79f31b6c0c8c24", "is_reserved": 0, "type": "electric_scooter", "lat": 38.92052416666667, "fusion_lat": 0.0, "is_disabled": 0}, {"rental_uris": {"android": "https://dc.lft.to/lastmile_qr_scan", "ios": "https://dc.lft.to/lastmile_qr_scan"}, "lon": -77.05698033333333, "name": "7417eb309b42b9297752a320a0f2a060", "fusion_lon": 0.0, "bike_id": "7417eb309b42b9297752a320a0f2a060", "is_reserved": 0, "type": "electric_scooter", "lat": 38.93354816666667, "fusion_lat": 0.0, "is_disabled": 0}, {"rental_uris": {"android": "https://dc.lft.to/lastmile_qr_scan", "ios": "https://dc.lft.to/lastmile_qr_scan"}, "lon": -77.02117616666666, "name": "24e99cd73599d3ad5165a3cd56243ddf", "fusion_lon": 0.0, "bike_id": "24e99cd73599d3ad5165a3cd56243ddf", "is_reserved": 0, "type": "electric_scooter", "lat": 38.93001683333333, "fusion_lat": 0.0, "is_disabled": 0}, {"rental_uris": {"android": "https://dc.lft.to/lastmile_qr_scan", "ios": "https://dc.lft.to/lastmile_qr_scan"}, "lon": -77.04196616666667, "name": "e93d24ec2219a7cede29c2653baada24", "fusion_lon": 0.0, "bike_id": "e93d24ec2219a7cede29c2653baada24", "is_reserved": 0, "type": "electric_scooter", "lat": 38.90747, "fusion_lat": 0.0, "is_disabled": 0}, {"rental_uris": {"android": "https://dc.lft.to/lastmile_qr_scan", "ios": "https://dc.lft.to/lastmile_qr_scan"}, "lon": -77.0281205, "name": "52ad4e36294784bd8b542ad8854f72ad", "fusion_lon": 0.0, "bike_id": "52ad4e36294784bd8b542ad8854f72ad", "is_reserved": 0, "type": "electric_scooter", "lat": 38.895987833333336, "fusion_lat": 0.0, "is_disabled": 0}, {"rental_uris": {"android": "https://dc.lft.to/lastmile_qr_scan", "ios": "https://dc.lft.to/lastmile_qr_scan"}, "lon": -77.0249145, "name": "73f80caab0c142e2789d72869442153b", "fusion_lon": 0.0, "bike_id": "73f80caab0c142e2789d72869442153b", "is_reserved": 0, "type": "electric_scooter", "lat": 38.907120166666665, "fusion_lat": 0.0, "is_disabled": 0}, {"rental_uris": {"android": "https://dc.lft.to/lastmile_qr_scan", "ios": "https://dc.lft.to/lastmile_qr_scan"}, "lon": -77.0952365, "name": "8b83192ce405894816947d13b117b897", "fusion_lon": 0.0, "bike_id": "8b83192ce405894816947d13b117b897", "is_reserved": 0, "type": "electric_bike", "lat": 38.838089333333336, "fusion_lat": 0.0, "is_disabled": 0}, {"rental_uris": {"android": "https://dc.lft.to/lastmile_qr_scan", "ios": "https://dc.lft.to/lastmile_qr_scan"}, "lon": -76.97620466666666, "name": "21059395ff910e04c9c87a497ae9d937", "fusion_lon": 0.0, "bike_id": "21059395ff910e04c9c87a497ae9d937", "is_reserved": 0, "type": "electric_bike", "lat": 38.84027533333333, "fusion_lat": 0.0, "is_disabled": 0}, {"rental_uris": {"android": "https://dc.lft.to/lastmile_qr_scan", "ios": "https://dc.lft.to/lastmile_qr_scan"}, "lon": -77.041986, "name": "e05fc03e4016e0d69a80510c98979f0a", "fusion_lon": 0.0, "bike_id": "e05fc03e4016e0d69a80510c98979f0a", "is_reserved": 0, "type": "electric_scooter", "lat": 38.9053305, "fusion_lat": 0.0, "is_disabled": 0}, {"rental_uris": {"android": "https://dc.lft.to/lastmile_qr_scan", "ios": "https://dc.lft.to/lastmile_qr_scan"}, "lon": -77.0238185, "name": "6fca5bf3a7aa327fa9474dca338f69c9", "fusion_lon": 0.0, "bike_id": "6fca5bf3a7aa327fa9474dca338f69c9", "is_reserved": 0, "type": "electric_scooter", "lat": 38.93388683333333, "fusion_lat": 0.0, "is_disabled": 0}, {"rental_uris": {"android": "https://dc.lft.to/lastmile_qr_scan", "ios": "https://dc.lft.to/lastmile_qr_scan"}, "lon": -77.02327466666667, "name": "67ddf445e016c9ee40dcaa4756ce032c", "fusion_lon": 0.0, "bike_id": "67ddf445e016c9ee40dcaa4756ce032c", "is_reserved": 0, "type": "electric_scooter", "lat": 38.91286483333333, "fusion_lat": 0.0, "is_disabled": 0}, {"rental_uris": {"android": "https://dc.lft.to/lastmile_qr_scan", "ios": "https://dc.lft.to/lastmile_qr_scan"}, "lon": -77.037785, "name": "5b5c970a48ce6b3bcc0296c94f4bfe20", "fusion_lon": 0.0, "bike_id": "5b5c970a48ce6b3bcc0296c94f4bfe20", "is_reserved": 0, "type": "electric_scooter", "lat": 38.9168515, "fusion_lat": 0.0, "is_disabled": 0}, {"rental_uris": {"android": "https://dc.lft.to/lastmile_qr_scan", "ios": "https://dc.lft.to/lastmile_qr_scan"}, "lon": -77.00932133333333, "name": "accdc9865ca7f6c0b60754221a90d1b7", "fusion_lon": 0.0, "bike_id": "accdc9865ca7f6c0b60754221a90d1b7", "is_reserved": 0, "type": "electric_scooter", "lat": 38.89638633333333, "fusion_lat": 0.0, "is_disabled": 0}, {"rental_uris": {"android": "https://dc.lft.to/lastmile_qr_scan", "ios": "https://dc.lft.to/lastmile_qr_scan"}, "lon": -77.00068033333334, "name": "c761e3b43793d547063f0f0ee6bf977c", "fusion_lon": 0.0, "bike_id": "c761e3b43793d547063f0f0ee6bf977c", "is_reserved": 0, "type": "electric_scooter", "lat": 38.899911333333336, "fusion_lat": 0.0, "is_disabled": 0}, {"rental_uris": {"android": "https://dc.lft.to/lastmile_qr_scan", "ios": "https://dc.lft.to/lastmile_qr_scan"}, "lon": -76.99902283333333, "name": "94f7c15de933ea65c525a1363e00c466", "fusion_lon": 0.0, "bike_id": "94f7c15de933ea65c525a1363e00c466", "is_reserved": 0, "type": "electric_scooter", "lat": 38.92836783333333, "fusion_lat": 0.0, "is_disabled": 0}, {"rental_uris": {"android": "https://dc.lft.to/lastmile_qr_scan", "ios": "https://dc.lft.to/lastmile_qr_scan"}, "lon": -77.04013516666667, "name": "cf4e600290fc741af8222a0126d54726", "fusion_lon": 0.0, "bike_id": "cf4e600290fc741af8222a0126d54726", "is_reserved": 0, "type": "electric_scooter", "lat": 38.918010833333334, "fusion_lat": 0.0, "is_disabled": 0}, {"rental_uris": {"android": "https://dc.lft.to/lastmile_qr_scan", "ios": "https://dc.lft.to/lastmile_qr_scan"}, "lon": -77.0551615, "name": "7fc63af103773136055940ec0276392e", "fusion_lon": 0.0, "bike_id": "7fc63af103773136055940ec0276392e", "is_reserved": 0, "type": "electric_scooter", "lat": 38.91057216666667, "fusion_lat": 0.0, "is_disabled": 0}, {"rental_uris": {"android": "https://dc.lft.to/lastmile_qr_scan", "ios": "https://dc.lft.to/lastmile_qr_scan"}, "lon": -77.04229566666666, "name": "fb4ace1abae343db95bcdf0aa02756f0", "fusion_lon": 0.0, "bike_id": "fb4ace1abae343db95bcdf0aa02756f0", "is_reserved": 0, "type": "electric_bike", "lat": 39.03811183333333, "fusion_lat": 0.0, "is_disabled": 0}, {"rental_uris": {"android": "https://dc.lft.to/lastmile_qr_scan", "ios": "https://dc.lft.to/lastmile_qr_scan"}, "lon": -77.03223383333334, "name": "18272f4ec158cb0c1ca7da73106bc786", "fusion_lon": 0.0, "bike_id": "18272f4ec158cb0c1ca7da73106bc786", "is_reserved": 0, "type": "electric_scooter", "lat": 38.8973085, "fusion_lat": 0.0, "is_disabled": 0}, {"rental_uris": {"android": "https://dc.lft.to/lastmile_qr_scan", "ios": "https://dc.lft.to/lastmile_qr_scan"}, "lon": -77.02359116666666, "name": "c1009c6abe60c525ed14df505f508cc2", "fusion_lon": 0.0, "bike_id": "c1009c6abe60c525ed14df505f508cc2", "is_reserved": 0, "type": "electric_scooter", "lat": 38.9353475, "fusion_lat": 0.0, "is_disabled": 0}, {"rental_uris": {"android": "https://dc.lft.to/lastmile_qr_scan", "ios": "https://dc.lft.to/lastmile_qr_scan"}, "lon": -77.0337185, "name": "060ee21b2c503a3ef9ab6a0211a8d0e0", "fusion_lon": 0.0, "bike_id": "060ee21b2c503a3ef9ab6a0211a8d0e0", "is_reserved": 0, "type": "electric_scooter", "lat": 38.923626666666664, "fusion_lat": 0.0, "is_disabled": 0}, {"rental_uris": {"android": "https://dc.lft.to/lastmile_qr_scan", "ios": "https://dc.lft.to/lastmile_qr_scan"}, "lon": -77.02390833333334, "name": "f4a398b609ccc960bad64696aeb2e9a7", "fusion_lon": 0.0, "bike_id": "f4a398b609ccc960bad64696aeb2e9a7", "is_reserved": 0, "type": "electric_scooter", "lat": 38.9118995, "fusion_lat": 0.0, "is_disabled": 0}, {"rental_uris": {"android": "https://dc.lft.to/lastmile_qr_scan", "ios": "https://dc.lft.to/lastmile_qr_scan"}, "lon": -77.0340615, "name": "452df956d66de009268c0ea7d1ff6411", "fusion_lon": 0.0, "bike_id": "452df956d66de009268c0ea7d1ff6411", "is_reserved": 0, "type": "electric_scooter", "lat": 38.924446333333336, "fusion_lat": 0.0, "is_disabled": 0}, {"rental_uris": {"android": "https://dc.lft.to/lastmile_qr_scan", "ios": "https://dc.lft.to/lastmile_qr_scan"}, "lon": -77.0071265, "name": "4b8c04d0acee0d5b5e63b4a51b9b7932", "fusion_lon": 0.0, "bike_id": "4b8c04d0acee0d5b5e63b4a51b9b7932", "is_reserved": 0, "type": "electric_scooter", "lat": 38.8849115, "fusion_lat": 0.0, "is_disabled": 0}, {"rental_uris": {"android": "https://dc.lft.to/lastmile_qr_scan", "ios": "https://dc.lft.to/lastmile_qr_scan"}, "lon": -76.99773083333334, "name": "b183412ef37582049ec4e9ae05f0707a", "fusion_lon": 0.0, "bike_id": "b183412ef37582049ec4e9ae05f0707a", "is_reserved": 0, "type": "electric_scooter", "lat": 38.89419866666667, "fusion_lat": 0.0, "is_disabled": 0}, {"rental_uris": {"android": "https://dc.lft.to/lastmile_qr_scan", "ios": "https://dc.lft.to/lastmile_qr_scan"}, "lon": -76.97412933333334, "name": "8dc89c498597311034bade424fd74a5d", "fusion_lon": 0.0, "bike_id": "8dc89c498597311034bade424fd74a5d", "is_reserved": 0, "type": "electric_scooter", "lat": 38.90237033333333, "fusion_lat": 0.0, "is_disabled": 0}, {"rental_uris": {"android": "https://dc.lft.to/lastmile_qr_scan", "ios": "https://dc.lft.to/lastmile_qr_scan"}, "lon": -77.02219766666667, "name": "e2fc36f68da18c39160dfb935c2176dd", "fusion_lon": 0.0, "bike_id": "e2fc36f68da18c39160dfb935c2176dd", "is_reserved": 0, "type": "electric_scooter", "lat": 38.89192933333333, "fusion_lat": 0.0, "is_disabled": 0}, {"rental_uris": {"android": "https://dc.lft.to/lastmile_qr_scan", "ios": "https://dc.lft.to/lastmile_qr_scan"}, "lon": -77.02041033333333, "name": "adc5b356e530d7c2cb0c39840b47bd8e", "fusion_lon": 0.0, "bike_id": "adc5b356e530d7c2cb0c39840b47bd8e", "is_reserved": 0, "type": "electric_scooter", "lat": 38.9226005, "fusion_lat": 0.0, "is_disabled": 0}, {"rental_uris": {"android": "https://dc.lft.to/lastmile_qr_scan", "ios": "https://dc.lft.to/lastmile_qr_scan"}, "lon": -76.9929945, "name": "73c28f65a5f9126a915442a60aecb54a", "fusion_lon": 0.0, "bike_id": "73c28f65a5f9126a915442a60aecb54a", "is_reserved": 0, "type": "electric_bike", "lat": 38.907340166666664, "fusion_lat": 0.0, "is_disabled": 0}, {"rental_uris": {"android": "https://dc.lft.to/lastmile_qr_scan", "ios": "https://dc.lft.to/lastmile_qr_scan"}, "lon": -77.04370483333334, "name": "e17a15fe7ba7d6343030d59831532ff2", "fusion_lon": 0.0, "bike_id": "e17a15fe7ba7d6343030d59831532ff2", "is_reserved": 0, "type": "electric_scooter", "lat": 38.89223833333333, "fusion_lat": 0.0, "is_disabled": 0}, {"rental_uris": {"android": "https://dc.lft.to/lastmile_qr_scan", "ios": "https://dc.lft.to/lastmile_qr_scan"}, "lon": -77.03400783333333, "name": "37e2beef2a4edf7d357f6e074ff4a71f", "fusion_lon": 0.0, "bike_id": "37e2beef2a4edf7d357f6e074ff4a71f", "is_reserved": 0, "type": "electric_scooter", "lat": 38.9243465, "fusion_lat": 0.0, "is_disabled": 0}, {"rental_uris": {"android": "https://dc.lft.to/lastmile_qr_scan", "ios": "https://dc.lft.to/lastmile_qr_scan"}, "lon": -77.0162245, "name": "814e75cbef052724034400266a7bfe3d", "fusion_lon": 0.0, "bike_id": "814e75cbef052724034400266a7bfe3d", "is_reserved": 0, "type": "electric_scooter", "lat": 38.899773333333336, "fusion_lat": 0.0, "is_disabled": 0}, {"rental_uris": {"android": "https://dc.lft.to/lastmile_qr_scan", "ios": "https://dc.lft.to/lastmile_qr_scan"}, "lon": -77.026729, "name": "2df379ff602306c5abed62a0bad05b4d", "fusion_lon": 0.0, "bike_id": "2df379ff602306c5abed62a0bad05b4d", "is_reserved": 0, "type": "electric_scooter", "lat": 38.973705, "fusion_lat": 0.0, "is_disabled": 0}, {"rental_uris": {"android": "https://dc.lft.to/lastmile_qr_scan", "ios": "https://dc.lft.to/lastmile_qr_scan"}, "lon": -77.0375425, "name": "34dc2ba6b7e384066162790e32950ea7", "fusion_lon": 0.0, "bike_id": "34dc2ba6b7e384066162790e32950ea7", "is_reserved": 0, "type": "electric_scooter", "lat": 38.922119, "fusion_lat": 0.0, "is_disabled": 0}, {"rental_uris": {"android": "https://dc.lft.to/lastmile_qr_scan", "ios": "https://dc.lft.to/lastmile_qr_scan"}, "lon": -77.01752383333333, "name": "e049fba0d7bffeb7d9f1964985a8f62c", "fusion_lon": 0.0, "bike_id": "e049fba0d7bffeb7d9f1964985a8f62c", "is_reserved": 0, "type": "electric_scooter", "lat": 38.87532783333333, "fusion_lat": 0.0, "is_disabled": 0}, {"rental_uris": {"android": "https://dc.lft.to/lastmile_qr_scan", "ios": "https://dc.lft.to/lastmile_qr_scan"}, "lon": -76.93967083333334, "name": "39440ab40ee0539816050b43df00922f", "fusion_lon": 0.0, "bike_id": "39440ab40ee0539816050b43df00922f", "is_reserved": 0, "type": "electric_scooter", "lat": 38.893091, "fusion_lat": 0.0, "is_disabled": 0}, {"rental_uris": {"android": "https://dc.lft.to/lastmile_qr_scan", "ios": "https://dc.lft.to/lastmile_qr_scan"}, "lon": -77.037999, "name": "34c31e4d38b8a28ed2c3d824b12de23c", "fusion_lon": 0.0, "bike_id": "34c31e4d38b8a28ed2c3d824b12de23c", "is_reserved": 0, "type": "electric_scooter", "lat": 38.902328833333335, "fusion_lat": 0.0, "is_disabled": 0}, {"rental_uris": {"android": "https://dc.lft.to/lastmile_qr_scan", "ios": "https://dc.lft.to/lastmile_qr_scan"}, "lon": -76.9861185, "name": "2463772e3c38707868e5f80a212de453", "fusion_lon": 0.0, "bike_id": "2463772e3c38707868e5f80a212de453", "is_reserved": 0, "type": "electric_scooter", "lat": 38.903466333333334, "fusion_lat": 0.0, "is_disabled": 0}, {"rental_uris": {"android": "https://dc.lft.to/lastmile_qr_scan", "ios": "https://dc.lft.to/lastmile_qr_scan"}, "lon": -77.01680616666667, "name": "8f36c2f8c3d5689ca8a9d76d54573018", "fusion_lon": 0.0, "bike_id": "8f36c2f8c3d5689ca8a9d76d54573018", "is_reserved": 0, "type": "electric_scooter", "lat": 38.9025095, "fusion_lat": 0.0, "is_disabled": 0}, {"rental_uris": {"android": "https://dc.lft.to/lastmile_qr_scan", "ios": "https://dc.lft.to/lastmile_qr_scan"}, "lon": -77.02487966666666, "name": "e407825c0c253803bade48fcd6c6c273", "fusion_lon": 0.0, "bike_id": "e407825c0c253803bade48fcd6c6c273", "is_reserved": 0, "type": "electric_scooter", "lat": 38.90090266666667, "fusion_lat": 0.0, "is_disabled": 0}, {"rental_uris": {"android": "https://dc.lft.to/lastmile_qr_scan", "ios": "https://dc.lft.to/lastmile_qr_scan"}, "lon": -77.03440733333333, "name": "d2538699eac45132d9111cafc2b4fb2c", "fusion_lon": 0.0, "bike_id": "d2538699eac45132d9111cafc2b4fb2c", "is_reserved": 0, "type": "electric_scooter", "lat": 38.928758333333334, "fusion_lat": 0.0, "is_disabled": 0}, {"rental_uris": {"android": "https://dc.lft.to/lastmile_qr_scan", "ios": "https://dc.lft.to/lastmile_qr_scan"}, "lon": -77.02691033333333, "name": "1f7ec5d564ceccd880a2d127aa65517b", "fusion_lon": 0.0, "bike_id": "1f7ec5d564ceccd880a2d127aa65517b", "is_reserved": 0, "type": "electric_scooter", "lat": 38.89759333333333, "fusion_lat": 0.0, "is_disabled": 0}, {"rental_uris": {"android": "https://dc.lft.to/lastmile_qr_scan", "ios": "https://dc.lft.to/lastmile_qr_scan"}, "lon": -76.97713833333333, "name": "d9e61938869d2772e66fa17e29d0be60", "fusion_lon": 0.0, "bike_id": "d9e61938869d2772e66fa17e29d0be60", "is_reserved": 0, "type": "electric_scooter", "lat": 38.8879525, "fusion_lat": 0.0, "is_disabled": 0}, {"rental_uris": {"android": "https://dc.lft.to/lastmile_qr_scan", "ios": "https://dc.lft.to/lastmile_qr_scan"}, "lon": -77.0419715, "name": "f51f646b8cd9e98e8984cb89ddea6ae6", "fusion_lon": 0.0, "bike_id": "f51f646b8cd9e98e8984cb89ddea6ae6", "is_reserved": 0, "type": "electric_scooter", "lat": 38.90478183333333, "fusion_lat": 0.0, "is_disabled": 0}, {"rental_uris": {"android": "https://dc.lft.to/lastmile_qr_scan", "ios": "https://dc.lft.to/lastmile_qr_scan"}, "lon": -77.05041633333333, "name": "5a95853f7a9273cc7657f153759cd32b", "fusion_lon": 0.0, "bike_id": "5a95853f7a9273cc7657f153759cd32b", "is_reserved": 0, "type": "electric_scooter", "lat": 38.90623316666667, "fusion_lat": 0.0, "is_disabled": 0}, {"rental_uris": {"android": "https://dc.lft.to/lastmile_qr_scan", "ios": "https://dc.lft.to/lastmile_qr_scan"}, "lon": -77.0155735, "name": "e8c7c66b37ad88d39d49899b90c0d59e", "fusion_lon": 0.0, "bike_id": "e8c7c66b37ad88d39d49899b90c0d59e", "is_reserved": 0, "type": "electric_scooter", "lat": 38.873021666666666, "fusion_lat": 0.0, "is_disabled": 0}, {"rental_uris": {"android": "https://dc.lft.to/lastmile_qr_scan", "ios": "https://dc.lft.to/lastmile_qr_scan"}, "lon": -77.111822, "name": "fa00a91f3583151cedbae184717df36a", "fusion_lon": 0.0, "bike_id": "fa00a91f3583151cedbae184717df36a", "is_reserved": 0, "type": "electric_bike", "lat": 38.88280616666667, "fusion_lat": 0.0, "is_disabled": 0}, {"rental_uris": {"android": "https://dc.lft.to/lastmile_qr_scan", "ios": "https://dc.lft.to/lastmile_qr_scan"}, "lon": -77.01949683333333, "name": "8a382fac98ef8159b92ba4ab5b3930e4", "fusion_lon": 0.0, "bike_id": "8a382fac98ef8159b92ba4ab5b3930e4", "is_reserved": 0, "type": "electric_scooter", "lat": 38.92416383333333, "fusion_lat": 0.0, "is_disabled": 0}, {"rental_uris": {"android": "https://dc.lft.to/lastmile_qr_scan", "ios": "https://dc.lft.to/lastmile_qr_scan"}, "lon": -77.0161815, "name": "c24afe49a79d20a59c6a104724b13ad3", "fusion_lon": 0.0, "bike_id": "c24afe49a79d20a59c6a104724b13ad3", "is_reserved": 0, "type": "electric_scooter", "lat": 38.905978166666664, "fusion_lat": 0.0, "is_disabled": 0}, {"rental_uris": {"android": "https://dc.lft.to/lastmile_qr_scan", "ios": "https://dc.lft.to/lastmile_qr_scan"}, "lon": -77.02965733333333, "name": "06dd8ddf6a5f762f8f85cdf1f578b5c7", "fusion_lon": 0.0, "bike_id": "06dd8ddf6a5f762f8f85cdf1f578b5c7", "is_reserved": 0, "type": "electric_scooter", "lat": 38.92687183333334, "fusion_lat": 0.0, "is_disabled": 0}, {"rental_uris": {"android": "https://dc.lft.to/lastmile_qr_scan", "ios": "https://dc.lft.to/lastmile_qr_scan"}, "lon": -77.01905083333334, "name": "14485c003c7e7f91fac954b8879783c9", "fusion_lon": 0.0, "bike_id": "14485c003c7e7f91fac954b8879783c9", "is_reserved": 0, "type": "electric_scooter", "lat": 38.923381, "fusion_lat": 0.0, "is_disabled": 0}, {"rental_uris": {"android": "https://dc.lft.to/lastmile_qr_scan", "ios": "https://dc.lft.to/lastmile_qr_scan"}, "lon": -77.03345133333333, "name": "11e9fbf57165a85915a06c75f26e4890", "fusion_lon": 0.0, "bike_id": "11e9fbf57165a85915a06c75f26e4890", "is_reserved": 0, "type": "electric_scooter", "lat": 38.9024365, "fusion_lat": 0.0, "is_disabled": 0}, {"rental_uris": {"android": "https://dc.lft.to/lastmile_qr_scan", "ios": "https://dc.lft.to/lastmile_qr_scan"}, "lon": -77.07458366666667, "name": "703c029cc069630707fc5d45d090169c", "fusion_lon": 0.0, "bike_id": "703c029cc069630707fc5d45d090169c", "is_reserved": 0, "type": "electric_scooter", "lat": 38.93551133333333, "fusion_lat": 0.0, "is_disabled": 0}, {"rental_uris": {"android": "https://dc.lft.to/lastmile_qr_scan", "ios": "https://dc.lft.to/lastmile_qr_scan"}, "lon": -77.03464616666666, "name": "510f64bdeb2b1dc5aa4d360975e926ea", "fusion_lon": 0.0, "bike_id": "510f64bdeb2b1dc5aa4d360975e926ea", "is_reserved": 0, "type": "electric_scooter", "lat": 38.92058816666667, "fusion_lat": 0.0, "is_disabled": 0}, {"rental_uris": {"android": "https://dc.lft.to/lastmile_qr_scan", "ios": "https://dc.lft.to/lastmile_qr_scan"}, "lon": -77.03920033333333, "name": "8b3983e4cffb03cadf3bce3b5c358faf", "fusion_lon": 0.0, "bike_id": "8b3983e4cffb03cadf3bce3b5c358faf", "is_reserved": 0, "type": "electric_scooter", "lat": 38.90362533333333, "fusion_lat": 0.0, "is_disabled": 0}, {"rental_uris": {"android": "https://dc.lft.to/lastmile_qr_scan", "ios": "https://dc.lft.to/lastmile_qr_scan"}, "lon": -77.01405283333334, "name": "e534a93ad67534f852d25c6c3ad9a5c5", "fusion_lon": 0.0, "bike_id": "e534a93ad67534f852d25c6c3ad9a5c5", "is_reserved": 0, "type": "electric_scooter", "lat": 38.928309166666665, "fusion_lat": 0.0, "is_disabled": 0}, {"rental_uris": {"android": "https://dc.lft.to/lastmile_qr_scan", "ios": "https://dc.lft.to/lastmile_qr_scan"}, "lon": -77.0231205, "name": "bc794ab86c45adfb157cb07d3ef8dcd0", "fusion_lon": 0.0, "bike_id": "bc794ab86c45adfb157cb07d3ef8dcd0", "is_reserved": 0, "type": "electric_scooter", "lat": 38.91765383333333, "fusion_lat": 0.0, "is_disabled": 0}, {"rental_uris": {"android": "https://dc.lft.to/lastmile_qr_scan", "ios": "https://dc.lft.to/lastmile_qr_scan"}, "lon": -77.0325505, "name": "13ef62e5037e2ec0ae95fa224ed44d2f", "fusion_lon": 0.0, "bike_id": "13ef62e5037e2ec0ae95fa224ed44d2f", "is_reserved": 0, "type": "electric_bike", "lat": 38.887808, "fusion_lat": 0.0, "is_disabled": 0}, {"rental_uris": {"android": "https://dc.lft.to/lastmile_qr_scan", "ios": "https://dc.lft.to/lastmile_qr_scan"}, "lon": -77.0146, "name": "f2b7235688d5f314c206b4c97714d713", "fusion_lon": 0.0, "bike_id": "f2b7235688d5f314c206b4c97714d713", "is_reserved": 0, "type": "electric_scooter", "lat": 38.910441666666664, "fusion_lat": 0.0, "is_disabled": 0}, {"rental_uris": {"android": "https://dc.lft.to/lastmile_qr_scan", "ios": "https://dc.lft.to/lastmile_qr_scan"}, "lon": -77.035387, "name": "2288bd3770bfa3ee125759d808b0c452", "fusion_lon": 0.0, "bike_id": "2288bd3770bfa3ee125759d808b0c452", "is_reserved": 0, "type": "electric_scooter", "lat": 38.907544, "fusion_lat": 0.0, "is_disabled": 0}, {"rental_uris": {"android": "https://dc.lft.to/lastmile_qr_scan", "ios": "https://dc.lft.to/lastmile_qr_scan"}, "lon": -77.02181666666667, "name": "b95732ac4818f69719a8bfb1456c32f3", "fusion_lon": 0.0, "bike_id": "b95732ac4818f69719a8bfb1456c32f3", "is_reserved": 0, "type": "electric_scooter", "lat": 38.90363283333333, "fusion_lat": 0.0, "is_disabled": 0}, {"rental_uris": {"android": "https://dc.lft.to/lastmile_qr_scan", "ios": "https://dc.lft.to/lastmile_qr_scan"}, "lon": -76.97893833333333, "name": "87d3706ca06c022e6f0991c7f8810269", "fusion_lon": 0.0, "bike_id": "87d3706ca06c022e6f0991c7f8810269", "is_reserved": 0, "type": "electric_bike", "lat": 38.898962, "fusion_lat": 0.0, "is_disabled": 0}, {"rental_uris": {"android": "https://dc.lft.to/lastmile_qr_scan", "ios": "https://dc.lft.to/lastmile_qr_scan"}, "lon": -76.98705983333333, "name": "0fc05c6510314728277914902d2d1385", "fusion_lon": 0.0, "bike_id": "0fc05c6510314728277914902d2d1385", "is_reserved": 0, "type": "electric_scooter", "lat": 38.86345083333333, "fusion_lat": 0.0, "is_disabled": 0}, {"rental_uris": {"android": "https://dc.lft.to/lastmile_qr_scan", "ios": "https://dc.lft.to/lastmile_qr_scan"}, "lon": -76.96483366666666, "name": "2f1c277c54346acfc94c4a223ee80802", "fusion_lon": 0.0, "bike_id": "2f1c277c54346acfc94c4a223ee80802", "is_reserved": 0, "type": "electric_bike", "lat": 38.91871866666666, "fusion_lat": 0.0, "is_disabled": 0}, {"rental_uris": {"android": "https://dc.lft.to/lastmile_qr_scan", "ios": "https://dc.lft.to/lastmile_qr_scan"}, "lon": -77.04503933333334, "name": "b2e27ec4b732d37fec95ed7644c838e2", "fusion_lon": 0.0, "bike_id": "b2e27ec4b732d37fec95ed7644c838e2", "is_reserved": 0, "type": "electric_scooter", "lat": 38.89217683333333, "fusion_lat": 0.0, "is_disabled": 0}, {"rental_uris": {"android": "https://dc.lft.to/lastmile_qr_scan", "ios": "https://dc.lft.to/lastmile_qr_scan"}, "lon": -77.02461966666667, "name": "442d63d2fabf94128c6f6301e4dfdba6", "fusion_lon": 0.0, "bike_id": "442d63d2fabf94128c6f6301e4dfdba6", "is_reserved": 0, "type": "electric_scooter", "lat": 38.907694666666664, "fusion_lat": 0.0, "is_disabled": 0}, {"rental_uris": {"android": "https://dc.lft.to/lastmile_qr_scan", "ios": "https://dc.lft.to/lastmile_qr_scan"}, "lon": -76.98004883333333, "name": "22cce6dec2622f913522f6fdfe7a42b2", "fusion_lon": 0.0, "bike_id": "22cce6dec2622f913522f6fdfe7a42b2", "is_reserved": 0, "type": "electric_scooter", "lat": 38.898831666666666, "fusion_lat": 0.0, "is_disabled": 0}, {"rental_uris": {"android": "https://dc.lft.to/lastmile_qr_scan", "ios": "https://dc.lft.to/lastmile_qr_scan"}, "lon": -77.02808433333334, "name": "d6309c0bfa99606b6c0dc8fd11c1352a", "fusion_lon": 0.0, "bike_id": "d6309c0bfa99606b6c0dc8fd11c1352a", "is_reserved": 0, "type": "electric_scooter", "lat": 38.9171815, "fusion_lat": 0.0, "is_disabled": 0}, {"rental_uris": {"android": "https://dc.lft.to/lastmile_qr_scan", "ios": "https://dc.lft.to/lastmile_qr_scan"}, "lon": -77.02178633333334, "name": "bc85a844a45cc83b2c74ce3d8ec6f3dd", "fusion_lon": 0.0, "bike_id": "bc85a844a45cc83b2c74ce3d8ec6f3dd", "is_reserved": 0, "type": "electric_scooter", "lat": 38.885121, "fusion_lat": 0.0, "is_disabled": 0}, {"rental_uris": {"android": "https://dc.lft.to/lastmile_qr_scan", "ios": "https://dc.lft.to/lastmile_qr_scan"}, "lon": -77.072673, "name": "8a17ee2007c5aa59578501946520296d", "fusion_lon": 0.0, "bike_id": "8a17ee2007c5aa59578501946520296d", "is_reserved": 0, "type": "electric_scooter", "lat": 38.919228333333336, "fusion_lat": 0.0, "is_disabled": 0}, {"rental_uris": {"android": "https://dc.lft.to/lastmile_qr_scan", "ios": "https://dc.lft.to/lastmile_qr_scan"}, "lon": -77.02098616666666, "name": "aa2dc3d3c3edd7e7550f7dc8bef862f6", "fusion_lon": 0.0, "bike_id": "aa2dc3d3c3edd7e7550f7dc8bef862f6", "is_reserved": 0, "type": "electric_scooter", "lat": 38.921538, "fusion_lat": 0.0, "is_disabled": 0}, {"rental_uris": {"android": "https://dc.lft.to/lastmile_qr_scan", "ios": "https://dc.lft.to/lastmile_qr_scan"}, "lon": -76.997718, "name": "b81120f832dad01136e68f88fc17bb9b", "fusion_lon": 0.0, "bike_id": "b81120f832dad01136e68f88fc17bb9b", "is_reserved": 0, "type": "electric_scooter", "lat": 38.92283183333333, "fusion_lat": 0.0, "is_disabled": 0}, {"rental_uris": {"android": "https://dc.lft.to/lastmile_qr_scan", "ios": "https://dc.lft.to/lastmile_qr_scan"}, "lon": -77.01697433333334, "name": "57ae8b114bb8998de6871009e811313d", "fusion_lon": 0.0, "bike_id": "57ae8b114bb8998de6871009e811313d", "is_reserved": 0, "type": "electric_scooter", "lat": 38.97494616666667, "fusion_lat": 0.0, "is_disabled": 0}, {"rental_uris": {"android": "https://dc.lft.to/lastmile_qr_scan", "ios": "https://dc.lft.to/lastmile_qr_scan"}, "lon": -77.0139415, "name": "4071bbf6c52fc2eb6088fc991f97317f", "fusion_lon": 0.0, "bike_id": "4071bbf6c52fc2eb6088fc991f97317f", "is_reserved": 0, "type": "electric_scooter", "lat": 38.92799733333333, "fusion_lat": 0.0, "is_disabled": 0}, {"rental_uris": {"android": "https://dc.lft.to/lastmile_qr_scan", "ios": "https://dc.lft.to/lastmile_qr_scan"}, "lon": -77.01504833333334, "name": "35fecd9746474fd80a49b4ad32097bdf", "fusion_lon": 0.0, "bike_id": "35fecd9746474fd80a49b4ad32097bdf", "is_reserved": 0, "type": "electric_scooter", "lat": 38.913221, "fusion_lat": 0.0, "is_disabled": 0}, {"rental_uris": {"android": "https://dc.lft.to/lastmile_qr_scan", "ios": "https://dc.lft.to/lastmile_qr_scan"}, "lon": -77.03835066666667, "name": "386daf27b78a9b9c86ab967efdd57584", "fusion_lon": 0.0, "bike_id": "386daf27b78a9b9c86ab967efdd57584", "is_reserved": 0, "type": "electric_scooter", "lat": 38.911708, "fusion_lat": 0.0, "is_disabled": 0}, {"rental_uris": {"android": "https://dc.lft.to/lastmile_qr_scan", "ios": "https://dc.lft.to/lastmile_qr_scan"}, "lon": -77.021885, "name": "b588b2fb38bb9de0302455a6313d399e", "fusion_lon": 0.0, "bike_id": "b588b2fb38bb9de0302455a6313d399e", "is_reserved": 0, "type": "electric_scooter", "lat": 38.9018255, "fusion_lat": 0.0, "is_disabled": 0}, {"rental_uris": {"android": "https://dc.lft.to/lastmile_qr_scan", "ios": "https://dc.lft.to/lastmile_qr_scan"}, "lon": -77.031247, "name": "0c6ba36edbb8b855d5fe963ae19959f7", "fusion_lon": 0.0, "bike_id": "0c6ba36edbb8b855d5fe963ae19959f7", "is_reserved": 0, "type": "electric_scooter", "lat": 38.9200745, "fusion_lat": 0.0, "is_disabled": 0}, {"rental_uris": {"android": "https://dc.lft.to/lastmile_qr_scan", "ios": "https://dc.lft.to/lastmile_qr_scan"}, "lon": -76.99852316666667, "name": "383101554c34b1b0dc2c875dc0fcb1b1", "fusion_lon": 0.0, "bike_id": "383101554c34b1b0dc2c875dc0fcb1b1", "is_reserved": 0, "type": "electric_scooter", "lat": 38.900363, "fusion_lat": 0.0, "is_disabled": 0}, {"rental_uris": {"android": "https://dc.lft.to/lastmile_qr_scan", "ios": "https://dc.lft.to/lastmile_qr_scan"}, "lon": -76.977094, "name": "c24f9b517f07466b7b7da242f6ebe20a", "fusion_lon": 0.0, "bike_id": "c24f9b517f07466b7b7da242f6ebe20a", "is_reserved": 0, "type": "electric_scooter", "lat": 38.89929216666667, "fusion_lat": 0.0, "is_disabled": 0}, {"rental_uris": {"android": "https://dc.lft.to/lastmile_qr_scan", "ios": "https://dc.lft.to/lastmile_qr_scan"}, "lon": -77.03513333333333, "name": "1b8064873f46934c1326607af777f743", "fusion_lon": 0.0, "bike_id": "1b8064873f46934c1326607af777f743", "is_reserved": 0, "type": "electric_scooter", "lat": 38.918606833333335, "fusion_lat": 0.0, "is_disabled": 0}, {"rental_uris": {"android": "https://dc.lft.to/lastmile_qr_scan", "ios": "https://dc.lft.to/lastmile_qr_scan"}, "lon": -77.037854, "name": "8b19a4e9f78809a1a9f49fa1daaa76df", "fusion_lon": 0.0, "bike_id": "8b19a4e9f78809a1a9f49fa1daaa76df", "is_reserved": 0, "type": "electric_bike", "lat": 38.99515916666667, "fusion_lat": 0.0, "is_disabled": 0}, {"rental_uris": {"android": "https://dc.lft.to/lastmile_qr_scan", "ios": "https://dc.lft.to/lastmile_qr_scan"}, "lon": -77.03906933333333, "name": "34026071945d9f9127e3bd8a71f7995d", "fusion_lon": 0.0, "bike_id": "34026071945d9f9127e3bd8a71f7995d", "is_reserved": 0, "type": "electric_scooter", "lat": 38.90639983333333, "fusion_lat": 0.0, "is_disabled": 0}, {"rental_uris": {"android": "https://dc.lft.to/lastmile_qr_scan", "ios": "https://dc.lft.to/lastmile_qr_scan"}, "lon": -77.02164433333333, "name": "3cf30dd63f4420f8a495519c717263f6", "fusion_lon": 0.0, "bike_id": "3cf30dd63f4420f8a495519c717263f6", "is_reserved": 0, "type": "electric_scooter", "lat": 38.91417933333334, "fusion_lat": 0.0, "is_disabled": 0}, {"rental_uris": {"android": "https://dc.lft.to/lastmile_qr_scan", "ios": "https://dc.lft.to/lastmile_qr_scan"}, "lon": -76.99062183333334, "name": "5ae900a6b4c978e46b373959b8b7499d", "fusion_lon": 0.0, "bike_id": "5ae900a6b4c978e46b373959b8b7499d", "is_reserved": 0, "type": "electric_scooter", "lat": 38.86370816666667, "fusion_lat": 0.0, "is_disabled": 0}, {"rental_uris": {"android": "https://dc.lft.to/lastmile_qr_scan", "ios": "https://dc.lft.to/lastmile_qr_scan"}, "lon": -77.019062, "name": "c2c771634c76d0a58a8ab4320fd4e94e", "fusion_lon": 0.0, "bike_id": "c2c771634c76d0a58a8ab4320fd4e94e", "is_reserved": 0, "type": "electric_bike", "lat": 38.898196166666665, "fusion_lat": 0.0, "is_disabled": 0}, {"rental_uris": {"android": "https://dc.lft.to/lastmile_qr_scan", "ios": "https://dc.lft.to/lastmile_qr_scan"}, "lon": -76.98402833333333, "name": "47a10a03f3ade78788f5adebd75a561c", "fusion_lon": 0.0, "bike_id": "47a10a03f3ade78788f5adebd75a561c", "is_reserved": 0, "type": "electric_scooter", "lat": 38.879926833333336, "fusion_lat": 0.0, "is_disabled": 0}, {"rental_uris": {"android": "https://dc.lft.to/lastmile_qr_scan", "ios": "https://dc.lft.to/lastmile_qr_scan"}, "lon": -76.97873933333334, "name": "cd18a650f56daa85d9eede81d7d2fab8", "fusion_lon": 0.0, "bike_id": "cd18a650f56daa85d9eede81d7d2fab8", "is_reserved": 0, "type": "electric_scooter", "lat": 38.90186466666667, "fusion_lat": 0.0, "is_disabled": 0}, {"rental_uris": {"android": "https://dc.lft.to/lastmile_qr_scan", "ios": "https://dc.lft.to/lastmile_qr_scan"}, "lon": -77.02479933333333, "name": "f414c5f68a588a20d5f18b5518cae1bc", "fusion_lon": 0.0, "bike_id": "f414c5f68a588a20d5f18b5518cae1bc", "is_reserved": 0, "type": "electric_scooter", "lat": 38.9017225, "fusion_lat": 0.0, "is_disabled": 0}, {"rental_uris": {"android": "https://dc.lft.to/lastmile_qr_scan", "ios": "https://dc.lft.to/lastmile_qr_scan"}, "lon": -76.99077716666666, "name": "396013251534a22eb8ef5816faa34aa5", "fusion_lon": 0.0, "bike_id": "396013251534a22eb8ef5816faa34aa5", "is_reserved": 0, "type": "electric_bike", "lat": 38.9426295, "fusion_lat": 0.0, "is_disabled": 0}, {"rental_uris": {"android": "https://dc.lft.to/lastmile_qr_scan", "ios": "https://dc.lft.to/lastmile_qr_scan"}, "lon": -77.076259, "name": "09c111bd6a50d4df2ae2e2f874a1fd56", "fusion_lon": 0.0, "bike_id": "09c111bd6a50d4df2ae2e2f874a1fd56", "is_reserved": 0, "type": "electric_bike", "lat": 38.90608483333333, "fusion_lat": 0.0, "is_disabled": 0}, {"rental_uris": {"android": "https://dc.lft.to/lastmile_qr_scan", "ios": "https://dc.lft.to/lastmile_qr_scan"}, "lon": -77.0462285, "name": "c29246cbc837c1874f28aad5b796c324", "fusion_lon": 0.0, "bike_id": "c29246cbc837c1874f28aad5b796c324", "is_reserved": 0, "type": "electric_scooter", "lat": 38.89606416666667, "fusion_lat": 0.0, "is_disabled": 0}, {"rental_uris": {"android": "https://dc.lft.to/lastmile_qr_scan", "ios": "https://dc.lft.to/lastmile_qr_scan"}, "lon": -76.98827766666666, "name": "dde3fe2c1fea341ab224a03da5afb6ca", "fusion_lon": 0.0, "bike_id": "dde3fe2c1fea341ab224a03da5afb6ca", "is_reserved": 0, "type": "electric_scooter", "lat": 38.900477, "fusion_lat": 0.0, "is_disabled": 0}, {"rental_uris": {"android": "https://dc.lft.to/lastmile_qr_scan", "ios": "https://dc.lft.to/lastmile_qr_scan"}, "lon": -76.94573683333333, "name": "16d4cb7cb4fe58ad45387fe2174b0bda", "fusion_lon": 0.0, "bike_id": "16d4cb7cb4fe58ad45387fe2174b0bda", "is_reserved": 0, "type": "electric_bike", "lat": 38.8661935, "fusion_lat": 0.0, "is_disabled": 0}, {"rental_uris": {"android": "https://dc.lft.to/lastmile_qr_scan", "ios": "https://dc.lft.to/lastmile_qr_scan"}, "lon": -77.0035175, "name": "56ff8f173faeea77fbea670d139bf949", "fusion_lon": 0.0, "bike_id": "56ff8f173faeea77fbea670d139bf949", "is_reserved": 0, "type": "electric_scooter", "lat": 38.88738466666667, "fusion_lat": 0.0, "is_disabled": 0}, {"rental_uris": {"android": "https://dc.lft.to/lastmile_qr_scan", "ios": "https://dc.lft.to/lastmile_qr_scan"}, "lon": -76.99710966666666, "name": "9e977c37d926ef5261b0a2eaff301278", "fusion_lon": 0.0, "bike_id": "9e977c37d926ef5261b0a2eaff301278", "is_reserved": 0, "type": "electric_scooter", "lat": 38.894693, "fusion_lat": 0.0, "is_disabled": 0}, {"rental_uris": {"android": "https://dc.lft.to/lastmile_qr_scan", "ios": "https://dc.lft.to/lastmile_qr_scan"}, "lon": -77.02429166666667, "name": "2675bd5f94029c80aaa9b9da47118ecc", "fusion_lon": 0.0, "bike_id": "2675bd5f94029c80aaa9b9da47118ecc", "is_reserved": 0, "type": "electric_scooter", "lat": 38.921485, "fusion_lat": 0.0, "is_disabled": 0}, {"rental_uris": {"android": "https://dc.lft.to/lastmile_qr_scan", "ios": "https://dc.lft.to/lastmile_qr_scan"}, "lon": -77.03358283333333, "name": "74965053015911531483753d79542a25", "fusion_lon": 0.0, "bike_id": "74965053015911531483753d79542a25", "is_reserved": 0, "type": "electric_scooter", "lat": 38.89728216666666, "fusion_lat": 0.0, "is_disabled": 0}, {"rental_uris": {"android": "https://dc.lft.to/lastmile_qr_scan", "ios": "https://dc.lft.to/lastmile_qr_scan"}, "lon": -77.03216066666667, "name": "c3a50afb88cb7276631bfb988ae2299c", "fusion_lon": 0.0, "bike_id": "c3a50afb88cb7276631bfb988ae2299c", "is_reserved": 0, "type": "electric_scooter", "lat": 38.91692616666667, "fusion_lat": 0.0, "is_disabled": 0}, {"rental_uris": {"android": "https://dc.lft.to/lastmile_qr_scan", "ios": "https://dc.lft.to/lastmile_qr_scan"}, "lon": -77.02142683333334, "name": "209fb5166a80c7c7b26c5e98d2e52189", "fusion_lon": 0.0, "bike_id": "209fb5166a80c7c7b26c5e98d2e52189", "is_reserved": 0, "type": "electric_scooter", "lat": 38.89403183333334, "fusion_lat": 0.0, "is_disabled": 0}, {"rental_uris": {"android": "https://dc.lft.to/lastmile_qr_scan", "ios": "https://dc.lft.to/lastmile_qr_scan"}, "lon": -77.00024583333334, "name": "6bfc12597bf6810a2df4fda8897d7faa", "fusion_lon": 0.0, "bike_id": "6bfc12597bf6810a2df4fda8897d7faa", "is_reserved": 0, "type": "electric_scooter", "lat": 38.9591155, "fusion_lat": 0.0, "is_disabled": 0}, {"rental_uris": {"android": "https://dc.lft.to/lastmile_qr_scan", "ios": "https://dc.lft.to/lastmile_qr_scan"}, "lon": -77.03835533333333, "name": "b97511544e941aa6ca7ef2db6b81e8df", "fusion_lon": 0.0, "bike_id": "b97511544e941aa6ca7ef2db6b81e8df", "is_reserved": 0, "type": "electric_scooter", "lat": 38.911892, "fusion_lat": 0.0, "is_disabled": 0}, {"rental_uris": {"android": "https://dc.lft.to/lastmile_qr_scan", "ios": "https://dc.lft.to/lastmile_qr_scan"}, "lon": -77.03152866666667, "name": "4c5d3c2b0186dedcb430908a7ee1ffd9", "fusion_lon": 0.0, "bike_id": "4c5d3c2b0186dedcb430908a7ee1ffd9", "is_reserved": 0, "type": "electric_scooter", "lat": 38.91812383333333, "fusion_lat": 0.0, "is_disabled": 0}, {"rental_uris": {"android": "https://dc.lft.to/lastmile_qr_scan", "ios": "https://dc.lft.to/lastmile_qr_scan"}, "lon": -76.99817416666667, "name": "fa1fa5ee52fedd1597ca737acc76c7ae", "fusion_lon": 0.0, "bike_id": "fa1fa5ee52fedd1597ca737acc76c7ae", "is_reserved": 0, "type": "electric_scooter", "lat": 38.929185833333335, "fusion_lat": 0.0, "is_disabled": 0}, {"rental_uris": {"android": "https://dc.lft.to/lastmile_qr_scan", "ios": "https://dc.lft.to/lastmile_qr_scan"}, "lon": -77.02697366666666, "name": "dcd780e7a2d583a0399bba8c11a6306a", "fusion_lon": 0.0, "bike_id": "dcd780e7a2d583a0399bba8c11a6306a", "is_reserved": 0, "type": "electric_scooter", "lat": 38.90699083333333, "fusion_lat": 0.0, "is_disabled": 0}, {"rental_uris": {"android": "https://dc.lft.to/lastmile_qr_scan", "ios": "https://dc.lft.to/lastmile_qr_scan"}, "lon": -77.032184, "name": "7f0ef85a9c3c11d148a58523a749cecb", "fusion_lon": 0.0, "bike_id": "7f0ef85a9c3c11d148a58523a749cecb", "is_reserved": 0, "type": "electric_scooter", "lat": 38.91420166666666, "fusion_lat": 0.0, "is_disabled": 0}, {"rental_uris": {"android": "https://dc.lft.to/lastmile_qr_scan", "ios": "https://dc.lft.to/lastmile_qr_scan"}, "lon": -77.04214616666667, "name": "f89c22655563064dfe3dbe221a8063a9", "fusion_lon": 0.0, "bike_id": "f89c22655563064dfe3dbe221a8063a9", "is_reserved": 0, "type": "electric_scooter", "lat": 38.919228833333335, "fusion_lat": 0.0, "is_disabled": 0}, {"rental_uris": {"android": "https://dc.lft.to/lastmile_qr_scan", "ios": "https://dc.lft.to/lastmile_qr_scan"}, "lon": -76.99744533333333, "name": "1589d29d16a6ae9c569ad2cfcefb15b5", "fusion_lon": 0.0, "bike_id": "1589d29d16a6ae9c569ad2cfcefb15b5", "is_reserved": 0, "type": "electric_scooter", "lat": 38.90742683333333, "fusion_lat": 0.0, "is_disabled": 0}, {"rental_uris": {"android": "https://dc.lft.to/lastmile_qr_scan", "ios": "https://dc.lft.to/lastmile_qr_scan"}, "lon": -77.03302483333333, "name": "f873aea57c7b4873cdd1cdcd0b1e9f41", "fusion_lon": 0.0, "bike_id": "f873aea57c7b4873cdd1cdcd0b1e9f41", "is_reserved": 0, "type": "electric_scooter", "lat": 38.89913116666666, "fusion_lat": 0.0, "is_disabled": 0}, {"rental_uris": {"android": "https://dc.lft.to/lastmile_qr_scan", "ios": "https://dc.lft.to/lastmile_qr_scan"}, "lon": -77.027091, "name": "9ceb8f390b0f76bced8cb5db2cf8d4ce", "fusion_lon": 0.0, "bike_id": "9ceb8f390b0f76bced8cb5db2cf8d4ce", "is_reserved": 0, "type": "electric_scooter", "lat": 38.927808166666665, "fusion_lat": 0.0, "is_disabled": 0}, {"rental_uris": {"android": "https://dc.lft.to/lastmile_qr_scan", "ios": "https://dc.lft.to/lastmile_qr_scan"}, "lon": -77.024432, "name": "f46b9564b90989285d92076de75e434f", "fusion_lon": 0.0, "bike_id": "f46b9564b90989285d92076de75e434f", "is_reserved": 0, "type": "electric_scooter", "lat": 38.9154995, "fusion_lat": 0.0, "is_disabled": 0}, {"rental_uris": {"android": "https://dc.lft.to/lastmile_qr_scan", "ios": "https://dc.lft.to/lastmile_qr_scan"}, "lon": -77.03855266666666, "name": "e7f7c095d931da6df3bdc6806b1a8e4b", "fusion_lon": 0.0, "bike_id": "e7f7c095d931da6df3bdc6806b1a8e4b", "is_reserved": 0, "type": "electric_scooter", "lat": 38.93199366666666, "fusion_lat": 0.0, "is_disabled": 0}, {"rental_uris": {"android": "https://dc.lft.to/lastmile_qr_scan", "ios": "https://dc.lft.to/lastmile_qr_scan"}, "lon": -77.0209265, "name": "568abed8234289350ba695e39492789c", "fusion_lon": 0.0, "bike_id": "568abed8234289350ba695e39492789c", "is_reserved": 0, "type": "electric_scooter", "lat": 38.89426916666667, "fusion_lat": 0.0, "is_disabled": 0}, {"rental_uris": {"android": "https://dc.lft.to/lastmile_qr_scan", "ios": "https://dc.lft.to/lastmile_qr_scan"}, "lon": -77.0258265, "name": "c0bf69d8d76b84570834808e831d8256", "fusion_lon": 0.0, "bike_id": "c0bf69d8d76b84570834808e831d8256", "is_reserved": 0, "type": "electric_scooter", "lat": 38.90442616666667, "fusion_lat": 0.0, "is_disabled": 0}, {"rental_uris": {"android": "https://dc.lft.to/lastmile_qr_scan", "ios": "https://dc.lft.to/lastmile_qr_scan"}, "lon": -77.0425365, "name": "78e1be2ec644d37f47eda8112eb13d7d", "fusion_lon": 0.0, "bike_id": "78e1be2ec644d37f47eda8112eb13d7d", "is_reserved": 0, "type": "electric_scooter", "lat": 38.9219905, "fusion_lat": 0.0, "is_disabled": 0}, {"rental_uris": {"android": "https://dc.lft.to/lastmile_qr_scan", "ios": "https://dc.lft.to/lastmile_qr_scan"}, "lon": -76.99168683333333, "name": "820c1b6e50aafa4927627c54ca5ed5dc", "fusion_lon": 0.0, "bike_id": "820c1b6e50aafa4927627c54ca5ed5dc", "is_reserved": 0, "type": "electric_scooter", "lat": 38.873386333333336, "fusion_lat": 0.0, "is_disabled": 0}, {"rental_uris": {"android": "https://dc.lft.to/lastmile_qr_scan", "ios": "https://dc.lft.to/lastmile_qr_scan"}, "lon": -76.92748583333334, "name": "dd347a3c83f9351e7657c856df6cfbed", "fusion_lon": 0.0, "bike_id": "dd347a3c83f9351e7657c856df6cfbed", "is_reserved": 0, "type": "electric_scooter", "lat": 38.9006185, "fusion_lat": 0.0, "is_disabled": 0}, {"rental_uris": {"android": "https://dc.lft.to/lastmile_qr_scan", "ios": "https://dc.lft.to/lastmile_qr_scan"}, "lon": -77.02987, "name": "1316517ca759dc9f3256e54b74641a80", "fusion_lon": 0.0, "bike_id": "1316517ca759dc9f3256e54b74641a80", "is_reserved": 0, "type": "electric_scooter", "lat": 38.92053416666667, "fusion_lat": 0.0, "is_disabled": 0}, {"rental_uris": {"android": "https://dc.lft.to/lastmile_qr_scan", "ios": "https://dc.lft.to/lastmile_qr_scan"}, "lon": -76.99197983333333, "name": "31b248d278b4f44229279acc8851977d", "fusion_lon": 0.0, "bike_id": "31b248d278b4f44229279acc8851977d", "is_reserved": 0, "type": "electric_scooter", "lat": 38.88265766666667, "fusion_lat": 0.0, "is_disabled": 0}, {"rental_uris": {"android": "https://dc.lft.to/lastmile_qr_scan", "ios": "https://dc.lft.to/lastmile_qr_scan"}, "lon": -77.02714833333333, "name": "02842e3e838f81509fc1e112489673d0", "fusion_lon": 0.0, "bike_id": "02842e3e838f81509fc1e112489673d0", "is_reserved": 0, "type": "electric_scooter", "lat": 38.92482433333333, "fusion_lat": 0.0, "is_disabled": 0}, {"rental_uris": {"android": "https://dc.lft.to/lastmile_qr_scan", "ios": "https://dc.lft.to/lastmile_qr_scan"}, "lon": -77.0347365, "name": "be1ef0eafbcf41de38a639b49cf5f269", "fusion_lon": 0.0, "bike_id": "be1ef0eafbcf41de38a639b49cf5f269", "is_reserved": 0, "type": "electric_scooter", "lat": 38.9023, "fusion_lat": 0.0, "is_disabled": 0}, {"rental_uris": {"android": "https://dc.lft.to/lastmile_qr_scan", "ios": "https://dc.lft.to/lastmile_qr_scan"}, "lon": -76.988313, "name": "3cd2e79272971e585a7f43b1a6c80008", "fusion_lon": 0.0, "bike_id": "3cd2e79272971e585a7f43b1a6c80008", "is_reserved": 0, "type": "electric_scooter", "lat": 38.9004555, "fusion_lat": 0.0, "is_disabled": 0}, {"rental_uris": {"android": "https://dc.lft.to/lastmile_qr_scan", "ios": "https://dc.lft.to/lastmile_qr_scan"}, "lon": -77.0117255, "name": "ddc7f577dc3acfedb0e58c233809f043", "fusion_lon": 0.0, "bike_id": "ddc7f577dc3acfedb0e58c233809f043", "is_reserved": 0, "type": "electric_scooter", "lat": 38.89616783333334, "fusion_lat": 0.0, "is_disabled": 0}, {"rental_uris": {"android": "https://dc.lft.to/lastmile_qr_scan", "ios": "https://dc.lft.to/lastmile_qr_scan"}, "lon": -77.019559, "name": "b38c4c944fc135e9a13f3ab84e2c9d28", "fusion_lon": 0.0, "bike_id": "b38c4c944fc135e9a13f3ab84e2c9d28", "is_reserved": 0, "type": "electric_scooter", "lat": 38.922574166666664, "fusion_lat": 0.0, "is_disabled": 0}, {"rental_uris": {"android": "https://dc.lft.to/lastmile_qr_scan", "ios": "https://dc.lft.to/lastmile_qr_scan"}, "lon": -77.00346766666667, "name": "703148a946484e564f311e64dfafc061", "fusion_lon": 0.0, "bike_id": "703148a946484e564f311e64dfafc061", "is_reserved": 0, "type": "electric_scooter", "lat": 38.8868775, "fusion_lat": 0.0, "is_disabled": 0}, {"rental_uris": {"android": "https://dc.lft.to/lastmile_qr_scan", "ios": "https://dc.lft.to/lastmile_qr_scan"}, "lon": -77.0246215, "name": "3bef367198a413b1559daf24cab27dbb", "fusion_lon": 0.0, "bike_id": "3bef367198a413b1559daf24cab27dbb", "is_reserved": 0, "type": "electric_scooter", "lat": 38.94728933333333, "fusion_lat": 0.0, "is_disabled": 0}, {"rental_uris": {"android": "https://dc.lft.to/lastmile_qr_scan", "ios": "https://dc.lft.to/lastmile_qr_scan"}, "lon": -77.02324833333333, "name": "a085c5d29bfcefbce10d01ee8faca80e", "fusion_lon": 0.0, "bike_id": "a085c5d29bfcefbce10d01ee8faca80e", "is_reserved": 0, "type": "electric_scooter", "lat": 38.894063333333335, "fusion_lat": 0.0, "is_disabled": 0}, {"rental_uris": {"android": "https://dc.lft.to/lastmile_qr_scan", "ios": "https://dc.lft.to/lastmile_qr_scan"}, "lon": -77.00289366666667, "name": "9d1f653e2e6d9a98e5ff52a602fba444", "fusion_lon": 0.0, "bike_id": "9d1f653e2e6d9a98e5ff52a602fba444", "is_reserved": 0, "type": "electric_scooter", "lat": 38.905502166666665, "fusion_lat": 0.0, "is_disabled": 0}, {"rental_uris": {"android": "https://dc.lft.to/lastmile_qr_scan", "ios": "https://dc.lft.to/lastmile_qr_scan"}, "lon": -77.03441883333333, "name": "e70482d07ea7025f249d7d6b4bf4757c", "fusion_lon": 0.0, "bike_id": "e70482d07ea7025f249d7d6b4bf4757c", "is_reserved": 0, "type": "electric_scooter", "lat": 38.91783133333333, "fusion_lat": 0.0, "is_disabled": 0}, {"rental_uris": {"android": "https://dc.lft.to/lastmile_qr_scan", "ios": "https://dc.lft.to/lastmile_qr_scan"}, "lon": -77.027972, "name": "dab73a8db4ea55ab3b55c31585e13e97", "fusion_lon": 0.0, "bike_id": "dab73a8db4ea55ab3b55c31585e13e97", "is_reserved": 0, "type": "electric_scooter", "lat": 38.90718316666667, "fusion_lat": 0.0, "is_disabled": 0}, {"rental_uris": {"android": "https://dc.lft.to/lastmile_qr_scan", "ios": "https://dc.lft.to/lastmile_qr_scan"}, "lon": -77.02593633333333, "name": "3aac5b51edf892fab7ddb022dedf50e8", "fusion_lon": 0.0, "bike_id": "3aac5b51edf892fab7ddb022dedf50e8", "is_reserved": 0, "type": "electric_scooter", "lat": 38.90159966666667, "fusion_lat": 0.0, "is_disabled": 0}, {"rental_uris": {"android": "https://dc.lft.to/lastmile_qr_scan", "ios": "https://dc.lft.to/lastmile_qr_scan"}, "lon": -77.00408633333333, "name": "68f2ee2e78be0f0cbb08ddd1d3081fa4", "fusion_lon": 0.0, "bike_id": "68f2ee2e78be0f0cbb08ddd1d3081fa4", "is_reserved": 0, "type": "electric_scooter", "lat": 38.885947, "fusion_lat": 0.0, "is_disabled": 0}, {"rental_uris": {"android": "https://dc.lft.to/lastmile_qr_scan", "ios": "https://dc.lft.to/lastmile_qr_scan"}, "lon": -77.04668166666667, "name": "355ce37cdfe2eeae868f058b661bee5a", "fusion_lon": 0.0, "bike_id": "355ce37cdfe2eeae868f058b661bee5a", "is_reserved": 0, "type": "electric_scooter", "lat": 38.89884833333333, "fusion_lat": 0.0, "is_disabled": 0}, {"rental_uris": {"android": "https://dc.lft.to/lastmile_qr_scan", "ios": "https://dc.lft.to/lastmile_qr_scan"}, "lon": -77.03203716666667, "name": "4151b4dc81928fc195c2d61d21404f24", "fusion_lon": 0.0, "bike_id": "4151b4dc81928fc195c2d61d21404f24", "is_reserved": 0, "type": "electric_scooter", "lat": 38.913418166666666, "fusion_lat": 0.0, "is_disabled": 0}, {"rental_uris": {"android": "https://dc.lft.to/lastmile_qr_scan", "ios": "https://dc.lft.to/lastmile_qr_scan"}, "lon": -76.93238433333333, "name": "a8cc71941afd7343c1663711d45a3d05", "fusion_lon": 0.0, "bike_id": "a8cc71941afd7343c1663711d45a3d05", "is_reserved": 0, "type": "electric_bike", "lat": 38.88270116666666, "fusion_lat": 0.0, "is_disabled": 0}, {"rental_uris": {"android": "https://dc.lft.to/lastmile_qr_scan", "ios": "https://dc.lft.to/lastmile_qr_scan"}, "lon": -77.036593, "name": "78085668568edc0842bb14ab5600e4c8", "fusion_lon": 0.0, "bike_id": "78085668568edc0842bb14ab5600e4c8", "is_reserved": 0, "type": "electric_scooter", "lat": 38.92284866666667, "fusion_lat": 0.0, "is_disabled": 0}, {"rental_uris": {"android": "https://dc.lft.to/lastmile_qr_scan", "ios": "https://dc.lft.to/lastmile_qr_scan"}, "lon": -76.99435383333334, "name": "db1209594aa29d75c220d0c7a8d484e6", "fusion_lon": 0.0, "bike_id": "db1209594aa29d75c220d0c7a8d484e6", "is_reserved": 0, "type": "electric_scooter", "lat": 38.90791133333333, "fusion_lat": 0.0, "is_disabled": 0}, {"rental_uris": {"android": "https://dc.lft.to/lastmile_qr_scan", "ios": "https://dc.lft.to/lastmile_qr_scan"}, "lon": -77.0462115, "name": "cd1094a54d9b8e2ddffb8a59337083be", "fusion_lon": 0.0, "bike_id": "cd1094a54d9b8e2ddffb8a59337083be", "is_reserved": 0, "type": "electric_scooter", "lat": 38.919310333333335, "fusion_lat": 0.0, "is_disabled": 0}, {"rental_uris": {"android": "https://dc.lft.to/lastmile_qr_scan", "ios": "https://dc.lft.to/lastmile_qr_scan"}, "lon": -77.05921316666667, "name": "73454820f6a68d68f0099197db57c8ce", "fusion_lon": 0.0, "bike_id": "73454820f6a68d68f0099197db57c8ce", "is_reserved": 0, "type": "electric_scooter", "lat": 38.943101, "fusion_lat": 0.0, "is_disabled": 0}, {"rental_uris": {"android": "https://dc.lft.to/lastmile_qr_scan", "ios": "https://dc.lft.to/lastmile_qr_scan"}, "lon": -77.078192, "name": "a11cac40187378e0bcffc26f6c17699a", "fusion_lon": 0.0, "bike_id": "a11cac40187378e0bcffc26f6c17699a", "is_reserved": 0, "type": "electric_bike", "lat": 38.849146833333336, "fusion_lat": 0.0, "is_disabled": 0}, {"rental_uris": {"android": "https://dc.lft.to/lastmile_qr_scan", "ios": "https://dc.lft.to/lastmile_qr_scan"}, "lon": -77.00206066666667, "name": "36bdb0a28011aa3fe5a31ceb2a6e99ac", "fusion_lon": 0.0, "bike_id": "36bdb0a28011aa3fe5a31ceb2a6e99ac", "is_reserved": 0, "type": "electric_scooter", "lat": 38.90232916666667, "fusion_lat": 0.0, "is_disabled": 0}, {"rental_uris": {"android": "https://dc.lft.to/lastmile_qr_scan", "ios": "https://dc.lft.to/lastmile_qr_scan"}, "lon": -77.04617033333334, "name": "c820423ae8da378c6f841a8c750313ea", "fusion_lon": 0.0, "bike_id": "c820423ae8da378c6f841a8c750313ea", "is_reserved": 0, "type": "electric_scooter", "lat": 38.92331016666667, "fusion_lat": 0.0, "is_disabled": 0}, {"rental_uris": {"android": "https://dc.lft.to/lastmile_qr_scan", "ios": "https://dc.lft.to/lastmile_qr_scan"}, "lon": -77.0049095, "name": "d4abce638859e18f5ffd56e79b29c86b", "fusion_lon": 0.0, "bike_id": "d4abce638859e18f5ffd56e79b29c86b", "is_reserved": 0, "type": "electric_scooter", "lat": 38.8969145, "fusion_lat": 0.0, "is_disabled": 0}, {"rental_uris": {"android": "https://dc.lft.to/lastmile_qr_scan", "ios": "https://dc.lft.to/lastmile_qr_scan"}, "lon": -77.00272833333334, "name": "a1432b52dd6e687bd94eedf6894eaaed", "fusion_lon": 0.0, "bike_id": "a1432b52dd6e687bd94eedf6894eaaed", "is_reserved": 0, "type": "electric_bike", "lat": 38.911697833333335, "fusion_lat": 0.0, "is_disabled": 0}, {"rental_uris": {"android": "https://dc.lft.to/lastmile_qr_scan", "ios": "https://dc.lft.to/lastmile_qr_scan"}, "lon": -77.03205133333333, "name": "eae63c2773b32974e1e1decb31d8d12b", "fusion_lon": 0.0, "bike_id": "eae63c2773b32974e1e1decb31d8d12b", "is_reserved": 0, "type": "electric_scooter", "lat": 38.91340316666667, "fusion_lat": 0.0, "is_disabled": 0}, {"rental_uris": {"android": "https://dc.lft.to/lastmile_qr_scan", "ios": "https://dc.lft.to/lastmile_qr_scan"}, "lon": -77.02989116666667, "name": "a1bb91fd35b98ff12332476f6a7e078b", "fusion_lon": 0.0, "bike_id": "a1bb91fd35b98ff12332476f6a7e078b", "is_reserved": 0, "type": "electric_scooter", "lat": 38.92238533333333, "fusion_lat": 0.0, "is_disabled": 0}, {"rental_uris": {"android": "https://dc.lft.to/lastmile_qr_scan", "ios": "https://dc.lft.to/lastmile_qr_scan"}, "lon": -77.02681966666667, "name": "83d32760a727ef7a1341d7a201bf7fff", "fusion_lon": 0.0, "bike_id": "83d32760a727ef7a1341d7a201bf7fff", "is_reserved": 0, "type": "electric_scooter", "lat": 38.89719633333333, "fusion_lat": 0.0, "is_disabled": 0}, {"rental_uris": {"android": "https://dc.lft.to/lastmile_qr_scan", "ios": "https://dc.lft.to/lastmile_qr_scan"}, "lon": -76.92521883333333, "name": "d5cc3b1400a3b6ad31e513ae4ca7c3af", "fusion_lon": 0.0, "bike_id": "d5cc3b1400a3b6ad31e513ae4ca7c3af", "is_reserved": 0, "type": "electric_bike", "lat": 38.9590385, "fusion_lat": 0.0, "is_disabled": 0}, {"rental_uris": {"android": "https://dc.lft.to/lastmile_qr_scan", "ios": "https://dc.lft.to/lastmile_qr_scan"}, "lon": -77.0400785, "name": "963384a4bc6652668ed1f79a8b6c6f49", "fusion_lon": 0.0, "bike_id": "963384a4bc6652668ed1f79a8b6c6f49", "is_reserved": 0, "type": "electric_scooter", "lat": 38.934239166666664, "fusion_lat": 0.0, "is_disabled": 0}, {"rental_uris": {"android": "https://dc.lft.to/lastmile_qr_scan", "ios": "https://dc.lft.to/lastmile_qr_scan"}, "lon": -77.03156416666667, "name": "4b007f04dba3d126f3c3cd6cee638637", "fusion_lon": 0.0, "bike_id": "4b007f04dba3d126f3c3cd6cee638637", "is_reserved": 0, "type": "electric_scooter", "lat": 38.91806183333333, "fusion_lat": 0.0, "is_disabled": 0}, {"rental_uris": {"android": "https://dc.lft.to/lastmile_qr_scan", "ios": "https://dc.lft.to/lastmile_qr_scan"}, "lon": -77.00748166666666, "name": "a0f0fba7f7bd19370249694ceadbab48", "fusion_lon": 0.0, "bike_id": "a0f0fba7f7bd19370249694ceadbab48", "is_reserved": 0, "type": "electric_scooter", "lat": 38.92671083333333, "fusion_lat": 0.0, "is_disabled": 0}, {"rental_uris": {"android": "https://dc.lft.to/lastmile_qr_scan", "ios": "https://dc.lft.to/lastmile_qr_scan"}, "lon": -77.04367083333334, "name": "9c644bb854e3796b02d1304819ad8a41", "fusion_lon": 0.0, "bike_id": "9c644bb854e3796b02d1304819ad8a41", "is_reserved": 0, "type": "electric_scooter", "lat": 38.904111, "fusion_lat": 0.0, "is_disabled": 0}, {"rental_uris": {"android": "https://dc.lft.to/lastmile_qr_scan", "ios": "https://dc.lft.to/lastmile_qr_scan"}, "lon": -76.983344, "name": "ed1fa3d197cd8e480ef2a02eae6666a8", "fusion_lon": 0.0, "bike_id": "ed1fa3d197cd8e480ef2a02eae6666a8", "is_reserved": 0, "type": "electric_scooter", "lat": 38.89542816666667, "fusion_lat": 0.0, "is_disabled": 0}, {"rental_uris": {"android": "https://dc.lft.to/lastmile_qr_scan", "ios": "https://dc.lft.to/lastmile_qr_scan"}, "lon": -76.9425225, "name": "0ae22a1ced8611c4036023874e68485d", "fusion_lon": 0.0, "bike_id": "0ae22a1ced8611c4036023874e68485d", "is_reserved": 0, "type": "electric_bike", "lat": 38.947947, "fusion_lat": 0.0, "is_disabled": 0}, {"rental_uris": {"android": "https://dc.lft.to/lastmile_qr_scan", "ios": "https://dc.lft.to/lastmile_qr_scan"}, "lon": -77.02739483333333, "name": "1f0dfa8ae766166bf2cc42e835db5537", "fusion_lon": 0.0, "bike_id": "1f0dfa8ae766166bf2cc42e835db5537", "is_reserved": 0, "type": "electric_scooter", "lat": 38.897731, "fusion_lat": 0.0, "is_disabled": 0}, {"rental_uris": {"android": "https://dc.lft.to/lastmile_qr_scan", "ios": "https://dc.lft.to/lastmile_qr_scan"}, "lon": -77.02819533333333, "name": "eae7adf5077388864e975664ef60f6b5", "fusion_lon": 0.0, "bike_id": "eae7adf5077388864e975664ef60f6b5", "is_reserved": 0, "type": "electric_scooter", "lat": 38.9313895, "fusion_lat": 0.0, "is_disabled": 0}, {"rental_uris": {"android": "https://dc.lft.to/lastmile_qr_scan", "ios": "https://dc.lft.to/lastmile_qr_scan"}, "lon": -77.11512583333334, "name": "ec29add9f843bde39c60ac7b76adf8c3", "fusion_lon": 0.0, "bike_id": "ec29add9f843bde39c60ac7b76adf8c3", "is_reserved": 0, "type": "electric_bike", "lat": 39.074641166666666, "fusion_lat": 0.0, "is_disabled": 0}, {"rental_uris": {"android": "https://dc.lft.to/lastmile_qr_scan", "ios": "https://dc.lft.to/lastmile_qr_scan"}, "lon": -77.02773283333333, "name": "4325f580ea7ce74af8244c23e1311817", "fusion_lon": 0.0, "bike_id": "4325f580ea7ce74af8244c23e1311817", "is_reserved": 0, "type": "electric_scooter", "lat": 38.96400516666667, "fusion_lat": 0.0, "is_disabled": 0}, {"rental_uris": {"android": "https://dc.lft.to/lastmile_qr_scan", "ios": "https://dc.lft.to/lastmile_qr_scan"}, "lon": -77.01411166666666, "name": "18840bae487a8a11ed66d33517ef2419", "fusion_lon": 0.0, "bike_id": "18840bae487a8a11ed66d33517ef2419", "is_reserved": 0, "type": "electric_scooter", "lat": 38.915509166666666, "fusion_lat": 0.0, "is_disabled": 0}, {"rental_uris": {"android": "https://dc.lft.to/lastmile_qr_scan", "ios": "https://dc.lft.to/lastmile_qr_scan"}, "lon": -77.01491816666666, "name": "da21252ec73bfe4b3b9cfbc2edfac959", "fusion_lon": 0.0, "bike_id": "da21252ec73bfe4b3b9cfbc2edfac959", "is_reserved": 0, "type": "electric_scooter", "lat": 38.943271833333334, "fusion_lat": 0.0, "is_disabled": 0}, {"rental_uris": {"android": "https://dc.lft.to/lastmile_qr_scan", "ios": "https://dc.lft.to/lastmile_qr_scan"}, "lon": -77.02802866666667, "name": "0170acefd2be5a05d610be17becf6b8c", "fusion_lon": 0.0, "bike_id": "0170acefd2be5a05d610be17becf6b8c", "is_reserved": 0, "type": "electric_scooter", "lat": 38.906626833333334, "fusion_lat": 0.0, "is_disabled": 0}, {"rental_uris": {"android": "https://dc.lft.to/lastmile_qr_scan", "ios": "https://dc.lft.to/lastmile_qr_scan"}, "lon": -77.0334195, "name": "a0cf033cfcebfe7e794b16c68b916dfc", "fusion_lon": 0.0, "bike_id": "a0cf033cfcebfe7e794b16c68b916dfc", "is_reserved": 0, "type": "electric_scooter", "lat": 38.896912, "fusion_lat": 0.0, "is_disabled": 0}, {"rental_uris": {"android": "https://dc.lft.to/lastmile_qr_scan", "ios": "https://dc.lft.to/lastmile_qr_scan"}, "lon": -77.02644116666667, "name": "20483dba9ac0bf2541cd8f9adbdf653e", "fusion_lon": 0.0, "bike_id": "20483dba9ac0bf2541cd8f9adbdf653e", "is_reserved": 0, "type": "electric_scooter", "lat": 38.982253166666666, "fusion_lat": 0.0, "is_disabled": 0}, {"rental_uris": {"android": "https://dc.lft.to/lastmile_qr_scan", "ios": "https://dc.lft.to/lastmile_qr_scan"}, "lon": -76.99321283333333, "name": "6111c50f31deffdacd8272ed3d114dab", "fusion_lon": 0.0, "bike_id": "6111c50f31deffdacd8272ed3d114dab", "is_reserved": 0, "type": "electric_scooter", "lat": 38.87655933333333, "fusion_lat": 0.0, "is_disabled": 0}, {"rental_uris": {"android": "https://dc.lft.to/lastmile_qr_scan", "ios": "https://dc.lft.to/lastmile_qr_scan"}, "lon": -76.996765, "name": "233c206800ae4e758517b1e9ffc3933c", "fusion_lon": 0.0, "bike_id": "233c206800ae4e758517b1e9ffc3933c", "is_reserved": 0, "type": "electric_scooter", "lat": 38.8851185, "fusion_lat": 0.0, "is_disabled": 0}, {"rental_uris": {"android": "https://dc.lft.to/lastmile_qr_scan", "ios": "https://dc.lft.to/lastmile_qr_scan"}, "lon": -77.06328033333334, "name": "d59618cea80829537ed399129eb42d92", "fusion_lon": 0.0, "bike_id": "d59618cea80829537ed399129eb42d92", "is_reserved": 0, "type": "electric_scooter", "lat": 38.94411366666667, "fusion_lat": 0.0, "is_disabled": 0}, {"rental_uris": {"android": "https://dc.lft.to/lastmile_qr_scan", "ios": "https://dc.lft.to/lastmile_qr_scan"}, "lon": -77.03186283333334, "name": "3042bcf14efa14fd56a401b62daccdb1", "fusion_lon": 0.0, "bike_id": "3042bcf14efa14fd56a401b62daccdb1", "is_reserved": 0, "type": "electric_scooter", "lat": 38.916841166666664, "fusion_lat": 0.0, "is_disabled": 0}, {"rental_uris": {"android": "https://dc.lft.to/lastmile_qr_scan", "ios": "https://dc.lft.to/lastmile_qr_scan"}, "lon": -77.02165133333334, "name": "f82897912cdc421554b5e2acb9acf66f", "fusion_lon": 0.0, "bike_id": "f82897912cdc421554b5e2acb9acf66f", "is_reserved": 0, "type": "electric_scooter", "lat": 38.92496233333333, "fusion_lat": 0.0, "is_disabled": 0}, {"rental_uris": {"android": "https://dc.lft.to/lastmile_qr_scan", "ios": "https://dc.lft.to/lastmile_qr_scan"}, "lon": -77.02383533333334, "name": "7827651e614396a8dd26966120e7f144", "fusion_lon": 0.0, "bike_id": "7827651e614396a8dd26966120e7f144", "is_reserved": 0, "type": "electric_scooter", "lat": 38.89236116666667, "fusion_lat": 0.0, "is_disabled": 0}, {"rental_uris": {"android": "https://dc.lft.to/lastmile_qr_scan", "ios": "https://dc.lft.to/lastmile_qr_scan"}, "lon": -77.002027, "name": "90948f4d27d33e34c2568c9c68ee196c", "fusion_lon": 0.0, "bike_id": "90948f4d27d33e34c2568c9c68ee196c", "is_reserved": 0, "type": "electric_scooter", "lat": 38.90231383333333, "fusion_lat": 0.0, "is_disabled": 0}, {"rental_uris": {"android": "https://dc.lft.to/lastmile_qr_scan", "ios": "https://dc.lft.to/lastmile_qr_scan"}, "lon": -77.0091915, "name": "46bd54d4ab8335775bf38852dbd540d6", "fusion_lon": 0.0, "bike_id": "46bd54d4ab8335775bf38852dbd540d6", "is_reserved": 0, "type": "electric_scooter", "lat": 38.957550833333336, "fusion_lat": 0.0, "is_disabled": 0}, {"rental_uris": {"android": "https://dc.lft.to/lastmile_qr_scan", "ios": "https://dc.lft.to/lastmile_qr_scan"}, "lon": -77.02678633333333, "name": "63d124da852027fed8cf7f0835929337", "fusion_lon": 0.0, "bike_id": "63d124da852027fed8cf7f0835929337", "is_reserved": 0, "type": "electric_scooter", "lat": 38.92169483333333, "fusion_lat": 0.0, "is_disabled": 0}, {"rental_uris": {"android": "https://dc.lft.to/lastmile_qr_scan", "ios": "https://dc.lft.to/lastmile_qr_scan"}, "lon": -77.06626416666667, "name": "4104f39885bbaf2995ed959ecfb83a13", "fusion_lon": 0.0, "bike_id": "4104f39885bbaf2995ed959ecfb83a13", "is_reserved": 0, "type": "electric_scooter", "lat": 38.911720333333335, "fusion_lat": 0.0, "is_disabled": 0}, {"rental_uris": {"android": "https://dc.lft.to/lastmile_qr_scan", "ios": "https://dc.lft.to/lastmile_qr_scan"}, "lon": -77.00589483333333, "name": "1f393c829dda846d54711568b59a2c4f", "fusion_lon": 0.0, "bike_id": "1f393c829dda846d54711568b59a2c4f", "is_reserved": 0, "type": "electric_scooter", "lat": 38.90568716666667, "fusion_lat": 0.0, "is_disabled": 0}, {"rental_uris": {"android": "https://dc.lft.to/lastmile_qr_scan", "ios": "https://dc.lft.to/lastmile_qr_scan"}, "lon": -77.01227583333333, "name": "09302c8ea1de2dad7304a06c621309d5", "fusion_lon": 0.0, "bike_id": "09302c8ea1de2dad7304a06c621309d5", "is_reserved": 0, "type": "electric_scooter", "lat": 38.91537233333333, "fusion_lat": 0.0, "is_disabled": 0}, {"rental_uris": {"android": "https://dc.lft.to/lastmile_qr_scan", "ios": "https://dc.lft.to/lastmile_qr_scan"}, "lon": -77.02566633333333, "name": "3e9c9a684b38daff65fba28b09e01190", "fusion_lon": 0.0, "bike_id": "3e9c9a684b38daff65fba28b09e01190", "is_reserved": 0, "type": "electric_scooter", "lat": 38.920677833333336, "fusion_lat": 0.0, "is_disabled": 0}, {"rental_uris": {"android": "https://dc.lft.to/lastmile_qr_scan", "ios": "https://dc.lft.to/lastmile_qr_scan"}, "lon": -77.03199066666667, "name": "fe1c527fbc187e18f6688d0708043129", "fusion_lon": 0.0, "bike_id": "fe1c527fbc187e18f6688d0708043129", "is_reserved": 0, "type": "electric_scooter", "lat": 38.918061333333334, "fusion_lat": 0.0, "is_disabled": 0}, {"rental_uris": {"android": "https://dc.lft.to/lastmile_qr_scan", "ios": "https://dc.lft.to/lastmile_qr_scan"}, "lon": -77.03194033333334, "name": "7a158d627c126b34131c7faf16f3c134", "fusion_lon": 0.0, "bike_id": "7a158d627c126b34131c7faf16f3c134", "is_reserved": 0, "type": "electric_scooter", "lat": 38.93242816666667, "fusion_lat": 0.0, "is_disabled": 0}, {"rental_uris": {"android": "https://dc.lft.to/lastmile_qr_scan", "ios": "https://dc.lft.to/lastmile_qr_scan"}, "lon": -77.02929433333334, "name": "7bc2330038d71fdbde9348e38e7d0e84", "fusion_lon": 0.0, "bike_id": "7bc2330038d71fdbde9348e38e7d0e84", "is_reserved": 0, "type": "electric_scooter", "lat": 38.905557333333334, "fusion_lat": 0.0, "is_disabled": 0}, {"rental_uris": {"android": "https://dc.lft.to/lastmile_qr_scan", "ios": "https://dc.lft.to/lastmile_qr_scan"}, "lon": -77.00201, "name": "89086b7b853956c7e3c5126341e8bdc7", "fusion_lon": 0.0, "bike_id": "89086b7b853956c7e3c5126341e8bdc7", "is_reserved": 0, "type": "electric_scooter", "lat": 38.894955, "fusion_lat": 0.0, "is_disabled": 0}, {"rental_uris": {"android": "https://dc.lft.to/lastmile_qr_scan", "ios": "https://dc.lft.to/lastmile_qr_scan"}, "lon": -77.04120416666666, "name": "8cd073925bee7766020cf0da6415f66f", "fusion_lon": 0.0, "bike_id": "8cd073925bee7766020cf0da6415f66f", "is_reserved": 0, "type": "electric_scooter", "lat": 38.9054045, "fusion_lat": 0.0, "is_disabled": 0}, {"rental_uris": {"android": "https://dc.lft.to/lastmile_qr_scan", "ios": "https://dc.lft.to/lastmile_qr_scan"}, "lon": -77.02247166666666, "name": "74803ac1d77fbf37be0da0a65525abc5", "fusion_lon": 0.0, "bike_id": "74803ac1d77fbf37be0da0a65525abc5", "is_reserved": 0, "type": "electric_scooter", "lat": 38.899695666666666, "fusion_lat": 0.0, "is_disabled": 0}, {"rental_uris": {"android": "https://dc.lft.to/lastmile_qr_scan", "ios": "https://dc.lft.to/lastmile_qr_scan"}, "lon": -76.932695, "name": "447a5aada0c8654c02224405f83b8c07", "fusion_lon": 0.0, "bike_id": "447a5aada0c8654c02224405f83b8c07", "is_reserved": 0, "type": "electric_scooter", "lat": 38.88768, "fusion_lat": 0.0, "is_disabled": 0}, {"rental_uris": {"android": "https://dc.lft.to/lastmile_qr_scan", "ios": "https://dc.lft.to/lastmile_qr_scan"}, "lon": -77.03845583333333, "name": "f247465551be521ef8640676b90627ea", "fusion_lon": 0.0, "bike_id": "f247465551be521ef8640676b90627ea", "is_reserved": 0, "type": "electric_scooter", "lat": 38.9115335, "fusion_lat": 0.0, "is_disabled": 0}, {"rental_uris": {"android": "https://dc.lft.to/lastmile_qr_scan", "ios": "https://dc.lft.to/lastmile_qr_scan"}, "lon": -77.00292166666667, "name": "19873d038c54eb9eda18948833845546", "fusion_lon": 0.0, "bike_id": "19873d038c54eb9eda18948833845546", "is_reserved": 0, "type": "electric_scooter", "lat": 38.891926833333336, "fusion_lat": 0.0, "is_disabled": 0}, {"rental_uris": {"android": "https://dc.lft.to/lastmile_qr_scan", "ios": "https://dc.lft.to/lastmile_qr_scan"}, "lon": -76.990321, "name": "453f805dc047c3a211dcb839ae5a5d6f", "fusion_lon": 0.0, "bike_id": "453f805dc047c3a211dcb839ae5a5d6f", "is_reserved": 0, "type": "electric_scooter", "lat": 38.88876316666666, "fusion_lat": 0.0, "is_disabled": 0}, {"rental_uris": {"android": "https://dc.lft.to/lastmile_qr_scan", "ios": "https://dc.lft.to/lastmile_qr_scan"}, "lon": -77.055176, "name": "0364eebe63a1388ce7597260c1ccc29e", "fusion_lon": 0.0, "bike_id": "0364eebe63a1388ce7597260c1ccc29e", "is_reserved": 0, "type": "electric_scooter", "lat": 38.9441425, "fusion_lat": 0.0, "is_disabled": 0}, {"rental_uris": {"android": "https://dc.lft.to/lastmile_qr_scan", "ios": "https://dc.lft.to/lastmile_qr_scan"}, "lon": -77.045983, "name": "4fcd3400cae553799bff78a90fa83830", "fusion_lon": 0.0, "bike_id": "4fcd3400cae553799bff78a90fa83830", "is_reserved": 0, "type": "electric_scooter", "lat": 38.89607783333334, "fusion_lat": 0.0, "is_disabled": 0}, {"rental_uris": {"android": "https://dc.lft.to/lastmile_qr_scan", "ios": "https://dc.lft.to/lastmile_qr_scan"}, "lon": -77.02255716666667, "name": "b300974356ef087672883fc82ac547cf", "fusion_lon": 0.0, "bike_id": "b300974356ef087672883fc82ac547cf", "is_reserved": 0, "type": "electric_scooter", "lat": 38.92732866666667, "fusion_lat": 0.0, "is_disabled": 0}, {"rental_uris": {"android": "https://dc.lft.to/lastmile_qr_scan", "ios": "https://dc.lft.to/lastmile_qr_scan"}, "lon": -76.99018533333333, "name": "ebd98b8122b70de0360c68c0defd8606", "fusion_lon": 0.0, "bike_id": "ebd98b8122b70de0360c68c0defd8606", "is_reserved": 0, "type": "electric_bike", "lat": 38.9431435, "fusion_lat": 0.0, "is_disabled": 0}, {"rental_uris": {"android": "https://dc.lft.to/lastmile_qr_scan", "ios": "https://dc.lft.to/lastmile_qr_scan"}, "lon": -77.0503135, "name": "26f8b8a0e731e4c0bc92bd61fb65d89f", "fusion_lon": 0.0, "bike_id": "26f8b8a0e731e4c0bc92bd61fb65d89f", "is_reserved": 0, "type": "electric_scooter", "lat": 38.923616, "fusion_lat": 0.0, "is_disabled": 0}, {"rental_uris": {"android": "https://dc.lft.to/lastmile_qr_scan", "ios": "https://dc.lft.to/lastmile_qr_scan"}, "lon": -77.03183916666667, "name": "a80e866c09931a633871860dadca1103", "fusion_lon": 0.0, "bike_id": "a80e866c09931a633871860dadca1103", "is_reserved": 0, "type": "electric_scooter", "lat": 38.89225016666666, "fusion_lat": 0.0, "is_disabled": 0}, {"rental_uris": {"android": "https://dc.lft.to/lastmile_qr_scan", "ios": "https://dc.lft.to/lastmile_qr_scan"}, "lon": -77.04879133333333, "name": "85a0ec7124c50798c64b9371a64da22b", "fusion_lon": 0.0, "bike_id": "85a0ec7124c50798c64b9371a64da22b", "is_reserved": 0, "type": "electric_scooter", "lat": 38.89854666666667, "fusion_lat": 0.0, "is_disabled": 0}, {"rental_uris": {"android": "https://dc.lft.to/lastmile_qr_scan", "ios": "https://dc.lft.to/lastmile_qr_scan"}, "lon": -77.0035775, "name": "75b221d2d138283f53313312e81c6086", "fusion_lon": 0.0, "bike_id": "75b221d2d138283f53313312e81c6086", "is_reserved": 0, "type": "electric_scooter", "lat": 38.883011833333335, "fusion_lat": 0.0, "is_disabled": 0},