{"data": {"bikes": [{"is_reserved": 0, "is_disabled": 0, "fusion_lon": 0.0, "lat": 38.92107683333333, "name": "a335cbade76b45ea51bed4a8ce3477b3", "bike_id": "a335cbade76b45ea51bed4a8ce3477b3", "lon": -77.017783, "fusion_lat": 0.0, "rental_uris": {"android": "https://dc.lft.to/lastmile_qr_scan", "ios": "https://dc.lft.to/lastmile_qr_scan"}, "type": "electric_scooter"}, {"is_reserved": 0, "is_disabled": 0, "fusion_lon": 0.0, "lat": 38.90717183333334, "name": "74fbce1ba87b4b9253a2e4b1d9f1bc7e", "bike_id": "74fbce1ba87b4b9253a2e4b1d9f1bc7e", "lon": -77.02969633333333, "fusion_lat": 0.0, "rental_uris": {"android": "https://dc.lft.to/lastmile_qr_scan", "ios": "https://dc.lft.to/lastmile_qr_scan"}, "type": "electric_scooter"}, {"is_reserved": 0, "is_disabled": 0, "fusion_lon": 0.0, "lat": 38.901658833333336, "name": "59806c329e152c3d8db66fc6fa0902a4", "bike_id": "59806c329e152c3d8db66fc6fa0902a4", "lon": -76.9807855, "fusion_lat": 0.0, "rental_uris": {"android": "https://dc.lft.to/lastmile_qr_scan", "ios": "https://dc.lft.to/lastmile_qr_scan"}, "type": "electric_scooter"}, {"is_reserved": 0, "is_disabled": 0, "fusion_lon": 0.0, "lat": 38.9171085, "name": "285f06d1299113e52eb51cf35950196a", "bike_id": "285f06d1299113e52eb51cf35950196a", "lon": -77.00514016666666, "fusion_lat": 0.0, "rental_uris": {"android": "https://dc.lft.to/lastmile_qr_scan", "ios": "https://dc.lft.to/lastmile_qr_scan"}, "type": "electric_scooter"}, {"is_reserved": 0, "is_disabled": 0, "fusion_lon": 0.0, "lat": 38.89472166666667, "name": "331d368af995c1806316e2d60055d8b6", "bike_id": "331d368af995c1806316e2d60055d8b6", "lon": -76.99438616666667, "fusion_lat": 0.0, "rental_uris": {"android": "https://dc.lft.to/lastmile_qr_scan", "ios": "https://dc.lft.to/lastmile_qr_scan"}, "type": "electric_scooter"}, {"is_reserved": 0, "is_disabled": 0, "fusion_lon": 0.0, "lat": 38.9170635, "name": "5510f6f36296422899ea277291c96494", "bike_id": "5510f6f36296422899ea277291c96494", "lon": -77.032076, "fusion_lat": 0.0, "rental_uris": {"android": "https://dc.lft.to/lastmile_qr_scan", "ios": "https://dc.lft.to/lastmile_qr_scan"}, "type": "electric_scooter"}, {"is_reserved": 0, "is_disabled": 0, "fusion_lon": 0.0, "lat": 38.92759266666667, "name": "cd6a9ce59715f0f26d1fc831d9fc4153", "bike_id": "cd6a9ce59715f0f26d1fc831d9fc4153", "lon": -77.0320945, "fusion_lat": 0.0, "rental_uris": {"android": "https://dc.lft.to/lastmile_qr_scan", "ios": "https://dc.lft.to/lastmile_qr_scan"}, "type": "electric_scooter"}, {"is_reserved": 0, "is_disabled": 0, "fusion_lon": 0.0, "lat": 38.99890116666667, "name": "dbb9edfc09c2b2f141005d5dcd2bf1b6", "bike_id": "dbb9edfc09c2b2f141005d5dcd2bf1b6", "lon": -76.90858216666666, "fusion_lat": 0.0, "rental_uris": {"android": "https://dc.lft.to/lastmile_qr_scan", "ios": "https://dc.lft.to/lastmile_qr_scan"}, "type": "electric_bike"}, {"is_reserved": 0, "is_disabled": 0, "fusion_lon": 0.0, "lat": 38.9278555, "name": "a6c00bf4b27fed515b0aa09746131b63", "bike_id": "a6c00bf4b27fed515b0aa09746131b63", "lon": -76.9962435, "fusion_lat": 0.0, "rental_uris": {"android": "https://dc.lft.to/lastmile_qr_scan", "ios": "https://dc.lft.to/lastmile_qr_scan"}, "type": "electric_scooter"}, {"is_reserved": 0, "is_disabled": 0, "fusion_lon": 0.0, "lat": 38.87039016666667, "name": "9b77e000f2dccd0a6f014ee4311e41a5", "bike_id": "9b77e000f2dccd0a6f014ee4311e41a5", "lon": -77.229068, "fusion_lat": 0.0, "rental_uris": {"android": "https://dc.lft.to/lastmile_qr_scan", "ios": "https://dc.lft.to/lastmile_qr_scan"}, "type": "electric_bike"}, {"is_reserved": 0, "is_disabled": 0, "fusion_lon": 0.0, "lat": 38.90435316666667, "name": "2bfc32e1fc684b3e9d404282cb1d1073", "bike_id": "2bfc32e1fc684b3e9d404282cb1d1073", "lon": -77.036418, "fusion_lat": 0.0, "rental_uris": {"android": "https://dc.lft.to/lastmile_qr_scan", "ios": "https://dc.lft.to/lastmile_qr_scan"}, "type": "electric_scooter"}, {"is_reserved": 0, "is_disabled": 0, "fusion_lon": 0.0, "lat": 38.903957166666665, "name": "a1a8307bf22449a58f5ef9419e6e77ce", "bike_id": "a1a8307bf22449a58f5ef9419e6e77ce", "lon": -77.00437883333333, "fusion_lat": 0.0, "rental_uris": {"android": "https://dc.lft.to/lastmile_qr_scan", "ios": "https://dc.lft.to/lastmile_qr_scan"}, "type": "electric_scooter"}, {"is_reserved": 0, "is_disabled": 0, "fusion_lon": 0.0, "lat": 38.932412666666664, "name": "4f39aa95ec727b75d00050ee7207c773", "bike_id": "4f39aa95ec727b75d00050ee7207c773", "lon": -77.03279716666667, "fusion_lat": 0.0, "rental_uris": {"android": "https://dc.lft.to/lastmile_qr_scan", "ios": "https://dc.lft.to/lastmile_qr_scan"}, "type": "electric_scooter"}, {"is_reserved": 0, "is_disabled": 0, "fusion_lon": 0.0, "lat": 38.9026175, "name": "c929199116f29ef32d466ae2922df0fe", "bike_id": "c929199116f29ef32d466ae2922df0fe", "lon": -77.011306, "fusion_lat": 0.0, "rental_uris": {"android": "https://dc.lft.to/lastmile_qr_scan", "ios": "https://dc.lft.to/lastmile_qr_scan"}, "type": "electric_scooter"}, {"is_reserved": 0, "is_disabled": 0, "fusion_lon": 0.0, "lat": 38.89883183333333, "name": "b4958f8d38de6ea667c60903dbfcf3e8", "bike_id": "b4958f8d38de6ea667c60903dbfcf3e8", "lon": -76.93177783333333, "fusion_lat": 0.0, "rental_uris": {"android": "https://dc.lft.to/lastmile_qr_scan", "ios": "https://dc.lft.to/lastmile_qr_scan"}, "type": "electric_scooter"}, {"is_reserved": 0, "is_disabled": 0, "fusion_lon": 0.0, "lat": 38.92381366666667, "name": "beb87f8f651a8f7e330a24666c7b75dd", "bike_id": "beb87f8f651a8f7e330a24666c7b75dd", "lon": -77.0313425, "fusion_lat": 0.0, "rental_uris": {"android": "https://dc.lft.to/lastmile_qr_scan", "ios": "https://dc.lft.to/lastmile_qr_scan"}, "type": "electric_scooter"}, {"is_reserved": 0, "is_disabled": 0, "fusion_lon": 0.0, "lat": 38.918705833333334, "name": "1957421c05e683c22e17758b9b954b86", "bike_id": "1957421c05e683c22e17758b9b954b86", "lon": -77.04485966666667, "fusion_lat": 0.0, "rental_uris": {"android": "https://dc.lft.to/lastmile_qr_scan", "ios": "https://dc.lft.to/lastmile_qr_scan"}, "type": "electric_scooter"}, {"is_reserved": 0, "is_disabled": 0, "fusion_lon": 0.0, "lat": 38.924743666666664, "name": "6c3184c6cb1e046385e925dfc1f10a05", "bike_id": "6c3184c6cb1e046385e925dfc1f10a05", "lon": -77.03940033333333, "fusion_lat": 0.0, "rental_uris": {"android": "https://dc.lft.to/lastmile_qr_scan", "ios": "https://dc.lft.to/lastmile_qr_scan"}, "type": "electric_scooter"}, {"is_reserved": 0, "is_disabled": 0, "fusion_lon": 0.0, "lat": 38.922896333333334, "name": "cca6a9151b9e7fc2d48d266acb47adb0", "bike_id": "cca6a9151b9e7fc2d48d266acb47adb0", "lon": -77.04222483333334, "fusion_lat": 0.0, "rental_uris": {"android": "https://dc.lft.to/lastmile_qr_scan", "ios": "https://dc.lft.to/lastmile_qr_scan"}, "type": "electric_scooter"}, {"is_reserved": 0, "is_disabled": 0, "fusion_lon": 0.0, "lat": 38.965598666666665, "name": "d2e6ae4b5623a559cd2d0b4128ac4e27", "bike_id": "d2e6ae4b5623a559cd2d0b4128ac4e27", "lon": -77.0282405, "fusion_lat": 0.0, "rental_uris": {"android": "https://dc.lft.to/lastmile_qr_scan", "ios": "https://dc.lft.to/lastmile_qr_scan"}, "type": "electric_bike"}, {"is_reserved": 0, "is_disabled": 0, "fusion_lon": 0.0, "lat": 38.912719333333335, "name": "f969eeb6ba0f6c106d0394e458d2f10e", "bike_id": "f969eeb6ba0f6c106d0394e458d2f10e", "lon": -77.02212766666666, "fusion_lat": 0.0, "rental_uris": {"android": "https://dc.lft.to/lastmile_qr_scan", "ios": "https://dc.lft.to/lastmile_qr_scan"}, "type": "electric_scooter"}, {"is_reserved": 0, "is_disabled": 0, "fusion_lon": 0.0, "lat": 38.9268245, "name": "c6f699e67081851de54383f942f69d13", "bike_id": "c6f699e67081851de54383f942f69d13", "lon": -77.02786216666667, "fusion_lat": 0.0, "rental_uris": {"android": "https://dc.lft.to/lastmile_qr_scan", "ios": "https://dc.lft.to/lastmile_qr_scan"}, "type": "electric_scooter"}, {"is_reserved": 0, "is_disabled": 0, "fusion_lon": 0.0, "lat": 38.924909666666665, "name": "a6f9b058a784be0978ff6b1d7fa1fdc8", "bike_id": "a6f9b058a784be0978ff6b1d7fa1fdc8", "lon": -77.073373, "fusion_lat": 0.0, "rental_uris": {"android": "https://dc.lft.to/lastmile_qr_scan", "ios": "https://dc.lft.to/lastmile_qr_scan"}, "type": "electric_scooter"}, {"is_reserved": 0, "is_disabled": 0, "fusion_lon": 0.0, "lat": 38.877868, "name": "87eb234d04c52be5efb72e5722dd100d", "bike_id": "87eb234d04c52be5efb72e5722dd100d", "lon": -76.994144, "fusion_lat": 0.0, "rental_uris": {"android": "https://dc.lft.to/lastmile_qr_scan", "ios": "https://dc.lft.to/lastmile_qr_scan"}, "type": "electric_scooter"}, {"is_reserved": 0, "is_disabled": 0, "fusion_lon": 0.0, "lat": 38.897377666666664, "name": "e78d8b5b2f4f94cdbcfc18376169fa8d", "bike_id": "e78d8b5b2f4f94cdbcfc18376169fa8d", "lon": -77.02493816666667, "fusion_lat": 0.0, "rental_uris": {"android": "https://dc.lft.to/lastmile_qr_scan", "ios": "https://dc.lft.to/lastmile_qr_scan"}, "type": "electric_scooter"}, {"is_reserved": 0, "is_disabled": 0, "fusion_lon": 0.0, "lat": 38.92364333333333, "name": "68cf27a5b88212d94e960a12cf700e4c", "bike_id": "68cf27a5b88212d94e960a12cf700e4c", "lon": -77.05028116666666, "fusion_lat": 0.0, "rental_uris": {"android": "https://dc.lft.to/lastmile_qr_scan", "ios": "https://dc.lft.to/lastmile_qr_scan"}, "type": "electric_scooter"}, {"is_reserved": 0, "is_disabled": 0, "fusion_lon": 0.0, "lat": 38.922379, "name": "60a60f3c533617bc751ab41a66273782", "bike_id": "60a60f3c533617bc751ab41a66273782", "lon": -77.03661233333334, "fusion_lat": 0.0, "rental_uris": {"android": "https://dc.lft.to/lastmile_qr_scan", "ios": "https://dc.lft.to/lastmile_qr_scan"}, "type": "electric_scooter"}, {"is_reserved": 0, "is_disabled": 0, "fusion_lon": 0.0, "lat": 38.92215766666666, "name": "8b7187dcb2c2296e57a69349d2541e99", "bike_id": "8b7187dcb2c2296e57a69349d2541e99", "lon": -77.04261566666666, "fusion_lat": 0.0, "rental_uris": {"android": "https://dc.lft.to/lastmile_qr_scan", "ios": "https://dc.lft.to/lastmile_qr_scan"}, "type": "electric_scooter"}, {"is_reserved": 0, "is_disabled": 0, "fusion_lon": 0.0, "lat": 38.91774383333333, "name": "62da37c0700516b76f77c15beea4a6f8", "bike_id": "62da37c0700516b76f77c15beea4a6f8", "lon": -77.02306283333333, "fusion_lat": 0.0, "rental_uris": {"android": "https://dc.lft.to/lastmile_qr_scan", "ios": "https://dc.lft.to/lastmile_qr_scan"}, "type": "electric_scooter"}, {"is_reserved": 0, "is_disabled": 0, "fusion_lon": 0.0, "lat": 38.913306666666664, "name": "311fb9c9a2f081f913112d2bbf4ca97e", "bike_id": "311fb9c9a2f081f913112d2bbf4ca97e", "lon": -77.01512066666666, "fusion_lat": 0.0, "rental_uris": {"android": "https://dc.lft.to/lastmile_qr_scan", "ios": "https://dc.lft.to/lastmile_qr_scan"}, "type": "electric_scooter"}, {"is_reserved": 0, "is_disabled": 0, "fusion_lon": 0.0, "lat": 38.901453333333336, "name": "97bf88a6de62bbb7c7d92d74e8fa5755", "bike_id": "97bf88a6de62bbb7c7d92d74e8fa5755", "lon": -76.97423533333334, "fusion_lat": 0.0, "rental_uris": {"android": "https://dc.lft.to/lastmile_qr_scan", "ios": "https://dc.lft.to/lastmile_qr_scan"}, "type": "electric_scooter"}, {"is_reserved": 0, "is_disabled": 0, "fusion_lon": 0.0, "lat": 38.946523, "name": "8dc2d25fbcfd7e3deef33a395fbb5569", "bike_id": "8dc2d25fbcfd7e3deef33a395fbb5569", "lon": -77.02249433333333, "fusion_lat": 0.0, "rental_uris": {"android": "https://dc.lft.to/lastmile_qr_scan", "ios": "https://dc.lft.to/lastmile_qr_scan"}, "type": "electric_scooter"}, {"is_reserved": 0, "is_disabled": 0, "fusion_lon": 0.0, "lat": 38.930809333333336, "name": "bc04d5e5a9f224d61f0e850cb3965c3f", "bike_id": "bc04d5e5a9f224d61f0e850cb3965c3f", "lon": -77.02336216666667, "fusion_lat": 0.0, "rental_uris": {"android": "https://dc.lft.to/lastmile_qr_scan", "ios": "https://dc.lft.to/lastmile_qr_scan"}, "type": "electric_scooter"}, {"is_reserved": 0, "is_disabled": 0, "fusion_lon": 0.0, "lat": 38.90971166666667, "name": "59d9fdcf4739fdca6cdcc1db2b887ab2", "bike_id": "59d9fdcf4739fdca6cdcc1db2b887ab2", "lon": -77.04520783333334, "fusion_lat": 0.0, "rental_uris": {"android": "https://dc.lft.to/lastmile_qr_scan", "ios": "https://dc.lft.to/lastmile_qr_scan"}, "type": "electric_scooter"}, {"is_reserved": 0, "is_disabled": 0, "fusion_lon": 0.0, "lat": 38.913280666666665, "name": "15fc789ba3147abf3e620ea42e834090", "bike_id": "15fc789ba3147abf3e620ea42e834090", "lon": -77.03680616666666, "fusion_lat": 0.0, "rental_uris": {"android": "https://dc.lft.to/lastmile_qr_scan", "ios": "https://dc.lft.to/lastmile_qr_scan"}, "type": "electric_scooter"}, {"is_reserved": 0, "is_disabled": 0, "fusion_lon": 0.0, "lat": 38.896031, "name": "5d7a54f74fa3c08c047b36c53f50bd61", "bike_id": "5d7a54f74fa3c08c047b36c53f50bd61", "lon": -77.04429383333333, "fusion_lat": 0.0, "rental_uris": {"android": "https://dc.lft.to/lastmile_qr_scan", "ios": "https://dc.lft.to/lastmile_qr_scan"}, "type": "electric_scooter"}, {"is_reserved": 0, "is_disabled": 0, "fusion_lon": 0.0, "lat": 38.918597, "name": "00ef95d0ad222c99d95fd867ab7113eb", "bike_id": "00ef95d0ad222c99d95fd867ab7113eb", "lon": -76.96086333333334, "fusion_lat": 0.0, "rental_uris": {"android": "https://dc.lft.to/lastmile_qr_scan", "ios": "https://dc.lft.to/lastmile_qr_scan"}, "type": "electric_bike"}, {"is_reserved": 0, "is_disabled": 0, "fusion_lon": 0.0, "lat": 38.919640666666666, "name": "c2e8c8a2d2009fa66de742b925afa696", "bike_id": "c2e8c8a2d2009fa66de742b925afa696", "lon": -77.0143905, "fusion_lat": 0.0, "rental_uris": {"android": "https://dc.lft.to/lastmile_qr_scan", "ios": "https://dc.lft.to/lastmile_qr_scan"}, "type": "electric_scooter"}, {"is_reserved": 0, "is_disabled": 0, "fusion_lon": 0.0, "lat": 38.9016795, "name": "da8866fed64edbc26e98b172056387c4", "bike_id": "da8866fed64edbc26e98b172056387c4", "lon": -76.94980383333333, "fusion_lat": 0.0, "rental_uris": {"android": "https://dc.lft.to/lastmile_qr_scan", "ios": "https://dc.lft.to/lastmile_qr_scan"}, "type": "electric_scooter"}, {"is_reserved": 0, "is_disabled": 0, "fusion_lon": 0.0, "lat": 38.9359135, "name": "a464d9f5556693cf9ba05735d35a4dd3", "bike_id": "a464d9f5556693cf9ba05735d35a4dd3", "lon": -77.0584375, "fusion_lat": 0.0, "rental_uris": {"android": "https://dc.lft.to/lastmile_qr_scan", "ios": "https://dc.lft.to/lastmile_qr_scan"}, "type": "electric_scooter"}, {"is_reserved": 0, "is_disabled": 0, "fusion_lon": 0.0, "lat": 38.9211795, "name": "0d75e144d93a9d310e927925a75fdcad", "bike_id": "0d75e144d93a9d310e927925a75fdcad", "lon": -77.04386033333333, "fusion_lat": 0.0, "rental_uris": {"android": "https://dc.lft.to/lastmile_qr_scan", "ios": "https://dc.lft.to/lastmile_qr_scan"}, "type": "electric_scooter"}, {"is_reserved": 0, "is_disabled": 0, "fusion_lon": 0.0, "lat": 38.92651033333333, "name": "0bb6981a4d1b6794dab62a6e7fd5e26d", "bike_id": "0bb6981a4d1b6794dab62a6e7fd5e26d", "lon": -77.09026266666666, "fusion_lat": 0.0, "rental_uris": {"android": "https://dc.lft.to/lastmile_qr_scan", "ios": "https://dc.lft.to/lastmile_qr_scan"}, "type": "electric_bike"}, {"is_reserved": 0, "is_disabled": 0, "fusion_lon": 0.0, "lat": 38.89247116666667, "name": "d88e6c240e7cfd0ecc4f58f32962cc15", "bike_id": "d88e6c240e7cfd0ecc4f58f32962cc15", "lon": -77.03182983333333, "fusion_lat": 0.0, "rental_uris": {"android": "https://dc.lft.to/lastmile_qr_scan", "ios": "https://dc.lft.to/lastmile_qr_scan"}, "type": "electric_scooter"}, {"is_reserved": 0, "is_disabled": 0, "fusion_lon": 0.0, "lat": 38.884604, "name": "6e0fca922fbcaad33c84d859da5a0d65", "bike_id": "6e0fca922fbcaad33c84d859da5a0d65", "lon": -76.926205, "fusion_lat": 0.0, "rental_uris": {"android": "https://dc.lft.to/lastmile_qr_scan", "ios": "https://dc.lft.to/lastmile_qr_scan"}, "type": "electric_scooter"}, {"is_reserved": 0, "is_disabled": 0, "fusion_lon": 0.0, "lat": 38.90368816666667, "name": "bc3cc3212762829f7d3ef3ac8655b1c9", "bike_id": "bc3cc3212762829f7d3ef3ac8655b1c9", "lon": -77.01866183333334, "fusion_lat": 0.0, "rental_uris": {"android": "https://dc.lft.to/lastmile_qr_scan", "ios": "https://dc.lft.to/lastmile_qr_scan"}, "type": "electric_scooter"}, {"is_reserved": 0, "is_disabled": 0, "fusion_lon": 0.0, "lat": 38.91815283333333, "name": "2c1cc49648b8c3bddeb1706b985dee05", "bike_id": "2c1cc49648b8c3bddeb1706b985dee05", "lon": -77.024774, "fusion_lat": 0.0, "rental_uris": {"android": "https://dc.lft.to/lastmile_qr_scan", "ios": "https://dc.lft.to/lastmile_qr_scan"}, "type": "electric_scooter"}, {"is_reserved": 0, "is_disabled": 0, "fusion_lon": 0.0, "lat": 38.84968666666666, "name": "324874ebdea74368ef76130e25d3ceb6", "bike_id": "324874ebdea74368ef76130e25d3ceb6", "lon": -77.0892445, "fusion_lat": 0.0, "rental_uris": {"android": "https://dc.lft.to/lastmile_qr_scan", "ios": "https://dc.lft.to/lastmile_qr_scan"}, "type": "electric_bike"}, {"is_reserved": 0, "is_disabled": 0, "fusion_lon": 0.0, "lat": 38.911303333333336, "name": "a88c7cd86acc0454dc321e14597eebad", "bike_id": "a88c7cd86acc0454dc321e14597eebad", "lon": -77.021973, "fusion_lat": 0.0, "rental_uris": {"android": "https://dc.lft.to/lastmile_qr_scan", "ios": "https://dc.lft.to/lastmile_qr_scan"}, "type": "electric_scooter"}, {"is_reserved": 0, "is_disabled": 0, "fusion_lon": 0.0, "lat": 38.92184533333333, "name": "14a24d7fb037c3f4bb01de9d880345a0", "bike_id": "14a24d7fb037c3f4bb01de9d880345a0", "lon": -77.0366015, "fusion_lat": 0.0, "rental_uris": {"android": "https://dc.lft.to/lastmile_qr_scan", "ios": "https://dc.lft.to/lastmile_qr_scan"}, "type": "electric_scooter"}, {"is_reserved": 0, "is_disabled": 0, "fusion_lon": 0.0, "lat": 38.9019125, "name": "7f42d915e46a9d78194d6a19f6558af1", "bike_id": "7f42d915e46a9d78194d6a19f6558af1", "lon": -77.01257783333334, "fusion_lat": 0.0, "rental_uris": {"android": "https://dc.lft.to/lastmile_qr_scan", "ios": "https://dc.lft.to/lastmile_qr_scan"}, "type": "electric_scooter"}, {"is_reserved": 0, "is_disabled": 0, "fusion_lon": 0.0, "lat": 38.90260416666667, "name": "7c2db31b71ae95c754a3a769d92bbac8", "bike_id": "7c2db31b71ae95c754a3a769d92bbac8", "lon": -77.017571, "fusion_lat": 0.0, "rental_uris": {"android": "https://dc.lft.to/lastmile_qr_scan", "ios": "https://dc.lft.to/lastmile_qr_scan"}, "type": "electric_scooter"}, {"is_reserved": 0, "is_disabled": 0, "fusion_lon": 0.0, "lat": 38.93384266666666, "name": "db6c1df8789f2f4fb7741cbc15e8b4db", "bike_id": "db6c1df8789f2f4fb7741cbc15e8b4db", "lon": -77.02644216666667, "fusion_lat": 0.0, "rental_uris": {"android": "https://dc.lft.to/lastmile_qr_scan", "ios": "https://dc.lft.to/lastmile_qr_scan"}, "type": "electric_scooter"}, {"is_reserved": 0, "is_disabled": 0, "fusion_lon": 0.0, "lat": 38.91685183333333, "name": "ec52a9dc9537a7c9f2215b81a128763f", "bike_id": "ec52a9dc9537a7c9f2215b81a128763f", "lon": -77.03770216666666, "fusion_lat": 0.0, "rental_uris": {"android": "https://dc.lft.to/lastmile_qr_scan", "ios": "https://dc.lft.to/lastmile_qr_scan"}, "type": "electric_scooter"}, {"is_reserved": 0, "is_disabled": 0, "fusion_lon": 0.0, "lat": 38.90336716666667, "name": "4369621118a978d1dca2f8605b64b4c4", "bike_id": "4369621118a978d1dca2f8605b64b4c4", "lon": -76.975759, "fusion_lat": 0.0, "rental_uris": {"android": "https://dc.lft.to/lastmile_qr_scan", "ios": "https://dc.lft.to/lastmile_qr_scan"}, "type": "electric_scooter"}, {"is_reserved": 0, "is_disabled": 0, "fusion_lon": 0.0, "lat": 38.921503666666666, "name": "e1d9472dc03872f7686439703a44afc1", "bike_id": "e1d9472dc03872f7686439703a44afc1", "lon": -77.03506166666666, "fusion_lat": 0.0, "rental_uris": {"android": "https://dc.lft.to/lastmile_qr_scan", "ios": "https://dc.lft.to/lastmile_qr_scan"}, "type": "electric_scooter"}, {"is_reserved": 0, "is_disabled": 0, "fusion_lon": 0.0, "lat": 38.837428, "name": "eb84de4ade8bb6de5fc610b09387637c", "bike_id": "eb84de4ade8bb6de5fc610b09387637c", "lon": -76.9986375, "fusion_lat": 0.0, "rental_uris": {"android": "https://dc.lft.to/lastmile_qr_scan", "ios": "https://dc.lft.to/lastmile_qr_scan"}, "type": "electric_scooter"}, {"is_reserved": 0, "is_disabled": 0, "fusion_lon": 0.0, "lat": 38.89220483333333, "name": "bf1b77bbc71954131f689c215d27dec2", "bike_id": "bf1b77bbc71954131f689c215d27dec2", "lon": -77.02630766666667, "fusion_lat": 0.0, "rental_uris": {"android": "https://dc.lft.to/lastmile_qr_scan", "ios": "https://dc.lft.to/lastmile_qr_scan"}, "type": "electric_scooter"}, {"is_reserved": 0, "is_disabled": 0, "fusion_lon": 0.0, "lat": 38.894929833333336, "name": "cf85eb9ea7d7d79d5d605ff34eb05453", "bike_id": "cf85eb9ea7d7d79d5d605ff34eb05453", "lon": -76.94892333333334, "fusion_lat": 0.0, "rental_uris": {"android": "https://dc.lft.to/lastmile_qr_scan", "ios": "https://dc.lft.to/lastmile_qr_scan"}, "type": "electric_scooter"}, {"is_reserved": 0, "is_disabled": 0, "fusion_lon": 0.0, "lat": 38.87941433333334, "name": "508d80ca6a72c438140375a05b43a9d2", "bike_id": "508d80ca6a72c438140375a05b43a9d2", "lon": -76.983868, "fusion_lat": 0.0, "rental_uris": {"android": "https://dc.lft.to/lastmile_qr_scan", "ios": "https://dc.lft.to/lastmile_qr_scan"}, "type": "electric_scooter"}, {"is_reserved": 0, "is_disabled": 0, "fusion_lon": 0.0, "lat": 38.88372733333333, "name": "3d49c88dade1b6a16ce924872a5b42f1", "bike_id": "3d49c88dade1b6a16ce924872a5b42f1", "lon": -76.995186, "fusion_lat": 0.0, "rental_uris": {"android": "https://dc.lft.to/lastmile_qr_scan", "ios": "https://dc.lft.to/lastmile_qr_scan"}, "type": "electric_scooter"}, {"is_reserved": 0, "is_disabled": 0, "fusion_lon": 0.0, "lat": 38.923702, "name": "4bd926298f096d1dbe5a313be12dd7cb", "bike_id": "4bd926298f096d1dbe5a313be12dd7cb", "lon": -77.0298035, "fusion_lat": 0.0, "rental_uris": {"android": "https://dc.lft.to/lastmile_qr_scan", "ios": "https://dc.lft.to/lastmile_qr_scan"}, "type": "electric_scooter"}, {"is_reserved": 0, "is_disabled": 0, "fusion_lon": 0.0, "lat": 38.8793605, "name": "95d83d5be04530aa7031fa7e55043617", "bike_id": "95d83d5be04530aa7031fa7e55043617", "lon": -77.0082385, "fusion_lat": 0.0, "rental_uris": {"android": "https://dc.lft.to/lastmile_qr_scan", "ios": "https://dc.lft.to/lastmile_qr_scan"}, "type": "electric_scooter"}, {"is_reserved": 0, "is_disabled": 0, "fusion_lon": 0.0, "lat": 38.907068, "name": "5f74292d02c3d7b5f4d8b1fc825b625c", "bike_id": "5f74292d02c3d7b5f4d8b1fc825b625c", "lon": -77.0008325, "fusion_lat": 0.0, "rental_uris": {"android": "https://dc.lft.to/lastmile_qr_scan", "ios": "https://dc.lft.to/lastmile_qr_scan"}, "type": "electric_bike"}, {"is_reserved": 0, "is_disabled": 0, "fusion_lon": 0.0, "lat": 39.00380116666667, "name": "9015085412580d78a30156aa2c5896bd", "bike_id": "9015085412580d78a30156aa2c5896bd", "lon": -77.01300033333334, "fusion_lat": 0.0, "rental_uris": {"android": "https://dc.lft.to/lastmile_qr_scan", "ios": "https://dc.lft.to/lastmile_qr_scan"}, "type": "electric_bike"}, {"is_reserved": 0, "is_disabled": 0, "fusion_lon": 0.0, "lat": 38.93461816666667, "name": "5c1a78b88b241b90161feb2005a88075", "bike_id": "5c1a78b88b241b90161feb2005a88075", "lon": -77.0580965, "fusion_lat": 0.0, "rental_uris": {"android": "https://dc.lft.to/lastmile_qr_scan", "ios": "https://dc.lft.to/lastmile_qr_scan"}, "type": "electric_scooter"}, {"is_reserved": 0, "is_disabled": 0, "fusion_lon": 0.0, "lat": 38.95732783333333, "name": "a21c199aa025b7f30ddfd310dd74b5c7", "bike_id": "a21c199aa025b7f30ddfd310dd74b5c7", "lon": -77.02403933333333, "fusion_lat": 0.0, "rental_uris": {"android": "https://dc.lft.to/lastmile_qr_scan", "ios": "https://dc.lft.to/lastmile_qr_scan"}, "type": "electric_scooter"}, {"is_reserved": 0, "is_disabled": 0, "fusion_lon": 0.0, "lat": 38.92475966666667, "name": "e1bbd49277f084d2092a42df831b8c03", "bike_id": "e1bbd49277f084d2092a42df831b8c03", "lon": -77.03000916666667, "fusion_lat": 0.0, "rental_uris": {"android": "https://dc.lft.to/lastmile_qr_scan", "ios": "https://dc.lft.to/lastmile_qr_scan"}, "type": "electric_scooter"}, {"is_reserved": 0, "is_disabled": 0, "fusion_lon": 0.0, "lat": 38.92858966666667, "name": "e0818ae3e9b542d1939d594d9ca32765", "bike_id": "e0818ae3e9b542d1939d594d9ca32765", "lon": -76.99010483333333, "fusion_lat": 0.0, "rental_uris": {"android": "https://dc.lft.to/lastmile_qr_scan", "ios": "https://dc.lft.to/lastmile_qr_scan"}, "type": "electric_bike"}, {"is_reserved": 0, "is_disabled": 0, "fusion_lon": 0.0, "lat": 38.9007945, "name": "44caf10ee1c1960810b6feba16ff0225", "bike_id": "44caf10ee1c1960810b6feba16ff0225", "lon": -77.0177415, "fusion_lat": 0.0, "rental_uris": {"android": "https://dc.lft.to/lastmile_qr_scan", "ios": "https://dc.lft.to/lastmile_qr_scan"}, "type": "electric_scooter"}, {"is_reserved": 0, "is_disabled": 0, "fusion_lon": 0.0, "lat": 38.906861, "name": "6564a6a734605582c4ff63cba366fb7d", "bike_id": "6564a6a734605582c4ff63cba366fb7d", "lon": -77.02694083333333, "fusion_lat": 0.0, "rental_uris": {"android": "https://dc.lft.to/lastmile_qr_scan", "ios": "https://dc.lft.to/lastmile_qr_scan"}, "type": "electric_scooter"}, {"is_reserved": 0, "is_disabled": 0, "fusion_lon": 0.0, "lat": 38.90961266666667, "name": "86e0b3c9c43c80bab37f4a5bfeec1b1f", "bike_id": "86e0b3c9c43c80bab37f4a5bfeec1b1f", "lon": -77.022796, "fusion_lat": 0.0, "rental_uris": {"android": "https://dc.lft.to/lastmile_qr_scan", "ios": "https://dc.lft.to/lastmile_qr_scan"}, "type": "electric_scooter"}, {"is_reserved": 0, "is_disabled": 0, "fusion_lon": 0.0, "lat": 38.92313983333333, "name": "2615fbdfac7e104535a098d570fc72a9", "bike_id": "2615fbdfac7e104535a098d570fc72a9", "lon": -77.0290495, "fusion_lat": 0.0, "rental_uris": {"android": "https://dc.lft.to/lastmile_qr_scan", "ios": "https://dc.lft.to/lastmile_qr_scan"}, "type": "electric_scooter"}, {"is_reserved": 0, "is_disabled": 0, "fusion_lon": 0.0, "lat": 38.936933, "name": "19af432a28fcc8c7e33f894669df2770", "bike_id": "19af432a28fcc8c7e33f894669df2770", "lon": -77.05613716666667, "fusion_lat": 0.0, "rental_uris": {"android": "https://dc.lft.to/lastmile_qr_scan", "ios": "https://dc.lft.to/lastmile_qr_scan"}, "type": "electric_scooter"}, {"is_reserved": 0, "is_disabled": 0, "fusion_lon": 0.0, "lat": 38.91916916666667, "name": "e7c877af32a48a0c5153b1ad991f00c8", "bike_id": "e7c877af32a48a0c5153b1ad991f00c8", "lon": -77.02620766666666, "fusion_lat": 0.0, "rental_uris": {"android": "https://dc.lft.to/lastmile_qr_scan", "ios": "https://dc.lft.to/lastmile_qr_scan"}, "type": "electric_scooter"}, {"is_reserved": 0, "is_disabled": 0, "fusion_lon": 0.0, "lat": 38.95112733333333, "name": "f142222ea0df5ca4b612a777081bb36f", "bike_id": "f142222ea0df5ca4b612a777081bb36f", "lon": -77.08868266666667, "fusion_lat": 0.0, "rental_uris": {"android": "https://dc.lft.to/lastmile_qr_scan", "ios": "https://dc.lft.to/lastmile_qr_scan"}, "type": "electric_bike"}, {"is_reserved": 0, "is_disabled": 0, "fusion_lon": 0.0, "lat": 38.89489866666667, "name": "76108ea5eeb172df2361fdb222656af4", "bike_id": "76108ea5eeb172df2361fdb222656af4", "lon": -76.948922, "fusion_lat": 0.0, "rental_uris": {"android": "https://dc.lft.to/lastmile_qr_scan", "ios": "https://dc.lft.to/lastmile_qr_scan"}, "type": "electric_scooter"}, {"is_reserved": 0, "is_disabled": 0, "fusion_lon": 0.0, "lat": 38.897134, "name": "7997b1a7937501fc4c2692a0e1fc57c1", "bike_id": "7997b1a7937501fc4c2692a0e1fc57c1", "lon": -77.0080045, "fusion_lat": 0.0, "rental_uris": {"android": "https://dc.lft.to/lastmile_qr_scan", "ios": "https://dc.lft.to/lastmile_qr_scan"}, "type": "electric_scooter"}, {"is_reserved": 0, "is_disabled": 0, "fusion_lon": 0.0, "lat": 38.906653666666664, "name": "4e98ddfbe56de0a97735d1a31d56ac20", "bike_id": "4e98ddfbe56de0a97735d1a31d56ac20", "lon": -77.02710633333334, "fusion_lat": 0.0, "rental_uris": {"android": "https://dc.lft.to/lastmile_qr_scan", "ios": "https://dc.lft.to/lastmile_qr_scan"}, "type": "electric_scooter"}, {"is_reserved": 0, "is_disabled": 0, "fusion_lon": 0.0, "lat": 38.852486999999996, "name": "f923a90982e1b717d91661d249e4a670", "bike_id": "f923a90982e1b717d91661d249e4a670", "lon": -77.11430233333333, "fusion_lat": 0.0, "rental_uris": {"android": "https://dc.lft.to/lastmile_qr_scan", "ios": "https://dc.lft.to/lastmile_qr_scan"}, "type": "electric_bike"}, {"is_reserved": 0, "is_disabled": 0, "fusion_lon": 0.0, "lat": 38.917188, "name": "64db1393f1181023b11e3e575f3b9885", "bike_id": "64db1393f1181023b11e3e575f3b9885", "lon": -77.02705583333334, "fusion_lat": 0.0, "rental_uris": {"android": "https://dc.lft.to/lastmile_qr_scan", "ios": "https://dc.lft.to/lastmile_qr_scan"}, "type": "electric_scooter"}, {"is_reserved": 0, "is_disabled": 0, "fusion_lon": 0.0, "lat": 38.9883845, "name": "a388a8d508cee38a32f4e8a817d40f3c", "bike_id": "a388a8d508cee38a32f4e8a817d40f3c", "lon": -77.02650016666666, "fusion_lat": 0.0, "rental_uris": {"android": "https://dc.lft.to/lastmile_qr_scan", "ios": "https://dc.lft.to/lastmile_qr_scan"}, "type": "electric_bike"}, {"is_reserved": 0, "is_disabled": 0, "fusion_lon": 0.0, "lat": 38.92164316666667, "name": "03fe0784b809bda8b2861e07684904b0", "bike_id": "03fe0784b809bda8b2861e07684904b0", "lon": -77.03327883333333, "fusion_lat": 0.0, "rental_uris": {"android": "https://dc.lft.to/lastmile_qr_scan", "ios": "https://dc.lft.to/lastmile_qr_scan"}, "type": "electric_scooter"}, {"is_reserved": 0, "is_disabled": 0, "fusion_lon": 0.0, "lat": 38.89751016666666, "name": "5a61dda4cd5aa53e1a7fe2285dbdf66b", "bike_id": "5a61dda4cd5aa53e1a7fe2285dbdf66b", "lon": -77.018998, "fusion_lat": 0.0, "rental_uris": {"android": "https://dc.lft.to/lastmile_qr_scan", "ios": "https://dc.lft.to/lastmile_qr_scan"}, "type": "electric_scooter"}, {"is_reserved": 0, "is_disabled": 0, "fusion_lon": 0.0, "lat": 38.914122666666664, "name": "944678016808c0492db703c8b3b305cb", "bike_id": "944678016808c0492db703c8b3b305cb", "lon": -77.03169716666666, "fusion_lat": 0.0, "rental_uris": {"android": "https://dc.lft.to/lastmile_qr_scan", "ios": "https://dc.lft.to/lastmile_qr_scan"}, "type": "electric_scooter"}, {"is_reserved": 0, "is_disabled": 0, "fusion_lon": 0.0, "lat": 38.8862355, "name": "7a3aad40e260f3193cbc2f8e732c1393", "bike_id": "7a3aad40e260f3193cbc2f8e732c1393", "lon": -77.03165816666667, "fusion_lat": 0.0, "rental_uris": {"android": "https://dc.lft.to/lastmile_qr_scan", "ios": "https://dc.lft.to/lastmile_qr_scan"}, "type": "electric_scooter"}, {"is_reserved": 0, "is_disabled": 0, "fusion_lon": 0.0, "lat": 38.92277133333333, "name": "45c326b80a674f117d34ffe8dce2e99e", "bike_id": "45c326b80a674f117d34ffe8dce2e99e", "lon": -77.02973866666666, "fusion_lat": 0.0, "rental_uris": {"android": "https://dc.lft.to/lastmile_qr_scan", "ios": "https://dc.lft.to/lastmile_qr_scan"}, "type": "electric_scooter"}, {"is_reserved": 0, "is_disabled": 0, "fusion_lon": 0.0, "lat": 38.897734666666665, "name": "ae9bb7eb3c1425047fd9cb65b88881cc", "bike_id": "ae9bb7eb3c1425047fd9cb65b88881cc", "lon": -77.02693683333334, "fusion_lat": 0.0, "rental_uris": {"android": "https://dc.lft.to/lastmile_qr_scan", "ios": "https://dc.lft.to/lastmile_qr_scan"}, "type": "electric_scooter"}, {"is_reserved": 0, "is_disabled": 0, "fusion_lon": 0.0, "lat": 38.94480333333333, "name": "e9fb3345eb0ef7833626b344e757a610", "bike_id": "e9fb3345eb0ef7833626b344e757a610", "lon": -77.063872, "fusion_lat": 0.0, "rental_uris": {"android": "https://dc.lft.to/lastmile_qr_scan", "ios": "https://dc.lft.to/lastmile_qr_scan"}, "type": "electric_scooter"}, {"is_reserved": 0, "is_disabled": 0, "fusion_lon": 0.0, "lat": 38.78304833333333, "name": "e6a651bd14f0021a335d1eb39870d2b5", "bike_id": "e6a651bd14f0021a335d1eb39870d2b5", "lon": -77.11410983333333, "fusion_lat": 0.0, "rental_uris": {"android": "https://dc.lft.to/lastmile_qr_scan", "ios": "https://dc.lft.to/lastmile_qr_scan"}, "type": "electric_bike"}, {"is_reserved": 0, "is_disabled": 0, "fusion_lon": 0.0, "lat": 38.89330833333333, "name": "fa337fcdcba0e38ff77f897ff8998938", "bike_id": "fa337fcdcba0e38ff77f897ff8998938", "lon": -76.93927516666666, "fusion_lat": 0.0, "rental_uris": {"android": "https://dc.lft.to/lastmile_qr_scan", "ios": "https://dc.lft.to/lastmile_qr_scan"}, "type": "electric_scooter"}, {"is_reserved": 0, "is_disabled": 0, "fusion_lon": 0.0, "lat": 38.926126833333335, "name": "542d92515c9b3fe14119252f751c64b9", "bike_id": "542d92515c9b3fe14119252f751c64b9", "lon": -77.02159, "fusion_lat": 0.0, "rental_uris": {"android": "https://dc.lft.to/lastmile_qr_scan", "ios": "https://dc.lft.to/lastmile_qr_scan"}, "type": "electric_scooter"}, {"is_reserved": 0, "is_disabled": 0, "fusion_lon": 0.0, "lat": 38.9018945, "name": "98867c77d7b21cd5517023ad371efec5", "bike_id": "98867c77d7b21cd5517023ad371efec5", "lon": -77.001225, "fusion_lat": 0.0, "rental_uris": {"android": "https://dc.lft.to/lastmile_qr_scan", "ios": "https://dc.lft.to/lastmile_qr_scan"}, "type": "electric_scooter"}, {"is_reserved": 0, "is_disabled": 0, "fusion_lon": 0.0, "lat": 38.92331733333333, "name": "ec9e8259ea16e970eb36da478b4ef6b6", "bike_id": "ec9e8259ea16e970eb36da478b4ef6b6", "lon": -77.05678383333333, "fusion_lat": 0.0, "rental_uris": {"android": "https://dc.lft.to/lastmile_qr_scan", "ios": "https://dc.lft.to/lastmile_qr_scan"}, "type": "electric_scooter"}, {"is_reserved": 0, "is_disabled": 0, "fusion_lon": 0.0, "lat": 38.87568516666666, "name": "7d8694a2f08815f86d0d377420a97b7e", "bike_id": "7d8694a2f08815f86d0d377420a97b7e", "lon": -77.00578766666666, "fusion_lat": 0.0, "rental_uris": {"android": "https://dc.lft.to/lastmile_qr_scan", "ios": "https://dc.lft.to/lastmile_qr_scan"}, "type": "electric_scooter"}, {"is_reserved": 0, "is_disabled": 0, "fusion_lon": 0.0, "lat": 38.89606066666666, "name": "9893ffea38d0362ea1bc1e927ad28500", "bike_id": "9893ffea38d0362ea1bc1e927ad28500", "lon": -77.04652266666666, "fusion_lat": 0.0, "rental_uris": {"android": "https://dc.lft.to/lastmile_qr_scan", "ios": "https://dc.lft.to/lastmile_qr_scan"}, "type": "electric_scooter"}, {"is_reserved": 0, "is_disabled": 0, "fusion_lon": 0.0, "lat": 38.9092915, "name": "46d21d1eb8eb0178d0d6465ed9e425c1", "bike_id": "46d21d1eb8eb0178d0d6465ed9e425c1", "lon": -76.98472333333333, "fusion_lat": 0.0, "rental_uris": {"android": "https://dc.lft.to/lastmile_qr_scan", "ios": "https://dc.lft.to/lastmile_qr_scan"}, "type": "electric_scooter"}, {"is_reserved": 0, "is_disabled": 0, "fusion_lon": 0.0, "lat": 38.924770333333335, "name": "8c119362d6a3f0803446cbff5aed9e9e", "bike_id": "8c119362d6a3f0803446cbff5aed9e9e", "lon": -77.0510745, "fusion_lat": 0.0, "rental_uris": {"android": "https://dc.lft.to/lastmile_qr_scan", "ios": "https://dc.lft.to/lastmile_qr_scan"}, "type": "electric_scooter"}, {"is_reserved": 0, "is_disabled": 0, "fusion_lon": 0.0, "lat": 38.90857716666667, "name": "2b0256a6f8dc37c80a447c81bb7f46bb", "bike_id": "2b0256a6f8dc37c80a447c81bb7f46bb", "lon": -77.01020283333334, "fusion_lat": 0.0, "rental_uris": {"android": "https://dc.lft.to/lastmile_qr_scan", "ios": "https://dc.lft.to/lastmile_qr_scan"}, "type": "electric_scooter"}, {"is_reserved": 0, "is_disabled": 0, "fusion_lon": 0.0, "lat": 38.92032666666667, "name": "44aabe8fc4ffde5d0351580e3f4b0a0b", "bike_id": "44aabe8fc4ffde5d0351580e3f4b0a0b", "lon": -77.01219416666666, "fusion_lat": 0.0, "rental_uris": {"android": "https://dc.lft.to/lastmile_qr_scan", "ios": "https://dc.lft.to/lastmile_qr_scan"}, "type": "electric_scooter"}, {"is_reserved": 0, "is_disabled": 0, "fusion_lon": 0.0, "lat": 38.93188816666667, "name": "e292c3e6ee2dcc5b7b10e42ffecd8ce6", "bike_id": "e292c3e6ee2dcc5b7b10e42ffecd8ce6", "lon": -77.0283525, "fusion_lat": 0.0, "rental_uris": {"android": "https://dc.lft.to/lastmile_qr_scan", "ios": "https://dc.lft.to/lastmile_qr_scan"}, "type": "electric_scooter"}, {"is_reserved": 0, "is_disabled": 0, "fusion_lon": 0.0, "lat": 38.923714, "name": "4d59decbf32ac42e6d3606fd35e55497", "bike_id": "4d59decbf32ac42e6d3606fd35e55497", "lon": -77.02699466666667, "fusion_lat": 0.0, "rental_uris": {"android": "https://dc.lft.to/lastmile_qr_scan", "ios": "https://dc.lft.to/lastmile_qr_scan"}, "type": "electric_scooter"}, {"is_reserved": 0, "is_disabled": 0, "fusion_lon": 0.0, "lat": 38.8950695, "name": "84439ef97673348a1291df227e6d6c35", "bike_id": "84439ef97673348a1291df227e6d6c35", "lon": -77.0229985, "fusion_lat": 0.0, "rental_uris": {"android": "https://dc.lft.to/lastmile_qr_scan", "ios": "https://dc.lft.to/lastmile_qr_scan"}, "type": "electric_scooter"}, {"is_reserved": 0, "is_disabled": 0, "fusion_lon": 0.0, "lat": 38.9329935, "name": "dd9d1bc30398cfa747c7b933b850e568", "bike_id": "dd9d1bc30398cfa747c7b933b850e568", "lon": -77.02291966666667, "fusion_lat": 0.0, "rental_uris": {"android": "https://dc.lft.to/lastmile_qr_scan", "ios": "https://dc.lft.to/lastmile_qr_scan"}, "type": "electric_scooter"}, {"is_reserved": 0, "is_disabled": 0, "fusion_lon": 0.0, "lat": 38.92327516666667, "name": "b3209b014e4664af20215a3d18f5673b", "bike_id": "b3209b014e4664af20215a3d18f5673b", "lon": -77.02974283333333, "fusion_lat": 0.0, "rental_uris": {"android": "https://dc.lft.to/lastmile_qr_scan", "ios": "https://dc.lft.to/lastmile_qr_scan"}, "type": "electric_scooter"}, {"is_reserved": 0, "is_disabled": 0, "fusion_lon": 0.0, "lat": 38.92485933333333, "name": "402589bc9458db9aa3863bc8f55d7fac", "bike_id": "402589bc9458db9aa3863bc8f55d7fac", "lon": -77.02269816666667, "fusion_lat": 0.0, "rental_uris": {"android": "https://dc.lft.to/lastmile_qr_scan", "ios": "https://dc.lft.to/lastmile_qr_scan"}, "type": "electric_scooter"}, {"is_reserved": 0, "is_disabled": 0, "fusion_lon": 0.0, "lat": 38.93314733333333, "name": "383b77e37debd05ad33078d46722fc1b", "bike_id": "383b77e37debd05ad33078d46722fc1b", "lon": -77.03622266666666, "fusion_lat": 0.0, "rental_uris": {"android": "https://dc.lft.to/lastmile_qr_scan", "ios": "https://dc.lft.to/lastmile_qr_scan"}, "type": "electric_scooter"}, {"is_reserved": 0, "is_disabled": 0, "fusion_lon": 0.0, "lat": 38.90671566666666, "name": "e672a9ee074596dd3787e5b12ac24bb4", "bike_id": "e672a9ee074596dd3787e5b12ac24bb4", "lon": -77.02711166666667, "fusion_lat": 0.0, "rental_uris": {"android": "https://dc.lft.to/lastmile_qr_scan", "ios": "https://dc.lft.to/lastmile_qr_scan"}, "type": "electric_scooter"}, {"is_reserved": 0, "is_disabled": 0, "fusion_lon": 0.0, "lat": 38.92079616666667, "name": "09f0ccefdc12dbf2438e403e192a2e78", "bike_id": "09f0ccefdc12dbf2438e403e192a2e78", "lon": -77.02306916666667, "fusion_lat": 0.0, "rental_uris": {"android": "https://dc.lft.to/lastmile_qr_scan", "ios": "https://dc.lft.to/lastmile_qr_scan"}, "type": "electric_scooter"}, {"is_reserved": 0, "is_disabled": 0, "fusion_lon": 0.0, "lat": 38.913290333333336, "name": "eb2e3f2d22698cdc63c3a4c5cb6ea7d4", "bike_id": "eb2e3f2d22698cdc63c3a4c5cb6ea7d4", "lon": -77.04530766666667, "fusion_lat": 0.0, "rental_uris": {"android": "https://dc.lft.to/lastmile_qr_scan", "ios": "https://dc.lft.to/lastmile_qr_scan"}, "type": "electric_scooter"}, {"is_reserved": 0, "is_disabled": 0, "fusion_lon": 0.0, "lat": 38.882377, "name": "710e153fd1386dbefbdf42e51fbb9033", "bike_id": "710e153fd1386dbefbdf42e51fbb9033", "lon": -76.99495133333333, "fusion_lat": 0.0, "rental_uris": {"android": "https://dc.lft.to/lastmile_qr_scan", "ios": "https://dc.lft.to/lastmile_qr_scan"}, "type": "electric_scooter"}, {"is_reserved": 0, "is_disabled": 0, "fusion_lon": 0.0, "lat": 38.92082583333333, "name": "7fd7b4555f543b6d96351c5711034502", "bike_id": "7fd7b4555f543b6d96351c5711034502", "lon": -77.025328, "fusion_lat": 0.0, "rental_uris": {"android": "https://dc.lft.to/lastmile_qr_scan", "ios": "https://dc.lft.to/lastmile_qr_scan"}, "type": "electric_scooter"}, {"is_reserved": 0, "is_disabled": 0, "fusion_lon": 0.0, "lat": 38.91584983333333, "name": "9bc182f323580549bb725cc709f3c60e", "bike_id": "9bc182f323580549bb725cc709f3c60e", "lon": -77.044804, "fusion_lat": 0.0, "rental_uris": {"android": "https://dc.lft.to/lastmile_qr_scan", "ios": "https://dc.lft.to/lastmile_qr_scan"}, "type": "electric_scooter"}, {"is_reserved": 0, "is_disabled": 0, "fusion_lon": 0.0, "lat": 38.89491733333333, "name": "9ea506c6a7b2d5fef0cdc53d4d8099f1", "bike_id": "9ea506c6a7b2d5fef0cdc53d4d8099f1", "lon": -76.99504483333334, "fusion_lat": 0.0, "rental_uris": {"android": "https://dc.lft.to/lastmile_qr_scan", "ios": "https://dc.lft.to/lastmile_qr_scan"}, "type": "electric_scooter"}, {"is_reserved": 0, "is_disabled": 0, "fusion_lon": 0.0, "lat": 38.96997133333333, "name": "d8c7cf7b7d9f1f293794d621595b2168", "bike_id": "d8c7cf7b7d9f1f293794d621595b2168", "lon": -77.03111916666667, "fusion_lat": 0.0, "rental_uris": {"android": "https://dc.lft.to/lastmile_qr_scan", "ios": "https://dc.lft.to/lastmile_qr_scan"}, "type": "electric_scooter"}, {"is_reserved": 0, "is_disabled": 0, "fusion_lon": 0.0, "lat": 38.91412733333333, "name": "bb64f965998ca32d40f0929deef126e9", "bike_id": "bb64f965998ca32d40f0929deef126e9", "lon": -77.02429466666666, "fusion_lat": 0.0, "rental_uris": {"android": "https://dc.lft.to/lastmile_qr_scan", "ios": "https://dc.lft.to/lastmile_qr_scan"}, "type": "electric_scooter"}, {"is_reserved": 0, "is_disabled": 0, "fusion_lon": 0.0, "lat": 38.9244755, "name": "d4a658764c4f98051f0fbbab4af8c55c", "bike_id": "d4a658764c4f98051f0fbbab4af8c55c", "lon": -77.02154483333334, "fusion_lat": 0.0, "rental_uris": {"android": "https://dc.lft.to/lastmile_qr_scan", "ios": "https://dc.lft.to/lastmile_qr_scan"}, "type": "electric_scooter"}, {"is_reserved": 0, "is_disabled": 0, "fusion_lon": 0.0, "lat": 38.918631, "name": "80a7e2d58def39514cf804ef22ee9f82", "bike_id": "80a7e2d58def39514cf804ef22ee9f82", "lon": -77.04838416666666, "fusion_lat": 0.0, "rental_uris": {"android": "https://dc.lft.to/lastmile_qr_scan", "ios": "https://dc.lft.to/lastmile_qr_scan"}, "type": "electric_scooter"}, {"is_reserved": 0, "is_disabled": 0, "fusion_lon": 0.0, "lat": 38.819379, "name": "376a6e787f44031278eb0314d6732e68", "bike_id": "376a6e787f44031278eb0314d6732e68", "lon": -77.002044, "fusion_lat": 0.0, "rental_uris": {"android": "https://dc.lft.to/lastmile_qr_scan", "ios": "https://dc.lft.to/lastmile_qr_scan"}, "type": "electric_bike"}, {"is_reserved": 0, "is_disabled": 0, "fusion_lon": 0.0, "lat": 38.90220583333333, "name": "cfdb6089c7805579c3c1990b4bed2960", "bike_id": "cfdb6089c7805579c3c1990b4bed2960", "lon": -76.93177333333334, "fusion_lat": 0.0, "rental_uris": {"android": "https://dc.lft.to/lastmile_qr_scan", "ios": "https://dc.lft.to/lastmile_qr_scan"}, "type": "electric_bike"}, {"is_reserved": 0, "is_disabled": 0, "fusion_lon": 0.0, "lat": 38.9180455, "name": "7b4705cf1e4c86b09e43285c5a619e5d", "bike_id": "7b4705cf1e4c86b09e43285c5a619e5d", "lon": -77.0271825, "fusion_lat": 0.0, "rental_uris": {"android": "https://dc.lft.to/lastmile_qr_scan", "ios": "https://dc.lft.to/lastmile_qr_scan"}, "type": "electric_scooter"}, {"is_reserved": 0, "is_disabled": 0, "fusion_lon": 0.0, "lat": 38.93380783333333, "name": "181080f73601a54331b586c7709358d6", "bike_id": "181080f73601a54331b586c7709358d6", "lon": -77.032148, "fusion_lat": 0.0, "rental_uris": {"android": "https://dc.lft.to/lastmile_qr_scan", "ios": "https://dc.lft.to/lastmile_qr_scan"}, "type": "electric_scooter"}, {"is_reserved": 0, "is_disabled": 0, "fusion_lon": 0.0, "lat": 38.895201666666665, "name": "c8c8a4e04557251eeaaae3435dfe100f", "bike_id": "c8c8a4e04557251eeaaae3435dfe100f", "lon": -77.04481783333334, "fusion_lat": 0.0, "rental_uris": {"android": "https://dc.lft.to/lastmile_qr_scan", "ios": "https://dc.lft.to/lastmile_qr_scan"}, "type": "electric_scooter"}, {"is_reserved": 0, "is_disabled": 0, "fusion_lon": 0.0, "lat": 38.90679883333333, "name": "87a51c38c785b553db6fff938cf8cfea", "bike_id": "87a51c38c785b553db6fff938cf8cfea", "lon": -77.050252, "fusion_lat": 0.0, "rental_uris": {"android": "https://dc.lft.to/lastmile_qr_scan", "ios": "https://dc.lft.to/lastmile_qr_scan"}, "type": "electric_scooter"}, {"is_reserved": 0, "is_disabled": 0, "fusion_lon": 0.0, "lat": 38.913266666666665, "name": "20cd4a71ef2a207b18eabcf900dbd2d0", "bike_id": "20cd4a71ef2a207b18eabcf900dbd2d0", "lon": -77.04531433333334, "fusion_lat": 0.0, "rental_uris": {"android": "https://dc.lft.to/lastmile_qr_scan", "ios": "https://dc.lft.to/lastmile_qr_scan"}, "type": "electric_scooter"}, {"is_reserved": 0, "is_disabled": 0, "fusion_lon": 0.0, "lat": 38.846717, "name": "118fdb79eaf9c59a1b29403a5329d7c4", "bike_id": "118fdb79eaf9c59a1b29403a5329d7c4", "lon": -77.13922383333333, "fusion_lat": 0.0, "rental_uris": {"android": "https://dc.lft.to/lastmile_qr_scan", "ios": "https://dc.lft.to/lastmile_qr_scan"}, "type": "electric_bike"}, {"is_reserved": 0, "is_disabled": 0, "fusion_lon": 0.0, "lat": 38.9246055, "name": "e77672a0757910e64c1fa57c46ae911b", "bike_id": "e77672a0757910e64c1fa57c46ae911b", "lon": -77.05228233333334, "fusion_lat": 0.0, "rental_uris": {"android": "https://dc.lft.to/lastmile_qr_scan", "ios": "https://dc.lft.to/lastmile_qr_scan"}, "type": "electric_scooter"}, {"is_reserved": 0, "is_disabled": 0, "fusion_lon": 0.0, "lat": 38.90566233333333, "name": "3fc6f387d9d9de937b0c897a3ac777a0", "bike_id": "3fc6f387d9d9de937b0c897a3ac777a0", "lon": -77.057059, "fusion_lat": 0.0, "rental_uris": {"android": "https://dc.lft.to/lastmile_qr_scan", "ios": "https://dc.lft.to/lastmile_qr_scan"}, "type": "electric_scooter"}, {"is_reserved": 0, "is_disabled": 0, "fusion_lon": 0.0, "lat": 38.915554666666665, "name": "28b4cdde9506924e67e44f624c9e74a4", "bike_id": "28b4cdde9506924e67e44f624c9e74a4", "lon": -77.05106183333334, "fusion_lat": 0.0, "rental_uris": {"android": "https://dc.lft.to/lastmile_qr_scan", "ios": "https://dc.lft.to/lastmile_qr_scan"}, "type": "electric_scooter"}, {"is_reserved": 0, "is_disabled": 0, "fusion_lon": 0.0, "lat": 38.897406, "name": "0c44275022f468f5c899483d8acfabc7", "bike_id": "0c44275022f468f5c899483d8acfabc7", "lon": -77.02975933333333, "fusion_lat": 0.0, "rental_uris": {"android": "https://dc.lft.to/lastmile_qr_scan", "ios": "https://dc.lft.to/lastmile_qr_scan"}, "type": "electric_scooter"}, {"is_reserved": 0, "is_disabled": 0, "fusion_lon": 0.0, "lat": 38.88969, "name": "2e6870fdc14ba7803eb1c56d6299e225", "bike_id": "2e6870fdc14ba7803eb1c56d6299e225", "lon": -76.980397, "fusion_lat": 0.0, "rental_uris": {"android": "https://dc.lft.to/lastmile_qr_scan", "ios": "https://dc.lft.to/lastmile_qr_scan"}, "type": "electric_scooter"}, {"is_reserved": 0, "is_disabled": 0, "fusion_lon": 0.0, "lat": 38.91026433333333, "name": "010e5739bece2a0413076065fbaa7c07", "bike_id": "010e5739bece2a0413076065fbaa7c07", "lon": -77.03251016666667, "fusion_lat": 0.0, "rental_uris": {"android": "https://dc.lft.to/lastmile_qr_scan", "ios": "https://dc.lft.to/lastmile_qr_scan"}, "type": "electric_scooter"}, {"is_reserved": 0, "is_disabled": 0, "fusion_lon": 0.0, "lat": 38.9415565, "name": "74d030a8843dc21af6c1728c2abc4e80", "bike_id": "74d030a8843dc21af6c1728c2abc4e80", "lon": -77.0020045, "fusion_lat": 0.0, "rental_uris": {"android": "https://dc.lft.to/lastmile_qr_scan", "ios": "https://dc.lft.to/lastmile_qr_scan"}, "type": "electric_bike"}, {"is_reserved": 0, "is_disabled": 0, "fusion_lon": 0.0, "lat": 38.95781216666666, "name": "1ae1f5c3daf0d1291c89b51d5537cc6b", "bike_id": "1ae1f5c3daf0d1291c89b51d5537cc6b", "lon": -77.02835833333333, "fusion_lat": 0.0, "rental_uris": {"android": "https://dc.lft.to/lastmile_qr_scan", "ios": "https://dc.lft.to/lastmile_qr_scan"}, "type": "electric_scooter"}, {"is_reserved": 0, "is_disabled": 0, "fusion_lon": 0.0, "lat": 38.88401983333333, "name": "16cf2120fcbe338839702cbcbcfdb23e", "bike_id": "16cf2120fcbe338839702cbcbcfdb23e", "lon": -76.98588883333333, "fusion_lat": 0.0, "rental_uris": {"android": "https://dc.lft.to/lastmile_qr_scan", "ios": "https://dc.lft.to/lastmile_qr_scan"}, "type": "electric_scooter"}, {"is_reserved": 0, "is_disabled": 0, "fusion_lon": 0.0, "lat": 38.92563466666667, "name": "d8e7676ad6b4e880af078f506db6ad84", "bike_id": "d8e7676ad6b4e880af078f506db6ad84", "lon": -77.03788566666667, "fusion_lat": 0.0, "rental_uris": {"android": "https://dc.lft.to/lastmile_qr_scan", "ios": "https://dc.lft.to/lastmile_qr_scan"}, "type": "electric_scooter"}, {"is_reserved": 0, "is_disabled": 0, "fusion_lon": 0.0, "lat": 38.922474666666666, "name": "e2dc612f6097847f4e8a1df61ad40ea3", "bike_id": "e2dc612f6097847f4e8a1df61ad40ea3", "lon": -77.030842, "fusion_lat": 0.0, "rental_uris": {"android": "https://dc.lft.to/lastmile_qr_scan", "ios": "https://dc.lft.to/lastmile_qr_scan"}, "type": "electric_scooter"}, {"is_reserved": 0, "is_disabled": 0, "fusion_lon": 0.0, "lat": 38.90406133333333, "name": "414622145b36945b42fc92f36fed9366", "bike_id": "414622145b36945b42fc92f36fed9366", "lon": -77.02583483333333, "fusion_lat": 0.0, "rental_uris": {"android": "https://dc.lft.to/lastmile_qr_scan", "ios": "https://dc.lft.to/lastmile_qr_scan"}, "type": "electric_scooter"}, {"is_reserved": 0, "is_disabled": 0, "fusion_lon": 0.0, "lat": 38.8977245, "name": "99267e02d44e78b4f9cb8bb5a21148fe", "bike_id": "99267e02d44e78b4f9cb8bb5a21148fe", "lon": -77.026995, "fusion_lat": 0.0, "rental_uris": {"android": "https://dc.lft.to/lastmile_qr_scan", "ios": "https://dc.lft.to/lastmile_qr_scan"}, "type": "electric_scooter"}, {"is_reserved": 0, "is_disabled": 0, "fusion_lon": 0.0, "lat": 38.926684, "name": "ba7a930d85b36ab1f5f4e0649d981f6d", "bike_id": "ba7a930d85b36ab1f5f4e0649d981f6d", "lon": -77.027691, "fusion_lat": 0.0, "rental_uris": {"android": "https://dc.lft.to/lastmile_qr_scan", "ios": "https://dc.lft.to/lastmile_qr_scan"}, "type": "electric_scooter"}, {"is_reserved": 0, "is_disabled": 0, "fusion_lon": 0.0, "lat": 38.908525166666664, "name": "bca120f428318a605b83a5fe5b8fa9e5", "bike_id": "bca120f428318a605b83a5fe5b8fa9e5", "lon": -76.99677733333333, "fusion_lat": 0.0, "rental_uris": {"android": "https://dc.lft.to/lastmile_qr_scan", "ios": "https://dc.lft.to/lastmile_qr_scan"}, "type": "electric_scooter"}, {"is_reserved": 0, "is_disabled": 0, "fusion_lon": 0.0, "lat": 38.892229, "name": "8f425b84b88db5046da63d757feba80d", "bike_id": "8f425b84b88db5046da63d757feba80d", "lon": -77.045062, "fusion_lat": 0.0, "rental_uris": {"android": "https://dc.lft.to/lastmile_qr_scan", "ios": "https://dc.lft.to/lastmile_qr_scan"}, "type": "electric_scooter"}, {"is_reserved": 0, "is_disabled": 0, "fusion_lon": 0.0, "lat": 38.93463883333333, "name": "3c27c083d614e8fed864e24f43d4ae71", "bike_id": "3c27c083d614e8fed864e24f43d4ae71", "lon": -77.05809766666667, "fusion_lat": 0.0, "rental_uris": {"android": "https://dc.lft.to/lastmile_qr_scan", "ios": "https://dc.lft.to/lastmile_qr_scan"}, "type": "electric_scooter"}, {"is_reserved": 0, "is_disabled": 0, "fusion_lon": 0.0, "lat": 38.880205, "name": "7eb9f6ebe6bc7e49948cc0d7b66f29b7", "bike_id": "7eb9f6ebe6bc7e49948cc0d7b66f29b7", "lon": -77.00575366666666, "fusion_lat": 0.0, "rental_uris": {"android": "https://dc.lft.to/lastmile_qr_scan", "ios": "https://dc.lft.to/lastmile_qr_scan"}, "type": "electric_scooter"}, {"is_reserved": 0, "is_disabled": 0, "fusion_lon": 0.0, "lat": 38.932816333333335, "name": "36ca1d3733de7ef3d6c7de804a8e27e6", "bike_id": "36ca1d3733de7ef3d6c7de804a8e27e6", "lon": -77.02545233333333, "fusion_lat": 0.0, "rental_uris": {"android": "https://dc.lft.to/lastmile_qr_scan", "ios": "https://dc.lft.to/lastmile_qr_scan"}, "type": "electric_scooter"}, {"is_reserved": 0, "is_disabled": 0, "fusion_lon": 0.0, "lat": 38.9292725, "name": "0225b86a59c0ee65509ca745e354d5b9", "bike_id": "0225b86a59c0ee65509ca745e354d5b9", "lon": -77.00677766666666, "fusion_lat": 0.0, "rental_uris": {"android": "https://dc.lft.to/lastmile_qr_scan", "ios": "https://dc.lft.to/lastmile_qr_scan"}, "type": "electric_scooter"}, {"is_reserved": 0, "is_disabled": 0, "fusion_lon": 0.0, "lat": 38.920626666666664, "name": "8702c14cd085d58b59a964afee15e24b", "bike_id": "8702c14cd085d58b59a964afee15e24b", "lon": -77.04194483333333, "fusion_lat": 0.0, "rental_uris": {"android": "https://dc.lft.to/lastmile_qr_scan", "ios": "https://dc.lft.to/lastmile_qr_scan"}, "type": "electric_scooter"}, {"is_reserved": 0, "is_disabled": 0, "fusion_lon": 0.0, "lat": 38.89226, "name": "f0efe122a9b0286f97a2f6449bbf7d1b", "bike_id": "f0efe122a9b0286f97a2f6449bbf7d1b", "lon": -77.04367066666667, "fusion_lat": 0.0, "rental_uris": {"android": "https://dc.lft.to/lastmile_qr_scan", "ios": "https://dc.lft.to/lastmile_qr_scan"}, "type": "electric_scooter"}, {"is_reserved": 0, "is_disabled": 0, "fusion_lon": 0.0, "lat": 38.899611166666666, "name": "aa58dbc0393f915a316308902b24ca4f", "bike_id": "aa58dbc0393f915a316308902b24ca4f", "lon": -77.04719766666666, "fusion_lat": 0.0, "rental_uris": {"android": "https://dc.lft.to/lastmile_qr_scan", "ios": "https://dc.lft.to/lastmile_qr_scan"}, "type": "electric_scooter"}, {"is_reserved": 0, "is_disabled": 0, "fusion_lon": 0.0, "lat": 38.92612466666667, "name": "9fd5de97d67ff1da1166d1f700afc9bd", "bike_id": "9fd5de97d67ff1da1166d1f700afc9bd", "lon": -77.02163016666667, "fusion_lat": 0.0, "rental_uris": {"android": "https://dc.lft.to/lastmile_qr_scan", "ios": "https://dc.lft.to/lastmile_qr_scan"}, "type": "electric_scooter"}, {"is_reserved": 0, "is_disabled": 0, "fusion_lon": 0.0, "lat": 38.923864, "name": "b2a1ddd3b1ec6450e7ba931491cbaabb", "bike_id": "b2a1ddd3b1ec6450e7ba931491cbaabb", "lon": -77.02659283333334, "fusion_lat": 0.0, "rental_uris": {"android": "https://dc.lft.to/lastmile_qr_scan", "ios": "https://dc.lft.to/lastmile_qr_scan"}, "type": "electric_scooter"}, {"is_reserved": 0, "is_disabled": 0, "fusion_lon": 0.0, "lat": 38.92689466666667, "name": "8bfefc5c0cfb5e405b32450e868c9ed3", "bike_id": "8bfefc5c0cfb5e405b32450e868c9ed3", "lon": -77.02964416666667, "fusion_lat": 0.0, "rental_uris": {"android": "https://dc.lft.to/lastmile_qr_scan", "ios": "https://dc.lft.to/lastmile_qr_scan"}, "type": "electric_scooter"}, {"is_reserved": 0, "is_disabled": 0, "fusion_lon": 0.0, "lat": 38.91803433333333, "name": "1d5f696e7ce157b116c7022eaef0d809", "bike_id": "1d5f696e7ce157b116c7022eaef0d809", "lon": -77.0248845, "fusion_lat": 0.0, "rental_uris": {"android": "https://dc.lft.to/lastmile_qr_scan", "ios": "https://dc.lft.to/lastmile_qr_scan"}, "type": "electric_scooter"}, {"is_reserved": 0, "is_disabled": 0, "fusion_lon": 0.0, "lat": 38.9007525, "name": "07ed58a8f41df78982c03dbb883a247a", "bike_id": "07ed58a8f41df78982c03dbb883a247a", "lon": -77.04872666666667, "fusion_lat": 0.0, "rental_uris": {"android": "https://dc.lft.to/lastmile_qr_scan", "ios": "https://dc.lft.to/lastmile_qr_scan"}, "type": "electric_scooter"}, {"is_reserved": 0, "is_disabled": 0, "fusion_lon": 0.0, "lat": 38.91652466666667, "name": "d80fca7a2f36532e52bb4e2a389a3c45", "bike_id": "d80fca7a2f36532e52bb4e2a389a3c45", "lon": -77.03184666666667, "fusion_lat": 0.0, "rental_uris": {"android": "https://dc.lft.to/lastmile_qr_scan", "ios": "https://dc.lft.to/lastmile_qr_scan"}, "type": "electric_scooter"}, {"is_reserved": 0, "is_disabled": 0, "fusion_lon": 0.0, "lat": 38.9165175, "name": "63762f5b419db40fc9454b0c34d49e89", "bike_id": "63762f5b419db40fc9454b0c34d49e89", "lon": -77.02031983333333, "fusion_lat": 0.0, "rental_uris": {"android": "https://dc.lft.to/lastmile_qr_scan", "ios": "https://dc.lft.to/lastmile_qr_scan"}, "type": "electric_scooter"}, {"is_reserved": 0, "is_disabled": 0, "fusion_lon": 0.0, "lat": 38.8073355, "name": "7168fa8fe17fb6a795e68f2304a7ee27", "bike_id": "7168fa8fe17fb6a795e68f2304a7ee27", "lon": -76.99255716666667, "fusion_lat": 0.0, "rental_uris": {"android": "https://dc.lft.to/lastmile_qr_scan", "ios": "https://dc.lft.to/lastmile_qr_scan"}, "type": "electric_bike"}, {"is_reserved": 0, "is_disabled": 0, "fusion_lon": 0.0, "lat": 38.897195333333336, "name": "f925b68d0aebfd6b2877914a7449c827", "bike_id": "f925b68d0aebfd6b2877914a7449c827", "lon": -77.00215016666667, "fusion_lat": 0.0, "rental_uris": {"android": "https://dc.lft.to/lastmile_qr_scan", "ios": "https://dc.lft.to/lastmile_qr_scan"}, "type": "electric_scooter"}, {"is_reserved": 0, "is_disabled": 0, "fusion_lon": 0.0, "lat": 38.9508675, "name": "835e6e56dd6ba3f2a16f0e60ee876778", "bike_id": "835e6e56dd6ba3f2a16f0e60ee876778", "lon": -76.99795716666667, "fusion_lat": 0.0, "rental_uris": {"android": "https://dc.lft.to/lastmile_qr_scan", "ios": "https://dc.lft.to/lastmile_qr_scan"}, "type": "electric_scooter"}, {"is_reserved": 0, "is_disabled": 0, "fusion_lon": 0.0, "lat": 38.923619, "name": "ed2ebe33691ab260091fa6a9b7c3e168", "bike_id": "ed2ebe33691ab260091fa6a9b7c3e168", "lon": -77.05031716666667, "fusion_lat": 0.0, "rental_uris": {"android": "https://dc.lft.to/lastmile_qr_scan", "ios": "https://dc.lft.to/lastmile_qr_scan"}, "type": "electric_scooter"}, {"is_reserved": 0, "is_disabled": 0, "fusion_lon": 0.0, "lat": 38.8843465, "name": "2f446ffe21ab903f246aab41cdf318d5", "bike_id": "2f446ffe21ab903f246aab41cdf318d5", "lon": -76.957525, "fusion_lat": 0.0, "rental_uris": {"android": "https://dc.lft.to/lastmile_qr_scan", "ios": "https://dc.lft.to/lastmile_qr_scan"}, "type": "electric_scooter"}, {"is_reserved": 0, "is_disabled": 0, "fusion_lon": 0.0, "lat": 38.91814466666666, "name": "1ef6aaa7344dd2df010295fc3c8dcd02", "bike_id": "1ef6aaa7344dd2df010295fc3c8dcd02", "lon": -77.02477833333333, "fusion_lat": 0.0, "rental_uris": {"android": "https://dc.lft.to/lastmile_qr_scan", "ios": "https://dc.lft.to/lastmile_qr_scan"}, "type": "electric_scooter"}, {"is_reserved": 0, "is_disabled": 0, "fusion_lon": 0.0, "lat": 38.9154115, "name": "e8d26fb716283dd9bed1ff765cf926db", "bike_id": "e8d26fb716283dd9bed1ff765cf926db", "lon": -77.03644316666667, "fusion_lat": 0.0, "rental_uris": {"android": "https://dc.lft.to/lastmile_qr_scan", "ios": "https://dc.lft.to/lastmile_qr_scan"}, "type": "electric_scooter"}, {"is_reserved": 0, "is_disabled": 0, "fusion_lon": 0.0, "lat": 38.92897333333333, "name": "da47cd58ad10d5944a62e60aeedde79e", "bike_id": "da47cd58ad10d5944a62e60aeedde79e", "lon": -76.9843405, "fusion_lat": 0.0, "rental_uris": {"android": "https://dc.lft.to/lastmile_qr_scan", "ios": "https://dc.lft.to/lastmile_qr_scan"}, "type": "electric_scooter"}, {"is_reserved": 0, "is_disabled": 0, "fusion_lon": 0.0, "lat": 38.9609385, "name": "0206a935d732fd582d15cd924e3d81e4", "bike_id": "0206a935d732fd582d15cd924e3d81e4", "lon": -77.067567, "fusion_lat": 0.0, "rental_uris": {"android": "https://dc.lft.to/lastmile_qr_scan", "ios": "https://dc.lft.to/lastmile_qr_scan"}, "type": "electric_scooter"}, {"is_reserved": 0, "is_disabled": 0, "fusion_lon": 0.0, "lat": 38.9295865, "name": "6536c1d3138acd418ec0ad60bb157c12", "bike_id": "6536c1d3138acd418ec0ad60bb157c12", "lon": -77.01147183333333, "fusion_lat": 0.0, "rental_uris": {"android": "https://dc.lft.to/lastmile_qr_scan", "ios": "https://dc.lft.to/lastmile_qr_scan"}, "type": "electric_scooter"}, {"is_reserved": 0, "is_disabled": 0, "fusion_lon": 0.0, "lat": 38.901238166666666, "name": "7c57dd29effc1961255cc8254d7bc6b4", "bike_id": "7c57dd29effc1961255cc8254d7bc6b4", "lon": -77.03170216666666, "fusion_lat": 0.0, "rental_uris": {"android": "https://dc.lft.to/lastmile_qr_scan", "ios": "https://dc.lft.to/lastmile_qr_scan"}, "type": "electric_scooter"}, {"is_reserved": 0, "is_disabled": 0, "fusion_lon": 0.0, "lat": 38.9432745, "name": "da9e10a59b7e5171a52c4428d190de37", "bike_id": "da9e10a59b7e5171a52c4428d190de37", "lon": -77.013137, "fusion_lat": 0.0, "rental_uris": {"android": "https://dc.lft.to/lastmile_qr_scan", "ios": "https://dc.lft.to/lastmile_qr_scan"}, "type": "electric_scooter"}, {"is_reserved": 0, "is_disabled": 0, "fusion_lon": 0.0, "lat": 38.8974085, "name": "37cc490769174e2dd7bff3988b44755c", "bike_id": "37cc490769174e2dd7bff3988b44755c", "lon": -77.00930633333333, "fusion_lat": 0.0, "rental_uris": {"android": "https://dc.lft.to/lastmile_qr_scan", "ios": "https://dc.lft.to/lastmile_qr_scan"}, "type": "electric_scooter"}, {"is_reserved": 0, "is_disabled": 0, "fusion_lon": 0.0, "lat": 38.909620833333335, "name": "953f9ca183b90e55c9a2b12491dee249", "bike_id": "953f9ca183b90e55c9a2b12491dee249", "lon": -77.023124, "fusion_lat": 0.0, "rental_uris": {"android": "https://dc.lft.to/lastmile_qr_scan", "ios": "https://dc.lft.to/lastmile_qr_scan"}, "type": "electric_scooter"}, {"is_reserved": 0, "is_disabled": 0, "fusion_lon": 0.0, "lat": 38.938664833333334, "name": "24d8cdc1a44e2c79529a743f137bc8a7", "bike_id": "24d8cdc1a44e2c79529a743f137bc8a7", "lon": -77.025223, "fusion_lat": 0.0, "rental_uris": {"android": "https://dc.lft.to/lastmile_qr_scan", "ios": "https://dc.lft.to/lastmile_qr_scan"}, "type": "electric_scooter"}, {"is_reserved": 0, "is_disabled": 0, "fusion_lon": 0.0, "lat": 38.932499166666666, "name": "d027620d82b9663a290f3a7c5b7ba7da", "bike_id": "d027620d82b9663a290f3a7c5b7ba7da", "lon": -77.03278966666667, "fusion_lat": 0.0, "rental_uris": {"android": "https://dc.lft.to/lastmile_qr_scan", "ios": "https://dc.lft.to/lastmile_qr_scan"}, "type": "electric_scooter"}, {"is_reserved": 0, "is_disabled": 0, "fusion_lon": 0.0, "lat": 38.914058833333335, "name": "cfbfae1816d24ab4a37f93f3d01c7884", "bike_id": "cfbfae1816d24ab4a37f93f3d01c7884", "lon": -77.03263766666667, "fusion_lat": 0.0, "rental_uris": {"android": "https://dc.lft.to/lastmile_qr_scan", "ios": "https://dc.lft.to/lastmile_qr_scan"}, "type": "electric_scooter"}, {"is_reserved": 0, "is_disabled": 0, "fusion_lon": 0.0, "lat": 38.901204, "name": "cbbc2f63f067b9d460696921d727cbb0", "bike_id": "cbbc2f63f067b9d460696921d727cbb0", "lon": -77.031689, "fusion_lat": 0.0, "rental_uris": {"android": "https://dc.lft.to/lastmile_qr_scan", "ios": "https://dc.lft.to/lastmile_qr_scan"}, "type": "electric_scooter"}, {"is_reserved": 0, "is_disabled": 0, "fusion_lon": 0.0, "lat": 38.919492, "name": "5b653384eba483d73efd37e3287e7236", "bike_id": "5b653384eba483d73efd37e3287e7236", "lon": -77.045625, "fusion_lat": 0.0, "rental_uris": {"android": "https://dc.lft.to/lastmile_qr_scan", "ios": "https://dc.lft.to/lastmile_qr_scan"}, "type": "electric_scooter"}, {"is_reserved": 0, "is_disabled": 0, "fusion_lon": 0.0, "lat": 38.927249333333336, "name": "87168bd56fb4705831088c9124dd6cec", "bike_id": "87168bd56fb4705831088c9124dd6cec", "lon": -77.022779, "fusion_lat": 0.0, "rental_uris": {"android": "https://dc.lft.to/lastmile_qr_scan", "ios": "https://dc.lft.to/lastmile_qr_scan"}, "type": "electric_scooter"}, {"is_reserved": 0, "is_disabled": 0, "fusion_lon": 0.0, "lat": 38.92753716666667, "name": "2dfd7d7d4e51e4fced0c153a2c35539e", "bike_id": "2dfd7d7d4e51e4fced0c153a2c35539e", "lon": -77.02112933333333, "fusion_lat": 0.0, "rental_uris": {"android": "https://dc.lft.to/lastmile_qr_scan", "ios": "https://dc.lft.to/lastmile_qr_scan"}, "type": "electric_scooter"}, {"is_reserved": 0, "is_disabled": 0, "fusion_lon": 0.0, "lat": 38.9095645, "name": "18879f2fd2aa56f033f7e27c27733bde", "bike_id": "18879f2fd2aa56f033f7e27c27733bde", "lon": -77.02390666666666, "fusion_lat": 0.0, "rental_uris": {"android": "https://dc.lft.to/lastmile_qr_scan", "ios": "https://dc.lft.to/lastmile_qr_scan"}, "type": "electric_scooter"}, {"is_reserved": 0, "is_disabled": 0, "fusion_lon": 0.0, "lat": 38.895044166666665, "name": "cfc389fb864b2dea4ac636d24be8f8eb", "bike_id": "cfc389fb864b2dea4ac636d24be8f8eb", "lon": -77.04643516666667, "fusion_lat": 0.0, "rental_uris": {"android": "https://dc.lft.to/lastmile_qr_scan", "ios": "https://dc.lft.to/lastmile_qr_scan"}, "type": "electric_scooter"}, {"is_reserved": 0, "is_disabled": 0, "fusion_lon": 0.0, "lat": 38.923108, "name": "2b45027783dcc647b2dc489be53a7622", "bike_id": "2b45027783dcc647b2dc489be53a7622", "lon": -77.02711383333333, "fusion_lat": 0.0, "rental_uris": {"android": "https://dc.lft.to/lastmile_qr_scan", "ios": "https://dc.lft.to/lastmile_qr_scan"}, "type": "electric_scooter"}, {"is_reserved": 0, "is_disabled": 0, "fusion_lon": 0.0, "lat": 38.918138, "name": "628574f2ea308fde85c772331354b009", "bike_id": "628574f2ea308fde85c772331354b009", "lon": -77.0142015, "fusion_lat": 0.0, "rental_uris": {"android": "https://dc.lft.to/lastmile_qr_scan", "ios": "https://dc.lft.to/lastmile_qr_scan"}, "type": "electric_scooter"}, {"is_reserved": 0, "is_disabled": 0, "fusion_lon": 0.0, "lat": 38.9576245, "name": "d8e8d24135756a1f5ff6c52c8f455d21", "bike_id": "d8e8d24135756a1f5ff6c52c8f455d21", "lon": -77.009139, "fusion_lat": 0.0, "rental_uris": {"android": "https://dc.lft.to/lastmile_qr_scan", "ios": "https://dc.lft.to/lastmile_qr_scan"}, "type": "electric_scooter"}, {"is_reserved": 0, "is_disabled": 0, "fusion_lon": 0.0, "lat": 38.93076716666667, "name": "d6dd9f036bba4cfd56e7f123d1630d5f", "bike_id": "d6dd9f036bba4cfd56e7f123d1630d5f", "lon": -77.02339366666666, "fusion_lat": 0.0, "rental_uris": {"android": "https://dc.lft.to/lastmile_qr_scan", "ios": "https://dc.lft.to/lastmile_qr_scan"}, "type": "electric_scooter"}, {"is_reserved": 0, "is_disabled": 0, "fusion_lon": 0.0, "lat": 38.870804666666665, "name": "1fa728f14dad249978fd64c77f140b34", "bike_id": "1fa728f14dad249978fd64c77f140b34", "lon": -77.11049733333333, "fusion_lat": 0.0, "rental_uris": {"android": "https://dc.lft.to/lastmile_qr_scan", "ios": "https://dc.lft.to/lastmile_qr_scan"}, "type": "electric_bike"}, {"is_reserved": 0, "is_disabled": 0, "fusion_lon": 0.0, "lat": 38.92407266666667, "name": "4aa9da4edfbb7e0512922133db90b45e", "bike_id": "4aa9da4edfbb7e0512922133db90b45e", "lon": -77.01950333333333, "fusion_lat": 0.0, "rental_uris": {"android": "https://dc.lft.to/lastmile_qr_scan", "ios": "https://dc.lft.to/lastmile_qr_scan"}, "type": "electric_scooter"}, {"is_reserved": 0, "is_disabled": 0, "fusion_lon": 0.0, "lat": 38.919815666666665, "name": "7b03df1ecadac07b5fcf5b185004a870", "bike_id": "7b03df1ecadac07b5fcf5b185004a870", "lon": -77.02203966666667, "fusion_lat": 0.0, "rental_uris": {"android": "https://dc.lft.to/lastmile_qr_scan", "ios": "https://dc.lft.to/lastmile_qr_scan"}, "type": "electric_scooter"}, {"is_reserved": 0, "is_disabled": 0, "fusion_lon": 0.0, "lat": 38.911895666666666, "name": "7bcaf5b588f2b95e9b08796292d82272", "bike_id": "7bcaf5b588f2b95e9b08796292d82272", "lon": -77.01086133333334, "fusion_lat": 0.0, "rental_uris": {"android": "https://dc.lft.to/lastmile_qr_scan", "ios": "https://dc.lft.to/lastmile_qr_scan"}, "type": "electric_scooter"}, {"is_reserved": 0, "is_disabled": 0, "fusion_lon": 0.0, "lat": 38.9168665, "name": "d9c43f36b985bf4946cd479bcbc765ab", "bike_id": "d9c43f36b985bf4946cd479bcbc765ab", "lon": -77.02958466666666, "fusion_lat": 0.0, "rental_uris": {"android": "https://dc.lft.to/lastmile_qr_scan", "ios": "https://dc.lft.to/lastmile_qr_scan"}, "type": "electric_scooter"}, {"is_reserved": 0, "is_disabled": 0, "fusion_lon": 0.0, "lat": 38.871197, "name": "992b55c6f9551c68f99615f88306270a", "bike_id": "992b55c6f9551c68f99615f88306270a", "lon": -77.00908466666667, "fusion_lat": 0.0, "rental_uris": {"android": "https://dc.lft.to/lastmile_qr_scan", "ios": "https://dc.lft.to/lastmile_qr_scan"}, "type": "electric_scooter"}, {"is_reserved": 0, "is_disabled": 0, "fusion_lon": 0.0, "lat": 38.929360833333334, "name": "5657e9ba378329e2492986fd55130bd1", "bike_id": "5657e9ba378329e2492986fd55130bd1", "lon": -77.0325345, "fusion_lat": 0.0, "rental_uris": {"android": "https://dc.lft.to/lastmile_qr_scan", "ios": "https://dc.lft.to/lastmile_qr_scan"}, "type": "electric_scooter"}, {"is_reserved": 0, "is_disabled": 0, "fusion_lon": 0.0, "lat": 38.972621, "name": "27db1be775f9461a8e0235d63113a7c3", "bike_id": "27db1be775f9461a8e0235d63113a7c3", "lon": -76.99279516666667, "fusion_lat": 0.0, "rental_uris": {"android": "https://dc.lft.to/lastmile_qr_scan", "ios": "https://dc.lft.to/lastmile_qr_scan"}, "type": "electric_bike"}, {"is_reserved": 0, "is_disabled": 0, "fusion_lon": 0.0, "lat": 38.908056333333334, "name": "133e9717ff45bace2b22371facad6308", "bike_id": "133e9717ff45bace2b22371facad6308", "lon": -77.084007, "fusion_lat": 0.0, "rental_uris": {"android": "https://dc.lft.to/lastmile_qr_scan", "ios": "https://dc.lft.to/lastmile_qr_scan"}, "type": "electric_scooter"}, {"is_reserved": 0, "is_disabled": 0, "fusion_lon": 0.0, "lat": 38.90415633333333, "name": "bd62784cede2be7ac916d5b0a822dfe9", "bike_id": "bd62784cede2be7ac916d5b0a822dfe9", "lon": -77.032652, "fusion_lat": 0.0, "rental_uris": {"android": "https://dc.lft.to/lastmile_qr_scan", "ios": "https://dc.lft.to/lastmile_qr_scan"}, "type": "electric_scooter"}, {"is_reserved": 0, "is_disabled": 0, "fusion_lon": 0.0, "lat": 38.91114833333334, "name": "024ecfa9b853b534166697787a0c6001", "bike_id": "024ecfa9b853b534166697787a0c6001", "lon": -77.03831716666667, "fusion_lat": 0.0, "rental_uris": {"android": "https://dc.lft.to/lastmile_qr_scan", "ios": "https://dc.lft.to/lastmile_qr_scan"}, "type": "electric_scooter"}, {"is_reserved": 0, "is_disabled": 0, "fusion_lon": 0.0, "lat": 38.923663166666664, "name": "59ca4785466851b66ce5f79342d7e7d4", "bike_id": "59ca4785466851b66ce5f79342d7e7d4", "lon": -77.02140483333334, "fusion_lat": 0.0, "rental_uris": {"android": "https://dc.lft.to/lastmile_qr_scan", "ios": "https://dc.lft.to/lastmile_qr_scan"}, "type": "electric_scooter"}, {"is_reserved": 0, "is_disabled": 0, "fusion_lon": 0.0, "lat": 38.85575566666667, "name": "feafc954d2a322fa7084cbeea66b3b6a", "bike_id": "feafc954d2a322fa7084cbeea66b3b6a", "lon": -77.05338533333334, "fusion_lat": 0.0, "rental_uris": {"android": "https://dc.lft.to/lastmile_qr_scan", "ios": "https://dc.lft.to/lastmile_qr_scan"}, "type": "electric_bike"}, {"is_reserved": 0, "is_disabled": 0, "fusion_lon": 0.0, "lat": 38.87706816666667, "name": "e0e46dfc33268f7182fb0f85a73c6199", "bike_id": "e0e46dfc33268f7182fb0f85a73c6199", "lon": -76.99318083333333, "fusion_lat": 0.0, "rental_uris": {"android": "https://dc.lft.to/lastmile_qr_scan", "ios": "https://dc.lft.to/lastmile_qr_scan"}, "type": "electric_scooter"}, {"is_reserved": 0, "is_disabled": 0, "fusion_lon": 0.0, "lat": 38.97551166666667, "name": "5c23911c9b240a2e6241a0d6d20f8e40", "bike_id": "5c23911c9b240a2e6241a0d6d20f8e40", "lon": -77.02651516666667, "fusion_lat": 0.0, "rental_uris": {"android": "https://dc.lft.to/lastmile_qr_scan", "ios": "https://dc.lft.to/lastmile_qr_scan"}, "type": "electric_scooter"}, {"is_reserved": 0, "is_disabled": 0, "fusion_lon": 0.0, "lat": 38.9094655, "name": "9c4e9cdb4478b2774fcab6c033e92a40", "bike_id": "9c4e9cdb4478b2774fcab6c033e92a40", "lon": -77.02392066666667, "fusion_lat": 0.0, "rental_uris": {"android": "https://dc.lft.to/lastmile_qr_scan", "ios": "https://dc.lft.to/lastmile_qr_scan"}, "type": "electric_scooter"}, {"is_reserved": 0, "is_disabled": 0, "fusion_lon": 0.0, "lat": 38.9086275, "name": "ac2c65fbbda4211c85038c3beb469402", "bike_id": "ac2c65fbbda4211c85038c3beb469402", "lon": -77.080784, "fusion_lat": 0.0, "rental_uris": {"android": "https://dc.lft.to/lastmile_qr_scan", "ios": "https://dc.lft.to/lastmile_qr_scan"}, "type": "electric_bike"}, {"is_reserved": 0, "is_disabled": 0, "fusion_lon": 0.0, "lat": 38.92141066666667, "name": "1259ecde3abe58439b393feee6352ad0", "bike_id": "1259ecde3abe58439b393feee6352ad0", "lon": -77.01806883333333, "fusion_lat": 0.0, "rental_uris": {"android": "https://dc.lft.to/lastmile_qr_scan", "ios": "https://dc.lft.to/lastmile_qr_scan"}, "type": "electric_scooter"}, {"is_reserved": 0, "is_disabled": 0, "fusion_lon": 0.0, "lat": 38.9426455, "name": "6aa73b64e2e2747ea03ae28c3ca8f983", "bike_id": "6aa73b64e2e2747ea03ae28c3ca8f983", "lon": -77.02586433333333, "fusion_lat": 0.0, "rental_uris": {"android": "https://dc.lft.to/lastmile_qr_scan", "ios": "https://dc.lft.to/lastmile_qr_scan"}, "type": "electric_scooter"}, {"is_reserved": 0, "is_disabled": 0, "fusion_lon": 0.0, "lat": 38.92065133333333, "name": "830b19360946b452c04829d75b61b201", "bike_id": "830b19360946b452c04829d75b61b201", "lon": -77.022149, "fusion_lat": 0.0, "rental_uris": {"android": "https://dc.lft.to/lastmile_qr_scan", "ios": "https://dc.lft.to/lastmile_qr_scan"}, "type": "electric_scooter"}, {"is_reserved": 0, "is_disabled": 0, "fusion_lon": 0.0, "lat": 38.900316, "name": "ec1b887f89e8152b9eccaacd4481dfa6", "bike_id": "ec1b887f89e8152b9eccaacd4481dfa6", "lon": -77.00185566666667, "fusion_lat": 0.0, "rental_uris": {"android": "https://dc.lft.to/lastmile_qr_scan", "ios": "https://dc.lft.to/lastmile_qr_scan"}, "type": "electric_scooter"}, {"is_reserved": 0, "is_disabled": 0, "fusion_lon": 0.0, "lat": 38.935249166666665, "name": "7b672440a48ccf5b87f5f903946c9ff6", "bike_id": "7b672440a48ccf5b87f5f903946c9ff6", "lon": -77.05438516666666, "fusion_lat": 0.0, "rental_uris": {"android": "https://dc.lft.to/lastmile_qr_scan", "ios": "https://dc.lft.to/lastmile_qr_scan"}, "type": "electric_scooter"}, {"is_reserved": 0, "is_disabled": 0, "fusion_lon": 0.0, "lat": 38.84499133333333, "name": "45cc314051a6af3b78512e7a304f8768", "bike_id": "45cc314051a6af3b78512e7a304f8768", "lon": -76.99364316666667, "fusion_lat": 0.0, "rental_uris": {"android": "https://dc.lft.to/lastmile_qr_scan", "ios": "https://dc.lft.to/lastmile_qr_scan"}, "type": "electric_bike"}, {"is_reserved": 0, "is_disabled": 0, "fusion_lon": 0.0, "lat": 38.92877083333333, "name": "41982022f3feded44ab6626e641eb43e", "bike_id": "41982022f3feded44ab6626e641eb43e", "lon": -77.01233933333333, "fusion_lat": 0.0, "rental_uris": {"android": "https://dc.lft.to/lastmile_qr_scan", "ios": "https://dc.lft.to/lastmile_qr_scan"}, "type": "electric_scooter"}, {"is_reserved": 0, "is_disabled": 0, "fusion_lon": 0.0, "lat": 38.994162, "name": "d60066ce88ac61a083ab22b4aad6de03", "bike_id": "d60066ce88ac61a083ab22b4aad6de03", "lon": -77.01801683333333, "fusion_lat": 0.0, "rental_uris": {"android": "https://dc.lft.to/lastmile_qr_scan", "ios": "https://dc.lft.to/lastmile_qr_scan"}, "type": "electric_bike"}, {"is_reserved": 0, "is_disabled": 0, "fusion_lon": 0.0, "lat": 38.92792433333334, "name": "fdd9e7012dc36c6e807fdb88dbfdc231", "bike_id": "fdd9e7012dc36c6e807fdb88dbfdc231", "lon": -77.03722883333333, "fusion_lat": 0.0, "rental_uris": {"android": "https://dc.lft.to/lastmile_qr_scan", "ios": "https://dc.lft.to/lastmile_qr_scan"}, "type": "electric_scooter"}, {"is_reserved": 0, "is_disabled": 0, "fusion_lon": 0.0, "lat": 38.921568666666666, "name": "7c421bd3f9e5d92a9c58be3089c3c56a", "bike_id": "7c421bd3f9e5d92a9c58be3089c3c56a", "lon": -77.03383766666667, "fusion_lat": 0.0, "rental_uris": {"android": "https://dc.lft.to/lastmile_qr_scan", "ios": "https://dc.lft.to/lastmile_qr_scan"}, "type": "electric_scooter"}, {"is_reserved": 0, "is_disabled": 0, "fusion_lon": 0.0, "lat": 38.937187, "name": "4f811071c4f63887deee3c60faa9871c", "bike_id": "4f811071c4f63887deee3c60faa9871c", "lon": -77.03286583333333, "fusion_lat": 0.0, "rental_uris": {"android": "https://dc.lft.to/lastmile_qr_scan", "ios": "https://dc.lft.to/lastmile_qr_scan"}, "type": "electric_scooter"}, {"is_reserved": 0, "is_disabled": 0, "fusion_lon": 0.0, "lat": 38.9264065, "name": "2897a59bdbcf2aa32ae3883b2b0c2e58", "bike_id": "2897a59bdbcf2aa32ae3883b2b0c2e58", "lon": -77.03710366666667, "fusion_lat": 0.0, "rental_uris": {"android": "https://dc.lft.to/lastmile_qr_scan", "ios": "https://dc.lft.to/lastmile_qr_scan"}, "type": "electric_scooter"}, {"is_reserved": 0, "is_disabled": 0, "fusion_lon": 0.0, "lat": 38.88710066666667, "name": "c029edc606448f72d5768ab409808ce2", "bike_id": "c029edc606448f72d5768ab409808ce2", "lon": -76.98341783333333, "fusion_lat": 0.0, "rental_uris": {"android": "https://dc.lft.to/lastmile_qr_scan", "ios": "https://dc.lft.to/lastmile_qr_scan"}, "type": "electric_scooter"}, {"is_reserved": 0, "is_disabled": 0, "fusion_lon": 0.0, "lat": 38.944730666666665, "name": "cf00af0fa85e0cc75ed2e072722ee67f", "bike_id": "cf00af0fa85e0cc75ed2e072722ee67f", "lon": -76.98692966666667, "fusion_lat": 0.0, "rental_uris": {"android": "https://dc.lft.to/lastmile_qr_scan", "ios": "https://dc.lft.to/lastmile_qr_scan"}, "type": "electric_bike"}, {"is_reserved": 0, "is_disabled": 0, "fusion_lon": 0.0, "lat": 38.92483983333333, "name": "4d293ed0d76be4975e9b8c07ed7fc538", "bike_id": "4d293ed0d76be4975e9b8c07ed7fc538", "lon": -77.02272883333333, "fusion_lat": 0.0, "rental_uris": {"android": "https://dc.lft.to/lastmile_qr_scan", "ios": "https://dc.lft.to/lastmile_qr_scan"}, "type": "electric_scooter"}, {"is_reserved": 0, "is_disabled": 0, "fusion_lon": 0.0, "lat": 38.916879, "name": "43809655a03fa99f8326781f8f113481", "bike_id": "43809655a03fa99f8326781f8f113481", "lon": -77.02950716666666, "fusion_lat": 0.0, "rental_uris": {"android": "https://dc.lft.to/lastmile_qr_scan", "ios": "https://dc.lft.to/lastmile_qr_scan"}, "type": "electric_scooter"}, {"is_reserved": 0, "is_disabled": 0, "fusion_lon": 0.0, "lat": 38.91657883333333, "name": "b3d9312660956fe423b5fe2396704581", "bike_id": "b3d9312660956fe423b5fe2396704581", "lon": -77.02005983333333, "fusion_lat": 0.0, "rental_uris": {"android": "https://dc.lft.to/lastmile_qr_scan", "ios": "https://dc.lft.to/lastmile_qr_scan"}, "type": "electric_scooter"}, {"is_reserved": 0, "is_disabled": 0, "fusion_lon": 0.0, "lat": 38.93489, "name": "bc365ede36e91ef47a9e467605cc06b1", "bike_id": "bc365ede36e91ef47a9e467605cc06b1", "lon": -77.0297975, "fusion_lat": 0.0, "rental_uris": {"android": "https://dc.lft.to/lastmile_qr_scan", "ios": "https://dc.lft.to/lastmile_qr_scan"}, "type": "electric_scooter"}, {"is_reserved": 0, "is_disabled": 0, "fusion_lon": 0.0, "lat": 38.90038233333333, "name": "f8b670efca7a42cc2259e6bbb115306f", "bike_id": "f8b670efca7a42cc2259e6bbb115306f", "lon": -76.9915495, "fusion_lat": 0.0, "rental_uris": {"android": "https://dc.lft.to/lastmile_qr_scan", "ios": "https://dc.lft.to/lastmile_qr_scan"}, "type": "electric_scooter"}, {"is_reserved": 0, "is_disabled": 0, "fusion_lon": 0.0, "lat": 38.9241295, "name": "b9387a6ffab0d674a63ae80c1159960c", "bike_id": "b9387a6ffab0d674a63ae80c1159960c", "lon": -77.05062133333334, "fusion_lat": 0.0, "rental_uris": {"android": "https://dc.lft.to/lastmile_qr_scan", "ios": "https://dc.lft.to/lastmile_qr_scan"}, "type": "electric_scooter"}, {"is_reserved": 0, "is_disabled": 0, "fusion_lon": 0.0, "lat": 38.966209666666664, "name": "55e4a6262456cda4e0434350c80e9de1", "bike_id": "55e4a6262456cda4e0434350c80e9de1", "lon": -77.03437933333333, "fusion_lat": 0.0, "rental_uris": {"android": "https://dc.lft.to/lastmile_qr_scan", "ios": "https://dc.lft.to/lastmile_qr_scan"}, "type": "electric_bike"}, {"is_reserved": 0, "is_disabled": 0, "fusion_lon": 0.0, "lat": 38.90013166666667, "name": "630b266403fd093fd3a13c967696b8ff", "bike_id": "630b266403fd093fd3a13c967696b8ff", "lon": -76.93026383333333, "fusion_lat": 0.0, "rental_uris": {"android": "https://dc.lft.to/lastmile_qr_scan", "ios": "https://dc.lft.to/lastmile_qr_scan"}, "type": "electric_scooter"}, {"is_reserved": 0, "is_disabled": 0, "fusion_lon": 0.0, "lat": 38.9260915, "name": "bbb41d257e0a9f6668ee99271f7c31e3", "bike_id": "bbb41d257e0a9f6668ee99271f7c31e3", "lon": -77.02163583333333, "fusion_lat": 0.0, "rental_uris": {"android": "https://dc.lft.to/lastmile_qr_scan", "ios": "https://dc.lft.to/lastmile_qr_scan"}, "type": "electric_scooter"}, {"is_reserved": 0, "is_disabled": 0, "fusion_lon": 0.0, "lat": 38.8759965, "name": "030b6ae73e4005c0b5dc1dc9326c8de7", "bike_id": "030b6ae73e4005c0b5dc1dc9326c8de7", "lon": -77.0058375, "fusion_lat": 0.0, "rental_uris": {"android": "https://dc.lft.to/lastmile_qr_scan", "ios": "https://dc.lft.to/lastmile_qr_scan"}, "type": "electric_scooter"}, {"is_reserved": 0, "is_disabled": 0, "fusion_lon": 0.0, "lat": 38.90854983333333, "name": "312cb03d6639c9dd0169d4cf7d284634", "bike_id": "312cb03d6639c9dd0169d4cf7d284634", "lon": -76.99680733333334, "fusion_lat": 0.0, "rental_uris": {"android": "https://dc.lft.to/lastmile_qr_scan", "ios": "https://dc.lft.to/lastmile_qr_scan"}, "type": "electric_scooter"}, {"is_reserved": 0, "is_disabled": 0, "fusion_lon": 0.0, "lat": 38.890058, "name": "92141ea0c95b8f743782e093b39b21e2", "bike_id": "92141ea0c95b8f743782e093b39b21e2", "lon": -76.93750166666666, "fusion_lat": 0.0, "rental_uris": {"android": "https://dc.lft.to/lastmile_qr_scan", "ios": "https://dc.lft.to/lastmile_qr_scan"}, "type": "electric_scooter"}, {"is_reserved": 0, "is_disabled": 0, "fusion_lon": 0.0, "lat": 38.89215883333333, "name": "e31286d922271b76b91937ad5ef085fe", "bike_id": "e31286d922271b76b91937ad5ef085fe", "lon": -77.003431, "fusion_lat": 0.0, "rental_uris": {"android": "https://dc.lft.to/lastmile_qr_scan", "ios": "https://dc.lft.to/lastmile_qr_scan"}, "type": "electric_scooter"}, {"is_reserved": 0, "is_disabled": 0, "fusion_lon": 0.0, "lat": 38.92241166666667, "name": "531ee7ee6eb73a7786949706c88ad913", "bike_id": "531ee7ee6eb73a7786949706c88ad913", "lon": -77.0436285, "fusion_lat": 0.0, "rental_uris": {"android": "https://dc.lft.to/lastmile_qr_scan", "ios": "https://dc.lft.to/lastmile_qr_scan"}, "type": "electric_scooter"}, {"is_reserved": 0, "is_disabled": 0, "fusion_lon": 0.0, "lat": 38.91012583333333, "name": "01807e24d4404befd4ec7693cf3bf8d5", "bike_id": "01807e24d4404befd4ec7693cf3bf8d5", "lon": -77.04657066666667, "fusion_lat": 0.0, "rental_uris": {"android": "https://dc.lft.to/lastmile_qr_scan", "ios": "https://dc.lft.to/lastmile_qr_scan"}, "type": "electric_scooter"}, {"is_reserved": 0, "is_disabled": 0, "fusion_lon": 0.0, "lat": 38.88819683333333, "name": "593b2669407eb6b479f20386cc99c47d", "bike_id": "593b2669407eb6b479f20386cc99c47d", "lon": -76.97699983333334, "fusion_lat": 0.0, "rental_uris": {"android": "https://dc.lft.to/lastmile_qr_scan", "ios": "https://dc.lft.to/lastmile_qr_scan"}, "type": "electric_scooter"}, {"is_reserved": 0, "is_disabled": 0, "fusion_lon": 0.0, "lat": 38.933881666666665, "name": "8eea41a8c20272173f713440f1b518cb", "bike_id": "8eea41a8c20272173f713440f1b518cb", "lon": -77.02965516666667, "fusion_lat": 0.0, "rental_uris": {"android": "https://dc.lft.to/lastmile_qr_scan", "ios": "https://dc.lft.to/lastmile_qr_scan"}, "type": "electric_scooter"}, {"is_reserved": 0, "is_disabled": 0, "fusion_lon": 0.0, "lat": 38.9386545, "name": "32fc0ccdfaf0f64f4e3ea60c6387a598", "bike_id": "32fc0ccdfaf0f64f4e3ea60c6387a598", "lon": -77.02524266666667, "fusion_lat": 0.0, "rental_uris": {"android": "https://dc.lft.to/lastmile_qr_scan", "ios": "https://dc.lft.to/lastmile_qr_scan"}, "type": "electric_scooter"}, {"is_reserved": 0, "is_disabled": 0, "fusion_lon": 0.0, "lat": 38.88409016666667, "name": "282f444e0327e61cd21065691d016da0", "bike_id": "282f444e0327e61cd21065691d016da0", "lon": -77.0256255, "fusion_lat": 0.0, "rental_uris": {"android": "https://dc.lft.to/lastmile_qr_scan", "ios": "https://dc.lft.to/lastmile_qr_scan"}, "type": "electric_scooter"}, {"is_reserved": 0, "is_disabled": 0, "fusion_lon": 0.0, "lat": 38.890092333333335, "name": "aeca4351b042235f51361205bd63c8d9", "bike_id": "aeca4351b042235f51361205bd63c8d9", "lon": -76.9374105, "fusion_lat": 0.0, "rental_uris": {"android": "https://dc.lft.to/lastmile_qr_scan", "ios": "https://dc.lft.to/lastmile_qr_scan"}, "type": "electric_scooter"}, {"is_reserved": 0, "is_disabled": 0, "fusion_lon": 0.0, "lat": 38.898776833333336, "name": "53ae186059e57dae72a8baa31c81cab5", "bike_id": "53ae186059e57dae72a8baa31c81cab5", "lon": -76.93184633333334, "fusion_lat": 0.0, "rental_uris": {"android": "https://dc.lft.to/lastmile_qr_scan", "ios": "https://dc.lft.to/lastmile_qr_scan"}, "type": "electric_bike"}, {"is_reserved": 0, "is_disabled": 0, "fusion_lon": 0.0, "lat": 38.87940733333333, "name": "d6af3f303d1617d668801c4f3beaaa42", "bike_id": "d6af3f303d1617d668801c4f3beaaa42", "lon": -77.00373266666666, "fusion_lat": 0.0, "rental_uris": {"android": "https://dc.lft.to/lastmile_qr_scan", "ios": "https://dc.lft.to/lastmile_qr_scan"}, "type": "electric_scooter"}, {"is_reserved": 0, "is_disabled": 0, "fusion_lon": 0.0, "lat": 38.924477, "name": "bafe18b3be6f74828b357b363b8cade8", "bike_id": "bafe18b3be6f74828b357b363b8cade8", "lon": -76.96836283333333, "fusion_lat": 0.0, "rental_uris": {"android": "https://dc.lft.to/lastmile_qr_scan", "ios": "https://dc.lft.to/lastmile_qr_scan"}, "type": "electric_bike"}, {"is_reserved": 0, "is_disabled": 0, "fusion_lon": 0.0, "lat": 38.94202, "name": "b2ace8d5abba063252e65939a258e4c8", "bike_id": "b2ace8d5abba063252e65939a258e4c8", "lon": -77.018332, "fusion_lat": 0.0, "rental_uris": {"android": "https://dc.lft.to/lastmile_qr_scan", "ios": "https://dc.lft.to/lastmile_qr_scan"}, "type": "electric_scooter"}, {"is_reserved": 0, "is_disabled": 0, "fusion_lon": 0.0, "lat": 38.90237233333333, "name": "583fe3afc9f4ffa75990bc0db317fc64", "bike_id": "583fe3afc9f4ffa75990bc0db317fc64", "lon": -77.00200783333334, "fusion_lat": 0.0, "rental_uris": {"android": "https://dc.lft.to/lastmile_qr_scan", "ios": "https://dc.lft.to/lastmile_qr_scan"}, "type": "electric_scooter"}, {"is_reserved": 0, "is_disabled": 0, "fusion_lon": 0.0, "lat": 38.89906, "name": "760812f088bad2431ede20ec0a1de43e", "bike_id": "760812f088bad2431ede20ec0a1de43e", "lon": -76.93387416666667, "fusion_lat": 0.0, "rental_uris": {"android": "https://dc.lft.to/lastmile_qr_scan", "ios": "https://dc.lft.to/lastmile_qr_scan"}, "type": "electric_scooter"}, {"is_reserved": 0, "is_disabled": 0, "fusion_lon": 0.0, "lat": 38.918064333333334, "name": "87687ab50ac714077b5e4dad0dcc92e3", "bike_id": "87687ab50ac714077b5e4dad0dcc92e3", "lon": -77.04021533333334, "fusion_lat": 0.0, "rental_uris": {"android": "https://dc.lft.to/lastmile_qr_scan", "ios": "https://dc.lft.to/lastmile_qr_scan"}, "type": "electric_scooter"}, {"is_reserved": 0, "is_disabled": 0, "fusion_lon": 0.0, "lat": 38.902648166666665, "name": "3a229d553a25a02ada014fa33ca11f13", "bike_id": "3a229d553a25a02ada014fa33ca11f13", "lon": -77.02999266666667, "fusion_lat": 0.0, "rental_uris": {"android": "https://dc.lft.to/lastmile_qr_scan", "ios": "https://dc.lft.to/lastmile_qr_scan"}, "type": "electric_scooter"}, {"is_reserved": 0, "is_disabled": 0, "fusion_lon": 0.0, "lat": 38.85220116666667, "name": "0f3f6f7add1a3d6f0c1131130205d9da", "bike_id": "0f3f6f7add1a3d6f0c1131130205d9da", "lon": -76.99375033333334, "fusion_lat": 0.0, "rental_uris": {"android": "https://dc.lft.to/lastmile_qr_scan", "ios": "https://dc.lft.to/lastmile_qr_scan"}, "type": "electric_scooter"}, {"is_reserved": 0, "is_disabled": 0, "fusion_lon": 0.0, "lat": 38.91403966666667, "name": "4243e97d9332e2b03c60a2f037009f9f", "bike_id": "4243e97d9332e2b03c60a2f037009f9f", "lon": -77.032629, "fusion_lat": 0.0, "rental_uris": {"android": "https://dc.lft.to/lastmile_qr_scan", "ios": "https://dc.lft.to/lastmile_qr_scan"}, "type": "electric_scooter"}, {"is_reserved": 0, "is_disabled": 0, "fusion_lon": 0.0, "lat": 38.92031766666667, "name": "c221edb0c17b07a8b486c2463b7e5509", "bike_id": "c221edb0c17b07a8b486c2463b7e5509", "lon": -77.01222533333333, "fusion_lat": 0.0, "rental_uris": {"android": "https://dc.lft.to/lastmile_qr_scan", "ios": "https://dc.lft.to/lastmile_qr_scan"}, "type": "electric_scooter"}, {"is_reserved": 0, "is_disabled": 0, "fusion_lon": 0.0, "lat": 38.92559, "name": "cc2a51acca187ee9cf35077be752c595", "bike_id": "cc2a51acca187ee9cf35077be752c595", "lon": -77.02284483333334, "fusion_lat": 0.0, "rental_uris": {"android": "https://dc.lft.to/lastmile_qr_scan", "ios": "https://dc.lft.to/lastmile_qr_scan"}, "type": "electric_scooter"}, {"is_reserved": 0, "is_disabled": 0, "fusion_lon": 0.0, "lat": 38.927011666666665, "name": "3bd6de77ecd7a29434c9947e52b50f1f", "bike_id": "3bd6de77ecd7a29434c9947e52b50f1f", "lon": -77.020718, "fusion_lat": 0.0, "rental_uris": {"android": "https://dc.lft.to/lastmile_qr_scan", "ios": "https://dc.lft.to/lastmile_qr_scan"}, "type": "electric_scooter"}, {"is_reserved": 0, "is_disabled": 0, "fusion_lon": 0.0, "lat": 38.955985166666665, "name": "f8cf0ebbdf0f98369cdaca4075a2acf4", "bike_id": "f8cf0ebbdf0f98369cdaca4075a2acf4", "lon": -77.01009966666666, "fusion_lat": 0.0, "rental_uris": {"android": "https://dc.lft.to/lastmile_qr_scan", "ios": "https://dc.lft.to/lastmile_qr_scan"}, "type": "electric_bike"}, {"is_reserved": 0, "is_disabled": 0, "fusion_lon": 0.0, "lat": 38.894825, "name": "f6a81ebd2484c31db7cd3c5efd8a06b0", "bike_id": "f6a81ebd2484c31db7cd3c5efd8a06b0", "lon": -77.04184633333334, "fusion_lat": 0.0, "rental_uris": {"android": "https://dc.lft.to/lastmile_qr_scan", "ios": "https://dc.lft.to/lastmile_qr_scan"}, "type": "electric_scooter"}, {"is_reserved": 0, "is_disabled": 0, "fusion_lon": 0.0, "lat": 38.842208166666666, "name": "68f89936f549585281353cef0653cd99", "bike_id": "68f89936f549585281353cef0653cd99", "lon": -76.94903833333333, "fusion_lat": 0.0, "rental_uris": {"android": "https://dc.lft.to/lastmile_qr_scan", "ios": "https://dc.lft.to/lastmile_qr_scan"}, "type": "electric_bike"}, {"is_reserved": 0, "is_disabled": 0, "fusion_lon": 0.0, "lat": 38.92333166666667, "name": "03d3996cc8b0e5b78943900a7a7477f3", "bike_id": "03d3996cc8b0e5b78943900a7a7477f3", "lon": -77.05677466666667, "fusion_lat": 0.0, "rental_uris": {"android": "https://dc.lft.to/lastmile_qr_scan", "ios": "https://dc.lft.to/lastmile_qr_scan"}, "type": "electric_scooter"}, {"is_reserved": 0, "is_disabled": 0, "fusion_lon": 0.0, "lat": 38.9110715, "name": "2970ba93da84ed1c51290570251b0ed3", "bike_id": "2970ba93da84ed1c51290570251b0ed3", "lon": -77.045152, "fusion_lat": 0.0, "rental_uris": {"android": "https://dc.lft.to/lastmile_qr_scan", "ios": "https://dc.lft.to/lastmile_qr_scan"}, "type": "electric_scooter"}, {"is_reserved": 0, "is_disabled": 0, "fusion_lon": 0.0, "lat": 38.89221283333333, "name": "3bc1672c8c470ce341ba90e3bc54f022", "bike_id": "3bc1672c8c470ce341ba90e3bc54f022", "lon": -77.04867, "fusion_lat": 0.0, "rental_uris": {"android": "https://dc.lft.to/lastmile_qr_scan", "ios": "https://dc.lft.to/lastmile_qr_scan"}, "type": "electric_scooter"}, {"is_reserved": 0, "is_disabled": 0, "fusion_lon": 0.0, "lat": 38.860570833333334, "name": "bcc7fa77e0e9a5ccf1f31f614f3e6e64", "bike_id": "bcc7fa77e0e9a5ccf1f31f614f3e6e64", "lon": -76.98423783333334, "fusion_lat": 0.0, "rental_uris": {"android": "https://dc.lft.to/lastmile_qr_scan", "ios": "https://dc.lft.to/lastmile_qr_scan"}, "type": "electric_scooter"}, {"is_reserved": 0, "is_disabled": 0, "fusion_lon": 0.0, "lat": 38.92074233333334, "name": "5874a7351b45e8c864fde4658d3fb476", "bike_id": "5874a7351b45e8c864fde4658d3fb476", "lon": -77.0230595, "fusion_lat": 0.0, "rental_uris": {"android": "https://dc.lft.to/lastmile_qr_scan", "ios": "https://dc.lft.to/lastmile_qr_scan"}, "type": "electric_scooter"}, {"is_reserved": 0, "is_disabled": 0, "fusion_lon": 0.0, "lat": 38.9180275, "name": "88ccda4da121177ece618acc33a16306", "bike_id": "88ccda4da121177ece618acc33a16306", "lon": -77.02488183333334, "fusion_lat": 0.0, "rental_uris": {"android": "https://dc.lft.to/lastmile_qr_scan", "ios": "https://dc.lft.to/lastmile_qr_scan"}, "type": "electric_scooter"}, {"is_reserved": 0, "is_disabled": 0, "fusion_lon": 0.0, "lat": 38.90667533333333, "name": "eaa531a48a251d86da2580831d208e6f", "bike_id": "eaa531a48a251d86da2580831d208e6f", "lon": -77.02710383333333, "fusion_lat": 0.0, "rental_uris": {"android": "https://dc.lft.to/lastmile_qr_scan", "ios": "https://dc.lft.to/lastmile_qr_scan"}, "type": "electric_scooter"}, {"is_reserved": 0, "is_disabled": 0, "fusion_lon": 0.0, "lat": 38.90265316666667, "name": "b096abcb04b3865cf4fc59b26d5268c4", "bike_id": "b096abcb04b3865cf4fc59b26d5268c4", "lon": -77.01759983333334, "fusion_lat": 0.0, "rental_uris": {"android": "https://dc.lft.to/lastmile_qr_scan", "ios": "https://dc.lft.to/lastmile_qr_scan"}, "type": "electric_scooter"}, {"is_reserved": 0, "is_disabled": 0, "fusion_lon": 0.0, "lat": 38.94261, "name": "7b070230b98b7fc391e306441f8b5d5a", "bike_id": "7b070230b98b7fc391e306441f8b5d5a", "lon": -77.02842666666666, "fusion_lat": 0.0, "rental_uris": {"android": "https://dc.lft.to/lastmile_qr_scan", "ios": "https://dc.lft.to/lastmile_qr_scan"}, "type": "electric_scooter"}, {"is_reserved": 0, "is_disabled": 0, "fusion_lon": 0.0, "lat": 38.9232055, "name": "4633fa970930a36f0aa829abcc7125f8", "bike_id": "4633fa970930a36f0aa829abcc7125f8", "lon": -77.01952833333333, "fusion_lat": 0.0, "rental_uris": {"android": "https://dc.lft.to/lastmile_qr_scan", "ios": "https://dc.lft.to/lastmile_qr_scan"}, "type": "electric_scooter"}, {"is_reserved": 0, "is_disabled": 0, "fusion_lon": 0.0, "lat": 38.91532216666667, "name": "80dfe89c63d3f21c7e84ec1c142d5577", "bike_id": "80dfe89c63d3f21c7e84ec1c142d5577", "lon": -77.04437283333333, "fusion_lat": 0.0, "rental_uris": {"android": "https://dc.lft.to/lastmile_qr_scan", "ios": "https://dc.lft.to/lastmile_qr_scan"}, "type": "electric_scooter"}, {"is_reserved": 0, "is_disabled": 0, "fusion_lon": 0.0, "lat": 38.95120266666667, "name": "067f32fe663606ed0a718ed7252a37c1", "bike_id": "067f32fe663606ed0a718ed7252a37c1", "lon": -77.01569683333334, "fusion_lat": 0.0, "rental_uris": {"android": "https://dc.lft.to/lastmile_qr_scan", "ios": "https://dc.lft.to/lastmile_qr_scan"}, "type": "electric_scooter"}, {"is_reserved": 0, "is_disabled": 0, "fusion_lon": 0.0, "lat": 38.934875, "name": "1c043895e5b7266296489500d8ac7db9", "bike_id": "1c043895e5b7266296489500d8ac7db9", "lon": -76.98194866666667, "fusion_lat": 0.0, "rental_uris": {"android": "https://dc.lft.to/lastmile_qr_scan", "ios": "https://dc.lft.to/lastmile_qr_scan"}, "type": "electric_scooter"}, {"is_reserved": 0, "is_disabled": 0, "fusion_lon": 0.0, "lat": 38.89290316666667, "name": "445f96c2e24e6d1e7a504ea9a27b779b", "bike_id": "445f96c2e24e6d1e7a504ea9a27b779b", "lon": -76.97616383333333, "fusion_lat": 0.0, "rental_uris": {"android": "https://dc.lft.to/lastmile_qr_scan", "ios": "https://dc.lft.to/lastmile_qr_scan"}, "type": "electric_bike"}, {"is_reserved": 0, "is_disabled": 0, "fusion_lon": 0.0, "lat": 38.89393116666667, "name": "c3b970bba49bfb64b2ffc0dba6e43950", "bike_id": "c3b970bba49bfb64b2ffc0dba6e43950", "lon": -77.0465745, "fusion_lat": 0.0, "rental_uris": {"android": "https://dc.lft.to/lastmile_qr_scan", "ios": "https://dc.lft.to/lastmile_qr_scan"}, "type": "electric_scooter"}, {"is_reserved": 0, "is_disabled": 0, "fusion_lon": 0.0, "lat": 38.932764666666664, "name": "ba641cfca429be1c626cc8b754db5970", "bike_id": "ba641cfca429be1c626cc8b754db5970", "lon": -76.996198, "fusion_lat": 0.0, "rental_uris": {"android": "https://dc.lft.to/lastmile_qr_scan", "ios": "https://dc.lft.to/lastmile_qr_scan"}, "type": "electric_scooter"}, {"is_reserved": 0, "is_disabled": 0, "fusion_lon": 0.0, "lat": 38.883857166666665, "name": "6a5ab8f4453f45f14ced906d2e19c4df", "bike_id": "6a5ab8f4453f45f14ced906d2e19c4df", "lon": -77.01983733333333, "fusion_lat": 0.0, "rental_uris": {"android": "https://dc.lft.to/lastmile_qr_scan", "ios": "https://dc.lft.to/lastmile_qr_scan"}, "type": "electric_scooter"}, {"is_reserved": 0, "is_disabled": 0, "fusion_lon": 0.0, "lat": 38.86622966666667, "name": "aa2cb96a936a439347fc7b80346f36c8", "bike_id": "aa2cb96a936a439347fc7b80346f36c8", "lon": -76.98713833333333, "fusion_lat": 0.0, "rental_uris": {"android": "https://dc.lft.to/lastmile_qr_scan", "ios": "https://dc.lft.to/lastmile_qr_scan"}, "type": "electric_scooter"}, {"is_reserved": 0, "is_disabled": 0, "fusion_lon": 0.0, "lat": 38.919319, "name": "3459aba15f355996426ea55729397997", "bike_id": "3459aba15f355996426ea55729397997", "lon": -77.03477116666667, "fusion_lat": 0.0, "rental_uris": {"android": "https://dc.lft.to/lastmile_qr_scan", "ios": "https://dc.lft.to/lastmile_qr_scan"}, "type": "electric_scooter"}, {"is_reserved": 0, "is_disabled": 0, "fusion_lon": 0.0, "lat": 38.905846833333335, "name": "6949b1e98fe77e5ec013ff39cb023c6a", "bike_id": "6949b1e98fe77e5ec013ff39cb023c6a", "lon": -77.03431166666667, "fusion_lat": 0.0, "rental_uris": {"android": "https://dc.lft.to/lastmile_qr_scan", "ios": "https://dc.lft.to/lastmile_qr_scan"}, "type": "electric_scooter"}, {"is_reserved": 0, "is_disabled": 0, "fusion_lon": 0.0, "lat": 38.92448983333333, "name": "bc4acadbffa0cf52eadb586e14414585", "bike_id": "bc4acadbffa0cf52eadb586e14414585", "lon": -77.02135, "fusion_lat": 0.0, "rental_uris": {"android": "https://dc.lft.to/lastmile_qr_scan", "ios": "https://dc.lft.to/lastmile_qr_scan"}, "type": "electric_scooter"}, {"is_reserved": 0, "is_disabled": 0, "fusion_lon": 0.0, "lat": 38.920261833333335, "name": "2e2bd5c90dfd0271cb516fad14b6d6a0", "bike_id": "2e2bd5c90dfd0271cb516fad14b6d6a0", "lon": -77.01813633333333, "fusion_lat": 0.0, "rental_uris": {"android": "https://dc.lft.to/lastmile_qr_scan", "ios": "https://dc.lft.to/lastmile_qr_scan"}, "type": "electric_scooter"}, {"is_reserved": 0, "is_disabled": 0, "fusion_lon": 0.0, "lat": 38.910693333333334, "name": "6fd32f9431c23d1718aa96335cc9c9de", "bike_id": "6fd32f9431c23d1718aa96335cc9c9de", "lon": -77.04247233333334, "fusion_lat": 0.0, "rental_uris": {"android": "https://dc.lft.to/lastmile_qr_scan", "ios": "https://dc.lft.to/lastmile_qr_scan"}, "type": "electric_scooter"}, {"is_reserved": 0, "is_disabled": 0, "fusion_lon": 0.0, "lat": 38.9364325, "name": "669f707445edc668ab39154e93bcadd3", "bike_id": "669f707445edc668ab39154e93bcadd3", "lon": -77.02442766666667, "fusion_lat": 0.0, "rental_uris": {"android": "https://dc.lft.to/lastmile_qr_scan", "ios": "https://dc.lft.to/lastmile_qr_scan"}, "type": "electric_scooter"}, {"is_reserved": 0, "is_disabled": 0, "fusion_lon": 0.0, "lat": 38.89967633333333, "name": "1581ea95ca995b277c9b22415055757b", "bike_id": "1581ea95ca995b277c9b22415055757b", "lon": -77.0557225, "fusion_lat": 0.0, "rental_uris": {"android": "https://dc.lft.to/lastmile_qr_scan", "ios": "https://dc.lft.to/lastmile_qr_scan"}, "type": "electric_scooter"}, {"is_reserved": 0, "is_disabled": 0, "fusion_lon": 0.0, "lat": 38.915536, "name": "0d8e427e8c2212cb5bfa84c373a14c88", "bike_id": "0d8e427e8c2212cb5bfa84c373a14c88", "lon": -77.03677283333333, "fusion_lat": 0.0, "rental_uris": {"android": "https://dc.lft.to/lastmile_qr_scan", "ios": "https://dc.lft.to/lastmile_qr_scan"}, "type": "electric_scooter"}, {"is_reserved": 0, "is_disabled": 0, "fusion_lon": 0.0, "lat": 38.94977333333333, "name": "3e44fb97ad71e0211b9b5dcab0530bab", "bike_id": "3e44fb97ad71e0211b9b5dcab0530bab", "lon": -77.0243465, "fusion_lat": 0.0, "rental_uris": {"android": "https://dc.lft.to/lastmile_qr_scan", "ios": "https://dc.lft.to/lastmile_qr_scan"}, "type": "electric_scooter"}, {"is_reserved": 0, "is_disabled": 0, "fusion_lon": 0.0, "lat": 38.90261916666667, "name": "8a5c0d810b3909612f49355fcc488819", "bike_id": "8a5c0d810b3909612f49355fcc488819", "lon": -77.06015583333334, "fusion_lat": 0.0, "rental_uris": {"android": "https://dc.lft.to/lastmile_qr_scan", "ios": "https://dc.lft.to/lastmile_qr_scan"}, "type": "electric_scooter"}, {"is_reserved": 0, "is_disabled": 0, "fusion_lon": 0.0, "lat": 38.934485, "name": "df4abb26f652be4441c67cc4bd7f4afc", "bike_id": "df4abb26f652be4441c67cc4bd7f4afc", "lon": -77.08967283333334, "fusion_lat": 0.0, "rental_uris": {"android": "https://dc.lft.to/lastmile_qr_scan", "ios": "https://dc.lft.to/lastmile_qr_scan"}, "type": "electric_scooter"}, {"is_reserved": 0, "is_disabled": 0, "fusion_lon": 0.0, "lat": 38.97322366666667, "name": "dde767a134f9beaca7f7a61cbce0ae64", "bike_id": "dde767a134f9beaca7f7a61cbce0ae64", "lon": -77.02714916666666, "fusion_lat": 0.0, "rental_uris": {"android": "https://dc.lft.to/lastmile_qr_scan", "ios": "https://dc.lft.to/lastmile_qr_scan"}, "type": "electric_scooter"}, {"is_reserved": 0, "is_disabled": 0, "fusion_lon": 0.0, "lat": 38.924057166666664, "name": "e9afdf2c2d39fc6fa202a190781523fa", "bike_id": "e9afdf2c2d39fc6fa202a190781523fa", "lon": -77.027036, "fusion_lat": 0.0, "rental_uris": {"android": "https://dc.lft.to/lastmile_qr_scan", "ios": "https://dc.lft.to/lastmile_qr_scan"}, "type": "electric_scooter"}, {"is_reserved": 0, "is_disabled": 0, "fusion_lon": 0.0, "lat": 38.92692516666666, "name": "6b21539d7214b6ef4612ff78740d5f61", "bike_id": "6b21539d7214b6ef4612ff78740d5f61", "lon": -77.0149815, "fusion_lat": 0.0, "rental_uris": {"android": "https://dc.lft.to/lastmile_qr_scan", "ios": "https://dc.lft.to/lastmile_qr_scan"}, "type": "electric_scooter"}, {"is_reserved": 0, "is_disabled": 0, "fusion_lon": 0.0, "lat": 38.87973616666667, "name": "1a80704dfd8258b998d8f9b70823661e", "bike_id": "1a80704dfd8258b998d8f9b70823661e", "lon": -77.02434633333333, "fusion_lat": 0.0, "rental_uris": {"android": "https://dc.lft.to/lastmile_qr_scan", "ios": "https://dc.lft.to/lastmile_qr_scan"}, "type": "electric_scooter"},