{"data": {"bikes": [{"fusion_lat": 0.0, "name": "6cf8c872afc65026bd116c06557d4111", "is_disabled": 0, "rental_uris": {"android": "https://dc.lft.to/lastmile_qr_scan", "ios": "https://dc.lft.to/lastmile_qr_scan"}, "fusion_lon": 0.0, "lat": 38.919982833333336, "bike_id": "6cf8c872afc65026bd116c06557d4111", "type": "electric_scooter", "is_reserved": 0, "lon": -77.03258733333334}, {"fusion_lat": 0.0, "name": "22e6e34cc17592c40683cf1654695676", "is_disabled": 0, "rental_uris": {"android": "https://dc.lft.to/lastmile_qr_scan", "ios": "https://dc.lft.to/lastmile_qr_scan"}, "fusion_lon": 0.0, "lat": 38.88496216666667, "bike_id": "22e6e34cc17592c40683cf1654695676", "type": "electric_scooter", "is_reserved": 0, "lon": -77.0300915}, {"fusion_lat": 0.0, "name": "9483eda0a6ee2f6818fcfa5cc0e38257", "is_disabled": 0, "rental_uris": {"android": "https://dc.lft.to/lastmile_qr_scan", "ios": "https://dc.lft.to/lastmile_qr_scan"}, "fusion_lon": 0.0, "lat": 38.907530333333334, "bike_id": "9483eda0a6ee2f6818fcfa5cc0e38257", "type": "electric_scooter", "is_reserved": 0, "lon": -76.99855766666667}, {"fusion_lat": 0.0, "name": "911a4785e67bbd9963f53f1f35c84367", "is_disabled": 0, "rental_uris": {"android": "https://dc.lft.to/lastmile_qr_scan", "ios": "https://dc.lft.to/lastmile_qr_scan"}, "fusion_lon": 0.0, "lat": 38.91178683333333, "bike_id": "911a4785e67bbd9963f53f1f35c84367", "type": "electric_scooter", "is_reserved": 0, "lon": -77.06862333333333}, {"fusion_lat": 0.0, "name": "616b03fc27a8a63b952a5b93064eee4e", "is_disabled": 0, "rental_uris": {"android": "https://dc.lft.to/lastmile_qr_scan", "ios": "https://dc.lft.to/lastmile_qr_scan"}, "fusion_lon": 0.0, "lat": 38.924177, "bike_id": "616b03fc27a8a63b952a5b93064eee4e", "type": "electric_scooter", "is_reserved": 0, "lon": -77.0200955}, {"fusion_lat": 0.0, "name": "358619037e71f9f018c7015b552ac830", "is_disabled": 0, "rental_uris": {"android": "https://dc.lft.to/lastmile_qr_scan", "ios": "https://dc.lft.to/lastmile_qr_scan"}, "fusion_lon": 0.0, "lat": 38.922617333333335, "bike_id": "358619037e71f9f018c7015b552ac830", "type": "electric_scooter", "is_reserved": 0, "lon": -77.01844616666666}, {"fusion_lat": 0.0, "name": "97b3e1bf1a1003dbc2f8073db94e567c", "is_disabled": 0, "rental_uris": {"android": "https://dc.lft.to/lastmile_qr_scan", "ios": "https://dc.lft.to/lastmile_qr_scan"}, "fusion_lon": 0.0, "lat": 38.935213, "bike_id": "97b3e1bf1a1003dbc2f8073db94e567c", "type": "electric_scooter", "is_reserved": 0, "lon": -77.07297116666666}, {"fusion_lat": 0.0, "name": "0d5bff308758116f8572686052556d8c", "is_disabled": 0, "rental_uris": {"android": "https://dc.lft.to/lastmile_qr_scan", "ios": "https://dc.lft.to/lastmile_qr_scan"}, "fusion_lon": 0.0, "lat": 38.86145, "bike_id": "0d5bff308758116f8572686052556d8c", "type": "electric_bike", "is_reserved": 0, "lon": -76.971679}, {"fusion_lat": 0.0, "name": "3ce3dceb05397dced79b1a602d73f853", "is_disabled": 0, "rental_uris": {"android": "https://dc.lft.to/lastmile_qr_scan", "ios": "https://dc.lft.to/lastmile_qr_scan"}, "fusion_lon": 0.0, "lat": 38.942916333333336, "bike_id": "3ce3dceb05397dced79b1a602d73f853", "type": "electric_scooter", "is_reserved": 0, "lon": -77.0217645}, {"fusion_lat": 0.0, "name": "b85d6fe6d0d84067dd07abf739a2a96f", "is_disabled": 0, "rental_uris": {"android": "https://dc.lft.to/lastmile_qr_scan", "ios": "https://dc.lft.to/lastmile_qr_scan"}, "fusion_lon": 0.0, "lat": 38.905016, "bike_id": "b85d6fe6d0d84067dd07abf739a2a96f", "type": "electric_scooter", "is_reserved": 0, "lon": -76.9795655}, {"fusion_lat": 0.0, "name": "b4955df89196b7afa1e654a06b57a2a2", "is_disabled": 0, "rental_uris": {"android": "https://dc.lft.to/lastmile_qr_scan", "ios": "https://dc.lft.to/lastmile_qr_scan"}, "fusion_lon": 0.0, "lat": 38.896099, "bike_id": "b4955df89196b7afa1e654a06b57a2a2", "type": "electric_scooter", "is_reserved": 0, "lon": -77.0092515}, {"fusion_lat": 0.0, "name": "c3852391c39103224a106aa329f26808", "is_disabled": 0, "rental_uris": {"android": "https://dc.lft.to/lastmile_qr_scan", "ios": "https://dc.lft.to/lastmile_qr_scan"}, "fusion_lon": 0.0, "lat": 38.877093333333335, "bike_id": "c3852391c39103224a106aa329f26808", "type": "electric_scooter", "is_reserved": 0, "lon": -76.993798}, {"fusion_lat": 0.0, "name": "e5be548e2b554824f3bcbbf854c7fadd", "is_disabled": 0, "rental_uris": {"android": "https://dc.lft.to/lastmile_qr_scan", "ios": "https://dc.lft.to/lastmile_qr_scan"}, "fusion_lon": 0.0, "lat": 38.90016383333333, "bike_id": "e5be548e2b554824f3bcbbf854c7fadd", "type": "electric_scooter", "is_reserved": 0, "lon": -76.98768816666667}, {"fusion_lat": 0.0, "name": "1e2d32dd56ff1bf932668115806f4dc6", "is_disabled": 0, "rental_uris": {"android": "https://dc.lft.to/lastmile_qr_scan", "ios": "https://dc.lft.to/lastmile_qr_scan"}, "fusion_lon": 0.0, "lat": 38.9211225, "bike_id": "1e2d32dd56ff1bf932668115806f4dc6", "type": "electric_scooter", "is_reserved": 0, "lon": -77.01765816666666}, {"fusion_lat": 0.0, "name": "d83a646df4587d7145a618a40efb5491", "is_disabled": 0, "rental_uris": {"android": "https://dc.lft.to/lastmile_qr_scan", "ios": "https://dc.lft.to/lastmile_qr_scan"}, "fusion_lon": 0.0, "lat": 38.898762833333336, "bike_id": "d83a646df4587d7145a618a40efb5491", "type": "electric_scooter", "is_reserved": 0, "lon": -76.93184933333333}, {"fusion_lat": 0.0, "name": "f2d07334c35067abdf4c4edb8fc8fbe1", "is_disabled": 0, "rental_uris": {"android": "https://dc.lft.to/lastmile_qr_scan", "ios": "https://dc.lft.to/lastmile_qr_scan"}, "fusion_lon": 0.0, "lat": 38.886128666666664, "bike_id": "f2d07334c35067abdf4c4edb8fc8fbe1", "type": "electric_scooter", "is_reserved": 0, "lon": -77.01557583333333}, {"fusion_lat": 0.0, "name": "1fec90559f7abbc27727130518ad4862", "is_disabled": 0, "rental_uris": {"android": "https://dc.lft.to/lastmile_qr_scan", "ios": "https://dc.lft.to/lastmile_qr_scan"}, "fusion_lon": 0.0, "lat": 38.91996566666667, "bike_id": "1fec90559f7abbc27727130518ad4862", "type": "electric_scooter", "is_reserved": 0, "lon": -77.02175566666666}, {"fusion_lat": 0.0, "name": "fa9afb6d1fd9c18b0b074721d06a4f50", "is_disabled": 0, "rental_uris": {"android": "https://dc.lft.to/lastmile_qr_scan", "ios": "https://dc.lft.to/lastmile_qr_scan"}, "fusion_lon": 0.0, "lat": 38.929346, "bike_id": "fa9afb6d1fd9c18b0b074721d06a4f50", "type": "electric_scooter", "is_reserved": 0, "lon": -77.0375725}, {"fusion_lat": 0.0, "name": "30fd9a40e494ff9971f1c7247b1241c3", "is_disabled": 0, "rental_uris": {"android": "https://dc.lft.to/lastmile_qr_scan", "ios": "https://dc.lft.to/lastmile_qr_scan"}, "fusion_lon": 0.0, "lat": 38.90787566666667, "bike_id": "30fd9a40e494ff9971f1c7247b1241c3", "type": "electric_scooter", "is_reserved": 0, "lon": -77.04278366666666}, {"fusion_lat": 0.0, "name": "50e96e777e514d1064714c6662746661", "is_disabled": 0, "rental_uris": {"android": "https://dc.lft.to/lastmile_qr_scan", "ios": "https://dc.lft.to/lastmile_qr_scan"}, "fusion_lon": 0.0, "lat": 38.88616716666667, "bike_id": "50e96e777e514d1064714c6662746661", "type": "electric_scooter", "is_reserved": 0, "lon": -77.01554016666667}, {"fusion_lat": 0.0, "name": "9e85bbde20a6143e8e229ee6a24a7d87", "is_disabled": 0, "rental_uris": {"android": "https://dc.lft.to/lastmile_qr_scan", "ios": "https://dc.lft.to/lastmile_qr_scan"}, "fusion_lon": 0.0, "lat": 38.88728016666666, "bike_id": "9e85bbde20a6143e8e229ee6a24a7d87", "type": "electric_scooter", "is_reserved": 0, "lon": -76.99496483333333}, {"fusion_lat": 0.0, "name": "0a0f6fb392f3ca4e750020d2fdf516ad", "is_disabled": 0, "rental_uris": {"android": "https://dc.lft.to/lastmile_qr_scan", "ios": "https://dc.lft.to/lastmile_qr_scan"}, "fusion_lon": 0.0, "lat": 38.90974116666667, "bike_id": "0a0f6fb392f3ca4e750020d2fdf516ad", "type": "electric_scooter", "is_reserved": 0, "lon": -77.028013}, {"fusion_lat": 0.0, "name": "f8aef3a9db9d7a1075abed52761276e1", "is_disabled": 0, "rental_uris": {"android": "https://dc.lft.to/lastmile_qr_scan", "ios": "https://dc.lft.to/lastmile_qr_scan"}, "fusion_lon": 0.0, "lat": 38.88151966666667, "bike_id": "f8aef3a9db9d7a1075abed52761276e1", "type": "electric_scooter", "is_reserved": 0, "lon": -77.027066}, {"fusion_lat": 0.0, "name": "f42bafbc95edd3b402641897da1e865c", "is_disabled": 0, "rental_uris": {"android": "https://dc.lft.to/lastmile_qr_scan", "ios": "https://dc.lft.to/lastmile_qr_scan"}, "fusion_lon": 0.0, "lat": 38.923414, "bike_id": "f42bafbc95edd3b402641897da1e865c", "type": "electric_scooter", "is_reserved": 0, "lon": -77.03541283333334}, {"fusion_lat": 0.0, "name": "9626c636be25044a247c7b299b9397f5", "is_disabled": 0, "rental_uris": {"android": "https://dc.lft.to/lastmile_qr_scan", "ios": "https://dc.lft.to/lastmile_qr_scan"}, "fusion_lon": 0.0, "lat": 38.928503, "bike_id": "9626c636be25044a247c7b299b9397f5", "type": "electric_scooter", "is_reserved": 0, "lon": -77.02441883333333}, {"fusion_lat": 0.0, "name": "6555787191dc3dd52bce04f7960f3399", "is_disabled": 0, "rental_uris": {"android": "https://dc.lft.to/lastmile_qr_scan", "ios": "https://dc.lft.to/lastmile_qr_scan"}, "fusion_lon": 0.0, "lat": 38.921358833333336, "bike_id": "6555787191dc3dd52bce04f7960f3399", "type": "electric_scooter", "is_reserved": 0, "lon": -77.00959366666666}, {"fusion_lat": 0.0, "name": "f07dbf7fea6c308c2b69013310d66153", "is_disabled": 0, "rental_uris": {"android": "https://dc.lft.to/lastmile_qr_scan", "ios": "https://dc.lft.to/lastmile_qr_scan"}, "fusion_lon": 0.0, "lat": 38.8877125, "bike_id": "f07dbf7fea6c308c2b69013310d66153", "type": "electric_scooter", "is_reserved": 0, "lon": -76.97748633333333}, {"fusion_lat": 0.0, "name": "f254bb4bbcdf6ce462163aa29bf14970", "is_disabled": 0, "rental_uris": {"android": "https://dc.lft.to/lastmile_qr_scan", "ios": "https://dc.lft.to/lastmile_qr_scan"}, "fusion_lon": 0.0, "lat": 38.9101835, "bike_id": "f254bb4bbcdf6ce462163aa29bf14970", "type": "electric_scooter", "is_reserved": 0, "lon": -77.03859516666667}, {"fusion_lat": 0.0, "name": "a7164e7d3e5e6c3a826df2b97a1dd260", "is_disabled": 0, "rental_uris": {"android": "https://dc.lft.to/lastmile_qr_scan", "ios": "https://dc.lft.to/lastmile_qr_scan"}, "fusion_lon": 0.0, "lat": 38.8736835, "bike_id": "a7164e7d3e5e6c3a826df2b97a1dd260", "type": "electric_scooter", "is_reserved": 0, "lon": -77.00101066666667}, {"fusion_lat": 0.0, "name": "6e2f9e3647482fd3606b0759f6f4303e", "is_disabled": 0, "rental_uris": {"android": "https://dc.lft.to/lastmile_qr_scan", "ios": "https://dc.lft.to/lastmile_qr_scan"}, "fusion_lon": 0.0, "lat": 38.924748, "bike_id": "6e2f9e3647482fd3606b0759f6f4303e", "type": "electric_scooter", "is_reserved": 0, "lon": -77.0310855}, {"fusion_lat": 0.0, "name": "e3fe2e0b01d56d12842f0e1265809cda", "is_disabled": 0, "rental_uris": {"android": "https://dc.lft.to/lastmile_qr_scan", "ios": "https://dc.lft.to/lastmile_qr_scan"}, "fusion_lon": 0.0, "lat": 38.909723166666666, "bike_id": "e3fe2e0b01d56d12842f0e1265809cda", "type": "electric_scooter", "is_reserved": 0, "lon": -77.00897333333333}, {"fusion_lat": 0.0, "name": "bbf98276e1e6ff076248808fc90f3746", "is_disabled": 0, "rental_uris": {"android": "https://dc.lft.to/lastmile_qr_scan", "ios": "https://dc.lft.to/lastmile_qr_scan"}, "fusion_lon": 0.0, "lat": 38.854608, "bike_id": "bbf98276e1e6ff076248808fc90f3746", "type": "electric_scooter", "is_reserved": 0, "lon": -76.972333}, {"fusion_lat": 0.0, "name": "65d59b0f77345312850473d99634e4c4", "is_disabled": 0, "rental_uris": {"android": "https://dc.lft.to/lastmile_qr_scan", "ios": "https://dc.lft.to/lastmile_qr_scan"}, "fusion_lon": 0.0, "lat": 38.892347, "bike_id": "65d59b0f77345312850473d99634e4c4", "type": "electric_scooter", "is_reserved": 0, "lon": -77.017131}, {"fusion_lat": 0.0, "name": "100f271cc3f8cc94c00154189e06e8cb", "is_disabled": 0, "rental_uris": {"android": "https://dc.lft.to/lastmile_qr_scan", "ios": "https://dc.lft.to/lastmile_qr_scan"}, "fusion_lon": 0.0, "lat": 38.90147483333333, "bike_id": "100f271cc3f8cc94c00154189e06e8cb", "type": "electric_scooter", "is_reserved": 0, "lon": -77.03632}, {"fusion_lat": 0.0, "name": "94e74a3ba38f04938bd8032219fcc069", "is_disabled": 0, "rental_uris": {"android": "https://dc.lft.to/lastmile_qr_scan", "ios": "https://dc.lft.to/lastmile_qr_scan"}, "fusion_lon": 0.0, "lat": 38.9881785, "bike_id": "94e74a3ba38f04938bd8032219fcc069", "type": "electric_bike", "is_reserved": 0, "lon": -77.026626}, {"fusion_lat": 0.0, "name": "60da7d0f7f2cc1e496ace5a92ecabb60", "is_disabled": 0, "rental_uris": {"android": "https://dc.lft.to/lastmile_qr_scan", "ios": "https://dc.lft.to/lastmile_qr_scan"}, "fusion_lon": 0.0, "lat": 38.90362483333333, "bike_id": "60da7d0f7f2cc1e496ace5a92ecabb60", "type": "electric_scooter", "is_reserved": 0, "lon": -77.04385683333334}, {"fusion_lat": 0.0, "name": "7d54f18cfe2456e4d459770774a4ca88", "is_disabled": 0, "rental_uris": {"android": "https://dc.lft.to/lastmile_qr_scan", "ios": "https://dc.lft.to/lastmile_qr_scan"}, "fusion_lon": 0.0, "lat": 38.92796283333333, "bike_id": "7d54f18cfe2456e4d459770774a4ca88", "type": "electric_scooter", "is_reserved": 0, "lon": -76.95556983333333}, {"fusion_lat": 0.0, "name": "dbbede6afbaa5e27641e1f7588098f31", "is_disabled": 0, "rental_uris": {"android": "https://dc.lft.to/lastmile_qr_scan", "ios": "https://dc.lft.to/lastmile_qr_scan"}, "fusion_lon": 0.0, "lat": 38.92723516666667, "bike_id": "dbbede6afbaa5e27641e1f7588098f31", "type": "electric_scooter", "is_reserved": 0, "lon": -77.06014266666666}, {"fusion_lat": 0.0, "name": "477e2ab5bd46f8d4b13637a280ef0f20", "is_disabled": 0, "rental_uris": {"android": "https://dc.lft.to/lastmile_qr_scan", "ios": "https://dc.lft.to/lastmile_qr_scan"}, "fusion_lon": 0.0, "lat": 38.884735, "bike_id": "477e2ab5bd46f8d4b13637a280ef0f20", "type": "electric_scooter", "is_reserved": 0, "lon": -77.0208995}, {"fusion_lat": 0.0, "name": "23614a85153ad4f6c5d8c5fcebcdb65a", "is_disabled": 0, "rental_uris": {"android": "https://dc.lft.to/lastmile_qr_scan", "ios": "https://dc.lft.to/lastmile_qr_scan"}, "fusion_lon": 0.0, "lat": 38.924463, "bike_id": "23614a85153ad4f6c5d8c5fcebcdb65a", "type": "electric_scooter", "is_reserved": 0, "lon": -77.05245983333333}, {"fusion_lat": 0.0, "name": "7d2cf981c3cd112961f802dee4cbe628", "is_disabled": 0, "rental_uris": {"android": "https://dc.lft.to/lastmile_qr_scan", "ios": "https://dc.lft.to/lastmile_qr_scan"}, "fusion_lon": 0.0, "lat": 38.9492375, "bike_id": "7d2cf981c3cd112961f802dee4cbe628", "type": "electric_scooter", "is_reserved": 0, "lon": -77.01851983333333}, {"fusion_lat": 0.0, "name": "46e0319fe646c4370f7a7ba811db3892", "is_disabled": 0, "rental_uris": {"android": "https://dc.lft.to/lastmile_qr_scan", "ios": "https://dc.lft.to/lastmile_qr_scan"}, "fusion_lon": 0.0, "lat": 38.9048355, "bike_id": "46e0319fe646c4370f7a7ba811db3892", "type": "electric_scooter", "is_reserved": 0, "lon": -76.94954016666667}, {"fusion_lat": 0.0, "name": "48292a9080f341921531fce2fb8c5dae", "is_disabled": 0, "rental_uris": {"android": "https://dc.lft.to/lastmile_qr_scan", "ios": "https://dc.lft.to/lastmile_qr_scan"}, "fusion_lon": 0.0, "lat": 38.91935183333333, "bike_id": "48292a9080f341921531fce2fb8c5dae", "type": "electric_scooter", "is_reserved": 0, "lon": -77.03215883333333}, {"fusion_lat": 0.0, "name": "4fe3c11e12f8d0d98187f1a81ccc96c7", "is_disabled": 0, "rental_uris": {"android": "https://dc.lft.to/lastmile_qr_scan", "ios": "https://dc.lft.to/lastmile_qr_scan"}, "fusion_lon": 0.0, "lat": 38.911886, "bike_id": "4fe3c11e12f8d0d98187f1a81ccc96c7", "type": "electric_scooter", "is_reserved": 0, "lon": -77.04144233333334}, {"fusion_lat": 0.0, "name": "804360925ee21ace807670f84a0129e2", "is_disabled": 0, "rental_uris": {"android": "https://dc.lft.to/lastmile_qr_scan", "ios": "https://dc.lft.to/lastmile_qr_scan"}, "fusion_lon": 0.0, "lat": 38.875688333333336, "bike_id": "804360925ee21ace807670f84a0129e2", "type": "electric_scooter", "is_reserved": 0, "lon": -77.009474}, {"fusion_lat": 0.0, "name": "ffe32e441c898caf5d2d623211639849", "is_disabled": 0, "rental_uris": {"android": "https://dc.lft.to/lastmile_qr_scan", "ios": "https://dc.lft.to/lastmile_qr_scan"}, "fusion_lon": 0.0, "lat": 38.88241333333333, "bike_id": "ffe32e441c898caf5d2d623211639849", "type": "electric_bike", "is_reserved": 0, "lon": -76.9626185}, {"fusion_lat": 0.0, "name": "b9acae5616d9b318ec04a4f8cb341920", "is_disabled": 0, "rental_uris": {"android": "https://dc.lft.to/lastmile_qr_scan", "ios": "https://dc.lft.to/lastmile_qr_scan"}, "fusion_lon": 0.0, "lat": 38.89616816666667, "bike_id": "b9acae5616d9b318ec04a4f8cb341920", "type": "electric_bike", "is_reserved": 0, "lon": -76.90748}, {"fusion_lat": 0.0, "name": "5fb936c88d2bf8605a86852a75126e71", "is_disabled": 0, "rental_uris": {"android": "https://dc.lft.to/lastmile_qr_scan", "ios": "https://dc.lft.to/lastmile_qr_scan"}, "fusion_lon": 0.0, "lat": 38.9223625, "bike_id": "5fb936c88d2bf8605a86852a75126e71", "type": "electric_scooter", "is_reserved": 0, "lon": -77.01844133333333}, {"fusion_lat": 0.0, "name": "e17e12f70e0e86810aa67c5bd0ef7642", "is_disabled": 0, "rental_uris": {"android": "https://dc.lft.to/lastmile_qr_scan", "ios": "https://dc.lft.to/lastmile_qr_scan"}, "fusion_lon": 0.0, "lat": 38.92799016666667, "bike_id": "e17e12f70e0e86810aa67c5bd0ef7642", "type": "electric_scooter", "is_reserved": 0, "lon": -77.014096}, {"fusion_lat": 0.0, "name": "9f5d2a1ce78599feb1fd89577f3e9c54", "is_disabled": 0, "rental_uris": {"android": "https://dc.lft.to/lastmile_qr_scan", "ios": "https://dc.lft.to/lastmile_qr_scan"}, "fusion_lon": 0.0, "lat": 38.946230166666666, "bike_id": "9f5d2a1ce78599feb1fd89577f3e9c54", "type": "electric_scooter", "is_reserved": 0, "lon": -77.08017433333333}, {"fusion_lat": 0.0, "name": "bdb184e765b98af22fdfbec93df7616b", "is_disabled": 0, "rental_uris": {"android": "https://dc.lft.to/lastmile_qr_scan", "ios": "https://dc.lft.to/lastmile_qr_scan"}, "fusion_lon": 0.0, "lat": 38.948305833333336, "bike_id": "bdb184e765b98af22fdfbec93df7616b", "type": "electric_scooter", "is_reserved": 0, "lon": -77.0800145}, {"fusion_lat": 0.0, "name": "14dd893cddad49b182fe10b842d07bc4", "is_disabled": 0, "rental_uris": {"android": "https://dc.lft.to/lastmile_qr_scan", "ios": "https://dc.lft.to/lastmile_qr_scan"}, "fusion_lon": 0.0, "lat": 38.91783866666667, "bike_id": "14dd893cddad49b182fe10b842d07bc4", "type": "electric_scooter", "is_reserved": 0, "lon": -77.03223}, {"fusion_lat": 0.0, "name": "915e623effc3168fcaa2977fd5deab12", "is_disabled": 0, "rental_uris": {"android": "https://dc.lft.to/lastmile_qr_scan", "ios": "https://dc.lft.to/lastmile_qr_scan"}, "fusion_lon": 0.0, "lat": 38.883646666666664, "bike_id": "915e623effc3168fcaa2977fd5deab12", "type": "electric_scooter", "is_reserved": 0, "lon": -76.94158616666667}, {"fusion_lat": 0.0, "name": "122a6e10e34486fcfa72fa546eb1383e", "is_disabled": 0, "rental_uris": {"android": "https://dc.lft.to/lastmile_qr_scan", "ios": "https://dc.lft.to/lastmile_qr_scan"}, "fusion_lon": 0.0, "lat": 38.874915666666666, "bike_id": "122a6e10e34486fcfa72fa546eb1383e", "type": "electric_bike", "is_reserved": 0, "lon": -77.21124216666666}, {"fusion_lat": 0.0, "name": "f4883b48304486423eff719530e940e5", "is_disabled": 0, "rental_uris": {"android": "https://dc.lft.to/lastmile_qr_scan", "ios": "https://dc.lft.to/lastmile_qr_scan"}, "fusion_lon": 0.0, "lat": 38.901755, "bike_id": "f4883b48304486423eff719530e940e5", "type": "electric_scooter", "is_reserved": 0, "lon": -77.02302433333334}, {"fusion_lat": 0.0, "name": "b1f32fbef54ded0d49fd732d7a4da491", "is_disabled": 0, "rental_uris": {"android": "https://dc.lft.to/lastmile_qr_scan", "ios": "https://dc.lft.to/lastmile_qr_scan"}, "fusion_lon": 0.0, "lat": 38.84357383333333, "bike_id": "b1f32fbef54ded0d49fd732d7a4da491", "type": "electric_bike", "is_reserved": 0, "lon": -76.978212}, {"fusion_lat": 0.0, "name": "0ad39a563dd4632bbd7a5c0f2553e817", "is_disabled": 0, "rental_uris": {"android": "https://dc.lft.to/lastmile_qr_scan", "ios": "https://dc.lft.to/lastmile_qr_scan"}, "fusion_lon": 0.0, "lat": 38.91971516666667, "bike_id": "0ad39a563dd4632bbd7a5c0f2553e817", "type": "electric_scooter", "is_reserved": 0, "lon": -77.018052}, {"fusion_lat": 0.0, "name": "479ab9e8a565d812f8767708c4f97510", "is_disabled": 0, "rental_uris": {"android": "https://dc.lft.to/lastmile_qr_scan", "ios": "https://dc.lft.to/lastmile_qr_scan"}, "fusion_lon": 0.0, "lat": 38.87889333333333, "bike_id": "479ab9e8a565d812f8767708c4f97510", "type": "electric_scooter", "is_reserved": 0, "lon": -76.99508466666667}, {"fusion_lat": 0.0, "name": "fab9c8e093bdf90b105d0162d50f813f", "is_disabled": 0, "rental_uris": {"android": "https://dc.lft.to/lastmile_qr_scan", "ios": "https://dc.lft.to/lastmile_qr_scan"}, "fusion_lon": 0.0, "lat": 38.95888433333333, "bike_id": "fab9c8e093bdf90b105d0162d50f813f", "type": "electric_bike", "is_reserved": 0, "lon": -76.92480216666667}, {"fusion_lat": 0.0, "name": "dae4141ebf9fdf63e8154880de7c95b3", "is_disabled": 0, "rental_uris": {"android": "https://dc.lft.to/lastmile_qr_scan", "ios": "https://dc.lft.to/lastmile_qr_scan"}, "fusion_lon": 0.0, "lat": 38.926592666666664, "bike_id": "dae4141ebf9fdf63e8154880de7c95b3", "type": "electric_scooter", "is_reserved": 0, "lon": -77.05354416666667}, {"fusion_lat": 0.0, "name": "db181ad6ab20820b28d3572ab069d91f", "is_disabled": 0, "rental_uris": {"android": "https://dc.lft.to/lastmile_qr_scan", "ios": "https://dc.lft.to/lastmile_qr_scan"}, "fusion_lon": 0.0, "lat": 38.92675633333333, "bike_id": "db181ad6ab20820b28d3572ab069d91f", "type": "electric_scooter", "is_reserved": 0, "lon": -77.03635533333333}, {"fusion_lat": 0.0, "name": "f28fac9da8eadd431ff1a4e62cc8f08c", "is_disabled": 0, "rental_uris": {"android": "https://dc.lft.to/lastmile_qr_scan", "ios": "https://dc.lft.to/lastmile_qr_scan"}, "fusion_lon": 0.0, "lat": 38.961908666666666, "bike_id": "f28fac9da8eadd431ff1a4e62cc8f08c", "type": "electric_bike", "is_reserved": 0, "lon": -77.05269233333334}, {"fusion_lat": 0.0, "name": "441a56cbd71e9b2564e0cbd8d2073a06", "is_disabled": 0, "rental_uris": {"android": "https://dc.lft.to/lastmile_qr_scan", "ios": "https://dc.lft.to/lastmile_qr_scan"}, "fusion_lon": 0.0, "lat": 38.871781666666664, "bike_id": "441a56cbd71e9b2564e0cbd8d2073a06", "type": "electric_scooter", "is_reserved": 0, "lon": -77.00616583333333}, {"fusion_lat": 0.0, "name": "89f2e07b1acb4eb93b8a4416dd9dca8d", "is_disabled": 0, "rental_uris": {"android": "https://dc.lft.to/lastmile_qr_scan", "ios": "https://dc.lft.to/lastmile_qr_scan"}, "fusion_lon": 0.0, "lat": 38.903082166666664, "bike_id": "89f2e07b1acb4eb93b8a4416dd9dca8d", "type": "electric_scooter", "is_reserved": 0, "lon": -76.9750575}, {"fusion_lat": 0.0, "name": "c5ad27583cc8482a96383bfba20d227a", "is_disabled": 0, "rental_uris": {"android": "https://dc.lft.to/lastmile_qr_scan", "ios": "https://dc.lft.to/lastmile_qr_scan"}, "fusion_lon": 0.0, "lat": 38.923899166666665, "bike_id": "c5ad27583cc8482a96383bfba20d227a", "type": "electric_scooter", "is_reserved": 0, "lon": -77.03055883333333}, {"fusion_lat": 0.0, "name": "a492537a7b5523e22874be65b8d2fff5", "is_disabled": 0, "rental_uris": {"android": "https://dc.lft.to/lastmile_qr_scan", "ios": "https://dc.lft.to/lastmile_qr_scan"}, "fusion_lon": 0.0, "lat": 38.92453316666667, "bike_id": "a492537a7b5523e22874be65b8d2fff5", "type": "electric_scooter", "is_reserved": 0, "lon": -77.02405366666666}, {"fusion_lat": 0.0, "name": "a87398260b37b74534abce5c2b9f1885", "is_disabled": 0, "rental_uris": {"android": "https://dc.lft.to/lastmile_qr_scan", "ios": "https://dc.lft.to/lastmile_qr_scan"}, "fusion_lon": 0.0, "lat": 38.92345433333333, "bike_id": "a87398260b37b74534abce5c2b9f1885", "type": "electric_scooter", "is_reserved": 0, "lon": -77.02016933333333}, {"fusion_lat": 0.0, "name": "83af42a43a5903ec9aecfff65e62fb55", "is_disabled": 0, "rental_uris": {"android": "https://dc.lft.to/lastmile_qr_scan", "ios": "https://dc.lft.to/lastmile_qr_scan"}, "fusion_lon": 0.0, "lat": 38.91527983333334, "bike_id": "83af42a43a5903ec9aecfff65e62fb55", "type": "electric_scooter", "is_reserved": 0, "lon": -77.07268983333333}, {"fusion_lat": 0.0, "name": "670a53d7e96a4ea29e5104a18552ff3f", "is_disabled": 0, "rental_uris": {"android": "https://dc.lft.to/lastmile_qr_scan", "ios": "https://dc.lft.to/lastmile_qr_scan"}, "fusion_lon": 0.0, "lat": 38.9023245, "bike_id": "670a53d7e96a4ea29e5104a18552ff3f", "type": "electric_scooter", "is_reserved": 0, "lon": -77.05904983333333}, {"fusion_lat": 0.0, "name": "18ae1a8352d3bfa12dac85ebd35ece08", "is_disabled": 0, "rental_uris": {"android": "https://dc.lft.to/lastmile_qr_scan", "ios": "https://dc.lft.to/lastmile_qr_scan"}, "fusion_lon": 0.0, "lat": 38.907204166666666, "bike_id": "18ae1a8352d3bfa12dac85ebd35ece08", "type": "electric_scooter", "is_reserved": 0, "lon": -77.02718883333333}, {"fusion_lat": 0.0, "name": "2bb8411d9313723bd79c828a1fac2cd2", "is_disabled": 0, "rental_uris": {"android": "https://dc.lft.to/lastmile_qr_scan", "ios": "https://dc.lft.to/lastmile_qr_scan"}, "fusion_lon": 0.0, "lat": 38.969354833333334, "bike_id": "2bb8411d9313723bd79c828a1fac2cd2", "type": "electric_bike", "is_reserved": 0, "lon": -76.95542283333333}, {"fusion_lat": 0.0, "name": "931e015c1fc30055bdf26444e88b8ca0", "is_disabled": 0, "rental_uris": {"android": "https://dc.lft.to/lastmile_qr_scan", "ios": "https://dc.lft.to/lastmile_qr_scan"}, "fusion_lon": 0.0, "lat": 38.897324833333336, "bike_id": "931e015c1fc30055bdf26444e88b8ca0", "type": "electric_scooter", "is_reserved": 0, "lon": -77.01961683333333}, {"fusion_lat": 0.0, "name": "edecaad0b88e8498ce490d6f22f74828", "is_disabled": 0, "rental_uris": {"android": "https://dc.lft.to/lastmile_qr_scan", "ios": "https://dc.lft.to/lastmile_qr_scan"}, "fusion_lon": 0.0, "lat": 38.934905, "bike_id": "edecaad0b88e8498ce490d6f22f74828", "type": "electric_scooter", "is_reserved": 0, "lon": -77.04534733333334}, {"fusion_lat": 0.0, "name": "1a5c7364b070b8e35f9e0a9f62826de6", "is_disabled": 0, "rental_uris": {"android": "https://dc.lft.to/lastmile_qr_scan", "ios": "https://dc.lft.to/lastmile_qr_scan"}, "fusion_lon": 0.0, "lat": 38.909361, "bike_id": "1a5c7364b070b8e35f9e0a9f62826de6", "type": "electric_scooter", "is_reserved": 0, "lon": -77.062751}, {"fusion_lat": 0.0, "name": "a1afef6b4846e83b69bef180efb58a2e", "is_disabled": 0, "rental_uris": {"android": "https://dc.lft.to/lastmile_qr_scan", "ios": "https://dc.lft.to/lastmile_qr_scan"}, "fusion_lon": 0.0, "lat": 38.896683, "bike_id": "a1afef6b4846e83b69bef180efb58a2e", "type": "electric_scooter", "is_reserved": 0, "lon": -76.93211283333333}, {"fusion_lat": 0.0, "name": "b082909ed68650130c9752cca4e4e555", "is_disabled": 0, "rental_uris": {"android": "https://dc.lft.to/lastmile_qr_scan", "ios": "https://dc.lft.to/lastmile_qr_scan"}, "fusion_lon": 0.0, "lat": 38.90226833333333, "bike_id": "b082909ed68650130c9752cca4e4e555", "type": "electric_scooter", "is_reserved": 0, "lon": -77.0607215}, {"fusion_lat": 0.0, "name": "3ec420ee15d2cb11c34bbf2ca6080c1a", "is_disabled": 0, "rental_uris": {"android": "https://dc.lft.to/lastmile_qr_scan", "ios": "https://dc.lft.to/lastmile_qr_scan"}, "fusion_lon": 0.0, "lat": 38.88303883333333, "bike_id": "3ec420ee15d2cb11c34bbf2ca6080c1a", "type": "electric_scooter", "is_reserved": 0, "lon": -76.94857733333333}, {"fusion_lat": 0.0, "name": "f80b0f51599afc007314a0b3c2001d12", "is_disabled": 0, "rental_uris": {"android": "https://dc.lft.to/lastmile_qr_scan", "ios": "https://dc.lft.to/lastmile_qr_scan"}, "fusion_lon": 0.0, "lat": 38.916904333333335, "bike_id": "f80b0f51599afc007314a0b3c2001d12", "type": "electric_scooter", "is_reserved": 0, "lon": -77.02303166666667}, {"fusion_lat": 0.0, "name": "7e3fe01212946c3566e33d44a9b4897f", "is_disabled": 0, "rental_uris": {"android": "https://dc.lft.to/lastmile_qr_scan", "ios": "https://dc.lft.to/lastmile_qr_scan"}, "fusion_lon": 0.0, "lat": 38.80754616666667, "bike_id": "7e3fe01212946c3566e33d44a9b4897f", "type": "electric_bike", "is_reserved": 0, "lon": -77.09452783333333}, {"fusion_lat": 0.0, "name": "09e0233a71629e7563c17e4351c487a7", "is_disabled": 0, "rental_uris": {"android": "https://dc.lft.to/lastmile_qr_scan", "ios": "https://dc.lft.to/lastmile_qr_scan"}, "fusion_lon": 0.0, "lat": 38.88775733333333, "bike_id": "09e0233a71629e7563c17e4351c487a7", "type": "electric_scooter", "is_reserved": 0, "lon": -77.01505783333333}, {"fusion_lat": 0.0, "name": "abacb550e2285bc2a62dd0f0335f7ab7", "is_disabled": 0, "rental_uris": {"android": "https://dc.lft.to/lastmile_qr_scan", "ios": "https://dc.lft.to/lastmile_qr_scan"}, "fusion_lon": 0.0, "lat": 38.90003983333333, "bike_id": "abacb550e2285bc2a62dd0f0335f7ab7", "type": "electric_scooter", "is_reserved": 0, "lon": -77.01127}, {"fusion_lat": 0.0, "name": "84bce7e2ccb009a4086f8183b6097594", "is_disabled": 0, "rental_uris": {"android": "https://dc.lft.to/lastmile_qr_scan", "ios": "https://dc.lft.to/lastmile_qr_scan"}, "fusion_lon": 0.0, "lat": 38.85596283333334, "bike_id": "84bce7e2ccb009a4086f8183b6097594", "type": "electric_scooter", "is_reserved": 0, "lon": -76.97264533333333}, {"fusion_lat": 0.0, "name": "30ef48dc7863b7c94c0568a6268d6f9b", "is_disabled": 0, "rental_uris": {"android": "https://dc.lft.to/lastmile_qr_scan", "ios": "https://dc.lft.to/lastmile_qr_scan"}, "fusion_lon": 0.0, "lat": 38.863316833333336, "bike_id": "30ef48dc7863b7c94c0568a6268d6f9b", "type": "electric_bike", "is_reserved": 0, "lon": -76.9872545}, {"fusion_lat": 0.0, "name": "cbf9e2caedd61f1feff5b7130229e6aa", "is_disabled": 0, "rental_uris": {"android": "https://dc.lft.to/lastmile_qr_scan", "ios": "https://dc.lft.to/lastmile_qr_scan"}, "fusion_lon": 0.0, "lat": 38.930103, "bike_id": "cbf9e2caedd61f1feff5b7130229e6aa", "type": "electric_scooter", "is_reserved": 0, "lon": -77.03249166666667}, {"fusion_lat": 0.0, "name": "7ba3e7b9267146112c72bdcf5c724836", "is_disabled": 0, "rental_uris": {"android": "https://dc.lft.to/lastmile_qr_scan", "ios": "https://dc.lft.to/lastmile_qr_scan"}, "fusion_lon": 0.0, "lat": 38.9261235, "bike_id": "7ba3e7b9267146112c72bdcf5c724836", "type": "electric_scooter", "is_reserved": 0, "lon": -77.03958233333333}, {"fusion_lat": 0.0, "name": "c965f64edf77e37d1b06bde38cc6bd0d", "is_disabled": 0, "rental_uris": {"android": "https://dc.lft.to/lastmile_qr_scan", "ios": "https://dc.lft.to/lastmile_qr_scan"}, "fusion_lon": 0.0, "lat": 38.90702733333333, "bike_id": "c965f64edf77e37d1b06bde38cc6bd0d", "type": "electric_scooter", "is_reserved": 0, "lon": -76.99974316666666}, {"fusion_lat": 0.0, "name": "7dc320aca0546d3185442208c397370e", "is_disabled": 0, "rental_uris": {"android": "https://dc.lft.to/lastmile_qr_scan", "ios": "https://dc.lft.to/lastmile_qr_scan"}, "fusion_lon": 0.0, "lat": 38.917084833333334, "bike_id": "7dc320aca0546d3185442208c397370e", "type": "electric_scooter", "is_reserved": 0, "lon": -77.02903033333334}, {"fusion_lat": 0.0, "name": "e55b49af614e65e46c8ad8aaa021fca2", "is_disabled": 0, "rental_uris": {"android": "https://dc.lft.to/lastmile_qr_scan", "ios": "https://dc.lft.to/lastmile_qr_scan"}, "fusion_lon": 0.0, "lat": 38.986695166666664, "bike_id": "e55b49af614e65e46c8ad8aaa021fca2", "type": "electric_bike", "is_reserved": 0, "lon": -76.99997516666667}, {"fusion_lat": 0.0, "name": "4502672c41ea60bfd6f7351b6e1ba59f", "is_disabled": 0, "rental_uris": {"android": "https://dc.lft.to/lastmile_qr_scan", "ios": "https://dc.lft.to/lastmile_qr_scan"}, "fusion_lon": 0.0, "lat": 38.935447333333336, "bike_id": "4502672c41ea60bfd6f7351b6e1ba59f", "type": "electric_scooter", "is_reserved": 0, "lon": -77.03262683333334}, {"fusion_lat": 0.0, "name": "a48cca3f28eb59b953f721e0b3e82192", "is_disabled": 0, "rental_uris": {"android": "https://dc.lft.to/lastmile_qr_scan", "ios": "https://dc.lft.to/lastmile_qr_scan"}, "fusion_lon": 0.0, "lat": 38.8930125, "bike_id": "a48cca3f28eb59b953f721e0b3e82192", "type": "electric_scooter", "is_reserved": 0, "lon": -77.02181466666667}, {"fusion_lat": 0.0, "name": "6dc5038fce62c5db749fffc97258a3a6", "is_disabled": 0, "rental_uris": {"android": "https://dc.lft.to/lastmile_qr_scan", "ios": "https://dc.lft.to/lastmile_qr_scan"}, "fusion_lon": 0.0, "lat": 38.91721033333334, "bike_id": "6dc5038fce62c5db749fffc97258a3a6", "type": "electric_scooter", "is_reserved": 0, "lon": -77.0415325}, {"fusion_lat": 0.0, "name": "fd2896b6b487da691b678b0061897b08", "is_disabled": 0, "rental_uris": {"android": "https://dc.lft.to/lastmile_qr_scan", "ios": "https://dc.lft.to/lastmile_qr_scan"}, "fusion_lon": 0.0, "lat": 38.994466833333334, "bike_id": "fd2896b6b487da691b678b0061897b08", "type": "electric_bike", "is_reserved": 0, "lon": -76.99587166666667}, {"fusion_lat": 0.0, "name": "170bb9cef34e1cc79be463eccd517e70", "is_disabled": 0, "rental_uris": {"android": "https://dc.lft.to/lastmile_qr_scan", "ios": "https://dc.lft.to/lastmile_qr_scan"}, "fusion_lon": 0.0, "lat": 38.9166655, "bike_id": "170bb9cef34e1cc79be463eccd517e70", "type": "electric_scooter", "is_reserved": 0, "lon": -77.03466366666666}, {"fusion_lat": 0.0, "name": "29d3df3a0b0cb04649876e7eea11e378", "is_disabled": 0, "rental_uris": {"android": "https://dc.lft.to/lastmile_qr_scan", "ios": "https://dc.lft.to/lastmile_qr_scan"}, "fusion_lon": 0.0, "lat": 38.9405295, "bike_id": "29d3df3a0b0cb04649876e7eea11e378", "type": "electric_bike", "is_reserved": 0, "lon": -76.90419483333334}, {"fusion_lat": 0.0, "name": "523f260d7b3d78d52babebeb254d7118", "is_disabled": 0, "rental_uris": {"android": "https://dc.lft.to/lastmile_qr_scan", "ios": "https://dc.lft.to/lastmile_qr_scan"}, "fusion_lon": 0.0, "lat": 38.90237316666666, "bike_id": "523f260d7b3d78d52babebeb254d7118", "type": "electric_scooter", "is_reserved": 0, "lon": -77.0445055}, {"fusion_lat": 0.0, "name": "ac3dc2375cff4d66d0b0c0ebeca1077c", "is_disabled": 0, "rental_uris": {"android": "https://dc.lft.to/lastmile_qr_scan", "ios": "https://dc.lft.to/lastmile_qr_scan"}, "fusion_lon": 0.0, "lat": 38.90376416666667, "bike_id": "ac3dc2375cff4d66d0b0c0ebeca1077c", "type": "electric_scooter", "is_reserved": 0, "lon": -77.03872133333333}, {"fusion_lat": 0.0, "name": "36b922bf1980dbc308ae149cc1922b7f", "is_disabled": 0, "rental_uris": {"android": "https://dc.lft.to/lastmile_qr_scan", "ios": "https://dc.lft.to/lastmile_qr_scan"}, "fusion_lon": 0.0, "lat": 38.952864, "bike_id": "36b922bf1980dbc308ae149cc1922b7f", "type": "electric_bike", "is_reserved": 0, "lon": -76.99983983333334}, {"fusion_lat": 0.0, "name": "01c847c2bee66226786fd46a710162b9", "is_disabled": 0, "rental_uris": {"android": "https://dc.lft.to/lastmile_qr_scan", "ios": "https://dc.lft.to/lastmile_qr_scan"}, "fusion_lon": 0.0, "lat": 38.933948, "bike_id": "01c847c2bee66226786fd46a710162b9", "type": "electric_scooter", "is_reserved": 0, "lon": -77.028405}, {"fusion_lat": 0.0, "name": "68639d21ef389576f172638f9dfd4bbb", "is_disabled": 0, "rental_uris": {"android": "https://dc.lft.to/lastmile_qr_scan", "ios": "https://dc.lft.to/lastmile_qr_scan"}, "fusion_lon": 0.0, "lat": 38.881334, "bike_id": "68639d21ef389576f172638f9dfd4bbb", "type": "electric_scooter", "is_reserved": 0, "lon": -77.02710933333333}, {"fusion_lat": 0.0, "name": "8fdd9063037018953cb45f4183988dc6", "is_disabled": 0, "rental_uris": {"android": "https://dc.lft.to/lastmile_qr_scan", "ios": "https://dc.lft.to/lastmile_qr_scan"}, "fusion_lon": 0.0, "lat": 38.92394383333333, "bike_id": "8fdd9063037018953cb45f4183988dc6", "type": "electric_scooter", "is_reserved": 0, "lon": -77.04308433333334}, {"fusion_lat": 0.0, "name": "ccad3604da1ec8a12ea33df20731ff3e", "is_disabled": 0, "rental_uris": {"android": "https://dc.lft.to/lastmile_qr_scan", "ios": "https://dc.lft.to/lastmile_qr_scan"}, "fusion_lon": 0.0, "lat": 38.9005945, "bike_id": "ccad3604da1ec8a12ea33df20731ff3e", "type": "electric_scooter", "is_reserved": 0, "lon": -77.04529816666667}, {"fusion_lat": 0.0, "name": "396deb3f74f714db976a78bbe49661e4", "is_disabled": 0, "rental_uris": {"android": "https://dc.lft.to/lastmile_qr_scan", "ios": "https://dc.lft.to/lastmile_qr_scan"}, "fusion_lon": 0.0, "lat": 38.89669333333333, "bike_id": "396deb3f74f714db976a78bbe49661e4", "type": "electric_scooter", "is_reserved": 0, "lon": -77.024854}, {"fusion_lat": 0.0, "name": "31f9ca003ba0ef524b60b5241e94a58c", "is_disabled": 0, "rental_uris": {"android": "https://dc.lft.to/lastmile_qr_scan", "ios": "https://dc.lft.to/lastmile_qr_scan"}, "fusion_lon": 0.0, "lat": 38.88388533333333, "bike_id": "31f9ca003ba0ef524b60b5241e94a58c", "type": "electric_scooter", "is_reserved": 0, "lon": -77.019332}, {"fusion_lat": 0.0, "name": "f8dece36631a7abaf53162000b1bd1e9", "is_disabled": 0, "rental_uris": {"android": "https://dc.lft.to/lastmile_qr_scan", "ios": "https://dc.lft.to/lastmile_qr_scan"}, "fusion_lon": 0.0, "lat": 38.84132016666667, "bike_id": "f8dece36631a7abaf53162000b1bd1e9", "type": "electric_bike", "is_reserved": 0, "lon": -77.06305083333334}, {"fusion_lat": 0.0, "name": "344c6639c875fe4098296693851d76e6", "is_disabled": 0, "rental_uris": {"android": "https://dc.lft.to/lastmile_qr_scan", "ios": "https://dc.lft.to/lastmile_qr_scan"}, "fusion_lon": 0.0, "lat": 38.89979016666667, "bike_id": "344c6639c875fe4098296693851d76e6", "type": "electric_scooter", "is_reserved": 0, "lon": -77.011266}, {"fusion_lat": 0.0, "name": "49532250de33ad424a3d39b82ed9c1ed", "is_disabled": 0, "rental_uris": {"android": "https://dc.lft.to/lastmile_qr_scan", "ios": "https://dc.lft.to/lastmile_qr_scan"}, "fusion_lon": 0.0, "lat": 38.909546666666664, "bike_id": "49532250de33ad424a3d39b82ed9c1ed", "type": "electric_scooter", "is_reserved": 0, "lon": -76.98539533333333}, {"fusion_lat": 0.0, "name": "884b3b8fd90b4013e299b812a3713b12", "is_disabled": 0, "rental_uris": {"android": "https://dc.lft.to/lastmile_qr_scan", "ios": "https://dc.lft.to/lastmile_qr_scan"}, "fusion_lon": 0.0, "lat": 38.81938933333333, "bike_id": "884b3b8fd90b4013e299b812a3713b12", "type": "electric_bike", "is_reserved": 0, "lon": -77.0020225}, {"fusion_lat": 0.0, "name": "c2263c3de82dcfe4399ed19ccd846dd5", "is_disabled": 0, "rental_uris": {"android": "https://dc.lft.to/lastmile_qr_scan", "ios": "https://dc.lft.to/lastmile_qr_scan"}, "fusion_lon": 0.0, "lat": 38.9375285, "bike_id": "c2263c3de82dcfe4399ed19ccd846dd5", "type": "electric_scooter", "is_reserved": 0, "lon": -77.02529666666666}, {"fusion_lat": 0.0, "name": "412cf240adf3d1e069fa4c263aadaafb", "is_disabled": 0, "rental_uris": {"android": "https://dc.lft.to/lastmile_qr_scan", "ios": "https://dc.lft.to/lastmile_qr_scan"}, "fusion_lon": 0.0, "lat": 38.94291283333333, "bike_id": "412cf240adf3d1e069fa4c263aadaafb", "type": "electric_scooter", "is_reserved": 0, "lon": -77.02174683333334}, {"fusion_lat": 0.0, "name": "68cef2b25dacc5b63c5efaa068870cd8", "is_disabled": 0, "rental_uris": {"android": "https://dc.lft.to/lastmile_qr_scan", "ios": "https://dc.lft.to/lastmile_qr_scan"}, "fusion_lon": 0.0, "lat": 38.89225316666667, "bike_id": "68cef2b25dacc5b63c5efaa068870cd8", "type": "electric_scooter", "is_reserved": 0, "lon": -77.0030195}, {"fusion_lat": 0.0, "name": "b6666151242d89a5e844fd3f04e8c668", "is_disabled": 0, "rental_uris": {"android": "https://dc.lft.to/lastmile_qr_scan", "ios": "https://dc.lft.to/lastmile_qr_scan"}, "fusion_lon": 0.0, "lat": 38.889721, "bike_id": "b6666151242d89a5e844fd3f04e8c668", "type": "electric_scooter", "is_reserved": 0, "lon": -76.9796555}, {"fusion_lat": 0.0, "name": "0aa03dbe788d25451a9715111ccfffc0", "is_disabled": 0, "rental_uris": {"android": "https://dc.lft.to/lastmile_qr_scan", "ios": "https://dc.lft.to/lastmile_qr_scan"}, "fusion_lon": 0.0, "lat": 38.90397383333333, "bike_id": "0aa03dbe788d25451a9715111ccfffc0", "type": "electric_scooter", "is_reserved": 0, "lon": -77.04895483333334}, {"fusion_lat": 0.0, "name": "dbd2d9adade1de8bd82624973dc4e07f", "is_disabled": 0, "rental_uris": {"android": "https://dc.lft.to/lastmile_qr_scan", "ios": "https://dc.lft.to/lastmile_qr_scan"}, "fusion_lon": 0.0, "lat": 38.924934666666665, "bike_id": "dbd2d9adade1de8bd82624973dc4e07f", "type": "electric_scooter", "is_reserved": 0, "lon": -77.05755466666666}, {"fusion_lat": 0.0, "name": "c24c933282a11a378f686a4220bd7ec8", "is_disabled": 0, "rental_uris": {"android": "https://dc.lft.to/lastmile_qr_scan", "ios": "https://dc.lft.to/lastmile_qr_scan"}, "fusion_lon": 0.0, "lat": 38.885214, "bike_id": "c24c933282a11a378f686a4220bd7ec8", "type": "electric_scooter", "is_reserved": 0, "lon": -77.015274}, {"fusion_lat": 0.0, "name": "12d73180dcb00d0b7cad627ab4bbc902", "is_disabled": 0, "rental_uris": {"android": "https://dc.lft.to/lastmile_qr_scan", "ios": "https://dc.lft.to/lastmile_qr_scan"}, "fusion_lon": 0.0, "lat": 38.89867066666667, "bike_id": "12d73180dcb00d0b7cad627ab4bbc902", "type": "electric_scooter", "is_reserved": 0, "lon": -77.01869883333333}, {"fusion_lat": 0.0, "name": "f35705fecb57c2ff8def80f2e61f36cd", "is_disabled": 0, "rental_uris": {"android": "https://dc.lft.to/lastmile_qr_scan", "ios": "https://dc.lft.to/lastmile_qr_scan"}, "fusion_lon": 0.0, "lat": 38.913955, "bike_id": "f35705fecb57c2ff8def80f2e61f36cd", "type": "electric_scooter", "is_reserved": 0, "lon": -77.03181883333333}, {"fusion_lat": 0.0, "name": "55edf46f67ef56342e068990d398b880", "is_disabled": 0, "rental_uris": {"android": "https://dc.lft.to/lastmile_qr_scan", "ios": "https://dc.lft.to/lastmile_qr_scan"}, "fusion_lon": 0.0, "lat": 38.904257666666666, "bike_id": "55edf46f67ef56342e068990d398b880", "type": "electric_scooter", "is_reserved": 0, "lon": -76.949764}, {"fusion_lat": 0.0, "name": "3c380e0a93f0578ae3d726676cc0172c", "is_disabled": 0, "rental_uris": {"android": "https://dc.lft.to/lastmile_qr_scan", "ios": "https://dc.lft.to/lastmile_qr_scan"}, "fusion_lon": 0.0, "lat": 38.900135166666665, "bike_id": "3c380e0a93f0578ae3d726676cc0172c", "type": "electric_scooter", "is_reserved": 0, "lon": -77.00682233333333}, {"fusion_lat": 0.0, "name": "1900dc72c639a4b00214deda70ca0d7a", "is_disabled": 0, "rental_uris": {"android": "https://dc.lft.to/lastmile_qr_scan", "ios": "https://dc.lft.to/lastmile_qr_scan"}, "fusion_lon": 0.0, "lat": 38.896074, "bike_id": "1900dc72c639a4b00214deda70ca0d7a", "type": "electric_scooter", "is_reserved": 0, "lon": -77.0323585}, {"fusion_lat": 0.0, "name": "f2d8113f70a686a075d9467430792a64", "is_disabled": 0, "rental_uris": {"android": "https://dc.lft.to/lastmile_qr_scan", "ios": "https://dc.lft.to/lastmile_qr_scan"}, "fusion_lon": 0.0, "lat": 38.9024755, "bike_id": "f2d8113f70a686a075d9467430792a64", "type": "electric_scooter", "is_reserved": 0, "lon": -77.002032}, {"fusion_lat": 0.0, "name": "42b854082ef7c45eb9b78c1e49448e04", "is_disabled": 0, "rental_uris": {"android": "https://dc.lft.to/lastmile_qr_scan", "ios": "https://dc.lft.to/lastmile_qr_scan"}, "fusion_lon": 0.0, "lat": 38.917370166666664, "bike_id": "42b854082ef7c45eb9b78c1e49448e04", "type": "electric_scooter", "is_reserved": 0, "lon": -77.04159283333334}, {"fusion_lat": 0.0, "name": "c15430ae167379fb1439b7468cacacb0", "is_disabled": 0, "rental_uris": {"android": "https://dc.lft.to/lastmile_qr_scan", "ios": "https://dc.lft.to/lastmile_qr_scan"}, "fusion_lon": 0.0, "lat": 38.916087, "bike_id": "c15430ae167379fb1439b7468cacacb0", "type": "electric_scooter", "is_reserved": 0, "lon": -77.04573866666667}, {"fusion_lat": 0.0, "name": "31660dbcd8151355423b38975183b317", "is_disabled": 0, "rental_uris": {"android": "https://dc.lft.to/lastmile_qr_scan", "ios": "https://dc.lft.to/lastmile_qr_scan"}, "fusion_lon": 0.0, "lat": 38.90976966666667, "bike_id": "31660dbcd8151355423b38975183b317", "type": "electric_scooter", "is_reserved": 0, "lon": -77.03374316666667}, {"fusion_lat": 0.0, "name": "6ef6f4cd45156ce3f12636dcfc9ad938", "is_disabled": 0, "rental_uris": {"android": "https://dc.lft.to/lastmile_qr_scan", "ios": "https://dc.lft.to/lastmile_qr_scan"}, "fusion_lon": 0.0, "lat": 38.91421033333334, "bike_id": "6ef6f4cd45156ce3f12636dcfc9ad938", "type": "electric_scooter", "is_reserved": 0, "lon": -77.03207716666667}, {"fusion_lat": 0.0, "name": "09c45ddc6c954eddc8ca7e8ccd30d136", "is_disabled": 0, "rental_uris": {"android": "https://dc.lft.to/lastmile_qr_scan", "ios": "https://dc.lft.to/lastmile_qr_scan"}, "fusion_lon": 0.0, "lat": 38.93325883333333, "bike_id": "09c45ddc6c954eddc8ca7e8ccd30d136", "type": "electric_scooter", "is_reserved": 0, "lon": -77.03264583333333}, {"fusion_lat": 0.0, "name": "19d2aad31b4f18743ef8a4ab035abc59", "is_disabled": 0, "rental_uris": {"android": "https://dc.lft.to/lastmile_qr_scan", "ios": "https://dc.lft.to/lastmile_qr_scan"}, "fusion_lon": 0.0, "lat": 38.909696, "bike_id": "19d2aad31b4f18743ef8a4ab035abc59", "type": "electric_scooter", "is_reserved": 0, "lon": -77.0473155}, {"fusion_lat": 0.0, "name": "faa409c48e5d4c8d08500cd5ea8bfc43", "is_disabled": 0, "rental_uris": {"android": "https://dc.lft.to/lastmile_qr_scan", "ios": "https://dc.lft.to/lastmile_qr_scan"}, "fusion_lon": 0.0, "lat": 38.92067266666667, "bike_id": "faa409c48e5d4c8d08500cd5ea8bfc43", "type": "electric_scooter", "is_reserved": 0, "lon": -77.04380616666667}, {"fusion_lat": 0.0, "name": "172c9263b7e70eb24880a629b7c9e15e", "is_disabled": 0, "rental_uris": {"android": "https://dc.lft.to/lastmile_qr_scan", "ios": "https://dc.lft.to/lastmile_qr_scan"}, "fusion_lon": 0.0, "lat": 38.91564733333333, "bike_id": "172c9263b7e70eb24880a629b7c9e15e", "type": "electric_scooter", "is_reserved": 0, "lon": -77.03149733333333}, {"fusion_lat": 0.0, "name": "60271e77e2ad171bda54b43c2441452b", "is_disabled": 0, "rental_uris": {"android": "https://dc.lft.to/lastmile_qr_scan", "ios": "https://dc.lft.to/lastmile_qr_scan"}, "fusion_lon": 0.0, "lat": 38.92084466666667, "bike_id": "60271e77e2ad171bda54b43c2441452b", "type": "electric_scooter", "is_reserved": 0, "lon": -77.02395866666667}, {"fusion_lat": 0.0, "name": "28e45eb17d96bb54390786853a86eada", "is_disabled": 0, "rental_uris": {"android": "https://dc.lft.to/lastmile_qr_scan", "ios": "https://dc.lft.to/lastmile_qr_scan"}, "fusion_lon": 0.0, "lat": 38.88388583333333, "bike_id": "28e45eb17d96bb54390786853a86eada", "type": "electric_scooter", "is_reserved": 0, "lon": -77.03040383333334}, {"fusion_lat": 0.0, "name": "48071660cb2f4714d382d0b35cf316dd", "is_disabled": 0, "rental_uris": {"android": "https://dc.lft.to/lastmile_qr_scan", "ios": "https://dc.lft.to/lastmile_qr_scan"}, "fusion_lon": 0.0, "lat": 38.93196183333333, "bike_id": "48071660cb2f4714d382d0b35cf316dd", "type": "electric_scooter", "is_reserved": 0, "lon": -77.0250285}, {"fusion_lat": 0.0, "name": "9dad71068b48f134281aa8d377b5b138", "is_disabled": 0, "rental_uris": {"android": "https://dc.lft.to/lastmile_qr_scan", "ios": "https://dc.lft.to/lastmile_qr_scan"}, "fusion_lon": 0.0, "lat": 38.8782285, "bike_id": "9dad71068b48f134281aa8d377b5b138", "type": "electric_scooter", "is_reserved": 0, "lon": -76.990105}, {"fusion_lat": 0.0, "name": "5f2d4d46c6f59047a09333a9faf266f6", "is_disabled": 0, "rental_uris": {"android": "https://dc.lft.to/lastmile_qr_scan", "ios": "https://dc.lft.to/lastmile_qr_scan"}, "fusion_lon": 0.0, "lat": 39.04185433333333, "bike_id": "5f2d4d46c6f59047a09333a9faf266f6", "type": "electric_bike", "is_reserved": 0, "lon": -77.05234783333333}, {"fusion_lat": 0.0, "name": "9295497f72ebeb749fb60b2bcff5ab00", "is_disabled": 0, "rental_uris": {"android": "https://dc.lft.to/lastmile_qr_scan", "ios": "https://dc.lft.to/lastmile_qr_scan"}, "fusion_lon": 0.0, "lat": 38.9232165, "bike_id": "9295497f72ebeb749fb60b2bcff5ab00", "type": "electric_scooter", "is_reserved": 0, "lon": -77.02978483333334}, {"fusion_lat": 0.0, "name": "0780dbc138df63a6f2d7b9da06ec03fd", "is_disabled": 0, "rental_uris": {"android": "https://dc.lft.to/lastmile_qr_scan", "ios": "https://dc.lft.to/lastmile_qr_scan"}, "fusion_lon": 0.0, "lat": 38.838527, "bike_id": "0780dbc138df63a6f2d7b9da06ec03fd", "type": "electric_scooter", "is_reserved": 0, "lon": -76.997065}, {"fusion_lat": 0.0, "name": "83e4eddf44504e50572fb8ba3b4ef2cc", "is_disabled": 0, "rental_uris": {"android": "https://dc.lft.to/lastmile_qr_scan", "ios": "https://dc.lft.to/lastmile_qr_scan"}, "fusion_lon": 0.0, "lat": 38.929947166666665, "bike_id": "83e4eddf44504e50572fb8ba3b4ef2cc", "type": "electric_scooter", "is_reserved": 0, "lon": -77.03805933333334}, {"fusion_lat": 0.0, "name": "835ecc412c52fece1f5093ece33aa1ad", "is_disabled": 0, "rental_uris": {"android": "https://dc.lft.to/lastmile_qr_scan", "ios": "https://dc.lft.to/lastmile_qr_scan"}, "fusion_lon": 0.0, "lat": 38.92079866666667, "bike_id": "835ecc412c52fece1f5093ece33aa1ad", "type": "electric_scooter", "is_reserved": 0, "lon": -77.023061}, {"fusion_lat": 0.0, "name": "5f9e580b303061170d5d089d3b4dc43f", "is_disabled": 0, "rental_uris": {"android": "https://dc.lft.to/lastmile_qr_scan", "ios": "https://dc.lft.to/lastmile_qr_scan"}, "fusion_lon": 0.0, "lat": 38.89862216666667, "bike_id": "5f9e580b303061170d5d089d3b4dc43f", "type": "electric_scooter", "is_reserved": 0, "lon": -77.02822133333333}, {"fusion_lat": 0.0, "name": "0cfbfe6a403a8c464fb6af3261b8ca76", "is_disabled": 0, "rental_uris": {"android": "https://dc.lft.to/lastmile_qr_scan", "ios": "https://dc.lft.to/lastmile_qr_scan"}, "fusion_lon": 0.0, "lat": 38.928884833333335, "bike_id": "0cfbfe6a403a8c464fb6af3261b8ca76", "type": "electric_scooter", "is_reserved": 0, "lon": -77.03250066666666}, {"fusion_lat": 0.0, "name": "076c049373bd368cc885f42b33341eda", "is_disabled": 0, "rental_uris": {"android": "https://dc.lft.to/lastmile_qr_scan", "ios": "https://dc.lft.to/lastmile_qr_scan"}, "fusion_lon": 0.0, "lat": 38.92981416666667, "bike_id": "076c049373bd368cc885f42b33341eda", "type": "electric_scooter", "is_reserved": 0, "lon": -77.03244233333334}, {"fusion_lat": 0.0, "name": "6f9d14c5054b48ae7fff8136de41fd8d", "is_disabled": 0, "rental_uris": {"android": "https://dc.lft.to/lastmile_qr_scan", "ios": "https://dc.lft.to/lastmile_qr_scan"}, "fusion_lon": 0.0, "lat": 38.88314866666666, "bike_id": "6f9d14c5054b48ae7fff8136de41fd8d", "type": "electric_scooter", "is_reserved": 0, "lon": -77.01380533333334}, {"fusion_lat": 0.0, "name": "9bbd9d6784b3db1232767714827effcf", "is_disabled": 0, "rental_uris": {"android": "https://dc.lft.to/lastmile_qr_scan", "ios": "https://dc.lft.to/lastmile_qr_scan"}, "fusion_lon": 0.0, "lat": 38.90254766666666, "bike_id": "9bbd9d6784b3db1232767714827effcf", "type": "electric_scooter", "is_reserved": 0, "lon": -77.04355266666667}, {"fusion_lat": 0.0, "name": "9525e0e6b5cb28dc8d165689eed43208", "is_disabled": 0, "rental_uris": {"android": "https://dc.lft.to/lastmile_qr_scan", "ios": "https://dc.lft.to/lastmile_qr_scan"}, "fusion_lon": 0.0, "lat": 38.9286535, "bike_id": "9525e0e6b5cb28dc8d165689eed43208", "type": "electric_scooter", "is_reserved": 0, "lon": -77.032872}, {"fusion_lat": 0.0, "name": "34168f3d365a8e939341bc5050f88a1c", "is_disabled": 0, "rental_uris": {"android": "https://dc.lft.to/lastmile_qr_scan", "ios": "https://dc.lft.to/lastmile_qr_scan"}, "fusion_lon": 0.0, "lat": 39.03896733333333, "bike_id": "34168f3d365a8e939341bc5050f88a1c", "type": "electric_bike", "is_reserved": 0, "lon": -77.05043033333334}, {"fusion_lat": 0.0, "name": "6e3da2e9fd90d3b4735aac608125712e", "is_disabled": 0, "rental_uris": {"android": "https://dc.lft.to/lastmile_qr_scan", "ios": "https://dc.lft.to/lastmile_qr_scan"}, "fusion_lon": 0.0, "lat": 38.9051025, "bike_id": "6e3da2e9fd90d3b4735aac608125712e", "type": "electric_scooter", "is_reserved": 0, "lon": -77.067676}, {"fusion_lat": 0.0, "name": "84464dc16f938c199aa20007715cf9d2", "is_disabled": 0, "rental_uris": {"android": "https://dc.lft.to/lastmile_qr_scan", "ios": "https://dc.lft.to/lastmile_qr_scan"}, "fusion_lon": 0.0, "lat": 38.899301666666666, "bike_id": "84464dc16f938c199aa20007715cf9d2", "type": "electric_scooter", "is_reserved": 0, "lon": -76.99734466666666}, {"fusion_lat": 0.0, "name": "207d6b721d199242eb3d0c9c76f8b460", "is_disabled": 0, "rental_uris": {"android": "https://dc.lft.to/lastmile_qr_scan", "ios": "https://dc.lft.to/lastmile_qr_scan"}, "fusion_lon": 0.0, "lat": 38.896741166666665, "bike_id": "207d6b721d199242eb3d0c9c76f8b460", "type": "electric_scooter", "is_reserved": 0, "lon": -77.0508925}, {"fusion_lat": 0.0, "name": "8b8acf882a218e1c4f37daad547b3663", "is_disabled": 0, "rental_uris": {"android": "https://dc.lft.to/lastmile_qr_scan", "ios": "https://dc.lft.to/lastmile_qr_scan"}, "fusion_lon": 0.0, "lat": 38.9244665, "bike_id": "8b8acf882a218e1c4f37daad547b3663", "type": "electric_scooter", "is_reserved": 0, "lon": -77.00877016666666}, {"fusion_lat": 0.0, "name": "68058801e43f366ca2e212e65dc10338", "is_disabled": 0, "rental_uris": {"android": "https://dc.lft.to/lastmile_qr_scan", "ios": "https://dc.lft.to/lastmile_qr_scan"}, "fusion_lon": 0.0, "lat": 38.905376333333336, "bike_id": "68058801e43f366ca2e212e65dc10338", "type": "electric_scooter", "is_reserved": 0, "lon": -77.02191316666666}, {"fusion_lat": 0.0, "name": "af2cce8f654872937b6a2b0c4751e165", "is_disabled": 0, "rental_uris": {"android": "https://dc.lft.to/lastmile_qr_scan", "ios": "https://dc.lft.to/lastmile_qr_scan"}, "fusion_lon": 0.0, "lat": 38.930476166666665, "bike_id": "af2cce8f654872937b6a2b0c4751e165", "type": "electric_scooter", "is_reserved": 0, "lon": -77.03614233333333}, {"fusion_lat": 0.0, "name": "ee779cf2a145b104911096a1cc89ab45", "is_disabled": 0, "rental_uris": {"android": "https://dc.lft.to/lastmile_qr_scan", "ios": "https://dc.lft.to/lastmile_qr_scan"}, "fusion_lon": 0.0, "lat": 38.93142366666667, "bike_id": "ee779cf2a145b104911096a1cc89ab45", "type": "electric_scooter", "is_reserved": 0, "lon": -77.03832216666666}, {"fusion_lat": 0.0, "name": "40e8c20f2fa67f3f2c94d9bec45f1136", "is_disabled": 0, "rental_uris": {"android": "https://dc.lft.to/lastmile_qr_scan", "ios": "https://dc.lft.to/lastmile_qr_scan"}, "fusion_lon": 0.0, "lat": 38.86265516666667, "bike_id": "40e8c20f2fa67f3f2c94d9bec45f1136", "type": "electric_bike", "is_reserved": 0, "lon": -76.98350933333333}, {"fusion_lat": 0.0, "name": "754eae08afe35dc33f26defd797821f9", "is_disabled": 0, "rental_uris": {"android": "https://dc.lft.to/lastmile_qr_scan", "ios": "https://dc.lft.to/lastmile_qr_scan"}, "fusion_lon": 0.0, "lat": 38.871773166666664, "bike_id": "754eae08afe35dc33f26defd797821f9", "type": "electric_scooter", "is_reserved": 0, "lon": -77.006188}, {"fusion_lat": 0.0, "name": "6d27a6dbf3a2e66bb252d645d10f3217", "is_disabled": 0, "rental_uris": {"android": "https://dc.lft.to/lastmile_qr_scan", "ios": "https://dc.lft.to/lastmile_qr_scan"}, "fusion_lon": 0.0, "lat": 38.905611666666665, "bike_id": "6d27a6dbf3a2e66bb252d645d10f3217", "type": "electric_scooter", "is_reserved": 0, "lon": -77.0131365}, {"fusion_lat": 0.0, "name": "5db785b8334ab4f2856bdd5c70ac59b0", "is_disabled": 0, "rental_uris": {"android": "https://dc.lft.to/lastmile_qr_scan", "ios": "https://dc.lft.to/lastmile_qr_scan"}, "fusion_lon": 0.0, "lat": 38.910344, "bike_id": "5db785b8334ab4f2856bdd5c70ac59b0", "type": "electric_scooter", "is_reserved": 0, "lon": -77.00754333333333}, {"fusion_lat": 0.0, "name": "24fa5a46df38845771c352d5c34b13c9", "is_disabled": 0, "rental_uris": {"android": "https://dc.lft.to/lastmile_qr_scan", "ios": "https://dc.lft.to/lastmile_qr_scan"}, "fusion_lon": 0.0, "lat": 38.942103, "bike_id": "24fa5a46df38845771c352d5c34b13c9", "type": "electric_bike", "is_reserved": 0, "lon": -77.01825866666667}, {"fusion_lat": 0.0, "name": "d21f6293c395060296af2b9938a4bb6b", "is_disabled": 0, "rental_uris": {"android": "https://dc.lft.to/lastmile_qr_scan", "ios": "https://dc.lft.to/lastmile_qr_scan"}, "fusion_lon": 0.0, "lat": 38.911229, "bike_id": "d21f6293c395060296af2b9938a4bb6b", "type": "electric_scooter", "is_reserved": 0, "lon": -77.02203416666667}, {"fusion_lat": 0.0, "name": "5ee6618b18d26c494a35ea65b2fe2c1d", "is_disabled": 0, "rental_uris": {"android": "https://dc.lft.to/lastmile_qr_scan", "ios": "https://dc.lft.to/lastmile_qr_scan"}, "fusion_lon": 0.0, "lat": 38.930608, "bike_id": "5ee6618b18d26c494a35ea65b2fe2c1d", "type": "electric_scooter", "is_reserved": 0, "lon": -77.029764}, {"fusion_lat": 0.0, "name": "94e1cd46d9b7bba079b456f594e84ff6", "is_disabled": 0, "rental_uris": {"android": "https://dc.lft.to/lastmile_qr_scan", "ios": "https://dc.lft.to/lastmile_qr_scan"}, "fusion_lon": 0.0, "lat": 38.88156083333333, "bike_id": "94e1cd46d9b7bba079b456f594e84ff6", "type": "electric_scooter", "is_reserved": 0, "lon": -77.02754733333333}, {"fusion_lat": 0.0, "name": "8a6ed96f29ebec8311a77c76dc26d874", "is_disabled": 0, "rental_uris": {"android": "https://dc.lft.to/lastmile_qr_scan", "ios": "https://dc.lft.to/lastmile_qr_scan"}, "fusion_lon": 0.0, "lat": 38.9325, "bike_id": "8a6ed96f29ebec8311a77c76dc26d874", "type": "electric_scooter", "is_reserved": 0, "lon": -77.028522}, {"fusion_lat": 0.0, "name": "b94fc0a96846089e22130ad8cfc00a8f", "is_disabled": 0, "rental_uris": {"android": "https://dc.lft.to/lastmile_qr_scan", "ios": "https://dc.lft.to/lastmile_qr_scan"}, "fusion_lon": 0.0, "lat": 38.903726166666665, "bike_id": "b94fc0a96846089e22130ad8cfc00a8f", "type": "electric_scooter", "is_reserved": 0, "lon": -77.0397805}, {"fusion_lat": 0.0, "name": "2b8871e0e568570fe5bc233752e71d9d", "is_disabled": 0, "rental_uris": {"android": "https://dc.lft.to/lastmile_qr_scan", "ios": "https://dc.lft.to/lastmile_qr_scan"}, "fusion_lon": 0.0, "lat": 38.903820833333334, "bike_id": "2b8871e0e568570fe5bc233752e71d9d", "type": "electric_scooter", "is_reserved": 0, "lon": -77.0387075}, {"fusion_lat": 0.0, "name": "826142a7f2e502a537b5fa6c0f25876e", "is_disabled": 0, "rental_uris": {"android": "https://dc.lft.to/lastmile_qr_scan", "ios": "https://dc.lft.to/lastmile_qr_scan"}, "fusion_lon": 0.0, "lat": 38.857968166666666, "bike_id": "826142a7f2e502a537b5fa6c0f25876e", "type": "electric_bike", "is_reserved": 0, "lon": -77.120161}, {"fusion_lat": 0.0, "name": "63454e8196ebd4f1bf67ab40f0e67748", "is_disabled": 0, "rental_uris": {"android": "https://dc.lft.to/lastmile_qr_scan", "ios": "https://dc.lft.to/lastmile_qr_scan"}, "fusion_lon": 0.0, "lat": 38.93563966666667, "bike_id": "63454e8196ebd4f1bf67ab40f0e67748", "type": "electric_scooter", "is_reserved": 0, "lon": -77.0348825}, {"fusion_lat": 0.0, "name": "3b149a71e92fa689497be6010e4cdab9", "is_disabled": 0, "rental_uris": {"android": "https://dc.lft.to/lastmile_qr_scan", "ios": "https://dc.lft.to/lastmile_qr_scan"}, "fusion_lon": 0.0, "lat": 38.87402133333333, "bike_id": "3b149a71e92fa689497be6010e4cdab9", "type": "electric_scooter", "is_reserved": 0, "lon": -76.99994016666666}, {"fusion_lat": 0.0, "name": "77e42f8416fa408fb4f7c449928ad771", "is_disabled": 0, "rental_uris": {"android": "https://dc.lft.to/lastmile_qr_scan", "ios": "https://dc.lft.to/lastmile_qr_scan"}, "fusion_lon": 0.0, "lat": 38.914733, "bike_id": "77e42f8416fa408fb4f7c449928ad771", "type": "electric_scooter", "is_reserved": 0, "lon": -77.02398666666667}, {"fusion_lat": 0.0, "name": "1ed63e4907897238d5e23efe0ca641ae", "is_disabled": 0, "rental_uris": {"android": "https://dc.lft.to/lastmile_qr_scan", "ios": "https://dc.lft.to/lastmile_qr_scan"}, "fusion_lon": 0.0, "lat": 38.91691, "bike_id": "1ed63e4907897238d5e23efe0ca641ae", "type": "electric_scooter", "is_reserved": 0, "lon": -77.028944}, {"fusion_lat": 0.0, "name": "883126635bca2757faaaf577687d1a49", "is_disabled": 0, "rental_uris": {"android": "https://dc.lft.to/lastmile_qr_scan", "ios": "https://dc.lft.to/lastmile_qr_scan"}, "fusion_lon": 0.0, "lat": 38.904322, "bike_id": "883126635bca2757faaaf577687d1a49", "type": "electric_scooter", "is_reserved": 0, "lon": -77.0233835}, {"fusion_lat": 0.0, "name": "5bc85412a6cbecdd6fc2ca50c3d6b81e", "is_disabled": 0, "rental_uris": {"android": "https://dc.lft.to/lastmile_qr_scan", "ios": "https://dc.lft.to/lastmile_qr_scan"}, "fusion_lon": 0.0, "lat": 38.89628533333333, "bike_id": "5bc85412a6cbecdd6fc2ca50c3d6b81e", "type": "electric_scooter", "is_reserved": 0, "lon": -77.00901666666667}, {"fusion_lat": 0.0, "name": "c2841083ec44bd75d555741a6c3b6742", "is_disabled": 0, "rental_uris": {"android": "https://dc.lft.to/lastmile_qr_scan", "ios": "https://dc.lft.to/lastmile_qr_scan"}, "fusion_lon": 0.0, "lat": 38.93524166666667, "bike_id": "c2841083ec44bd75d555741a6c3b6742", "type": "electric_scooter", "is_reserved": 0, "lon": -77.07263166666667}, {"fusion_lat": 0.0, "name": "68ebbc8b76b29784e9c0b1c19a643a97", "is_disabled": 0, "rental_uris": {"android": "https://dc.lft.to/lastmile_qr_scan", "ios": "https://dc.lft.to/lastmile_qr_scan"}, "fusion_lon": 0.0, "lat": 38.878904, "bike_id": "68ebbc8b76b29784e9c0b1c19a643a97", "type": "electric_scooter", "is_reserved": 0, "lon": -77.02256916666667}, {"fusion_lat": 0.0, "name": "ff1f00f7a19ca0b307b843f22911a0f5", "is_disabled": 0, "rental_uris": {"android": "https://dc.lft.to/lastmile_qr_scan", "ios": "https://dc.lft.to/lastmile_qr_scan"}, "fusion_lon": 0.0, "lat": 38.847575166666665, "bike_id": "ff1f00f7a19ca0b307b843f22911a0f5", "type": "electric_scooter", "is_reserved": 0, "lon": -76.99498983333334}, {"fusion_lat": 0.0, "name": "70ad6b69f69fb4a6ba478afcd07afc69", "is_disabled": 0, "rental_uris": {"android": "https://dc.lft.to/lastmile_qr_scan", "ios": "https://dc.lft.to/lastmile_qr_scan"}, "fusion_lon": 0.0, "lat": 39.0525235, "bike_id": "70ad6b69f69fb4a6ba478afcd07afc69", "type": "electric_bike", "is_reserved": 0, "lon": -77.080676}, {"fusion_lat": 0.0, "name": "c5ab72648ea4e0c1c34998e91d214798", "is_disabled": 0, "rental_uris": {"android": "https://dc.lft.to/lastmile_qr_scan", "ios": "https://dc.lft.to/lastmile_qr_scan"}, "fusion_lon": 0.0, "lat": 38.8987595, "bike_id": "c5ab72648ea4e0c1c34998e91d214798", "type": "electric_scooter", "is_reserved": 0, "lon": -76.93184433333333}, {"fusion_lat": 0.0, "name": "4ba2cb6410d8cc7e8950f5e3affc5edc", "is_disabled": 0, "rental_uris": {"android": "https://dc.lft.to/lastmile_qr_scan", "ios": "https://dc.lft.to/lastmile_qr_scan"}, "fusion_lon": 0.0, "lat": 38.9053785, "bike_id": "4ba2cb6410d8cc7e8950f5e3affc5edc", "type": "electric_scooter", "is_reserved": 0, "lon": -77.02199083333333}, {"fusion_lat": 0.0, "name": "f6ec9dbc3b7ff07556a7ca157d2cc334", "is_disabled": 0, "rental_uris": {"android": "https://dc.lft.to/lastmile_qr_scan", "ios": "https://dc.lft.to/lastmile_qr_scan"}, "fusion_lon": 0.0, "lat": 38.88324633333333, "bike_id": "f6ec9dbc3b7ff07556a7ca157d2cc334", "type": "electric_scooter", "is_reserved": 0, "lon": -77.01717316666667}, {"fusion_lat": 0.0, "name": "1b8f0df80b525a49cd03c9db49ccc4c8", "is_disabled": 0, "rental_uris": {"android": "https://dc.lft.to/lastmile_qr_scan", "ios": "https://dc.lft.to/lastmile_qr_scan"}, "fusion_lon": 0.0, "lat": 38.876688333333334, "bike_id": "1b8f0df80b525a49cd03c9db49ccc4c8", "type": "electric_scooter", "is_reserved": 0, "lon": -77.01761233333333}, {"fusion_lat": 0.0, "name": "761ac61ab49f65cfde99581d404ae4d7", "is_disabled": 0, "rental_uris": {"android": "https://dc.lft.to/lastmile_qr_scan", "ios": "https://dc.lft.to/lastmile_qr_scan"}, "fusion_lon": 0.0, "lat": 38.9076925, "bike_id": "761ac61ab49f65cfde99581d404ae4d7", "type": "electric_scooter", "is_reserved": 0, "lon": -77.0319635}, {"fusion_lat": 0.0, "name": "b4ef5cb523804cfe1c3f2889ba4e92e3", "is_disabled": 0, "rental_uris": {"android": "https://dc.lft.to/lastmile_qr_scan", "ios": "https://dc.lft.to/lastmile_qr_scan"}, "fusion_lon": 0.0, "lat": 38.91947116666667, "bike_id": "b4ef5cb523804cfe1c3f2889ba4e92e3", "type": "electric_scooter", "is_reserved": 0, "lon": -77.01786516666667}, {"fusion_lat": 0.0, "name": "32d281498e59fd3805dd0be578711c64", "is_disabled": 0, "rental_uris": {"android": "https://dc.lft.to/lastmile_qr_scan", "ios": "https://dc.lft.to/lastmile_qr_scan"}, "fusion_lon": 0.0, "lat": 38.921182, "bike_id": "32d281498e59fd3805dd0be578711c64", "type": "electric_scooter", "is_reserved": 0, "lon": -77.01211083333334}, {"fusion_lat": 0.0, "name": "39f4977fbe32abece231a43d0d5e15b3", "is_disabled": 0, "rental_uris": {"android": "https://dc.lft.to/lastmile_qr_scan", "ios": "https://dc.lft.to/lastmile_qr_scan"}, "fusion_lon": 0.0, "lat": 38.900327, "bike_id": "39f4977fbe32abece231a43d0d5e15b3", "type": "electric_scooter", "is_reserved": 0, "lon": -77.00200783333334}, {"fusion_lat": 0.0, "name": "23d1e5aa63105bdf51bafccfb7c25d72", "is_disabled": 0, "rental_uris": {"android": "https://dc.lft.to/lastmile_qr_scan", "ios": "https://dc.lft.to/lastmile_qr_scan"}, "fusion_lon": 0.0, "lat": 38.903677, "bike_id": "23d1e5aa63105bdf51bafccfb7c25d72", "type": "electric_scooter", "is_reserved": 0, "lon": -77.046125}, {"fusion_lat": 0.0, "name": "8318eba6ce387ce7dbefa0e3ee8450c0", "is_disabled": 0, "rental_uris": {"android": "https://dc.lft.to/lastmile_qr_scan", "ios": "https://dc.lft.to/lastmile_qr_scan"}, "fusion_lon": 0.0, "lat": 38.92748783333333, "bike_id": "8318eba6ce387ce7dbefa0e3ee8450c0", "type": "electric_scooter", "is_reserved": 0, "lon": -77.02166183333334}, {"fusion_lat": 0.0, "name": "ed7c7b617510982fd69a5ce12fd572fe", "is_disabled": 0, "rental_uris": {"android": "https://dc.lft.to/lastmile_qr_scan", "ios": "https://dc.lft.to/lastmile_qr_scan"}, "fusion_lon": 0.0, "lat": 38.908631166666666, "bike_id": "ed7c7b617510982fd69a5ce12fd572fe", "type": "electric_scooter", "is_reserved": 0, "lon": -77.0243305}, {"fusion_lat": 0.0, "name": "a0de4ffb84448ce98a1ecef44fcc7993", "is_disabled": 0, "rental_uris": {"android": "https://dc.lft.to/lastmile_qr_scan", "ios": "https://dc.lft.to/lastmile_qr_scan"}, "fusion_lon": 0.0, "lat": 38.9107595, "bike_id": "a0de4ffb84448ce98a1ecef44fcc7993", "type": "electric_scooter", "is_reserved": 0, "lon": -77.04126016666666}, {"fusion_lat": 0.0, "name": "82ecbc7f3e7c0592c85f7a3564f14dab", "is_disabled": 0, "rental_uris": {"android": "https://dc.lft.to/lastmile_qr_scan", "ios": "https://dc.lft.to/lastmile_qr_scan"}, "fusion_lon": 0.0, "lat": 38.9199065, "bike_id": "82ecbc7f3e7c0592c85f7a3564f14dab", "type": "electric_scooter", "is_reserved": 0, "lon": -77.032562}, {"fusion_lat": 0.0, "name": "ef9b99cf264342a462ad0eb50873ca01", "is_disabled": 0, "rental_uris": {"android": "https://dc.lft.to/lastmile_qr_scan", "ios": "https://dc.lft.to/lastmile_qr_scan"}, "fusion_lon": 0.0, "lat": 38.885961333333334, "bike_id": "ef9b99cf264342a462ad0eb50873ca01", "type": "electric_scooter", "is_reserved": 0, "lon": -77.01723466666667}, {"fusion_lat": 0.0, "name": "4d6f0ccc7592ee933165ed633b19be96", "is_disabled": 0, "rental_uris": {"android": "https://dc.lft.to/lastmile_qr_scan", "ios": "https://dc.lft.to/lastmile_qr_scan"}, "fusion_lon": 0.0, "lat": 38.90623816666667, "bike_id": "4d6f0ccc7592ee933165ed633b19be96", "type": "electric_scooter", "is_reserved": 0, "lon": -77.02412616666666}, {"fusion_lat": 0.0, "name": "dd2ae3c50d4ca7f8c06480fcc40c7d7b", "is_disabled": 0, "rental_uris": {"android": "https://dc.lft.to/lastmile_qr_scan", "ios": "https://dc.lft.to/lastmile_qr_scan"}, "fusion_lon": 0.0, "lat": 38.89977533333333, "bike_id": "dd2ae3c50d4ca7f8c06480fcc40c7d7b", "type": "electric_scooter", "is_reserved": 0, "lon": -77.050174}, {"fusion_lat": 0.0, "name": "8f7fcc23460e904018d47a846369b4c8", "is_disabled": 0, "rental_uris": {"android": "https://dc.lft.to/lastmile_qr_scan", "ios": "https://dc.lft.to/lastmile_qr_scan"}, "fusion_lon": 0.0, "lat": 38.95062733333334, "bike_id": "8f7fcc23460e904018d47a846369b4c8", "type": "electric_scooter", "is_reserved": 0, "lon": -77.08024783333333}, {"fusion_lat": 0.0, "name": "ffecfcfb3f2879dfc6bbd6703ea3e1b9", "is_disabled": 0, "rental_uris": {"android": "https://dc.lft.to/lastmile_qr_scan", "ios": "https://dc.lft.to/lastmile_qr_scan"}, "fusion_lon": 0.0, "lat": 38.93402, "bike_id": "ffecfcfb3f2879dfc6bbd6703ea3e1b9", "type": "electric_scooter", "is_reserved": 0, "lon": -77.0574625}, {"fusion_lat": 0.0, "name": "70a92807555a87d142d99bddeab93aee", "is_disabled": 0, "rental_uris": {"android": "https://dc.lft.to/lastmile_qr_scan", "ios": "https://dc.lft.to/lastmile_qr_scan"}, "fusion_lon": 0.0, "lat": 38.916927333333334, "bike_id": "70a92807555a87d142d99bddeab93aee", "type": "electric_scooter", "is_reserved": 0, "lon": -77.02597016666667}, {"fusion_lat": 0.0, "name": "1673c9d61174e4ed4be5176f14f46796", "is_disabled": 0, "rental_uris": {"android": "https://dc.lft.to/lastmile_qr_scan", "ios": "https://dc.lft.to/lastmile_qr_scan"}, "fusion_lon": 0.0, "lat": 38.911246166666665, "bike_id": "1673c9d61174e4ed4be5176f14f46796", "type": "electric_scooter", "is_reserved": 0, "lon": -77.02197633333333}, {"fusion_lat": 0.0, "name": "9ebb0f5d3253fa510a0cefd05a02fee9", "is_disabled": 0, "rental_uris": {"android": "https://dc.lft.to/lastmile_qr_scan", "ios": "https://dc.lft.to/lastmile_qr_scan"}, "fusion_lon": 0.0, "lat": 38.908319166666665, "bike_id": "9ebb0f5d3253fa510a0cefd05a02fee9", "type": "electric_scooter", "is_reserved": 0, "lon": -76.98435216666667}, {"fusion_lat": 0.0, "name": "5b9d92efcb5d3b6c5750ce76b0285962", "is_disabled": 0, "rental_uris": {"android": "https://dc.lft.to/lastmile_qr_scan", "ios": "https://dc.lft.to/lastmile_qr_scan"}, "fusion_lon": 0.0, "lat": 38.92473416666667, "bike_id": "5b9d92efcb5d3b6c5750ce76b0285962", "type": "electric_scooter", "is_reserved": 0, "lon": -77.02888816666666}, {"fusion_lat": 0.0, "name": "bd8eebc62134850083cd85734030c5cc", "is_disabled": 0, "rental_uris": {"android": "https://dc.lft.to/lastmile_qr_scan", "ios": "https://dc.lft.to/lastmile_qr_scan"}, "fusion_lon": 0.0, "lat": 38.8830175, "bike_id": "bd8eebc62134850083cd85734030c5cc", "type": "electric_scooter", "is_reserved": 0, "lon": -76.94855483333333}, {"fusion_lat": 0.0, "name": "ab8464baedd015ce5703ce5cb6200341", "is_disabled": 0, "rental_uris": {"android": "https://dc.lft.to/lastmile_qr_scan", "ios": "https://dc.lft.to/lastmile_qr_scan"}, "fusion_lon": 0.0, "lat": 39.070543666666666, "bike_id": "ab8464baedd015ce5703ce5cb6200341", "type": "electric_bike", "is_reserved": 0, "lon": -77.11483133333333}, {"fusion_lat": 0.0, "name": "d3649cf6c4c36915c381f4c89c5a58b2", "is_disabled": 0, "rental_uris": {"android": "https://dc.lft.to/lastmile_qr_scan", "ios": "https://dc.lft.to/lastmile_qr_scan"}, "fusion_lon": 0.0, "lat": 38.922478166666664, "bike_id": "d3649cf6c4c36915c381f4c89c5a58b2", "type": "electric_scooter", "is_reserved": 0, "lon": -77.02218033333334}, {"fusion_lat": 0.0, "name": "891da08735bee89a8439b6ac8e301fee", "is_disabled": 0, "rental_uris": {"android": "https://dc.lft.to/lastmile_qr_scan", "ios": "https://dc.lft.to/lastmile_qr_scan"}, "fusion_lon": 0.0, "lat": 38.923420666666665, "bike_id": "891da08735bee89a8439b6ac8e301fee", "type": "electric_scooter", "is_reserved": 0, "lon": -77.02979783333333}, {"fusion_lat": 0.0, "name": "484d1c76a435f6659a667d721460f137", "is_disabled": 0, "rental_uris": {"android": "https://dc.lft.to/lastmile_qr_scan", "ios": "https://dc.lft.to/lastmile_qr_scan"}, "fusion_lon": 0.0, "lat": 38.913929333333336, "bike_id": "484d1c76a435f6659a667d721460f137", "type": "electric_scooter", "is_reserved": 0, "lon": -77.03324183333334}, {"fusion_lat": 0.0, "name": "e7ce8206f1e2caed92e178051bbc0535", "is_disabled": 0, "rental_uris": {"android": "https://dc.lft.to/lastmile_qr_scan", "ios": "https://dc.lft.to/lastmile_qr_scan"}, "fusion_lon": 0.0, "lat": 38.91792933333333, "bike_id": "e7ce8206f1e2caed92e178051bbc0535", "type": "electric_scooter", "is_reserved": 0, "lon": -77.0092455}, {"fusion_lat": 0.0, "name": "de9fd74db5ed9146770aa1bf5305a1b4", "is_disabled": 0, "rental_uris": {"android": "https://dc.lft.to/lastmile_qr_scan", "ios": "https://dc.lft.to/lastmile_qr_scan"}, "fusion_lon": 0.0, "lat": 38.89902416666666, "bike_id": "de9fd74db5ed9146770aa1bf5305a1b4", "type": "electric_scooter", "is_reserved": 0, "lon": -77.05673233333333}, {"fusion_lat": 0.0, "name": "d27ed902a545ba89eeab429a2f5f25dd", "is_disabled": 0, "rental_uris": {"android": "https://dc.lft.to/lastmile_qr_scan", "ios": "https://dc.lft.to/lastmile_qr_scan"}, "fusion_lon": 0.0, "lat": 38.89170583333333, "bike_id": "d27ed902a545ba89eeab429a2f5f25dd", "type": "electric_scooter", "is_reserved": 0, "lon": -76.99463366666667}, {"fusion_lat": 0.0, "name": "532d0b112eb0918e559c91ebb43d483d", "is_disabled": 0, "rental_uris": {"android": "https://dc.lft.to/lastmile_qr_scan", "ios": "https://dc.lft.to/lastmile_qr_scan"}, "fusion_lon": 0.0, "lat": 38.89059783333333, "bike_id": "532d0b112eb0918e559c91ebb43d483d", "type": "electric_scooter", "is_reserved": 0, "lon": -76.94464066666667}, {"fusion_lat": 0.0, "name": "55134235a3eefd27ae9825502867d07e", "is_disabled": 0, "rental_uris": {"android": "https://dc.lft.to/lastmile_qr_scan", "ios": "https://dc.lft.to/lastmile_qr_scan"}, "fusion_lon": 0.0, "lat": 38.931967, "bike_id": "55134235a3eefd27ae9825502867d07e", "type": "electric_scooter", "is_reserved": 0, "lon": -77.02798366666667}, {"fusion_lat": 0.0, "name": "47e0acb92e437c36f3302512ced50d54", "is_disabled": 0, "rental_uris": {"android": "https://dc.lft.to/lastmile_qr_scan", "ios": "https://dc.lft.to/lastmile_qr_scan"}, "fusion_lon": 0.0, "lat": 38.89931, "bike_id": "47e0acb92e437c36f3302512ced50d54", "type": "electric_scooter", "is_reserved": 0, "lon": -77.00359483333334}, {"fusion_lat": 0.0, "name": "d25e091b8a0ea9f3019016abecc4e755", "is_disabled": 0, "rental_uris": {"android": "https://dc.lft.to/lastmile_qr_scan", "ios": "https://dc.lft.to/lastmile_qr_scan"}, "fusion_lon": 0.0, "lat": 38.95642766666667, "bike_id": "d25e091b8a0ea9f3019016abecc4e755", "type": "electric_scooter", "is_reserved": 0, "lon": -77.0241395}, {"fusion_lat": 0.0, "name": "2617470ed8c204c91f9767e87da28d7e", "is_disabled": 0, "rental_uris": {"android": "https://dc.lft.to/lastmile_qr_scan", "ios": "https://dc.lft.to/lastmile_qr_scan"}, "fusion_lon": 0.0, "lat": 38.926036, "bike_id": "2617470ed8c204c91f9767e87da28d7e", "type": "electric_scooter", "is_reserved": 0, "lon": -77.0376425}, {"fusion_lat": 0.0, "name": "ee75d53ee0891bdec2750ac153a225a0", "is_disabled": 0, "rental_uris": {"android": "https://dc.lft.to/lastmile_qr_scan", "ios": "https://dc.lft.to/lastmile_qr_scan"}, "fusion_lon": 0.0, "lat": 38.91682816666667, "bike_id": "ee75d53ee0891bdec2750ac153a225a0", "type": "electric_scooter", "is_reserved": 0, "lon": -77.03688583333333}, {"fusion_lat": 0.0, "name": "327ce8f98574e8816c5faf22798defc6", "is_disabled": 0, "rental_uris": {"android": "https://dc.lft.to/lastmile_qr_scan", "ios": "https://dc.lft.to/lastmile_qr_scan"}, "fusion_lon": 0.0, "lat": 38.89531083333333, "bike_id": "327ce8f98574e8816c5faf22798defc6", "type": "electric_scooter", "is_reserved": 0, "lon": -77.01223216666666}, {"fusion_lat": 0.0, "name": "ba4600dccd3477335bcaba34a03adf05", "is_disabled": 0, "rental_uris": {"android": "https://dc.lft.to/lastmile_qr_scan", "ios": "https://dc.lft.to/lastmile_qr_scan"}, "fusion_lon": 0.0, "lat": 38.91273283333334, "bike_id": "ba4600dccd3477335bcaba34a03adf05", "type": "electric_scooter", "is_reserved": 0, "lon": -77.02981933333334}, {"fusion_lat": 0.0, "name": "ee852eb048383e0e5ab73b33a850807f", "is_disabled": 0, "rental_uris": {"android": "https://dc.lft.to/lastmile_qr_scan", "ios": "https://dc.lft.to/lastmile_qr_scan"}, "fusion_lon": 0.0, "lat": 38.91031383333333, "bike_id": "ee852eb048383e0e5ab73b33a850807f", "type": "electric_scooter", "is_reserved": 0, "lon": -77.015157}, {"fusion_lat": 0.0, "name": "e3f0e76b9e6a251a71f59f9e7f454603", "is_disabled": 0, "rental_uris": {"android": "https://dc.lft.to/lastmile_qr_scan", "ios": "https://dc.lft.to/lastmile_qr_scan"}, "fusion_lon": 0.0, "lat": 38.91691, "bike_id": "e3f0e76b9e6a251a71f59f9e7f454603", "type": "electric_scooter", "is_reserved": 0, "lon": -77.03774883333334}, {"fusion_lat": 0.0, "name": "5ec704ae2ce53b3b7f4f8261900a2f7c", "is_disabled": 0, "rental_uris": {"android": "https://dc.lft.to/lastmile_qr_scan", "ios": "https://dc.lft.to/lastmile_qr_scan"}, "fusion_lon": 0.0, "lat": 38.8792325, "bike_id": "5ec704ae2ce53b3b7f4f8261900a2f7c", "type": "electric_scooter", "is_reserved": 0, "lon": -76.94480666666666}, {"fusion_lat": 0.0, "name": "e1fe846cfe01124d31d5f83b0529d8d2", "is_disabled": 0, "rental_uris": {"android": "https://dc.lft.to/lastmile_qr_scan", "ios": "https://dc.lft.to/lastmile_qr_scan"}, "fusion_lon": 0.0, "lat": 38.9051825, "bike_id": "e1fe846cfe01124d31d5f83b0529d8d2", "type": "electric_bike", "is_reserved": 0, "lon": -77.0568315}, {"fusion_lat": 0.0, "name": "6a47ee8bd163de237b294ebca451c7f0", "is_disabled": 0, "rental_uris": {"android": "https://dc.lft.to/lastmile_qr_scan", "ios": "https://dc.lft.to/lastmile_qr_scan"}, "fusion_lon": 0.0, "lat": 38.94951533333333, "bike_id": "6a47ee8bd163de237b294ebca451c7f0", "type": "electric_scooter", "is_reserved": 0, "lon": -77.02318216666667}, {"fusion_lat": 0.0, "name": "c1bcf0b784ed7d7d4feff5e489a60782", "is_disabled": 0, "rental_uris": {"android": "https://dc.lft.to/lastmile_qr_scan", "ios": "https://dc.lft.to/lastmile_qr_scan"}, "fusion_lon": 0.0, "lat": 38.905413833333334, "bike_id": "c1bcf0b784ed7d7d4feff5e489a60782", "type": "electric_scooter", "is_reserved": 0, "lon": -77.06119083333333}, {"fusion_lat": 0.0, "name": "e4c79d3cfa87a0eb0c3b4fa70ffb6e47", "is_disabled": 0, "rental_uris": {"android": "https://dc.lft.to/lastmile_qr_scan", "ios": "https://dc.lft.to/lastmile_qr_scan"}, "fusion_lon": 0.0, "lat": 38.889025, "bike_id": "e4c79d3cfa87a0eb0c3b4fa70ffb6e47", "type": "electric_scooter", "is_reserved": 0, "lon": -76.99203366666667}, {"fusion_lat": 0.0, "name": "09b1ca4063f027e238cbb8924560f8b3", "is_disabled": 0, "rental_uris": {"android": "https://dc.lft.to/lastmile_qr_scan", "ios": "https://dc.lft.to/lastmile_qr_scan"}, "fusion_lon": 0.0, "lat": 38.922450833333336, "bike_id": "09b1ca4063f027e238cbb8924560f8b3", "type": "electric_scooter", "is_reserved": 0, "lon": -77.04270983333333}, {"fusion_lat": 0.0, "name": "f894ea6b63a69cad25af93c71aa4c4aa", "is_disabled": 0, "rental_uris": {"android": "https://dc.lft.to/lastmile_qr_scan", "ios": "https://dc.lft.to/lastmile_qr_scan"}, "fusion_lon": 0.0, "lat": 38.91964883333333, "bike_id": "f894ea6b63a69cad25af93c71aa4c4aa", "type": "electric_scooter", "is_reserved": 0, "lon": -77.02515983333333}, {"fusion_lat": 0.0, "name": "b46fc5c1f61d3a07eed424f48b37bfef", "is_disabled": 0, "rental_uris": {"android": "https://dc.lft.to/lastmile_qr_scan", "ios": "https://dc.lft.to/lastmile_qr_scan"}, "fusion_lon": 0.0, "lat": 38.893563666666665, "bike_id": "b46fc5c1f61d3a07eed424f48b37bfef", "type": "electric_bike", "is_reserved": 0, "lon": -77.1874205}, {"fusion_lat": 0.0, "name": "eafd439edd6b6fdd3f2c842caca82662", "is_disabled": 0, "rental_uris": {"android": "https://dc.lft.to/lastmile_qr_scan", "ios": "https://dc.lft.to/lastmile_qr_scan"}, "fusion_lon": 0.0, "lat": 38.905596, "bike_id": "eafd439edd6b6fdd3f2c842caca82662", "type": "electric_scooter", "is_reserved": 0, "lon": -77.01183116666667}, {"fusion_lat": 0.0, "name": "180c138f5d384cdcf48de88ac1351ecb", "is_disabled": 0, "rental_uris": {"android": "https://dc.lft.to/lastmile_qr_scan", "ios": "https://dc.lft.to/lastmile_qr_scan"}, "fusion_lon": 0.0, "lat": 38.905644333333335, "bike_id": "180c138f5d384cdcf48de88ac1351ecb", "type": "electric_scooter", "is_reserved": 0, "lon": -77.0335755}, {"fusion_lat": 0.0, "name": "d84d1741b697cc331ebc25fc100be7db", "is_disabled": 0, "rental_uris": {"android": "https://dc.lft.to/lastmile_qr_scan", "ios": "https://dc.lft.to/lastmile_qr_scan"}, "fusion_lon": 0.0, "lat": 38.89223333333333, "bike_id": "d84d1741b697cc331ebc25fc100be7db", "type": "electric_scooter", "is_reserved": 0, "lon": -77.03220216666666}, {"fusion_lat": 0.0, "name": "580cdf167a6421539223d05f13e3a142", "is_disabled": 0, "rental_uris": {"android": "https://dc.lft.to/lastmile_qr_scan", "ios": "https://dc.lft.to/lastmile_qr_scan"}, "fusion_lon": 0.0, "lat": 38.877353666666664, "bike_id": "580cdf167a6421539223d05f13e3a142", "type": "electric_scooter", "is_reserved": 0, "lon": -77.018553}, {"fusion_lat": 0.0, "name": "9e233783ed9ce736b52892b4fec75f8b", "is_disabled": 0, "rental_uris": {"android": "https://dc.lft.to/lastmile_qr_scan", "ios": "https://dc.lft.to/lastmile_qr_scan"}, "fusion_lon": 0.0, "lat": 38.924766, "bike_id": "9e233783ed9ce736b52892b4fec75f8b", "type": "electric_scooter", "is_reserved": 0, "lon": -77.02827783333333}, {"fusion_lat": 0.0, "name": "bb88711f8e503d60d9b90024fd95a825", "is_disabled": 0, "rental_uris": {"android": "https://dc.lft.to/lastmile_qr_scan", "ios": "https://dc.lft.to/lastmile_qr_scan"}, "fusion_lon": 0.0, "lat": 38.90855466666667, "bike_id": "bb88711f8e503d60d9b90024fd95a825", "type": "electric_scooter", "is_reserved": 0, "lon": -76.998289}, {"fusion_lat": 0.0, "name": "07a89dd4bb1ff714144466bb5a96409d", "is_disabled": 0, "rental_uris": {"android": "https://dc.lft.to/lastmile_qr_scan", "ios": "https://dc.lft.to/lastmile_qr_scan"}, "fusion_lon": 0.0, "lat": 38.91566366666667, "bike_id": "07a89dd4bb1ff714144466bb5a96409d", "type": "electric_scooter", "is_reserved": 0, "lon": -77.03144683333333}, {"fusion_lat": 0.0, "name": "e7e15ddc8015ab4a96f8fd54b4a0191d", "is_disabled": 0, "rental_uris": {"android": "https://dc.lft.to/lastmile_qr_scan", "ios": "https://dc.lft.to/lastmile_qr_scan"}, "fusion_lon": 0.0, "lat": 38.9568635, "bike_id": "e7e15ddc8015ab4a96f8fd54b4a0191d", "type": "electric_scooter", "is_reserved": 0, "lon": -77.0325675}, {"fusion_lat": 0.0, "name": "f46b8828927f49bed6c37b34af3929d6", "is_disabled": 0, "rental_uris": {"android": "https://dc.lft.to/lastmile_qr_scan", "ios": "https://dc.lft.to/lastmile_qr_scan"}, "fusion_lon": 0.0, "lat": 38.919488, "bike_id": "f46b8828927f49bed6c37b34af3929d6", "type": "electric_scooter", "is_reserved": 0, "lon": -77.02491166666667}, {"fusion_lat": 0.0, "name": "ce61a68dc78f2e241df0ef18e25f33c8", "is_disabled": 0, "rental_uris": {"android": "https://dc.lft.to/lastmile_qr_scan", "ios": "https://dc.lft.to/lastmile_qr_scan"}, "fusion_lon": 0.0, "lat": 38.96237383333333, "bike_id": "ce61a68dc78f2e241df0ef18e25f33c8", "type": "electric_bike", "is_reserved": 0, "lon": -76.92757866666666}, {"fusion_lat": 0.0, "name": "12ab59f5c589246595e5d7c55005bd61", "is_disabled": 0, "rental_uris": {"android": "https://dc.lft.to/lastmile_qr_scan", "ios": "https://dc.lft.to/lastmile_qr_scan"}, "fusion_lon": 0.0, "lat": 38.95636833333333, "bike_id": "12ab59f5c589246595e5d7c55005bd61", "type": "electric_scooter", "is_reserved": 0, "lon": -77.0330135}, {"fusion_lat": 0.0, "name": "126429f28643c050bce6b4681b426941", "is_disabled": 0, "rental_uris": {"android": "https://dc.lft.to/lastmile_qr_scan", "ios": "https://dc.lft.to/lastmile_qr_scan"}, "fusion_lon": 0.0, "lat": 38.914616, "bike_id": "126429f28643c050bce6b4681b426941", "type": "electric_scooter", "is_reserved": 0, "lon": -77.00215883333334}, {"fusion_lat": 0.0, "name": "3aa3d289295fe7eb87ca63c3dfe25784", "is_disabled": 0, "rental_uris": {"android": "https://dc.lft.to/lastmile_qr_scan", "ios": "https://dc.lft.to/lastmile_qr_scan"}, "fusion_lon": 0.0, "lat": 38.908083166666664, "bike_id": "3aa3d289295fe7eb87ca63c3dfe25784", "type": "electric_scooter", "is_reserved": 0, "lon": -77.03852066666667}, {"fusion_lat": 0.0, "name": "67c4152cfc433a11b3bf5390c02d428a", "is_disabled": 0, "rental_uris": {"android": "https://dc.lft.to/lastmile_qr_scan", "ios": "https://dc.lft.to/lastmile_qr_scan"}, "fusion_lon": 0.0, "lat": 38.896126833333334, "bike_id": "67c4152cfc433a11b3bf5390c02d428a", "type": "electric_scooter", "is_reserved": 0, "lon": -77.02961916666666}, {"fusion_lat": 0.0, "name": "cde5a87a90576e229d95898f36bf0de7", "is_disabled": 0, "rental_uris": {"android": "https://dc.lft.to/lastmile_qr_scan", "ios": "https://dc.lft.to/lastmile_qr_scan"}, "fusion_lon": 0.0, "lat": 38.930760666666664, "bike_id": "cde5a87a90576e229d95898f36bf0de7", "type": "electric_scooter", "is_reserved": 0, "lon": -77.03159766666667}, {"fusion_lat": 0.0, "name": "1e3a4b2022acdd2f998796cde1f28d65", "is_disabled": 0, "rental_uris": {"android": "https://dc.lft.to/lastmile_qr_scan", "ios": "https://dc.lft.to/lastmile_qr_scan"}, "fusion_lon": 0.0, "lat": 38.90211566666667, "bike_id": "1e3a4b2022acdd2f998796cde1f28d65", "type": "electric_scooter", "is_reserved": 0, "lon": -77.023557}, {"fusion_lat": 0.0, "name": "ed9f52338bfc941806adc6ae24db5871", "is_disabled": 0, "rental_uris": {"android": "https://dc.lft.to/lastmile_qr_scan", "ios": "https://dc.lft.to/lastmile_qr_scan"}, "fusion_lon": 0.0, "lat": 38.9102085, "bike_id": "ed9f52338bfc941806adc6ae24db5871", "type": "electric_scooter", "is_reserved": 0, "lon": -77.03853183333334}, {"fusion_lat": 0.0, "name": "8a9c20b15b053378235018e6d94583fa", "is_disabled": 0, "rental_uris": {"android": "https://dc.lft.to/lastmile_qr_scan", "ios": "https://dc.lft.to/lastmile_qr_scan"}, "fusion_lon": 0.0, "lat": 38.939038, "bike_id": "8a9c20b15b053378235018e6d94583fa", "type": "electric_scooter", "is_reserved": 0, "lon": -77.033204}, {"fusion_lat": 0.0, "name": "fd31cf16caf7b1736b1b0271a06d6b26", "is_disabled": 0, "rental_uris": {"android": "https://dc.lft.to/lastmile_qr_scan", "ios": "https://dc.lft.to/lastmile_qr_scan"}, "fusion_lon": 0.0, "lat": 38.920776000000004, "bike_id": "fd31cf16caf7b1736b1b0271a06d6b26", "type": "electric_scooter", "is_reserved": 0, "lon": -77.0242285}, {"fusion_lat": 0.0, "name": "69f9f8f8642934547d78eca18161dad5", "is_disabled": 0, "rental_uris": {"android": "https://dc.lft.to/lastmile_qr_scan", "ios": "https://dc.lft.to/lastmile_qr_scan"}, "fusion_lon": 0.0, "lat": 38.91197966666667, "bike_id": "69f9f8f8642934547d78eca18161dad5", "type": "electric_scooter", "is_reserved": 0, "lon": -77.032568}, {"fusion_lat": 0.0, "name": "bcae7ec0d7333ce429fb2e20312e1b14", "is_disabled": 0, "rental_uris": {"android": "https://dc.lft.to/lastmile_qr_scan", "ios": "https://dc.lft.to/lastmile_qr_scan"}, "fusion_lon": 0.0, "lat": 38.905090666666666, "bike_id": "bcae7ec0d7333ce429fb2e20312e1b14", "type": "electric_bike", "is_reserved": 0, "lon": -77.059131}, {"fusion_lat": 0.0, "name": "21b381c3a48efa591de49614091b7cdf", "is_disabled": 0, "rental_uris": {"android": "https://dc.lft.to/lastmile_qr_scan", "ios": "https://dc.lft.to/lastmile_qr_scan"}, "fusion_lon": 0.0, "lat": 38.90939916666667, "bike_id": "21b381c3a48efa591de49614091b7cdf", "type": "electric_scooter", "is_reserved": 0, "lon": -77.0185455}, {"fusion_lat": 0.0, "name": "764bdeb1442ccb387d2ecff7b00e7b27", "is_disabled": 0, "rental_uris": {"android": "https://dc.lft.to/lastmile_qr_scan", "ios": "https://dc.lft.to/lastmile_qr_scan"}, "fusion_lon": 0.0, "lat": 38.887701666666665, "bike_id": "764bdeb1442ccb387d2ecff7b00e7b27", "type": "electric_scooter", "is_reserved": 0, "lon": -76.97747983333333}, {"fusion_lat": 0.0, "name": "3321654ded40e91fa87334a24d04aa50", "is_disabled": 0, "rental_uris": {"android": "https://dc.lft.to/lastmile_qr_scan", "ios": "https://dc.lft.to/lastmile_qr_scan"}, "fusion_lon": 0.0, "lat": 38.90682666666667, "bike_id": "3321654ded40e91fa87334a24d04aa50", "type": "electric_bike", "is_reserved": 0, "lon": -76.94496133333334}, {"fusion_lat": 0.0, "name": "1aa1cf020e43b8f05390b58c9e1f36ba", "is_disabled": 0, "rental_uris": {"android": "https://dc.lft.to/lastmile_qr_scan", "ios": "https://dc.lft.to/lastmile_qr_scan"}, "fusion_lon": 0.0, "lat": 38.97342, "bike_id": "1aa1cf020e43b8f05390b58c9e1f36ba", "type": "electric_bike", "is_reserved": 0, "lon": -77.01804633333333}, {"fusion_lat": 0.0, "name": "e2706f647fba3aa43da4db90e129de71", "is_disabled": 0, "rental_uris": {"android": "https://dc.lft.to/lastmile_qr_scan", "ios": "https://dc.lft.to/lastmile_qr_scan"}, "fusion_lon": 0.0, "lat": 38.90151633333333, "bike_id": "e2706f647fba3aa43da4db90e129de71", "type": "electric_scooter", "is_reserved": 0, "lon": -76.9306735}, {"fusion_lat": 0.0, "name": "b34d8fba94d4427ece78f4fc86275192", "is_disabled": 0, "rental_uris": {"android": "https://dc.lft.to/lastmile_qr_scan", "ios": "https://dc.lft.to/lastmile_qr_scan"}, "fusion_lon": 0.0, "lat": 38.9285115, "bike_id": "b34d8fba94d4427ece78f4fc86275192", "type": "electric_scooter", "is_reserved": 0, "lon": -77.03596916666666}, {"fusion_lat": 0.0, "name": "44a35a3ffe4a5fa35bb4b0bb8100f693", "is_disabled": 0, "rental_uris": {"android": "https://dc.lft.to/lastmile_qr_scan", "ios": "https://dc.lft.to/lastmile_qr_scan"}, "fusion_lon": 0.0, "lat": 38.89737016666667, "bike_id": "44a35a3ffe4a5fa35bb4b0bb8100f693", "type": "electric_scooter", "is_reserved": 0, "lon": -77.00331666666666}, {"fusion_lat": 0.0, "name": "e3f88e842b15e083ebf1b5c9cf44721f", "is_disabled": 0, "rental_uris": {"android": "https://dc.lft.to/lastmile_qr_scan", "ios": "https://dc.lft.to/lastmile_qr_scan"}, "fusion_lon": 0.0, "lat": 38.920790333333336, "bike_id": "e3f88e842b15e083ebf1b5c9cf44721f", "type": "electric_bike", "is_reserved": 0, "lon": -76.9894605}, {"fusion_lat": 0.0, "name": "05392ac0185dee1f6e0a2de01aae9b81", "is_disabled": 0, "rental_uris": {"android": "https://dc.lft.to/lastmile_qr_scan", "ios": "https://dc.lft.to/lastmile_qr_scan"}, "fusion_lon": 0.0, "lat": 38.905044, "bike_id": "05392ac0185dee1f6e0a2de01aae9b81", "type": "electric_scooter", "is_reserved": 0, "lon": -77.06508583333333}, {"fusion_lat": 0.0, "name": "99402890adb51841ee70aa0823c34091", "is_disabled": 0, "rental_uris": {"android": "https://dc.lft.to/lastmile_qr_scan", "ios": "https://dc.lft.to/lastmile_qr_scan"}, "fusion_lon": 0.0, "lat": 38.88527783333333, "bike_id": "99402890adb51841ee70aa0823c34091", "type": "electric_scooter", "is_reserved": 0, "lon": -77.01523133333333}, {"fusion_lat": 0.0, "name": "f5eba3cc596051781e329efdc73389a1", "is_disabled": 0, "rental_uris": {"android": "https://dc.lft.to/lastmile_qr_scan", "ios": "https://dc.lft.to/lastmile_qr_scan"}, "fusion_lon": 0.0, "lat": 38.92822566666667, "bike_id": "f5eba3cc596051781e329efdc73389a1", "type": "electric_scooter", "is_reserved": 0, "lon": -77.02259216666667}, {"fusion_lat": 0.0, "name": "e811578c5139fb46cd3ff8589055cce7", "is_disabled": 0, "rental_uris": {"android": "https://dc.lft.to/lastmile_qr_scan", "ios": "https://dc.lft.to/lastmile_qr_scan"}, "fusion_lon": 0.0, "lat": 38.88728316666667, "bike_id": "e811578c5139fb46cd3ff8589055cce7", "type": "electric_scooter", "is_reserved": 0, "lon": -76.983583}, {"fusion_lat": 0.0, "name": "baa709cf29be59df683a21005713bafb", "is_disabled": 0, "rental_uris": {"android": "https://dc.lft.to/lastmile_qr_scan", "ios": "https://dc.lft.to/lastmile_qr_scan"}, "fusion_lon": 0.0, "lat": 38.90256316666667, "bike_id": "baa709cf29be59df683a21005713bafb", "type": "electric_scooter", "is_reserved": 0, "lon": -77.017192}, {"fusion_lat": 0.0, "name": "a193a0513980621be33db2c49a896339", "is_disabled": 0, "rental_uris": {"android": "https://dc.lft.to/lastmile_qr_scan", "ios": "https://dc.lft.to/lastmile_qr_scan"}, "fusion_lon": 0.0, "lat": 38.90703666666667, "bike_id": "a193a0513980621be33db2c49a896339", "type": "electric_scooter", "is_reserved": 0, "lon": -76.99970866666666}, {"fusion_lat": 0.0, "name": "427890f2c00b319cc53bd1f08746e92a", "is_disabled": 0, "rental_uris": {"android": "https://dc.lft.to/lastmile_qr_scan", "ios": "https://dc.lft.to/lastmile_qr_scan"}, "fusion_lon": 0.0, "lat": 38.9365085, "bike_id": "427890f2c00b319cc53bd1f08746e92a", "type": "electric_scooter", "is_reserved": 0, "lon": -77.0305355}, {"fusion_lat": 0.0, "name": "39fa4836f67c6e8f114349af8ff77e42", "is_disabled": 0, "rental_uris": {"android": "https://dc.lft.to/lastmile_qr_scan", "ios": "https://dc.lft.to/lastmile_qr_scan"}, "fusion_lon": 0.0, "lat": 38.893289, "bike_id": "39fa4836f67c6e8f114349af8ff77e42", "type": "electric_scooter", "is_reserved": 0, "lon": -77.02247366666667}, {"fusion_lat": 0.0, "name": "b8cd25099af12a01333593d4d300eb1a", "is_disabled": 0, "rental_uris": {"android": "https://dc.lft.to/lastmile_qr_scan", "ios": "https://dc.lft.to/lastmile_qr_scan"}, "fusion_lon": 0.0, "lat": 38.92450783333334, "bike_id": "b8cd25099af12a01333593d4d300eb1a", "type": "electric_scooter", "is_reserved": 0, "lon": -77.04019266666667}, {"fusion_lat": 0.0, "name": "138a642ccc54de27ce9dbec2af4fd009", "is_disabled": 0, "rental_uris": {"android": "https://dc.lft.to/lastmile_qr_scan", "ios": "https://dc.lft.to/lastmile_qr_scan"}, "fusion_lon": 0.0, "lat": 38.87383716666667, "bike_id": "138a642ccc54de27ce9dbec2af4fd009", "type": "electric_scooter", "is_reserved": 0, "lon": -77.00135033333333}, {"fusion_lat": 0.0, "name": "8effb0188f1eb0c99ca2ddc6d9882319", "is_disabled": 0, "rental_uris": {"android": "https://dc.lft.to/lastmile_qr_scan", "ios": "https://dc.lft.to/lastmile_qr_scan"}, "fusion_lon": 0.0, "lat": 38.894969833333334, "bike_id": "8effb0188f1eb0c99ca2ddc6d9882319", "type": "electric_scooter", "is_reserved": 0, "lon": -77.00308316666667}, {"fusion_lat": 0.0, "name": "a170cc5ddc81bffe897e76543d5a06ce", "is_disabled": 0, "rental_uris": {"android": "https://dc.lft.to/lastmile_qr_scan", "ios": "https://dc.lft.to/lastmile_qr_scan"}, "fusion_lon": 0.0, "lat": 38.894789833333334, "bike_id": "a170cc5ddc81bffe897e76543d5a06ce", "type": "electric_scooter", "is_reserved": 0, "lon": -77.020162}, {"fusion_lat": 0.0, "name": "d7510a06d910b76e651691fecbbe3c83", "is_disabled": 0, "rental_uris": {"android": "https://dc.lft.to/lastmile_qr_scan", "ios": "https://dc.lft.to/lastmile_qr_scan"}, "fusion_lon": 0.0, "lat": 38.92153533333333, "bike_id": "d7510a06d910b76e651691fecbbe3c83", "type": "electric_scooter", "is_reserved": 0, "lon": -77.02426783333334}, {"fusion_lat": 0.0, "name": "d8edd52ec2a4a88e4c8ff178b21a0431", "is_disabled": 0, "rental_uris": {"android": "https://dc.lft.to/lastmile_qr_scan", "ios": "https://dc.lft.to/lastmile_qr_scan"}, "fusion_lon": 0.0, "lat": 38.867680666666665, "bike_id": "d8edd52ec2a4a88e4c8ff178b21a0431", "type": "electric_scooter", "is_reserved": 0, "lon": -76.9827075}, {"fusion_lat": 0.0, "name": "db6dd5dfbca7656376791568a6fc7ab8", "is_disabled": 0, "rental_uris": {"android": "https://dc.lft.to/lastmile_qr_scan", "ios": "https://dc.lft.to/lastmile_qr_scan"}, "fusion_lon": 0.0, "lat": 38.88989866666667, "bike_id": "db6dd5dfbca7656376791568a6fc7ab8", "type": "electric_scooter", "is_reserved": 0, "lon": -76.9779185}, {"fusion_lat": 0.0, "name": "a64b04100eda062f8c05bd976eedc142", "is_disabled": 0, "rental_uris": {"android": "https://dc.lft.to/lastmile_qr_scan", "ios": "https://dc.lft.to/lastmile_qr_scan"}, "fusion_lon": 0.0, "lat": 38.887157, "bike_id": "a64b04100eda062f8c05bd976eedc142", "type": "electric_scooter", "is_reserved": 0, "lon": -77.01772916666667}, {"fusion_lat": 0.0, "name": "352ab8ef3ba73c93ec8b7f506321bf73", "is_disabled": 0, "rental_uris": {"android": "https://dc.lft.to/lastmile_qr_scan", "ios": "https://dc.lft.to/lastmile_qr_scan"}, "fusion_lon": 0.0, "lat": 38.956367666666665, "bike_id": "352ab8ef3ba73c93ec8b7f506321bf73", "type": "electric_scooter", "is_reserved": 0, "lon": -77.03277316666667}, {"fusion_lat": 0.0, "name": "4f399cb5e15a06e415b3c11ff7219638", "is_disabled": 0, "rental_uris": {"android": "https://dc.lft.to/lastmile_qr_scan", "ios": "https://dc.lft.to/lastmile_qr_scan"}, "fusion_lon": 0.0, "lat": 38.819922166666665, "bike_id": "4f399cb5e15a06e415b3c11ff7219638", "type": "electric_bike", "is_reserved": 0, "lon": -76.99766916666667}, {"fusion_lat": 0.0, "name": "21ab2944cef624a5fd0a86964639c669", "is_disabled": 0, "rental_uris": {"android": "https://dc.lft.to/lastmile_qr_scan", "ios": "https://dc.lft.to/lastmile_qr_scan"}, "fusion_lon": 0.0, "lat": 38.951144166666666, "bike_id": "21ab2944cef624a5fd0a86964639c669", "type": "electric_scooter", "is_reserved": 0, "lon": -77.05865016666667}, {"fusion_lat": 0.0, "name": "6b75f8a5d9f801083b4c66df7b6aeaac", "is_disabled": 0, "rental_uris": {"android": "https://dc.lft.to/lastmile_qr_scan", "ios": "https://dc.lft.to/lastmile_qr_scan"}, "fusion_lon": 0.0, "lat": 38.915547833333335, "bike_id": "6b75f8a5d9f801083b4c66df7b6aeaac", "type": "electric_scooter", "is_reserved": 0, "lon": -77.03479816666666}, {"fusion_lat": 0.0, "name": "66ad20c5dd22d4fdc88f4c41fc9ff1c5", "is_disabled": 0, "rental_uris": {"android": "https://dc.lft.to/lastmile_qr_scan", "ios": "https://dc.lft.to/lastmile_qr_scan"}, "fusion_lon": 0.0, "lat": 38.909448, "bike_id": "66ad20c5dd22d4fdc88f4c41fc9ff1c5", "type": "electric_scooter", "is_reserved": 0, "lon": -77.03198583333334}, {"fusion_lat": 0.0, "name": "ba41cc1aa88a2b5c5f675a94c4f78518", "is_disabled": 0, "rental_uris": {"android": "https://dc.lft.to/lastmile_qr_scan", "ios": "https://dc.lft.to/lastmile_qr_scan"}, "fusion_lon": 0.0, "lat": 38.9110845, "bike_id": "ba41cc1aa88a2b5c5f675a94c4f78518", "type": "electric_scooter", "is_reserved": 0, "lon": -77.04489616666666}, {"fusion_lat": 0.0, "name": "3683f759c77be49efb2d20301f48472c", "is_disabled": 0, "rental_uris": {"android": "https://dc.lft.to/lastmile_qr_scan", "ios": "https://dc.lft.to/lastmile_qr_scan"}, "fusion_lon": 0.0, "lat": 38.87671516666666, "bike_id": "3683f759c77be49efb2d20301f48472c", "type": "electric_scooter", "is_reserved": 0, "lon": -77.00618066666667}, {"fusion_lat": 0.0, "name": "53c3d77b0db1f5090d3a3386bc3b3310", "is_disabled": 0, "rental_uris": {"android": "https://dc.lft.to/lastmile_qr_scan", "ios": "https://dc.lft.to/lastmile_qr_scan"}, "fusion_lon": 0.0, "lat": 38.866333, "bike_id": "53c3d77b0db1f5090d3a3386bc3b3310", "type": "electric_scooter", "is_reserved": 0, "lon": -76.98715266666666}, {"fusion_lat": 0.0, "name": "ae6fda32718e09dcc16bfd348108ff2a", "is_disabled": 0, "rental_uris": {"android": "https://dc.lft.to/lastmile_qr_scan", "ios": "https://dc.lft.to/lastmile_qr_scan"}, "fusion_lon": 0.0, "lat": 38.902433, "bike_id": "ae6fda32718e09dcc16bfd348108ff2a", "type": "electric_scooter", "is_reserved": 0, "lon": -77.00200316666667}, {"fusion_lat": 0.0, "name": "df1dbc0de8957bb63f1bbeff41aedb6e", "is_disabled": 0, "rental_uris": {"android": "https://dc.lft.to/lastmile_qr_scan", "ios": "https://dc.lft.to/lastmile_qr_scan"}, "fusion_lon": 0.0, "lat": 38.950568833333335, "bike_id": "df1dbc0de8957bb63f1bbeff41aedb6e", "type": "electric_scooter", "is_reserved": 0, "lon": -77.08026166666667}, {"fusion_lat": 0.0, "name": "088d14c063170142b6701d26fd663846", "is_disabled": 0, "rental_uris": {"android": "https://dc.lft.to/lastmile_qr_scan", "ios": "https://dc.lft.to/lastmile_qr_scan"}, "fusion_lon": 0.0, "lat": 38.88611683333333, "bike_id": "088d14c063170142b6701d26fd663846", "type": "electric_scooter", "is_reserved": 0, "lon": -77.01248733333334}, {"fusion_lat": 0.0, "name": "1c25ce3cdc00cdc71d91b0fb94fe77fd", "is_disabled": 0, "rental_uris": {"android": "https://dc.lft.to/lastmile_qr_scan", "ios": "https://dc.lft.to/lastmile_qr_scan"}, "fusion_lon": 0.0, "lat": 38.90514483333333, "bike_id": "1c25ce3cdc00cdc71d91b0fb94fe77fd", "type": "electric_scooter", "is_reserved": 0, "lon": -77.06884466666666}, {"fusion_lat": 0.0, "name": "32ee8518de2cfd3cc3b90c140ca41338", "is_disabled": 0, "rental_uris": {"android": "https://dc.lft.to/lastmile_qr_scan", "ios": "https://dc.lft.to/lastmile_qr_scan"}, "fusion_lon": 0.0, "lat": 38.908772666666664, "bike_id": "32ee8518de2cfd3cc3b90c140ca41338", "type": "electric_scooter", "is_reserved": 0, "lon": -77.0640405}, {"fusion_lat": 0.0, "name": "2fc3118a7082a9720766a07438c42c45", "is_disabled": 0, "rental_uris": {"android": "https://dc.lft.to/lastmile_qr_scan", "ios": "https://dc.lft.to/lastmile_qr_scan"}, "fusion_lon": 0.0, "lat": 38.93218016666667, "bike_id": "2fc3118a7082a9720766a07438c42c45", "type": "electric_scooter", "is_reserved": 0, "lon": -77.03513166666667}, {"fusion_lat": 0.0, "name": "52606debcf183d9f32c589f1b8d35125", "is_disabled": 0, "rental_uris": {"android": "https://dc.lft.to/lastmile_qr_scan", "ios": "https://dc.lft.to/lastmile_qr_scan"}, "fusion_lon": 0.0, "lat": 38.9221955, "bike_id": "52606debcf183d9f32c589f1b8d35125", "type": "electric_scooter", "is_reserved": 0, "lon": -77.01819183333333}, {"fusion_lat": 0.0, "name": "5bebe4c471f0b9adbdfb113cf846f118", "is_disabled": 0, "rental_uris": {"android": "https://dc.lft.to/lastmile_qr_scan", "ios": "https://dc.lft.to/lastmile_qr_scan"}, "fusion_lon": 0.0, "lat": 38.916909, "bike_id": "5bebe4c471f0b9adbdfb113cf846f118", "type": "electric_scooter", "is_reserved": 0, "lon": -77.02894666666667}, {"fusion_lat": 0.0, "name": "e15aaa9df9e6e50f987cfdd24626b340", "is_disabled": 0, "rental_uris": {"android": "https://dc.lft.to/lastmile_qr_scan", "ios": "https://dc.lft.to/lastmile_qr_scan"},