{"data": {"bikes": [{"lon": -77.0324905, "lat": 38.90966983333333, "rental_uris": {"ios": "https://dc.lft.to/lastmile_qr_scan", "android": "https://dc.lft.to/lastmile_qr_scan"}, "bike_id": "b281054e55ba3c936aecb6825d127413", "type": "electric_scooter", "is_disabled": 0, "fusion_lat": 0.0, "fusion_lon": 0.0, "is_reserved": 0, "name": "b281054e55ba3c936aecb6825d127413"}, {"lon": -76.99151466666666, "lat": 38.9011855, "rental_uris": {"ios": "https://dc.lft.to/lastmile_qr_scan", "android": "https://dc.lft.to/lastmile_qr_scan"}, "bike_id": "affd727db0629c95c8232c7b7ce22f88", "type": "electric_scooter", "is_disabled": 0, "fusion_lat": 0.0, "fusion_lon": 0.0, "is_reserved": 0, "name": "affd727db0629c95c8232c7b7ce22f88"}, {"lon": -77.0499265, "lat": 38.89732683333333, "rental_uris": {"ios": "https://dc.lft.to/lastmile_qr_scan", "android": "https://dc.lft.to/lastmile_qr_scan"}, "bike_id": "dc5cfd8883d73be42eb50d3b97da7e42", "type": "electric_scooter", "is_disabled": 0, "fusion_lat": 0.0, "fusion_lon": 0.0, "is_reserved": 0, "name": "dc5cfd8883d73be42eb50d3b97da7e42"}, {"lon": -77.12525083333334, "lat": 39.05635516666667, "rental_uris": {"ios": "https://dc.lft.to/lastmile_qr_scan", "android": "https://dc.lft.to/lastmile_qr_scan"}, "bike_id": "38548ebb3ea21d65117681f434214edc", "type": "electric_bike", "is_disabled": 0, "fusion_lat": 0.0, "fusion_lon": 0.0, "is_reserved": 0, "name": "38548ebb3ea21d65117681f434214edc"}, {"lon": -77.07512866666667, "lat": 38.894720666666664, "rental_uris": {"ios": "https://dc.lft.to/lastmile_qr_scan", "android": "https://dc.lft.to/lastmile_qr_scan"}, "bike_id": "95ef5caf299284c7960f25a1a60b5808", "type": "electric_scooter", "is_disabled": 0, "fusion_lat": 0.0, "fusion_lon": 0.0, "is_reserved": 0, "name": "95ef5caf299284c7960f25a1a60b5808"}, {"lon": -76.9762615, "lat": 38.90573783333333, "rental_uris": {"ios": "https://dc.lft.to/lastmile_qr_scan", "android": "https://dc.lft.to/lastmile_qr_scan"}, "bike_id": "48102679be69510019656bcf9d135e82", "type": "electric_scooter", "is_disabled": 0, "fusion_lat": 0.0, "fusion_lon": 0.0, "is_reserved": 0, "name": "48102679be69510019656bcf9d135e82"}, {"lon": -77.0240525, "lat": 38.915255, "rental_uris": {"ios": "https://dc.lft.to/lastmile_qr_scan", "android": "https://dc.lft.to/lastmile_qr_scan"}, "bike_id": "25743f11ce9e094a15f72ea6283840be", "type": "electric_scooter", "is_disabled": 0, "fusion_lat": 0.0, "fusion_lon": 0.0, "is_reserved": 0, "name": "25743f11ce9e094a15f72ea6283840be"}, {"lon": -77.033096, "lat": 38.9561195, "rental_uris": {"ios": "https://dc.lft.to/lastmile_qr_scan", "android": "https://dc.lft.to/lastmile_qr_scan"}, "bike_id": "6ee046da4bf4749026425a96e08cafa2", "type": "electric_scooter", "is_disabled": 0, "fusion_lat": 0.0, "fusion_lon": 0.0, "is_reserved": 0, "name": "6ee046da4bf4749026425a96e08cafa2"}, {"lon": -77.03257016666667, "lat": 38.9028045, "rental_uris": {"ios": "https://dc.lft.to/lastmile_qr_scan", "android": "https://dc.lft.to/lastmile_qr_scan"}, "bike_id": "651ee96f27e35af30b8c46dc22bd5d24", "type": "electric_scooter", "is_disabled": 0, "fusion_lat": 0.0, "fusion_lon": 0.0, "is_reserved": 0, "name": "651ee96f27e35af30b8c46dc22bd5d24"}, {"lon": -77.00034816666667, "lat": 38.874046, "rental_uris": {"ios": "https://dc.lft.to/lastmile_qr_scan", "android": "https://dc.lft.to/lastmile_qr_scan"}, "bike_id": "8c4148b90209b2d0f451efa39f7dbe5d", "type": "electric_scooter", "is_disabled": 0, "fusion_lat": 0.0, "fusion_lon": 0.0, "is_reserved": 0, "name": "8c4148b90209b2d0f451efa39f7dbe5d"}, {"lon": -77.02163066666667, "lat": 38.92614, "rental_uris": {"ios": "https://dc.lft.to/lastmile_qr_scan", "android": "https://dc.lft.to/lastmile_qr_scan"}, "bike_id": "282ac8eeee8a48226abad096f1bb650e", "type": "electric_scooter", "is_disabled": 0, "fusion_lat": 0.0, "fusion_lon": 0.0, "is_reserved": 0, "name": "282ac8eeee8a48226abad096f1bb650e"}, {"lon": -77.05108633333333, "lat": 38.923475833333335, "rental_uris": {"ios": "https://dc.lft.to/lastmile_qr_scan", "android": "https://dc.lft.to/lastmile_qr_scan"}, "bike_id": "06ab8f277c32bd4e4ae746997236dbce", "type": "electric_scooter", "is_disabled": 0, "fusion_lat": 0.0, "fusion_lon": 0.0, "is_reserved": 0, "name": "06ab8f277c32bd4e4ae746997236dbce"}, {"lon": -77.02608033333334, "lat": 38.907500666666664, "rental_uris": {"ios": "https://dc.lft.to/lastmile_qr_scan", "android": "https://dc.lft.to/lastmile_qr_scan"}, "bike_id": "649c2730cd68789dac18b813aed6d2d9", "type": "electric_scooter", "is_disabled": 0, "fusion_lat": 0.0, "fusion_lon": 0.0, "is_reserved": 0, "name": "649c2730cd68789dac18b813aed6d2d9"}, {"lon": -77.03377633333334, "lat": 38.89237083333333, "rental_uris": {"ios": "https://dc.lft.to/lastmile_qr_scan", "android": "https://dc.lft.to/lastmile_qr_scan"}, "bike_id": "24cf64141bf5c3cce89b01acb1a35bd1", "type": "electric_scooter", "is_disabled": 0, "fusion_lat": 0.0, "fusion_lon": 0.0, "is_reserved": 0, "name": "24cf64141bf5c3cce89b01acb1a35bd1"}, {"lon": -77.03175616666667, "lat": 38.936044833333334, "rental_uris": {"ios": "https://dc.lft.to/lastmile_qr_scan", "android": "https://dc.lft.to/lastmile_qr_scan"}, "bike_id": "717a48bb8680ada847aeb89ce355e090", "type": "electric_scooter", "is_disabled": 0, "fusion_lat": 0.0, "fusion_lon": 0.0, "is_reserved": 0, "name": "717a48bb8680ada847aeb89ce355e090"}, {"lon": -77.0320135, "lat": 38.915358166666664, "rental_uris": {"ios": "https://dc.lft.to/lastmile_qr_scan", "android": "https://dc.lft.to/lastmile_qr_scan"}, "bike_id": "36619adf37cb687f855e52acc8824fb9", "type": "electric_scooter", "is_disabled": 0, "fusion_lat": 0.0, "fusion_lon": 0.0, "is_reserved": 0, "name": "36619adf37cb687f855e52acc8824fb9"}, {"lon": -77.07593716666666, "lat": 38.9121355, "rental_uris": {"ios": "https://dc.lft.to/lastmile_qr_scan", "android": "https://dc.lft.to/lastmile_qr_scan"}, "bike_id": "ebef63e53359b5dcd84b49a27b4bb358", "type": "electric_scooter", "is_disabled": 0, "fusion_lat": 0.0, "fusion_lon": 0.0, "is_reserved": 0, "name": "ebef63e53359b5dcd84b49a27b4bb358"}, {"lon": -77.03296816666666, "lat": 38.89919416666667, "rental_uris": {"ios": "https://dc.lft.to/lastmile_qr_scan", "android": "https://dc.lft.to/lastmile_qr_scan"}, "bike_id": "fd5cec05aee232a63f8fc88cf0a1b40d", "type": "electric_scooter", "is_disabled": 0, "fusion_lat": 0.0, "fusion_lon": 0.0, "is_reserved": 0, "name": "fd5cec05aee232a63f8fc88cf0a1b40d"}, {"lon": -76.99031183333334, "lat": 38.89549683333333, "rental_uris": {"ios": "https://dc.lft.to/lastmile_qr_scan", "android": "https://dc.lft.to/lastmile_qr_scan"}, "bike_id": "dd0c3b92aa05720c842d1675bf408ff9", "type": "electric_scooter", "is_disabled": 0, "fusion_lat": 0.0, "fusion_lon": 0.0, "is_reserved": 0, "name": "dd0c3b92aa05720c842d1675bf408ff9"}, {"lon": -77.02268433333333, "lat": 38.920897833333335, "rental_uris": {"ios": "https://dc.lft.to/lastmile_qr_scan", "android": "https://dc.lft.to/lastmile_qr_scan"}, "bike_id": "0b5c8a3be623ff3c4d8d9c0042bd7273", "type": "electric_scooter", "is_disabled": 0, "fusion_lat": 0.0, "fusion_lon": 0.0, "is_reserved": 0, "name": "0b5c8a3be623ff3c4d8d9c0042bd7273"}, {"lon": -77.01878366666666, "lat": 38.914119666666664, "rental_uris": {"ios": "https://dc.lft.to/lastmile_qr_scan", "android": "https://dc.lft.to/lastmile_qr_scan"}, "bike_id": "f7f9828050dee603c40bbccc52fe3d91", "type": "electric_scooter", "is_disabled": 0, "fusion_lat": 0.0, "fusion_lon": 0.0, "is_reserved": 0, "name": "f7f9828050dee603c40bbccc52fe3d91"}, {"lon": -77.03167233333333, "lat": 38.92102933333334, "rental_uris": {"ios": "https://dc.lft.to/lastmile_qr_scan", "android": "https://dc.lft.to/lastmile_qr_scan"}, "bike_id": "b504544f2a02e066994cdaca1b058ddc", "type": "electric_bike", "is_disabled": 0, "fusion_lat": 0.0, "fusion_lon": 0.0, "is_reserved": 0, "name": "b504544f2a02e066994cdaca1b058ddc"}, {"lon": -77.037605, "lat": 38.915583, "rental_uris": {"ios": "https://dc.lft.to/lastmile_qr_scan", "android": "https://dc.lft.to/lastmile_qr_scan"}, "bike_id": "f31d940effeda491125bc4d582e3a0c0", "type": "electric_scooter", "is_disabled": 0, "fusion_lat": 0.0, "fusion_lon": 0.0, "is_reserved": 0, "name": "f31d940effeda491125bc4d582e3a0c0"}, {"lon": -77.017422, "lat": 38.916091, "rental_uris": {"ios": "https://dc.lft.to/lastmile_qr_scan", "android": "https://dc.lft.to/lastmile_qr_scan"}, "bike_id": "4f705db3d65698eb3286cf3f8c5ebe63", "type": "electric_scooter", "is_disabled": 0, "fusion_lat": 0.0, "fusion_lon": 0.0, "is_reserved": 0, "name": "4f705db3d65698eb3286cf3f8c5ebe63"}, {"lon": -76.96467383333334, "lat": 38.93446516666667, "rental_uris": {"ios": "https://dc.lft.to/lastmile_qr_scan", "android": "https://dc.lft.to/lastmile_qr_scan"}, "bike_id": "34cf606e5c51280a55185b487ef87436", "type": "electric_scooter", "is_disabled": 0, "fusion_lat": 0.0, "fusion_lon": 0.0, "is_reserved": 0, "name": "34cf606e5c51280a55185b487ef87436"}, {"lon": -76.98536483333334, "lat": 38.91022683333333, "rental_uris": {"ios": "https://dc.lft.to/lastmile_qr_scan", "android": "https://dc.lft.to/lastmile_qr_scan"}, "bike_id": "cf261aa4bbddfd89a2982675b2759d36", "type": "electric_scooter", "is_disabled": 0, "fusion_lat": 0.0, "fusion_lon": 0.0, "is_reserved": 0, "name": "cf261aa4bbddfd89a2982675b2759d36"}, {"lon": -77.01327866666666, "lat": 38.92851566666667, "rental_uris": {"ios": "https://dc.lft.to/lastmile_qr_scan", "android": "https://dc.lft.to/lastmile_qr_scan"}, "bike_id": "2c4ff9f3685f62e22151502fb96f33e4", "type": "electric_scooter", "is_disabled": 0, "fusion_lat": 0.0, "fusion_lon": 0.0, "is_reserved": 0, "name": "2c4ff9f3685f62e22151502fb96f33e4"}, {"lon": -76.98617183333333, "lat": 38.905857, "rental_uris": {"ios": "https://dc.lft.to/lastmile_qr_scan", "android": "https://dc.lft.to/lastmile_qr_scan"}, "bike_id": "bb0e02654e9021382332d9501d90ba88", "type": "electric_scooter", "is_disabled": 0, "fusion_lat": 0.0, "fusion_lon": 0.0, "is_reserved": 0, "name": "bb0e02654e9021382332d9501d90ba88"}, {"lon": -77.0269695, "lat": 38.91757883333333, "rental_uris": {"ios": "https://dc.lft.to/lastmile_qr_scan", "android": "https://dc.lft.to/lastmile_qr_scan"}, "bike_id": "03a9e09f6a7be9b949c4f13107cf4d58", "type": "electric_scooter", "is_disabled": 0, "fusion_lat": 0.0, "fusion_lon": 0.0, "is_reserved": 0, "name": "03a9e09f6a7be9b949c4f13107cf4d58"}, {"lon": -77.01806416666666, "lat": 38.89306116666667, "rental_uris": {"ios": "https://dc.lft.to/lastmile_qr_scan", "android": "https://dc.lft.to/lastmile_qr_scan"}, "bike_id": "4f7753c99eeeed9b6cbe95bdd0ecb6c3", "type": "electric_scooter", "is_disabled": 0, "fusion_lat": 0.0, "fusion_lon": 0.0, "is_reserved": 0, "name": "4f7753c99eeeed9b6cbe95bdd0ecb6c3"}, {"lon": -77.02683633333334, "lat": 38.9848775, "rental_uris": {"ios": "https://dc.lft.to/lastmile_qr_scan", "android": "https://dc.lft.to/lastmile_qr_scan"}, "bike_id": "bb1fff964c880c60046d7caa5e1bbe8e", "type": "electric_scooter", "is_disabled": 0, "fusion_lat": 0.0, "fusion_lon": 0.0, "is_reserved": 0, "name": "bb1fff964c880c60046d7caa5e1bbe8e"}, {"lon": -77.0059915, "lat": 38.8980745, "rental_uris": {"ios": "https://dc.lft.to/lastmile_qr_scan", "android": "https://dc.lft.to/lastmile_qr_scan"}, "bike_id": "40627fc24ee7f6e1ca00da738818dfcd", "type": "electric_bike", "is_disabled": 0, "fusion_lat": 0.0, "fusion_lon": 0.0, "is_reserved": 0, "name": "40627fc24ee7f6e1ca00da738818dfcd"}, {"lon": -77.02711666666667, "lat": 38.90671283333333, "rental_uris": {"ios": "https://dc.lft.to/lastmile_qr_scan", "android": "https://dc.lft.to/lastmile_qr_scan"}, "bike_id": "1d6e16eee88558e69566f0083241d8f1", "type": "electric_scooter", "is_disabled": 0, "fusion_lat": 0.0, "fusion_lon": 0.0, "is_reserved": 0, "name": "1d6e16eee88558e69566f0083241d8f1"}, {"lon": -77.03189783333333, "lat": 38.8840255, "rental_uris": {"ios": "https://dc.lft.to/lastmile_qr_scan", "android": "https://dc.lft.to/lastmile_qr_scan"}, "bike_id": "38105d663984ab4395ab7a3316dd0883", "type": "electric_scooter", "is_disabled": 0, "fusion_lat": 0.0, "fusion_lon": 0.0, "is_reserved": 0, "name": "38105d663984ab4395ab7a3316dd0883"}, {"lon": -77.0269135, "lat": 38.94889916666666, "rental_uris": {"ios": "https://dc.lft.to/lastmile_qr_scan", "android": "https://dc.lft.to/lastmile_qr_scan"}, "bike_id": "9d75917301774d701b58b2be6aa30b65", "type": "electric_scooter", "is_disabled": 0, "fusion_lat": 0.0, "fusion_lon": 0.0, "is_reserved": 0, "name": "9d75917301774d701b58b2be6aa30b65"}, {"lon": -77.00142833333334, "lat": 38.8428505, "rental_uris": {"ios": "https://dc.lft.to/lastmile_qr_scan", "android": "https://dc.lft.to/lastmile_qr_scan"}, "bike_id": "3c18ff675663ba99ca609607804825b2", "type": "electric_scooter", "is_disabled": 0, "fusion_lat": 0.0, "fusion_lon": 0.0, "is_reserved": 0, "name": "3c18ff675663ba99ca609607804825b2"}, {"lon": -77.05439433333333, "lat": 38.905332333333334, "rental_uris": {"ios": "https://dc.lft.to/lastmile_qr_scan", "android": "https://dc.lft.to/lastmile_qr_scan"}, "bike_id": "ccdbddc90d4180e5e62ad2c69cab2403", "type": "electric_scooter", "is_disabled": 0, "fusion_lat": 0.0, "fusion_lon": 0.0, "is_reserved": 0, "name": "ccdbddc90d4180e5e62ad2c69cab2403"}, {"lon": -76.950187, "lat": 38.8939005, "rental_uris": {"ios": "https://dc.lft.to/lastmile_qr_scan", "android": "https://dc.lft.to/lastmile_qr_scan"}, "bike_id": "7e5f6920cf5b83fd3c592b36e6b70368", "type": "electric_scooter", "is_disabled": 0, "fusion_lat": 0.0, "fusion_lon": 0.0, "is_reserved": 0, "name": "7e5f6920cf5b83fd3c592b36e6b70368"}, {"lon": -77.01536933333334, "lat": 38.8832575, "rental_uris": {"ios": "https://dc.lft.to/lastmile_qr_scan", "android": "https://dc.lft.to/lastmile_qr_scan"}, "bike_id": "ed36a00bd30c2e960ea6b374e9645b65", "type": "electric_scooter", "is_disabled": 0, "fusion_lat": 0.0, "fusion_lon": 0.0, "is_reserved": 0, "name": "ed36a00bd30c2e960ea6b374e9645b65"}, {"lon": -77.06370483333333, "lat": 38.90818766666666, "rental_uris": {"ios": "https://dc.lft.to/lastmile_qr_scan", "android": "https://dc.lft.to/lastmile_qr_scan"}, "bike_id": "98eb99f0811e4d1b72070ce5f2b0af71", "type": "electric_scooter", "is_disabled": 0, "fusion_lat": 0.0, "fusion_lon": 0.0, "is_reserved": 0, "name": "98eb99f0811e4d1b72070ce5f2b0af71"}, {"lon": -77.02393366666666, "lat": 38.91999666666667, "rental_uris": {"ios": "https://dc.lft.to/lastmile_qr_scan", "android": "https://dc.lft.to/lastmile_qr_scan"}, "bike_id": "49244b344e8b7c9342f27577e5521f51", "type": "electric_scooter", "is_disabled": 0, "fusion_lat": 0.0, "fusion_lon": 0.0, "is_reserved": 0, "name": "49244b344e8b7c9342f27577e5521f51"}, {"lon": -77.0308635, "lat": 38.922519666666666, "rental_uris": {"ios": "https://dc.lft.to/lastmile_qr_scan", "android": "https://dc.lft.to/lastmile_qr_scan"}, "bike_id": "f735a89d197e3f2a0a5621dfbf593ea1", "type": "electric_scooter", "is_disabled": 0, "fusion_lat": 0.0, "fusion_lon": 0.0, "is_reserved": 0, "name": "f735a89d197e3f2a0a5621dfbf593ea1"}, {"lon": -77.02523883333333, "lat": 38.929808666666666, "rental_uris": {"ios": "https://dc.lft.to/lastmile_qr_scan", "android": "https://dc.lft.to/lastmile_qr_scan"}, "bike_id": "7c6492b1d960c3da91c375f93a66a308", "type": "electric_scooter", "is_disabled": 0, "fusion_lat": 0.0, "fusion_lon": 0.0, "is_reserved": 0, "name": "7c6492b1d960c3da91c375f93a66a308"}, {"lon": -77.021909, "lat": 38.91120016666667, "rental_uris": {"ios": "https://dc.lft.to/lastmile_qr_scan", "android": "https://dc.lft.to/lastmile_qr_scan"}, "bike_id": "5a60c79d734fbfa82b1f89ac29b25bf7", "type": "electric_scooter", "is_disabled": 0, "fusion_lat": 0.0, "fusion_lon": 0.0, "is_reserved": 0, "name": "5a60c79d734fbfa82b1f89ac29b25bf7"}, {"lon": -77.03162366666666, "lat": 38.899524166666666, "rental_uris": {"ios": "https://dc.lft.to/lastmile_qr_scan", "android": "https://dc.lft.to/lastmile_qr_scan"}, "bike_id": "5e487b9de22b7ba3d734ceed56323117", "type": "electric_scooter", "is_disabled": 0, "fusion_lat": 0.0, "fusion_lon": 0.0, "is_reserved": 0, "name": "5e487b9de22b7ba3d734ceed56323117"}, {"lon": -76.97328916666666, "lat": 38.904113333333335, "rental_uris": {"ios": "https://dc.lft.to/lastmile_qr_scan", "android": "https://dc.lft.to/lastmile_qr_scan"}, "bike_id": "2c572c529b37d5cb55467149b63fa37a", "type": "electric_scooter", "is_disabled": 0, "fusion_lat": 0.0, "fusion_lon": 0.0, "is_reserved": 0, "name": "2c572c529b37d5cb55467149b63fa37a"}, {"lon": -77.0270955, "lat": 38.91802633333333, "rental_uris": {"ios": "https://dc.lft.to/lastmile_qr_scan", "android": "https://dc.lft.to/lastmile_qr_scan"}, "bike_id": "5b3006b292fe4f78f91189707e1a8189", "type": "electric_scooter", "is_disabled": 0, "fusion_lat": 0.0, "fusion_lon": 0.0, "is_reserved": 0, "name": "5b3006b292fe4f78f91189707e1a8189"}, {"lon": -77.0278625, "lat": 38.95372166666667, "rental_uris": {"ios": "https://dc.lft.to/lastmile_qr_scan", "android": "https://dc.lft.to/lastmile_qr_scan"}, "bike_id": "39d6b7451408f9975ef3bbc6613c3440", "type": "electric_scooter", "is_disabled": 0, "fusion_lat": 0.0, "fusion_lon": 0.0, "is_reserved": 0, "name": "39d6b7451408f9975ef3bbc6613c3440"}, {"lon": -77.00385216666666, "lat": 38.92365383333333, "rental_uris": {"ios": "https://dc.lft.to/lastmile_qr_scan", "android": "https://dc.lft.to/lastmile_qr_scan"}, "bike_id": "cd3b0e48ab7d665118ea3e74560e6e1a", "type": "electric_scooter", "is_disabled": 0, "fusion_lat": 0.0, "fusion_lon": 0.0, "is_reserved": 0, "name": "cd3b0e48ab7d665118ea3e74560e6e1a"}, {"lon": -77.05031183333334, "lat": 38.92377033333333, "rental_uris": {"ios": "https://dc.lft.to/lastmile_qr_scan", "android": "https://dc.lft.to/lastmile_qr_scan"}, "bike_id": "af3b5931d52c59cfac116618e84723f4", "type": "electric_scooter", "is_disabled": 0, "fusion_lat": 0.0, "fusion_lon": 0.0, "is_reserved": 0, "name": "af3b5931d52c59cfac116618e84723f4"}, {"lon": -77.04329833333334, "lat": 38.90883783333334, "rental_uris": {"ios": "https://dc.lft.to/lastmile_qr_scan", "android": "https://dc.lft.to/lastmile_qr_scan"}, "bike_id": "3f578df2c673cb7f804bbcac4deb39df", "type": "electric_scooter", "is_disabled": 0, "fusion_lat": 0.0, "fusion_lon": 0.0, "is_reserved": 0, "name": "3f578df2c673cb7f804bbcac4deb39df"}, {"lon": -77.03184916666666, "lat": 38.909723, "rental_uris": {"ios": "https://dc.lft.to/lastmile_qr_scan", "android": "https://dc.lft.to/lastmile_qr_scan"}, "bike_id": "1b13fb01c5d5c9ec4db7e442281b4145", "type": "electric_scooter", "is_disabled": 0, "fusion_lat": 0.0, "fusion_lon": 0.0, "is_reserved": 0, "name": "1b13fb01c5d5c9ec4db7e442281b4145"}, {"lon": -77.0298075, "lat": 38.916714666666664, "rental_uris": {"ios": "https://dc.lft.to/lastmile_qr_scan", "android": "https://dc.lft.to/lastmile_qr_scan"}, "bike_id": "67c023432b711ffb3c3a72c8a656fdba", "type": "electric_scooter", "is_disabled": 0, "fusion_lat": 0.0, "fusion_lon": 0.0, "is_reserved": 0, "name": "67c023432b711ffb3c3a72c8a656fdba"}, {"lon": -77.02245033333334, "lat": 38.912773666666666, "rental_uris": {"ios": "https://dc.lft.to/lastmile_qr_scan", "android": "https://dc.lft.to/lastmile_qr_scan"}, "bike_id": "f4c08590cb4c8d7cca33fb3483ba90d0", "type": "electric_scooter", "is_disabled": 0, "fusion_lat": 0.0, "fusion_lon": 0.0, "is_reserved": 0, "name": "f4c08590cb4c8d7cca33fb3483ba90d0"}, {"lon": -77.0465795, "lat": 38.894680666666666, "rental_uris": {"ios": "https://dc.lft.to/lastmile_qr_scan", "android": "https://dc.lft.to/lastmile_qr_scan"}, "bike_id": "2bd495f9c48fe362ab6c5cccfbc1cfe6", "type": "electric_scooter", "is_disabled": 0, "fusion_lat": 0.0, "fusion_lon": 0.0, "is_reserved": 0, "name": "2bd495f9c48fe362ab6c5cccfbc1cfe6"}, {"lon": -77.02138516666666, "lat": 38.92466066666667, "rental_uris": {"ios": "https://dc.lft.to/lastmile_qr_scan", "android": "https://dc.lft.to/lastmile_qr_scan"}, "bike_id": "86e41c8ab282f6a84adedb64dff0203c", "type": "electric_scooter", "is_disabled": 0, "fusion_lat": 0.0, "fusion_lon": 0.0, "is_reserved": 0, "name": "86e41c8ab282f6a84adedb64dff0203c"}, {"lon": -77.01739916666666, "lat": 38.885780833333335, "rental_uris": {"ios": "https://dc.lft.to/lastmile_qr_scan", "android": "https://dc.lft.to/lastmile_qr_scan"}, "bike_id": "187d46d7d8ce5d35dc2c19beecb875d4", "type": "electric_scooter", "is_disabled": 0, "fusion_lat": 0.0, "fusion_lon": 0.0, "is_reserved": 0, "name": "187d46d7d8ce5d35dc2c19beecb875d4"}, {"lon": -77.045206, "lat": 38.941984, "rental_uris": {"ios": "https://dc.lft.to/lastmile_qr_scan", "android": "https://dc.lft.to/lastmile_qr_scan"}, "bike_id": "8385f28f110c4304aea7ed89d2b9bc3c", "type": "electric_bike", "is_disabled": 0, "fusion_lat": 0.0, "fusion_lon": 0.0, "is_reserved": 0, "name": "8385f28f110c4304aea7ed89d2b9bc3c"}, {"lon": -77.0469295, "lat": 38.915766166666664, "rental_uris": {"ios": "https://dc.lft.to/lastmile_qr_scan", "android": "https://dc.lft.to/lastmile_qr_scan"}, "bike_id": "4c66a1fc090b0e2690661d94edea0a45", "type": "electric_scooter", "is_disabled": 0, "fusion_lat": 0.0, "fusion_lon": 0.0, "is_reserved": 0, "name": "4c66a1fc090b0e2690661d94edea0a45"}, {"lon": -77.00336916666667, "lat": 38.889925, "rental_uris": {"ios": "https://dc.lft.to/lastmile_qr_scan", "android": "https://dc.lft.to/lastmile_qr_scan"}, "bike_id": "d2a6df92ab744b022ecf281224054860", "type": "electric_scooter", "is_disabled": 0, "fusion_lat": 0.0, "fusion_lon": 0.0, "is_reserved": 0, "name": "d2a6df92ab744b022ecf281224054860"}, {"lon": -77.02994666666666, "lat": 38.897549833333336, "rental_uris": {"ios": "https://dc.lft.to/lastmile_qr_scan", "android": "https://dc.lft.to/lastmile_qr_scan"}, "bike_id": "37664e9d2ada5b211476413e4eb3e09d", "type": "electric_scooter", "is_disabled": 0, "fusion_lat": 0.0, "fusion_lon": 0.0, "is_reserved": 0, "name": "37664e9d2ada5b211476413e4eb3e09d"}, {"lon": -76.94803416666667, "lat": 38.86194, "rental_uris": {"ios": "https://dc.lft.to/lastmile_qr_scan", "android": "https://dc.lft.to/lastmile_qr_scan"}, "bike_id": "a7ab8d5856e80d15f5f772ddd2c57410", "type": "electric_bike", "is_disabled": 0, "fusion_lat": 0.0, "fusion_lon": 0.0, "is_reserved": 0, "name": "a7ab8d5856e80d15f5f772ddd2c57410"}, {"lon": -77.02241883333333, "lat": 38.92275333333333, "rental_uris": {"ios": "https://dc.lft.to/lastmile_qr_scan", "android": "https://dc.lft.to/lastmile_qr_scan"}, "bike_id": "534ae07690df834fa4e83a235017c825", "type": "electric_scooter", "is_disabled": 0, "fusion_lat": 0.0, "fusion_lon": 0.0, "is_reserved": 0, "name": "534ae07690df834fa4e83a235017c825"}, {"lon": -77.004296, "lat": 38.905612166666664, "rental_uris": {"ios": "https://dc.lft.to/lastmile_qr_scan", "android": "https://dc.lft.to/lastmile_qr_scan"}, "bike_id": "6f45160b314708173b88a4cd6095a4a2", "type": "electric_scooter", "is_disabled": 0, "fusion_lat": 0.0, "fusion_lon": 0.0, "is_reserved": 0, "name": "6f45160b314708173b88a4cd6095a4a2"}, {"lon": -77.03836616666666, "lat": 38.902786, "rental_uris": {"ios": "https://dc.lft.to/lastmile_qr_scan", "android": "https://dc.lft.to/lastmile_qr_scan"}, "bike_id": "42f940ffe0cae7a3ce854e09721f89fd", "type": "electric_scooter", "is_disabled": 0, "fusion_lat": 0.0, "fusion_lon": 0.0, "is_reserved": 0, "name": "42f940ffe0cae7a3ce854e09721f89fd"}, {"lon": -77.033869, "lat": 38.93884933333333, "rental_uris": {"ios": "https://dc.lft.to/lastmile_qr_scan", "android": "https://dc.lft.to/lastmile_qr_scan"}, "bike_id": "45958f3826184d427ff8f41dc2f27fa1", "type": "electric_scooter", "is_disabled": 0, "fusion_lat": 0.0, "fusion_lon": 0.0, "is_reserved": 0, "name": "45958f3826184d427ff8f41dc2f27fa1"}, {"lon": -76.99777583333334, "lat": 38.844325833333336, "rental_uris": {"ios": "https://dc.lft.to/lastmile_qr_scan", "android": "https://dc.lft.to/lastmile_qr_scan"}, "bike_id": "839afd9a957de5b84236da838abf9727", "type": "electric_scooter", "is_disabled": 0, "fusion_lat": 0.0, "fusion_lon": 0.0, "is_reserved": 0, "name": "839afd9a957de5b84236da838abf9727"}, {"lon": -76.93751516666667, "lat": 38.8904795, "rental_uris": {"ios": "https://dc.lft.to/lastmile_qr_scan", "android": "https://dc.lft.to/lastmile_qr_scan"}, "bike_id": "c1bed5e61f1a481f6730ae02cf9d0297", "type": "electric_scooter", "is_disabled": 0, "fusion_lat": 0.0, "fusion_lon": 0.0, "is_reserved": 0, "name": "c1bed5e61f1a481f6730ae02cf9d0297"}, {"lon": -77.04335133333333, "lat": 38.90427416666667, "rental_uris": {"ios": "https://dc.lft.to/lastmile_qr_scan", "android": "https://dc.lft.to/lastmile_qr_scan"}, "bike_id": "49583bc5f4ef83b764d9faee3be9d42c", "type": "electric_scooter", "is_disabled": 0, "fusion_lat": 0.0, "fusion_lon": 0.0, "is_reserved": 0, "name": "49583bc5f4ef83b764d9faee3be9d42c"}, {"lon": -77.023843, "lat": 38.90048516666667, "rental_uris": {"ios": "https://dc.lft.to/lastmile_qr_scan", "android": "https://dc.lft.to/lastmile_qr_scan"}, "bike_id": "005112ae9897d8cbcd906ba94d1e5a1e", "type": "electric_scooter", "is_disabled": 0, "fusion_lat": 0.0, "fusion_lon": 0.0, "is_reserved": 0, "name": "005112ae9897d8cbcd906ba94d1e5a1e"}, {"lon": -77.02941083333333, "lat": 38.92076816666667, "rental_uris": {"ios": "https://dc.lft.to/lastmile_qr_scan", "android": "https://dc.lft.to/lastmile_qr_scan"}, "bike_id": "7f6cb0883629164c8345cfb6de9af93d", "type": "electric_scooter", "is_disabled": 0, "fusion_lat": 0.0, "fusion_lon": 0.0, "is_reserved": 0, "name": "7f6cb0883629164c8345cfb6de9af93d"}, {"lon": -76.99517416666667, "lat": 38.8961035, "rental_uris": {"ios": "https://dc.lft.to/lastmile_qr_scan", "android": "https://dc.lft.to/lastmile_qr_scan"}, "bike_id": "3a52b15f1992929f602159796b0d318b", "type": "electric_scooter", "is_disabled": 0, "fusion_lat": 0.0, "fusion_lon": 0.0, "is_reserved": 0, "name": "3a52b15f1992929f602159796b0d318b"}, {"lon": -77.0336295, "lat": 38.898424, "rental_uris": {"ios": "https://dc.lft.to/lastmile_qr_scan", "android": "https://dc.lft.to/lastmile_qr_scan"}, "bike_id": "b390b3ccfdcb97d256f02bedfe1a6b6c", "type": "electric_scooter", "is_disabled": 0, "fusion_lat": 0.0, "fusion_lon": 0.0, "is_reserved": 0, "name": "b390b3ccfdcb97d256f02bedfe1a6b6c"}, {"lon": -77.01109216666667, "lat": 38.9035665, "rental_uris": {"ios": "https://dc.lft.to/lastmile_qr_scan", "android": "https://dc.lft.to/lastmile_qr_scan"}, "bike_id": "e143f79c8b48b10418d8a7c8f8418bc9", "type": "electric_scooter", "is_disabled": 0, "fusion_lat": 0.0, "fusion_lon": 0.0, "is_reserved": 0, "name": "e143f79c8b48b10418d8a7c8f8418bc9"}, {"lon": -77.0130155, "lat": 38.929981833333336, "rental_uris": {"ios": "https://dc.lft.to/lastmile_qr_scan", "android": "https://dc.lft.to/lastmile_qr_scan"}, "bike_id": "36dcdc83972e3448f02d54a74e2b729c", "type": "electric_scooter", "is_disabled": 0, "fusion_lat": 0.0, "fusion_lon": 0.0, "is_reserved": 0, "name": "36dcdc83972e3448f02d54a74e2b729c"}, {"lon": -77.04658083333334, "lat": 38.904352833333334, "rental_uris": {"ios": "https://dc.lft.to/lastmile_qr_scan", "android": "https://dc.lft.to/lastmile_qr_scan"}, "bike_id": "0de7a259e8554610d22e08b3f3326e8e", "type": "electric_scooter", "is_disabled": 0, "fusion_lat": 0.0, "fusion_lon": 0.0, "is_reserved": 0, "name": "0de7a259e8554610d22e08b3f3326e8e"}, {"lon": -77.03212766666667, "lat": 38.8977815, "rental_uris": {"ios": "https://dc.lft.to/lastmile_qr_scan", "android": "https://dc.lft.to/lastmile_qr_scan"}, "bike_id": "b527e46bfdaf21c5f48da7da9362df96", "type": "electric_scooter", "is_disabled": 0, "fusion_lat": 0.0, "fusion_lon": 0.0, "is_reserved": 0, "name": "b527e46bfdaf21c5f48da7da9362df96"}, {"lon": -77.02849, "lat": 38.91709183333333, "rental_uris": {"ios": "https://dc.lft.to/lastmile_qr_scan", "android": "https://dc.lft.to/lastmile_qr_scan"}, "bike_id": "ada7cd249c6d4a82cc039e3efdf91783", "type": "electric_scooter", "is_disabled": 0, "fusion_lat": 0.0, "fusion_lon": 0.0, "is_reserved": 0, "name": "ada7cd249c6d4a82cc039e3efdf91783"}, {"lon": -77.00076316666667, "lat": 38.94148716666667, "rental_uris": {"ios": "https://dc.lft.to/lastmile_qr_scan", "android": "https://dc.lft.to/lastmile_qr_scan"}, "bike_id": "2c4869c167fc1bc97a9ff1140992f12c", "type": "electric_scooter", "is_disabled": 0, "fusion_lat": 0.0, "fusion_lon": 0.0, "is_reserved": 0, "name": "2c4869c167fc1bc97a9ff1140992f12c"}, {"lon": -77.04414466666667, "lat": 38.8955295, "rental_uris": {"ios": "https://dc.lft.to/lastmile_qr_scan", "android": "https://dc.lft.to/lastmile_qr_scan"}, "bike_id": "05c6150c4b30a05c6217255fe063b7ed", "type": "electric_scooter", "is_disabled": 0, "fusion_lat": 0.0, "fusion_lon": 0.0, "is_reserved": 0, "name": "05c6150c4b30a05c6217255fe063b7ed"}, {"lon": -77.04847583333333, "lat": 38.90249883333333, "rental_uris": {"ios": "https://dc.lft.to/lastmile_qr_scan", "android": "https://dc.lft.to/lastmile_qr_scan"}, "bike_id": "7f573e386b675f0450729022dd7d066c", "type": "electric_scooter", "is_disabled": 0, "fusion_lat": 0.0, "fusion_lon": 0.0, "is_reserved": 0, "name": "7f573e386b675f0450729022dd7d066c"}, {"lon": -77.03841583333333, "lat": 38.9037215, "rental_uris": {"ios": "https://dc.lft.to/lastmile_qr_scan", "android": "https://dc.lft.to/lastmile_qr_scan"}, "bike_id": "58cef98d40f819e5d5dde98b3975692c", "type": "electric_scooter", "is_disabled": 0, "fusion_lat": 0.0, "fusion_lon": 0.0, "is_reserved": 0, "name": "58cef98d40f819e5d5dde98b3975692c"}, {"lon": -76.995292, "lat": 38.88378083333333, "rental_uris": {"ios": "https://dc.lft.to/lastmile_qr_scan", "android": "https://dc.lft.to/lastmile_qr_scan"}, "bike_id": "7bf41eabd40759567441fc0749919d84", "type": "electric_scooter", "is_disabled": 0, "fusion_lat": 0.0, "fusion_lon": 0.0, "is_reserved": 0, "name": "7bf41eabd40759567441fc0749919d84"}, {"lon": -77.02207683333333, "lat": 38.8872245, "rental_uris": {"ios": "https://dc.lft.to/lastmile_qr_scan", "android": "https://dc.lft.to/lastmile_qr_scan"}, "bike_id": "6696854d3c443466eb013e0da18c8a8e", "type": "electric_scooter", "is_disabled": 0, "fusion_lat": 0.0, "fusion_lon": 0.0, "is_reserved": 0, "name": "6696854d3c443466eb013e0da18c8a8e"}, {"lon": -77.048944, "lat": 38.900741, "rental_uris": {"ios": "https://dc.lft.to/lastmile_qr_scan", "android": "https://dc.lft.to/lastmile_qr_scan"}, "bike_id": "27368edbdbbd5ccf5bc029d4ee889284", "type": "electric_scooter", "is_disabled": 0, "fusion_lat": 0.0, "fusion_lon": 0.0, "is_reserved": 0, "name": "27368edbdbbd5ccf5bc029d4ee889284"}, {"lon": -77.02849366666666, "lat": 38.93343566666667, "rental_uris": {"ios": "https://dc.lft.to/lastmile_qr_scan", "android": "https://dc.lft.to/lastmile_qr_scan"}, "bike_id": "90e1acc9e8ecf84e7b228f51ab4c9028", "type": "electric_scooter", "is_disabled": 0, "fusion_lat": 0.0, "fusion_lon": 0.0, "is_reserved": 0, "name": "90e1acc9e8ecf84e7b228f51ab4c9028"}, {"lon": -77.02240183333333, "lat": 38.912775833333335, "rental_uris": {"ios": "https://dc.lft.to/lastmile_qr_scan", "android": "https://dc.lft.to/lastmile_qr_scan"}, "bike_id": "b17c49a37a40ed73978b3c74ecdb4227", "type": "electric_scooter", "is_disabled": 0, "fusion_lat": 0.0, "fusion_lon": 0.0, "is_reserved": 0, "name": "b17c49a37a40ed73978b3c74ecdb4227"}, {"lon": -77.02372516666667, "lat": 38.91982566666667, "rental_uris": {"ios": "https://dc.lft.to/lastmile_qr_scan", "android": "https://dc.lft.to/lastmile_qr_scan"}, "bike_id": "39c485fe9ce678fb4b48288fa8d7ab0e", "type": "electric_scooter", "is_disabled": 0, "fusion_lat": 0.0, "fusion_lon": 0.0, "is_reserved": 0, "name": "39c485fe9ce678fb4b48288fa8d7ab0e"}, {"lon": -77.00864216666666, "lat": 38.906491, "rental_uris": {"ios": "https://dc.lft.to/lastmile_qr_scan", "android": "https://dc.lft.to/lastmile_qr_scan"}, "bike_id": "8be0e06655c092169162632c16fa1cd9", "type": "electric_scooter", "is_disabled": 0, "fusion_lat": 0.0, "fusion_lon": 0.0, "is_reserved": 0, "name": "8be0e06655c092169162632c16fa1cd9"}, {"lon": -77.013169, "lat": 38.871477, "rental_uris": {"ios": "https://dc.lft.to/lastmile_qr_scan", "android": "https://dc.lft.to/lastmile_qr_scan"}, "bike_id": "2d5495582b8a1e4c0a8fee6b0dab705c", "type": "electric_scooter", "is_disabled": 0, "fusion_lat": 0.0, "fusion_lon": 0.0, "is_reserved": 0, "name": "2d5495582b8a1e4c0a8fee6b0dab705c"}, {"lon": -77.04304816666667, "lat": 38.923284833333334, "rental_uris": {"ios": "https://dc.lft.to/lastmile_qr_scan", "android": "https://dc.lft.to/lastmile_qr_scan"}, "bike_id": "1cebe926e63d21a1edd0ad3be0b99c52", "type": "electric_scooter", "is_disabled": 0, "fusion_lat": 0.0, "fusion_lon": 0.0, "is_reserved": 0, "name": "1cebe926e63d21a1edd0ad3be0b99c52"}, {"lon": -77.03079066666666, "lat": 38.923868666666664, "rental_uris": {"ios": "https://dc.lft.to/lastmile_qr_scan", "android": "https://dc.lft.to/lastmile_qr_scan"}, "bike_id": "c4f8d1fb8759750b769c1339c3a4010d", "type": "electric_scooter", "is_disabled": 0, "fusion_lat": 0.0, "fusion_lon": 0.0, "is_reserved": 0, "name": "c4f8d1fb8759750b769c1339c3a4010d"}, {"lon": -77.02585933333333, "lat": 38.92038866666667, "rental_uris": {"ios": "https://dc.lft.to/lastmile_qr_scan", "android": "https://dc.lft.to/lastmile_qr_scan"}, "bike_id": "c04b8b38d7e0a4b7d01e906dfb35e620", "type": "electric_scooter", "is_disabled": 0, "fusion_lat": 0.0, "fusion_lon": 0.0, "is_reserved": 0, "name": "c04b8b38d7e0a4b7d01e906dfb35e620"}, {"lon": -77.02163633333333, "lat": 38.92614116666667, "rental_uris": {"ios": "https://dc.lft.to/lastmile_qr_scan", "android": "https://dc.lft.to/lastmile_qr_scan"}, "bike_id": "6e4a10a868278ddd3162c3c5a251087c", "type": "electric_scooter", "is_disabled": 0, "fusion_lat": 0.0, "fusion_lon": 0.0, "is_reserved": 0, "name": "6e4a10a868278ddd3162c3c5a251087c"}, {"lon": -77.01964583333333, "lat": 38.87632983333334, "rental_uris": {"ios": "https://dc.lft.to/lastmile_qr_scan", "android": "https://dc.lft.to/lastmile_qr_scan"}, "bike_id": "fd45ce75f3374334e0f9b227af8d0bcb", "type": "electric_scooter", "is_disabled": 0, "fusion_lat": 0.0, "fusion_lon": 0.0, "is_reserved": 0, "name": "fd45ce75f3374334e0f9b227af8d0bcb"}, {"lon": -77.00066033333333, "lat": 38.8964345, "rental_uris": {"ios": "https://dc.lft.to/lastmile_qr_scan", "android": "https://dc.lft.to/lastmile_qr_scan"}, "bike_id": "762502a8ee1e5255ca5fe397bf57b2d2", "type": "electric_scooter", "is_disabled": 0, "fusion_lat": 0.0, "fusion_lon": 0.0, "is_reserved": 0, "name": "762502a8ee1e5255ca5fe397bf57b2d2"}, {"lon": -77.0175495, "lat": 38.883136, "rental_uris": {"ios": "https://dc.lft.to/lastmile_qr_scan", "android": "https://dc.lft.to/lastmile_qr_scan"}, "bike_id": "8522725a3cee149cc1159e690e3c88bb", "type": "electric_scooter", "is_disabled": 0, "fusion_lat": 0.0, "fusion_lon": 0.0, "is_reserved": 0, "name": "8522725a3cee149cc1159e690e3c88bb"}, {"lon": -77.03861816666667, "lat": 38.90277733333333, "rental_uris": {"ios": "https://dc.lft.to/lastmile_qr_scan", "android": "https://dc.lft.to/lastmile_qr_scan"}, "bike_id": "c64f10576759abc89115d708af521d3f", "type": "electric_scooter", "is_disabled": 0, "fusion_lat": 0.0, "fusion_lon": 0.0, "is_reserved": 0, "name": "c64f10576759abc89115d708af521d3f"}, {"lon": -77.0244995, "lat": 38.899962, "rental_uris": {"ios": "https://dc.lft.to/lastmile_qr_scan", "android": "https://dc.lft.to/lastmile_qr_scan"}, "bike_id": "ca5809f29ab0da3ab7bf9044a2d28307", "type": "electric_scooter", "is_disabled": 0, "fusion_lat": 0.0, "fusion_lon": 0.0, "is_reserved": 0, "name": "ca5809f29ab0da3ab7bf9044a2d28307"}, {"lon": -77.028856, "lat": 38.917128166666664, "rental_uris": {"ios": "https://dc.lft.to/lastmile_qr_scan", "android": "https://dc.lft.to/lastmile_qr_scan"}, "bike_id": "b648e17d15509002ec92d04954f00c7b", "type": "electric_scooter", "is_disabled": 0, "fusion_lat": 0.0, "fusion_lon": 0.0, "is_reserved": 0, "name": "b648e17d15509002ec92d04954f00c7b"}, {"lon": -77.0061185, "lat": 38.905864666666666, "rental_uris": {"ios": "https://dc.lft.to/lastmile_qr_scan", "android": "https://dc.lft.to/lastmile_qr_scan"}, "bike_id": "3a9ec07a74e477b08d651dce2a34f182", "type": "electric_scooter", "is_disabled": 0, "fusion_lat": 0.0, "fusion_lon": 0.0, "is_reserved": 0, "name": "3a9ec07a74e477b08d651dce2a34f182"}, {"lon": -77.030464, "lat": 38.88405516666667, "rental_uris": {"ios": "https://dc.lft.to/lastmile_qr_scan", "android": "https://dc.lft.to/lastmile_qr_scan"}, "bike_id": "f560bf6a8676916e3058bcbc1d0ae33b", "type": "electric_scooter", "is_disabled": 0, "fusion_lat": 0.0, "fusion_lon": 0.0, "is_reserved": 0, "name": "f560bf6a8676916e3058bcbc1d0ae33b"}, {"lon": -77.046881, "lat": 38.92169066666666, "rental_uris": {"ios": "https://dc.lft.to/lastmile_qr_scan", "android": "https://dc.lft.to/lastmile_qr_scan"}, "bike_id": "7ae0370de0bbbda80bcce718c732d961", "type": "electric_scooter", "is_disabled": 0, "fusion_lat": 0.0, "fusion_lon": 0.0, "is_reserved": 0, "name": "7ae0370de0bbbda80bcce718c732d961"}, {"lon": -76.9954945, "lat": 38.86261183333333, "rental_uris": {"ios": "https://dc.lft.to/lastmile_qr_scan", "android": "https://dc.lft.to/lastmile_qr_scan"}, "bike_id": "1e46e778fa4cbdb8591e2102f95bca8b", "type": "electric_scooter", "is_disabled": 0, "fusion_lat": 0.0, "fusion_lon": 0.0, "is_reserved": 0, "name": "1e46e778fa4cbdb8591e2102f95bca8b"}, {"lon": -77.035501, "lat": 38.917086, "rental_uris": {"ios": "https://dc.lft.to/lastmile_qr_scan", "android": "https://dc.lft.to/lastmile_qr_scan"}, "bike_id": "1f194a413ebabb38b073e341d7a83fcc", "type": "electric_scooter", "is_disabled": 0, "fusion_lat": 0.0, "fusion_lon": 0.0, "is_reserved": 0, "name": "1f194a413ebabb38b073e341d7a83fcc"}, {"lon": -77.08660233333333, "lat": 38.862496166666666, "rental_uris": {"ios": "https://dc.lft.to/lastmile_qr_scan", "android": "https://dc.lft.to/lastmile_qr_scan"}, "bike_id": "4fb91a80b7059c1f523a9665d0be6c40", "type": "electric_bike", "is_disabled": 0, "fusion_lat": 0.0, "fusion_lon": 0.0, "is_reserved": 0, "name": "4fb91a80b7059c1f523a9665d0be6c40"}, {"lon": -77.0037535, "lat": 38.89726533333334, "rental_uris": {"ios": "https://dc.lft.to/lastmile_qr_scan", "android": "https://dc.lft.to/lastmile_qr_scan"}, "bike_id": "7f0f56f3b470d25ca2ee8e446a2be8b5", "type": "electric_scooter", "is_disabled": 0, "fusion_lat": 0.0, "fusion_lon": 0.0, "is_reserved": 0, "name": "7f0f56f3b470d25ca2ee8e446a2be8b5"}, {"lon": -76.99458016666667, "lat": 38.966205333333335, "rental_uris": {"ios": "https://dc.lft.to/lastmile_qr_scan", "android": "https://dc.lft.to/lastmile_qr_scan"}, "bike_id": "09849f00cfe9f4bc5a3e067e297ab00b", "type": "electric_bike", "is_disabled": 0, "fusion_lat": 0.0, "fusion_lon": 0.0, "is_reserved": 0, "name": "09849f00cfe9f4bc5a3e067e297ab00b"}, {"lon": -76.995441, "lat": 38.862586, "rental_uris": {"ios": "https://dc.lft.to/lastmile_qr_scan", "android": "https://dc.lft.to/lastmile_qr_scan"}, "bike_id": "0476e9056b1e16f104f9c4200440a9bf", "type": "electric_scooter", "is_disabled": 0, "fusion_lat": 0.0, "fusion_lon": 0.0, "is_reserved": 0, "name": "0476e9056b1e16f104f9c4200440a9bf"}, {"lon": -76.99031483333333, "lat": 38.89854533333333, "rental_uris": {"ios": "https://dc.lft.to/lastmile_qr_scan", "android": "https://dc.lft.to/lastmile_qr_scan"}, "bike_id": "0de14b1aa90954ef17b3559efba6a8e5", "type": "electric_scooter", "is_disabled": 0, "fusion_lat": 0.0, "fusion_lon": 0.0, "is_reserved": 0, "name": "0de14b1aa90954ef17b3559efba6a8e5"}, {"lon": -77.02976283333334, "lat": 38.921972, "rental_uris": {"ios": "https://dc.lft.to/lastmile_qr_scan", "android": "https://dc.lft.to/lastmile_qr_scan"}, "bike_id": "bd01518491f437537b07d48d9cf7b3ca", "type": "electric_scooter", "is_disabled": 0, "fusion_lat": 0.0, "fusion_lon": 0.0, "is_reserved": 0, "name": "bd01518491f437537b07d48d9cf7b3ca"}, {"lon": -77.0248225, "lat": 38.93863133333333, "rental_uris": {"ios": "https://dc.lft.to/lastmile_qr_scan", "android": "https://dc.lft.to/lastmile_qr_scan"}, "bike_id": "4e81d45118a5a0fd575251593d17337e", "type": "electric_scooter", "is_disabled": 0, "fusion_lat": 0.0, "fusion_lon": 0.0, "is_reserved": 0, "name": "4e81d45118a5a0fd575251593d17337e"}, {"lon": -76.96918116666667, "lat": 38.95195016666667, "rental_uris": {"ios": "https://dc.lft.to/lastmile_qr_scan", "android": "https://dc.lft.to/lastmile_qr_scan"}, "bike_id": "78f2731bf28f598a75610068036b6a8a", "type": "electric_bike", "is_disabled": 0, "fusion_lat": 0.0, "fusion_lon": 0.0, "is_reserved": 0, "name": "78f2731bf28f598a75610068036b6a8a"}, {"lon": -77.0342605, "lat": 38.916933666666665, "rental_uris": {"ios": "https://dc.lft.to/lastmile_qr_scan", "android": "https://dc.lft.to/lastmile_qr_scan"}, "bike_id": "2e050d09d75b22c01aaf7f7566197c40", "type": "electric_scooter", "is_disabled": 0, "fusion_lat": 0.0, "fusion_lon": 0.0, "is_reserved": 0, "name": "2e050d09d75b22c01aaf7f7566197c40"}, {"lon": -76.98824033333334, "lat": 38.890785, "rental_uris": {"ios": "https://dc.lft.to/lastmile_qr_scan", "android": "https://dc.lft.to/lastmile_qr_scan"}, "bike_id": "8fd0dc2ab5de759ee994557b45c5fcca", "type": "electric_scooter", "is_disabled": 0, "fusion_lat": 0.0, "fusion_lon": 0.0, "is_reserved": 0, "name": "8fd0dc2ab5de759ee994557b45c5fcca"}, {"lon": -77.0187555, "lat": 38.91414916666667, "rental_uris": {"ios": "https://dc.lft.to/lastmile_qr_scan", "android": "https://dc.lft.to/lastmile_qr_scan"}, "bike_id": "abf80704494ca497684a6b733548786b", "type": "electric_scooter", "is_disabled": 0, "fusion_lat": 0.0, "fusion_lon": 0.0, "is_reserved": 0, "name": "abf80704494ca497684a6b733548786b"}, {"lon": -77.03376233333333, "lat": 38.900028666666664, "rental_uris": {"ios": "https://dc.lft.to/lastmile_qr_scan", "android": "https://dc.lft.to/lastmile_qr_scan"}, "bike_id": "91774d76d128eacb4e76f6769a1882ea", "type": "electric_scooter", "is_disabled": 0, "fusion_lat": 0.0, "fusion_lon": 0.0, "is_reserved": 0, "name": "91774d76d128eacb4e76f6769a1882ea"}, {"lon": -77.03506316666666, "lat": 38.921489333333334, "rental_uris": {"ios": "https://dc.lft.to/lastmile_qr_scan", "android": "https://dc.lft.to/lastmile_qr_scan"}, "bike_id": "2a0cf912c36cfe1fbbc9bf36e803015c", "type": "electric_scooter", "is_disabled": 0, "fusion_lat": 0.0, "fusion_lon": 0.0, "is_reserved": 0, "name": "2a0cf912c36cfe1fbbc9bf36e803015c"}, {"lon": -77.02182966666666, "lat": 38.911254666666665, "rental_uris": {"ios": "https://dc.lft.to/lastmile_qr_scan", "android": "https://dc.lft.to/lastmile_qr_scan"}, "bike_id": "d78378f4e34a5da593a5cea37c2c87d3", "type": "electric_scooter", "is_disabled": 0, "fusion_lat": 0.0, "fusion_lon": 0.0, "is_reserved": 0, "name": "d78378f4e34a5da593a5cea37c2c87d3"}, {"lon": -77.03208, "lat": 38.908937, "rental_uris": {"ios": "https://dc.lft.to/lastmile_qr_scan", "android": "https://dc.lft.to/lastmile_qr_scan"}, "bike_id": "76fb05f5fbc08b72d8cc7a306e389abd", "type": "electric_scooter", "is_disabled": 0, "fusion_lat": 0.0, "fusion_lon": 0.0, "is_reserved": 0, "name": "76fb05f5fbc08b72d8cc7a306e389abd"}, {"lon": -77.02009183333334, "lat": 38.90153683333333, "rental_uris": {"ios": "https://dc.lft.to/lastmile_qr_scan", "android": "https://dc.lft.to/lastmile_qr_scan"}, "bike_id": "dc25ddfeb65629fbfceb52eefe493f81", "type": "electric_scooter", "is_disabled": 0, "fusion_lat": 0.0, "fusion_lon": 0.0, "is_reserved": 0, "name": "dc25ddfeb65629fbfceb52eefe493f81"}, {"lon": -77.00239133333334, "lat": 38.9572145, "rental_uris": {"ios": "https://dc.lft.to/lastmile_qr_scan", "android": "https://dc.lft.to/lastmile_qr_scan"}, "bike_id": "4f01ef97a831dc2ed231e16732399052", "type": "electric_scooter", "is_disabled": 0, "fusion_lat": 0.0, "fusion_lon": 0.0, "is_reserved": 0, "name": "4f01ef97a831dc2ed231e16732399052"}, {"lon": -77.02602533333334, "lat": 38.982747833333335, "rental_uris": {"ios": "https://dc.lft.to/lastmile_qr_scan", "android": "https://dc.lft.to/lastmile_qr_scan"}, "bike_id": "e7dd16d7f199fee2c727b16b2f4652b0", "type": "electric_scooter", "is_disabled": 0, "fusion_lat": 0.0, "fusion_lon": 0.0, "is_reserved": 0, "name": "e7dd16d7f199fee2c727b16b2f4652b0"}, {"lon": -76.960603, "lat": 38.88406283333333, "rental_uris": {"ios": "https://dc.lft.to/lastmile_qr_scan", "android": "https://dc.lft.to/lastmile_qr_scan"}, "bike_id": "a97ae3fa64c4ce8f0fc4f10908380f4f", "type": "electric_bike", "is_disabled": 0, "fusion_lat": 0.0, "fusion_lon": 0.0, "is_reserved": 0, "name": "a97ae3fa64c4ce8f0fc4f10908380f4f"}, {"lon": -77.02152683333334, "lat": 38.9260415, "rental_uris": {"ios": "https://dc.lft.to/lastmile_qr_scan", "android": "https://dc.lft.to/lastmile_qr_scan"}, "bike_id": "85af1df3a0188599b01f2c8fdbc466b3", "type": "electric_scooter", "is_disabled": 0, "fusion_lat": 0.0, "fusion_lon": 0.0, "is_reserved": 0, "name": "85af1df3a0188599b01f2c8fdbc466b3"}, {"lon": -77.02692883333333, "lat": 38.898194, "rental_uris": {"ios": "https://dc.lft.to/lastmile_qr_scan", "android": "https://dc.lft.to/lastmile_qr_scan"}, "bike_id": "79b811bb1314d8846e4f712413d2fa5f", "type": "electric_scooter", "is_disabled": 0, "fusion_lat": 0.0, "fusion_lon": 0.0, "is_reserved": 0, "name": "79b811bb1314d8846e4f712413d2fa5f"}, {"lon": -77.01794133333334, "lat": 38.904521833333334, "rental_uris": {"ios": "https://dc.lft.to/lastmile_qr_scan", "android": "https://dc.lft.to/lastmile_qr_scan"}, "bike_id": "e2defdf6aa9d45c61a5a422ce5921f5e", "type": "electric_scooter", "is_disabled": 0, "fusion_lat": 0.0, "fusion_lon": 0.0, "is_reserved": 0, "name": "e2defdf6aa9d45c61a5a422ce5921f5e"}, {"lon": -77.0320545, "lat": 38.91793033333333, "rental_uris": {"ios": "https://dc.lft.to/lastmile_qr_scan", "android": "https://dc.lft.to/lastmile_qr_scan"}, "bike_id": "e3d5392c066b81995ae0a3df4d1420e5", "type": "electric_scooter", "is_disabled": 0, "fusion_lat": 0.0, "fusion_lon": 0.0, "is_reserved": 0, "name": "e3d5392c066b81995ae0a3df4d1420e5"}, {"lon": -77.064645, "lat": 38.927460333333336, "rental_uris": {"ios": "https://dc.lft.to/lastmile_qr_scan", "android": "https://dc.lft.to/lastmile_qr_scan"}, "bike_id": "571f199725d76497869279350babe24c", "type": "electric_scooter", "is_disabled": 0, "fusion_lat": 0.0, "fusion_lon": 0.0, "is_reserved": 0, "name": "571f199725d76497869279350babe24c"}, {"lon": -76.982306, "lat": 38.886472833333336, "rental_uris": {"ios": "https://dc.lft.to/lastmile_qr_scan", "android": "https://dc.lft.to/lastmile_qr_scan"}, "bike_id": "8f90e418e4cbea8dcc8c5092f92fa5ef", "type": "electric_scooter", "is_disabled": 0, "fusion_lat": 0.0, "fusion_lon": 0.0, "is_reserved": 0, "name": "8f90e418e4cbea8dcc8c5092f92fa5ef"}, {"lon": -76.97335083333333, "lat": 38.8655425, "rental_uris": {"ios": "https://dc.lft.to/lastmile_qr_scan", "android": "https://dc.lft.to/lastmile_qr_scan"}, "bike_id": "7102942769c78f0202eff021b5f2b731", "type": "electric_scooter", "is_disabled": 0, "fusion_lat": 0.0, "fusion_lon": 0.0, "is_reserved": 0, "name": "7102942769c78f0202eff021b5f2b731"}, {"lon": -77.06291683333333, "lat": 38.90438283333334, "rental_uris": {"ios": "https://dc.lft.to/lastmile_qr_scan", "android": "https://dc.lft.to/lastmile_qr_scan"}, "bike_id": "ffe97221f9cf294c39e1f85150f52c9b", "type": "electric_scooter", "is_disabled": 0, "fusion_lat": 0.0, "fusion_lon": 0.0, "is_reserved": 0, "name": "ffe97221f9cf294c39e1f85150f52c9b"}, {"lon": -77.031882, "lat": 38.91743733333333, "rental_uris": {"ios": "https://dc.lft.to/lastmile_qr_scan", "android": "https://dc.lft.to/lastmile_qr_scan"}, "bike_id": "edf18f20e46e8e23596620910925b62c", "type": "electric_scooter", "is_disabled": 0, "fusion_lat": 0.0, "fusion_lon": 0.0, "is_reserved": 0, "name": "edf18f20e46e8e23596620910925b62c"}, {"lon": -77.01224516666667, "lat": 38.871855, "rental_uris": {"ios": "https://dc.lft.to/lastmile_qr_scan", "android": "https://dc.lft.to/lastmile_qr_scan"}, "bike_id": "38237feef9d0078e9bbc3dca605150d5", "type": "electric_scooter", "is_disabled": 0, "fusion_lat": 0.0, "fusion_lon": 0.0, "is_reserved": 0, "name": "38237feef9d0078e9bbc3dca605150d5"}, {"lon": -77.03957233333334, "lat": 38.8924745, "rental_uris": {"ios": "https://dc.lft.to/lastmile_qr_scan", "android": "https://dc.lft.to/lastmile_qr_scan"}, "bike_id": "6676069c72ed9e03de58af62602ff1c1", "type": "electric_scooter", "is_disabled": 0, "fusion_lat": 0.0, "fusion_lon": 0.0, "is_reserved": 0, "name": "6676069c72ed9e03de58af62602ff1c1"}, {"lon": -77.0315305, "lat": 38.919274, "rental_uris": {"ios": "https://dc.lft.to/lastmile_qr_scan", "android": "https://dc.lft.to/lastmile_qr_scan"}, "bike_id": "acf5499a097198eaa597fc60528f3964", "type": "electric_scooter", "is_disabled": 0, "fusion_lat": 0.0, "fusion_lon": 0.0, "is_reserved": 0, "name": "acf5499a097198eaa597fc60528f3964"}, {"lon": -77.023089, "lat": 38.927037, "rental_uris": {"ios": "https://dc.lft.to/lastmile_qr_scan", "android": "https://dc.lft.to/lastmile_qr_scan"}, "bike_id": "3aa5aa28d847a2a29312d8ad979d1f30", "type": "electric_scooter", "is_disabled": 0, "fusion_lat": 0.0, "fusion_lon": 0.0, "is_reserved": 0, "name": "3aa5aa28d847a2a29312d8ad979d1f30"}, {"lon": -77.03869433333334, "lat": 38.92154216666667, "rental_uris": {"ios": "https://dc.lft.to/lastmile_qr_scan", "android": "https://dc.lft.to/lastmile_qr_scan"}, "bike_id": "948efdf88fadd4eae61eee2bc09a9bf8", "type": "electric_scooter", "is_disabled": 0, "fusion_lat": 0.0, "fusion_lon": 0.0, "is_reserved": 0, "name": "948efdf88fadd4eae61eee2bc09a9bf8"}, {"lon": -77.04355766666667, "lat": 38.920646833333336, "rental_uris": {"ios": "https://dc.lft.to/lastmile_qr_scan", "android": "https://dc.lft.to/lastmile_qr_scan"}, "bike_id": "1a2d087253272110e6c34f1fec2c6fcc", "type": "electric_scooter", "is_disabled": 0, "fusion_lat": 0.0, "fusion_lon": 0.0, "is_reserved": 0, "name": "1a2d087253272110e6c34f1fec2c6fcc"}, {"lon": -77.00060016666667, "lat": 38.876565, "rental_uris": {"ios": "https://dc.lft.to/lastmile_qr_scan", "android": "https://dc.lft.to/lastmile_qr_scan"}, "bike_id": "380a0e081737d573645eb9b9e6a70e54", "type": "electric_scooter", "is_disabled": 0, "fusion_lat": 0.0, "fusion_lon": 0.0, "is_reserved": 0, "name": "380a0e081737d573645eb9b9e6a70e54"}, {"lon": -76.98379883333334, "lat": 38.914952666666665, "rental_uris": {"ios": "https://dc.lft.to/lastmile_qr_scan", "android": "https://dc.lft.to/lastmile_qr_scan"}, "bike_id": "f7c94e1dc3a5a78cf6cacc8aafad40fc", "type": "electric_scooter", "is_disabled": 0, "fusion_lat": 0.0, "fusion_lon": 0.0, "is_reserved": 0, "name": "f7c94e1dc3a5a78cf6cacc8aafad40fc"}, {"lon": -77.03721683333333, "lat": 38.9169435, "rental_uris": {"ios": "https://dc.lft.to/lastmile_qr_scan", "android": "https://dc.lft.to/lastmile_qr_scan"}, "bike_id": "45bfbd82bafcb8a4761c7c6eaf144305", "type": "electric_scooter", "is_disabled": 0, "fusion_lat": 0.0, "fusion_lon": 0.0, "is_reserved": 0, "name": "45bfbd82bafcb8a4761c7c6eaf144305"}, {"lon": -77.0344065, "lat": 38.918080333333336, "rental_uris": {"ios": "https://dc.lft.to/lastmile_qr_scan", "android": "https://dc.lft.to/lastmile_qr_scan"}, "bike_id": "bcea483b30f5ac2d7c092199381f2cd1", "type": "electric_scooter", "is_disabled": 0, "fusion_lat": 0.0, "fusion_lon": 0.0, "is_reserved": 0, "name": "bcea483b30f5ac2d7c092199381f2cd1"}, {"lon": -77.03489883333333, "lat": 38.924818, "rental_uris": {"ios": "https://dc.lft.to/lastmile_qr_scan", "android": "https://dc.lft.to/lastmile_qr_scan"}, "bike_id": "9292c21c3466ae02bbbb9ba8771da1ae", "type": "electric_scooter", "is_disabled": 0, "fusion_lat": 0.0, "fusion_lon": 0.0, "is_reserved": 0, "name": "9292c21c3466ae02bbbb9ba8771da1ae"}, {"lon": -77.03666466666667, "lat": 38.930613, "rental_uris": {"ios": "https://dc.lft.to/lastmile_qr_scan", "android": "https://dc.lft.to/lastmile_qr_scan"}, "bike_id": "8454664d3a6a54b5eb3f5ba7247977fb", "type": "electric_scooter", "is_disabled": 0, "fusion_lat": 0.0, "fusion_lon": 0.0, "is_reserved": 0, "name": "8454664d3a6a54b5eb3f5ba7247977fb"}, {"lon": -77.01584583333333, "lat": 38.886138, "rental_uris": {"ios": "https://dc.lft.to/lastmile_qr_scan", "android": "https://dc.lft.to/lastmile_qr_scan"}, "bike_id": "4eb1945eb577c544e1d363f388fd7a6c", "type": "electric_scooter", "is_disabled": 0, "fusion_lat": 0.0, "fusion_lon": 0.0, "is_reserved": 0, "name": "4eb1945eb577c544e1d363f388fd7a6c"}, {"lon": -77.046899, "lat": 39.023961166666666, "rental_uris": {"ios": "https://dc.lft.to/lastmile_qr_scan", "android": "https://dc.lft.to/lastmile_qr_scan"}, "bike_id": "f4b5b5331a6cd2efdb29db94a37acc1e", "type": "electric_bike", "is_disabled": 0, "fusion_lat": 0.0, "fusion_lon": 0.0, "is_reserved": 0, "name": "f4b5b5331a6cd2efdb29db94a37acc1e"}, {"lon": -77.1116225, "lat": 38.85509783333333, "rental_uris": {"ios": "https://dc.lft.to/lastmile_qr_scan", "android": "https://dc.lft.to/lastmile_qr_scan"}, "bike_id": "293b5c6f29e98f35ed172fe980332e4f", "type": "electric_bike", "is_disabled": 0, "fusion_lat": 0.0, "fusion_lon": 0.0, "is_reserved": 0, "name": "293b5c6f29e98f35ed172fe980332e4f"}, {"lon": -77.18741083333333, "lat": 38.893535166666666, "rental_uris": {"ios": "https://dc.lft.to/lastmile_qr_scan", "android": "https://dc.lft.to/lastmile_qr_scan"}, "bike_id": "49fb835038f6316e2a00149d43cf1f35", "type": "electric_bike", "is_disabled": 0, "fusion_lat": 0.0, "fusion_lon": 0.0, "is_reserved": 0, "name": "49fb835038f6316e2a00149d43cf1f35"}, {"lon": -77.028622, "lat": 38.887514833333334, "rental_uris": {"ios": "https://dc.lft.to/lastmile_qr_scan", "android": "https://dc.lft.to/lastmile_qr_scan"}, "bike_id": "f2869cafd733143d776a47ef470b89df", "type": "electric_scooter", "is_disabled": 0, "fusion_lat": 0.0, "fusion_lon": 0.0, "is_reserved": 0, "name": "f2869cafd733143d776a47ef470b89df"}, {"lon": -77.05323783333333, "lat": 38.90451733333333, "rental_uris": {"ios": "https://dc.lft.to/lastmile_qr_scan", "android": "https://dc.lft.to/lastmile_qr_scan"}, "bike_id": "15505c9b2a4d1248844a09fcb330110a", "type": "electric_scooter", "is_disabled": 0, "fusion_lat": 0.0, "fusion_lon": 0.0, "is_reserved": 0, "name": "15505c9b2a4d1248844a09fcb330110a"}, {"lon": -77.04368433333333, "lat": 38.90585566666667, "rental_uris": {"ios": "https://dc.lft.to/lastmile_qr_scan", "android": "https://dc.lft.to/lastmile_qr_scan"}, "bike_id": "f6fb08cdc527af79913f312406a37a57", "type": "electric_scooter", "is_disabled": 0, "fusion_lat": 0.0, "fusion_lon": 0.0, "is_reserved": 0, "name": "f6fb08cdc527af79913f312406a37a57"}, {"lon": -77.00710933333333, "lat": 38.91702183333334, "rental_uris": {"ios": "https://dc.lft.to/lastmile_qr_scan", "android": "https://dc.lft.to/lastmile_qr_scan"}, "bike_id": "d01d64cc412b5410a4a79168b007b35e", "type": "electric_scooter", "is_disabled": 0, "fusion_lat": 0.0, "fusion_lon": 0.0, "is_reserved": 0, "name": "d01d64cc412b5410a4a79168b007b35e"}, {"lon": -77.0271615, "lat": 38.936972833333336, "rental_uris": {"ios": "https://dc.lft.to/lastmile_qr_scan", "android": "https://dc.lft.to/lastmile_qr_scan"}, "bike_id": "d312a173013adda5c234057af822622c", "type": "electric_scooter", "is_disabled": 0, "fusion_lat": 0.0, "fusion_lon": 0.0, "is_reserved": 0, "name": "d312a173013adda5c234057af822622c"}, {"lon": -77.0845775, "lat": 38.848196, "rental_uris": {"ios": "https://dc.lft.to/lastmile_qr_scan", "android": "https://dc.lft.to/lastmile_qr_scan"}, "bike_id": "b98fd10fa7fc35dde7f704f8d363d3ab", "type": "electric_bike", "is_disabled": 0, "fusion_lat": 0.0, "fusion_lon": 0.0, "is_reserved": 0, "name": "b98fd10fa7fc35dde7f704f8d363d3ab"}, {"lon": -77.028036, "lat": 38.932973, "rental_uris": {"ios": "https://dc.lft.to/lastmile_qr_scan", "android": "https://dc.lft.to/lastmile_qr_scan"}, "bike_id": "05d99970df6daaf943ffeec126e59f18", "type": "electric_scooter", "is_disabled": 0, "fusion_lat": 0.0, "fusion_lon": 0.0, "is_reserved": 0, "name": "05d99970df6daaf943ffeec126e59f18"}, {"lon": -77.01333716666667, "lat": 38.87926616666667, "rental_uris": {"ios": "https://dc.lft.to/lastmile_qr_scan", "android": "https://dc.lft.to/lastmile_qr_scan"}, "bike_id": "2052e8f614eca57fd244818fdd2b42e3", "type": "electric_scooter", "is_disabled": 0, "fusion_lat": 0.0, "fusion_lon": 0.0, "is_reserved": 0, "name": "2052e8f614eca57fd244818fdd2b42e3"}, {"lon": -77.030816, "lat": 38.9111125, "rental_uris": {"ios": "https://dc.lft.to/lastmile_qr_scan", "android": "https://dc.lft.to/lastmile_qr_scan"}, "bike_id": "f8f9025c6b22789dc4b597b005900a36", "type": "electric_scooter", "is_disabled": 0, "fusion_lat": 0.0, "fusion_lon": 0.0, "is_reserved": 0, "name": "f8f9025c6b22789dc4b597b005900a36"}, {"lon": -77.03499983333333, "lat": 38.917132333333335, "rental_uris": {"ios": "https://dc.lft.to/lastmile_qr_scan", "android": "https://dc.lft.to/lastmile_qr_scan"}, "bike_id": "00a6ebf16a3c023f78d3ad91b17aee48", "type": "electric_scooter", "is_disabled": 0, "fusion_lat": 0.0, "fusion_lon": 0.0, "is_reserved": 0, "name": "00a6ebf16a3c023f78d3ad91b17aee48"}, {"lon": -77.187374, "lat": 38.893544166666665, "rental_uris": {"ios": "https://dc.lft.to/lastmile_qr_scan", "android": "https://dc.lft.to/lastmile_qr_scan"}, "bike_id": "d1c1316c118ce9f985509c02d3b5e841", "type": "electric_bike", "is_disabled": 0, "fusion_lat": 0.0, "fusion_lon": 0.0, "is_reserved": 0, "name": "d1c1316c118ce9f985509c02d3b5e841"}, {"lon": -77.0437735, "lat": 38.892259333333335, "rental_uris": {"ios": "https://dc.lft.to/lastmile_qr_scan", "android": "https://dc.lft.to/lastmile_qr_scan"}, "bike_id": "188a77edc0db708501db3ed34b935cd0", "type": "electric_scooter", "is_disabled": 0, "fusion_lat": 0.0, "fusion_lon": 0.0, "is_reserved": 0, "name": "188a77edc0db708501db3ed34b935cd0"}, {"lon": -77.0227665, "lat": 38.916401666666665, "rental_uris": {"ios": "https://dc.lft.to/lastmile_qr_scan", "android": "https://dc.lft.to/lastmile_qr_scan"}, "bike_id": "c3f0f944ca7a86ddffc0b245c1d42955", "type": "electric_scooter", "is_disabled": 0, "fusion_lat": 0.0, "fusion_lon": 0.0, "is_reserved": 0, "name": "c3f0f944ca7a86ddffc0b245c1d42955"}, {"lon": -77.03407566666667, "lat": 38.92254783333333, "rental_uris": {"ios": "https://dc.lft.to/lastmile_qr_scan", "android": "https://dc.lft.to/lastmile_qr_scan"}, "bike_id": "6ca139f9dce536387855dbb909bad1d6", "type": "electric_scooter", "is_disabled": 0, "fusion_lat": 0.0, "fusion_lon": 0.0, "is_reserved": 0, "name": "6ca139f9dce536387855dbb909bad1d6"}, {"lon": -76.96906666666666, "lat": 38.84630933333333, "rental_uris": {"ios": "https://dc.lft.to/lastmile_qr_scan", "android": "https://dc.lft.to/lastmile_qr_scan"}, "bike_id": "bea587015921b04d0d914499aa28b79e", "type": "electric_bike", "is_disabled": 0, "fusion_lat": 0.0, "fusion_lon": 0.0, "is_reserved": 0, "name": "bea587015921b04d0d914499aa28b79e"}, {"lon": -76.99498416666667, "lat": 38.88011316666667, "rental_uris": {"ios": "https://dc.lft.to/lastmile_qr_scan", "android": "https://dc.lft.to/lastmile_qr_scan"}, "bike_id": "5ed1030d77683539e26f8496cfd3c0b3", "type": "electric_scooter", "is_disabled": 0, "fusion_lat": 0.0, "fusion_lon": 0.0, "is_reserved": 0, "name": "5ed1030d77683539e26f8496cfd3c0b3"}, {"lon": -77.03945866666666, "lat": 38.91263383333333, "rental_uris": {"ios": "https://dc.lft.to/lastmile_qr_scan", "android": "https://dc.lft.to/lastmile_qr_scan"}, "bike_id": "201fed658df079351918eafc21149d71", "type": "electric_scooter", "is_disabled": 0, "fusion_lat": 0.0, "fusion_lon": 0.0, "is_reserved": 0, "name": "201fed658df079351918eafc21149d71"}, {"lon": -76.99958533333333, "lat": 38.9164355, "rental_uris": {"ios": "https://dc.lft.to/lastmile_qr_scan", "android": "https://dc.lft.to/lastmile_qr_scan"}, "bike_id": "7f9f184e9e197b7c150b2bb5dbd77192", "type": "electric_scooter", "is_disabled": 0, "fusion_lat": 0.0, "fusion_lon": 0.0, "is_reserved": 0, "name": "7f9f184e9e197b7c150b2bb5dbd77192"}, {"lon": -76.93635816666666, "lat": 38.90063083333333, "rental_uris": {"ios": "https://dc.lft.to/lastmile_qr_scan", "android": "https://dc.lft.to/lastmile_qr_scan"}, "bike_id": "1cc61f510e563cc2a2085c74d2d75905", "type": "electric_scooter", "is_disabled": 0, "fusion_lat": 0.0, "fusion_lon": 0.0, "is_reserved": 0, "name": "1cc61f510e563cc2a2085c74d2d75905"}, {"lon": -77.0467345, "lat": 38.907361, "rental_uris": {"ios": "https://dc.lft.to/lastmile_qr_scan", "android": "https://dc.lft.to/lastmile_qr_scan"}, "bike_id": "77885de31436a6e8c1534f9e97a7bf0c", "type": "electric_scooter", "is_disabled": 0, "fusion_lat": 0.0, "fusion_lon": 0.0, "is_reserved": 0, "name": "77885de31436a6e8c1534f9e97a7bf0c"}, {"lon": -77.02321416666666, "lat": 38.90285766666667, "rental_uris": {"ios": "https://dc.lft.to/lastmile_qr_scan", "android": "https://dc.lft.to/lastmile_qr_scan"}, "bike_id": "a83ad4ee0ab2ecf5073e5dcd5d3e09bc", "type": "electric_scooter", "is_disabled": 0, "fusion_lat": 0.0, "fusion_lon": 0.0, "is_reserved": 0, "name": "a83ad4ee0ab2ecf5073e5dcd5d3e09bc"}, {"lon": -77.02656133333333, "lat": 38.97565183333333, "rental_uris": {"ios": "https://dc.lft.to/lastmile_qr_scan", "android": "https://dc.lft.to/lastmile_qr_scan"}, "bike_id": "446bd22e9eed1acdbc752d4521224683", "type": "electric_scooter", "is_disabled": 0, "fusion_lat": 0.0, "fusion_lon": 0.0, "is_reserved": 0, "name": "446bd22e9eed1acdbc752d4521224683"}, {"lon": -76.93011833333334, "lat": 38.89653416666667, "rental_uris": {"ios": "https://dc.lft.to/lastmile_qr_scan", "android": "https://dc.lft.to/lastmile_qr_scan"}, "bike_id": "b356fefd6b5d948998937c494be45485", "type": "electric_bike", "is_disabled": 0, "fusion_lat": 0.0, "fusion_lon": 0.0, "is_reserved": 0, "name": "b356fefd6b5d948998937c494be45485"}, {"lon": -77.03836166666666, "lat": 38.90431983333333, "rental_uris": {"ios": "https://dc.lft.to/lastmile_qr_scan", "android": "https://dc.lft.to/lastmile_qr_scan"}, "bike_id": "6c6e3f3844c8483a50b5d7e8f90697d5", "type": "electric_scooter", "is_disabled": 0, "fusion_lat": 0.0, "fusion_lon": 0.0, "is_reserved": 0, "name": "6c6e3f3844c8483a50b5d7e8f90697d5"}, {"lon": -77.00198966666666, "lat": 38.902391, "rental_uris": {"ios": "https://dc.lft.to/lastmile_qr_scan", "android": "https://dc.lft.to/lastmile_qr_scan"}, "bike_id": "685be08ab07e36bc41e8ea08df553ec9", "type": "electric_scooter", "is_disabled": 0, "fusion_lat": 0.0, "fusion_lon": 0.0, "is_reserved": 0, "name": "685be08ab07e36bc41e8ea08df553ec9"}, {"lon": -77.04206583333334, "lat": 38.9075525, "rental_uris": {"ios": "https://dc.lft.to/lastmile_qr_scan", "android": "https://dc.lft.to/lastmile_qr_scan"}, "bike_id": "55578cb6215c862ea165389226cf7692", "type": "electric_scooter", "is_disabled": 0, "fusion_lat": 0.0, "fusion_lon": 0.0, "is_reserved": 0, "name": "55578cb6215c862ea165389226cf7692"}, {"lon": -77.0350185, "lat": 38.907461, "rental_uris": {"ios": "https://dc.lft.to/lastmile_qr_scan", "android": "https://dc.lft.to/lastmile_qr_scan"}, "bike_id": "4d906ce66b70a471572f096885077daa", "type": "electric_scooter", "is_disabled": 0, "fusion_lat": 0.0, "fusion_lon": 0.0, "is_reserved": 0, "name": "4d906ce66b70a471572f096885077daa"}, {"lon": -77.038198, "lat": 38.920755666666665, "rental_uris": {"ios": "https://dc.lft.to/lastmile_qr_scan", "android": "https://dc.lft.to/lastmile_qr_scan"}, "bike_id": "949f4a8a934903466d2caed3f454c3e1", "type": "electric_scooter", "is_disabled": 0, "fusion_lat": 0.0, "fusion_lon": 0.0, "is_reserved": 0, "name": "949f4a8a934903466d2caed3f454c3e1"}, {"lon": -76.9493705, "lat": 38.89349583333333, "rental_uris": {"ios": "https://dc.lft.to/lastmile_qr_scan", "android": "https://dc.lft.to/lastmile_qr_scan"}, "bike_id": "ee475dcf4965a6715c7b7463ea5e973f", "type": "electric_scooter", "is_disabled": 0, "fusion_lat": 0.0, "fusion_lon": 0.0, "is_reserved": 0, "name": "ee475dcf4965a6715c7b7463ea5e973f"}, {"lon": -76.93363333333333, "lat": 38.899161166666666, "rental_uris": {"ios": "https://dc.lft.to/lastmile_qr_scan", "android": "https://dc.lft.to/lastmile_qr_scan"}, "bike_id": "bc3150780968426254934921998084d7", "type": "electric_scooter", "is_disabled": 0, "fusion_lat": 0.0, "fusion_lon": 0.0, "is_reserved": 0, "name": "bc3150780968426254934921998084d7"}, {"lon": -77.02161533333333, "lat": 38.92614583333334, "rental_uris": {"ios": "https://dc.lft.to/lastmile_qr_scan", "android": "https://dc.lft.to/lastmile_qr_scan"}, "bike_id": "dfdc31a194f4e8cb55942d03025b0e88", "type": "electric_scooter", "is_disabled": 0, "fusion_lat": 0.0, "fusion_lon": 0.0, "is_reserved": 0, "name": "dfdc31a194f4e8cb55942d03025b0e88"}, {"lon": -76.99603166666667, "lat": 38.892269666666664, "rental_uris": {"ios": "https://dc.lft.to/lastmile_qr_scan", "android": "https://dc.lft.to/lastmile_qr_scan"}, "bike_id": "06039acf5337bb70f59a155c753b3651", "type": "electric_scooter", "is_disabled": 0, "fusion_lat": 0.0, "fusion_lon": 0.0, "is_reserved": 0, "name": "06039acf5337bb70f59a155c753b3651"}, {"lon": -77.026922, "lat": 38.90941216666667, "rental_uris": {"ios": "https://dc.lft.to/lastmile_qr_scan", "android": "https://dc.lft.to/lastmile_qr_scan"}, "bike_id": "b002537e34f8fc15d3195a319688dc60", "type": "electric_scooter", "is_disabled": 0, "fusion_lat": 0.0, "fusion_lon": 0.0, "is_reserved": 0, "name": "b002537e34f8fc15d3195a319688dc60"}, {"lon": -77.04219716666667, "lat": 38.921764833333334, "rental_uris": {"ios": "https://dc.lft.to/lastmile_qr_scan", "android": "https://dc.lft.to/lastmile_qr_scan"}, "bike_id": "84babd3b8fa45006d5f751645f7cbe1e", "type": "electric_scooter", "is_disabled": 0, "fusion_lat": 0.0, "fusion_lon": 0.0, "is_reserved": 0, "name": "84babd3b8fa45006d5f751645f7cbe1e"}, {"lon": -77.02303516666667, "lat": 38.927178833333336, "rental_uris": {"ios": "https://dc.lft.to/lastmile_qr_scan", "android": "https://dc.lft.to/lastmile_qr_scan"}, "bike_id": "6808b00a2b7ee06faa285a9cda910c9c", "type": "electric_scooter", "is_disabled": 0, "fusion_lat": 0.0, "fusion_lon": 0.0, "is_reserved": 0, "name": "6808b00a2b7ee06faa285a9cda910c9c"}, {"lon": -77.03377983333333, "lat": 38.932279666666666, "rental_uris": {"ios": "https://dc.lft.to/lastmile_qr_scan", "android": "https://dc.lft.to/lastmile_qr_scan"}, "bike_id": "b38cfe92693d3cdf5bbde241158c21ed", "type": "electric_scooter", "is_disabled": 0, "fusion_lat": 0.0, "fusion_lon": 0.0, "is_reserved": 0, "name": "b38cfe92693d3cdf5bbde241158c21ed"}, {"lon": -76.99505616666667, "lat": 38.909796166666666, "rental_uris": {"ios": "https://dc.lft.to/lastmile_qr_scan", "android": "https://dc.lft.to/lastmile_qr_scan"}, "bike_id": "b5d784138879b8dec4504ac87ba3beab", "type": "electric_scooter", "is_disabled": 0, "fusion_lat": 0.0, "fusion_lon": 0.0, "is_reserved": 0, "name": "b5d784138879b8dec4504ac87ba3beab"}, {"lon": -77.043018, "lat": 38.905666, "rental_uris": {"ios": "https://dc.lft.to/lastmile_qr_scan", "android": "https://dc.lft.to/lastmile_qr_scan"}, "bike_id": "5198d5f8efc5177983104e4a49cfa6e1", "type": "electric_scooter", "is_disabled": 0, "fusion_lat": 0.0, "fusion_lon": 0.0, "is_reserved": 0, "name": "5198d5f8efc5177983104e4a49cfa6e1"}, {"lon": -77.03427616666667, "lat": 38.90805916666667, "rental_uris": {"ios": "https://dc.lft.to/lastmile_qr_scan", "android": "https://dc.lft.to/lastmile_qr_scan"}, "bike_id": "aebb8e5d4fb6b8ff0f8a5c9ab9d42c1d", "type": "electric_scooter", "is_disabled": 0, "fusion_lat": 0.0, "fusion_lon": 0.0, "is_reserved": 0, "name": "aebb8e5d4fb6b8ff0f8a5c9ab9d42c1d"}, {"lon": -77.04359183333334, "lat": 38.911203, "rental_uris": {"ios": "https://dc.lft.to/lastmile_qr_scan", "android": "https://dc.lft.to/lastmile_qr_scan"}, "bike_id": "61ba99dcf2152f5045a5da32bd47839b", "type": "electric_scooter", "is_disabled": 0, "fusion_lat": 0.0, "fusion_lon": 0.0, "is_reserved": 0, "name": "61ba99dcf2152f5045a5da32bd47839b"}, {"lon": -77.089385, "lat": 38.84108283333333, "rental_uris": {"ios": "https://dc.lft.to/lastmile_qr_scan", "android": "https://dc.lft.to/lastmile_qr_scan"}, "bike_id": "e79ed4d7d92be1dc9c85f7c9f8aa8fb4", "type": "electric_bike", "is_disabled": 0, "fusion_lat": 0.0, "fusion_lon": 0.0, "is_reserved": 0, "name": "e79ed4d7d92be1dc9c85f7c9f8aa8fb4"}, {"lon": -76.9836005, "lat": 38.91491533333333, "rental_uris": {"ios": "https://dc.lft.to/lastmile_qr_scan", "android": "https://dc.lft.to/lastmile_qr_scan"}, "bike_id": "455ad7ca054b259d8c85fe5e53208261", "type": "electric_scooter", "is_disabled": 0, "fusion_lat": 0.0, "fusion_lon": 0.0, "is_reserved": 0, "name": "455ad7ca054b259d8c85fe5e53208261"}, {"lon": -77.02547383333334, "lat": 38.92474033333333, "rental_uris": {"ios": "https://dc.lft.to/lastmile_qr_scan", "android": "https://dc.lft.to/lastmile_qr_scan"}, "bike_id": "d2a308d851d92fbe4acf0e6b0e6711fd", "type": "electric_scooter", "is_disabled": 0, "fusion_lat": 0.0, "fusion_lon": 0.0, "is_reserved": 0, "name": "d2a308d851d92fbe4acf0e6b0e6711fd"}, {"lon": -77.0316115, "lat": 38.936023, "rental_uris": {"ios": "https://dc.lft.to/lastmile_qr_scan", "android": "https://dc.lft.to/lastmile_qr_scan"}, "bike_id": "325b90bb1c9a66e1848e03bc9a2503ce", "type": "electric_scooter", "is_disabled": 0, "fusion_lat": 0.0, "fusion_lon": 0.0, "is_reserved": 0, "name": "325b90bb1c9a66e1848e03bc9a2503ce"}, {"lon": -77.06333133333334, "lat": 38.92097616666667, "rental_uris": {"ios": "https://dc.lft.to/lastmile_qr_scan", "android": "https://dc.lft.to/lastmile_qr_scan"}, "bike_id": "826a7d6e85920136bb76fb9ebbbba63a", "type": "electric_bike", "is_disabled": 0, "fusion_lat": 0.0, "fusion_lon": 0.0, "is_reserved": 0, "name": "826a7d6e85920136bb76fb9ebbbba63a"}, {"lon": -77.06277833333333, "lat": 38.905792166666664, "rental_uris": {"ios": "https://dc.lft.to/lastmile_qr_scan", "android": "https://dc.lft.to/lastmile_qr_scan"}, "bike_id": "2180ea69b86907bed900a2e8e8c62bcc", "type": "electric_scooter", "is_disabled": 0, "fusion_lat": 0.0, "fusion_lon": 0.0, "is_reserved": 0, "name": "2180ea69b86907bed900a2e8e8c62bcc"}, {"lon": -77.04201433333333, "lat": 38.9197615, "rental_uris": {"ios": "https://dc.lft.to/lastmile_qr_scan", "android": "https://dc.lft.to/lastmile_qr_scan"}, "bike_id": "2cbc5a65d331b24f2a030e1c4d965f9e", "type": "electric_scooter", "is_disabled": 0, "fusion_lat": 0.0, "fusion_lon": 0.0, "is_reserved": 0, "name": "2cbc5a65d331b24f2a030e1c4d965f9e"}, {"lon": -77.03189983333333, "lat": 38.90851133333334, "rental_uris": {"ios": "https://dc.lft.to/lastmile_qr_scan", "android": "https://dc.lft.to/lastmile_qr_scan"}, "bike_id": "c376aab76525ea4869ca88333cfad558", "type": "electric_scooter", "is_disabled": 0, "fusion_lat": 0.0, "fusion_lon": 0.0, "is_reserved": 0, "name": "c376aab76525ea4869ca88333cfad558"}, {"lon": -77.02549433333333, "lat": 38.9413835, "rental_uris": {"ios": "https://dc.lft.to/lastmile_qr_scan", "android": "https://dc.lft.to/lastmile_qr_scan"}, "bike_id": "2f023aabff914b83f2aed07f379ebfe5", "type": "electric_scooter", "is_disabled": 0, "fusion_lat": 0.0, "fusion_lon": 0.0, "is_reserved": 0, "name": "2f023aabff914b83f2aed07f379ebfe5"}, {"lon": -76.99936183333334, "lat": 38.843001666666666, "rental_uris": {"ios": "https://dc.lft.to/lastmile_qr_scan", "android": "https://dc.lft.to/lastmile_qr_scan"}, "bike_id": "7bb07bffd787ed6b4c98c431821ee0ae", "type": "electric_scooter", "is_disabled": 0, "fusion_lat": 0.0, "fusion_lon": 0.0, "is_reserved": 0, "name": "7bb07bffd787ed6b4c98c431821ee0ae"}, {"lon": -77.0033955, "lat": 38.895256, "rental_uris": {"ios": "https://dc.lft.to/lastmile_qr_scan", "android": "https://dc.lft.to/lastmile_qr_scan"}, "bike_id": "0f40a2d8a337875c8885a6fca974de20", "type": "electric_scooter", "is_disabled": 0, "fusion_lat": 0.0, "fusion_lon": 0.0, "is_reserved": 0, "name": "0f40a2d8a337875c8885a6fca974de20"}, {"lon": -76.94871416666666, "lat": 38.895486, "rental_uris": {"ios": "https://dc.lft.to/lastmile_qr_scan", "android": "https://dc.lft.to/lastmile_qr_scan"}, "bike_id": "b81465d9f0960cd2208c7729297e9f9a", "type": "electric_scooter", "is_disabled": 0, "fusion_lat": 0.0, "fusion_lon": 0.0, "is_reserved": 0, "name": "b81465d9f0960cd2208c7729297e9f9a"}, {"lon": -76.99377766666667, "lat": 38.97187233333333, "rental_uris": {"ios": "https://dc.lft.to/lastmile_qr_scan", "android": "https://dc.lft.to/lastmile_qr_scan"}, "bike_id": "3ac7491f6a1e4f6d9d5bf2ae29f86215", "type": "electric_bike", "is_disabled": 0, "fusion_lat": 0.0, "fusion_lon": 0.0, "is_reserved": 0, "name": "3ac7491f6a1e4f6d9d5bf2ae29f86215"}, {"lon": -77.04751316666666, "lat": 38.90547183333334, "rental_uris": {"ios": "https://dc.lft.to/lastmile_qr_scan", "android": "https://dc.lft.to/lastmile_qr_scan"}, "bike_id": "a1529a79f26354f7c240fb8e73ca18be", "type": "electric_scooter", "is_disabled": 0, "fusion_lat": 0.0, "fusion_lon": 0.0, "is_reserved": 0, "name": "a1529a79f26354f7c240fb8e73ca18be"}, {"lon": -76.99642066666667, "lat": 38.90029466666667, "rental_uris": {"ios": "https://dc.lft.to/lastmile_qr_scan", "android": "https://dc.lft.to/lastmile_qr_scan"}, "bike_id": "69009b84627918e2f6aa17461f1f3fbb", "type": "electric_scooter", "is_disabled": 0, "fusion_lat": 0.0, "fusion_lon": 0.0, "is_reserved": 0, "name": "69009b84627918e2f6aa17461f1f3fbb"}, {"lon": -77.057422, "lat": 38.933898, "rental_uris": {"ios": "https://dc.lft.to/lastmile_qr_scan", "android": "https://dc.lft.to/lastmile_qr_scan"}, "bike_id": "044c6a749f1002be1d2fb11ae3ee3bd8", "type": "electric_scooter", "is_disabled": 0, "fusion_lat": 0.0, "fusion_lon": 0.0, "is_reserved": 0, "name": "044c6a749f1002be1d2fb11ae3ee3bd8"}, {"lon": -77.010823, "lat": 38.9176865, "rental_uris": {"ios": "https://dc.lft.to/lastmile_qr_scan", "android": "https://dc.lft.to/lastmile_qr_scan"}, "bike_id": "4044a30218d2699be1328edcb0013808", "type": "electric_scooter", "is_disabled": 0, "fusion_lat": 0.0, "fusion_lon": 0.0, "is_reserved": 0, "name": "4044a30218d2699be1328edcb0013808"}, {"lon": -77.00198616666667, "lat": 38.88678616666667, "rental_uris": {"ios": "https://dc.lft.to/lastmile_qr_scan", "android": "https://dc.lft.to/lastmile_qr_scan"}, "bike_id": "bd09caf7331442732c715d5efe103b09", "type": "electric_scooter", "is_disabled": 0, "fusion_lat": 0.0, "fusion_lon": 0.0, "is_reserved": 0, "name": "bd09caf7331442732c715d5efe103b09"}, {"lon": -77.04659866666667, "lat": 38.91365533333333, "rental_uris": {"ios": "https://dc.lft.to/lastmile_qr_scan", "android": "https://dc.lft.to/lastmile_qr_scan"}, "bike_id": "bb926bd93719c4aa246f854ef67f0f3b", "type": "electric_scooter", "is_disabled": 0, "fusion_lat": 0.0, "fusion_lon": 0.0, "is_reserved": 0, "name": "bb926bd93719c4aa246f854ef67f0f3b"}, {"lon": -77.030248, "lat": 38.893628, "rental_uris": {"ios": "https://dc.lft.to/lastmile_qr_scan", "android": "https://dc.lft.to/lastmile_qr_scan"}, "bike_id": "32c8a9306dc4e1ebe6b128329f4251af", "type": "electric_scooter", "is_disabled": 0, "fusion_lat": 0.0, "fusion_lon": 0.0, "is_reserved": 0, "name": "32c8a9306dc4e1ebe6b128329f4251af"}, {"lon": -77.02212083333333, "lat": 38.920827333333335, "rental_uris": {"ios": "https://dc.lft.to/lastmile_qr_scan", "android": "https://dc.lft.to/lastmile_qr_scan"}, "bike_id": "529f73effe5cc9b991a15fc1d5fec2e8", "type": "electric_bike", "is_disabled": 0, "fusion_lat": 0.0, "fusion_lon": 0.0, "is_reserved": 0, "name": "529f73effe5cc9b991a15fc1d5fec2e8"}, {"lon": -76.99384883333333, "lat": 38.923752666666665, "rental_uris": {"ios": "https://dc.lft.to/lastmile_qr_scan", "android": "https://dc.lft.to/lastmile_qr_scan"}, "bike_id": "2ddea109580d8a45051fd46b4757d3fe", "type": "electric_scooter", "is_disabled": 0, "fusion_lat": 0.0, "fusion_lon": 0.0, "is_reserved": 0, "name": "2ddea109580d8a45051fd46b4757d3fe"}, {"lon": -77.0374765, "lat": 38.92207666666667, "rental_uris": {"ios": "https://dc.lft.to/lastmile_qr_scan", "android": "https://dc.lft.to/lastmile_qr_scan"}, "bike_id": "cc464890fa3155f898cd5e833e6edfc2", "type": "electric_scooter", "is_disabled": 0, "fusion_lat": 0.0, "fusion_lon": 0.0, "is_reserved": 0, "name": "cc464890fa3155f898cd5e833e6edfc2"}, {"lon": -76.98360833333334, "lat": 38.88746533333333, "rental_uris": {"ios": "https://dc.lft.to/lastmile_qr_scan", "android": "https://dc.lft.to/lastmile_qr_scan"}, "bike_id": "700d7288f43097034fbd2d60d7434c3f", "type": "electric_scooter", "is_disabled": 0, "fusion_lat": 0.0, "fusion_lon": 0.0, "is_reserved": 0, "name": "700d7288f43097034fbd2d60d7434c3f"}, {"lon": -76.98270066666667, "lat": 38.885304833333336, "rental_uris": {"ios": "https://dc.lft.to/lastmile_qr_scan", "android": "https://dc.lft.to/lastmile_qr_scan"}, "bike_id": "14f3d21857f53b813a10b80a56032a89", "type": "electric_scooter", "is_disabled": 0, "fusion_lat": 0.0, "fusion_lon": 0.0, "is_reserved": 0, "name": "14f3d21857f53b813a10b80a56032a89"}, {"lon": -77.05064383333334, "lat": 38.90041766666667, "rental_uris": {"ios": "https://dc.lft.to/lastmile_qr_scan", "android": "https://dc.lft.to/lastmile_qr_scan"}, "bike_id": "27e2d0e55cf88e22a1c0978c3aee0b5c", "type": "electric_scooter", "is_disabled": 0, "fusion_lat": 0.0, "fusion_lon": 0.0, "is_reserved": 0, "name": "27e2d0e55cf88e22a1c0978c3aee0b5c"}, {"lon": -77.05884666666667, "lat": 38.936372666666664, "rental_uris": {"ios": "https://dc.lft.to/lastmile_qr_scan", "android": "https://dc.lft.to/lastmile_qr_scan"}, "bike_id": "a6b20b18cc4c10204bfd499f9cd53608", "type": "electric_scooter", "is_disabled": 0, "fusion_lat": 0.0, "fusion_lon": 0.0, "is_reserved": 0, "name": "a6b20b18cc4c10204bfd499f9cd53608"}, {"lon": -76.99838716666666, "lat": 38.89080216666667, "rental_uris": {"ios": "https://dc.lft.to/lastmile_qr_scan", "android": "https://dc.lft.to/lastmile_qr_scan"}, "bike_id": "74a4aafd3aae06421756ebc1b0f50578", "type": "electric_scooter", "is_disabled": 0, "fusion_lat": 0.0, "fusion_lon": 0.0, "is_reserved": 0, "name": "74a4aafd3aae06421756ebc1b0f50578"}, {"lon": -76.98103116666667, "lat": 38.903952833333335, "rental_uris": {"ios": "https://dc.lft.to/lastmile_qr_scan", "android": "https://dc.lft.to/lastmile_qr_scan"}, "bike_id": "8fe44ae4997d7aab1ae3174f07ed7411", "type": "electric_scooter", "is_disabled": 0, "fusion_lat": 0.0, "fusion_lon": 0.0, "is_reserved": 0, "name": "8fe44ae4997d7aab1ae3174f07ed7411"}, {"lon": -77.025246, "lat": 38.93287733333333, "rental_uris": {"ios": "https://dc.lft.to/lastmile_qr_scan", "android": "https://dc.lft.to/lastmile_qr_scan"}, "bike_id": "a9121e6083b2ffc3b503044e3889d83f", "type": "electric_scooter", "is_disabled": 0, "fusion_lat": 0.0, "fusion_lon": 0.0, "is_reserved": 0, "name": "a9121e6083b2ffc3b503044e3889d83f"}, {"lon": -77.0253755, "lat": 38.92403683333333, "rental_uris": {"ios": "https://dc.lft.to/lastmile_qr_scan", "android": "https://dc.lft.to/lastmile_qr_scan"}, "bike_id": "a11fddda3a686c7ead466baded59f519", "type": "electric_scooter", "is_disabled": 0, "fusion_lat": 0.0, "fusion_lon": 0.0, "is_reserved": 0, "name": "a11fddda3a686c7ead466baded59f519"}, {"lon": -77.033201, "lat": 38.903614833333336, "rental_uris": {"ios": "https://dc.lft.to/lastmile_qr_scan", "android": "https://dc.lft.to/lastmile_qr_scan"}, "bike_id": "6b0d7b116d1d2ddcebf392492bc114e2", "type": "electric_scooter", "is_disabled": 0, "fusion_lat": 0.0, "fusion_lon": 0.0, "is_reserved": 0, "name": "6b0d7b116d1d2ddcebf392492bc114e2"}, {"lon": -76.9752895, "lat": 38.90327683333334, "rental_uris": {"ios": "https://dc.lft.to/lastmile_qr_scan", "android": "https://dc.lft.to/lastmile_qr_scan"}, "bike_id": "80ac5d54b44c4f0f496612d5ffea8144", "type": "electric_bike", "is_disabled": 0, "fusion_lat": 0.0, "fusion_lon": 0.0, "is_reserved": 0, "name": "80ac5d54b44c4f0f496612d5ffea8144"}, {"lon": -76.97389133333333, "lat": 38.874169, "rental_uris": {"ios": "https://dc.lft.to/lastmile_qr_scan", "android": "https://dc.lft.to/lastmile_qr_scan"}, "bike_id": "20700ec0e34e3f3f8c1dfd2d333828f4", "type": "electric_scooter", "is_disabled": 0, "fusion_lat": 0.0, "fusion_lon": 0.0, "is_reserved": 0, "name": "20700ec0e34e3f3f8c1dfd2d333828f4"}, {"lon": -76.99781666666667, "lat": 38.84431883333333, "rental_uris": {"ios": "https://dc.lft.to/lastmile_qr_scan", "android": "https://dc.lft.to/lastmile_qr_scan"}, "bike_id": "e88c076b43792e05256d4668c2d1fb0c", "type": "electric_scooter", "is_disabled": 0, "fusion_lat": 0.0, "fusion_lon": 0.0, "is_reserved": 0, "name": "e88c076b43792e05256d4668c2d1fb0c"}, {"lon": -77.02699483333333, "lat": 38.90841066666667, "rental_uris": {"ios": "https://dc.lft.to/lastmile_qr_scan", "android": "https://dc.lft.to/lastmile_qr_scan"}, "bike_id": "3782b8c675af7a3ad22d5cb9d42c7068", "type": "electric_scooter", "is_disabled": 0, "fusion_lat": 0.0, "fusion_lon": 0.0, "is_reserved": 0, "name": "3782b8c675af7a3ad22d5cb9d42c7068"}, {"lon": -77.0297145, "lat": 38.916850333333336, "rental_uris": {"ios": "https://dc.lft.to/lastmile_qr_scan", "android": "https://dc.lft.to/lastmile_qr_scan"}, "bike_id": "4518e5bc37d099a24ee83a6a5d84de17", "type": "electric_scooter", "is_disabled": 0, "fusion_lat": 0.0, "fusion_lon": 0.0, "is_reserved": 0, "name": "4518e5bc37d099a24ee83a6a5d84de17"}, {"lon": -77.01404416666666, "lat": 38.90579666666667, "rental_uris": {"ios": "https://dc.lft.to/lastmile_qr_scan", "android": "https://dc.lft.to/lastmile_qr_scan"}, "bike_id": "6d557982c28bfe56c24872e886f1e9dc", "type": "electric_scooter", "is_disabled": 0, "fusion_lat": 0.0, "fusion_lon": 0.0, "is_reserved": 0, "name": "6d557982c28bfe56c24872e886f1e9dc"}, {"lon": -77.0317405, "lat": 38.913306166666665, "rental_uris": {"ios": "https://dc.lft.to/lastmile_qr_scan", "android": "https://dc.lft.to/lastmile_qr_scan"}, "bike_id": "ad8c89e0232f9c93d5a9b5923b561ad2", "type": "electric_scooter", "is_disabled": 0, "fusion_lat": 0.0, "fusion_lon": 0.0, "is_reserved": 0, "name": "ad8c89e0232f9c93d5a9b5923b561ad2"}, {"lon": -77.044568, "lat": 38.908322, "rental_uris": {"ios": "https://dc.lft.to/lastmile_qr_scan", "android": "https://dc.lft.to/lastmile_qr_scan"}, "bike_id": "e9f8fe72c9eef5ddc02ae9d251f5c010", "type": "electric_scooter", "is_disabled": 0, "fusion_lat": 0.0, "fusion_lon": 0.0, "is_reserved": 0, "name": "e9f8fe72c9eef5ddc02ae9d251f5c010"}, {"lon": -77.02701733333333, "lat": 38.895907, "rental_uris": {"ios": "https://dc.lft.to/lastmile_qr_scan", "android": "https://dc.lft.to/lastmile_qr_scan"}, "bike_id": "fb956435294dfdc169bea6b3c2fa88d0", "type": "electric_scooter", "is_disabled": 0, "fusion_lat": 0.0, "fusion_lon": 0.0, "is_reserved": 0, "name": "fb956435294dfdc169bea6b3c2fa88d0"}, {"lon": -77.01747433333334, "lat": 38.87268133333333, "rental_uris": {"ios": "https://dc.lft.to/lastmile_qr_scan", "android": "https://dc.lft.to/lastmile_qr_scan"}, "bike_id": "2b976be7e8ac7d2e2b2ee530ee3b6993", "type": "electric_scooter", "is_disabled": 0, "fusion_lat": 0.0, "fusion_lon": 0.0, "is_reserved": 0, "name": "2b976be7e8ac7d2e2b2ee530ee3b6993"}, {"lon": -77.02973316666667, "lat": 38.910623, "rental_uris": {"ios": "https://dc.lft.to/lastmile_qr_scan", "android": "https://dc.lft.to/lastmile_qr_scan"}, "bike_id": "091a52305211de1eedd59f23615963fd", "type": "electric_scooter", "is_disabled": 0, "fusion_lat": 0.0, "fusion_lon": 0.0, "is_reserved": 0, "name": "091a52305211de1eedd59f23615963fd"}, {"lon": -77.01615016666666, "lat": 38.883274, "rental_uris": {"ios": "https://dc.lft.to/lastmile_qr_scan", "android": "https://dc.lft.to/lastmile_qr_scan"}, "bike_id": "daea1c63ca3c48a278cd17cdf070389e", "type": "electric_scooter", "is_disabled": 0, "fusion_lat": 0.0, "fusion_lon": 0.0, "is_reserved": 0, "name": "daea1c63ca3c48a278cd17cdf070389e"}, {"lon": -77.0433775, "lat": 38.904373166666666, "rental_uris": {"ios": "https://dc.lft.to/lastmile_qr_scan", "android": "https://dc.lft.to/lastmile_qr_scan"}, "bike_id": "74c18d76ed20cd6fb3fcf274d84b07bd", "type": "electric_scooter", "is_disabled": 0, "fusion_lat": 0.0, "fusion_lon": 0.0, "is_reserved": 0, "name": "74c18d76ed20cd6fb3fcf274d84b07bd"}, {"lon": -76.98141566666666, "lat": 38.90565683333333, "rental_uris": {"ios": "https://dc.lft.to/lastmile_qr_scan", "android": "https://dc.lft.to/lastmile_qr_scan"}, "bike_id": "0a4cb3c20bb4b3a3b286b11effdc55f3", "type": "electric_scooter", "is_disabled": 0, "fusion_lat": 0.0, "fusion_lon": 0.0, "is_reserved": 0, "name": "0a4cb3c20bb4b3a3b286b11effdc55f3"}, {"lon": -77.00714916666666, "lat": 38.87837183333333, "rental_uris": {"ios": "https://dc.lft.to/lastmile_qr_scan", "android": "https://dc.lft.to/lastmile_qr_scan"}, "bike_id": "18ea631ed7e9fe210aa39119a807997d", "type": "electric_scooter", "is_disabled": 0, "fusion_lat": 0.0, "fusion_lon": 0.0, "is_reserved": 0, "name": "18ea631ed7e9fe210aa39119a807997d"}, {"lon": -77.043602, "lat": 38.905804333333336, "rental_uris": {"ios": "https://dc.lft.to/lastmile_qr_scan", "android": "https://dc.lft.to/lastmile_qr_scan"}, "bike_id": "65f2e8afeeb28e90fe61a4f225d70e45", "type": "electric_scooter", "is_disabled": 0, "fusion_lat": 0.0, "fusion_lon": 0.0, "is_reserved": 0, "name": "65f2e8afeeb28e90fe61a4f225d70e45"}, {"lon": -77.04204466666667, "lat": 38.919647, "rental_uris": {"ios": "https://dc.lft.to/lastmile_qr_scan", "android": "https://dc.lft.to/lastmile_qr_scan"}, "bike_id": "a7b2492e484622f959bc851241d5e852", "type": "electric_scooter", "is_disabled": 0, "fusion_lat": 0.0, "fusion_lon": 0.0, "is_reserved": 0, "name": "a7b2492e484622f959bc851241d5e852"}, {"lon": -77.12224516666667, "lat": 38.852998166666666, "rental_uris": {"ios": "https://dc.lft.to/lastmile_qr_scan", "android": "https://dc.lft.to/lastmile_qr_scan"}, "bike_id": "21a07da14c560383bb4992a4b609597c", "type": "electric_bike", "is_disabled": 0, "fusion_lat": 0.0, "fusion_lon": 0.0, "is_reserved": 0, "name": "21a07da14c560383bb4992a4b609597c"}, {"lon": -77.04307883333334, "lat": 38.92333, "rental_uris": {"ios": "https://dc.lft.to/lastmile_qr_scan", "android": "https://dc.lft.to/lastmile_qr_scan"}, "bike_id": "c158aef1a52cff19fcc5e729c7f0a842", "type": "electric_scooter", "is_disabled": 0, "fusion_lat": 0.0, "fusion_lon": 0.0, "is_reserved": 0, "name": "c158aef1a52cff19fcc5e729c7f0a842"}, {"lon": -77.040263, "lat": 38.924511833333334, "rental_uris": {"ios": "https://dc.lft.to/lastmile_qr_scan", "android": "https://dc.lft.to/lastmile_qr_scan"}, "bike_id": "ce7f7c4b722968c382a179a557c5486a", "type": "electric_scooter", "is_disabled": 0, "fusion_lat": 0.0, "fusion_lon": 0.0, "is_reserved": 0, "name": "ce7f7c4b722968c382a179a557c5486a"}, {"lon": -77.06129766666666, "lat": 38.94083633333334, "rental_uris": {"ios": "https://dc.lft.to/lastmile_qr_scan", "android": "https://dc.lft.to/lastmile_qr_scan"}, "bike_id": "533b608f2e6c378100b8317a2771fc63", "type": "electric_scooter", "is_disabled": 0, "fusion_lat": 0.0, "fusion_lon": 0.0, "is_reserved": 0, "name": "533b608f2e6c378100b8317a2771fc63"}, {"lon": -76.99750266666666, "lat": 38.90854133333333, "rental_uris": {"ios": "https://dc.lft.to/lastmile_qr_scan", "android": "https://dc.lft.to/lastmile_qr_scan"}, "bike_id": "99ca7cf676389067e0fc1ba6fbcb5561", "type": "electric_scooter", "is_disabled": 0, "fusion_lat": 0.0, "fusion_lon": 0.0, "is_reserved": 0, "name": "99ca7cf676389067e0fc1ba6fbcb5561"}, {"lon": -77.0278685, "lat": 38.9268715, "rental_uris": {"ios": "https://dc.lft.to/lastmile_qr_scan", "android": "https://dc.lft.to/lastmile_qr_scan"}, "bike_id": "20331efe3195beab812260824a83875b", "type": "electric_scooter", "is_disabled": 0, "fusion_lat": 0.0, "fusion_lon": 0.0, "is_reserved": 0, "name": "20331efe3195beab812260824a83875b"}, {"lon": -77.02696833333333, "lat": 38.908427833333334, "rental_uris": {"ios": "https://dc.lft.to/lastmile_qr_scan", "android": "https://dc.lft.to/lastmile_qr_scan"}, "bike_id": "3b6141ade679cfaa51faf92bea9d7cbc", "type": "electric_scooter", "is_disabled": 0, "fusion_lat": 0.0, "fusion_lon": 0.0, "is_reserved": 0, "name": "3b6141ade679cfaa51faf92bea9d7cbc"}, {"lon": -77.03280166666667, "lat": 38.932065333333334, "rental_uris": {"ios": "https://dc.lft.to/lastmile_qr_scan", "android": "https://dc.lft.to/lastmile_qr_scan"}, "bike_id": "6a324165fedf25149a5c368d5f465bb1", "type": "electric_scooter", "is_disabled": 0, "fusion_lat": 0.0, "fusion_lon": 0.0, "is_reserved": 0, "name": "6a324165fedf25149a5c368d5f465bb1"}, {"lon": -77.05886416666667, "lat": 38.942510666666664, "rental_uris": {"ios": "https://dc.lft.to/lastmile_qr_scan", "android": "https://dc.lft.to/lastmile_qr_scan"}, "bike_id": "14c9f6c9b734d2fa0cbd3893f1444a62", "type": "electric_scooter", "is_disabled": 0, "fusion_lat": 0.0, "fusion_lon": 0.0, "is_reserved": 0, "name": "14c9f6c9b734d2fa0cbd3893f1444a62"}, {"lon": -77.073458, "lat": 38.911019333333336, "rental_uris": {"ios": "https://dc.lft.to/lastmile_qr_scan", "android": "https://dc.lft.to/lastmile_qr_scan"}, "bike_id": "9c7528bdd89319ab060f81112b22c1b0", "type": "electric_scooter", "is_disabled": 0, "fusion_lat": 0.0, "fusion_lon": 0.0, "is_reserved": 0, "name": "9c7528bdd89319ab060f81112b22c1b0"}, {"lon": -76.99262366666666, "lat": 38.89768566666667, "rental_uris": {"ios": "https://dc.lft.to/lastmile_qr_scan", "android": "https://dc.lft.to/lastmile_qr_scan"}, "bike_id": "e05983b96e9254b442b9b4c30d32e087", "type": "electric_scooter", "is_disabled": 0, "fusion_lat": 0.0, "fusion_lon": 0.0, "is_reserved": 0, "name": "e05983b96e9254b442b9b4c30d32e087"}, {"lon": -77.031689, "lat": 38.918168333333334, "rental_uris": {"ios": "https://dc.lft.to/lastmile_qr_scan", "android": "https://dc.lft.to/lastmile_qr_scan"}, "bike_id": "ee1c8351e746dce9854834f61ce6c7aa", "type": "electric_scooter", "is_disabled": 0, "fusion_lat": 0.0, "fusion_lon": 0.0, "is_reserved": 0, "name": "ee1c8351e746dce9854834f61ce6c7aa"}, {"lon": -77.00440066666667, "lat": 38.87757116666667, "rental_uris": {"ios": "https://dc.lft.to/lastmile_qr_scan", "android": "https://dc.lft.to/lastmile_qr_scan"}, "bike_id": "9948d9eda69158eb75d0b1ebd3956ee8", "type": "electric_scooter", "is_disabled": 0, "fusion_lat": 0.0, "fusion_lon": 0.0, "is_reserved": 0, "name": "9948d9eda69158eb75d0b1ebd3956ee8"}, {"lon": -76.97693766666667, "lat": 38.8989805, "rental_uris": {"ios": "https://dc.lft.to/lastmile_qr_scan", "android": "https://dc.lft.to/lastmile_qr_scan"}, "bike_id": "c8f62a5bcc38d20c8572cc9b16128371", "type": "electric_scooter", "is_disabled": 0, "fusion_lat": 0.0, "fusion_lon": 0.0, "is_reserved": 0, "name": "c8f62a5bcc38d20c8572cc9b16128371"}, {"lon": -77.02194033333333, "lat": 38.910809, "rental_uris": {"ios": "https://dc.lft.to/lastmile_qr_scan", "android": "https://dc.lft.to/lastmile_qr_scan"}, "bike_id": "a1d535470a21aa1b7d21cf8d138f527e", "type": "electric_bike", "is_disabled": 0, "fusion_lat": 0.0, "fusion_lon": 0.0, "is_reserved": 0, "name": "a1d535470a21aa1b7d21cf8d138f527e"}, {"lon": -77.033201, "lat": 38.91706666666666, "rental_uris": {"ios": "https://dc.lft.to/lastmile_qr_scan", "android": "https://dc.lft.to/lastmile_qr_scan"}, "bike_id": "e76f0b9f1a14085ee8790ca54ef21433", "type": "electric_scooter", "is_disabled": 0, "fusion_lat": 0.0, "fusion_lon": 0.0, "is_reserved": 0, "name": "e76f0b9f1a14085ee8790ca54ef21433"}, {"lon": -76.9903605, "lat": 38.865745833333335, "rental_uris": {"ios": "https://dc.lft.to/lastmile_qr_scan", "android": "https://dc.lft.to/lastmile_qr_scan"}, "bike_id": "7861b30bb670c07786c3b556f7bd7571", "type": "electric_bike", "is_disabled": 0, "fusion_lat": 0.0, "fusion_lon": 0.0, "is_reserved": 0, "name": "7861b30bb670c07786c3b556f7bd7571"}, {"lon": -77.04347016666667, "lat": 38.9024175, "rental_uris": {"ios": "https://dc.lft.to/lastmile_qr_scan", "android": "https://dc.lft.to/lastmile_qr_scan"}, "bike_id": "b4100f32e13bc357065ee8b59da45355", "type": "electric_scooter", "is_disabled": 0, "fusion_lat": 0.0, "fusion_lon": 0.0, "is_reserved": 0, "name": "b4100f32e13bc357065ee8b59da45355"}, {"lon": -77.04476366666667, "lat": 38.92138216666667, "rental_uris": {"ios": "https://dc.lft.to/lastmile_qr_scan", "android": "https://dc.lft.to/lastmile_qr_scan"}, "bike_id": "1c5f2f0aa9c2c2ac31e5dacd4e162dbe", "type": "electric_scooter", "is_disabled": 0, "fusion_lat": 0.0, "fusion_lon": 0.0, "is_reserved": 0, "name": "1c5f2f0aa9c2c2ac31e5dacd4e162dbe"}, {"lon": -77.00779033333333, "lat": 38.89738933333334, "rental_uris": {"ios": "https://dc.lft.to/lastmile_qr_scan", "android": "https://dc.lft.to/lastmile_qr_scan"}, "bike_id": "f446441358f06111ef7c12f7f16b0c13", "type": "electric_scooter", "is_disabled": 0, "fusion_lat": 0.0, "fusion_lon": 0.0, "is_reserved": 0, "name": "f446441358f06111ef7c12f7f16b0c13"}, {"lon": -77.03955566666667, "lat": 38.931501833333336, "rental_uris": {"ios": "https://dc.lft.to/lastmile_qr_scan", "android": "https://dc.lft.to/lastmile_qr_scan"}, "bike_id": "c59384ab8898c94cec9214ff58af8eea", "type": "electric_scooter", "is_disabled": 0, "fusion_lat": 0.0, "fusion_lon": 0.0, "is_reserved": 0, "name": "c59384ab8898c94cec9214ff58af8eea"}, {"lon": -77.02691916666667, "lat": 38.91133966666666, "rental_uris": {"ios": "https://dc.lft.to/lastmile_qr_scan", "android": "https://dc.lft.to/lastmile_qr_scan"}, "bike_id": "3e3798b543c771b7ce11191d6d0f330f", "type": "electric_scooter", "is_disabled": 0, "fusion_lat": 0.0, "fusion_lon": 0.0, "is_reserved": 0, "name": "3e3798b543c771b7ce11191d6d0f330f"}, {"lon": -77.04610083333333, "lat": 38.921861, "rental_uris": {"ios": "https://dc.lft.to/lastmile_qr_scan", "android": "https://dc.lft.to/lastmile_qr_scan"}, "bike_id": "8c1cd86bc8003d8d05160a027717b356", "type": "electric_scooter", "is_disabled": 0, "fusion_lat": 0.0, "fusion_lon": 0.0, "is_reserved": 0, "name": "8c1cd86bc8003d8d05160a027717b356"}, {"lon": -77.033063, "lat": 38.92878016666667, "rental_uris": {"ios": "https://dc.lft.to/lastmile_qr_scan", "android": "https://dc.lft.to/lastmile_qr_scan"}, "bike_id": "4670f334c4f9d53fa5a14f4e0563e49f", "type": "electric_scooter", "is_disabled": 0, "fusion_lat": 0.0, "fusion_lon": 0.0, "is_reserved": 0, "name": "4670f334c4f9d53fa5a14f4e0563e49f"}, {"lon": -77.01352416666667, "lat": 38.908606666666664, "rental_uris": {"ios": "https://dc.lft.to/lastmile_qr_scan", "android": "https://dc.lft.to/lastmile_qr_scan"}, "bike_id": "756026203183188ad4e0395253ecfeef", "type": "electric_scooter", "is_disabled": 0, "fusion_lat": 0.0, "fusion_lon": 0.0, "is_reserved": 0, "name": "756026203183188ad4e0395253ecfeef"}, {"lon": -76.94156816666667, "lat": 38.87911966666667, "rental_uris": {"ios": "https://dc.lft.to/lastmile_qr_scan", "android": "https://dc.lft.to/lastmile_qr_scan"}, "bike_id": "3407cc58eab0560fb50d7bd0ef0b6999", "type": "electric_scooter", "is_disabled": 0, "fusion_lat": 0.0, "fusion_lon": 0.0, "is_reserved": 0, "name": "3407cc58eab0560fb50d7bd0ef0b6999"}, {"lon": -77.0400345, "lat": 38.903242666666664, "rental_uris": {"ios": "https://dc.lft.to/lastmile_qr_scan", "android": "https://dc.lft.to/lastmile_qr_scan"}, "bike_id": "2f5ef8408e302715dc35d766301694f1", "type": "electric_scooter", "is_disabled": 0, "fusion_lat": 0.0, "fusion_lon": 0.0, "is_reserved": 0, "name": "2f5ef8408e302715dc35d766301694f1"}, {"lon": -77.00347066666667, "lat": 38.887058333333336, "rental_uris": {"ios": "https://dc.lft.to/lastmile_qr_scan", "android": "https://dc.lft.to/lastmile_qr_scan"}, "bike_id": "480cbb4eaae75011d04e1472ad2f76fa", "type": "electric_scooter", "is_disabled": 0, "fusion_lat": 0.0, "fusion_lon": 0.0, "is_reserved": 0, "name": "480cbb4eaae75011d04e1472ad2f76fa"}, {"lon": -76.987148, "lat": 38.86625816666667, "rental_uris": {"ios": "https://dc.lft.to/lastmile_qr_scan", "android": "https://dc.lft.to/lastmile_qr_scan"}, "bike_id": "ec6c608f4a86b0b60fcdc0e35f0541a7", "type": "electric_scooter", "is_disabled": 0, "fusion_lat": 0.0, "fusion_lon": 0.0, "is_reserved": 0, "name": "ec6c608f4a86b0b60fcdc0e35f0541a7"}, {"lon": -77.022412, "lat": 38.91273483333333, "rental_uris": {"ios": "https://dc.lft.to/lastmile_qr_scan", "android": "https://dc.lft.to/lastmile_qr_scan"}, "bike_id": "3b2cf5dd4112d3b5f81cd7e34fd5f2b5", "type": "electric_scooter", "is_disabled": 0, "fusion_lat": 0.0, "fusion_lon": 0.0, "is_reserved": 0, "name": "3b2cf5dd4112d3b5f81cd7e34fd5f2b5"}, {"lon": -77.04155333333334, "lat": 38.91858516666667, "rental_uris": {"ios": "https://dc.lft.to/lastmile_qr_scan", "android": "https://dc.lft.to/lastmile_qr_scan"}, "bike_id": "133460ffece3397895984a49f5c1f70b", "type": "electric_scooter", "is_disabled": 0, "fusion_lat": 0.0, "fusion_lon": 0.0, "is_reserved": 0, "name": "133460ffece3397895984a49f5c1f70b"}, {"lon": -76.989598, "lat": 38.857007333333335, "rental_uris": {"ios": "https://dc.lft.to/lastmile_qr_scan", "android": "https://dc.lft.to/lastmile_qr_scan"}, "bike_id": "436b4f8bf4a5798eb1170b29c33773ae", "type": "electric_scooter", "is_disabled": 0, "fusion_lat": 0.0, "fusion_lon": 0.0, "is_reserved": 0, "name": "436b4f8bf4a5798eb1170b29c33773ae"}, {"lon": -77.01969816666667, "lat": 38.878480333333336, "rental_uris": {"ios": "https://dc.lft.to/lastmile_qr_scan", "android": "https://dc.lft.to/lastmile_qr_scan"}, "bike_id": "a460f912b21069435b7e905632c21533", "type": "electric_scooter", "is_disabled": 0, "fusion_lat": 0.0, "fusion_lon": 0.0, "is_reserved": 0, "name": "a460f912b21069435b7e905632c21533"}, {"lon": -76.951839, "lat": 38.90740866666667, "rental_uris": {"ios": "https://dc.lft.to/lastmile_qr_scan", "android": "https://dc.lft.to/lastmile_qr_scan"}, "bike_id": "513979bad21998f2a184878f1b0ccb10", "type": "electric_scooter", "is_disabled": 0, "fusion_lat": 0.0, "fusion_lon": 0.0, "is_reserved": 0, "name": "513979bad21998f2a184878f1b0ccb10"}, {"lon": -76.99817083333333, "lat": 38.90019983333333, "rental_uris": {"ios": "https://dc.lft.to/lastmile_qr_scan", "android": "https://dc.lft.to/lastmile_qr_scan"}, "bike_id": "c9f188be05f3e329bf133c7a1a4714e2", "type": "electric_scooter", "is_disabled": 0, "fusion_lat": 0.0, "fusion_lon": 0.0, "is_reserved": 0, "name": "c9f188be05f3e329bf133c7a1a4714e2"}, {"lon": -77.04377666666667, "lat": 38.89224033333333, "rental_uris": {"ios": "https://dc.lft.to/lastmile_qr_scan", "android": "https://dc.lft.to/lastmile_qr_scan"}, "bike_id": "acb209e739faaf90c31504381c02a114", "type": "electric_scooter", "is_disabled": 0, "fusion_lat": 0.0, "fusion_lon": 0.0, "is_reserved": 0, "name": "acb209e739faaf90c31504381c02a114"}, {"lon": -77.02251516666666, "lat": 38.8939225, "rental_uris": {"ios": "https://dc.lft.to/lastmile_qr_scan", "android": "https://dc.lft.to/lastmile_qr_scan"}, "bike_id": "3e45b930ff1e019879c1772a6908e1e9", "type": "electric_scooter", "is_disabled": 0, "fusion_lat": 0.0, "fusion_lon": 0.0, "is_reserved": 0, "name": "3e45b930ff1e019879c1772a6908e1e9"}, {"lon": -76.983736, "lat": 38.90651233333333, "rental_uris": {"ios": "https://dc.lft.to/lastmile_qr_scan", "android": "https://dc.lft.to/lastmile_qr_scan"}, "bike_id": "04e0870cb924c89534a031f9d255b54d", "type": "electric_scooter", "is_disabled": 0, "fusion_lat": 0.0, "fusion_lon": 0.0, "is_reserved": 0, "name": "04e0870cb924c89534a031f9d255b54d"}, {"lon": -77.02696883333333, "lat": 38.9540545, "rental_uris": {"ios": "https://dc.lft.to/lastmile_qr_scan", "android": "https://dc.lft.to/lastmile_qr_scan"}, "bike_id": "6507581c26dfa610c4aae8778ff0997f", "type": "electric_scooter", "is_disabled": 0, "fusion_lat": 0.0, "fusion_lon": 0.0, "is_reserved": 0, "name": "6507581c26dfa610c4aae8778ff0997f"}, {"lon": -77.02689016666666, "lat": 38.89812633333333, "rental_uris": {"ios": "https://dc.lft.to/lastmile_qr_scan", "android": "https://dc.lft.to/lastmile_qr_scan"}, "bike_id": "df558d9bb41295b6b7b04db3164d139d", "type": "electric_scooter", "is_disabled": 0, "fusion_lat": 0.0, "fusion_lon": 0.0, "is_reserved": 0, "name": "df558d9bb41295b6b7b04db3164d139d"}, {"lon": -77.0507645, "lat": 38.89673416666667, "rental_uris": {"ios": "https://dc.lft.to/lastmile_qr_scan", "android": "https://dc.lft.to/lastmile_qr_scan"}, "bike_id": "8f441be59b49adc2eb813d0255b051b9", "type": "electric_scooter", "is_disabled": 0, "fusion_lat": 0.0, "fusion_lon": 0.0, "is_reserved": 0, "name": "8f441be59b49adc2eb813d0255b051b9"}, {"lon": -76.94632766666666, "lat": 38.89844316666667, "rental_uris": {"ios": "https://dc.lft.to/lastmile_qr_scan", "android": "https://dc.lft.to/lastmile_qr_scan"}, "bike_id": "b905e458f7a9f9dd54665a1dfcd4304c", "type": "electric_scooter", "is_disabled": 0, "fusion_lat": 0.0, "fusion_lon": 0.0, "is_reserved": 0, "name": "b905e458f7a9f9dd54665a1dfcd4304c"}, {"lon": -77.0224515, "lat": 38.9228875, "rental_uris": {"ios": "https://dc.lft.to/lastmile_qr_scan", "android": "https://dc.lft.to/lastmile_qr_scan"}, "bike_id": "f5e850fd58553ddba8b8365229c64438", "type": "electric_scooter", "is_disabled": 0, "fusion_lat": 0.0, "fusion_lon": 0.0, "is_reserved": 0, "name": "f5e850fd58553ddba8b8365229c64438"}, {"lon": -77.00728066666667, "lat": 38.884927, "rental_uris": {"ios": "https://dc.lft.to/lastmile_qr_scan", "android": "https://dc.lft.to/lastmile_qr_scan"}, "bike_id": "54371358fbc22dd5da0c08facbc80d6f", "type": "electric_scooter", "is_disabled": 0, "fusion_lat": 0.0, "fusion_lon": 0.0, "is_reserved": 0, "name": "54371358fbc22dd5da0c08facbc80d6f"},