{"data": {"bikes": [{"fusion_lon": 0.0, "bike_id": "b43ff03238c1e5bff6d32e5a0ee57683", "name": "b43ff03238c1e5bff6d32e5a0ee57683", "type": "electric_scooter", "lon": -77.04144033333333, "rental_uris": {"android": "https://dc.lft.to/lastmile_qr_scan", "ios": "https://dc.lft.to/lastmile_qr_scan"}, "lat": 38.90385766666667, "is_reserved": 0, "is_disabled": 0, "fusion_lat": 0.0}, {"fusion_lon": 0.0, "bike_id": "0c2307a0671cf4e14693e3a263dbf29b", "name": "0c2307a0671cf4e14693e3a263dbf29b", "type": "electric_scooter", "lon": -77.0248695, "rental_uris": {"android": "https://dc.lft.to/lastmile_qr_scan", "ios": "https://dc.lft.to/lastmile_qr_scan"}, "lat": 38.9161045, "is_reserved": 0, "is_disabled": 0, "fusion_lat": 0.0}, {"fusion_lon": 0.0, "bike_id": "b822b266d6dd8939ba51ec792f9313a4", "name": "b822b266d6dd8939ba51ec792f9313a4", "type": "electric_scooter", "lon": -77.03469833333334, "rental_uris": {"android": "https://dc.lft.to/lastmile_qr_scan", "ios": "https://dc.lft.to/lastmile_qr_scan"}, "lat": 38.902662166666666, "is_reserved": 0, "is_disabled": 0, "fusion_lat": 0.0}, {"fusion_lon": 0.0, "bike_id": "32b3c9b883d494c253b6f43d67940d6b", "name": "32b3c9b883d494c253b6f43d67940d6b", "type": "electric_scooter", "lon": -77.008628, "rental_uris": {"android": "https://dc.lft.to/lastmile_qr_scan", "ios": "https://dc.lft.to/lastmile_qr_scan"}, "lat": 38.90660833333333, "is_reserved": 0, "is_disabled": 0, "fusion_lat": 0.0}, {"fusion_lon": 0.0, "bike_id": "70ac4694a523ca97fb57fa2cc8dcbadc", "name": "70ac4694a523ca97fb57fa2cc8dcbadc", "type": "electric_bike", "lon": -76.9732965, "rental_uris": {"android": "https://dc.lft.to/lastmile_qr_scan", "ios": "https://dc.lft.to/lastmile_qr_scan"}, "lat": 38.85064916666666, "is_reserved": 0, "is_disabled": 0, "fusion_lat": 0.0}, {"fusion_lon": 0.0, "bike_id": "4aa58866130349c61c4cdf58e40fa59d", "name": "4aa58866130349c61c4cdf58e40fa59d", "type": "electric_scooter", "lon": -77.04118866666667, "rental_uris": {"android": "https://dc.lft.to/lastmile_qr_scan", "ios": "https://dc.lft.to/lastmile_qr_scan"}, "lat": 38.923420666666665, "is_reserved": 0, "is_disabled": 0, "fusion_lat": 0.0}, {"fusion_lon": 0.0, "bike_id": "dce95cd4c77e910c9c4f3d2770014970", "name": "dce95cd4c77e910c9c4f3d2770014970", "type": "electric_scooter", "lon": -77.05094966666667, "rental_uris": {"android": "https://dc.lft.to/lastmile_qr_scan", "ios": "https://dc.lft.to/lastmile_qr_scan"}, "lat": 38.923437, "is_reserved": 0, "is_disabled": 0, "fusion_lat": 0.0}, {"fusion_lon": 0.0, "bike_id": "e51d342c68629dd8486cdf11c20bc0ac", "name": "e51d342c68629dd8486cdf11c20bc0ac", "type": "electric_scooter", "lon": -77.04025216666666, "rental_uris": {"android": "https://dc.lft.to/lastmile_qr_scan", "ios": "https://dc.lft.to/lastmile_qr_scan"}, "lat": 38.92189183333333, "is_reserved": 0, "is_disabled": 0, "fusion_lat": 0.0}, {"fusion_lon": 0.0, "bike_id": "07ff6890a9219a95d0658994bfbf8a53", "name": "07ff6890a9219a95d0658994bfbf8a53", "type": "electric_scooter", "lon": -77.01400416666667, "rental_uris": {"android": "https://dc.lft.to/lastmile_qr_scan", "ios": "https://dc.lft.to/lastmile_qr_scan"}, "lat": 38.92849283333334, "is_reserved": 0, "is_disabled": 0, "fusion_lat": 0.0}, {"fusion_lon": 0.0, "bike_id": "54c4b4cfe891a528d4fa09ee68f069ee", "name": "54c4b4cfe891a528d4fa09ee68f069ee", "type": "electric_scooter", "lon": -77.027088, "rental_uris": {"android": "https://dc.lft.to/lastmile_qr_scan", "ios": "https://dc.lft.to/lastmile_qr_scan"}, "lat": 38.904957333333336, "is_reserved": 0, "is_disabled": 0, "fusion_lat": 0.0}, {"fusion_lon": 0.0, "bike_id": "0f6e5b9b5abc9695c609bd383787df2b", "name": "0f6e5b9b5abc9695c609bd383787df2b", "type": "electric_bike", "lon": -77.12691266666667, "rental_uris": {"android": "https://dc.lft.to/lastmile_qr_scan", "ios": "https://dc.lft.to/lastmile_qr_scan"}, "lat": 38.89560733333333, "is_reserved": 0, "is_disabled": 0, "fusion_lat": 0.0}, {"fusion_lon": 0.0, "bike_id": "2d2db1503a477f7da90983bb743f8f45", "name": "2d2db1503a477f7da90983bb743f8f45", "type": "electric_scooter", "lon": -77.04870883333334, "rental_uris": {"android": "https://dc.lft.to/lastmile_qr_scan", "ios": "https://dc.lft.to/lastmile_qr_scan"}, "lat": 38.90978583333333, "is_reserved": 0, "is_disabled": 0, "fusion_lat": 0.0}, {"fusion_lon": 0.0, "bike_id": "f136b29111dab9e2dbcd18593a600412", "name": "f136b29111dab9e2dbcd18593a600412", "type": "electric_scooter", "lon": -77.00202266666666, "rental_uris": {"android": "https://dc.lft.to/lastmile_qr_scan", "ios": "https://dc.lft.to/lastmile_qr_scan"}, "lat": 38.90230916666667, "is_reserved": 0, "is_disabled": 0, "fusion_lat": 0.0}, {"fusion_lon": 0.0, "bike_id": "3061fe71d46addd24d0837ca1a3e7486", "name": "3061fe71d46addd24d0837ca1a3e7486", "type": "electric_scooter", "lon": -77.03257433333333, "rental_uris": {"android": "https://dc.lft.to/lastmile_qr_scan", "ios": "https://dc.lft.to/lastmile_qr_scan"}, "lat": 38.928955333333334, "is_reserved": 0, "is_disabled": 0, "fusion_lat": 0.0}, {"fusion_lon": 0.0, "bike_id": "b720a0bd8fdeea640ee99204d7f9f96c", "name": "b720a0bd8fdeea640ee99204d7f9f96c", "type": "electric_scooter", "lon": -77.04494483333333, "rental_uris": {"android": "https://dc.lft.to/lastmile_qr_scan", "ios": "https://dc.lft.to/lastmile_qr_scan"}, "lat": 38.913658833333336, "is_reserved": 0, "is_disabled": 0, "fusion_lat": 0.0}, {"fusion_lon": 0.0, "bike_id": "c1a83f337a4fc27afe45dc2b9fa0e1c6", "name": "c1a83f337a4fc27afe45dc2b9fa0e1c6", "type": "electric_bike", "lon": -77.0617405, "rental_uris": {"android": "https://dc.lft.to/lastmile_qr_scan", "ios": "https://dc.lft.to/lastmile_qr_scan"}, "lat": 38.81271066666667, "is_reserved": 0, "is_disabled": 0, "fusion_lat": 0.0}, {"fusion_lon": 0.0, "bike_id": "8279a26b5726a439f9efe0af712c498a", "name": "8279a26b5726a439f9efe0af712c498a", "type": "electric_scooter", "lon": -77.02404433333334, "rental_uris": {"android": "https://dc.lft.to/lastmile_qr_scan", "ios": "https://dc.lft.to/lastmile_qr_scan"}, "lat": 38.916826666666665, "is_reserved": 0, "is_disabled": 0, "fusion_lat": 0.0}, {"fusion_lon": 0.0, "bike_id": "7ba226883e2665301d38163f8c127472", "name": "7ba226883e2665301d38163f8c127472", "type": "electric_scooter", "lon": -77.03396116666667, "rental_uris": {"android": "https://dc.lft.to/lastmile_qr_scan", "ios": "https://dc.lft.to/lastmile_qr_scan"}, "lat": 38.9196745, "is_reserved": 0, "is_disabled": 0, "fusion_lat": 0.0}, {"fusion_lon": 0.0, "bike_id": "93eda6ccd47c283cf9db4afe5eabf9fe", "name": "93eda6ccd47c283cf9db4afe5eabf9fe", "type": "electric_scooter", "lon": -77.00705583333334, "rental_uris": {"android": "https://dc.lft.to/lastmile_qr_scan", "ios": "https://dc.lft.to/lastmile_qr_scan"}, "lat": 38.905627, "is_reserved": 0, "is_disabled": 0, "fusion_lat": 0.0}, {"fusion_lon": 0.0, "bike_id": "6d210f509ec79f7b7424c43e509e79c3", "name": "6d210f509ec79f7b7424c43e509e79c3", "type": "electric_bike", "lon": -76.944749, "rental_uris": {"android": "https://dc.lft.to/lastmile_qr_scan", "ios": "https://dc.lft.to/lastmile_qr_scan"}, "lat": 38.94559733333333, "is_reserved": 0, "is_disabled": 0, "fusion_lat": 0.0}, {"fusion_lon": 0.0, "bike_id": "76a353d0ecfdfedac150f86f812f988b", "name": "76a353d0ecfdfedac150f86f812f988b", "type": "electric_scooter", "lon": -77.0101065, "rental_uris": {"android": "https://dc.lft.to/lastmile_qr_scan", "ios": "https://dc.lft.to/lastmile_qr_scan"}, "lat": 38.879674333333334, "is_reserved": 0, "is_disabled": 0, "fusion_lat": 0.0}, {"fusion_lon": 0.0, "bike_id": "cdbd5d773693357025b00a6d063111d2", "name": "cdbd5d773693357025b00a6d063111d2", "type": "electric_scooter", "lon": -77.03022866666667, "rental_uris": {"android": "https://dc.lft.to/lastmile_qr_scan", "ios": "https://dc.lft.to/lastmile_qr_scan"}, "lat": 38.897237833333335, "is_reserved": 0, "is_disabled": 0, "fusion_lat": 0.0}, {"fusion_lon": 0.0, "bike_id": "3868f8ea6d3075655b83a2904acaf91a", "name": "3868f8ea6d3075655b83a2904acaf91a", "type": "electric_scooter", "lon": -77.07250883333333, "rental_uris": {"android": "https://dc.lft.to/lastmile_qr_scan", "ios": "https://dc.lft.to/lastmile_qr_scan"}, "lat": 38.93953, "is_reserved": 0, "is_disabled": 0, "fusion_lat": 0.0}, {"fusion_lon": 0.0, "bike_id": "dc6dbbc34d30eca798f0a9427360484c", "name": "dc6dbbc34d30eca798f0a9427360484c", "type": "electric_scooter", "lon": -77.02954083333333, "rental_uris": {"android": "https://dc.lft.to/lastmile_qr_scan", "ios": "https://dc.lft.to/lastmile_qr_scan"}, "lat": 38.8981645, "is_reserved": 0, "is_disabled": 0, "fusion_lat": 0.0}, {"fusion_lon": 0.0, "bike_id": "9a399f1ed2367f68a8171f574b303dc6", "name": "9a399f1ed2367f68a8171f574b303dc6", "type": "electric_bike", "lon": -77.079087, "rental_uris": {"android": "https://dc.lft.to/lastmile_qr_scan", "ios": "https://dc.lft.to/lastmile_qr_scan"}, "lat": 38.8393975, "is_reserved": 0, "is_disabled": 0, "fusion_lat": 0.0}, {"fusion_lon": 0.0, "bike_id": "7013cdb101533538050b9914be5b19ff", "name": "7013cdb101533538050b9914be5b19ff", "type": "electric_scooter", "lon": -77.0149605, "rental_uris": {"android": "https://dc.lft.to/lastmile_qr_scan", "ios": "https://dc.lft.to/lastmile_qr_scan"}, "lat": 38.956498333333336, "is_reserved": 0, "is_disabled": 0, "fusion_lat": 0.0}, {"fusion_lon": 0.0, "bike_id": "e2cd87a8a0741b919fe7f9f3a1cb0427", "name": "e2cd87a8a0741b919fe7f9f3a1cb0427", "type": "electric_scooter", "lon": -77.04166816666667, "rental_uris": {"android": "https://dc.lft.to/lastmile_qr_scan", "ios": "https://dc.lft.to/lastmile_qr_scan"}, "lat": 38.91913066666667, "is_reserved": 0, "is_disabled": 0, "fusion_lat": 0.0}, {"fusion_lon": 0.0, "bike_id": "f44586b661a2bd479fecaf8161394b8d", "name": "f44586b661a2bd479fecaf8161394b8d", "type": "electric_scooter", "lon": -77.03101766666667, "rental_uris": {"android": "https://dc.lft.to/lastmile_qr_scan", "ios": "https://dc.lft.to/lastmile_qr_scan"}, "lat": 38.925724333333335, "is_reserved": 0, "is_disabled": 0, "fusion_lat": 0.0}, {"fusion_lon": 0.0, "bike_id": "bb33eea3efe2d976d8f75890f55a717b", "name": "bb33eea3efe2d976d8f75890f55a717b", "type": "electric_scooter", "lon": -77.0243455, "rental_uris": {"android": "https://dc.lft.to/lastmile_qr_scan", "ios": "https://dc.lft.to/lastmile_qr_scan"}, "lat": 38.937120666666665, "is_reserved": 0, "is_disabled": 0, "fusion_lat": 0.0}, {"fusion_lon": 0.0, "bike_id": "7902b8e31d8a9d4ab2cf6f1588e86cfa", "name": "7902b8e31d8a9d4ab2cf6f1588e86cfa", "type": "electric_scooter", "lon": -77.05058683333333, "rental_uris": {"android": "https://dc.lft.to/lastmile_qr_scan", "ios": "https://dc.lft.to/lastmile_qr_scan"}, "lat": 38.9007575, "is_reserved": 0, "is_disabled": 0, "fusion_lat": 0.0}, {"fusion_lon": 0.0, "bike_id": "86f26086bfe23293d75120322cb54299", "name": "86f26086bfe23293d75120322cb54299", "type": "electric_scooter", "lon": -77.03435783333333, "rental_uris": {"android": "https://dc.lft.to/lastmile_qr_scan", "ios": "https://dc.lft.to/lastmile_qr_scan"}, "lat": 38.909773, "is_reserved": 0, "is_disabled": 0, "fusion_lat": 0.0}, {"fusion_lon": 0.0, "bike_id": "5dcfd0b1c131c3f3545b3a2b5f026539", "name": "5dcfd0b1c131c3f3545b3a2b5f026539", "type": "electric_scooter", "lon": -76.9866575, "rental_uris": {"android": "https://dc.lft.to/lastmile_qr_scan", "ios": "https://dc.lft.to/lastmile_qr_scan"}, "lat": 38.901482, "is_reserved": 0, "is_disabled": 0, "fusion_lat": 0.0}, {"fusion_lon": 0.0, "bike_id": "63604f49f26c40b087768b53e36bae86", "name": "63604f49f26c40b087768b53e36bae86", "type": "electric_scooter", "lon": -77.00073683333333, "rental_uris": {"android": "https://dc.lft.to/lastmile_qr_scan", "ios": "https://dc.lft.to/lastmile_qr_scan"}, "lat": 38.90141216666667, "is_reserved": 0, "is_disabled": 0, "fusion_lat": 0.0}, {"fusion_lon": 0.0, "bike_id": "5e5a752d8346358d0e1646be10d71761", "name": "5e5a752d8346358d0e1646be10d71761", "type": "electric_scooter", "lon": -77.03361633333333, "rental_uris": {"android": "https://dc.lft.to/lastmile_qr_scan", "ios": "https://dc.lft.to/lastmile_qr_scan"}, "lat": 38.917123333333336, "is_reserved": 0, "is_disabled": 0, "fusion_lat": 0.0}, {"fusion_lon": 0.0, "bike_id": "8bc9bbfffd03554bd270f4aaf438d9d5", "name": "8bc9bbfffd03554bd270f4aaf438d9d5", "type": "electric_scooter", "lon": -76.97909166666666, "rental_uris": {"android": "https://dc.lft.to/lastmile_qr_scan", "ios": "https://dc.lft.to/lastmile_qr_scan"}, "lat": 38.894364333333336, "is_reserved": 0, "is_disabled": 0, "fusion_lat": 0.0}, {"fusion_lon": 0.0, "bike_id": "3d57717cfbe664bb518f60ea0079d5c0", "name": "3d57717cfbe664bb518f60ea0079d5c0", "type": "electric_bike", "lon": -77.106837, "rental_uris": {"android": "https://dc.lft.to/lastmile_qr_scan", "ios": "https://dc.lft.to/lastmile_qr_scan"}, "lat": 38.93581783333333, "is_reserved": 0, "is_disabled": 0, "fusion_lat": 0.0}, {"fusion_lon": 0.0, "bike_id": "335dc8f55fd3af8e39f5ecd305f779a7", "name": "335dc8f55fd3af8e39f5ecd305f779a7", "type": "electric_scooter", "lon": -77.029409, "rental_uris": {"android": "https://dc.lft.to/lastmile_qr_scan", "ios": "https://dc.lft.to/lastmile_qr_scan"}, "lat": 38.896109833333334, "is_reserved": 0, "is_disabled": 0, "fusion_lat": 0.0}, {"fusion_lon": 0.0, "bike_id": "c7688e56e96ccbd49f02029d3e798ab5", "name": "c7688e56e96ccbd49f02029d3e798ab5", "type": "electric_bike", "lon": -76.987613, "rental_uris": {"android": "https://dc.lft.to/lastmile_qr_scan", "ios": "https://dc.lft.to/lastmile_qr_scan"}, "lat": 38.857851333333336, "is_reserved": 0, "is_disabled": 0, "fusion_lat": 0.0}, {"fusion_lon": 0.0, "bike_id": "1f7dd70453bdcb201187bdec2b0aa45d", "name": "1f7dd70453bdcb201187bdec2b0aa45d", "type": "electric_scooter", "lon": -77.01878266666667, "rental_uris": {"android": "https://dc.lft.to/lastmile_qr_scan", "ios": "https://dc.lft.to/lastmile_qr_scan"}, "lat": 38.91416666666667, "is_reserved": 0, "is_disabled": 0, "fusion_lat": 0.0}, {"fusion_lon": 0.0, "bike_id": "ff74813126b38508f54dc982e001d2ce", "name": "ff74813126b38508f54dc982e001d2ce", "type": "electric_scooter", "lon": -77.0139915, "rental_uris": {"android": "https://dc.lft.to/lastmile_qr_scan", "ios": "https://dc.lft.to/lastmile_qr_scan"}, "lat": 38.88033016666667, "is_reserved": 0, "is_disabled": 0, "fusion_lat": 0.0}, {"fusion_lon": 0.0, "bike_id": "82fc2d7436a2a97dd8cd5716a11ae5a8", "name": "82fc2d7436a2a97dd8cd5716a11ae5a8", "type": "electric_bike", "lon": -76.93541416666666, "rental_uris": {"android": "https://dc.lft.to/lastmile_qr_scan", "ios": "https://dc.lft.to/lastmile_qr_scan"}, "lat": 38.95547766666667, "is_reserved": 0, "is_disabled": 0, "fusion_lat": 0.0}, {"fusion_lon": 0.0, "bike_id": "02399a60b635060399cb07416c37c74e", "name": "02399a60b635060399cb07416c37c74e", "type": "electric_bike", "lon": -77.12256183333334, "rental_uris": {"android": "https://dc.lft.to/lastmile_qr_scan", "ios": "https://dc.lft.to/lastmile_qr_scan"}, "lat": 38.88768366666667, "is_reserved": 0, "is_disabled": 0, "fusion_lat": 0.0}, {"fusion_lon": 0.0, "bike_id": "95ceff3aa793c503e8449624ccd058f4", "name": "95ceff3aa793c503e8449624ccd058f4", "type": "electric_scooter", "lon": -77.03221233333333, "rental_uris": {"android": "https://dc.lft.to/lastmile_qr_scan", "ios": "https://dc.lft.to/lastmile_qr_scan"}, "lat": 38.892210166666665, "is_reserved": 0, "is_disabled": 0, "fusion_lat": 0.0}, {"fusion_lon": 0.0, "bike_id": "a983abd4173dc3cba9c2dd8fd1645227", "name": "a983abd4173dc3cba9c2dd8fd1645227", "type": "electric_bike", "lon": -77.112292, "rental_uris": {"android": "https://dc.lft.to/lastmile_qr_scan", "ios": "https://dc.lft.to/lastmile_qr_scan"}, "lat": 38.82870166666667, "is_reserved": 0, "is_disabled": 0, "fusion_lat": 0.0}, {"fusion_lon": 0.0, "bike_id": "9e28134ff996a93899fe4d25b3a20280", "name": "9e28134ff996a93899fe4d25b3a20280", "type": "electric_bike", "lon": -77.07683566666667, "rental_uris": {"android": "https://dc.lft.to/lastmile_qr_scan", "ios": "https://dc.lft.to/lastmile_qr_scan"}, "lat": 38.83191633333333, "is_reserved": 0, "is_disabled": 0, "fusion_lat": 0.0}, {"fusion_lon": 0.0, "bike_id": "08491504bec346dd5f4ccef12af2e198", "name": "08491504bec346dd5f4ccef12af2e198", "type": "electric_scooter", "lon": -77.04016283333333, "rental_uris": {"android": "https://dc.lft.to/lastmile_qr_scan", "ios": "https://dc.lft.to/lastmile_qr_scan"}, "lat": 38.91559783333334, "is_reserved": 0, "is_disabled": 0, "fusion_lat": 0.0}, {"fusion_lon": 0.0, "bike_id": "0e9ae2addb7002dbeb1faf118a7ea883", "name": "0e9ae2addb7002dbeb1faf118a7ea883", "type": "electric_scooter", "lon": -77.00594983333333, "rental_uris": {"android": "https://dc.lft.to/lastmile_qr_scan", "ios": "https://dc.lft.to/lastmile_qr_scan"}, "lat": 38.8765115, "is_reserved": 0, "is_disabled": 0, "fusion_lat": 0.0}, {"fusion_lon": 0.0, "bike_id": "ca78b392a2ed26b92adcab008ae45fd9", "name": "ca78b392a2ed26b92adcab008ae45fd9", "type": "electric_scooter", "lon": -77.040355, "rental_uris": {"android": "https://dc.lft.to/lastmile_qr_scan", "ios": "https://dc.lft.to/lastmile_qr_scan"}, "lat": 38.917723333333335, "is_reserved": 0, "is_disabled": 0, "fusion_lat": 0.0}, {"fusion_lon": 0.0, "bike_id": "bd72128f31e54d2263a012b9d27f7763", "name": "bd72128f31e54d2263a012b9d27f7763", "type": "electric_scooter", "lon": -77.01218466666667, "rental_uris": {"android": "https://dc.lft.to/lastmile_qr_scan", "ios": "https://dc.lft.to/lastmile_qr_scan"}, "lat": 38.896179333333336, "is_reserved": 0, "is_disabled": 0, "fusion_lat": 0.0}, {"fusion_lon": 0.0, "bike_id": "824cfa93310a284ad801392142c2a614", "name": "824cfa93310a284ad801392142c2a614", "type": "electric_scooter", "lon": -77.010926, "rental_uris": {"android": "https://dc.lft.to/lastmile_qr_scan", "ios": "https://dc.lft.to/lastmile_qr_scan"}, "lat": 38.90561866666667, "is_reserved": 0, "is_disabled": 0, "fusion_lat": 0.0}, {"fusion_lon": 0.0, "bike_id": "b794d24ee9b3b7cbe2b77cc918ace96b", "name": "b794d24ee9b3b7cbe2b77cc918ace96b", "type": "electric_scooter", "lon": -77.0414865, "rental_uris": {"android": "https://dc.lft.to/lastmile_qr_scan", "ios": "https://dc.lft.to/lastmile_qr_scan"}, "lat": 38.917041, "is_reserved": 0, "is_disabled": 0, "fusion_lat": 0.0}, {"fusion_lon": 0.0, "bike_id": "9b58f6087909b0574cd1f35ff757a4bd", "name": "9b58f6087909b0574cd1f35ff757a4bd", "type": "electric_scooter", "lon": -77.0476, "rental_uris": {"android": "https://dc.lft.to/lastmile_qr_scan", "ios": "https://dc.lft.to/lastmile_qr_scan"}, "lat": 38.9023655, "is_reserved": 0, "is_disabled": 0, "fusion_lat": 0.0}, {"fusion_lon": 0.0, "bike_id": "111c2d6961daa325a4e375842d668124", "name": "111c2d6961daa325a4e375842d668124", "type": "electric_scooter", "lon": -77.03213516666666, "rental_uris": {"android": "https://dc.lft.to/lastmile_qr_scan", "ios": "https://dc.lft.to/lastmile_qr_scan"}, "lat": 38.925815, "is_reserved": 0, "is_disabled": 0, "fusion_lat": 0.0}, {"fusion_lon": 0.0, "bike_id": "eb49a47bd352e2dbbf3b1bfd1b447310", "name": "eb49a47bd352e2dbbf3b1bfd1b447310", "type": "electric_scooter", "lon": -77.06355116666667, "rental_uris": {"android": "https://dc.lft.to/lastmile_qr_scan", "ios": "https://dc.lft.to/lastmile_qr_scan"}, "lat": 38.94437116666667, "is_reserved": 0, "is_disabled": 0, "fusion_lat": 0.0}, {"fusion_lon": 0.0, "bike_id": "b823e8d9234a48dc94ae7076a1dce265", "name": "b823e8d9234a48dc94ae7076a1dce265", "type": "electric_scooter", "lon": -77.01652883333334, "rental_uris": {"android": "https://dc.lft.to/lastmile_qr_scan", "ios": "https://dc.lft.to/lastmile_qr_scan"}, "lat": 38.881165333333335, "is_reserved": 0, "is_disabled": 0, "fusion_lat": 0.0}, {"fusion_lon": 0.0, "bike_id": "fc3cb875a8df07c1dbafae5afd3eee98", "name": "fc3cb875a8df07c1dbafae5afd3eee98", "type": "electric_bike", "lon": -77.11427233333333, "rental_uris": {"android": "https://dc.lft.to/lastmile_qr_scan", "ios": "https://dc.lft.to/lastmile_qr_scan"}, "lat": 38.8524585, "is_reserved": 0, "is_disabled": 0, "fusion_lat": 0.0}, {"fusion_lon": 0.0, "bike_id": "e2e205d3ecd18693cd12182263cb1128", "name": "e2e205d3ecd18693cd12182263cb1128", "type": "electric_scooter", "lon": -77.021973, "rental_uris": {"android": "https://dc.lft.to/lastmile_qr_scan", "ios": "https://dc.lft.to/lastmile_qr_scan"}, "lat": 38.92231533333333, "is_reserved": 0, "is_disabled": 0, "fusion_lat": 0.0}, {"fusion_lon": 0.0, "bike_id": "a4ac2c0c137e0b43a176da669eb8db95", "name": "a4ac2c0c137e0b43a176da669eb8db95", "type": "electric_scooter", "lon": -77.0437435, "rental_uris": {"android": "https://dc.lft.to/lastmile_qr_scan", "ios": "https://dc.lft.to/lastmile_qr_scan"}, "lat": 38.910099333333335, "is_reserved": 0, "is_disabled": 0, "fusion_lat": 0.0}, {"fusion_lon": 0.0, "bike_id": "cb405faeb8861033d6632c8e3af0938d", "name": "cb405faeb8861033d6632c8e3af0938d", "type": "electric_scooter", "lon": -77.00724733333334, "rental_uris": {"android": "https://dc.lft.to/lastmile_qr_scan", "ios": "https://dc.lft.to/lastmile_qr_scan"}, "lat": 38.87643966666667, "is_reserved": 0, "is_disabled": 0, "fusion_lat": 0.0}, {"fusion_lon": 0.0, "bike_id": "5d5d891678bb7f03361557d2d387e2a5", "name": "5d5d891678bb7f03361557d2d387e2a5", "type": "electric_scooter", "lon": -77.01887633333334, "rental_uris": {"android": "https://dc.lft.to/lastmile_qr_scan", "ios": "https://dc.lft.to/lastmile_qr_scan"}, "lat": 38.94637783333334, "is_reserved": 0, "is_disabled": 0, "fusion_lat": 0.0}, {"fusion_lon": 0.0, "bike_id": "838b533b2af9f238ab2df747192c6c6b", "name": "838b533b2af9f238ab2df747192c6c6b", "type": "electric_scooter", "lon": -77.0092485, "rental_uris": {"android": "https://dc.lft.to/lastmile_qr_scan", "ios": "https://dc.lft.to/lastmile_qr_scan"}, "lat": 38.8982945, "is_reserved": 0, "is_disabled": 0, "fusion_lat": 0.0}, {"fusion_lon": 0.0, "bike_id": "6ec55b48f2480d9a189989f8b7cadd18", "name": "6ec55b48f2480d9a189989f8b7cadd18", "type": "electric_scooter", "lon": -76.98948866666667, "rental_uris": {"android": "https://dc.lft.to/lastmile_qr_scan", "ios": "https://dc.lft.to/lastmile_qr_scan"}, "lat": 38.844043666666664, "is_reserved": 0, "is_disabled": 0, "fusion_lat": 0.0}, {"fusion_lon": 0.0, "bike_id": "d1382912adf0f550c155f2d8658f0411", "name": "d1382912adf0f550c155f2d8658f0411", "type": "electric_scooter", "lon": -77.023877, "rental_uris": {"android": "https://dc.lft.to/lastmile_qr_scan", "ios": "https://dc.lft.to/lastmile_qr_scan"}, "lat": 38.9207635, "is_reserved": 0, "is_disabled": 0, "fusion_lat": 0.0}, {"fusion_lon": 0.0, "bike_id": "e0038bfdddfee0a3aa1cf5938ae3eebf", "name": "e0038bfdddfee0a3aa1cf5938ae3eebf", "type": "electric_scooter", "lon": -77.0459705, "rental_uris": {"android": "https://dc.lft.to/lastmile_qr_scan", "ios": "https://dc.lft.to/lastmile_qr_scan"}, "lat": 38.9057785, "is_reserved": 0, "is_disabled": 0, "fusion_lat": 0.0}, {"fusion_lon": 0.0, "bike_id": "39c84274cab5e4fa0f24dc7536128d57", "name": "39c84274cab5e4fa0f24dc7536128d57", "type": "electric_scooter", "lon": -77.01915, "rental_uris": {"android": "https://dc.lft.to/lastmile_qr_scan", "ios": "https://dc.lft.to/lastmile_qr_scan"}, "lat": 38.8975135, "is_reserved": 0, "is_disabled": 0, "fusion_lat": 0.0}, {"fusion_lon": 0.0, "bike_id": "0929f77e46553f5536b1c35095116cda", "name": "0929f77e46553f5536b1c35095116cda", "type": "electric_scooter", "lon": -76.98255516666667, "rental_uris": {"android": "https://dc.lft.to/lastmile_qr_scan", "ios": "https://dc.lft.to/lastmile_qr_scan"}, "lat": 38.863584333333336, "is_reserved": 0, "is_disabled": 0, "fusion_lat": 0.0}, {"fusion_lon": 0.0, "bike_id": "e34093950850efad533ef7f99adc0262", "name": "e34093950850efad533ef7f99adc0262", "type": "electric_scooter", "lon": -77.03845466666667, "rental_uris": {"android": "https://dc.lft.to/lastmile_qr_scan", "ios": "https://dc.lft.to/lastmile_qr_scan"}, "lat": 38.91840916666666, "is_reserved": 0, "is_disabled": 0, "fusion_lat": 0.0}, {"fusion_lon": 0.0, "bike_id": "0c784f5674193585002d6b97a87e3734", "name": "0c784f5674193585002d6b97a87e3734", "type": "electric_scooter", "lon": -77.1003425, "rental_uris": {"android": "https://dc.lft.to/lastmile_qr_scan", "ios": "https://dc.lft.to/lastmile_qr_scan"}, "lat": 38.9493055, "is_reserved": 0, "is_disabled": 0, "fusion_lat": 0.0}, {"fusion_lon": 0.0, "bike_id": "5b45fc3e734a749c7a4a3755597a7f42", "name": "5b45fc3e734a749c7a4a3755597a7f42", "type": "electric_scooter", "lon": -77.03440366666666, "rental_uris": {"android": "https://dc.lft.to/lastmile_qr_scan", "ios": "https://dc.lft.to/lastmile_qr_scan"}, "lat": 38.910113833333334, "is_reserved": 0, "is_disabled": 0, "fusion_lat": 0.0}, {"fusion_lon": 0.0, "bike_id": "7180e2fc8af08ee4c147235fa0aff0c2", "name": "7180e2fc8af08ee4c147235fa0aff0c2", "type": "electric_scooter", "lon": -77.02007866666666, "rental_uris": {"android": "https://dc.lft.to/lastmile_qr_scan", "ios": "https://dc.lft.to/lastmile_qr_scan"}, "lat": 38.8987725, "is_reserved": 0, "is_disabled": 0, "fusion_lat": 0.0}, {"fusion_lon": 0.0, "bike_id": "c95ead0327c32daadb2969d909f1d855", "name": "c95ead0327c32daadb2969d909f1d855", "type": "electric_scooter", "lon": -77.03865133333333, "rental_uris": {"android": "https://dc.lft.to/lastmile_qr_scan", "ios": "https://dc.lft.to/lastmile_qr_scan"}, "lat": 38.910439833333335, "is_reserved": 0, "is_disabled": 0, "fusion_lat": 0.0}, {"fusion_lon": 0.0, "bike_id": "199b5201d3dbcfd98912199f14a03325", "name": "199b5201d3dbcfd98912199f14a03325", "type": "electric_scooter", "lon": -76.9960795, "rental_uris": {"android": "https://dc.lft.to/lastmile_qr_scan", "ios": "https://dc.lft.to/lastmile_qr_scan"}, "lat": 38.9261885, "is_reserved": 0, "is_disabled": 0, "fusion_lat": 0.0}, {"fusion_lon": 0.0, "bike_id": "6c66df7f890e3f0c116ee19ec0ffd3d7", "name": "6c66df7f890e3f0c116ee19ec0ffd3d7", "type": "electric_scooter", "lon": -77.01656083333333, "rental_uris": {"android": "https://dc.lft.to/lastmile_qr_scan", "ios": "https://dc.lft.to/lastmile_qr_scan"}, "lat": 38.887466333333336, "is_reserved": 0, "is_disabled": 0, "fusion_lat": 0.0}, {"fusion_lon": 0.0, "bike_id": "0792fcdd13763d0876a089d6c9de6e49", "name": "0792fcdd13763d0876a089d6c9de6e49", "type": "electric_scooter", "lon": -76.99058, "rental_uris": {"android": "https://dc.lft.to/lastmile_qr_scan", "ios": "https://dc.lft.to/lastmile_qr_scan"}, "lat": 38.86356333333333, "is_reserved": 0, "is_disabled": 0, "fusion_lat": 0.0}, {"fusion_lon": 0.0, "bike_id": "7b9166a949a072c9dd6ef9ba87b8c8a3", "name": "7b9166a949a072c9dd6ef9ba87b8c8a3", "type": "electric_scooter", "lon": -77.0400545, "rental_uris": {"android": "https://dc.lft.to/lastmile_qr_scan", "ios": "https://dc.lft.to/lastmile_qr_scan"}, "lat": 38.903672, "is_reserved": 0, "is_disabled": 0, "fusion_lat": 0.0}, {"fusion_lon": 0.0, "bike_id": "ab0f06d6a081ef9f5460fc593c9818f4", "name": "ab0f06d6a081ef9f5460fc593c9818f4", "type": "electric_scooter", "lon": -77.01052183333333, "rental_uris": {"android": "https://dc.lft.to/lastmile_qr_scan", "ios": "https://dc.lft.to/lastmile_qr_scan"}, "lat": 38.929893666666665, "is_reserved": 0, "is_disabled": 0, "fusion_lat": 0.0}, {"fusion_lon": 0.0, "bike_id": "c157964a6dc3280fb1ebe234a139a10a", "name": "c157964a6dc3280fb1ebe234a139a10a", "type": "electric_bike", "lon": -76.9453455, "rental_uris": {"android": "https://dc.lft.to/lastmile_qr_scan", "ios": "https://dc.lft.to/lastmile_qr_scan"}, "lat": 38.867551666666664, "is_reserved": 0, "is_disabled": 0, "fusion_lat": 0.0}, {"fusion_lon": 0.0, "bike_id": "1bb6180dd8ae8db614abb3e85b45f70f", "name": "1bb6180dd8ae8db614abb3e85b45f70f", "type": "electric_scooter", "lon": -77.0106895, "rental_uris": {"android": "https://dc.lft.to/lastmile_qr_scan", "ios": "https://dc.lft.to/lastmile_qr_scan"}, "lat": 38.8715365, "is_reserved": 0, "is_disabled": 0, "fusion_lat": 0.0}, {"fusion_lon": 0.0, "bike_id": "4d75ea48e512a73d21990b7591cf151a", "name": "4d75ea48e512a73d21990b7591cf151a", "type": "electric_bike", "lon": -77.03051916666666, "rental_uris": {"android": "https://dc.lft.to/lastmile_qr_scan", "ios": "https://dc.lft.to/lastmile_qr_scan"}, "lat": 38.99409583333333, "is_reserved": 0, "is_disabled": 0, "fusion_lat": 0.0}, {"fusion_lon": 0.0, "bike_id": "6f6121b839d5d3817443e3d9979a8d54", "name": "6f6121b839d5d3817443e3d9979a8d54", "type": "electric_scooter", "lon": -77.07295566666667, "rental_uris": {"android": "https://dc.lft.to/lastmile_qr_scan", "ios": "https://dc.lft.to/lastmile_qr_scan"}, "lat": 38.922838166666665, "is_reserved": 0, "is_disabled": 0, "fusion_lat": 0.0}, {"fusion_lon": 0.0, "bike_id": "0b6e9cd130ed8a6c7aca193f001323eb", "name": "0b6e9cd130ed8a6c7aca193f001323eb", "type": "electric_scooter", "lon": -76.98080716666666, "rental_uris": {"android": "https://dc.lft.to/lastmile_qr_scan", "ios": "https://dc.lft.to/lastmile_qr_scan"}, "lat": 38.93649, "is_reserved": 0, "is_disabled": 0, "fusion_lat": 0.0}, {"fusion_lon": 0.0, "bike_id": "9fa10fa89090743a5cb18883f39421f1", "name": "9fa10fa89090743a5cb18883f39421f1", "type": "electric_bike", "lon": -76.97217733333333, "rental_uris": {"android": "https://dc.lft.to/lastmile_qr_scan", "ios": "https://dc.lft.to/lastmile_qr_scan"}, "lat": 38.84481616666667, "is_reserved": 0, "is_disabled": 0, "fusion_lat": 0.0}, {"fusion_lon": 0.0, "bike_id": "c4555c5b7f1e276c1ae88107efc6d962", "name": "c4555c5b7f1e276c1ae88107efc6d962", "type": "electric_scooter", "lon": -77.021553, "rental_uris": {"android": "https://dc.lft.to/lastmile_qr_scan", "ios": "https://dc.lft.to/lastmile_qr_scan"}, "lat": 38.9260125, "is_reserved": 0, "is_disabled": 0, "fusion_lat": 0.0}, {"fusion_lon": 0.0, "bike_id": "012f68e1245ed89dc56bebfa2dc3c168", "name": "012f68e1245ed89dc56bebfa2dc3c168", "type": "electric_scooter", "lon": -77.04174133333333, "rental_uris": {"android": "https://dc.lft.to/lastmile_qr_scan", "ios": "https://dc.lft.to/lastmile_qr_scan"}, "lat": 38.91552766666667, "is_reserved": 0, "is_disabled": 0, "fusion_lat": 0.0}, {"fusion_lon": 0.0, "bike_id": "4e0298cc3f1dfc52bc85d92d250a9583", "name": "4e0298cc3f1dfc52bc85d92d250a9583", "type": "electric_scooter", "lon": -77.05828766666667, "rental_uris": {"android": "https://dc.lft.to/lastmile_qr_scan", "ios": "https://dc.lft.to/lastmile_qr_scan"}, "lat": 38.935357833333335, "is_reserved": 0, "is_disabled": 0, "fusion_lat": 0.0}, {"fusion_lon": 0.0, "bike_id": "5299426a81c488df4e6131aa85343b74", "name": "5299426a81c488df4e6131aa85343b74", "type": "electric_scooter", "lon": -77.06770133333333, "rental_uris": {"android": "https://dc.lft.to/lastmile_qr_scan", "ios": "https://dc.lft.to/lastmile_qr_scan"}, "lat": 38.949743, "is_reserved": 0, "is_disabled": 0, "fusion_lat": 0.0}, {"fusion_lon": 0.0, "bike_id": "7e500e7c44c1bfd976b4c2980c552643", "name": "7e500e7c44c1bfd976b4c2980c552643", "type": "electric_scooter", "lon": -77.03453083333333, "rental_uris": {"android": "https://dc.lft.to/lastmile_qr_scan", "ios": "https://dc.lft.to/lastmile_qr_scan"}, "lat": 38.90670216666667, "is_reserved": 0, "is_disabled": 0, "fusion_lat": 0.0}, {"fusion_lon": 0.0, "bike_id": "490c22c9c6fffae8d85e26716795938c", "name": "490c22c9c6fffae8d85e26716795938c", "type": "electric_bike", "lon": -77.0288985, "rental_uris": {"android": "https://dc.lft.to/lastmile_qr_scan", "ios": "https://dc.lft.to/lastmile_qr_scan"}, "lat": 38.9985765, "is_reserved": 0, "is_disabled": 0, "fusion_lat": 0.0}, {"fusion_lon": 0.0, "bike_id": "fbbc8a4b3025c72d766ce9597e20e917", "name": "fbbc8a4b3025c72d766ce9597e20e917", "type": "electric_scooter", "lon": -76.97341433333334, "rental_uris": {"android": "https://dc.lft.to/lastmile_qr_scan", "ios": "https://dc.lft.to/lastmile_qr_scan"}, "lat": 38.86514833333333, "is_reserved": 0, "is_disabled": 0, "fusion_lat": 0.0}, {"fusion_lon": 0.0, "bike_id": "177e197855bdc4ccf426a22cd1f9dd85", "name": "177e197855bdc4ccf426a22cd1f9dd85", "type": "electric_scooter", "lon": -77.02682433333334, "rental_uris": {"android": "https://dc.lft.to/lastmile_qr_scan", "ios": "https://dc.lft.to/lastmile_qr_scan"}, "lat": 38.90870616666667, "is_reserved": 0, "is_disabled": 0, "fusion_lat": 0.0}, {"fusion_lon": 0.0, "bike_id": "0262dc863c1de5137bc5b5b191700490", "name": "0262dc863c1de5137bc5b5b191700490", "type": "electric_bike", "lon": -77.06760216666666, "rental_uris": {"android": "https://dc.lft.to/lastmile_qr_scan", "ios": "https://dc.lft.to/lastmile_qr_scan"}, "lat": 38.9533715, "is_reserved": 0, "is_disabled": 0, "fusion_lat": 0.0}, {"fusion_lon": 0.0, "bike_id": "74c66c59c8461b506a4bb4a6f73d41fc", "name": "74c66c59c8461b506a4bb4a6f73d41fc", "type": "electric_scooter", "lon": -77.03863933333334, "rental_uris": {"android": "https://dc.lft.to/lastmile_qr_scan", "ios": "https://dc.lft.to/lastmile_qr_scan"}, "lat": 38.911844, "is_reserved": 0, "is_disabled": 0, "fusion_lat": 0.0}, {"fusion_lon": 0.0, "bike_id": "2a451182f07a45308a9292babacc7fdf", "name": "2a451182f07a45308a9292babacc7fdf", "type": "electric_scooter", "lon": -77.04140033333333, "rental_uris": {"android": "https://dc.lft.to/lastmile_qr_scan", "ios": "https://dc.lft.to/lastmile_qr_scan"}, "lat": 38.9002035, "is_reserved": 0, "is_disabled": 0, "fusion_lat": 0.0}, {"fusion_lon": 0.0, "bike_id": "0a958db65cb4b8666b61b5fd0f283290", "name": "0a958db65cb4b8666b61b5fd0f283290", "type": "electric_scooter", "lon": -77.03051433333333, "rental_uris": {"android": "https://dc.lft.to/lastmile_qr_scan", "ios": "https://dc.lft.to/lastmile_qr_scan"}, "lat": 38.96424016666667, "is_reserved": 0, "is_disabled": 0, "fusion_lat": 0.0}, {"fusion_lon": 0.0, "bike_id": "d215ff80a864c3a44f2dfbf9e74e1da1", "name": "d215ff80a864c3a44f2dfbf9e74e1da1", "type": "electric_scooter", "lon": -76.96528566666667, "rental_uris": {"android": "https://dc.lft.to/lastmile_qr_scan", "ios": "https://dc.lft.to/lastmile_qr_scan"}, "lat": 38.87628983333333, "is_reserved": 0, "is_disabled": 0, "fusion_lat": 0.0}, {"fusion_lon": 0.0, "bike_id": "5355e108c5e85df37d88cf5733a79f75", "name": "5355e108c5e85df37d88cf5733a79f75", "type": "electric_scooter", "lon": -77.0682155, "rental_uris": {"android": "https://dc.lft.to/lastmile_qr_scan", "ios": "https://dc.lft.to/lastmile_qr_scan"}, "lat": 38.904992666666665, "is_reserved": 0, "is_disabled": 0, "fusion_lat": 0.0}, {"fusion_lon": 0.0, "bike_id": "28980b3ac2ec94c221ec9c063f124e2e", "name": "28980b3ac2ec94c221ec9c063f124e2e", "type": "electric_scooter", "lon": -77.04099616666667, "rental_uris": {"android": "https://dc.lft.to/lastmile_qr_scan", "ios": "https://dc.lft.to/lastmile_qr_scan"}, "lat": 38.908879, "is_reserved": 0, "is_disabled": 0, "fusion_lat": 0.0}, {"fusion_lon": 0.0, "bike_id": "720ff292a9bfbc983291aee2d31f1970", "name": "720ff292a9bfbc983291aee2d31f1970", "type": "electric_scooter", "lon": -77.06527816666667, "rental_uris": {"android": "https://dc.lft.to/lastmile_qr_scan", "ios": "https://dc.lft.to/lastmile_qr_scan"}, "lat": 38.90526116666667, "is_reserved": 0, "is_disabled": 0, "fusion_lat": 0.0}, {"fusion_lon": 0.0, "bike_id": "2ff8b0c4381e5b8a9425858122f3c578", "name": "2ff8b0c4381e5b8a9425858122f3c578", "type": "electric_scooter", "lon": -77.003345, "rental_uris": {"android": "https://dc.lft.to/lastmile_qr_scan", "ios": "https://dc.lft.to/lastmile_qr_scan"}, "lat": 38.8952555, "is_reserved": 0, "is_disabled": 0, "fusion_lat": 0.0}, {"fusion_lon": 0.0, "bike_id": "43e32f4debf71af75aefc218a2528558", "name": "43e32f4debf71af75aefc218a2528558", "type": "electric_scooter", "lon": -77.02611116666667, "rental_uris": {"android": "https://dc.lft.to/lastmile_qr_scan", "ios": "https://dc.lft.to/lastmile_qr_scan"}, "lat": 38.92442966666667, "is_reserved": 0, "is_disabled": 0, "fusion_lat": 0.0}, {"fusion_lon": 0.0, "bike_id": "3a97997cb5ef364ea177499d23a4f1b5", "name": "3a97997cb5ef364ea177499d23a4f1b5", "type": "electric_scooter", "lon": -77.02620616666667, "rental_uris": {"android": "https://dc.lft.to/lastmile_qr_scan", "ios": "https://dc.lft.to/lastmile_qr_scan"}, "lat": 38.9190995, "is_reserved": 0, "is_disabled": 0, "fusion_lat": 0.0}, {"fusion_lon": 0.0, "bike_id": "418d9b3886359e17e47e5cc892d19e36", "name": "418d9b3886359e17e47e5cc892d19e36", "type": "electric_scooter", "lon": -77.022107, "rental_uris": {"android": "https://dc.lft.to/lastmile_qr_scan", "ios": "https://dc.lft.to/lastmile_qr_scan"}, "lat": 38.90547983333333, "is_reserved": 0, "is_disabled": 0, "fusion_lat": 0.0}, {"fusion_lon": 0.0, "bike_id": "ca00a8a52435e137d09c5264d0e15e74", "name": "ca00a8a52435e137d09c5264d0e15e74", "type": "electric_scooter", "lon": -77.02851016666666, "rental_uris": {"android": "https://dc.lft.to/lastmile_qr_scan", "ios": "https://dc.lft.to/lastmile_qr_scan"}, "lat": 38.90154283333333, "is_reserved": 0, "is_disabled": 0, "fusion_lat": 0.0}, {"fusion_lon": 0.0, "bike_id": "275089a8b7d236dd28e99fbc2feca38d", "name": "275089a8b7d236dd28e99fbc2feca38d", "type": "electric_bike", "lon": -76.87495966666667, "rental_uris": {"android": "https://dc.lft.to/lastmile_qr_scan", "ios": "https://dc.lft.to/lastmile_qr_scan"}, "lat": 38.990884, "is_reserved": 0, "is_disabled": 0, "fusion_lat": 0.0}, {"fusion_lon": 0.0, "bike_id": "f6c4cfbed1cb439daa11a75e99dbd663", "name": "f6c4cfbed1cb439daa11a75e99dbd663", "type": "electric_scooter", "lon": -77.03189916666666, "rental_uris": {"android": "https://dc.lft.to/lastmile_qr_scan", "ios": "https://dc.lft.to/lastmile_qr_scan"}, "lat": 38.896213333333336, "is_reserved": 0, "is_disabled": 0, "fusion_lat": 0.0}, {"fusion_lon": 0.0, "bike_id": "2296a0efd65e98961edb6f31629a61ad", "name": "2296a0efd65e98961edb6f31629a61ad", "type": "electric_scooter", "lon": -77.0237125, "rental_uris": {"android": "https://dc.lft.to/lastmile_qr_scan", "ios": "https://dc.lft.to/lastmile_qr_scan"}, "lat": 38.898489833333336, "is_reserved": 0, "is_disabled": 0, "fusion_lat": 0.0}, {"fusion_lon": 0.0, "bike_id": "c897df5f3a6336aa5d5ca7e895297e3e", "name": "c897df5f3a6336aa5d5ca7e895297e3e", "type": "electric_scooter", "lon": -77.04053816666666, "rental_uris": {"android": "https://dc.lft.to/lastmile_qr_scan", "ios": "https://dc.lft.to/lastmile_qr_scan"}, "lat": 38.90276716666666, "is_reserved": 0, "is_disabled": 0, "fusion_lat": 0.0}, {"fusion_lon": 0.0, "bike_id": "4368ab41ea09c4f491b2fed5c3aa56b0", "name": "4368ab41ea09c4f491b2fed5c3aa56b0", "type": "electric_scooter", "lon": -77.0273075, "rental_uris": {"android": "https://dc.lft.to/lastmile_qr_scan", "ios": "https://dc.lft.to/lastmile_qr_scan"}, "lat": 38.901204, "is_reserved": 0, "is_disabled": 0, "fusion_lat": 0.0}, {"fusion_lon": 0.0, "bike_id": "cd5b3f0db619995d9571e0a493af4a73", "name": "cd5b3f0db619995d9571e0a493af4a73", "type": "electric_bike", "lon": -77.1122705, "rental_uris": {"android": "https://dc.lft.to/lastmile_qr_scan", "ios": "https://dc.lft.to/lastmile_qr_scan"}, "lat": 38.82866283333333, "is_reserved": 0, "is_disabled": 0, "fusion_lat": 0.0}, {"fusion_lon": 0.0, "bike_id": "0b2c611ade4f18d0c899bc6ca3519729", "name": "0b2c611ade4f18d0c899bc6ca3519729", "type": "electric_scooter", "lon": -77.03215133333333, "rental_uris": {"android": "https://dc.lft.to/lastmile_qr_scan", "ios": "https://dc.lft.to/lastmile_qr_scan"}, "lat": 38.90756066666667, "is_reserved": 0, "is_disabled": 0, "fusion_lat": 0.0}, {"fusion_lon": 0.0, "bike_id": "ca43e0710838a23f6aa9386d408d930b", "name": "ca43e0710838a23f6aa9386d408d930b", "type": "electric_bike", "lon": -77.0498895, "rental_uris": {"android": "https://dc.lft.to/lastmile_qr_scan", "ios": "https://dc.lft.to/lastmile_qr_scan"}, "lat": 38.90091116666667, "is_reserved": 0, "is_disabled": 0, "fusion_lat": 0.0}, {"fusion_lon": 0.0, "bike_id": "c8ab5d89f9dd1a3a58cc9ab6965b856e", "name": "c8ab5d89f9dd1a3a58cc9ab6965b856e", "type": "electric_scooter", "lon": -77.02702283333333, "rental_uris": {"android": "https://dc.lft.to/lastmile_qr_scan", "ios": "https://dc.lft.to/lastmile_qr_scan"}, "lat": 38.936383, "is_reserved": 0, "is_disabled": 0, "fusion_lat": 0.0}, {"fusion_lon": 0.0, "bike_id": "b40b173235ee97961bf315a47d4714c1", "name": "b40b173235ee97961bf315a47d4714c1", "type": "electric_scooter", "lon": -76.94634383333333, "rental_uris": {"android": "https://dc.lft.to/lastmile_qr_scan", "ios": "https://dc.lft.to/lastmile_qr_scan"}, "lat": 38.89844866666667, "is_reserved": 0, "is_disabled": 0, "fusion_lat": 0.0}, {"fusion_lon": 0.0, "bike_id": "8b98b61a84ef282c91998779200f97cd", "name": "8b98b61a84ef282c91998779200f97cd", "type": "electric_scooter", "lon": -77.0440555, "rental_uris": {"android": "https://dc.lft.to/lastmile_qr_scan", "ios": "https://dc.lft.to/lastmile_qr_scan"}, "lat": 38.894123, "is_reserved": 0, "is_disabled": 0, "fusion_lat": 0.0}, {"fusion_lon": 0.0, "bike_id": "eb5c82905a73f5458bee258f8e765e8b", "name": "eb5c82905a73f5458bee258f8e765e8b", "type": "electric_bike", "lon": -76.9543825, "rental_uris": {"android": "https://dc.lft.to/lastmile_qr_scan", "ios": "https://dc.lft.to/lastmile_qr_scan"}, "lat": 38.890346, "is_reserved": 0, "is_disabled": 0, "fusion_lat": 0.0}, {"fusion_lon": 0.0, "bike_id": "b0b259927e627c9ce22c844ee9d40b5a", "name": "b0b259927e627c9ce22c844ee9d40b5a", "type": "electric_scooter", "lon": -77.02589516666667, "rental_uris": {"android": "https://dc.lft.to/lastmile_qr_scan", "ios": "https://dc.lft.to/lastmile_qr_scan"}, "lat": 38.9421465, "is_reserved": 0, "is_disabled": 0, "fusion_lat": 0.0}, {"fusion_lon": 0.0, "bike_id": "48fb92f3dea28e4db46c052fa9b86368", "name": "48fb92f3dea28e4db46c052fa9b86368", "type": "electric_scooter", "lon": -76.99310666666666, "rental_uris": {"android": "https://dc.lft.to/lastmile_qr_scan", "ios": "https://dc.lft.to/lastmile_qr_scan"}, "lat": 38.924066833333335, "is_reserved": 0, "is_disabled": 0, "fusion_lat": 0.0}, {"fusion_lon": 0.0, "bike_id": "afcbb8a021dcad9658326c051cba6f92", "name": "afcbb8a021dcad9658326c051cba6f92", "type": "electric_scooter", "lon": -77.024127, "rental_uris": {"android": "https://dc.lft.to/lastmile_qr_scan", "ios": "https://dc.lft.to/lastmile_qr_scan"}, "lat": 38.912563, "is_reserved": 0, "is_disabled": 0, "fusion_lat": 0.0}, {"fusion_lon": 0.0, "bike_id": "cb45359d4538a8825758e136ea27fd10", "name": "cb45359d4538a8825758e136ea27fd10", "type": "electric_scooter", "lon": -77.05005583333333, "rental_uris": {"android": "https://dc.lft.to/lastmile_qr_scan", "ios": "https://dc.lft.to/lastmile_qr_scan"}, "lat": 38.893601, "is_reserved": 0, "is_disabled": 0, "fusion_lat": 0.0}, {"fusion_lon": 0.0, "bike_id": "da2506610da5056624aba961b6084b34", "name": "da2506610da5056624aba961b6084b34", "type": "electric_scooter", "lon": -77.03945016666667, "rental_uris": {"android": "https://dc.lft.to/lastmile_qr_scan", "ios": "https://dc.lft.to/lastmile_qr_scan"}, "lat": 38.90956466666667, "is_reserved": 0, "is_disabled": 0, "fusion_lat": 0.0}, {"fusion_lon": 0.0, "bike_id": "2675163ab47c23583afcd1aedf23de56", "name": "2675163ab47c23583afcd1aedf23de56", "type": "electric_scooter", "lon": -77.04156733333333, "rental_uris": {"android": "https://dc.lft.to/lastmile_qr_scan", "ios": "https://dc.lft.to/lastmile_qr_scan"}, "lat": 38.917518666666666, "is_reserved": 0, "is_disabled": 0, "fusion_lat": 0.0}, {"fusion_lon": 0.0, "bike_id": "a6396f5d1c494f95e0337cb638435cb4", "name": "a6396f5d1c494f95e0337cb638435cb4", "type": "electric_scooter", "lon": -77.03175916666666, "rental_uris": {"android": "https://dc.lft.to/lastmile_qr_scan", "ios": "https://dc.lft.to/lastmile_qr_scan"}, "lat": 38.89978966666666, "is_reserved": 0, "is_disabled": 0, "fusion_lat": 0.0}, {"fusion_lon": 0.0, "bike_id": "e5aaca02d0234676a3a380d7f57069fc", "name": "e5aaca02d0234676a3a380d7f57069fc", "type": "electric_scooter", "lon": -77.0366855, "rental_uris": {"android": "https://dc.lft.to/lastmile_qr_scan", "ios": "https://dc.lft.to/lastmile_qr_scan"}, "lat": 38.91719416666667, "is_reserved": 0, "is_disabled": 0, "fusion_lat": 0.0}, {"fusion_lon": 0.0, "bike_id": "4806af575ab6d6310492e1a5adaf3b62", "name": "4806af575ab6d6310492e1a5adaf3b62", "type": "electric_scooter", "lon": -76.98993283333333, "rental_uris": {"android": "https://dc.lft.to/lastmile_qr_scan", "ios": "https://dc.lft.to/lastmile_qr_scan"}, "lat": 38.86435216666667, "is_reserved": 0, "is_disabled": 0, "fusion_lat": 0.0}, {"fusion_lon": 0.0, "bike_id": "c3dcd417258ed0e080bec30d0c7dc219", "name": "c3dcd417258ed0e080bec30d0c7dc219", "type": "electric_scooter", "lon": -77.0238515, "rental_uris": {"android": "https://dc.lft.to/lastmile_qr_scan", "ios": "https://dc.lft.to/lastmile_qr_scan"}, "lat": 38.88721833333334, "is_reserved": 0, "is_disabled": 0, "fusion_lat": 0.0}, {"fusion_lon": 0.0, "bike_id": "a0bbcd6584b20faaae9989a01a36c534", "name": "a0bbcd6584b20faaae9989a01a36c534", "type": "electric_scooter", "lon": -77.03738566666667, "rental_uris": {"android": "https://dc.lft.to/lastmile_qr_scan", "ios": "https://dc.lft.to/lastmile_qr_scan"}, "lat": 38.92853, "is_reserved": 0, "is_disabled": 0, "fusion_lat": 0.0}, {"fusion_lon": 0.0, "bike_id": "e1dc6f77424e2a9b34f15df9fe6983aa", "name": "e1dc6f77424e2a9b34f15df9fe6983aa", "type": "electric_scooter", "lon": -77.03832433333334, "rental_uris": {"android": "https://dc.lft.to/lastmile_qr_scan", "ios": "https://dc.lft.to/lastmile_qr_scan"}, "lat": 38.91113283333333, "is_reserved": 0, "is_disabled": 0, "fusion_lat": 0.0}, {"fusion_lon": 0.0, "bike_id": "a01e44a192f5cb9306c5325840ac8b66", "name": "a01e44a192f5cb9306c5325840ac8b66", "type": "electric_scooter", "lon": -77.00605983333334, "rental_uris": {"android": "https://dc.lft.to/lastmile_qr_scan", "ios": "https://dc.lft.to/lastmile_qr_scan"}, "lat": 38.911172, "is_reserved": 0, "is_disabled": 0, "fusion_lat": 0.0}, {"fusion_lon": 0.0, "bike_id": "a73a1bca6effd0cc865bb9bff59189d4", "name": "a73a1bca6effd0cc865bb9bff59189d4", "type": "electric_scooter", "lon": -77.01372266666667, "rental_uris": {"android": "https://dc.lft.to/lastmile_qr_scan", "ios": "https://dc.lft.to/lastmile_qr_scan"}, "lat": 38.886418, "is_reserved": 0, "is_disabled": 0, "fusion_lat": 0.0}, {"fusion_lon": 0.0, "bike_id": "a9c29ea3b33bc1e0806960b136b0dc8a", "name": "a9c29ea3b33bc1e0806960b136b0dc8a", "type": "electric_scooter", "lon": -77.03413933333333, "rental_uris": {"android": "https://dc.lft.to/lastmile_qr_scan", "ios": "https://dc.lft.to/lastmile_qr_scan"}, "lat": 38.919253833333336, "is_reserved": 0, "is_disabled": 0, "fusion_lat": 0.0}, {"fusion_lon": 0.0, "bike_id": "e15895e09208027e7addc980b176c6a1", "name": "e15895e09208027e7addc980b176c6a1", "type": "electric_scooter", "lon": -77.0037935, "rental_uris": {"android": "https://dc.lft.to/lastmile_qr_scan", "ios": "https://dc.lft.to/lastmile_qr_scan"}, "lat": 38.91106833333333, "is_reserved": 0, "is_disabled": 0, "fusion_lat": 0.0}, {"fusion_lon": 0.0, "bike_id": "3cc51ffa4323a6eef21b630dc9ef5724", "name": "3cc51ffa4323a6eef21b630dc9ef5724", "type": "electric_scooter", "lon": -77.029354, "rental_uris": {"android": "https://dc.lft.to/lastmile_qr_scan", "ios": "https://dc.lft.to/lastmile_qr_scan"}, "lat": 38.898590166666665, "is_reserved": 0, "is_disabled": 0, "fusion_lat": 0.0}, {"fusion_lon": 0.0, "bike_id": "3b219ad40169a0fbd36151ceb9c5f0cb", "name": "3b219ad40169a0fbd36151ceb9c5f0cb", "type": "electric_scooter", "lon": -76.996221, "rental_uris": {"android": "https://dc.lft.to/lastmile_qr_scan", "ios": "https://dc.lft.to/lastmile_qr_scan"}, "lat": 38.84685266666666, "is_reserved": 0, "is_disabled": 0, "fusion_lat": 0.0}, {"fusion_lon": 0.0, "bike_id": "f48969f2762b8e5f2abd753dacda650b", "name": "f48969f2762b8e5f2abd753dacda650b", "type": "electric_scooter", "lon": -77.03735083333333, "rental_uris": {"android": "https://dc.lft.to/lastmile_qr_scan", "ios": "https://dc.lft.to/lastmile_qr_scan"}, "lat": 38.928626333333334, "is_reserved": 0, "is_disabled": 0, "fusion_lat": 0.0}, {"fusion_lon": 0.0, "bike_id": "12c91c52b2b73e85b645a5a351038486", "name": "12c91c52b2b73e85b645a5a351038486", "type": "electric_scooter", "lon": -76.99030183333333, "rental_uris": {"android": "https://dc.lft.to/lastmile_qr_scan", "ios": "https://dc.lft.to/lastmile_qr_scan"}, "lat": 38.86074466666667, "is_reserved": 0, "is_disabled": 0, "fusion_lat": 0.0}, {"fusion_lon": 0.0, "bike_id": "3d115ceae86926c393e4342a4f450f39", "name": "3d115ceae86926c393e4342a4f450f39", "type": "electric_bike", "lon": -77.34413216666667, "rental_uris": {"android": "https://dc.lft.to/lastmile_qr_scan", "ios": "https://dc.lft.to/lastmile_qr_scan"}, "lat": 38.94586, "is_reserved": 0, "is_disabled": 0, "fusion_lat": 0.0}, {"fusion_lon": 0.0, "bike_id": "5a6f7dc5e48f7a4402ad7e836fe60254", "name": "5a6f7dc5e48f7a4402ad7e836fe60254", "type": "electric_bike", "lon": -77.14326, "rental_uris": {"android": "https://dc.lft.to/lastmile_qr_scan", "ios": "https://dc.lft.to/lastmile_qr_scan"}, "lat": 39.054593, "is_reserved": 0, "is_disabled": 0, "fusion_lat": 0.0}, {"fusion_lon": 0.0, "bike_id": "4ab3df6d50c86b91deef3cc15bd843f2", "name": "4ab3df6d50c86b91deef3cc15bd843f2", "type": "electric_scooter", "lon": -77.01176766666667, "rental_uris": {"android": "https://dc.lft.to/lastmile_qr_scan", "ios": "https://dc.lft.to/lastmile_qr_scan"}, "lat": 38.868109, "is_reserved": 0, "is_disabled": 0, "fusion_lat": 0.0}, {"fusion_lon": 0.0, "bike_id": "5759c96a393b951feeca8484f993697d", "name": "5759c96a393b951feeca8484f993697d", "type": "electric_scooter", "lon": -76.98885516666667, "rental_uris": {"android": "https://dc.lft.to/lastmile_qr_scan", "ios": "https://dc.lft.to/lastmile_qr_scan"}, "lat": 38.866714, "is_reserved": 0, "is_disabled": 0, "fusion_lat": 0.0}, {"fusion_lon": 0.0, "bike_id": "c36edd5f32f6c58a7ad746cbe4c5a604", "name": "c36edd5f32f6c58a7ad746cbe4c5a604", "type": "electric_scooter", "lon": -77.04520133333334, "rental_uris": {"android": "https://dc.lft.to/lastmile_qr_scan", "ios": "https://dc.lft.to/lastmile_qr_scan"}, "lat": 38.907867333333336, "is_reserved": 0, "is_disabled": 0, "fusion_lat": 0.0}, {"fusion_lon": 0.0, "bike_id": "8178211b9efcacb51c3af435c077ca62", "name": "8178211b9efcacb51c3af435c077ca62", "type": "electric_scooter", "lon": -77.06186716666667, "rental_uris": {"android": "https://dc.lft.to/lastmile_qr_scan", "ios": "https://dc.lft.to/lastmile_qr_scan"}, "lat": 38.930110166666665, "is_reserved": 0, "is_disabled": 0, "fusion_lat": 0.0}, {"fusion_lon": 0.0, "bike_id": "56ee35358641fc4102155f14318fb577", "name": "56ee35358641fc4102155f14318fb577", "type": "electric_scooter", "lon": -76.94856466666667, "rental_uris": {"android": "https://dc.lft.to/lastmile_qr_scan", "ios": "https://dc.lft.to/lastmile_qr_scan"}, "lat": 38.88303583333333, "is_reserved": 0, "is_disabled": 0, "fusion_lat": 0.0}, {"fusion_lon": 0.0, "bike_id": "e7a96133c7bb543daeb6135df20388ea", "name": "e7a96133c7bb543daeb6135df20388ea", "type": "electric_scooter", "lon": -77.02623716666666, "rental_uris": {"android": "https://dc.lft.to/lastmile_qr_scan", "ios": "https://dc.lft.to/lastmile_qr_scan"}, "lat": 38.90157683333334, "is_reserved": 0, "is_disabled": 0, "fusion_lat": 0.0}, {"fusion_lon": 0.0, "bike_id": "b782198ee62dc54d39afc375488bab28", "name": "b782198ee62dc54d39afc375488bab28", "type": "electric_bike", "lon": -77.09562866666667, "rental_uris": {"android": "https://dc.lft.to/lastmile_qr_scan", "ios": "https://dc.lft.to/lastmile_qr_scan"}, "lat": 38.91707233333333, "is_reserved": 0, "is_disabled": 0, "fusion_lat": 0.0}, {"fusion_lon": 0.0, "bike_id": "cbfcdff67c41116fc62e5d18bd564b43", "name": "cbfcdff67c41116fc62e5d18bd564b43", "type": "electric_scooter", "lon": -77.026861, "rental_uris": {"android": "https://dc.lft.to/lastmile_qr_scan", "ios": "https://dc.lft.to/lastmile_qr_scan"}, "lat": 38.89618883333333, "is_reserved": 0, "is_disabled": 0, "fusion_lat": 0.0}, {"fusion_lon": 0.0, "bike_id": "184cd0729d4327e2942b2ebec5f456fe", "name": "184cd0729d4327e2942b2ebec5f456fe", "type": "electric_scooter", "lon": -77.036615, "rental_uris": {"android": "https://dc.lft.to/lastmile_qr_scan", "ios": "https://dc.lft.to/lastmile_qr_scan"}, "lat": 38.9173105, "is_reserved": 0, "is_disabled": 0, "fusion_lat": 0.0}, {"fusion_lon": 0.0, "bike_id": "c466af6acee4ea3449a9997ca93b558e", "name": "c466af6acee4ea3449a9997ca93b558e", "type": "electric_scooter", "lon": -77.04659433333333, "rental_uris": {"android": "https://dc.lft.to/lastmile_qr_scan", "ios": "https://dc.lft.to/lastmile_qr_scan"}, "lat": 38.91026183333334, "is_reserved": 0, "is_disabled": 0, "fusion_lat": 0.0}, {"fusion_lon": 0.0, "bike_id": "9a694bf95436f58158ff12beb7697b44", "name": "9a694bf95436f58158ff12beb7697b44", "type": "electric_scooter", "lon": -76.9821, "rental_uris": {"android": "https://dc.lft.to/lastmile_qr_scan", "ios": "https://dc.lft.to/lastmile_qr_scan"}, "lat": 38.88643716666667, "is_reserved": 0, "is_disabled": 0, "fusion_lat": 0.0}, {"fusion_lon": 0.0, "bike_id": "a1d56bf2cd0c597c3625a29911eb1f6a", "name": "a1d56bf2cd0c597c3625a29911eb1f6a", "type": "electric_scooter", "lon": -77.0169625, "rental_uris": {"android": "https://dc.lft.to/lastmile_qr_scan", "ios": "https://dc.lft.to/lastmile_qr_scan"}, "lat": 38.9051435, "is_reserved": 0, "is_disabled": 0, "fusion_lat": 0.0}, {"fusion_lon": 0.0, "bike_id": "c33d7a585f2825baf5b9170aed6f8ecc", "name": "c33d7a585f2825baf5b9170aed6f8ecc", "type": "electric_scooter", "lon": -77.0321175, "rental_uris": {"android": "https://dc.lft.to/lastmile_qr_scan", "ios": "https://dc.lft.to/lastmile_qr_scan"}, "lat": 38.9258365, "is_reserved": 0, "is_disabled": 0, "fusion_lat": 0.0}, {"fusion_lon": 0.0, "bike_id": "7a9b46f4d9af93eea2f64b51a263fd8c", "name": "7a9b46f4d9af93eea2f64b51a263fd8c", "type": "electric_scooter", "lon": -77.00620883333333, "rental_uris": {"android": "https://dc.lft.to/lastmile_qr_scan", "ios": "https://dc.lft.to/lastmile_qr_scan"}, "lat": 38.8719515, "is_reserved": 0, "is_disabled": 0, "fusion_lat": 0.0}, {"fusion_lon": 0.0, "bike_id": "4fc70879e8fcc4b520f592602de4251d", "name": "4fc70879e8fcc4b520f592602de4251d", "type": "electric_bike", "lon": -77.12502666666667, "rental_uris": {"android": "https://dc.lft.to/lastmile_qr_scan", "ios": "https://dc.lft.to/lastmile_qr_scan"}, "lat": 39.0242165, "is_reserved": 0, "is_disabled": 0, "fusion_lat": 0.0}, {"fusion_lon": 0.0, "bike_id": "ef6f552eb474fdcbd89d660eaf8d58ea", "name": "ef6f552eb474fdcbd89d660eaf8d58ea", "type": "electric_bike", "lon": -76.99572533333334, "rental_uris": {"android": "https://dc.lft.to/lastmile_qr_scan", "ios": "https://dc.lft.to/lastmile_qr_scan"}, "lat": 39.00787733333333, "is_reserved": 0, "is_disabled": 0, "fusion_lat": 0.0}, {"fusion_lon": 0.0, "bike_id": "6d57c4b77ea2c21c88f5d3dc9ba7d584", "name": "6d57c4b77ea2c21c88f5d3dc9ba7d584", "type": "electric_scooter", "lon": -77.02157133333333, "rental_uris": {"android": "https://dc.lft.to/lastmile_qr_scan", "ios": "https://dc.lft.to/lastmile_qr_scan"}, "lat": 38.9260635, "is_reserved": 0, "is_disabled": 0, "fusion_lat": 0.0}, {"fusion_lon": 0.0, "bike_id": "697f886cd053b77d579c9a00d386c272", "name": "697f886cd053b77d579c9a00d386c272", "type": "electric_scooter", "lon": -76.98709633333333, "rental_uris": {"android": "https://dc.lft.to/lastmile_qr_scan", "ios": "https://dc.lft.to/lastmile_qr_scan"}, "lat": 38.866988666666664, "is_reserved": 0, "is_disabled": 0, "fusion_lat": 0.0}, {"fusion_lon": 0.0, "bike_id": "6ed5d8d36f832c09e31437350b0cc331", "name": "6ed5d8d36f832c09e31437350b0cc331", "type": "electric_scooter", "lon": -77.01384033333333, "rental_uris": {"android": "https://dc.lft.to/lastmile_qr_scan", "ios": "https://dc.lft.to/lastmile_qr_scan"}, "lat": 38.910159166666666, "is_reserved": 0, "is_disabled": 0, "fusion_lat": 0.0}, {"fusion_lon": 0.0, "bike_id": "b3354bf302923edc6c5cdfd0eae2c50f", "name": "b3354bf302923edc6c5cdfd0eae2c50f", "type": "electric_scooter", "lon": -77.03355516666667, "rental_uris": {"android": "https://dc.lft.to/lastmile_qr_scan", "ios": "https://dc.lft.to/lastmile_qr_scan"}, "lat": 38.901359166666666, "is_reserved": 0, "is_disabled": 0, "fusion_lat": 0.0}, {"fusion_lon": 0.0, "bike_id": "22a9cfa6dc9cc88248a770dd2050c206", "name": "22a9cfa6dc9cc88248a770dd2050c206", "type": "electric_scooter", "lon": -77.02323533333333, "rental_uris": {"android": "https://dc.lft.to/lastmile_qr_scan", "ios": "https://dc.lft.to/lastmile_qr_scan"}, "lat": 38.8787925, "is_reserved": 0, "is_disabled": 0, "fusion_lat": 0.0}, {"fusion_lon": 0.0, "bike_id": "ca0768e499dc3456d42c5fff4a91e047", "name": "ca0768e499dc3456d42c5fff4a91e047", "type": "electric_scooter", "lon": -77.0362835, "rental_uris": {"android": "https://dc.lft.to/lastmile_qr_scan", "ios": "https://dc.lft.to/lastmile_qr_scan"}, "lat": 38.956064, "is_reserved": 0, "is_disabled": 0, "fusion_lat": 0.0}, {"fusion_lon": 0.0, "bike_id": "82f47769fa81cae56ce2325eaa7896e2", "name": "82f47769fa81cae56ce2325eaa7896e2", "type": "electric_scooter", "lon": -77.02243633333333, "rental_uris": {"android": "https://dc.lft.to/lastmile_qr_scan", "ios": "https://dc.lft.to/lastmile_qr_scan"}, "lat": 38.89220133333333, "is_reserved": 0, "is_disabled": 0, "fusion_lat": 0.0}, {"fusion_lon": 0.0, "bike_id": "ceea3f4164453b2f5593b24ed2900fff", "name": "ceea3f4164453b2f5593b24ed2900fff", "type": "electric_scooter", "lon": -77.021559, "rental_uris": {"android": "https://dc.lft.to/lastmile_qr_scan", "ios": "https://dc.lft.to/lastmile_qr_scan"}, "lat": 38.92602433333333, "is_reserved": 0, "is_disabled": 0, "fusion_lat": 0.0}, {"fusion_lon": 0.0, "bike_id": "add046193b07f683d93f5157e58fe24d", "name": "add046193b07f683d93f5157e58fe24d", "type": "electric_scooter", "lon": -77.04684816666666, "rental_uris": {"android": "https://dc.lft.to/lastmile_qr_scan", "ios": "https://dc.lft.to/lastmile_qr_scan"}, "lat": 38.892242833333334, "is_reserved": 0, "is_disabled": 0, "fusion_lat": 0.0}, {"fusion_lon": 0.0, "bike_id": "bf842bdce8b6e7a38e85352a6f5366ae", "name": "bf842bdce8b6e7a38e85352a6f5366ae", "type": "electric_scooter", "lon": -77.023769, "rental_uris": {"android": "https://dc.lft.to/lastmile_qr_scan", "ios": "https://dc.lft.to/lastmile_qr_scan"}, "lat": 38.89914616666667, "is_reserved": 0, "is_disabled": 0, "fusion_lat": 0.0}, {"fusion_lon": 0.0, "bike_id": "87864a3bec36025006555618ec163fbc", "name": "87864a3bec36025006555618ec163fbc", "type": "electric_scooter", "lon": -77.00090316666666, "rental_uris": {"android": "https://dc.lft.to/lastmile_qr_scan", "ios": "https://dc.lft.to/lastmile_qr_scan"}, "lat": 38.8941045, "is_reserved": 0, "is_disabled": 0, "fusion_lat": 0.0}, {"fusion_lon": 0.0, "bike_id": "17b71cec35fce496ac5416385f2013d8", "name": "17b71cec35fce496ac5416385f2013d8", "type": "electric_scooter", "lon": -77.07250933333333, "rental_uris": {"android": "https://dc.lft.to/lastmile_qr_scan", "ios": "https://dc.lft.to/lastmile_qr_scan"}, "lat": 38.907813833333336, "is_reserved": 0, "is_disabled": 0, "fusion_lat": 0.0}, {"fusion_lon": 0.0, "bike_id": "8b07c91ab08db77e89e40fc125c2cf99", "name": "8b07c91ab08db77e89e40fc125c2cf99", "type": "electric_scooter", "lon": -76.99156166666667, "rental_uris": {"android": "https://dc.lft.to/lastmile_qr_scan", "ios": "https://dc.lft.to/lastmile_qr_scan"}, "lat": 38.89776533333333, "is_reserved": 0, "is_disabled": 0, "fusion_lat": 0.0}, {"fusion_lon": 0.0, "bike_id": "4e5465cf17f1c3b1f8a994a4e606b126", "name": "4e5465cf17f1c3b1f8a994a4e606b126", "type": "electric_scooter", "lon": -77.0460915, "rental_uris": {"android": "https://dc.lft.to/lastmile_qr_scan", "ios": "https://dc.lft.to/lastmile_qr_scan"}, "lat": 38.91476683333333, "is_reserved": 0, "is_disabled": 0, "fusion_lat": 0.0}, {"fusion_lon": 0.0, "bike_id": "9af3c27ee87193c3b27579a5bad98c0c", "name": "9af3c27ee87193c3b27579a5bad98c0c", "type": "electric_scooter", "lon": -76.99031516666666, "rental_uris": {"android": "https://dc.lft.to/lastmile_qr_scan", "ios": "https://dc.lft.to/lastmile_qr_scan"}, "lat": 38.92871, "is_reserved": 0, "is_disabled": 0, "fusion_lat": 0.0}, {"fusion_lon": 0.0, "bike_id": "9fc50ecf5b7f1a5687489cf60b013fd2", "name": "9fc50ecf5b7f1a5687489cf60b013fd2", "type": "electric_scooter", "lon": -77.0040015, "rental_uris": {"android": "https://dc.lft.to/lastmile_qr_scan", "ios": "https://dc.lft.to/lastmile_qr_scan"}, "lat": 38.87635816666667, "is_reserved": 0, "is_disabled": 0, "fusion_lat": 0.0}, {"fusion_lon": 0.0, "bike_id": "cd0327eacfc28e3c064c618e28e45e69", "name": "cd0327eacfc28e3c064c618e28e45e69", "type": "electric_scooter", "lon": -77.03214433333333, "rental_uris": {"android": "https://dc.lft.to/lastmile_qr_scan", "ios": "https://dc.lft.to/lastmile_qr_scan"}, "lat": 38.9361645, "is_reserved": 0, "is_disabled": 0, "fusion_lat": 0.0}, {"fusion_lon": 0.0, "bike_id": "b04fb7c02ea1f71736306931b0419873", "name": "b04fb7c02ea1f71736306931b0419873", "type": "electric_scooter", "lon": -77.07105833333334, "rental_uris": {"android": "https://dc.lft.to/lastmile_qr_scan", "ios": "https://dc.lft.to/lastmile_qr_scan"}, "lat": 38.91971316666667, "is_reserved": 0, "is_disabled": 0, "fusion_lat": 0.0}, {"fusion_lon": 0.0, "bike_id": "a562944f95fe251d2b561a67ef3580f9", "name": "a562944f95fe251d2b561a67ef3580f9", "type": "electric_scooter", "lon": -77.04481866666667, "rental_uris": {"android": "https://dc.lft.to/lastmile_qr_scan", "ios": "https://dc.lft.to/lastmile_qr_scan"}, "lat": 38.9242655, "is_reserved": 0, "is_disabled": 0, "fusion_lat": 0.0}, {"fusion_lon": 0.0, "bike_id": "6cf14de84d8352921df7224fbd139726", "name": "6cf14de84d8352921df7224fbd139726", "type": "electric_bike", "lon": -76.97332983333334, "rental_uris": {"android": "https://dc.lft.to/lastmile_qr_scan", "ios": "https://dc.lft.to/lastmile_qr_scan"}, "lat": 38.865770499999996, "is_reserved": 0, "is_disabled": 0, "fusion_lat": 0.0}, {"fusion_lon": 0.0, "bike_id": "cad7316039435c5c006a1ebb60c50d90", "name": "cad7316039435c5c006a1ebb60c50d90", "type": "electric_scooter", "lon": -77.02185216666666, "rental_uris": {"android": "https://dc.lft.to/lastmile_qr_scan", "ios": "https://dc.lft.to/lastmile_qr_scan"}, "lat": 38.895011833333335, "is_reserved": 0, "is_disabled": 0, "fusion_lat": 0.0}, {"fusion_lon": 0.0, "bike_id": "37cbfd929558693dff1ac2bfda5983dd", "name": "37cbfd929558693dff1ac2bfda5983dd", "type": "electric_bike", "lon": -77.17518866666667, "rental_uris": {"android": "https://dc.lft.to/lastmile_qr_scan", "ios": "https://dc.lft.to/lastmile_qr_scan"}, "lat": 39.09603633333333, "is_reserved": 0, "is_disabled": 0, "fusion_lat": 0.0}, {"fusion_lon": 0.0, "bike_id": "f68df9be76aaaef3a04233d8bb707574", "name": "f68df9be76aaaef3a04233d8bb707574", "type": "electric_scooter", "lon": -77.03347466666666, "rental_uris": {"android": "https://dc.lft.to/lastmile_qr_scan", "ios": "https://dc.lft.to/lastmile_qr_scan"}, "lat": 38.9223685, "is_reserved": 0, "is_disabled": 0, "fusion_lat": 0.0}, {"fusion_lon": 0.0, "bike_id": "50c0bd2b79caced62cc7c2eca12df539", "name": "50c0bd2b79caced62cc7c2eca12df539", "type": "electric_bike", "lon": -77.12622466666667, "rental_uris": {"android": "https://dc.lft.to/lastmile_qr_scan", "ios": "https://dc.lft.to/lastmile_qr_scan"}, "lat": 39.0581235, "is_reserved": 0, "is_disabled": 0, "fusion_lat": 0.0}, {"fusion_lon": 0.0, "bike_id": "8bb36a99c5b452f2e92217cf23e56935", "name": "8bb36a99c5b452f2e92217cf23e56935", "type": "electric_scooter", "lon": -77.00563783333334, "rental_uris": {"android": "https://dc.lft.to/lastmile_qr_scan", "ios": "https://dc.lft.to/lastmile_qr_scan"}, "lat": 38.905647, "is_reserved": 0, "is_disabled": 0, "fusion_lat": 0.0}, {"fusion_lon": 0.0, "bike_id": "e43bcfe162eb9e6ad6617aa152a56818", "name": "e43bcfe162eb9e6ad6617aa152a56818", "type": "electric_scooter", "lon": -77.031789, "rental_uris": {"android": "https://dc.lft.to/lastmile_qr_scan", "ios": "https://dc.lft.to/lastmile_qr_scan"}, "lat": 38.9191455, "is_reserved": 0, "is_disabled": 0, "fusion_lat": 0.0}, {"fusion_lon": 0.0, "bike_id": "ef2c53418c3b9be895f5d3aa4f7d9d8b", "name": "ef2c53418c3b9be895f5d3aa4f7d9d8b", "type": "electric_scooter", "lon": -77.029602, "rental_uris": {"android": "https://dc.lft.to/lastmile_qr_scan", "ios": "https://dc.lft.to/lastmile_qr_scan"}, "lat": 38.892261166666664, "is_reserved": 0, "is_disabled": 0, "fusion_lat": 0.0}, {"fusion_lon": 0.0, "bike_id": "a6cf5455daf38bf909c14f0a094bc321", "name": "a6cf5455daf38bf909c14f0a094bc321", "type": "electric_scooter", "lon": -77.027111, "rental_uris": {"android": "https://dc.lft.to/lastmile_qr_scan", "ios": "https://dc.lft.to/lastmile_qr_scan"}, "lat": 38.88137566666666, "is_reserved": 0, "is_disabled": 0, "fusion_lat": 0.0}, {"fusion_lon": 0.0, "bike_id": "e1fcbef9179e8b14bd917435dd97532f", "name": "e1fcbef9179e8b14bd917435dd97532f", "type": "electric_scooter", "lon": -77.02122433333334, "rental_uris": {"android": "https://dc.lft.to/lastmile_qr_scan", "ios": "https://dc.lft.to/lastmile_qr_scan"}, "lat": 38.8874905, "is_reserved": 0, "is_disabled": 0, "fusion_lat": 0.0}, {"fusion_lon": 0.0, "bike_id": "b97cdd4653605aafc0d9e25cee5ff630", "name": "b97cdd4653605aafc0d9e25cee5ff630", "type": "electric_scooter", "lon": -77.00756333333334, "rental_uris": {"android": "https://dc.lft.to/lastmile_qr_scan", "ios": "https://dc.lft.to/lastmile_qr_scan"}, "lat": 38.915499, "is_reserved": 0, "is_disabled": 0, "fusion_lat": 0.0}, {"fusion_lon": 0.0, "bike_id": "084750939872503ecfaa2180e279487f", "name": "084750939872503ecfaa2180e279487f", "type": "electric_bike", "lon": -77.08585666666667, "rental_uris": {"android": "https://dc.lft.to/lastmile_qr_scan", "ios": "https://dc.lft.to/lastmile_qr_scan"}, "lat": 38.874106, "is_reserved": 0, "is_disabled": 0, "fusion_lat": 0.0}, {"fusion_lon": 0.0, "bike_id": "6e1f0d3841aecbeee4dc04c89dd52ab8", "name": "6e1f0d3841aecbeee4dc04c89dd52ab8", "type": "electric_scooter", "lon": -76.99807366666667, "rental_uris": {"android": "https://dc.lft.to/lastmile_qr_scan", "ios": "https://dc.lft.to/lastmile_qr_scan"}, "lat": 38.844386166666666, "is_reserved": 0, "is_disabled": 0, "fusion_lat": 0.0}, {"fusion_lon": 0.0, "bike_id": "11a86dcc712a42223c7f1acc3248d1c2", "name": "11a86dcc712a42223c7f1acc3248d1c2", "type": "electric_scooter", "lon": -77.02708916666667, "rental_uris": {"android": "https://dc.lft.to/lastmile_qr_scan", "ios": "https://dc.lft.to/lastmile_qr_scan"}, "lat": 38.92884633333333, "is_reserved": 0, "is_disabled": 0, "fusion_lat": 0.0}, {"fusion_lon": 0.0, "bike_id": "b1d7a1e2d5f73e5004f67aa5ff858a3e", "name": "b1d7a1e2d5f73e5004f67aa5ff858a3e", "type": "electric_scooter", "lon": -77.03857066666667, "rental_uris": {"android": "https://dc.lft.to/lastmile_qr_scan", "ios": "https://dc.lft.to/lastmile_qr_scan"}, "lat": 38.91076233333333, "is_reserved": 0, "is_disabled": 0, "fusion_lat": 0.0}, {"fusion_lon": 0.0, "bike_id": "05f5d208322038f28cb1dea0693c5826", "name": "05f5d208322038f28cb1dea0693c5826", "type": "electric_bike", "lon": -76.97998966666667, "rental_uris": {"android": "https://dc.lft.to/lastmile_qr_scan", "ios": "https://dc.lft.to/lastmile_qr_scan"}, "lat": 38.87755633333333, "is_reserved": 0, "is_disabled": 0, "fusion_lat": 0.0}, {"fusion_lon": 0.0, "bike_id": "14a2bf5862932169df57d63ec0dbf906", "name": "14a2bf5862932169df57d63ec0dbf906", "type": "electric_scooter", "lon": -77.01368466666666, "rental_uris": {"android": "https://dc.lft.to/lastmile_qr_scan", "ios": "https://dc.lft.to/lastmile_qr_scan"}, "lat": 38.87900716666667, "is_reserved": 0, "is_disabled": 0, "fusion_lat": 0.0}, {"fusion_lon": 0.0, "bike_id": "cd8b008f187b694cff5ac0dc3e3ccb65", "name": "cd8b008f187b694cff5ac0dc3e3ccb65", "type": "electric_bike", "lon": -77.36085333333334, "rental_uris": {"android": "https://dc.lft.to/lastmile_qr_scan", "ios": "https://dc.lft.to/lastmile_qr_scan"}, "lat": 38.939632833333334, "is_reserved": 0, "is_disabled": 0, "fusion_lat": 0.0}, {"fusion_lon": 0.0, "bike_id": "14c9151800cae3fd3db0200a06d44a8d", "name": "14c9151800cae3fd3db0200a06d44a8d", "type": "electric_scooter", "lon": -77.04179983333333, "rental_uris": {"android": "https://dc.lft.to/lastmile_qr_scan", "ios": "https://dc.lft.to/lastmile_qr_scan"}, "lat": 38.9154915, "is_reserved": 0, "is_disabled": 0, "fusion_lat": 0.0}, {"fusion_lon": 0.0, "bike_id": "a6cfb89497bb8ddd65851a1cf8c58c1f", "name": "a6cfb89497bb8ddd65851a1cf8c58c1f", "type": "electric_scooter", "lon": -77.03606066666667, "rental_uris": {"android": "https://dc.lft.to/lastmile_qr_scan", "ios": "https://dc.lft.to/lastmile_qr_scan"}, "lat": 38.92861583333333, "is_reserved": 0, "is_disabled": 0, "fusion_lat": 0.0}, {"fusion_lon": 0.0, "bike_id": "96dd96c4a5941b6c40c83c3f6b373d2a", "name": "96dd96c4a5941b6c40c83c3f6b373d2a", "type": "electric_scooter", "lon": -77.03791366666667, "rental_uris": {"android": "https://dc.lft.to/lastmile_qr_scan", "ios": "https://dc.lft.to/lastmile_qr_scan"}, "lat": 38.92624266666667, "is_reserved": 0, "is_disabled": 0, "fusion_lat": 0.0}, {"fusion_lon": 0.0, "bike_id": "923f504e8ceb8daa303380cd6c494cf9", "name": "923f504e8ceb8daa303380cd6c494cf9", "type": "electric_scooter", "lon": -77.02282216666667, "rental_uris": {"android": "https://dc.lft.to/lastmile_qr_scan", "ios": "https://dc.lft.to/lastmile_qr_scan"}, "lat": 38.9165025, "is_reserved": 0, "is_disabled": 0, "fusion_lat": 0.0}, {"fusion_lon": 0.0, "bike_id": "b746b86ec9b6b5dadd61b512283b7518", "name": "b746b86ec9b6b5dadd61b512283b7518", "type": "electric_scooter", "lon": -76.99524716666667, "rental_uris": {"android": "https://dc.lft.to/lastmile_qr_scan", "ios": "https://dc.lft.to/lastmile_qr_scan"}, "lat": 38.88369183333333, "is_reserved": 0, "is_disabled": 0, "fusion_lat": 0.0}, {"fusion_lon": 0.0, "bike_id": "034ff453ce761bc7bbf78f378c1deed7", "name": "034ff453ce761bc7bbf78f378c1deed7", "type": "electric_scooter", "lon": -77.0433335, "rental_uris": {"android": "https://dc.lft.to/lastmile_qr_scan", "ios": "https://dc.lft.to/lastmile_qr_scan"}, "lat": 38.915389166666664, "is_reserved": 0, "is_disabled": 0, "fusion_lat": 0.0}, {"fusion_lon": 0.0, "bike_id": "9d77067825b640fceed0c09ba344e5c3", "name": "9d77067825b640fceed0c09ba344e5c3", "type": "electric_scooter", "lon": -77.00220216666666, "rental_uris": {"android": "https://dc.lft.to/lastmile_qr_scan", "ios": "https://dc.lft.to/lastmile_qr_scan"}, "lat": 38.89458416666667, "is_reserved": 0, "is_disabled": 0, "fusion_lat": 0.0}, {"fusion_lon": 0.0, "bike_id": "ac728264be9dbd2c04355c3284523f0a", "name": "ac728264be9dbd2c04355c3284523f0a", "type": "electric_scooter", "lon": -77.0304855, "rental_uris": {"android": "https://dc.lft.to/lastmile_qr_scan", "ios": "https://dc.lft.to/lastmile_qr_scan"}, "lat": 38.9397995, "is_reserved": 0, "is_disabled": 0, "fusion_lat": 0.0}, {"fusion_lon": 0.0, "bike_id": "3ff3d0c607ad0375f9973b9690e2b41c", "name": "3ff3d0c607ad0375f9973b9690e2b41c", "type": "electric_scooter", "lon": -77.0306365, "rental_uris": {"android": "https://dc.lft.to/lastmile_qr_scan", "ios": "https://dc.lft.to/lastmile_qr_scan"}, "lat": 38.93979683333333, "is_reserved": 0, "is_disabled": 0, "fusion_lat": 0.0}, {"fusion_lon": 0.0, "bike_id": "fd3638b9560c39c28796538fa25050d3", "name": "fd3638b9560c39c28796538fa25050d3", "type": "electric_scooter", "lon": -77.03181516666666, "rental_uris": {"android": "https://dc.lft.to/lastmile_qr_scan", "ios": "https://dc.lft.to/lastmile_qr_scan"}, "lat": 38.91914883333333, "is_reserved": 0, "is_disabled": 0, "fusion_lat": 0.0}, {"fusion_lon": 0.0, "bike_id": "fb808e515722897a6287f3c2896a369d", "name": "fb808e515722897a6287f3c2896a369d", "type": "electric_scooter", "lon": -77.0440105, "rental_uris": {"android": "https://dc.lft.to/lastmile_qr_scan", "ios": "https://dc.lft.to/lastmile_qr_scan"}, "lat": 38.902245, "is_reserved": 0, "is_disabled": 0, "fusion_lat": 0.0}, {"fusion_lon": 0.0, "bike_id": "b23fddf0206e1795dbf71c723317dcce", "name": "b23fddf0206e1795dbf71c723317dcce", "type": "electric_scooter", "lon": -76.9995925, "rental_uris": {"android": "https://dc.lft.to/lastmile_qr_scan", "ios": "https://dc.lft.to/lastmile_qr_scan"}, "lat": 38.893256, "is_reserved": 0, "is_disabled": 0, "fusion_lat": 0.0}, {"fusion_lon": 0.0, "bike_id": "966432048c593f7dc76807f5f14523d3", "name": "966432048c593f7dc76807f5f14523d3", "type": "electric_scooter", "lon": -77.0216925, "rental_uris": {"android": "https://dc.lft.to/lastmile_qr_scan", "ios": "https://dc.lft.to/lastmile_qr_scan"}, "lat": 38.9429655, "is_reserved": 0, "is_disabled": 0, "fusion_lat": 0.0}, {"fusion_lon": 0.0, "bike_id": "05c354f5469ec66cb72efb8b531489d7", "name": "05c354f5469ec66cb72efb8b531489d7", "type": "electric_scooter", "lon": -76.948258, "rental_uris": {"android": "https://dc.lft.to/lastmile_qr_scan", "ios": "https://dc.lft.to/lastmile_qr_scan"}, "lat": 38.8851745, "is_reserved": 0, "is_disabled": 0, "fusion_lat": 0.0}, {"fusion_lon": 0.0, "bike_id": "64d80869f8412e928cf5e98bc56949a9", "name": "64d80869f8412e928cf5e98bc56949a9", "type": "electric_scooter", "lon": -77.0026725, "rental_uris": {"android": "https://dc.lft.to/lastmile_qr_scan", "ios": "https://dc.lft.to/lastmile_qr_scan"}, "lat": 38.91192516666667, "is_reserved": 0, "is_disabled": 0, "fusion_lat": 0.0}, {"fusion_lon": 0.0, "bike_id": "0f96baf5d623c2b1c2c4cac5ecedbca9", "name": "0f96baf5d623c2b1c2c4cac5ecedbca9", "type": "electric_scooter", "lon": -77.0543765, "rental_uris": {"android": "https://dc.lft.to/lastmile_qr_scan", "ios": "https://dc.lft.to/lastmile_qr_scan"}, "lat": 38.8960235, "is_reserved": 0, "is_disabled": 0, "fusion_lat": 0.0}, {"fusion_lon": 0.0, "bike_id": "3279d943583d0b94dc083af9b4bc41e1", "name": "3279d943583d0b94dc083af9b4bc41e1", "type": "electric_scooter", "lon": -77.022961, "rental_uris": {"android": "https://dc.lft.to/lastmile_qr_scan", "ios": "https://dc.lft.to/lastmile_qr_scan"}, "lat": 38.916653, "is_reserved": 0, "is_disabled": 0, "fusion_lat": 0.0}, {"fusion_lon": 0.0, "bike_id": "41810004680ef763a374570ecc99642e", "name": "41810004680ef763a374570ecc99642e", "type": "electric_bike", "lon": -77.00958016666667, "rental_uris": {"android": "https://dc.lft.to/lastmile_qr_scan", "ios": "https://dc.lft.to/lastmile_qr_scan"}, "lat": 38.90707033333333, "is_reserved": 0, "is_disabled": 0, "fusion_lat": 0.0}, {"fusion_lon": 0.0, "bike_id": "5616c3342143140af98920ca138ec115", "name": "5616c3342143140af98920ca138ec115", "type": "electric_scooter", "lon": -77.03830733333334, "rental_uris": {"android": "https://dc.lft.to/lastmile_qr_scan", "ios": "https://dc.lft.to/lastmile_qr_scan"}, "lat": 38.903305333333336, "is_reserved": 0, "is_disabled": 0, "fusion_lat": 0.0}, {"fusion_lon": 0.0, "bike_id": "70b52174a53dfad3cfc92e26b6855095", "name": "70b52174a53dfad3cfc92e26b6855095", "type": "electric_scooter", "lon": -77.04065166666666, "rental_uris": {"android": "https://dc.lft.to/lastmile_qr_scan", "ios": "https://dc.lft.to/lastmile_qr_scan"}, "lat": 38.8985885, "is_reserved": 0, "is_disabled": 0, "fusion_lat": 0.0}, {"fusion_lon": 0.0, "bike_id": "f3061e08ea323bf16399880ca1241b2e", "name": "f3061e08ea323bf16399880ca1241b2e", "type": "electric_scooter", "lon": -77.016101, "rental_uris": {"android": "https://dc.lft.to/lastmile_qr_scan", "ios": "https://dc.lft.to/lastmile_qr_scan"}, "lat": 38.90168033333333, "is_reserved": 0, "is_disabled": 0, "fusion_lat": 0.0}, {"fusion_lon": 0.0, "bike_id": "e00ea952a01b3912fc3f0b19c4644248", "name": "e00ea952a01b3912fc3f0b19c4644248", "type": "electric_scooter", "lon": -77.01949466666667, "rental_uris": {"android": "https://dc.lft.to/lastmile_qr_scan", "ios": "https://dc.lft.to/lastmile_qr_scan"}, "lat": 38.922519666666666, "is_reserved": 0, "is_disabled": 0, "fusion_lat": 0.0}, {"fusion_lon": 0.0, "bike_id": "ec09c4b647db798257efb09dd9a5dcd2", "name": "ec09c4b647db798257efb09dd9a5dcd2", "type": "electric_scooter", "lon": -77.03735283333333, "rental_uris": {"android": "https://dc.lft.to/lastmile_qr_scan", "ios": "https://dc.lft.to/lastmile_qr_scan"}, "lat": 38.909652666666666, "is_reserved": 0, "is_disabled": 0, "fusion_lat": 0.0}, {"fusion_lon": 0.0, "bike_id": "2a1e04188e4fcbfeae0797e0c43f3a7b", "name": "2a1e04188e4fcbfeae0797e0c43f3a7b", "type": "electric_scooter", "lon": -77.02352083333334, "rental_uris": {"android": "https://dc.lft.to/lastmile_qr_scan", "ios": "https://dc.lft.to/lastmile_qr_scan"}, "lat": 38.9160485, "is_reserved": 0, "is_disabled": 0, "fusion_lat": 0.0}, {"fusion_lon": 0.0, "bike_id": "b9513476274d2d768c8163f4c1529dbc", "name": "b9513476274d2d768c8163f4c1529dbc", "type": "electric_scooter", "lon": -77.04245466666667, "rental_uris": {"android": "https://dc.lft.to/lastmile_qr_scan", "ios": "https://dc.lft.to/lastmile_qr_scan"}, "lat": 38.92246333333333, "is_reserved": 0, "is_disabled": 0, "fusion_lat": 0.0}, {"fusion_lon": 0.0, "bike_id": "26af7e306f378037c7cac663f1ce8f34", "name": "26af7e306f378037c7cac663f1ce8f34", "type": "electric_scooter", "lon": -77.07229583333333, "rental_uris": {"android": "https://dc.lft.to/lastmile_qr_scan", "ios": "https://dc.lft.to/lastmile_qr_scan"}, "lat": 38.93456116666667, "is_reserved": 0, "is_disabled": 0, "fusion_lat": 0.0}, {"fusion_lon": 0.0, "bike_id": "c09d895318394de1e3a948410f516004", "name": "c09d895318394de1e3a948410f516004", "type": "electric_scooter", "lon": -76.99050916666667, "rental_uris": {"android": "https://dc.lft.to/lastmile_qr_scan", "ios": "https://dc.lft.to/lastmile_qr_scan"}, "lat": 38.8589745, "is_reserved": 0, "is_disabled": 0, "fusion_lat": 0.0}, {"fusion_lon": 0.0, "bike_id": "30b673531936a30868e8e74397e5f293", "name": "30b673531936a30868e8e74397e5f293", "type": "electric_scooter", "lon": -76.97727366666666, "rental_uris": {"android": "https://dc.lft.to/lastmile_qr_scan", "ios": "https://dc.lft.to/lastmile_qr_scan"}, "lat": 38.87245516666667, "is_reserved": 0, "is_disabled": 0, "fusion_lat": 0.0}, {"fusion_lon": 0.0, "bike_id": "c95055fb64ad3a100beb604e4a697ebe", "name": "c95055fb64ad3a100beb604e4a697ebe", "type": "electric_scooter", "lon": -77.00757683333333, "rental_uris": {"android": "https://dc.lft.to/lastmile_qr_scan", "ios": "https://dc.lft.to/lastmile_qr_scan"}, "lat": 38.9037835, "is_reserved": 0, "is_disabled": 0, "fusion_lat": 0.0}, {"fusion_lon": 0.0, "bike_id": "50d9795bf55878a8571f7c6bf707e001", "name": "50d9795bf55878a8571f7c6bf707e001", "type": "electric_bike", "lon": -76.95473266666667, "rental_uris": {"android": "https://dc.lft.to/lastmile_qr_scan", "ios": "https://dc.lft.to/lastmile_qr_scan"}, "lat": 38.9356675, "is_reserved": 0, "is_disabled": 0, "fusion_lat": 0.0}, {"fusion_lon": 0.0, "bike_id": "962f5018dd18ff3a4e74db0792b07670", "name": "962f5018dd18ff3a4e74db0792b07670", "type": "electric_scooter", "lon": -77.001979, "rental_uris": {"android": "https://dc.lft.to/lastmile_qr_scan", "ios": "https://dc.lft.to/lastmile_qr_scan"}, "lat": 38.90233116666667, "is_reserved": 0, "is_disabled": 0, "fusion_lat": 0.0}, {"fusion_lon": 0.0, "bike_id": "a78b226ade2c4841591cfa0ee9d405fa", "name": "a78b226ade2c4841591cfa0ee9d405fa", "type": "electric_scooter", "lon": -77.00223983333333, "rental_uris": {"android": "https://dc.lft.to/lastmile_qr_scan", "ios": "https://dc.lft.to/lastmile_qr_scan"}, "lat": 38.90018716666667, "is_reserved": 0, "is_disabled": 0, "fusion_lat": 0.0}, {"fusion_lon": 0.0, "bike_id": "9e1c17b5a2e07f78db183a7d2cf09ebc", "name": "9e1c17b5a2e07f78db183a7d2cf09ebc", "type": "electric_scooter", "lon": -77.038904, "rental_uris": {"android": "https://dc.lft.to/lastmile_qr_scan", "ios": "https://dc.lft.to/lastmile_qr_scan"}, "lat": 38.922409333333334, "is_reserved": 0, "is_disabled": 0, "fusion_lat": 0.0}, {"fusion_lon": 0.0, "bike_id": "a51a367d5af67e072dd60f566d1d9663", "name": "a51a367d5af67e072dd60f566d1d9663", "type": "electric_scooter", "lon": -77.03850966666667, "rental_uris": {"android": "https://dc.lft.to/lastmile_qr_scan", "ios": "https://dc.lft.to/lastmile_qr_scan"}, "lat": 38.91603816666667, "is_reserved": 0, "is_disabled": 0, "fusion_lat": 0.0}, {"fusion_lon": 0.0, "bike_id": "e220912cc55a245203d7a9ff3279dbab", "name": "e220912cc55a245203d7a9ff3279dbab", "type": "electric_scooter", "lon": -77.03588533333334, "rental_uris": {"android": "https://dc.lft.to/lastmile_qr_scan", "ios": "https://dc.lft.to/lastmile_qr_scan"}, "lat": 38.90763483333333, "is_reserved": 0, "is_disabled": 0, "fusion_lat": 0.0}, {"fusion_lon": 0.0, "bike_id": "a5c6ce57064996d3bc98650fb4811838", "name": "a5c6ce57064996d3bc98650fb4811838", "type": "electric_scooter", "lon": -77.00215783333333, "rental_uris": {"android": "https://dc.lft.to/lastmile_qr_scan", "ios": "https://dc.lft.to/lastmile_qr_scan"}, "lat": 38.911028, "is_reserved": 0, "is_disabled": 0, "fusion_lat": 0.0}, {"fusion_lon": 0.0, "bike_id": "6b03013c3e4d83fbc81dfb720adc87fb", "name": "6b03013c3e4d83fbc81dfb720adc87fb", "type": "electric_scooter", "lon": -77.03264983333334, "rental_uris": {"android": "https://dc.lft.to/lastmile_qr_scan", "ios": "https://dc.lft.to/lastmile_qr_scan"}, "lat": 38.901151, "is_reserved": 0, "is_disabled": 0, "fusion_lat": 0.0}, {"fusion_lon": 0.0, "bike_id": "cb7c14823ab8901b832aee78729f8466", "name": "cb7c14823ab8901b832aee78729f8466", "type": "electric_scooter", "lon": -77.03354666666667, "rental_uris": {"android": "https://dc.lft.to/lastmile_qr_scan", "ios": "https://dc.lft.to/lastmile_qr_scan"}, "lat": 38.9243885, "is_reserved": 0, "is_disabled": 0, "fusion_lat": 0.0}, {"fusion_lon": 0.0, "bike_id": "46ea2045c13cd6c72d3bd0c8ea6949f1", "name": "46ea2045c13cd6c72d3bd0c8ea6949f1", "type": "electric_bike", "lon": -77.08167866666666, "rental_uris": {"android": "https://dc.lft.to/lastmile_qr_scan", "ios": "https://dc.lft.to/lastmile_qr_scan"}, "lat": 38.8885965, "is_reserved": 0, "is_disabled": 0, "fusion_lat": 0.0}, {"fusion_lon": 0.0, "bike_id": "b12e5d2787b224540142490e7233dbcc", "name": "b12e5d2787b224540142490e7233dbcc", "type": "electric_bike", "lon": -77.03569016666667, "rental_uris": {"android": "https://dc.lft.to/lastmile_qr_scan", "ios": "https://dc.lft.to/lastmile_qr_scan"}, "lat": 38.9111245, "is_reserved": 0, "is_disabled": 0, "fusion_lat": 0.0}, {"fusion_lon": 0.0, "bike_id": "9a5ee88ae5086892c04ec14a21d24361", "name": "9a5ee88ae5086892c04ec14a21d24361", "type": "electric_bike", "lon": -76.92932533333334, "rental_uris": {"android": "https://dc.lft.to/lastmile_qr_scan", "ios": "https://dc.lft.to/lastmile_qr_scan"}, "lat": 38.9029005, "is_reserved": 0, "is_disabled": 0, "fusion_lat": 0.0}, {"fusion_lon": 0.0, "bike_id": "f85135e6a8c0b8f0b379604a5c2feecd", "name": "f85135e6a8c0b8f0b379604a5c2feecd", "type": "electric_scooter", "lon": -77.02604316666667, "rental_uris": {"android": "https://dc.lft.to/lastmile_qr_scan", "ios": "https://dc.lft.to/lastmile_qr_scan"}, "lat": 38.97590433333333, "is_reserved": 0, "is_disabled": 0, "fusion_lat": 0.0}, {"fusion_lon": 0.0, "bike_id": "c88d8281d375b809cbd524939a06c7a4", "name": "c88d8281d375b809cbd524939a06c7a4", "type": "electric_scooter", "lon": -76.93388033333333, "rental_uris": {"android": "https://dc.lft.to/lastmile_qr_scan", "ios": "https://dc.lft.to/lastmile_qr_scan"}, "lat": 38.899128833333336, "is_reserved": 0, "is_disabled": 0, "fusion_lat": 0.0}, {"fusion_lon": 0.0, "bike_id": "bcebc7b6b4cba297c5cc4b2f04970a4d", "name": "bcebc7b6b4cba297c5cc4b2f04970a4d", "type": "electric_scooter", "lon": -77.03208033333334, "rental_uris": {"android": "https://dc.lft.to/lastmile_qr_scan", "ios": "https://dc.lft.to/lastmile_qr_scan"}, "lat": 38.91375583333333, "is_reserved": 0, "is_disabled": 0, "fusion_lat": 0.0}, {"fusion_lon": 0.0, "bike_id": "dcacfece8688442a3c5d5debc2d6bf1a", "name": "dcacfece8688442a3c5d5debc2d6bf1a", "type": "electric_scooter", "lon": -76.980674, "rental_uris": {"android": "https://dc.lft.to/lastmile_qr_scan", "ios": "https://dc.lft.to/lastmile_qr_scan"}, "lat": 38.90167233333333, "is_reserved": 0, "is_disabled": 0, "fusion_lat": 0.0}, {"fusion_lon": 0.0, "bike_id": "73a7c1cf5d80103400b7827af7347a16", "name": "73a7c1cf5d80103400b7827af7347a16", "type": "electric_scooter", "lon": -77.031923, "rental_uris": {"android": "https://dc.lft.to/lastmile_qr_scan", "ios": "https://dc.lft.to/lastmile_qr_scan"}, "lat": 38.91278, "is_reserved": 0, "is_disabled": 0, "fusion_lat": 0.0}, {"fusion_lon": 0.0, "bike_id": "0010e25fcae66a93a3d73133ced481f3", "name": "0010e25fcae66a93a3d73133ced481f3", "type": "electric_scooter", "lon": -77.07014066666666, "rental_uris": {"android": "https://dc.lft.to/lastmile_qr_scan", "ios": "https://dc.lft.to/lastmile_qr_scan"}, "lat": 38.90592066666667, "is_reserved": 0, "is_disabled": 0, "fusion_lat": 0.0}, {"fusion_lon": 0.0, "bike_id": "a2a6004a266ac8266849d1f776197288", "name": "a2a6004a266ac8266849d1f776197288", "type": "electric_scooter", "lon": -77.01180833333333, "rental_uris": {"android": "https://dc.lft.to/lastmile_qr_scan", "ios": "https://dc.lft.to/lastmile_qr_scan"}, "lat": 38.87077933333333, "is_reserved": 0, "is_disabled": 0, "fusion_lat": 0.0}, {"fusion_lon": 0.0, "bike_id": "4df06967ec3bb7fe95b8da9a02bb4aad", "name": "4df06967ec3bb7fe95b8da9a02bb4aad", "type": "electric_bike", "lon": -77.0494395, "rental_uris": {"android": "https://dc.lft.to/lastmile_qr_scan", "ios": "https://dc.lft.to/lastmile_qr_scan"}, "lat": 38.855108666666666, "is_reserved": 0, "is_disabled": 0, "fusion_lat": 0.0}, {"fusion_lon": 0.0, "bike_id": "1504e6c141c02f5639900fb2bfcecfc1", "name": "1504e6c141c02f5639900fb2bfcecfc1", "type": "electric_bike", "lon": -77.02668566666667, "rental_uris": {"android": "https://dc.lft.to/lastmile_qr_scan", "ios": "https://dc.lft.to/lastmile_qr_scan"}, "lat": 38.98178933333333, "is_reserved": 0, "is_disabled": 0, "fusion_lat": 0.0}, {"fusion_lon": 0.0, "bike_id": "da17a59b68c8d9c7fc736e98b9aa6199", "name": "da17a59b68c8d9c7fc736e98b9aa6199", "type": "electric_bike", "lon": -76.96175816666667, "rental_uris": {"android": "https://dc.lft.to/lastmile_qr_scan", "ios": "https://dc.lft.to/lastmile_qr_scan"}, "lat": 38.9186145, "is_reserved": 0, "is_disabled": 0, "fusion_lat": 0.0}, {"fusion_lon": 0.0, "bike_id": "317599e3d36ab854da0ad801a260fe7f", "name": "317599e3d36ab854da0ad801a260fe7f", "type": "electric_scooter", "lon": -77.0265895, "rental_uris": {"android": "https://dc.lft.to/lastmile_qr_scan", "ios": "https://dc.lft.to/lastmile_qr_scan"}, "lat": 38.89221216666667, "is_reserved": 0, "is_disabled": 0, "fusion_lat": 0.0}, {"fusion_lon": 0.0, "bike_id": "b70a53753c20129d84616de09985979a", "name": "b70a53753c20129d84616de09985979a", "type": "electric_scooter", "lon": -77.02495716666667, "rental_uris": {"android": "https://dc.lft.to/lastmile_qr_scan", "ios": "https://dc.lft.to/lastmile_qr_scan"}, "lat": 38.92736333333333, "is_reserved": 0, "is_disabled": 0, "fusion_lat": 0.0}, {"fusion_lon": 0.0, "bike_id": "6d59a28ddc482cdf711b8eb14232470b", "name": "6d59a28ddc482cdf711b8eb14232470b", "type": "electric_scooter", "lon": -77.004639, "rental_uris": {"android": "https://dc.lft.to/lastmile_qr_scan", "ios": "https://dc.lft.to/lastmile_qr_scan"}, "lat": 38.87685483333333, "is_reserved": 0, "is_disabled": 0, "fusion_lat": 0.0}, {"fusion_lon": 0.0, "bike_id": "8aa09851a04ecbffa602be0a316c1dae", "name": "8aa09851a04ecbffa602be0a316c1dae", "type": "electric_scooter", "lon": -77.04171633333333, "rental_uris": {"android": "https://dc.lft.to/lastmile_qr_scan", "ios": "https://dc.lft.to/lastmile_qr_scan"}, "lat": 38.9194055, "is_reserved": 0, "is_disabled": 0, "fusion_lat": 0.0}, {"fusion_lon": 0.0, "bike_id": "e4c1b593a38f6d5c9be3ea36f9b9aa7d", "name": "e4c1b593a38f6d5c9be3ea36f9b9aa7d", "type": "electric_scooter", "lon": -77.03245516666667, "rental_uris": {"android": "https://dc.lft.to/lastmile_qr_scan", "ios": "https://dc.lft.to/lastmile_qr_scan"}, "lat": 38.91339983333334, "is_reserved": 0, "is_disabled": 0, "fusion_lat": 0.0}, {"fusion_lon": 0.0, "bike_id": "7d05f55c19b81205f9dfd729b88ff7f5", "name": "7d05f55c19b81205f9dfd729b88ff7f5", "type": "electric_scooter", "lon": -77.0093595, "rental_uris": {"android": "https://dc.lft.to/lastmile_qr_scan", "ios": "https://dc.lft.to/lastmile_qr_scan"}, "lat": 38.876796, "is_reserved": 0, "is_disabled": 0, "fusion_lat": 0.0}, {"fusion_lon": 0.0, "bike_id": "15edcdb51c36e4d45794faded81b44b5", "name": "15edcdb51c36e4d45794faded81b44b5", "type": "electric_scooter", "lon": -77.0006735, "rental_uris": {"android": "https://dc.lft.to/lastmile_qr_scan", "ios": "https://dc.lft.to/lastmile_qr_scan"}, "lat": 38.875257833333336, "is_reserved": 0, "is_disabled": 0, "fusion_lat": 0.0}, {"fusion_lon": 0.0, "bike_id": "f77d053966ce86bdfa7a40e6c5b94834", "name": "f77d053966ce86bdfa7a40e6c5b94834", "type": "electric_scooter", "lon": -77.003314, "rental_uris": {"android": "https://dc.lft.to/lastmile_qr_scan", "ios": "https://dc.lft.to/lastmile_qr_scan"}, "lat": 38.9059645, "is_reserved": 0, "is_disabled": 0, "fusion_lat": 0.0}, {"fusion_lon": 0.0, "bike_id": "8a6e66aab9b613c87e569cfdd033c4ca", "name": "8a6e66aab9b613c87e569cfdd033c4ca", "type": "electric_bike", "lon": -76.9234325, "rental_uris": {"android": "https://dc.lft.to/lastmile_qr_scan", "ios": "https://dc.lft.to/lastmile_qr_scan"}, "lat": 38.88788133333333, "is_reserved": 0, "is_disabled": 0, "fusion_lat": 0.0}, {"fusion_lon": 0.0, "bike_id": "8105f45e8460869f73b4c5d16ae47a78", "name": "8105f45e8460869f73b4c5d16ae47a78", "type": "electric_scooter", "lon": -77.02210633333333, "rental_uris": {"android": "https://dc.lft.to/lastmile_qr_scan", "ios": "https://dc.lft.to/lastmile_qr_scan"}, "lat": 38.9053485, "is_reserved": 0, "is_disabled": 0, "fusion_lat": 0.0}, {"fusion_lon": 0.0, "bike_id": "0e7f6e4d466494544121915304872cb5", "name": "0e7f6e4d466494544121915304872cb5", "type": "electric_scooter", "lon": -77.00337533333334, "rental_uris": {"android": "https://dc.lft.to/lastmile_qr_scan", "ios": "https://dc.lft.to/lastmile_qr_scan"}, "lat": 38.907181666666666, "is_reserved": 0, "is_disabled": 0, "fusion_lat": 0.0}, {"fusion_lon": 0.0, "bike_id": "35b6e887d55680bd2f7b49f64cdeb229", "name": "35b6e887d55680bd2f7b49f64cdeb229", "type": "electric_scooter", "lon": -77.028203, "rental_uris": {"android": "https://dc.lft.to/lastmile_qr_scan", "ios": "https://dc.lft.to/lastmile_qr_scan"}, "lat": 38.885858166666665, "is_reserved": 0, "is_disabled": 0, "fusion_lat": 0.0}, {"fusion_lon": 0.0, "bike_id": "76db0c3b43eb064d229102ecf365fcc3", "name": "76db0c3b43eb064d229102ecf365fcc3", "type": "electric_bike", "lon": -77.04899516666667, "rental_uris": {"android": "https://dc.lft.to/lastmile_qr_scan", "ios": "https://dc.lft.to/lastmile_qr_scan"}, "lat": 38.8749575, "is_reserved": 0, "is_disabled": 0, "fusion_lat": 0.0}, {"fusion_lon": 0.0, "bike_id": "d1cb9a72a29ab22f62d1c3abbb3dfb7e", "name": "d1cb9a72a29ab22f62d1c3abbb3dfb7e", "type": "electric_bike", "lon": -77.10029333333334, "rental_uris": {"android": "https://dc.lft.to/lastmile_qr_scan", "ios": "https://dc.lft.to/lastmile_qr_scan"}, "lat": 38.99063866666667, "is_reserved": 0, "is_disabled": 0, "fusion_lat": 0.0}, {"fusion_lon": 0.0, "bike_id": "999ebffc3a220a0f0d6287df6f3aa7c5", "name": "999ebffc3a220a0f0d6287df6f3aa7c5", "type": "electric_bike", "lon": -76.87494133333334, "rental_uris": {"android": "https://dc.lft.to/lastmile_qr_scan", "ios": "https://dc.lft.to/lastmile_qr_scan"}, "lat": 38.990897333333336, "is_reserved": 0, "is_disabled": 0, "fusion_lat": 0.0}, {"fusion_lon": 0.0, "bike_id": "fd16f52ef7f4a87cbfe56afd400f99ce", "name": "fd16f52ef7f4a87cbfe56afd400f99ce", "type": "electric_scooter", "lon": -77.00607683333334, "rental_uris": {"android": "https://dc.lft.to/lastmile_qr_scan", "ios": "https://dc.lft.to/lastmile_qr_scan"}, "lat": 38.874190666666664, "is_reserved": 0, "is_disabled": 0, "fusion_lat": 0.0}, {"fusion_lon": 0.0, "bike_id": "e96be0dde1804e0a057656059633b3fa", "name": "e96be0dde1804e0a057656059633b3fa", "type": "electric_scooter", "lon": -77.04625383333334, "rental_uris": {"android": "https://dc.lft.to/lastmile_qr_scan", "ios": "https://dc.lft.to/lastmile_qr_scan"}, "lat": 38.915269, "is_reserved": 0, "is_disabled": 0, "fusion_lat": 0.0}, {"fusion_lon": 0.0, "bike_id": "8efa51fa74a44744bbe8b8c4fe06c626", "name": "8efa51fa74a44744bbe8b8c4fe06c626", "type": "electric_scooter", "lon": -77.035167, "rental_uris": {"android": "https://dc.lft.to/lastmile_qr_scan", "ios": "https://dc.lft.to/lastmile_qr_scan"}, "lat": 38.921545333333334, "is_reserved": 0, "is_disabled": 0, "fusion_lat": 0.0}, {"fusion_lon": 0.0, "bike_id": "62112eef3e70c92fbdfffae6f1706cbd", "name": "62112eef3e70c92fbdfffae6f1706cbd", "type": "electric_scooter", "lon": -77.03151883333334, "rental_uris": {"android": "https://dc.lft.to/lastmile_qr_scan", "ios": "https://dc.lft.to/lastmile_qr_scan"}, "lat": 38.927943666666664, "is_reserved": 0, "is_disabled": 0, "fusion_lat": 0.0}, {"fusion_lon": 0.0, "bike_id": "76c6cfd313243f88b56e3620171e05c1", "name": "76c6cfd313243f88b56e3620171e05c1", "type": "electric_scooter", "lon": -77.01419716666666, "rental_uris": {"android": "https://dc.lft.to/lastmile_qr_scan", "ios": "https://dc.lft.to/lastmile_qr_scan"}, "lat": 38.928201333333334, "is_reserved": 0, "is_disabled": 0, "fusion_lat": 0.0}, {"fusion_lon": 0.0, "bike_id": "fd055fdaefdcae96b2ee5a80b6cf6141", "name": "fd055fdaefdcae96b2ee5a80b6cf6141", "type": "electric_scooter", "lon": -77.02936483333333, "rental_uris": {"android": "https://dc.lft.to/lastmile_qr_scan", "ios": "https://dc.lft.to/lastmile_qr_scan"}, "lat": 38.91415416666667, "is_reserved": 0, "is_disabled": 0, "fusion_lat": 0.0}, {"fusion_lon": 0.0, "bike_id": "8fd29482ca924388c2c56a18d654fa8e", "name": "8fd29482ca924388c2c56a18d654fa8e", "type": "electric_scooter", "lon": -77.04158466666667, "rental_uris": {"android": "https://dc.lft.to/lastmile_qr_scan", "ios": "https://dc.lft.to/lastmile_qr_scan"}, "lat": 38.911818, "is_reserved": 0, "is_disabled": 0, "fusion_lat": 0.0}, {"fusion_lon": 0.0, "bike_id": "82ca4963d8120d7a3a8bb2d01348da37", "name": "82ca4963d8120d7a3a8bb2d01348da37", "type": "electric_scooter", "lon": -77.033914, "rental_uris": {"android": "https://dc.lft.to/lastmile_qr_scan", "ios": "https://dc.lft.to/lastmile_qr_scan"}, "lat": 38.96834416666667, "is_reserved": 0, "is_disabled": 0, "fusion_lat": 0.0}, {"fusion_lon": 0.0, "bike_id": "3217bd9949110f0b649a1fea819ef3f7", "name": "3217bd9949110f0b649a1fea819ef3f7", "type": "electric_scooter", "lon": -77.00195333333333, "rental_uris": {"android": "https://dc.lft.to/lastmile_qr_scan", "ios": "https://dc.lft.to/lastmile_qr_scan"}, "lat": 38.902334833333335, "is_reserved": 0, "is_disabled": 0, "fusion_lat": 0.0}, {"fusion_lon": 0.0, "bike_id": "3275aaa1d4a5d498d7c5a83783d312cf", "name": "3275aaa1d4a5d498d7c5a83783d312cf", "type": "electric_scooter", "lon": -77.02803916666667, "rental_uris": {"android": "https://dc.lft.to/lastmile_qr_scan", "ios": "https://dc.lft.to/lastmile_qr_scan"}, "lat": 38.911022833333334, "is_reserved": 0, "is_disabled": 0, "fusion_lat": 0.0}, {"fusion_lon": 0.0, "bike_id": "5c67a09dcbabe64efa08c7f4fba5abc2", "name": "5c67a09dcbabe64efa08c7f4fba5abc2", "type": "electric_scooter", "lon": -77.05919866666666, "rental_uris": {"android": "https://dc.lft.to/lastmile_qr_scan", "ios": "https://dc.lft.to/lastmile_qr_scan"}, "lat": 38.91003366666666, "is_reserved": 0, "is_disabled": 0, "fusion_lat": 0.0}, {"fusion_lon": 0.0, "bike_id": "26f7dd5e67c0625398f5e9081ee1edbf", "name": "26f7dd5e67c0625398f5e9081ee1edbf", "type": "electric_scooter", "lon": -77.01788066666667, "rental_uris": {"android": "https://dc.lft.to/lastmile_qr_scan", "ios": "https://dc.lft.to/lastmile_qr_scan"}, "lat": 38.9412015, "is_reserved": 0, "is_disabled": 0, "fusion_lat": 0.0}, {"fusion_lon": 0.0, "bike_id": "f1f5c0c5ce916408820448b473088ee5", "name": "f1f5c0c5ce916408820448b473088ee5", "type": "electric_scooter", "lon": -77.0274305, "rental_uris": {"android": "https://dc.lft.to/lastmile_qr_scan", "ios": "https://dc.lft.to/lastmile_qr_scan"}, "lat": 38.943089, "is_reserved": 0, "is_disabled": 0, "fusion_lat": 0.0}, {"fusion_lon": 0.0, "bike_id": "a09a0075d65d36dfea34aa629d874f74", "name": "a09a0075d65d36dfea34aa629d874f74", "type": "electric_scooter", "lon": -77.02383666666667, "rental_uris": {"android": "https://dc.lft.to/lastmile_qr_scan", "ios": "https://dc.lft.to/lastmile_qr_scan"}, "lat": 38.9085305, "is_reserved": 0, "is_disabled": 0, "fusion_lat": 0.0}, {"fusion_lon": 0.0, "bike_id": "f609dd63ad527d45dd67e2420fd59c42", "name": "f609dd63ad527d45dd67e2420fd59c42", "type": "electric_scooter", "lon": -77.04012416666667, "rental_uris": {"android": "https://dc.lft.to/lastmile_qr_scan", "ios": "https://dc.lft.to/lastmile_qr_scan"}, "lat": 38.917954333333334, "is_reserved": 0, "is_disabled": 0, "fusion_lat": 0.0}, {"fusion_lon": 0.0, "bike_id": "16cbd6ffa75fc02a0596b0f370ab39c7", "name": "16cbd6ffa75fc02a0596b0f370ab39c7", "type": "electric_scooter", "lon": -77.02689683333334, "rental_uris": {"android": "https://dc.lft.to/lastmile_qr_scan", "ios": "https://dc.lft.to/lastmile_qr_scan"}, "lat": 38.912804666666666, "is_reserved": 0, "is_disabled": 0, "fusion_lat": 0.0}, {"fusion_lon": 0.0, "bike_id": "1477d8fe5aeacc6470a15717779d3648", "name": "1477d8fe5aeacc6470a15717779d3648", "type": "electric_scooter", "lon": -76.941146, "rental_uris": {"android": "https://dc.lft.to/lastmile_qr_scan", "ios": "https://dc.lft.to/lastmile_qr_scan"}, "lat": 38.884541166666665, "is_reserved": 0, "is_disabled": 0, "fusion_lat": 0.0}, {"fusion_lon": 0.0, "bike_id": "d6fc42c0f6c3095e13bc0e9fd23606e3", "name": "d6fc42c0f6c3095e13bc0e9fd23606e3", "type": "electric_scooter", "lon": -77.0266405, "rental_uris": {"android": "https://dc.lft.to/lastmile_qr_scan", "ios": "https://dc.lft.to/lastmile_qr_scan"}, "lat": 38.979425, "is_reserved": 0, "is_disabled": 0, "fusion_lat": 0.0}, {"fusion_lon": 0.0, "bike_id": "d48a9fe5f433c7a6b42de5ea24aed7bb", "name": "d48a9fe5f433c7a6b42de5ea24aed7bb", "type": "electric_scooter", "lon": -76.99464766666667, "rental_uris": {"android": "https://dc.lft.to/lastmile_qr_scan", "ios": "https://dc.lft.to/lastmile_qr_scan"}, "lat": 38.84032783333333, "is_reserved": 0, "is_disabled": 0, "fusion_lat": 0.0}, {"fusion_lon": 0.0, "bike_id": "4aece188e95ded8f979826e2e538f1b2", "name": "4aece188e95ded8f979826e2e538f1b2", "type": "electric_scooter", "lon": -77.0239175, "rental_uris": {"android": "https://dc.lft.to/lastmile_qr_scan", "ios": "https://dc.lft.to/lastmile_qr_scan"}, "lat": 38.957358666666664, "is_reserved": 0, "is_disabled": 0, "fusion_lat": 0.0}, {"fusion_lon": 0.0, "bike_id": "e6fc68ef5d8f2538e7af5fe9d12f2b27", "name": "e6fc68ef5d8f2538e7af5fe9d12f2b27", "type": "electric_scooter", "lon": -77.04702333333333, "rental_uris": {"android": "https://dc.lft.to/lastmile_qr_scan", "ios": "https://dc.lft.to/lastmile_qr_scan"}, "lat": 38.8973345, "is_reserved": 0, "is_disabled": 0, "fusion_lat": 0.0}, {"fusion_lon": 0.0, "bike_id": "79e68609bd07dcd55d641c1e6a51d4da", "name": "79e68609bd07dcd55d641c1e6a51d4da", "type": "electric_scooter", "lon": -77.039004, "rental_uris": {"android": "https://dc.lft.to/lastmile_qr_scan", "ios": "https://dc.lft.to/lastmile_qr_scan"}, "lat": 38.92507333333333, "is_reserved": 0, "is_disabled": 0, "fusion_lat": 0.0}, {"fusion_lon": 0.0, "bike_id": "f15ef91d0e5f082d28218105be564713", "name": "f15ef91d0e5f082d28218105be564713", "type": "electric_scooter", "lon": -76.99031316666667, "rental_uris": {"android": "https://dc.lft.to/lastmile_qr_scan", "ios": "https://dc.lft.to/lastmile_qr_scan"}, "lat": 38.8985135, "is_reserved": 0, "is_disabled": 0, "fusion_lat": 0.0}, {"fusion_lon": 0.0, "bike_id": "f65d41b8074cdb272d0fc4d4cddf75b3", "name": "f65d41b8074cdb272d0fc4d4cddf75b3", "type": "electric_scooter", "lon": -77.01600383333333, "rental_uris": {"android": "https://dc.lft.to/lastmile_qr_scan", "ios": "https://dc.lft.to/lastmile_qr_scan"}, "lat": 38.9031535, "is_reserved": 0, "is_disabled": 0, "fusion_lat": 0.0}, {"fusion_lon": 0.0, "bike_id": "6aa83051b20f8129563c880339ef4e7a", "name": "6aa83051b20f8129563c880339ef4e7a", "type": "electric_bike", "lon": -76.98826416666667, "rental_uris": {"android": "https://dc.lft.to/lastmile_qr_scan", "ios": "https://dc.lft.to/lastmile_qr_scan"}, "lat": 38.985648166666664, "is_reserved": 0, "is_disabled": 0, "fusion_lat": 0.0}, {"fusion_lon": 0.0, "bike_id": "cdf884ef3e61f992c3e6db72bce98035", "name": "cdf884ef3e61f992c3e6db72bce98035", "type": "electric_scooter", "lon": -77.02195583333334, "rental_uris": {"android": "https://dc.lft.to/lastmile_qr_scan", "ios": "https://dc.lft.to/lastmile_qr_scan"}, "lat": 38.911387500000004, "is_reserved": 0, "is_disabled": 0, "fusion_lat": 0.0}, {"fusion_lon": 0.0, "bike_id": "a0823eceba7cc5274df89ebbdc4c4366", "name": "a0823eceba7cc5274df89ebbdc4c4366", "type": "electric_scooter", "lon": -77.0258895, "rental_uris": {"android": "https://dc.lft.to/lastmile_qr_scan", "ios": "https://dc.lft.to/lastmile_qr_scan"},