{"data": {"bikes": [{"type": "electric_scooter", "name": "0bfc44f40598312a5ca594de051819a8", "fusion_lat": 0.0, "fusion_lon": 0.0, "lon": -77.04778833333333, "is_disabled": 0, "bike_id": "0bfc44f40598312a5ca594de051819a8", "is_reserved": 0, "rental_uris": {"android": "https://dc.lft.to/lastmile_qr_scan", "ios": "https://dc.lft.to/lastmile_qr_scan"}, "lat": 38.908654166666665}, {"type": "electric_scooter", "name": "270937d86120bfaee92ba7c446ee5563", "fusion_lat": 0.0, "fusion_lon": 0.0, "lon": -77.03776433333333, "is_disabled": 0, "bike_id": "270937d86120bfaee92ba7c446ee5563", "is_reserved": 0, "rental_uris": {"android": "https://dc.lft.to/lastmile_qr_scan", "ios": "https://dc.lft.to/lastmile_qr_scan"}, "lat": 38.90218616666667}, {"type": "electric_scooter", "name": "6a9fb11e20d8664c5e7f3312c674c6cd", "fusion_lat": 0.0, "fusion_lon": 0.0, "lon": -77.01706333333334, "is_disabled": 0, "bike_id": "6a9fb11e20d8664c5e7f3312c674c6cd", "is_reserved": 0, "rental_uris": {"android": "https://dc.lft.to/lastmile_qr_scan", "ios": "https://dc.lft.to/lastmile_qr_scan"}, "lat": 38.8730405}, {"type": "electric_scooter", "name": "4f7fec488d6562b58b791943499bea78", "fusion_lat": 0.0, "fusion_lon": 0.0, "lon": -77.01758883333333, "is_disabled": 0, "bike_id": "4f7fec488d6562b58b791943499bea78", "is_reserved": 0, "rental_uris": {"android": "https://dc.lft.to/lastmile_qr_scan", "ios": "https://dc.lft.to/lastmile_qr_scan"}, "lat": 38.876870833333335}, {"type": "electric_scooter", "name": "aa9a1ecf10c20fe949e5c3766e5f093a", "fusion_lat": 0.0, "fusion_lon": 0.0, "lon": -77.03930983333333, "is_disabled": 0, "bike_id": "aa9a1ecf10c20fe949e5c3766e5f093a", "is_reserved": 0, "rental_uris": {"android": "https://dc.lft.to/lastmile_qr_scan", "ios": "https://dc.lft.to/lastmile_qr_scan"}, "lat": 38.92102033333333}, {"type": "electric_scooter", "name": "b804e43ec5ef7a9e81b919e75ff47893", "fusion_lat": 0.0, "fusion_lon": 0.0, "lon": -77.03611616666667, "is_disabled": 0, "bike_id": "b804e43ec5ef7a9e81b919e75ff47893", "is_reserved": 0, "rental_uris": {"android": "https://dc.lft.to/lastmile_qr_scan", "ios": "https://dc.lft.to/lastmile_qr_scan"}, "lat": 38.904017}, {"type": "electric_scooter", "name": "dfa3e86820b47cb371073ec87cd252ff", "fusion_lat": 0.0, "fusion_lon": 0.0, "lon": -76.92628, "is_disabled": 0, "bike_id": "dfa3e86820b47cb371073ec87cd252ff", "is_reserved": 0, "rental_uris": {"android": "https://dc.lft.to/lastmile_qr_scan", "ios": "https://dc.lft.to/lastmile_qr_scan"}, "lat": 38.88378083333333}, {"type": "electric_scooter", "name": "bf1285883d1011711801adf8e9b5aa89", "fusion_lat": 0.0, "fusion_lon": 0.0, "lon": -77.03383833333334, "is_disabled": 0, "bike_id": "bf1285883d1011711801adf8e9b5aa89", "is_reserved": 0, "rental_uris": {"android": "https://dc.lft.to/lastmile_qr_scan", "ios": "https://dc.lft.to/lastmile_qr_scan"}, "lat": 38.90980366666667}, {"type": "electric_scooter", "name": "7657aa3e9ada37df06438e1a914f3e90", "fusion_lat": 0.0, "fusion_lon": 0.0, "lon": -76.92505033333333, "is_disabled": 0, "bike_id": "7657aa3e9ada37df06438e1a914f3e90", "is_reserved": 0, "rental_uris": {"android": "https://dc.lft.to/lastmile_qr_scan", "ios": "https://dc.lft.to/lastmile_qr_scan"}, "lat": 38.88606083333333}, {"type": "electric_scooter", "name": "94a17547daec73a88642ebcf4b323eb6", "fusion_lat": 0.0, "fusion_lon": 0.0, "lon": -77.0363335, "is_disabled": 0, "bike_id": "94a17547daec73a88642ebcf4b323eb6", "is_reserved": 0, "rental_uris": {"android": "https://dc.lft.to/lastmile_qr_scan", "ios": "https://dc.lft.to/lastmile_qr_scan"}, "lat": 38.93316766666667}, {"type": "electric_scooter", "name": "ea0e9c18065aebba23e1a851b4ad5b6e", "fusion_lat": 0.0, "fusion_lon": 0.0, "lon": -76.982758, "is_disabled": 0, "bike_id": "ea0e9c18065aebba23e1a851b4ad5b6e", "is_reserved": 0, "rental_uris": {"android": "https://dc.lft.to/lastmile_qr_scan", "ios": "https://dc.lft.to/lastmile_qr_scan"}, "lat": 38.90350216666667}, {"type": "electric_scooter", "name": "f315fc208508ebedcaea2a9c9ad1b036", "fusion_lat": 0.0, "fusion_lon": 0.0, "lon": -77.00729866666667, "is_disabled": 0, "bike_id": "f315fc208508ebedcaea2a9c9ad1b036", "is_reserved": 0, "rental_uris": {"android": "https://dc.lft.to/lastmile_qr_scan", "ios": "https://dc.lft.to/lastmile_qr_scan"}, "lat": 38.911932666666665}, {"type": "electric_scooter", "name": "e058b82425bf59a30024b79db3c491c1", "fusion_lat": 0.0, "fusion_lon": 0.0, "lon": -77.0010805, "is_disabled": 0, "bike_id": "e058b82425bf59a30024b79db3c491c1", "is_reserved": 0, "rental_uris": {"android": "https://dc.lft.to/lastmile_qr_scan", "ios": "https://dc.lft.to/lastmile_qr_scan"}, "lat": 38.900212}, {"type": "electric_scooter", "name": "c454268326104317f93e21d7f3b81d62", "fusion_lat": 0.0, "fusion_lon": 0.0, "lon": -77.0200265, "is_disabled": 0, "bike_id": "c454268326104317f93e21d7f3b81d62", "is_reserved": 0, "rental_uris": {"android": "https://dc.lft.to/lastmile_qr_scan", "ios": "https://dc.lft.to/lastmile_qr_scan"}, "lat": 38.91500216666667}, {"type": "electric_scooter", "name": "1b19cf3911932dbbaf2bbcdfdb29be29", "fusion_lat": 0.0, "fusion_lon": 0.0, "lon": -77.04827833333333, "is_disabled": 0, "bike_id": "1b19cf3911932dbbaf2bbcdfdb29be29", "is_reserved": 0, "rental_uris": {"android": "https://dc.lft.to/lastmile_qr_scan", "ios": "https://dc.lft.to/lastmile_qr_scan"}, "lat": 38.90956883333333}, {"type": "electric_scooter", "name": "498fc50aa58c750baa1ea0c9f16a6ceb", "fusion_lat": 0.0, "fusion_lon": 0.0, "lon": -77.02957433333333, "is_disabled": 0, "bike_id": "498fc50aa58c750baa1ea0c9f16a6ceb", "is_reserved": 0, "rental_uris": {"android": "https://dc.lft.to/lastmile_qr_scan", "ios": "https://dc.lft.to/lastmile_qr_scan"}, "lat": 38.897592}, {"type": "electric_scooter", "name": "e4ff3306b1ed30f7c5c238851eeeb2a9", "fusion_lat": 0.0, "fusion_lon": 0.0, "lon": -77.03442383333334, "is_disabled": 0, "bike_id": "e4ff3306b1ed30f7c5c238851eeeb2a9", "is_reserved": 0, "rental_uris": {"android": "https://dc.lft.to/lastmile_qr_scan", "ios": "https://dc.lft.to/lastmile_qr_scan"}, "lat": 38.913948833333336}, {"type": "electric_scooter", "name": "ee043d1e42c0715f6794823f195f1971", "fusion_lat": 0.0, "fusion_lon": 0.0, "lon": -77.02201066666667, "is_disabled": 0, "bike_id": "ee043d1e42c0715f6794823f195f1971", "is_reserved": 0, "rental_uris": {"android": "https://dc.lft.to/lastmile_qr_scan", "ios": "https://dc.lft.to/lastmile_qr_scan"}, "lat": 38.89559716666667}, {"type": "electric_scooter", "name": "aaa034b129299d45cb4951a22e0ef9cd", "fusion_lat": 0.0, "fusion_lon": 0.0, "lon": -77.02837966666667, "is_disabled": 0, "bike_id": "aaa034b129299d45cb4951a22e0ef9cd", "is_reserved": 0, "rental_uris": {"android": "https://dc.lft.to/lastmile_qr_scan", "ios": "https://dc.lft.to/lastmile_qr_scan"}, "lat": 38.917506833333334}, {"type": "electric_scooter", "name": "65faaf66010d12db49f8b1360c376623", "fusion_lat": 0.0, "fusion_lon": 0.0, "lon": -77.02938516666667, "is_disabled": 0, "bike_id": "65faaf66010d12db49f8b1360c376623", "is_reserved": 0, "rental_uris": {"android": "https://dc.lft.to/lastmile_qr_scan", "ios": "https://dc.lft.to/lastmile_qr_scan"}, "lat": 38.9071845}, {"type": "electric_scooter", "name": "39761888baf2673703ea1aed3693637c", "fusion_lat": 0.0, "fusion_lon": 0.0, "lon": -77.034295, "is_disabled": 0, "bike_id": "39761888baf2673703ea1aed3693637c", "is_reserved": 0, "rental_uris": {"android": "https://dc.lft.to/lastmile_qr_scan", "ios": "https://dc.lft.to/lastmile_qr_scan"}, "lat": 38.909719333333335}, {"type": "electric_scooter", "name": "94efaa6750bee534c3874a7120a30909", "fusion_lat": 0.0, "fusion_lon": 0.0, "lon": -77.07311833333333, "is_disabled": 0, "bike_id": "94efaa6750bee534c3874a7120a30909", "is_reserved": 0, "rental_uris": {"android": "https://dc.lft.to/lastmile_qr_scan", "ios": "https://dc.lft.to/lastmile_qr_scan"}, "lat": 38.921946166666665}, {"type": "electric_scooter", "name": "e934b1a0d94729ca04d738516dd9eda3", "fusion_lat": 0.0, "fusion_lon": 0.0, "lon": -77.04226083333333, "is_disabled": 0, "bike_id": "e934b1a0d94729ca04d738516dd9eda3", "is_reserved": 0, "rental_uris": {"android": "https://dc.lft.to/lastmile_qr_scan", "ios": "https://dc.lft.to/lastmile_qr_scan"}, "lat": 38.922846666666665}, {"type": "electric_bike", "name": "a09fcee766ea72d952fcbc808ea8470f", "fusion_lat": 0.0, "fusion_lon": 0.0, "lon": -77.07750483333334, "is_disabled": 0, "bike_id": "a09fcee766ea72d952fcbc808ea8470f", "is_reserved": 0, "rental_uris": {"android": "https://dc.lft.to/lastmile_qr_scan", "ios": "https://dc.lft.to/lastmile_qr_scan"}, "lat": 38.842011}, {"type": "electric_scooter", "name": "b3478226da546cb88570ba4911530e50", "fusion_lat": 0.0, "fusion_lon": 0.0, "lon": -77.01810983333333, "is_disabled": 0, "bike_id": "b3478226da546cb88570ba4911530e50", "is_reserved": 0, "rental_uris": {"android": "https://dc.lft.to/lastmile_qr_scan", "ios": "https://dc.lft.to/lastmile_qr_scan"}, "lat": 38.9202575}, {"type": "electric_scooter", "name": "766842bbc40f4c5050a5f59e1764e8f6", "fusion_lat": 0.0, "fusion_lon": 0.0, "lon": -76.983718, "is_disabled": 0, "bike_id": "766842bbc40f4c5050a5f59e1764e8f6", "is_reserved": 0, "rental_uris": {"android": "https://dc.lft.to/lastmile_qr_scan", "ios": "https://dc.lft.to/lastmile_qr_scan"}, "lat": 38.8926605}, {"type": "electric_scooter", "name": "bda75da3e68b84d95339c5bedfae8ce0", "fusion_lat": 0.0, "fusion_lon": 0.0, "lon": -77.029781, "is_disabled": 0, "bike_id": "bda75da3e68b84d95339c5bedfae8ce0", "is_reserved": 0, "rental_uris": {"android": "https://dc.lft.to/lastmile_qr_scan", "ios": "https://dc.lft.to/lastmile_qr_scan"}, "lat": 38.9245065}, {"type": "electric_scooter", "name": "cca067914475e4df7f3b3dbf060f3451", "fusion_lat": 0.0, "fusion_lon": 0.0, "lon": -77.012692, "is_disabled": 0, "bike_id": "cca067914475e4df7f3b3dbf060f3451", "is_reserved": 0, "rental_uris": {"android": "https://dc.lft.to/lastmile_qr_scan", "ios": "https://dc.lft.to/lastmile_qr_scan"}, "lat": 38.914184666666664}, {"type": "electric_scooter", "name": "004c11d54187031d70e7d9fdf6729f66", "fusion_lat": 0.0, "fusion_lon": 0.0, "lon": -77.04249566666667, "is_disabled": 0, "bike_id": "004c11d54187031d70e7d9fdf6729f66", "is_reserved": 0, "rental_uris": {"android": "https://dc.lft.to/lastmile_qr_scan", "ios": "https://dc.lft.to/lastmile_qr_scan"}, "lat": 38.903505}, {"type": "electric_scooter", "name": "60bd06bf8687e35ccdbd2c06c7044e74", "fusion_lat": 0.0, "fusion_lon": 0.0, "lon": -77.022048, "is_disabled": 0, "bike_id": "60bd06bf8687e35ccdbd2c06c7044e74", "is_reserved": 0, "rental_uris": {"android": "https://dc.lft.to/lastmile_qr_scan", "ios": "https://dc.lft.to/lastmile_qr_scan"}, "lat": 38.899884}, {"type": "electric_scooter", "name": "83076fb8b1ed489eebde74755e209305", "fusion_lat": 0.0, "fusion_lon": 0.0, "lon": -76.95744383333333, "is_disabled": 0, "bike_id": "83076fb8b1ed489eebde74755e209305", "is_reserved": 0, "rental_uris": {"android": "https://dc.lft.to/lastmile_qr_scan", "ios": "https://dc.lft.to/lastmile_qr_scan"}, "lat": 38.883928833333336}, {"type": "electric_scooter", "name": "228022977f2797df5d87acd0164425c9", "fusion_lat": 0.0, "fusion_lon": 0.0, "lon": -76.9885985, "is_disabled": 0, "bike_id": "228022977f2797df5d87acd0164425c9", "is_reserved": 0, "rental_uris": {"android": "https://dc.lft.to/lastmile_qr_scan", "ios": "https://dc.lft.to/lastmile_qr_scan"}, "lat": 38.90028783333333}, {"type": "electric_scooter", "name": "21dfb648755aed5c3795e688db886611", "fusion_lat": 0.0, "fusion_lon": 0.0, "lon": -77.02668666666666, "is_disabled": 0, "bike_id": "21dfb648755aed5c3795e688db886611", "is_reserved": 0, "rental_uris": {"android": "https://dc.lft.to/lastmile_qr_scan", "ios": "https://dc.lft.to/lastmile_qr_scan"}, "lat": 38.9218685}, {"type": "electric_scooter", "name": "0adce939db0b8b86472fc798a8522a53", "fusion_lat": 0.0, "fusion_lon": 0.0, "lon": -77.0337835, "is_disabled": 0, "bike_id": "0adce939db0b8b86472fc798a8522a53", "is_reserved": 0, "rental_uris": {"android": "https://dc.lft.to/lastmile_qr_scan", "ios": "https://dc.lft.to/lastmile_qr_scan"}, "lat": 38.92466533333333}, {"type": "electric_bike", "name": "42689f7fbb4312b70f299c74540c6f0d", "fusion_lat": 0.0, "fusion_lon": 0.0, "lon": -76.9968125, "is_disabled": 0, "bike_id": "42689f7fbb4312b70f299c74540c6f0d", "is_reserved": 0, "rental_uris": {"android": "https://dc.lft.to/lastmile_qr_scan", "ios": "https://dc.lft.to/lastmile_qr_scan"}, "lat": 38.8381845}, {"type": "electric_scooter", "name": "b40f34a35ac384637c12470598d82001", "fusion_lat": 0.0, "fusion_lon": 0.0, "lon": -77.06848033333333, "is_disabled": 0, "bike_id": "b40f34a35ac384637c12470598d82001", "is_reserved": 0, "rental_uris": {"android": "https://dc.lft.to/lastmile_qr_scan", "ios": "https://dc.lft.to/lastmile_qr_scan"}, "lat": 38.903997333333336}, {"type": "electric_scooter", "name": "5489738e8793ea567e84eedbebb474d3", "fusion_lat": 0.0, "fusion_lon": 0.0, "lon": -77.06037116666667, "is_disabled": 0, "bike_id": "5489738e8793ea567e84eedbebb474d3", "is_reserved": 0, "rental_uris": {"android": "https://dc.lft.to/lastmile_qr_scan", "ios": "https://dc.lft.to/lastmile_qr_scan"}, "lat": 38.902228666666666}, {"type": "electric_scooter", "name": "f48994f54b45d8cebcf9faa02b529d60", "fusion_lat": 0.0, "fusion_lon": 0.0, "lon": -77.000494, "is_disabled": 0, "bike_id": "f48994f54b45d8cebcf9faa02b529d60", "is_reserved": 0, "rental_uris": {"android": "https://dc.lft.to/lastmile_qr_scan", "ios": "https://dc.lft.to/lastmile_qr_scan"}, "lat": 38.875025666666666}, {"type": "electric_scooter", "name": "86484febc9c2d5ef08564ff449c77fe8", "fusion_lat": 0.0, "fusion_lon": 0.0, "lon": -77.03515733333333, "is_disabled": 0, "bike_id": "86484febc9c2d5ef08564ff449c77fe8", "is_reserved": 0, "rental_uris": {"android": "https://dc.lft.to/lastmile_qr_scan", "ios": "https://dc.lft.to/lastmile_qr_scan"}, "lat": 38.922121833333335}, {"type": "electric_scooter", "name": "d51563193d206f103049c8ddbb985b59", "fusion_lat": 0.0, "fusion_lon": 0.0, "lon": -76.988531, "is_disabled": 0, "bike_id": "d51563193d206f103049c8ddbb985b59", "is_reserved": 0, "rental_uris": {"android": "https://dc.lft.to/lastmile_qr_scan", "ios": "https://dc.lft.to/lastmile_qr_scan"}, "lat": 38.84432533333333}, {"type": "electric_scooter", "name": "5a6be827faab16469e752b8259ae3e16", "fusion_lat": 0.0, "fusion_lon": 0.0, "lon": -77.02387233333333, "is_disabled": 0, "bike_id": "5a6be827faab16469e752b8259ae3e16", "is_reserved": 0, "rental_uris": {"android": "https://dc.lft.to/lastmile_qr_scan", "ios": "https://dc.lft.to/lastmile_qr_scan"}, "lat": 38.9070495}, {"type": "electric_scooter", "name": "0a5db2d1d58d183991ea1a6fbcd64d02", "fusion_lat": 0.0, "fusion_lon": 0.0, "lon": -77.0175475, "is_disabled": 0, "bike_id": "0a5db2d1d58d183991ea1a6fbcd64d02", "is_reserved": 0, "rental_uris": {"android": "https://dc.lft.to/lastmile_qr_scan", "ios": "https://dc.lft.to/lastmile_qr_scan"}, "lat": 38.9027075}, {"type": "electric_bike", "name": "8234b38efd7acae8ec8c0d50cfddac47", "fusion_lat": 0.0, "fusion_lon": 0.0, "lon": -77.01229116666667, "is_disabled": 0, "bike_id": "8234b38efd7acae8ec8c0d50cfddac47", "is_reserved": 0, "rental_uris": {"android": "https://dc.lft.to/lastmile_qr_scan", "ios": "https://dc.lft.to/lastmile_qr_scan"}, "lat": 38.9507975}, {"type": "electric_scooter", "name": "c042964429c8fd4924c10e0a60715434", "fusion_lat": 0.0, "fusion_lon": 0.0, "lon": -77.01561183333334, "is_disabled": 0, "bike_id": "c042964429c8fd4924c10e0a60715434", "is_reserved": 0, "rental_uris": {"android": "https://dc.lft.to/lastmile_qr_scan", "ios": "https://dc.lft.to/lastmile_qr_scan"}, "lat": 38.88502666666667}, {"type": "electric_scooter", "name": "e4c69cb6b90265e231b3a8873ac1e47d", "fusion_lat": 0.0, "fusion_lon": 0.0, "lon": -77.04590633333333, "is_disabled": 0, "bike_id": "e4c69cb6b90265e231b3a8873ac1e47d", "is_reserved": 0, "rental_uris": {"android": "https://dc.lft.to/lastmile_qr_scan", "ios": "https://dc.lft.to/lastmile_qr_scan"}, "lat": 38.914565833333334}, {"type": "electric_bike", "name": "ca887456fc8f99c18a6d8e97dad438da", "fusion_lat": 0.0, "fusion_lon": 0.0, "lon": -77.079739, "is_disabled": 0, "bike_id": "ca887456fc8f99c18a6d8e97dad438da", "is_reserved": 0, "rental_uris": {"android": "https://dc.lft.to/lastmile_qr_scan", "ios": "https://dc.lft.to/lastmile_qr_scan"}, "lat": 38.919524333333335}, {"type": "electric_scooter", "name": "af0fc2ebff1d9aa6f54d81e8ec10b337", "fusion_lat": 0.0, "fusion_lon": 0.0, "lon": -77.01792016666667, "is_disabled": 0, "bike_id": "af0fc2ebff1d9aa6f54d81e8ec10b337", "is_reserved": 0, "rental_uris": {"android": "https://dc.lft.to/lastmile_qr_scan", "ios": "https://dc.lft.to/lastmile_qr_scan"}, "lat": 38.87679383333333}, {"type": "electric_scooter", "name": "ab3141dac4b40c9c2c49f3344f4a63e3", "fusion_lat": 0.0, "fusion_lon": 0.0, "lon": -77.02409416666667, "is_disabled": 0, "bike_id": "ab3141dac4b40c9c2c49f3344f4a63e3", "is_reserved": 0, "rental_uris": {"android": "https://dc.lft.to/lastmile_qr_scan", "ios": "https://dc.lft.to/lastmile_qr_scan"}, "lat": 38.93819383333334}, {"type": "electric_bike", "name": "b15e46499c945985f3f875eb20ae229c", "fusion_lat": 0.0, "fusion_lon": 0.0, "lon": -76.996934, "is_disabled": 0, "bike_id": "b15e46499c945985f3f875eb20ae229c", "is_reserved": 0, "rental_uris": {"android": "https://dc.lft.to/lastmile_qr_scan", "ios": "https://dc.lft.to/lastmile_qr_scan"}, "lat": 38.838629}, {"type": "electric_scooter", "name": "33b15b150e3b006ac3b1a89580ddac7b", "fusion_lat": 0.0, "fusion_lon": 0.0, "lon": -77.04175083333334, "is_disabled": 0, "bike_id": "33b15b150e3b006ac3b1a89580ddac7b", "is_reserved": 0, "rental_uris": {"android": "https://dc.lft.to/lastmile_qr_scan", "ios": "https://dc.lft.to/lastmile_qr_scan"}, "lat": 38.918212833333335}, {"type": "electric_scooter", "name": "8061d477e6fc882acc2dea259f7485e6", "fusion_lat": 0.0, "fusion_lon": 0.0, "lon": -77.00540066666667, "is_disabled": 0, "bike_id": "8061d477e6fc882acc2dea259f7485e6", "is_reserved": 0, "rental_uris": {"android": "https://dc.lft.to/lastmile_qr_scan", "ios": "https://dc.lft.to/lastmile_qr_scan"}, "lat": 38.874736166666665}, {"type": "electric_scooter", "name": "2cda529dfdd34972ae061ebd87eeda86", "fusion_lat": 0.0, "fusion_lon": 0.0, "lon": -76.99295966666666, "is_disabled": 0, "bike_id": "2cda529dfdd34972ae061ebd87eeda86", "is_reserved": 0, "rental_uris": {"android": "https://dc.lft.to/lastmile_qr_scan", "ios": "https://dc.lft.to/lastmile_qr_scan"}, "lat": 38.88127383333333}, {"type": "electric_scooter", "name": "169b24332dfa069be8ad5728cb68a205", "fusion_lat": 0.0, "fusion_lon": 0.0, "lon": -77.04036916666666, "is_disabled": 0, "bike_id": "169b24332dfa069be8ad5728cb68a205", "is_reserved": 0, "rental_uris": {"android": "https://dc.lft.to/lastmile_qr_scan", "ios": "https://dc.lft.to/lastmile_qr_scan"}, "lat": 38.911845}, {"type": "electric_scooter", "name": "5fdab2241a91f2b4387ddeac2c89e27d", "fusion_lat": 0.0, "fusion_lon": 0.0, "lon": -77.02472766666666, "is_disabled": 0, "bike_id": "5fdab2241a91f2b4387ddeac2c89e27d", "is_reserved": 0, "rental_uris": {"android": "https://dc.lft.to/lastmile_qr_scan", "ios": "https://dc.lft.to/lastmile_qr_scan"}, "lat": 38.93856266666667}, {"type": "electric_scooter", "name": "72458387a0bbe063c960687fd4016d2d", "fusion_lat": 0.0, "fusion_lon": 0.0, "lon": -77.028655, "is_disabled": 0, "bike_id": "72458387a0bbe063c960687fd4016d2d", "is_reserved": 0, "rental_uris": {"android": "https://dc.lft.to/lastmile_qr_scan", "ios": "https://dc.lft.to/lastmile_qr_scan"}, "lat": 38.9136205}, {"type": "electric_scooter", "name": "19be4829b48c2977217f9889a5863085", "fusion_lat": 0.0, "fusion_lon": 0.0, "lon": -77.052033, "is_disabled": 0, "bike_id": "19be4829b48c2977217f9889a5863085", "is_reserved": 0, "rental_uris": {"android": "https://dc.lft.to/lastmile_qr_scan", "ios": "https://dc.lft.to/lastmile_qr_scan"}, "lat": 38.92462283333333}, {"type": "electric_scooter", "name": "475a0ac06752abeccba467ce7cf6f8c3", "fusion_lat": 0.0, "fusion_lon": 0.0, "lon": -77.0240295, "is_disabled": 0, "bike_id": "475a0ac06752abeccba467ce7cf6f8c3", "is_reserved": 0, "rental_uris": {"android": "https://dc.lft.to/lastmile_qr_scan", "ios": "https://dc.lft.to/lastmile_qr_scan"}, "lat": 38.92087166666666}, {"type": "electric_scooter", "name": "96814d97a534078145ebcf005bc91919", "fusion_lat": 0.0, "fusion_lon": 0.0, "lon": -77.02628516666667, "is_disabled": 0, "bike_id": "96814d97a534078145ebcf005bc91919", "is_reserved": 0, "rental_uris": {"android": "https://dc.lft.to/lastmile_qr_scan", "ios": "https://dc.lft.to/lastmile_qr_scan"}, "lat": 38.93866516666667}, {"type": "electric_scooter", "name": "aa3aabbfeaaf4240659ecaca9a668da2", "fusion_lat": 0.0, "fusion_lon": 0.0, "lon": -76.99766316666667, "is_disabled": 0, "bike_id": "aa3aabbfeaaf4240659ecaca9a668da2", "is_reserved": 0, "rental_uris": {"android": "https://dc.lft.to/lastmile_qr_scan", "ios": "https://dc.lft.to/lastmile_qr_scan"}, "lat": 38.91131516666667}, {"type": "electric_scooter", "name": "7a8ee1124d8f4317aad477aae8e6a2fb", "fusion_lat": 0.0, "fusion_lon": 0.0, "lon": -77.0462655, "is_disabled": 0, "bike_id": "7a8ee1124d8f4317aad477aae8e6a2fb", "is_reserved": 0, "rental_uris": {"android": "https://dc.lft.to/lastmile_qr_scan", "ios": "https://dc.lft.to/lastmile_qr_scan"}, "lat": 38.906915166666664}, {"type": "electric_scooter", "name": "e2ae67b5b971ad12f65b60ab0b28f2d3", "fusion_lat": 0.0, "fusion_lon": 0.0, "lon": -77.00055316666666, "is_disabled": 0, "bike_id": "e2ae67b5b971ad12f65b60ab0b28f2d3", "is_reserved": 0, "rental_uris": {"android": "https://dc.lft.to/lastmile_qr_scan", "ios": "https://dc.lft.to/lastmile_qr_scan"}, "lat": 38.8788115}, {"type": "electric_scooter", "name": "ec8ce1d14173bfdbe3449bade9d70b0e", "fusion_lat": 0.0, "fusion_lon": 0.0, "lon": -77.00198433333334, "is_disabled": 0, "bike_id": "ec8ce1d14173bfdbe3449bade9d70b0e", "is_reserved": 0, "rental_uris": {"android": "https://dc.lft.to/lastmile_qr_scan", "ios": "https://dc.lft.to/lastmile_qr_scan"}, "lat": 38.902342166666664}, {"type": "electric_scooter", "name": "620be72e03f1f48378cc16f5a7b7815b", "fusion_lat": 0.0, "fusion_lon": 0.0, "lon": -77.02100733333333, "is_disabled": 0, "bike_id": "620be72e03f1f48378cc16f5a7b7815b", "is_reserved": 0, "rental_uris": {"android": "https://dc.lft.to/lastmile_qr_scan", "ios": "https://dc.lft.to/lastmile_qr_scan"}, "lat": 38.896084333333334}, {"type": "electric_scooter", "name": "722050d708ff69f55bba01dcc215197d", "fusion_lat": 0.0, "fusion_lon": 0.0, "lon": -77.05334466666666, "is_disabled": 0, "bike_id": "722050d708ff69f55bba01dcc215197d", "is_reserved": 0, "rental_uris": {"android": "https://dc.lft.to/lastmile_qr_scan", "ios": "https://dc.lft.to/lastmile_qr_scan"}, "lat": 38.904504833333334}, {"type": "electric_scooter", "name": "8fb0863818eebc1e5b72b56c486b9ffe", "fusion_lat": 0.0, "fusion_lon": 0.0, "lon": -77.0458115, "is_disabled": 0, "bike_id": "8fb0863818eebc1e5b72b56c486b9ffe", "is_reserved": 0, "rental_uris": {"android": "https://dc.lft.to/lastmile_qr_scan", "ios": "https://dc.lft.to/lastmile_qr_scan"}, "lat": 38.903716833333334}, {"type": "electric_scooter", "name": "c0ebcb494288ca3826da066900b75e05", "fusion_lat": 0.0, "fusion_lon": 0.0, "lon": -77.0242925, "is_disabled": 0, "bike_id": "c0ebcb494288ca3826da066900b75e05", "is_reserved": 0, "rental_uris": {"android": "https://dc.lft.to/lastmile_qr_scan", "ios": "https://dc.lft.to/lastmile_qr_scan"}, "lat": 38.9155415}, {"type": "electric_scooter", "name": "9966cb92c205c49651bedfef5c1ff415", "fusion_lat": 0.0, "fusion_lon": 0.0, "lon": -77.0282245, "is_disabled": 0, "bike_id": "9966cb92c205c49651bedfef5c1ff415", "is_reserved": 0, "rental_uris": {"android": "https://dc.lft.to/lastmile_qr_scan", "ios": "https://dc.lft.to/lastmile_qr_scan"}, "lat": 38.929725166666664}, {"type": "electric_scooter", "name": "b6abcc5493d4c691a752c8f179934fdf", "fusion_lat": 0.0, "fusion_lon": 0.0, "lon": -77.00298133333334, "is_disabled": 0, "bike_id": "b6abcc5493d4c691a752c8f179934fdf", "is_reserved": 0, "rental_uris": {"android": "https://dc.lft.to/lastmile_qr_scan", "ios": "https://dc.lft.to/lastmile_qr_scan"}, "lat": 38.90571766666667}, {"type": "electric_scooter", "name": "63d087deab90b3e7486ef150a9fd23ab", "fusion_lat": 0.0, "fusion_lon": 0.0, "lon": -76.99871483333334, "is_disabled": 0, "bike_id": "63d087deab90b3e7486ef150a9fd23ab", "is_reserved": 0, "rental_uris": {"android": "https://dc.lft.to/lastmile_qr_scan", "ios": "https://dc.lft.to/lastmile_qr_scan"}, "lat": 38.90031066666667}, {"type": "electric_bike", "name": "c2b165b939077f44d4a35f7a1400884c", "fusion_lat": 0.0, "fusion_lon": 0.0, "lon": -77.04993066666667, "is_disabled": 0, "bike_id": "c2b165b939077f44d4a35f7a1400884c", "is_reserved": 0, "rental_uris": {"android": "https://dc.lft.to/lastmile_qr_scan", "ios": "https://dc.lft.to/lastmile_qr_scan"}, "lat": 38.805302833333336}, {"type": "electric_scooter", "name": "a0ef554597dd1530723861751dc0a04e", "fusion_lat": 0.0, "fusion_lon": 0.0, "lon": -77.04908083333333, "is_disabled": 0, "bike_id": "a0ef554597dd1530723861751dc0a04e", "is_reserved": 0, "rental_uris": {"android": "https://dc.lft.to/lastmile_qr_scan", "ios": "https://dc.lft.to/lastmile_qr_scan"}, "lat": 38.897357}, {"type": "electric_scooter", "name": "926f3b6965ed0dbc464b64bf2ad0ef77", "fusion_lat": 0.0, "fusion_lon": 0.0, "lon": -76.99854083333334, "is_disabled": 0, "bike_id": "926f3b6965ed0dbc464b64bf2ad0ef77", "is_reserved": 0, "rental_uris": {"android": "https://dc.lft.to/lastmile_qr_scan", "ios": "https://dc.lft.to/lastmile_qr_scan"}, "lat": 38.891945166666666}, {"type": "electric_bike", "name": "be6cc127c797be075ead6d7e2480d4f1", "fusion_lat": 0.0, "fusion_lon": 0.0, "lon": -77.05271666666667, "is_disabled": 0, "bike_id": "be6cc127c797be075ead6d7e2480d4f1", "is_reserved": 0, "rental_uris": {"android": "https://dc.lft.to/lastmile_qr_scan", "ios": "https://dc.lft.to/lastmile_qr_scan"}, "lat": 38.94092}, {"type": "electric_scooter", "name": "04fac597aca7883b05887eb3d7f7ed3d", "fusion_lat": 0.0, "fusion_lon": 0.0, "lon": -77.02835116666667, "is_disabled": 0, "bike_id": "04fac597aca7883b05887eb3d7f7ed3d", "is_reserved": 0, "rental_uris": {"android": "https://dc.lft.to/lastmile_qr_scan", "ios": "https://dc.lft.to/lastmile_qr_scan"}, "lat": 38.887432833333335}, {"type": "electric_scooter", "name": "e5d8deb4a4a3cd76a65a348004f47633", "fusion_lat": 0.0, "fusion_lon": 0.0, "lon": -77.03959916666666, "is_disabled": 0, "bike_id": "e5d8deb4a4a3cd76a65a348004f47633", "is_reserved": 0, "rental_uris": {"android": "https://dc.lft.to/lastmile_qr_scan", "ios": "https://dc.lft.to/lastmile_qr_scan"}, "lat": 38.901507333333335}, {"type": "electric_scooter", "name": "ca9d3daa837a00073b474b318c3fba59", "fusion_lat": 0.0, "fusion_lon": 0.0, "lon": -77.03627533333334, "is_disabled": 0, "bike_id": "ca9d3daa837a00073b474b318c3fba59", "is_reserved": 0, "rental_uris": {"android": "https://dc.lft.to/lastmile_qr_scan", "ios": "https://dc.lft.to/lastmile_qr_scan"}, "lat": 38.936886666666666}, {"type": "electric_scooter", "name": "b33367a1e7a52c85664c5980de6bf617", "fusion_lat": 0.0, "fusion_lon": 0.0, "lon": -77.02957116666667, "is_disabled": 0, "bike_id": "b33367a1e7a52c85664c5980de6bf617", "is_reserved": 0, "rental_uris": {"android": "https://dc.lft.to/lastmile_qr_scan", "ios": "https://dc.lft.to/lastmile_qr_scan"}, "lat": 38.91681916666667}, {"type": "electric_scooter", "name": "dd221bcf9dccab85b68c9ec0fdd3ec5f", "fusion_lat": 0.0, "fusion_lon": 0.0, "lon": -77.06562833333334, "is_disabled": 0, "bike_id": "dd221bcf9dccab85b68c9ec0fdd3ec5f", "is_reserved": 0, "rental_uris": {"android": "https://dc.lft.to/lastmile_qr_scan", "ios": "https://dc.lft.to/lastmile_qr_scan"}, "lat": 38.88335283333333}, {"type": "electric_scooter", "name": "ec43dfaa5de54f5c700b8253799b0bb6", "fusion_lat": 0.0, "fusion_lon": 0.0, "lon": -77.036309, "is_disabled": 0, "bike_id": "ec43dfaa5de54f5c700b8253799b0bb6", "is_reserved": 0, "rental_uris": {"android": "https://dc.lft.to/lastmile_qr_scan", "ios": "https://dc.lft.to/lastmile_qr_scan"}, "lat": 38.93683516666667}, {"type": "electric_scooter", "name": "4102eefb8951efc5fc4317007bd6748f", "fusion_lat": 0.0, "fusion_lon": 0.0, "lon": -76.99630266666667, "is_disabled": 0, "bike_id": "4102eefb8951efc5fc4317007bd6748f", "is_reserved": 0, "rental_uris": {"android": "https://dc.lft.to/lastmile_qr_scan", "ios": "https://dc.lft.to/lastmile_qr_scan"}, "lat": 38.87743833333333}, {"type": "electric_scooter", "name": "cb173d5809911d2298c99f725528c37a", "fusion_lat": 0.0, "fusion_lon": 0.0, "lon": -77.039967, "is_disabled": 0, "bike_id": "cb173d5809911d2298c99f725528c37a", "is_reserved": 0, "rental_uris": {"android": "https://dc.lft.to/lastmile_qr_scan", "ios": "https://dc.lft.to/lastmile_qr_scan"}, "lat": 38.898777833333334}, {"type": "electric_bike", "name": "f96c27c99e7e7c25a3bfcf360636d94e", "fusion_lat": 0.0, "fusion_lon": 0.0, "lon": -77.00715466666666, "is_disabled": 0, "bike_id": "f96c27c99e7e7c25a3bfcf360636d94e", "is_reserved": 0, "rental_uris": {"android": "https://dc.lft.to/lastmile_qr_scan", "ios": "https://dc.lft.to/lastmile_qr_scan"}, "lat": 38.99506433333333}, {"type": "electric_scooter", "name": "4ea825f929d83cf7910f376381bd4e41", "fusion_lat": 0.0, "fusion_lon": 0.0, "lon": -77.03467533333334, "is_disabled": 0, "bike_id": "4ea825f929d83cf7910f376381bd4e41", "is_reserved": 0, "rental_uris": {"android": "https://dc.lft.to/lastmile_qr_scan", "ios": "https://dc.lft.to/lastmile_qr_scan"}, "lat": 38.905716166666664}, {"type": "electric_scooter", "name": "2f19f1142e34ef7ec9b024da65ec48fe", "fusion_lat": 0.0, "fusion_lon": 0.0, "lon": -77.02603983333333, "is_disabled": 0, "bike_id": "2f19f1142e34ef7ec9b024da65ec48fe", "is_reserved": 0, "rental_uris": {"android": "https://dc.lft.to/lastmile_qr_scan", "ios": "https://dc.lft.to/lastmile_qr_scan"}, "lat": 38.90489866666667}, {"type": "electric_scooter", "name": "19da11f35e48f37e10863cc7913cae82", "fusion_lat": 0.0, "fusion_lon": 0.0, "lon": -76.98384716666666, "is_disabled": 0, "bike_id": "19da11f35e48f37e10863cc7913cae82", "is_reserved": 0, "rental_uris": {"android": "https://dc.lft.to/lastmile_qr_scan", "ios": "https://dc.lft.to/lastmile_qr_scan"}, "lat": 38.87949666666667}, {"type": "electric_bike", "name": "3ef423d0b552b663da318637e60f99a5", "fusion_lat": 0.0, "fusion_lon": 0.0, "lon": -76.98143333333333, "is_disabled": 0, "bike_id": "3ef423d0b552b663da318637e60f99a5", "is_reserved": 0, "rental_uris": {"android": "https://dc.lft.to/lastmile_qr_scan", "ios": "https://dc.lft.to/lastmile_qr_scan"}, "lat": 38.93496733333333}, {"type": "electric_scooter", "name": "1efc321bb0202380c0e8e79f7c890695", "fusion_lat": 0.0, "fusion_lon": 0.0, "lon": -77.04539366666667, "is_disabled": 0, "bike_id": "1efc321bb0202380c0e8e79f7c890695", "is_reserved": 0, "rental_uris": {"android": "https://dc.lft.to/lastmile_qr_scan", "ios": "https://dc.lft.to/lastmile_qr_scan"}, "lat": 38.90078166666667}, {"type": "electric_scooter", "name": "24dc9350f1a47fc1881f80ecb4b069df", "fusion_lat": 0.0, "fusion_lon": 0.0, "lon": -77.02993116666667, "is_disabled": 0, "bike_id": "24dc9350f1a47fc1881f80ecb4b069df", "is_reserved": 0, "rental_uris": {"android": "https://dc.lft.to/lastmile_qr_scan", "ios": "https://dc.lft.to/lastmile_qr_scan"}, "lat": 38.916970666666664}, {"type": "electric_scooter", "name": "934d9decefcc19be4c82c8ddd98ffb33", "fusion_lat": 0.0, "fusion_lon": 0.0, "lon": -77.01609333333333, "is_disabled": 0, "bike_id": "934d9decefcc19be4c82c8ddd98ffb33", "is_reserved": 0, "rental_uris": {"android": "https://dc.lft.to/lastmile_qr_scan", "ios": "https://dc.lft.to/lastmile_qr_scan"}, "lat": 38.910754833333336}, {"type": "electric_scooter", "name": "4c1d5c971f1840ed18ddbe7bf4576bd3", "fusion_lat": 0.0, "fusion_lon": 0.0, "lon": -77.02401083333334, "is_disabled": 0, "bike_id": "4c1d5c971f1840ed18ddbe7bf4576bd3", "is_reserved": 0, "rental_uris": {"android": "https://dc.lft.to/lastmile_qr_scan", "ios": "https://dc.lft.to/lastmile_qr_scan"}, "lat": 38.917129}, {"type": "electric_scooter", "name": "fb840d40e06ea87f3d97f90c60781ae2", "fusion_lat": 0.0, "fusion_lon": 0.0, "lon": -77.00596333333333, "is_disabled": 0, "bike_id": "fb840d40e06ea87f3d97f90c60781ae2", "is_reserved": 0, "rental_uris": {"android": "https://dc.lft.to/lastmile_qr_scan", "ios": "https://dc.lft.to/lastmile_qr_scan"}, "lat": 38.90562416666667}, {"type": "electric_scooter", "name": "9d44e77f6721b3c01475d8dcdfea2f55", "fusion_lat": 0.0, "fusion_lon": 0.0, "lon": -77.0110065, "is_disabled": 0, "bike_id": "9d44e77f6721b3c01475d8dcdfea2f55", "is_reserved": 0, "rental_uris": {"android": "https://dc.lft.to/lastmile_qr_scan", "ios": "https://dc.lft.to/lastmile_qr_scan"}, "lat": 38.885427}, {"type": "electric_scooter", "name": "31225f08b2bc0ea3f3c006968184c197", "fusion_lat": 0.0, "fusion_lon": 0.0, "lon": -77.06981633333334, "is_disabled": 0, "bike_id": "31225f08b2bc0ea3f3c006968184c197", "is_reserved": 0, "rental_uris": {"android": "https://dc.lft.to/lastmile_qr_scan", "ios": "https://dc.lft.to/lastmile_qr_scan"}, "lat": 38.952241}, {"type": "electric_scooter", "name": "4c75d2d874b1b08b774aae0ee0650d7c", "fusion_lat": 0.0, "fusion_lon": 0.0, "lon": -77.0359125, "is_disabled": 0, "bike_id": "4c75d2d874b1b08b774aae0ee0650d7c", "is_reserved": 0, "rental_uris": {"android": "https://dc.lft.to/lastmile_qr_scan", "ios": "https://dc.lft.to/lastmile_qr_scan"}, "lat": 38.928597833333335}, {"type": "electric_scooter", "name": "3fb396b82cbe794d20289fb5921f241f", "fusion_lat": 0.0, "fusion_lon": 0.0, "lon": -77.04020633333333, "is_disabled": 0, "bike_id": "3fb396b82cbe794d20289fb5921f241f", "is_reserved": 0, "rental_uris": {"android": "https://dc.lft.to/lastmile_qr_scan", "ios": "https://dc.lft.to/lastmile_qr_scan"}, "lat": 38.8984065}, {"type": "electric_scooter", "name": "596105e9c6c8d0fcef46e3b79b505c78", "fusion_lat": 0.0, "fusion_lon": 0.0, "lon": -77.04487916666666, "is_disabled": 0, "bike_id": "596105e9c6c8d0fcef46e3b79b505c78", "is_reserved": 0, "rental_uris": {"android": "https://dc.lft.to/lastmile_qr_scan", "ios": "https://dc.lft.to/lastmile_qr_scan"}, "lat": 38.908585}, {"type": "electric_scooter", "name": "258bdb7d38f863df03427d3f4a2627af", "fusion_lat": 0.0, "fusion_lon": 0.0, "lon": -77.04994116666667, "is_disabled": 0, "bike_id": "258bdb7d38f863df03427d3f4a2627af", "is_reserved": 0, "rental_uris": {"android": "https://dc.lft.to/lastmile_qr_scan", "ios": "https://dc.lft.to/lastmile_qr_scan"}, "lat": 38.90121416666667}, {"type": "electric_bike", "name": "1692dc10d78531940fcfb5d0d319a677", "fusion_lat": 0.0, "fusion_lon": 0.0, "lon": -76.985408, "is_disabled": 0, "bike_id": "1692dc10d78531940fcfb5d0d319a677", "is_reserved": 0, "rental_uris": {"android": "https://dc.lft.to/lastmile_qr_scan", "ios": "https://dc.lft.to/lastmile_qr_scan"}, "lat": 38.892466166666665}, {"type": "electric_scooter", "name": "a0181a15bc6361f813936cc949ca42e0", "fusion_lat": 0.0, "fusion_lon": 0.0, "lon": -77.02806416666667, "is_disabled": 0, "bike_id": "a0181a15bc6361f813936cc949ca42e0", "is_reserved": 0, "rental_uris": {"android": "https://dc.lft.to/lastmile_qr_scan", "ios": "https://dc.lft.to/lastmile_qr_scan"}, "lat": 38.930833}, {"type": "electric_bike", "name": "bbf32022cda85bba342817b101cea938", "fusion_lat": 0.0, "fusion_lon": 0.0, "lon": -76.90738983333334, "is_disabled": 0, "bike_id": "bbf32022cda85bba342817b101cea938", "is_reserved": 0, "rental_uris": {"android": "https://dc.lft.to/lastmile_qr_scan", "ios": "https://dc.lft.to/lastmile_qr_scan"}, "lat": 38.89622516666667}, {"type": "electric_scooter", "name": "245e25ad6655fa5bd113dfc7be70d3c9", "fusion_lat": 0.0, "fusion_lon": 0.0, "lon": -77.00531683333334, "is_disabled": 0, "bike_id": "245e25ad6655fa5bd113dfc7be70d3c9", "is_reserved": 0, "rental_uris": {"android": "https://dc.lft.to/lastmile_qr_scan", "ios": "https://dc.lft.to/lastmile_qr_scan"}, "lat": 38.874798}, {"type": "electric_scooter", "name": "9d52949a3aa3422bd88ebb4a52f05b7e", "fusion_lat": 0.0, "fusion_lon": 0.0, "lon": -77.00831566666666, "is_disabled": 0, "bike_id": "9d52949a3aa3422bd88ebb4a52f05b7e", "is_reserved": 0, "rental_uris": {"android": "https://dc.lft.to/lastmile_qr_scan", "ios": "https://dc.lft.to/lastmile_qr_scan"}, "lat": 38.913759}, {"type": "electric_scooter", "name": "64b334180c1e862d5d7dc863e7ad704e", "fusion_lat": 0.0, "fusion_lon": 0.0, "lon": -77.05171183333333, "is_disabled": 0, "bike_id": "64b334180c1e862d5d7dc863e7ad704e", "is_reserved": 0, "rental_uris": {"android": "https://dc.lft.to/lastmile_qr_scan", "ios": "https://dc.lft.to/lastmile_qr_scan"}, "lat": 38.90248616666667}, {"type": "electric_scooter", "name": "760ae2e871d0c5fc91660afa769e9728", "fusion_lat": 0.0, "fusion_lon": 0.0, "lon": -77.00538533333334, "is_disabled": 0, "bike_id": "760ae2e871d0c5fc91660afa769e9728", "is_reserved": 0, "rental_uris": {"android": "https://dc.lft.to/lastmile_qr_scan", "ios": "https://dc.lft.to/lastmile_qr_scan"}, "lat": 38.8791885}, {"type": "electric_scooter", "name": "a1926d4e92686f22d40a19cd034f6ca1", "fusion_lat": 0.0, "fusion_lon": 0.0, "lon": -77.0383305, "is_disabled": 0, "bike_id": "a1926d4e92686f22d40a19cd034f6ca1", "is_reserved": 0, "rental_uris": {"android": "https://dc.lft.to/lastmile_qr_scan", "ios": "https://dc.lft.to/lastmile_qr_scan"}, "lat": 38.9072595}, {"type": "electric_scooter", "name": "9f9169fd6f656ee357ae6efeaf3d43e5", "fusion_lat": 0.0, "fusion_lon": 0.0, "lon": -77.02405683333333, "is_disabled": 0, "bike_id": "9f9169fd6f656ee357ae6efeaf3d43e5", "is_reserved": 0, "rental_uris": {"android": "https://dc.lft.to/lastmile_qr_scan", "ios": "https://dc.lft.to/lastmile_qr_scan"}, "lat": 38.917190833333336}, {"type": "electric_scooter", "name": "feb87a3f4a228c783dfc8c07d2c953df", "fusion_lat": 0.0, "fusion_lon": 0.0, "lon": -77.02181866666666, "is_disabled": 0, "bike_id": "feb87a3f4a228c783dfc8c07d2c953df", "is_reserved": 0, "rental_uris": {"android": "https://dc.lft.to/lastmile_qr_scan", "ios": "https://dc.lft.to/lastmile_qr_scan"}, "lat": 38.90956166666667}, {"type": "electric_scooter", "name": "5c44bae1b4bdcec95b8cfa4de6209221", "fusion_lat": 0.0, "fusion_lon": 0.0, "lon": -77.0488285, "is_disabled": 0, "bike_id": "5c44bae1b4bdcec95b8cfa4de6209221", "is_reserved": 0, "rental_uris": {"android": "https://dc.lft.to/lastmile_qr_scan", "ios": "https://dc.lft.to/lastmile_qr_scan"}, "lat": 38.9161185}, {"type": "electric_scooter", "name": "f49e553fe0bde54fc10cdb2bd57ca519", "fusion_lat": 0.0, "fusion_lon": 0.0, "lon": -77.02734666666667, "is_disabled": 0, "bike_id": "f49e553fe0bde54fc10cdb2bd57ca519", "is_reserved": 0, "rental_uris": {"android": "https://dc.lft.to/lastmile_qr_scan", "ios": "https://dc.lft.to/lastmile_qr_scan"}, "lat": 38.92394783333334}, {"type": "electric_scooter", "name": "cc80d5605647d5e843b24c04cc45818d", "fusion_lat": 0.0, "fusion_lon": 0.0, "lon": -77.03531683333334, "is_disabled": 0, "bike_id": "cc80d5605647d5e843b24c04cc45818d", "is_reserved": 0, "rental_uris": {"android": "https://dc.lft.to/lastmile_qr_scan", "ios": "https://dc.lft.to/lastmile_qr_scan"}, "lat": 38.924705333333335}, {"type": "electric_scooter", "name": "226f945c6d35b7113fee6ddf6887abc7", "fusion_lat": 0.0, "fusion_lon": 0.0, "lon": -77.03212766666667, "is_disabled": 0, "bike_id": "226f945c6d35b7113fee6ddf6887abc7", "is_reserved": 0, "rental_uris": {"android": "https://dc.lft.to/lastmile_qr_scan", "ios": "https://dc.lft.to/lastmile_qr_scan"}, "lat": 38.884739}, {"type": "electric_scooter", "name": "485c5135c51080a7bed62065b1f2fd68", "fusion_lat": 0.0, "fusion_lon": 0.0, "lon": -77.03182633333333, "is_disabled": 0, "bike_id": "485c5135c51080a7bed62065b1f2fd68", "is_reserved": 0, "rental_uris": {"android": "https://dc.lft.to/lastmile_qr_scan", "ios": "https://dc.lft.to/lastmile_qr_scan"}, "lat": 38.914237166666666}, {"type": "electric_scooter", "name": "8492fd8f8348c0dbf2fac505f067bae2", "fusion_lat": 0.0, "fusion_lon": 0.0, "lon": -77.024671, "is_disabled": 0, "bike_id": "8492fd8f8348c0dbf2fac505f067bae2", "is_reserved": 0, "rental_uris": {"android": "https://dc.lft.to/lastmile_qr_scan", "ios": "https://dc.lft.to/lastmile_qr_scan"}, "lat": 38.93861283333333}, {"type": "electric_scooter", "name": "afc622491355de040755395046537b4a", "fusion_lat": 0.0, "fusion_lon": 0.0, "lon": -77.007439, "is_disabled": 0, "bike_id": "afc622491355de040755395046537b4a", "is_reserved": 0, "rental_uris": {"android": "https://dc.lft.to/lastmile_qr_scan", "ios": "https://dc.lft.to/lastmile_qr_scan"}, "lat": 38.92534533333333}, {"type": "electric_scooter", "name": "9d4e4ddcd883c4ba7376422c2947bd7b", "fusion_lat": 0.0, "fusion_lon": 0.0, "lon": -77.02063983333333, "is_disabled": 0, "bike_id": "9d4e4ddcd883c4ba7376422c2947bd7b", "is_reserved": 0, "rental_uris": {"android": "https://dc.lft.to/lastmile_qr_scan", "ios": "https://dc.lft.to/lastmile_qr_scan"}, "lat": 38.9085145}, {"type": "electric_bike", "name": "194951601bc5aae9234753dde3be9708", "fusion_lat": 0.0, "fusion_lon": 0.0, "lon": -77.23409833333334, "is_disabled": 0, "bike_id": "194951601bc5aae9234753dde3be9708", "is_reserved": 0, "rental_uris": {"android": "https://dc.lft.to/lastmile_qr_scan", "ios": "https://dc.lft.to/lastmile_qr_scan"}, "lat": 38.875809333333336}, {"type": "electric_scooter", "name": "9d0684502392f7d965e091894d766d1b", "fusion_lat": 0.0, "fusion_lon": 0.0, "lon": -77.03267516666666, "is_disabled": 0, "bike_id": "9d0684502392f7d965e091894d766d1b", "is_reserved": 0, "rental_uris": {"android": "https://dc.lft.to/lastmile_qr_scan", "ios": "https://dc.lft.to/lastmile_qr_scan"}, "lat": 38.93310483333333}, {"type": "electric_scooter", "name": "336a263e40d27dc7d874c6db3756eca0", "fusion_lat": 0.0, "fusion_lon": 0.0, "lon": -77.07344066666667, "is_disabled": 0, "bike_id": "336a263e40d27dc7d874c6db3756eca0", "is_reserved": 0, "rental_uris": {"android": "https://dc.lft.to/lastmile_qr_scan", "ios": "https://dc.lft.to/lastmile_qr_scan"}, "lat": 38.94322666666667}, {"type": "electric_scooter", "name": "231ca1cb16ea889ac1b1285ceecfa227", "fusion_lat": 0.0, "fusion_lon": 0.0, "lon": -77.03854233333334, "is_disabled": 0, "bike_id": "231ca1cb16ea889ac1b1285ceecfa227", "is_reserved": 0, "rental_uris": {"android": "https://dc.lft.to/lastmile_qr_scan", "ios": "https://dc.lft.to/lastmile_qr_scan"}, "lat": 38.915433166666666}, {"type": "electric_scooter", "name": "dc2b6bdfe5209d8d6af3d67532ef3586", "fusion_lat": 0.0, "fusion_lon": 0.0, "lon": -77.06655116666667, "is_disabled": 0, "bike_id": "dc2b6bdfe5209d8d6af3d67532ef3586", "is_reserved": 0, "rental_uris": {"android": "https://dc.lft.to/lastmile_qr_scan", "ios": "https://dc.lft.to/lastmile_qr_scan"}, "lat": 38.9506655}, {"type": "electric_scooter", "name": "e1ce596f8fc8c8ee21b9de7c6e473539", "fusion_lat": 0.0, "fusion_lon": 0.0, "lon": -77.05038233333333, "is_disabled": 0, "bike_id": "e1ce596f8fc8c8ee21b9de7c6e473539", "is_reserved": 0, "rental_uris": {"android": "https://dc.lft.to/lastmile_qr_scan", "ios": "https://dc.lft.to/lastmile_qr_scan"}, "lat": 38.901907333333334}, {"type": "electric_scooter", "name": "1ee684e9af04c1bafeaa917e9e04bc19", "fusion_lat": 0.0, "fusion_lon": 0.0, "lon": -77.02172716666666, "is_disabled": 0, "bike_id": "1ee684e9af04c1bafeaa917e9e04bc19", "is_reserved": 0, "rental_uris": {"android": "https://dc.lft.to/lastmile_qr_scan", "ios": "https://dc.lft.to/lastmile_qr_scan"}, "lat": 38.914744}, {"type": "electric_bike", "name": "93d975997a6678cc52d2690050af54e4", "fusion_lat": 0.0, "fusion_lon": 0.0, "lon": -76.99401266666666, "is_disabled": 0, "bike_id": "93d975997a6678cc52d2690050af54e4", "is_reserved": 0, "rental_uris": {"android": "https://dc.lft.to/lastmile_qr_scan", "ios": "https://dc.lft.to/lastmile_qr_scan"}, "lat": 38.91009733333333}, {"type": "electric_scooter", "name": "ee4a8f4df6bdd166c9017540c509be0c", "fusion_lat": 0.0, "fusion_lon": 0.0, "lon": -77.03605683333333, "is_disabled": 0, "bike_id": "ee4a8f4df6bdd166c9017540c509be0c", "is_reserved": 0, "rental_uris": {"android": "https://dc.lft.to/lastmile_qr_scan", "ios": "https://dc.lft.to/lastmile_qr_scan"}, "lat": 38.934882333333334}, {"type": "electric_scooter", "name": "b3ad52dce299c2bfd2f8604964e3ecdf", "fusion_lat": 0.0, "fusion_lon": 0.0, "lon": -77.02177366666666, "is_disabled": 0, "bike_id": "b3ad52dce299c2bfd2f8604964e3ecdf", "is_reserved": 0, "rental_uris": {"android": "https://dc.lft.to/lastmile_qr_scan", "ios": "https://dc.lft.to/lastmile_qr_scan"}, "lat": 38.911112333333335}, {"type": "electric_scooter", "name": "eb390e0376aa09db1ae9f09a7c560b0a", "fusion_lat": 0.0, "fusion_lon": 0.0, "lon": -77.03371433333334, "is_disabled": 0, "bike_id": "eb390e0376aa09db1ae9f09a7c560b0a", "is_reserved": 0, "rental_uris": {"android": "https://dc.lft.to/lastmile_qr_scan", "ios": "https://dc.lft.to/lastmile_qr_scan"}, "lat": 38.900270666666664}, {"type": "electric_bike", "name": "85a2f2e4b7dc4d081d9729f2823864fa", "fusion_lat": 0.0, "fusion_lon": 0.0, "lon": -76.95701916666667, "is_disabled": 0, "bike_id": "85a2f2e4b7dc4d081d9729f2823864fa", "is_reserved": 0, "rental_uris": {"android": "https://dc.lft.to/lastmile_qr_scan", "ios": "https://dc.lft.to/lastmile_qr_scan"}, "lat": 38.850901}, {"type": "electric_scooter", "name": "6664b4ef7ca22aa9e785db2e40e1f09a", "fusion_lat": 0.0, "fusion_lon": 0.0, "lon": -77.0179425, "is_disabled": 0, "bike_id": "6664b4ef7ca22aa9e785db2e40e1f09a", "is_reserved": 0, "rental_uris": {"android": "https://dc.lft.to/lastmile_qr_scan", "ios": "https://dc.lft.to/lastmile_qr_scan"}, "lat": 38.91947916666667}, {"type": "electric_scooter", "name": "dd74df16d6dd7a2823d64eea1a30bc2a", "fusion_lat": 0.0, "fusion_lon": 0.0, "lon": -77.006111, "is_disabled": 0, "bike_id": "dd74df16d6dd7a2823d64eea1a30bc2a", "is_reserved": 0, "rental_uris": {"android": "https://dc.lft.to/lastmile_qr_scan", "ios": "https://dc.lft.to/lastmile_qr_scan"}, "lat": 38.90559483333333}, {"type": "electric_scooter", "name": "7151b4c1cc78cb35c5704ec729a5c8d4", "fusion_lat": 0.0, "fusion_lon": 0.0, "lon": -76.95744916666666, "is_disabled": 0, "bike_id": "7151b4c1cc78cb35c5704ec729a5c8d4", "is_reserved": 0, "rental_uris": {"android": "https://dc.lft.to/lastmile_qr_scan", "ios": "https://dc.lft.to/lastmile_qr_scan"}, "lat": 38.88390666666667}, {"type": "electric_scooter", "name": "e509eb657377c0745768b7d4234d2407", "fusion_lat": 0.0, "fusion_lon": 0.0, "lon": -77.01469116666667, "is_disabled": 0, "bike_id": "e509eb657377c0745768b7d4234d2407", "is_reserved": 0, "rental_uris": {"android": "https://dc.lft.to/lastmile_qr_scan", "ios": "https://dc.lft.to/lastmile_qr_scan"}, "lat": 38.91756816666667}, {"type": "electric_scooter", "name": "e71299f9f3d715d6e8013944d7f9b278", "fusion_lat": 0.0, "fusion_lon": 0.0, "lon": -77.040124, "is_disabled": 0, "bike_id": "e71299f9f3d715d6e8013944d7f9b278", "is_reserved": 0, "rental_uris": {"android": "https://dc.lft.to/lastmile_qr_scan", "ios": "https://dc.lft.to/lastmile_qr_scan"}, "lat": 38.90571883333333}, {"type": "electric_scooter", "name": "20c6b58bafd62de1be720a9cf7ad4e19", "fusion_lat": 0.0, "fusion_lon": 0.0, "lon": -77.02582783333334, "is_disabled": 0, "bike_id": "20c6b58bafd62de1be720a9cf7ad4e19", "is_reserved": 0, "rental_uris": {"android": "https://dc.lft.to/lastmile_qr_scan", "ios": "https://dc.lft.to/lastmile_qr_scan"}, "lat": 38.90167566666667}, {"type": "electric_scooter", "name": "6ee62df053a4c68e81901f5836dbfb7d", "fusion_lat": 0.0, "fusion_lon": 0.0, "lon": -77.0230635, "is_disabled": 0, "bike_id": "6ee62df053a4c68e81901f5836dbfb7d", "is_reserved": 0, "rental_uris": {"android": "https://dc.lft.to/lastmile_qr_scan", "ios": "https://dc.lft.to/lastmile_qr_scan"}, "lat": 38.917049166666665}, {"type": "electric_bike", "name": "8114ae4fa2e346c65d64acdd08793e4d", "fusion_lat": 0.0, "fusion_lon": 0.0, "lon": -77.090155, "is_disabled": 0, "bike_id": "8114ae4fa2e346c65d64acdd08793e4d", "is_reserved": 0, "rental_uris": {"android": "https://dc.lft.to/lastmile_qr_scan", "ios": "https://dc.lft.to/lastmile_qr_scan"}, "lat": 38.926497}, {"type": "electric_scooter", "name": "0f2f9b8928ab61916284614bc416de3c", "fusion_lat": 0.0, "fusion_lon": 0.0, "lon": -77.02236183333333, "is_disabled": 0, "bike_id": "0f2f9b8928ab61916284614bc416de3c", "is_reserved": 0, "rental_uris": {"android": "https://dc.lft.to/lastmile_qr_scan", "ios": "https://dc.lft.to/lastmile_qr_scan"}, "lat": 38.908655833333334}, {"type": "electric_scooter", "name": "56b7cd2db0d469c84d90e413e7ee9bf5", "fusion_lat": 0.0, "fusion_lon": 0.0, "lon": -76.99912983333333, "is_disabled": 0, "bike_id": "56b7cd2db0d469c84d90e413e7ee9bf5", "is_reserved": 0, "rental_uris": {"android": "https://dc.lft.to/lastmile_qr_scan", "ios": "https://dc.lft.to/lastmile_qr_scan"}, "lat": 38.924624666666666}, {"type": "electric_scooter", "name": "d97c8fd3accd3bcfe70b1cee2ff8174a", "fusion_lat": 0.0, "fusion_lon": 0.0, "lon": -76.98850816666666, "is_disabled": 0, "bike_id": "d97c8fd3accd3bcfe70b1cee2ff8174a", "is_reserved": 0, "rental_uris": {"android": "https://dc.lft.to/lastmile_qr_scan", "ios": "https://dc.lft.to/lastmile_qr_scan"}, "lat": 38.891678}, {"type": "electric_bike", "name": "d2ea6948390870da1d7fd5608f552902", "fusion_lat": 0.0, "fusion_lon": 0.0, "lon": -77.12733566666667, "is_disabled": 0, "bike_id": "d2ea6948390870da1d7fd5608f552902", "is_reserved": 0, "rental_uris": {"android": "https://dc.lft.to/lastmile_qr_scan", "ios": "https://dc.lft.to/lastmile_qr_scan"}, "lat": 38.89564}, {"type": "electric_scooter", "name": "58b51dbe4374b3cf2b5a255c93365607", "fusion_lat": 0.0, "fusion_lon": 0.0, "lon": -77.0295485, "is_disabled": 0, "bike_id": "58b51dbe4374b3cf2b5a255c93365607", "is_reserved": 0, "rental_uris": {"android": "https://dc.lft.to/lastmile_qr_scan", "ios": "https://dc.lft.to/lastmile_qr_scan"}, "lat": 38.91713333333333}, {"type": "electric_scooter", "name": "c8d22f14ed4a772bf111a351b8e1a98f", "fusion_lat": 0.0, "fusion_lon": 0.0, "lon": -77.0278695, "is_disabled": 0, "bike_id": "c8d22f14ed4a772bf111a351b8e1a98f", "is_reserved": 0, "rental_uris": {"android": "https://dc.lft.to/lastmile_qr_scan", "ios": "https://dc.lft.to/lastmile_qr_scan"}, "lat": 38.93191766666666}, {"type": "electric_scooter", "name": "1792dbb036b26e44779ca57a632b8833", "fusion_lat": 0.0, "fusion_lon": 0.0, "lon": -77.03079666666666, "is_disabled": 0, "bike_id": "1792dbb036b26e44779ca57a632b8833", "is_reserved": 0, "rental_uris": {"android": "https://dc.lft.to/lastmile_qr_scan", "ios": "https://dc.lft.to/lastmile_qr_scan"}, "lat": 38.9202625}, {"type": "electric_scooter", "name": "5d95766b7966d22d35118f07b3341f6a", "fusion_lat": 0.0, "fusion_lon": 0.0, "lon": -77.03177333333333, "is_disabled": 0, "bike_id": "5d95766b7966d22d35118f07b3341f6a", "is_reserved": 0, "rental_uris": {"android": "https://dc.lft.to/lastmile_qr_scan", "ios": "https://dc.lft.to/lastmile_qr_scan"}, "lat": 38.921279}, {"type": "electric_scooter", "name": "fa8ab02d14398bc782d590f9617575e8", "fusion_lat": 0.0, "fusion_lon": 0.0, "lon": -77.02805533333333, "is_disabled": 0, "bike_id": "fa8ab02d14398bc782d590f9617575e8", "is_reserved": 0, "rental_uris": {"android": "https://dc.lft.to/lastmile_qr_scan", "ios": "https://dc.lft.to/lastmile_qr_scan"}, "lat": 38.930858}, {"type": "electric_scooter", "name": "f3cbde224833e5627c19adcb7f1ce3a8", "fusion_lat": 0.0, "fusion_lon": 0.0, "lon": -77.02429233333334, "is_disabled": 0, "bike_id": "f3cbde224833e5627c19adcb7f1ce3a8", "is_reserved": 0, "rental_uris": {"android": "https://dc.lft.to/lastmile_qr_scan", "ios": "https://dc.lft.to/lastmile_qr_scan"}, "lat": 38.9207715}, {"type": "electric_bike", "name": "1440a0a566920460db65136637265d79", "fusion_lat": 0.0, "fusion_lon": 0.0, "lon": -77.019887, "is_disabled": 0, "bike_id": "1440a0a566920460db65136637265d79", "is_reserved": 0, "rental_uris": {"android": "https://dc.lft.to/lastmile_qr_scan", "ios": "https://dc.lft.to/lastmile_qr_scan"}, "lat": 38.897914166666666}, {"type": "electric_scooter", "name": "8ea723373b25ef74c8f34c6f86ad4bdc", "fusion_lat": 0.0, "fusion_lon": 0.0, "lon": -77.01458566666666, "is_disabled": 0, "bike_id": "8ea723373b25ef74c8f34c6f86ad4bdc", "is_reserved": 0, "rental_uris": {"android": "https://dc.lft.to/lastmile_qr_scan", "ios": "https://dc.lft.to/lastmile_qr_scan"}, "lat": 38.90652716666666}, {"type": "electric_bike", "name": "df46d7e50514f8ace097b6e9e8ee9022", "fusion_lat": 0.0, "fusion_lon": 0.0, "lon": -77.07896816666667, "is_disabled": 0, "bike_id": "df46d7e50514f8ace097b6e9e8ee9022", "is_reserved": 0, "rental_uris": {"android": "https://dc.lft.to/lastmile_qr_scan", "ios": "https://dc.lft.to/lastmile_qr_scan"}, "lat": 38.925478}, {"type": "electric_scooter", "name": "f452e3b7a87cc35d470ac1a63891661d", "fusion_lat": 0.0, "fusion_lon": 0.0, "lon": -77.0133925, "is_disabled": 0, "bike_id": "f452e3b7a87cc35d470ac1a63891661d", "is_reserved": 0, "rental_uris": {"android": "https://dc.lft.to/lastmile_qr_scan", "ios": "https://dc.lft.to/lastmile_qr_scan"}, "lat": 38.88124166666667}, {"type": "electric_scooter", "name": "c78825702985d19b8cebaf00720f74c9", "fusion_lat": 0.0, "fusion_lon": 0.0, "lon": -77.02567516666667, "is_disabled": 0, "bike_id": "c78825702985d19b8cebaf00720f74c9", "is_reserved": 0, "rental_uris": {"android": "https://dc.lft.to/lastmile_qr_scan", "ios": "https://dc.lft.to/lastmile_qr_scan"}, "lat": 38.94202133333334}, {"type": "electric_scooter", "name": "e503fa98305e72f24c165e20b62b2641", "fusion_lat": 0.0, "fusion_lon": 0.0, "lon": -77.0436375, "is_disabled": 0, "bike_id": "e503fa98305e72f24c165e20b62b2641", "is_reserved": 0, "rental_uris": {"android": "https://dc.lft.to/lastmile_qr_scan", "ios": "https://dc.lft.to/lastmile_qr_scan"}, "lat": 38.90453616666667}, {"type": "electric_scooter", "name": "ad5741a348533d0ccb7087dca9d8c8ca", "fusion_lat": 0.0, "fusion_lon": 0.0, "lon": -77.02294883333333, "is_disabled": 0, "bike_id": "ad5741a348533d0ccb7087dca9d8c8ca", "is_reserved": 0, "rental_uris": {"android": "https://dc.lft.to/lastmile_qr_scan", "ios": "https://dc.lft.to/lastmile_qr_scan"}, "lat": 38.92086883333333}, {"type": "electric_bike", "name": "35f0112367ed53ce5ccac093148f8764", "fusion_lat": 0.0, "fusion_lon": 0.0, "lon": -77.0955975, "is_disabled": 0, "bike_id": "35f0112367ed53ce5ccac093148f8764", "is_reserved": 0, "rental_uris": {"android": "https://dc.lft.to/lastmile_qr_scan", "ios": "https://dc.lft.to/lastmile_qr_scan"}, "lat": 38.85879283333333}, {"type": "electric_scooter", "name": "ec5a90ee72a00fb314bb386b025a45c7", "fusion_lat": 0.0, "fusion_lon": 0.0, "lon": -76.98031366666666, "is_disabled": 0, "bike_id": "ec5a90ee72a00fb314bb386b025a45c7", "is_reserved": 0, "rental_uris": {"android": "https://dc.lft.to/lastmile_qr_scan", "ios": "https://dc.lft.to/lastmile_qr_scan"}, "lat": 38.90791266666667}, {"type": "electric_scooter", "name": "03567cdfe7d548b69f3f96dddfb0d92d", "fusion_lat": 0.0, "fusion_lon": 0.0, "lon": -77.03506783333333, "is_disabled": 0, "bike_id": "03567cdfe7d548b69f3f96dddfb0d92d", "is_reserved": 0, "rental_uris": {"android": "https://dc.lft.to/lastmile_qr_scan", "ios": "https://dc.lft.to/lastmile_qr_scan"}, "lat": 38.921549666666664}, {"type": "electric_scooter", "name": "ee2cdf38d12f6359b99dae470ab80ea7", "fusion_lat": 0.0, "fusion_lon": 0.0, "lon": -77.0326855, "is_disabled": 0, "bike_id": "ee2cdf38d12f6359b99dae470ab80ea7", "is_reserved": 0, "rental_uris": {"android": "https://dc.lft.to/lastmile_qr_scan", "ios": "https://dc.lft.to/lastmile_qr_scan"}, "lat": 38.93311466666667}, {"type": "electric_scooter", "name": "967cdedad648076835d18cce6d04f74a", "fusion_lat": 0.0, "fusion_lon": 0.0, "lon": -77.039802, "is_disabled": 0, "bike_id": "967cdedad648076835d18cce6d04f74a", "is_reserved": 0, "rental_uris": {"android": "https://dc.lft.to/lastmile_qr_scan", "ios": "https://dc.lft.to/lastmile_qr_scan"}, "lat": 38.89872}, {"type": "electric_scooter", "name": "bd010402eaf2ad745c8211b4784c53b3", "fusion_lat": 0.0, "fusion_lon": 0.0, "lon": -77.027786, "is_disabled": 0, "bike_id": "bd010402eaf2ad745c8211b4784c53b3", "is_reserved": 0, "rental_uris": {"android": "https://dc.lft.to/lastmile_qr_scan", "ios": "https://dc.lft.to/lastmile_qr_scan"}, "lat": 38.9658595}, {"type": "electric_scooter", "name": "4a1d808ea10c182705a16af178327958", "fusion_lat": 0.0, "fusion_lon": 0.0, "lon": -77.02277566666666, "is_disabled": 0, "bike_id": "4a1d808ea10c182705a16af178327958", "is_reserved": 0, "rental_uris": {"android": "https://dc.lft.to/lastmile_qr_scan", "ios": "https://dc.lft.to/lastmile_qr_scan"}, "lat": 38.926858}, {"type": "electric_scooter", "name": "03e9038de06f1af5343d799381e181ad", "fusion_lat": 0.0, "fusion_lon": 0.0, "lon": -77.0384495, "is_disabled": 0, "bike_id": "03e9038de06f1af5343d799381e181ad", "is_reserved": 0, "rental_uris": {"android": "https://dc.lft.to/lastmile_qr_scan", "ios": "https://dc.lft.to/lastmile_qr_scan"}, "lat": 38.909810666666665}, {"type": "electric_bike", "name": "4deb0b43389f1c08b32769145697303f", "fusion_lat": 0.0, "fusion_lon": 0.0, "lon": -76.94233866666667, "is_disabled": 0, "bike_id": "4deb0b43389f1c08b32769145697303f", "is_reserved": 0, "rental_uris": {"android": "https://dc.lft.to/lastmile_qr_scan", "ios": "https://dc.lft.to/lastmile_qr_scan"}, "lat": 38.890540333333334}, {"type": "electric_bike", "name": "54af033781f31b8306950ea90fa6efc6", "fusion_lat": 0.0, "fusion_lon": 0.0, "lon": -76.9937705, "is_disabled": 0, "bike_id": "54af033781f31b8306950ea90fa6efc6", "is_reserved": 0, "rental_uris": {"android": "https://dc.lft.to/lastmile_qr_scan", "ios": "https://dc.lft.to/lastmile_qr_scan"}, "lat": 38.991013}, {"type": "electric_scooter", "name": "675794277d222eb2b1db46e5e3ac1f21", "fusion_lat": 0.0, "fusion_lon": 0.0, "lon": -77.04186783333333, "is_disabled": 0, "bike_id": "675794277d222eb2b1db46e5e3ac1f21", "is_reserved": 0, "rental_uris": {"android": "https://dc.lft.to/lastmile_qr_scan", "ios": "https://dc.lft.to/lastmile_qr_scan"}, "lat": 38.92049383333333}, {"type": "electric_scooter", "name": "b8965e0e8439e5579fccbe0a9ebe00a2", "fusion_lat": 0.0, "fusion_lon": 0.0, "lon": -77.01442033333333, "is_disabled": 0, "bike_id": "b8965e0e8439e5579fccbe0a9ebe00a2", "is_reserved": 0, "rental_uris": {"android": "https://dc.lft.to/lastmile_qr_scan", "ios": "https://dc.lft.to/lastmile_qr_scan"}, "lat": 38.90966133333333}, {"type": "electric_scooter", "name": "924f345575d30410f3a756ec7f651bc4", "fusion_lat": 0.0, "fusion_lon": 0.0, "lon": -77.02170966666667, "is_disabled": 0, "bike_id": "924f345575d30410f3a756ec7f651bc4", "is_reserved": 0, "rental_uris": {"android": "https://dc.lft.to/lastmile_qr_scan", "ios": "https://dc.lft.to/lastmile_qr_scan"}, "lat": 38.897270666666664}, {"type": "electric_scooter", "name": "d229e127d5edcaf58025da00e00fff52", "fusion_lat": 0.0, "fusion_lon": 0.0, "lon": -76.9703525, "is_disabled": 0, "bike_id": "d229e127d5edcaf58025da00e00fff52", "is_reserved": 0, "rental_uris": {"android": "https://dc.lft.to/lastmile_qr_scan", "ios": "https://dc.lft.to/lastmile_qr_scan"}, "lat": 38.873198333333335}, {"type": "electric_scooter", "name": "f138427d62b567753995a2dc01284c50", "fusion_lat": 0.0, "fusion_lon": 0.0, "lon": -77.02494433333334, "is_disabled": 0, "bike_id": "f138427d62b567753995a2dc01284c50", "is_reserved": 0, "rental_uris": {"android": "https://dc.lft.to/lastmile_qr_scan", "ios": "https://dc.lft.to/lastmile_qr_scan"}, "lat": 38.93569083333333}, {"type": "electric_scooter", "name": "88bef8a6836c5da1ae20be11667d4ec0", "fusion_lat": 0.0, "fusion_lon": 0.0, "lon": -76.93626983333333, "is_disabled": 0, "bike_id": "88bef8a6836c5da1ae20be11667d4ec0", "is_reserved": 0, "rental_uris": {"android": "https://dc.lft.to/lastmile_qr_scan", "ios": "https://dc.lft.to/lastmile_qr_scan"}, "lat": 38.88356133333333}, {"type": "electric_bike", "name": "8038ad1ebf32aeea7221317dd8dd9e5a", "fusion_lat": 0.0, "fusion_lon": 0.0, "lon": -77.06698916666667, "is_disabled": 0, "bike_id": "8038ad1ebf32aeea7221317dd8dd9e5a", "is_reserved": 0, "rental_uris": {"android": "https://dc.lft.to/lastmile_qr_scan", "ios": "https://dc.lft.to/lastmile_qr_scan"}, "lat": 38.83174133333333}, {"type": "electric_scooter", "name": "470bbdd069889840feb3c914d7522625", "fusion_lat": 0.0, "fusion_lon": 0.0, "lon": -77.001988, "is_disabled": 0, "bike_id": "470bbdd069889840feb3c914d7522625", "is_reserved": 0, "rental_uris": {"android": "https://dc.lft.to/lastmile_qr_scan", "ios": "https://dc.lft.to/lastmile_qr_scan"}, "lat": 38.9023505}, {"type": "electric_scooter", "name": "c279d145fe9b1d16c083324c9d3f92ed", "fusion_lat": 0.0, "fusion_lon": 0.0, "lon": -77.036347, "is_disabled": 0, "bike_id": "c279d145fe9b1d16c083324c9d3f92ed", "is_reserved": 0, "rental_uris": {"android": "https://dc.lft.to/lastmile_qr_scan", "ios": "https://dc.lft.to/lastmile_qr_scan"}, "lat": 38.93057983333333}, {"type": "electric_scooter", "name": "bd649e1e8c0197c18dd9474b75d79931", "fusion_lat": 0.0, "fusion_lon": 0.0, "lon": -77.017544, "is_disabled": 0, "bike_id": "bd649e1e8c0197c18dd9474b75d79931", "is_reserved": 0, "rental_uris": {"android": "https://dc.lft.to/lastmile_qr_scan", "ios": "https://dc.lft.to/lastmile_qr_scan"}, "lat": 38.876872}, {"type": "electric_scooter", "name": "27ae20d55ffb16f9a0c20368d734fe08", "fusion_lat": 0.0, "fusion_lon": 0.0, "lon": -77.03255433333334, "is_disabled": 0, "bike_id": "27ae20d55ffb16f9a0c20368d734fe08", "is_reserved": 0, "rental_uris": {"android": "https://dc.lft.to/lastmile_qr_scan", "ios": "https://dc.lft.to/lastmile_qr_scan"}, "lat": 38.928874666666665}, {"type": "electric_scooter", "name": "3a95d3e79cf794059ec78ff5da6ca98d", "fusion_lat": 0.0, "fusion_lon": 0.0, "lon": -77.02084583333334, "is_disabled": 0, "bike_id": "3a95d3e79cf794059ec78ff5da6ca98d", "is_reserved": 0, "rental_uris": {"android": "https://dc.lft.to/lastmile_qr_scan", "ios": "https://dc.lft.to/lastmile_qr_scan"}, "lat": 38.88182966666667}, {"type": "electric_scooter", "name": "0905e28ea57239bfa6ea10a27b1da006", "fusion_lat": 0.0, "fusion_lon": 0.0, "lon": -77.02784883333334, "is_disabled": 0, "bike_id": "0905e28ea57239bfa6ea10a27b1da006", "is_reserved": 0, "rental_uris": {"android": "https://dc.lft.to/lastmile_qr_scan", "ios": "https://dc.lft.to/lastmile_qr_scan"}, "lat": 38.956196}, {"type": "electric_scooter", "name": "54ca72966329d4f288fee7db0817149f", "fusion_lat": 0.0, "fusion_lon": 0.0, "lon": -77.007955, "is_disabled": 0, "bike_id": "54ca72966329d4f288fee7db0817149f", "is_reserved": 0, "rental_uris": {"android": "https://dc.lft.to/lastmile_qr_scan", "ios": "https://dc.lft.to/lastmile_qr_scan"}, "lat": 38.8755655}, {"type": "electric_scooter", "name": "c7467df9691db71b257bf78c33395265", "fusion_lat": 0.0, "fusion_lon": 0.0, "lon": -76.9975905, "is_disabled": 0, "bike_id": "c7467df9691db71b257bf78c33395265", "is_reserved": 0, "rental_uris": {"android": "https://dc.lft.to/lastmile_qr_scan", "ios": "https://dc.lft.to/lastmile_qr_scan"}, "lat": 38.922666666666665}, {"type": "electric_scooter", "name": "26d70d8833cd9ea52730f311bfb3b048", "fusion_lat": 0.0, "fusion_lon": 0.0, "lon": -77.02299033333334, "is_disabled": 0, "bike_id": "26d70d8833cd9ea52730f311bfb3b048", "is_reserved": 0, "rental_uris": {"android": "https://dc.lft.to/lastmile_qr_scan", "ios": "https://dc.lft.to/lastmile_qr_scan"}, "lat": 38.92085816666667}, {"type": "electric_scooter", "name": "bab2f3e87cc4b08d7975aeec76645db9", "fusion_lat": 0.0, "fusion_lon": 0.0, "lon": -77.0211305, "is_disabled": 0, "bike_id": "bab2f3e87cc4b08d7975aeec76645db9", "is_reserved": 0, "rental_uris": {"android": "https://dc.lft.to/lastmile_qr_scan", "ios": "https://dc.lft.to/lastmile_qr_scan"}, "lat": 38.90940366666667}, {"type": "electric_scooter", "name": "842f96bc641ea63744a9e96700f75854", "fusion_lat": 0.0, "fusion_lon": 0.0, "lon": -77.0138035, "is_disabled": 0, "bike_id": "842f96bc641ea63744a9e96700f75854", "is_reserved": 0, "rental_uris": {"android": "https://dc.lft.to/lastmile_qr_scan", "ios": "https://dc.lft.to/lastmile_qr_scan"}, "lat": 38.89826133333333}, {"type": "electric_scooter", "name": "1edd34997e1d2793939a3888fcd09a91", "fusion_lat": 0.0, "fusion_lon": 0.0, "lon": -77.01780916666667, "is_disabled": 0, "bike_id": "1edd34997e1d2793939a3888fcd09a91", "is_reserved": 0, "rental_uris": {"android": "https://dc.lft.to/lastmile_qr_scan", "ios": "https://dc.lft.to/lastmile_qr_scan"}, "lat": 38.877560333333335}, {"type": "electric_scooter", "name": "f4ef307a75783a2ac78ae114238b57bb", "fusion_lat": 0.0, "fusion_lon": 0.0, "lon": -76.97212933333333, "is_disabled": 0, "bike_id": "f4ef307a75783a2ac78ae114238b57bb", "is_reserved": 0, "rental_uris": {"android": "https://dc.lft.to/lastmile_qr_scan", "ios": "https://dc.lft.to/lastmile_qr_scan"}, "lat": 38.917177333333335}, {"type": "electric_scooter", "name": "841c6b4a253e58a0861918522e025a70", "fusion_lat": 0.0, "fusion_lon": 0.0, "lon": -77.01981133333334, "is_disabled": 0, "bike_id": "841c6b4a253e58a0861918522e025a70", "is_reserved": 0, "rental_uris": {"android": "https://dc.lft.to/lastmile_qr_scan", "ios": "https://dc.lft.to/lastmile_qr_scan"}, "lat": 38.905084}, {"type": "electric_scooter", "name": "dbd121a778a41d8a4e7ecc20d08af43b", "fusion_lat": 0.0, "fusion_lon": 0.0, "lon": -77.0542815, "is_disabled": 0, "bike_id": "dbd121a778a41d8a4e7ecc20d08af43b", "is_reserved": 0, "rental_uris": {"android": "https://dc.lft.to/lastmile_qr_scan", "ios": "https://dc.lft.to/lastmile_qr_scan"}, "lat": 38.923568333333336}, {"type": "electric_scooter", "name": "3ea8a6121b8e526278ba2e8726a6caf9", "fusion_lat": 0.0, "fusion_lon": 0.0, "lon": -77.04406566666667, "is_disabled": 0, "bike_id": "3ea8a6121b8e526278ba2e8726a6caf9", "is_reserved": 0, "rental_uris": {"android": "https://dc.lft.to/lastmile_qr_scan", "ios": "https://dc.lft.to/lastmile_qr_scan"}, "lat": 38.895979833333335}, {"type": "electric_bike", "name": "5fb1671f20b59f2d6b793833b336f2b6", "fusion_lat": 0.0, "fusion_lon": 0.0, "lon": -77.0996505, "is_disabled": 0, "bike_id": "5fb1671f20b59f2d6b793833b336f2b6", "is_reserved": 0, "rental_uris": {"android": "https://dc.lft.to/lastmile_qr_scan", "ios": "https://dc.lft.to/lastmile_qr_scan"}, "lat": 38.8579425}, {"type": "electric_scooter", "name": "ecd8a0a4b3653cde32ef82ac3b186338", "fusion_lat": 0.0, "fusion_lon": 0.0, "lon": -76.92923883333333, "is_disabled": 0, "bike_id": "ecd8a0a4b3653cde32ef82ac3b186338", "is_reserved": 0, "rental_uris": {"android": "https://dc.lft.to/lastmile_qr_scan", "ios": "https://dc.lft.to/lastmile_qr_scan"}, "lat": 38.89207433333333}, {"type": "electric_scooter", "name": "6762ae04c9aea3f0127a4fba93639de3", "fusion_lat": 0.0, "fusion_lon": 0.0, "lon": -77.03238233333333, "is_disabled": 0, "bike_id": "6762ae04c9aea3f0127a4fba93639de3", "is_reserved": 0, "rental_uris": {"android": "https://dc.lft.to/lastmile_qr_scan", "ios": "https://dc.lft.to/lastmile_qr_scan"}, "lat": 38.914199833333335}, {"type": "electric_bike", "name": "9ee201b32563f7b4c2683961467fa4a2", "fusion_lat": 0.0, "fusion_lon": 0.0, "lon": -77.09452733333333, "is_disabled": 0, "bike_id": "9ee201b32563f7b4c2683961467fa4a2", "is_reserved": 0, "rental_uris": {"android": "https://dc.lft.to/lastmile_qr_scan", "ios": "https://dc.lft.to/lastmile_qr_scan"}, "lat": 38.80752783333333}, {"type": "electric_scooter", "name": "cbb43a574a4914f4f9c82d93a80dd9d1", "fusion_lat": 0.0, "fusion_lon": 0.0, "lon": -77.034205, "is_disabled": 0, "bike_id": "cbb43a574a4914f4f9c82d93a80dd9d1", "is_reserved": 0, "rental_uris": {"android": "https://dc.lft.to/lastmile_qr_scan", "ios": "https://dc.lft.to/lastmile_qr_scan"}, "lat": 38.902682166666665}, {"type": "electric_scooter", "name": "85109eb77f7838e5b5448a2b5175b025", "fusion_lat": 0.0, "fusion_lon": 0.0, "lon": -77.0340365, "is_disabled": 0, "bike_id": "85109eb77f7838e5b5448a2b5175b025", "is_reserved": 0, "rental_uris": {"android": "https://dc.lft.to/lastmile_qr_scan", "ios": "https://dc.lft.to/lastmile_qr_scan"}, "lat": 38.92558116666667}, {"type": "electric_scooter", "name": "07875ce014f9a240c522c96fd5a5103a", "fusion_lat": 0.0, "fusion_lon": 0.0, "lon": -77.00595083333333, "is_disabled": 0, "bike_id": "07875ce014f9a240c522c96fd5a5103a", "is_reserved": 0, "rental_uris": {"android": "https://dc.lft.to/lastmile_qr_scan", "ios": "https://dc.lft.to/lastmile_qr_scan"}, "lat": 38.905576}, {"type": "electric_scooter", "name": "80b0c9e629b8ee7cebfc49f884632fd5", "fusion_lat": 0.0, "fusion_lon": 0.0, "lon": -76.99631016666666, "is_disabled": 0, "bike_id": "80b0c9e629b8ee7cebfc49f884632fd5", "is_reserved": 0, "rental_uris": {"android": "https://dc.lft.to/lastmile_qr_scan", "ios": "https://dc.lft.to/lastmile_qr_scan"}, "lat": 38.905370833333336}, {"type": "electric_scooter", "name": "eee024073e9294489cca88f5c4332649", "fusion_lat": 0.0, "fusion_lon": 0.0, "lon": -77.043319, "is_disabled": 0, "bike_id": "eee024073e9294489cca88f5c4332649", "is_reserved": 0, "rental_uris": {"android": "https://dc.lft.to/lastmile_qr_scan", "ios": "https://dc.lft.to/lastmile_qr_scan"}, "lat": 38.92226566666667}, {"type": "electric_scooter", "name": "15f69b672054bc84c756ae4d28979093", "fusion_lat": 0.0, "fusion_lon": 0.0, "lon": -77.0326135, "is_disabled": 0, "bike_id": "15f69b672054bc84c756ae4d28979093", "is_reserved": 0, "rental_uris": {"android": "https://dc.lft.to/lastmile_qr_scan", "ios": "https://dc.lft.to/lastmile_qr_scan"}, "lat": 38.919881833333335}, {"type": "electric_scooter", "name": "015b62c5bd2436e71c733ee4abe1e2e5", "fusion_lat": 0.0, "fusion_lon": 0.0, "lon": -77.04359733333334, "is_disabled": 0, "bike_id": "015b62c5bd2436e71c733ee4abe1e2e5", "is_reserved": 0, "rental_uris": {"android": "https://dc.lft.to/lastmile_qr_scan", "ios": "https://dc.lft.to/lastmile_qr_scan"}, "lat": 38.921644666666666}, {"type": "electric_scooter", "name": "b8fb15ac644263db1d2827214bf12d9d", "fusion_lat": 0.0, "fusion_lon": 0.0, "lon": -77.03074316666667, "is_disabled": 0, "bike_id": "b8fb15ac644263db1d2827214bf12d9d", "is_reserved": 0, "rental_uris": {"android": "https://dc.lft.to/lastmile_qr_scan", "ios": "https://dc.lft.to/lastmile_qr_scan"}, "lat": 38.922553}, {"type": "electric_scooter", "name": "38c5724d237791cd92b919dfd6d533a2", "fusion_lat": 0.0, "fusion_lon": 0.0, "lon": -77.04177333333334, "is_disabled": 0, "bike_id": "38c5724d237791cd92b919dfd6d533a2", "is_reserved": 0, "rental_uris": {"android": "https://dc.lft.to/lastmile_qr_scan", "ios": "https://dc.lft.to/lastmile_qr_scan"}, "lat": 38.91551483333333}, {"type": "electric_scooter", "name": "66fbf15a193039873484255fc316af25", "fusion_lat": 0.0, "fusion_lon": 0.0, "lon": -76.98097066666666, "is_disabled": 0, "bike_id": "66fbf15a193039873484255fc316af25", "is_reserved": 0, "rental_uris": {"android": "https://dc.lft.to/lastmile_qr_scan", "ios": "https://dc.lft.to/lastmile_qr_scan"}, "lat": 38.857218333333336}, {"type": "electric_scooter", "name": "89d121173d7fa0315a461cd52aa2c64a", "fusion_lat": 0.0, "fusion_lon": 0.0, "lon": -77.04247783333334, "is_disabled": 0, "bike_id": "89d121173d7fa0315a461cd52aa2c64a", "is_reserved": 0, "rental_uris": {"android": "https://dc.lft.to/lastmile_qr_scan", "ios": "https://dc.lft.to/lastmile_qr_scan"}, "lat": 38.919687333333336}, {"type": "electric_scooter", "name": "2535198e3c29c9a003e67b6e5f69781d", "fusion_lat": 0.0, "fusion_lon": 0.0, "lon": -76.99099466666667, "is_disabled": 0, "bike_id": "2535198e3c29c9a003e67b6e5f69781d", "is_reserved": 0, "rental_uris": {"android": "https://dc.lft.to/lastmile_qr_scan", "ios": "https://dc.lft.to/lastmile_qr_scan"}, "lat": 38.8573535}, {"type": "electric_scooter", "name": "795f4f2d6efdfc4549aa3befdedcdbff", "fusion_lat": 0.0, "fusion_lon": 0.0, "lon": -77.0513295, "is_disabled": 0, "bike_id": "795f4f2d6efdfc4549aa3befdedcdbff", "is_reserved": 0, "rental_uris": {"android": "https://dc.lft.to/lastmile_qr_scan", "ios": "https://dc.lft.to/lastmile_qr_scan"}, "lat": 38.92365916666667}, {"type": "electric_scooter", "name": "8e24ca9de751beecb39c760c5f195204", "fusion_lat": 0.0, "fusion_lon": 0.0, "lon": -77.04330066666667, "is_disabled": 0, "bike_id": "8e24ca9de751beecb39c760c5f195204", "is_reserved": 0, "rental_uris": {"android": "https://dc.lft.to/lastmile_qr_scan", "ios": "https://dc.lft.to/lastmile_qr_scan"}, "lat": 38.907341}, {"type": "electric_scooter", "name": "c334349790fa55c7397cb260410b7d3a", "fusion_lat": 0.0, "fusion_lon": 0.0, "lon": -77.03853616666666, "is_disabled": 0, "bike_id": "c334349790fa55c7397cb260410b7d3a", "is_reserved": 0, "rental_uris": {"android": "https://dc.lft.to/lastmile_qr_scan", "ios": "https://dc.lft.to/lastmile_qr_scan"}, "lat": 38.91539816666667}, {"type": "electric_scooter", "name": "2cbd9e4b73d34d0c56e80924af8afbb3", "fusion_lat": 0.0, "fusion_lon": 0.0, "lon": -77.04335333333333, "is_disabled": 0, "bike_id": "2cbd9e4b73d34d0c56e80924af8afbb3", "is_reserved": 0, "rental_uris": {"android": "https://dc.lft.to/lastmile_qr_scan", "ios": "https://dc.lft.to/lastmile_qr_scan"}, "lat": 38.90634583333333}, {"type": "electric_scooter", "name": "b6f8148a46d2e3462f6e9e3a201856c2", "fusion_lat": 0.0, "fusion_lon": 0.0, "lon": -77.0199795, "is_disabled": 0, "bike_id": "b6f8148a46d2e3462f6e9e3a201856c2", "is_reserved": 0, "rental_uris": {"android": "https://dc.lft.to/lastmile_qr_scan", "ios": "https://dc.lft.to/lastmile_qr_scan"}, "lat": 38.966296166666666}, {"type": "electric_scooter", "name": "b59993bc362e8740b7a62b4d18646260", "fusion_lat": 0.0, "fusion_lon": 0.0, "lon": -77.03850733333333, "is_disabled": 0, "bike_id": "b59993bc362e8740b7a62b4d18646260", "is_reserved": 0, "rental_uris": {"android": "https://dc.lft.to/lastmile_qr_scan", "ios": "https://dc.lft.to/lastmile_qr_scan"}, "lat": 38.916647166666664}, {"type": "electric_bike", "name": "058623c83991ff404444eaa8b31debc6", "fusion_lat": 0.0, "fusion_lon": 0.0, "lon": -76.96152733333334, "is_disabled": 0, "bike_id": "058623c83991ff404444eaa8b31debc6", "is_reserved": 0, "rental_uris": {"android": "https://dc.lft.to/lastmile_qr_scan", "ios": "https://dc.lft.to/lastmile_qr_scan"}, "lat": 38.85616266666667}, {"type": "electric_scooter", "name": "7b70a021fa43938831a7e3075d164b84", "fusion_lat": 0.0, "fusion_lon": 0.0, "lon": -77.0457465, "is_disabled": 0, "bike_id": "7b70a021fa43938831a7e3075d164b84", "is_reserved": 0, "rental_uris": {"android": "https://dc.lft.to/lastmile_qr_scan", "ios": "https://dc.lft.to/lastmile_qr_scan"}, "lat": 38.903683}, {"type": "electric_scooter", "name": "1ad37a3b4b780ad10c9e58a4ce7972b3", "fusion_lat": 0.0, "fusion_lon": 0.0, "lon": -77.02814416666666, "is_disabled": 0, "bike_id": "1ad37a3b4b780ad10c9e58a4ce7972b3", "is_reserved": 0, "rental_uris": {"android": "https://dc.lft.to/lastmile_qr_scan", "ios": "https://dc.lft.to/lastmile_qr_scan"}, "lat": 38.90913466666667}, {"type": "electric_scooter", "name": "c0ed6d12b4aa952b129922cd0288e55b", "fusion_lat": 0.0, "fusion_lon": 0.0, "lon": -77.03987583333333, "is_disabled": 0, "bike_id": "c0ed6d12b4aa952b129922cd0288e55b", "is_reserved": 0, "rental_uris": {"android": "https://dc.lft.to/lastmile_qr_scan", "ios": "https://dc.lft.to/lastmile_qr_scan"}, "lat": 38.89549216666666}, {"type": "electric_scooter", "name": "a5ef8b5226625a37ffc23face68e30c8", "fusion_lat": 0.0, "fusion_lon": 0.0, "lon": -77.00732066666667, "is_disabled": 0, "bike_id": "a5ef8b5226625a37ffc23face68e30c8", "is_reserved": 0, "rental_uris": {"android": "https://dc.lft.to/lastmile_qr_scan", "ios": "https://dc.lft.to/lastmile_qr_scan"}, "lat": 38.87664066666667}, {"type": "electric_scooter", "name": "459f3b65f7f0a976bb020f84b6967aa3", "fusion_lat": 0.0, "fusion_lon": 0.0, "lon": -77.02884866666666, "is_disabled": 0, "bike_id": "459f3b65f7f0a976bb020f84b6967aa3", "is_reserved": 0, "rental_uris": {"android": "https://dc.lft.to/lastmile_qr_scan", "ios": "https://dc.lft.to/lastmile_qr_scan"}, "lat": 38.89708783333333}, {"type": "electric_scooter", "name": "56d49f296a8a16d1a46f5fcd03cc523c", "fusion_lat": 0.0, "fusion_lon": 0.0, "lon": -77.025527, "is_disabled": 0, "bike_id": "56d49f296a8a16d1a46f5fcd03cc523c", "is_reserved": 0, "rental_uris": {"android": "https://dc.lft.to/lastmile_qr_scan", "ios": "https://dc.lft.to/lastmile_qr_scan"}, "lat": 38.97005016666667}, {"type": "electric_scooter", "name": "082ef55bebc518bb88b4016db17bcf94", "fusion_lat": 0.0, "fusion_lon": 0.0, "lon": -77.0426945, "is_disabled": 0, "bike_id": "082ef55bebc518bb88b4016db17bcf94", "is_reserved": 0, "rental_uris": {"android": "https://dc.lft.to/lastmile_qr_scan", "ios": "https://dc.lft.to/lastmile_qr_scan"}, "lat": 38.903479833333336}, {"type": "electric_scooter", "name": "d8fa82445320fc197f39b24eb35a1e8c", "fusion_lat": 0.0, "fusion_lon": 0.0, "lon": -76.997577, "is_disabled": 0, "bike_id": "d8fa82445320fc197f39b24eb35a1e8c", "is_reserved": 0, "rental_uris": {"android": "https://dc.lft.to/lastmile_qr_scan", "ios": "https://dc.lft.to/lastmile_qr_scan"}, "lat": 38.8850245}, {"type": "electric_scooter", "name": "f0bfb51ebe1d141f6f68ac03e2745d6d", "fusion_lat": 0.0, "fusion_lon": 0.0, "lon": -77.0272285, "is_disabled": 0, "bike_id": "f0bfb51ebe1d141f6f68ac03e2745d6d", "is_reserved": 0, "rental_uris": {"android": "https://dc.lft.to/lastmile_qr_scan", "ios": "https://dc.lft.to/lastmile_qr_scan"}, "lat": 38.90388466666667}, {"type": "electric_scooter", "name": "94637a92b11b5bdc94bea468b7ec036d", "fusion_lat": 0.0, "fusion_lon": 0.0, "lon": -77.01652833333333, "is_disabled": 0, "bike_id": "94637a92b11b5bdc94bea468b7ec036d", "is_reserved": 0, "rental_uris": {"android": "https://dc.lft.to/lastmile_qr_scan", "ios": "https://dc.lft.to/lastmile_qr_scan"}, "lat": 38.942080833333335}, {"type": "electric_scooter", "name": "79dd9546e293ad868505144ef63911fc", "fusion_lat": 0.0, "fusion_lon": 0.0, "lon": -77.03039166666667, "is_disabled": 0, "bike_id": "79dd9546e293ad868505144ef63911fc", "is_reserved": 0, "rental_uris": {"android": "https://dc.lft.to/lastmile_qr_scan", "ios": "https://dc.lft.to/lastmile_qr_scan"}, "lat": 38.909519833333334}, {"type": "electric_scooter", "name": "fd7f9ab49f603fab0fbcadc693955117", "fusion_lat": 0.0, "fusion_lon": 0.0, "lon": -76.94064666666667, "is_disabled": 0, "bike_id": "fd7f9ab49f603fab0fbcadc693955117", "is_reserved": 0, "rental_uris": {"android": "https://dc.lft.to/lastmile_qr_scan", "ios": "https://dc.lft.to/lastmile_qr_scan"}, "lat": 38.88590266666667}, {"type": "electric_scooter", "name": "7572634e52de2a2bfecc50220e1528c8", "fusion_lat": 0.0, "fusion_lon": 0.0, "lon": -77.02947616666667, "is_disabled": 0, "bike_id": "7572634e52de2a2bfecc50220e1528c8", "is_reserved": 0, "rental_uris": {"android": "https://dc.lft.to/lastmile_qr_scan", "ios": "https://dc.lft.to/lastmile_qr_scan"}, "lat": 38.90498266666667}, {"type": "electric_scooter", "name": "81428aecc11b0507e7cff8ccf66f35e9", "fusion_lat": 0.0, "fusion_lon": 0.0, "lon": -76.99506166666667, "is_disabled": 0, "bike_id": "81428aecc11b0507e7cff8ccf66f35e9", "is_reserved": 0, "rental_uris": {"android": "https://dc.lft.to/lastmile_qr_scan", "ios": "https://dc.lft.to/lastmile_qr_scan"}, "lat": 38.9097915}, {"type": "electric_scooter", "name": "816f6fd44273b36953e099f896d730d9", "fusion_lat": 0.0, "fusion_lon": 0.0, "lon": -76.98072483333334, "is_disabled": 0, "bike_id": "816f6fd44273b36953e099f896d730d9", "is_reserved": 0, "rental_uris": {"android": "https://dc.lft.to/lastmile_qr_scan", "ios": "https://dc.lft.to/lastmile_qr_scan"}, "lat": 38.901746333333335}, {"type": "electric_scooter", "name": "35911fbb51b26e70455a0fb04ad6ecfe", "fusion_lat": 0.0, "fusion_lon": 0.0, "lon": -77.0239755, "is_disabled": 0, "bike_id": "35911fbb51b26e70455a0fb04ad6ecfe", "is_reserved": 0, "rental_uris": {"android": "https://dc.lft.to/lastmile_qr_scan", "ios": "https://dc.lft.to/lastmile_qr_scan"}, "lat": 38.9310175}, {"type": "electric_scooter", "name": "9b518495adfb8c251ded0e07618528a8", "fusion_lat": 0.0, "fusion_lon": 0.0, "lon": -77.01790366666667, "is_disabled": 0, "bike_id": "9b518495adfb8c251ded0e07618528a8", "is_reserved": 0, "rental_uris": {"android": "https://dc.lft.to/lastmile_qr_scan", "ios": "https://dc.lft.to/lastmile_qr_scan"}, "lat": 38.892394}, {"type": "electric_scooter", "name": "d80562dc0b16757abcd995bb57ab735e", "fusion_lat": 0.0, "fusion_lon": 0.0, "lon": -76.93397166666666, "is_disabled": 0, "bike_id": "d80562dc0b16757abcd995bb57ab735e", "is_reserved": 0, "rental_uris": {"android": "https://dc.lft.to/lastmile_qr_scan", "ios": "https://dc.lft.to/lastmile_qr_scan"}, "lat": 38.899120333333336}, {"type": "electric_scooter", "name": "ad724321e04693dc227b956bb892e388", "fusion_lat": 0.0, "fusion_lon": 0.0, "lon": -77.04561583333333, "is_disabled": 0, "bike_id": "ad724321e04693dc227b956bb892e388", "is_reserved": 0, "rental_uris": {"android": "https://dc.lft.to/lastmile_qr_scan", "ios": "https://dc.lft.to/lastmile_qr_scan"}, "lat": 38.90214066666667}, {"type": "electric_scooter", "name": "0f0766805abca4e98e1e96a0ccbdde15", "fusion_lat": 0.0, "fusion_lon": 0.0, "lon": -77.0004645, "is_disabled": 0, "bike_id": "0f0766805abca4e98e1e96a0ccbdde15", "is_reserved": 0, "rental_uris": {"android": "https://dc.lft.to/lastmile_qr_scan", "ios": "https://dc.lft.to/lastmile_qr_scan"}, "lat": 38.874998}, {"type": "electric_scooter", "name": "8b3b2d1bca8d88bfcc3f945fad46509b", "fusion_lat": 0.0, "fusion_lon": 0.0, "lon": -77.0250495, "is_disabled": 0, "bike_id": "8b3b2d1bca8d88bfcc3f945fad46509b", "is_reserved": 0, "rental_uris": {"android": "https://dc.lft.to/lastmile_qr_scan", "ios": "https://dc.lft.to/lastmile_qr_scan"}, "lat": 38.90721766666667}, {"type": "electric_scooter", "name": "d2a36d2923b7ab3d98ca2ebd33d0a5b1", "fusion_lat": 0.0, "fusion_lon": 0.0, "lon": -77.02568233333334, "is_disabled": 0, "bike_id": "d2a36d2923b7ab3d98ca2ebd33d0a5b1", "is_reserved": 0, "rental_uris": {"android": "https://dc.lft.to/lastmile_qr_scan", "ios": "https://dc.lft.to/lastmile_qr_scan"}, "lat": 38.94201966666667}, {"type": "electric_scooter", "name": "92b9fdca5ca467ad25e711968092342a", "fusion_lat": 0.0, "fusion_lon": 0.0, "lon": -77.01841166666667, "is_disabled": 0, "bike_id": "92b9fdca5ca467ad25e711968092342a", "is_reserved": 0, "rental_uris": {"android": "https://dc.lft.to/lastmile_qr_scan", "ios": "https://dc.lft.to/lastmile_qr_scan"}, "lat": 38.90963683333333}, {"type": "electric_scooter", "name": "e971887f4ef17dd1b149b4b35db0367f", "fusion_lat": 0.0, "fusion_lon": 0.0, "lon": -77.038576, "is_disabled": 0, "bike_id": "e971887f4ef17dd1b149b4b35db0367f", "is_reserved": 0, "rental_uris": {"android": "https://dc.lft.to/lastmile_qr_scan", "ios": "https://dc.lft.to/lastmile_qr_scan"}, "lat": 38.91657283333333}, {"type": "electric_scooter", "name": "807e5395a7dad2d8886cb2cc5bb58469", "fusion_lat": 0.0, "fusion_lon": 0.0, "lon": -77.03275116666667, "is_disabled": 0, "bike_id": "807e5395a7dad2d8886cb2cc5bb58469", "is_reserved": 0, "rental_uris": {"android": "https://dc.lft.to/lastmile_qr_scan", "ios": "https://dc.lft.to/lastmile_qr_scan"}, "lat": 38.91990083333334}, {"type": "electric_scooter", "name": "f7d1da5703872290c390b829b67b36a2", "fusion_lat": 0.0, "fusion_lon": 0.0, "lon": -77.02555416666667, "is_disabled": 0, "bike_id": "f7d1da5703872290c390b829b67b36a2", "is_reserved": 0, "rental_uris": {"android": "https://dc.lft.to/lastmile_qr_scan", "ios": "https://dc.lft.to/lastmile_qr_scan"}, "lat": 38.920884666666666}, {"type": "electric_scooter", "name": "0610a2e5d12459a613e9a6b46ac3ae3b", "fusion_lat": 0.0, "fusion_lon": 0.0, "lon": -77.01210783333333, "is_disabled": 0, "bike_id": "0610a2e5d12459a613e9a6b46ac3ae3b", "is_reserved": 0, "rental_uris": {"android": "https://dc.lft.to/lastmile_qr_scan", "ios": "https://dc.lft.to/lastmile_qr_scan"}, "lat": 38.9182595}, {"type": "electric_scooter", "name": "2dcc1831146cb332ac32846fa86cf3e2", "fusion_lat": 0.0, "fusion_lon": 0.0, "lon": -77.0363155, "is_disabled": 0, "bike_id": "2dcc1831146cb332ac32846fa86cf3e2", "is_reserved": 0, "rental_uris": {"android": "https://dc.lft.to/lastmile_qr_scan", "ios": "https://dc.lft.to/lastmile_qr_scan"}, "lat": 38.93688383333333}, {"type": "electric_scooter", "name": "6626fbd41c89f9abf37e5c46e88b367c", "fusion_lat": 0.0, "fusion_lon": 0.0, "lon": -77.05919383333334, "is_disabled": 0, "bike_id": "6626fbd41c89f9abf37e5c46e88b367c", "is_reserved": 0, "rental_uris": {"android": "https://dc.lft.to/lastmile_qr_scan", "ios": "https://dc.lft.to/lastmile_qr_scan"}, "lat": 38.902727666666664}, {"type": "electric_scooter", "name": "014bbd6ee7fa238e5a85c3751a52038f", "fusion_lat": 0.0, "fusion_lon": 0.0, "lon": -77.03957416666667, "is_disabled": 0, "bike_id": "014bbd6ee7fa238e5a85c3751a52038f", "is_reserved": 0, "rental_uris": {"android": "https://dc.lft.to/lastmile_qr_scan", "ios": "https://dc.lft.to/lastmile_qr_scan"}, "lat": 38.8925}, {"type": "electric_scooter", "name": "df2a21e991a519a6ddba8d57fcf1db47", "fusion_lat": 0.0, "fusion_lon": 0.0, "lon": -77.078653, "is_disabled": 0, "bike_id": "df2a21e991a519a6ddba8d57fcf1db47", "is_reserved": 0, "rental_uris": {"android": "https://dc.lft.to/lastmile_qr_scan", "ios": "https://dc.lft.to/lastmile_qr_scan"}, "lat": 38.924664}, {"type": "electric_scooter", "name": "824ffea52a29454c54f2e464c1ba6e36", "fusion_lat": 0.0, "fusion_lon": 0.0, "lon": -77.03633616666667, "is_disabled": 0, "bike_id": "824ffea52a29454c54f2e464c1ba6e36", "is_reserved": 0, "rental_uris": {"android": "https://dc.lft.to/lastmile_qr_scan", "ios": "https://dc.lft.to/lastmile_qr_scan"}, "lat": 38.925984666666665}, {"type": "electric_scooter", "name": "7439d3ffa87221e3e74ec2ad29fa48ac", "fusion_lat": 0.0, "fusion_lon": 0.0, "lon": -77.050049, "is_disabled": 0, "bike_id": "7439d3ffa87221e3e74ec2ad29fa48ac", "is_reserved": 0, "rental_uris": {"android": "https://dc.lft.to/lastmile_qr_scan", "ios": "https://dc.lft.to/lastmile_qr_scan"}, "lat": 38.897455}, {"type": "electric_scooter", "name": "dd6cda7ee61b772c4b51c96d3dc76307", "fusion_lat": 0.0, "fusion_lon": 0.0, "lon": -77.03728616666666, "is_disabled": 0, "bike_id": "dd6cda7ee61b772c4b51c96d3dc76307", "is_reserved": 0, "rental_uris": {"android": "https://dc.lft.to/lastmile_qr_scan", "ios": "https://dc.lft.to/lastmile_qr_scan"}, "lat": 38.920275833333335}, {"type": "electric_bike", "name": "d8be643ed79b816310a79585d5a2a6ba", "fusion_lat": 0.0, "fusion_lon": 0.0, "lon": -77.01342183333334, "is_disabled": 0, "bike_id": "d8be643ed79b816310a79585d5a2a6ba", "is_reserved": 0, "rental_uris": {"android": "https://dc.lft.to/lastmile_qr_scan", "ios": "https://dc.lft.to/lastmile_qr_scan"}, "lat": 38.89577883333333}, {"type": "electric_scooter", "name": "031c368bff2619dc0f2b0c4bd3c8d785", "fusion_lat": 0.0, "fusion_lon": 0.0, "lon": -77.0385385, "is_disabled": 0, "bike_id": "031c368bff2619dc0f2b0c4bd3c8d785", "is_reserved": 0, "rental_uris": {"android": "https://dc.lft.to/lastmile_qr_scan", "ios": "https://dc.lft.to/lastmile_qr_scan"}, "lat": 38.916676833333334}, {"type": "electric_scooter", "name": "2e37d56d76fcf37ce2869dabd6aad56b", "fusion_lat": 0.0, "fusion_lon": 0.0, "lon": -77.03358466666667, "is_disabled": 0, "bike_id": "2e37d56d76fcf37ce2869dabd6aad56b", "is_reserved": 0, "rental_uris": {"android": "https://dc.lft.to/lastmile_qr_scan", "ios": "https://dc.lft.to/lastmile_qr_scan"}, "lat": 38.924553}, {"type": "electric_scooter", "name": "ff8cb07358737fbca50d2e16dddd4b07", "fusion_lat": 0.0, "fusion_lon": 0.0, "lon": -77.00484666666667, "is_disabled": 0, "bike_id": "ff8cb07358737fbca50d2e16dddd4b07", "is_reserved": 0, "rental_uris": {"android": "https://dc.lft.to/lastmile_qr_scan", "ios": "https://dc.lft.to/lastmile_qr_scan"}, "lat": 38.87465233333333}, {"type": "electric_scooter", "name": "d3ee1df8e2e55960a8495dea310f99dc", "fusion_lat": 0.0, "fusion_lon": 0.0, "lon": -77.03055983333333, "is_disabled": 0, "bike_id": "d3ee1df8e2e55960a8495dea310f99dc", "is_reserved": 0, "rental_uris": {"android": "https://dc.lft.to/lastmile_qr_scan", "ios": "https://dc.lft.to/lastmile_qr_scan"}, "lat": 38.923805}, {"type": "electric_bike", "name": "03a37429f40ad1ca3b66189ab03308c6", "fusion_lat": 0.0, "fusion_lon": 0.0, "lon": -77.02665416666666, "is_disabled": 0, "bike_id": "03a37429f40ad1ca3b66189ab03308c6", "is_reserved": 0, "rental_uris": {"android": "https://dc.lft.to/lastmile_qr_scan", "ios": "https://dc.lft.to/lastmile_qr_scan"}, "lat": 38.98811533333333}, {"type": "electric_scooter", "name": "2171ce784d8995e24f26626dfd6e754e", "fusion_lat": 0.0, "fusion_lon": 0.0, "lon": -77.030912, "is_disabled": 0, "bike_id": "2171ce784d8995e24f26626dfd6e754e", "is_reserved": 0, "rental_uris": {"android": "https://dc.lft.to/lastmile_qr_scan", "ios": "https://dc.lft.to/lastmile_qr_scan"}, "lat": 38.909354}, {"type": "electric_scooter", "name": "e06c88f1740216fd696ec00f569352c2", "fusion_lat": 0.0, "fusion_lon": 0.0, "lon": -77.01766383333333, "is_disabled": 0, "bike_id": "e06c88f1740216fd696ec00f569352c2", "is_reserved": 0, "rental_uris": {"android": "https://dc.lft.to/lastmile_qr_scan", "ios": "https://dc.lft.to/lastmile_qr_scan"}, "lat": 38.876824}, {"type": "electric_scooter", "name": "86e9eb46a39ddd836f627415f7c673f3", "fusion_lat": 0.0, "fusion_lon": 0.0, "lon": -77.03467166666667, "is_disabled": 0, "bike_id": "86e9eb46a39ddd836f627415f7c673f3", "is_reserved": 0, "rental_uris": {"android": "https://dc.lft.to/lastmile_qr_scan", "ios": "https://dc.lft.to/lastmile_qr_scan"}, "lat": 38.9288635}, {"type": "electric_bike", "name": "6aa874b97f3f0406144282efd1acd406", "fusion_lat": 0.0, "fusion_lon": 0.0, "lon": -76.93804583333333, "is_disabled": 0, "bike_id": "6aa874b97f3f0406144282efd1acd406", "is_reserved": 0, "rental_uris": {"android": "https://dc.lft.to/lastmile_qr_scan", "ios": "https://dc.lft.to/lastmile_qr_scan"}, "lat": 38.979752}, {"type": "electric_scooter", "name": "db9598b63ab6b3805b2c342bb8b1ce00", "fusion_lat": 0.0, "fusion_lon": 0.0, "lon": -76.99621016666667, "is_disabled": 0, "bike_id": "db9598b63ab6b3805b2c342bb8b1ce00", "is_reserved": 0, "rental_uris": {"android": "https://dc.lft.to/lastmile_qr_scan", "ios": "https://dc.lft.to/lastmile_qr_scan"}, "lat": 38.877407166666664}, {"type": "electric_scooter", "name": "8d6ffaaa780be96c98eb3c584199cc6d", "fusion_lat": 0.0, "fusion_lon": 0.0, "lon": -77.00928666666667, "is_disabled": 0, "bike_id": "8d6ffaaa780be96c98eb3c584199cc6d", "is_reserved": 0, "rental_uris": {"android": "https://dc.lft.to/lastmile_qr_scan", "ios": "https://dc.lft.to/lastmile_qr_scan"}, "lat": 38.87451466666667}, {"type": "electric_scooter", "name": "0db848ec37c95dcfb41ce813e342cb09", "fusion_lat": 0.0, "fusion_lon": 0.0, "lon": -77.020105, "is_disabled": 0, "bike_id": "0db848ec37c95dcfb41ce813e342cb09", "is_reserved": 0, "rental_uris": {"android": "https://dc.lft.to/lastmile_qr_scan", "ios": "https://dc.lft.to/lastmile_qr_scan"}, "lat": 38.901663}, {"type": "electric_scooter", "name": "b9fcc103911dcbea0dc814a37366a515", "fusion_lat": 0.0, "fusion_lon": 0.0, "lon": -77.0504485, "is_disabled": 0, "bike_id": "b9fcc103911dcbea0dc814a37366a515", "is_reserved": 0, "rental_uris": {"android": "https://dc.lft.to/lastmile_qr_scan", "ios": "https://dc.lft.to/lastmile_qr_scan"}, "lat": 38.90288283333334}, {"type": "electric_scooter", "name": "ac21432c0f46e39634fb784d00cabaf0", "fusion_lat": 0.0, "fusion_lon": 0.0, "lon": -77.04002533333333, "is_disabled": 0, "bike_id": "ac21432c0f46e39634fb784d00cabaf0", "is_reserved": 0, "rental_uris": {"android": "https://dc.lft.to/lastmile_qr_scan", "ios": "https://dc.lft.to/lastmile_qr_scan"}, "lat": 38.9342805}, {"type": "electric_scooter", "name": "d171d8596b50854ccb2f84b5f93d8502", "fusion_lat": 0.0, "fusion_lon": 0.0, "lon": -76.99143383333333, "is_disabled": 0, "bike_id": "d171d8596b50854ccb2f84b5f93d8502", "is_reserved": 0, "rental_uris": {"android": "https://dc.lft.to/lastmile_qr_scan", "ios": "https://dc.lft.to/lastmile_qr_scan"}, "lat": 38.87339683333333}, {"type": "electric_scooter", "name": "f850bf853a6b362aa5d3f70826698238", "fusion_lat": 0.0, "fusion_lon": 0.0, "lon": -77.02651033333333, "is_disabled": 0, "bike_id": "f850bf853a6b362aa5d3f70826698238", "is_reserved": 0, "rental_uris": {"android": "https://dc.lft.to/lastmile_qr_scan", "ios": "https://dc.lft.to/lastmile_qr_scan"}, "lat": 38.923845}, {"type": "electric_scooter", "name": "b3878a27cb7b7d3868cfe63703f22011", "fusion_lat": 0.0, "fusion_lon": 0.0, "lon": -77.0424545, "is_disabled": 0, "bike_id": "b3878a27cb7b7d3868cfe63703f22011", "is_reserved": 0, "rental_uris": {"android": "https://dc.lft.to/lastmile_qr_scan", "ios": "https://dc.lft.to/lastmile_qr_scan"}, "lat": 38.9071265}, {"type": "electric_bike", "name": "2ffe42c495ec9f5f491612acf74bcde0", "fusion_lat": 0.0, "fusion_lon": 0.0, "lon": -77.128948, "is_disabled": 0, "bike_id": "2ffe42c495ec9f5f491612acf74bcde0", "is_reserved": 0, "rental_uris": {"android": "https://dc.lft.to/lastmile_qr_scan", "ios": "https://dc.lft.to/lastmile_qr_scan"}, "lat": 38.906036666666665}, {"type": "electric_scooter", "name": "378fdbdceadf4589a13d3660c44078ac", "fusion_lat": 0.0, "fusion_lon": 0.0, "lon": -77.04233433333333, "is_disabled": 0, "bike_id": "378fdbdceadf4589a13d3660c44078ac", "is_reserved": 0, "rental_uris": {"android": "https://dc.lft.to/lastmile_qr_scan", "ios": "https://dc.lft.to/lastmile_qr_scan"}, "lat": 38.92187083333334}, {"type": "electric_bike", "name": "b4413fc582ae664f846e7b63ebd49649", "fusion_lat": 0.0, "fusion_lon": 0.0, "lon": -76.9689025, "is_disabled": 0, "bike_id": "b4413fc582ae664f846e7b63ebd49649", "is_reserved": 0, "rental_uris": {"android": "https://dc.lft.to/lastmile_qr_scan", "ios": "https://dc.lft.to/lastmile_qr_scan"}, "lat": 38.869839166666665}, {"type": "electric_scooter", "name": "0d23e93fab85116df9c8648fefd52a0e", "fusion_lat": 0.0, "fusion_lon": 0.0, "lon": -77.0437885, "is_disabled": 0, "bike_id": "0d23e93fab85116df9c8648fefd52a0e", "is_reserved": 0, "rental_uris": {"android": "https://dc.lft.to/lastmile_qr_scan", "ios": "https://dc.lft.to/lastmile_qr_scan"}, "lat": 38.9099575}, {"type": "electric_scooter", "name": "e964149e5b4effc164c14277678ab871", "fusion_lat": 0.0, "fusion_lon": 0.0, "lon": -77.0165835, "is_disabled": 0, "bike_id": "e964149e5b4effc164c14277678ab871", "is_reserved": 0, "rental_uris": {"android": "https://dc.lft.to/lastmile_qr_scan", "ios": "https://dc.lft.to/lastmile_qr_scan"}, "lat": 38.902383666666665}, {"type": "electric_scooter", "name": "82d9d63f4ea05209b1950e973e2b144c", "fusion_lat": 0.0, "fusion_lon": 0.0, "lon": -77.0164, "is_disabled": 0, "bike_id": "82d9d63f4ea05209b1950e973e2b144c", "is_reserved": 0, "rental_uris": {"android": "https://dc.lft.to/lastmile_qr_scan", "ios": "https://dc.lft.to/lastmile_qr_scan"}, "lat": 38.903808833333336}, {"type": "electric_scooter", "name": "7d69d418ea2d366810cbe211ae1f3b74", "fusion_lat": 0.0, "fusion_lon": 0.0, "lon": -77.0191835, "is_disabled": 0, "bike_id": "7d69d418ea2d366810cbe211ae1f3b74", "is_reserved": 0, "rental_uris": {"android": "https://dc.lft.to/lastmile_qr_scan", "ios": "https://dc.lft.to/lastmile_qr_scan"}, "lat": 38.917347}, {"type": "electric_scooter", "name": "1c63355a14dba4df77f89002e0f64dc9", "fusion_lat": 0.0, "fusion_lon": 0.0, "lon": -76.98546166666667, "is_disabled": 0, "bike_id": "1c63355a14dba4df77f89002e0f64dc9", "is_reserved": 0, "rental_uris": {"android": "https://dc.lft.to/lastmile_qr_scan", "ios": "https://dc.lft.to/lastmile_qr_scan"}, "lat": 38.9070385}, {"type": "electric_scooter", "name": "d7300a970f49849512c976747d177876", "fusion_lat": 0.0, "fusion_lon": 0.0, "lon": -77.01837883333333, "is_disabled": 0, "bike_id": "d7300a970f49849512c976747d177876", "is_reserved": 0, "rental_uris": {"android": "https://dc.lft.to/lastmile_qr_scan", "ios": "https://dc.lft.to/lastmile_qr_scan"}, "lat": 38.92139483333333}, {"type": "electric_scooter", "name": "f6d5a38335a72088aa57778982e4f3f5", "fusion_lat": 0.0, "fusion_lon": 0.0, "lon": -77.0220385, "is_disabled": 0, "bike_id": "f6d5a38335a72088aa57778982e4f3f5", "is_reserved": 0, "rental_uris": {"android": "https://dc.lft.to/lastmile_qr_scan", "ios": "https://dc.lft.to/lastmile_qr_scan"}, "lat": 38.914376833333336}, {"type": "electric_scooter", "name": "0458ef8e01cfba9987afb379dfc7e5f2", "fusion_lat": 0.0, "fusion_lon": 0.0, "lon": -77.01559016666667, "is_disabled": 0, "bike_id": "0458ef8e01cfba9987afb379dfc7e5f2", "is_reserved": 0, "rental_uris": {"android": "https://dc.lft.to/lastmile_qr_scan", "ios": "https://dc.lft.to/lastmile_qr_scan"}, "lat": 38.88329}, {"type": "electric_bike", "name": "d977fefbd0fef6fda6ea2fe96eb92dd3", "fusion_lat": 0.0, "fusion_lon": 0.0, "lon": -76.95062383333334, "is_disabled": 0, "bike_id": "d977fefbd0fef6fda6ea2fe96eb92dd3", "is_reserved": 0, "rental_uris": {"android": "https://dc.lft.to/lastmile_qr_scan", "ios": "https://dc.lft.to/lastmile_qr_scan"}, "lat": 39.085102}, {"type": "electric_scooter", "name": "b3216a732e9111f1cb85d27e88f8f156", "fusion_lat": 0.0, "fusion_lon": 0.0, "lon": -77.0499255, "is_disabled": 0, "bike_id": "b3216a732e9111f1cb85d27e88f8f156", "is_reserved": 0, "rental_uris": {"android": "https://dc.lft.to/lastmile_qr_scan", "ios": "https://dc.lft.to/lastmile_qr_scan"}, "lat": 38.90124633333333}, {"type": "electric_scooter", "name": "d31e6285e5e968296dc11dca323e4dc9", "fusion_lat": 0.0, "fusion_lon": 0.0, "lon": -76.98184966666666, "is_disabled": 0, "bike_id": "d31e6285e5e968296dc11dca323e4dc9", "is_reserved": 0, "rental_uris": {"android": "https://dc.lft.to/lastmile_qr_scan", "ios": "https://dc.lft.to/lastmile_qr_scan"}, "lat": 38.9058045}, {"type": "electric_scooter", "name": "935a118e92a863cb4efe2f1110db8c51", "fusion_lat": 0.0, "fusion_lon": 0.0, "lon": -77.073289, "is_disabled": 0, "bike_id": "935a118e92a863cb4efe2f1110db8c51", "is_reserved": 0, "rental_uris": {"android": "https://dc.lft.to/lastmile_qr_scan", "ios": "https://dc.lft.to/lastmile_qr_scan"}, "lat": 38.92615516666667}, {"type": "electric_scooter", "name": "05499e1ac7fb5a2b94f906672b81e78b", "fusion_lat": 0.0, "fusion_lon": 0.0, "lon": -77.02000266666667, "is_disabled": 0, "bike_id": "05499e1ac7fb5a2b94f906672b81e78b", "is_reserved": 0, "rental_uris": {"android": "https://dc.lft.to/lastmile_qr_scan", "ios": "https://dc.lft.to/lastmile_qr_scan"}, "lat": 38.930552166666665}, {"type": "electric_scooter", "name": "0160e1eb4a5efa6489b7c30d0f5e5906", "fusion_lat": 0.0, "fusion_lon": 0.0, "lon": -77.03478133333333, "is_disabled": 0, "bike_id": "0160e1eb4a5efa6489b7c30d0f5e5906", "is_reserved": 0, "rental_uris": {"android": "https://dc.lft.to/lastmile_qr_scan", "ios": "https://dc.lft.to/lastmile_qr_scan"}, "lat": 38.92482033333334}, {"type": "electric_scooter", "name": "1817b53d1e1c051fa1b12f347101e41a", "fusion_lat": 0.0, "fusion_lon": 0.0, "lon": -77.0020655, "is_disabled": 0, "bike_id": "1817b53d1e1c051fa1b12f347101e41a", "is_reserved": 0, "rental_uris": {"android": "https://dc.lft.to/lastmile_qr_scan", "ios": "https://dc.lft.to/lastmile_qr_scan"}, "lat": 38.90038783333333}, {"type": "electric_scooter", "name": "8bf0591218f3f2826b284e430766fb3a", "fusion_lat": 0.0, "fusion_lon": 0.0, "lon": -77.04171533333333, "is_disabled": 0, "bike_id": "8bf0591218f3f2826b284e430766fb3a", "is_reserved": 0, "rental_uris": {"android": "https://dc.lft.to/lastmile_qr_scan", "ios": "https://dc.lft.to/lastmile_qr_scan"}, "lat": 38.91401183333333}, {"type": "electric_scooter", "name": "42d602474bc8150375f7b5b14c00fa10", "fusion_lat": 0.0, "fusion_lon": 0.0, "lon": -77.03309116666667, "is_disabled": 0, "bike_id": "42d602474bc8150375f7b5b14c00fa10", "is_reserved": 0, "rental_uris": {"android": "https://dc.lft.to/lastmile_qr_scan", "ios": "https://dc.lft.to/lastmile_qr_scan"}, "lat": 38.928575333333335}, {"type": "electric_scooter", "name": "17466f7b145b52ae691f7bb0bea17217", "fusion_lat": 0.0, "fusion_lon": 0.0, "lon": -77.053043, "is_disabled": 0, "bike_id": "17466f7b145b52ae691f7bb0bea17217", "is_reserved": 0, "rental_uris": {"android": "https://dc.lft.to/lastmile_qr_scan", "ios": "https://dc.lft.to/lastmile_qr_scan"}, "lat": 38.90267433333333}, {"type": "electric_scooter", "name": "65df3571d6a2fd1ed26a7aee89e25e6f", "fusion_lat": 0.0, "fusion_lon": 0.0, "lon": -77.02182783333333, "is_disabled": 0, "bike_id": "65df3571d6a2fd1ed26a7aee89e25e6f", "is_reserved": 0, "rental_uris": {"android": "https://dc.lft.to/lastmile_qr_scan", "ios": "https://dc.lft.to/lastmile_qr_scan"}, "lat": 38.90959816666667},