{"data": {"bikes": [{"fusion_lat": 0.0, "name": "8dba968007f66077879de12cdee9a0f4", "is_disabled": 0, "rental_uris": {"android": "https://dc.lft.to/lastmile_qr_scan", "ios": "https://dc.lft.to/lastmile_qr_scan"}, "fusion_lon": 0.0, "lat": 38.941209666666666, "bike_id": "8dba968007f66077879de12cdee9a0f4", "type": "electric_bike", "is_reserved": 0, "lon": -76.990327}, {"fusion_lat": 0.0, "name": "441582f26b8490ca218e36b27986370e", "is_disabled": 0, "rental_uris": {"android": "https://dc.lft.to/lastmile_qr_scan", "ios": "https://dc.lft.to/lastmile_qr_scan"}, "fusion_lon": 0.0, "lat": 38.92241516666667, "bike_id": "441582f26b8490ca218e36b27986370e", "type": "electric_scooter", "is_reserved": 0, "lon": -77.0390095}, {"fusion_lat": 0.0, "name": "695d6cfa05c355a4c70b9fd741ba58e9", "is_disabled": 0, "rental_uris": {"android": "https://dc.lft.to/lastmile_qr_scan", "ios": "https://dc.lft.to/lastmile_qr_scan"}, "fusion_lon": 0.0, "lat": 38.93590566666666, "bike_id": "695d6cfa05c355a4c70b9fd741ba58e9", "type": "electric_scooter", "is_reserved": 0, "lon": -77.02856083333333}, {"fusion_lat": 0.0, "name": "ce6b6eca5387337bb80b48a8ba7fb77b", "is_disabled": 0, "rental_uris": {"android": "https://dc.lft.to/lastmile_qr_scan", "ios": "https://dc.lft.to/lastmile_qr_scan"}, "fusion_lon": 0.0, "lat": 38.91623466666667, "bike_id": "ce6b6eca5387337bb80b48a8ba7fb77b", "type": "electric_scooter", "is_reserved": 0, "lon": -77.0215165}, {"fusion_lat": 0.0, "name": "eb74a8846a706a7f490cf8895542f0c8", "is_disabled": 0, "rental_uris": {"android": "https://dc.lft.to/lastmile_qr_scan", "ios": "https://dc.lft.to/lastmile_qr_scan"}, "fusion_lon": 0.0, "lat": 38.9039875, "bike_id": "eb74a8846a706a7f490cf8895542f0c8", "type": "electric_scooter", "is_reserved": 0, "lon": -77.03841933333334}, {"fusion_lat": 0.0, "name": "a98dc44397432c34a5b7e40c67225b53", "is_disabled": 0, "rental_uris": {"android": "https://dc.lft.to/lastmile_qr_scan", "ios": "https://dc.lft.to/lastmile_qr_scan"}, "fusion_lon": 0.0, "lat": 38.949205666666664, "bike_id": "a98dc44397432c34a5b7e40c67225b53", "type": "electric_bike", "is_reserved": 0, "lon": -77.007973}, {"fusion_lat": 0.0, "name": "22c43d2af029074a845bda4f0d2c1ff9", "is_disabled": 0, "rental_uris": {"android": "https://dc.lft.to/lastmile_qr_scan", "ios": "https://dc.lft.to/lastmile_qr_scan"}, "fusion_lon": 0.0, "lat": 38.926897, "bike_id": "22c43d2af029074a845bda4f0d2c1ff9", "type": "electric_scooter", "is_reserved": 0, "lon": -77.02969766666666}, {"fusion_lat": 0.0, "name": "1fbc3d8d36764f70ef7c3da37767cf83", "is_disabled": 0, "rental_uris": {"android": "https://dc.lft.to/lastmile_qr_scan", "ios": "https://dc.lft.to/lastmile_qr_scan"}, "fusion_lon": 0.0, "lat": 38.917542166666664, "bike_id": "1fbc3d8d36764f70ef7c3da37767cf83", "type": "electric_scooter", "is_reserved": 0, "lon": -77.04575066666666}, {"fusion_lat": 0.0, "name": "96be9f57db467e21d333c4ec9f0b02ca", "is_disabled": 0, "rental_uris": {"android": "https://dc.lft.to/lastmile_qr_scan", "ios": "https://dc.lft.to/lastmile_qr_scan"}, "fusion_lon": 0.0, "lat": 38.90717383333333, "bike_id": "96be9f57db467e21d333c4ec9f0b02ca", "type": "electric_scooter", "is_reserved": 0, "lon": -76.99822016666667}, {"fusion_lat": 0.0, "name": "b7fa980d7c7c873fcd97cd880b961062", "is_disabled": 0, "rental_uris": {"android": "https://dc.lft.to/lastmile_qr_scan", "ios": "https://dc.lft.to/lastmile_qr_scan"}, "fusion_lon": 0.0, "lat": 38.921771666666665, "bike_id": "b7fa980d7c7c873fcd97cd880b961062", "type": "electric_scooter", "is_reserved": 0, "lon": -77.0743915}, {"fusion_lat": 0.0, "name": "fec7fceb5b986feb25e23effc2c1c877", "is_disabled": 0, "rental_uris": {"android": "https://dc.lft.to/lastmile_qr_scan", "ios": "https://dc.lft.to/lastmile_qr_scan"}, "fusion_lon": 0.0, "lat": 38.912732, "bike_id": "fec7fceb5b986feb25e23effc2c1c877", "type": "electric_scooter", "is_reserved": 0, "lon": -77.02246183333334}, {"fusion_lat": 0.0, "name": "56e551763ba0b580e45e7fb76203f136", "is_disabled": 0, "rental_uris": {"android": "https://dc.lft.to/lastmile_qr_scan", "ios": "https://dc.lft.to/lastmile_qr_scan"}, "fusion_lon": 0.0, "lat": 38.910078666666664, "bike_id": "56e551763ba0b580e45e7fb76203f136", "type": "electric_scooter", "is_reserved": 0, "lon": -77.01619566666666}, {"fusion_lat": 0.0, "name": "43a003bca3e4cd26223092256834e9b1", "is_disabled": 0, "rental_uris": {"android": "https://dc.lft.to/lastmile_qr_scan", "ios": "https://dc.lft.to/lastmile_qr_scan"}, "fusion_lon": 0.0, "lat": 38.905145166666664, "bike_id": "43a003bca3e4cd26223092256834e9b1", "type": "electric_scooter", "is_reserved": 0, "lon": -77.0511775}, {"fusion_lat": 0.0, "name": "d340d006620ecfa4246658653e16384b", "is_disabled": 0, "rental_uris": {"android": "https://dc.lft.to/lastmile_qr_scan", "ios": "https://dc.lft.to/lastmile_qr_scan"}, "fusion_lon": 0.0, "lat": 38.92898566666667, "bike_id": "d340d006620ecfa4246658653e16384b", "type": "electric_scooter", "is_reserved": 0, "lon": -77.03264966666667}, {"fusion_lat": 0.0, "name": "3c954f71dda92c8b1c75bba3ec2f63ec", "is_disabled": 0, "rental_uris": {"android": "https://dc.lft.to/lastmile_qr_scan", "ios": "https://dc.lft.to/lastmile_qr_scan"}, "fusion_lon": 0.0, "lat": 38.914182, "bike_id": "3c954f71dda92c8b1c75bba3ec2f63ec", "type": "electric_scooter", "is_reserved": 0, "lon": -77.0219915}, {"fusion_lat": 0.0, "name": "21e84dd1fa1373168b591245a644b9b8", "is_disabled": 0, "rental_uris": {"android": "https://dc.lft.to/lastmile_qr_scan", "ios": "https://dc.lft.to/lastmile_qr_scan"}, "fusion_lon": 0.0, "lat": 38.876612, "bike_id": "21e84dd1fa1373168b591245a644b9b8", "type": "electric_scooter", "is_reserved": 0, "lon": -77.00066766666667}, {"fusion_lat": 0.0, "name": "c2d44ad0f13f66c17b24e36e0f65795d", "is_disabled": 0, "rental_uris": {"android": "https://dc.lft.to/lastmile_qr_scan", "ios": "https://dc.lft.to/lastmile_qr_scan"}, "fusion_lon": 0.0, "lat": 38.90465183333333, "bike_id": "c2d44ad0f13f66c17b24e36e0f65795d", "type": "electric_scooter", "is_reserved": 0, "lon": -77.05324066666667}, {"fusion_lat": 0.0, "name": "b2ee3469fe459bf6f2e85d2762b187fa", "is_disabled": 0, "rental_uris": {"android": "https://dc.lft.to/lastmile_qr_scan", "ios": "https://dc.lft.to/lastmile_qr_scan"}, "fusion_lon": 0.0, "lat": 38.95282183333333, "bike_id": "b2ee3469fe459bf6f2e85d2762b187fa", "type": "electric_scooter", "is_reserved": 0, "lon": -77.06884016666666}, {"fusion_lat": 0.0, "name": "11e28a0999f4c3c27d2aa833bc6fa98d", "is_disabled": 0, "rental_uris": {"android": "https://dc.lft.to/lastmile_qr_scan", "ios": "https://dc.lft.to/lastmile_qr_scan"}, "fusion_lon": 0.0, "lat": 38.915989, "bike_id": "11e28a0999f4c3c27d2aa833bc6fa98d", "type": "electric_scooter", "is_reserved": 0, "lon": -77.04342333333334}, {"fusion_lat": 0.0, "name": "5b123274a046dcd706ac23c2f75ac200", "is_disabled": 0, "rental_uris": {"android": "https://dc.lft.to/lastmile_qr_scan", "ios": "https://dc.lft.to/lastmile_qr_scan"}, "fusion_lon": 0.0, "lat": 38.9165075, "bike_id": "5b123274a046dcd706ac23c2f75ac200", "type": "electric_bike", "is_reserved": 0, "lon": -76.98227783333333}, {"fusion_lat": 0.0, "name": "c343a75488b860cd9696bcd492169353", "is_disabled": 0, "rental_uris": {"android": "https://dc.lft.to/lastmile_qr_scan", "ios": "https://dc.lft.to/lastmile_qr_scan"}, "fusion_lon": 0.0, "lat": 38.943907833333334, "bike_id": "c343a75488b860cd9696bcd492169353", "type": "electric_scooter", "is_reserved": 0, "lon": -77.03211533333334}, {"fusion_lat": 0.0, "name": "ec1163b0b84224967698b2c611068140", "is_disabled": 0, "rental_uris": {"android": "https://dc.lft.to/lastmile_qr_scan", "ios": "https://dc.lft.to/lastmile_qr_scan"}, "fusion_lon": 0.0, "lat": 38.9169495, "bike_id": "ec1163b0b84224967698b2c611068140", "type": "electric_scooter", "is_reserved": 0, "lon": -77.02596}, {"fusion_lat": 0.0, "name": "1069cab1f32ecd06b11b54fa64905df4", "is_disabled": 0, "rental_uris": {"android": "https://dc.lft.to/lastmile_qr_scan", "ios": "https://dc.lft.to/lastmile_qr_scan"}, "fusion_lon": 0.0, "lat": 38.950866, "bike_id": "1069cab1f32ecd06b11b54fa64905df4", "type": "electric_scooter", "is_reserved": 0, "lon": -77.0271535}, {"fusion_lat": 0.0, "name": "4975cb52d9c8f5a1071a6bff01b6ea56", "is_disabled": 0, "rental_uris": {"android": "https://dc.lft.to/lastmile_qr_scan", "ios": "https://dc.lft.to/lastmile_qr_scan"}, "fusion_lon": 0.0, "lat": 38.953498833333335, "bike_id": "4975cb52d9c8f5a1071a6bff01b6ea56", "type": "electric_scooter", "is_reserved": 0, "lon": -77.079518}, {"fusion_lat": 0.0, "name": "d705e7216455901959845619afe8a4b2", "is_disabled": 0, "rental_uris": {"android": "https://dc.lft.to/lastmile_qr_scan", "ios": "https://dc.lft.to/lastmile_qr_scan"}, "fusion_lon": 0.0, "lat": 38.92379833333333, "bike_id": "d705e7216455901959845619afe8a4b2", "type": "electric_scooter", "is_reserved": 0, "lon": -77.05152216666667}, {"fusion_lat": 0.0, "name": "7019477066a4c570ffc1fb452f5ba45f", "is_disabled": 0, "rental_uris": {"android": "https://dc.lft.to/lastmile_qr_scan", "ios": "https://dc.lft.to/lastmile_qr_scan"}, "fusion_lon": 0.0, "lat": 38.8852275, "bike_id": "7019477066a4c570ffc1fb452f5ba45f", "type": "electric_scooter", "is_reserved": 0, "lon": -77.0148615}, {"fusion_lat": 0.0, "name": "be357e6a956fa14956ca162061b899b8", "is_disabled": 0, "rental_uris": {"android": "https://dc.lft.to/lastmile_qr_scan", "ios": "https://dc.lft.to/lastmile_qr_scan"}, "fusion_lon": 0.0, "lat": 38.94515833333333, "bike_id": "be357e6a956fa14956ca162061b899b8", "type": "electric_bike", "is_reserved": 0, "lon": -77.0067795}, {"fusion_lat": 0.0, "name": "6d1e73c00ce1ffa1e460eb3706737cae", "is_disabled": 0, "rental_uris": {"android": "https://dc.lft.to/lastmile_qr_scan", "ios": "https://dc.lft.to/lastmile_qr_scan"}, "fusion_lon": 0.0, "lat": 38.9275845, "bike_id": "6d1e73c00ce1ffa1e460eb3706737cae", "type": "electric_scooter", "is_reserved": 0, "lon": -77.02449316666667}, {"fusion_lat": 0.0, "name": "dc493a55d67aa888e9f69008065cf601", "is_disabled": 0, "rental_uris": {"android": "https://dc.lft.to/lastmile_qr_scan", "ios": "https://dc.lft.to/lastmile_qr_scan"}, "fusion_lon": 0.0, "lat": 38.922164333333335, "bike_id": "dc493a55d67aa888e9f69008065cf601", "type": "electric_scooter", "is_reserved": 0, "lon": -76.99632566666666}, {"fusion_lat": 0.0, "name": "5d0b6c85db978f267e4a483980a45e85", "is_disabled": 0, "rental_uris": {"android": "https://dc.lft.to/lastmile_qr_scan", "ios": "https://dc.lft.to/lastmile_qr_scan"}, "fusion_lon": 0.0, "lat": 38.907359666666665, "bike_id": "5d0b6c85db978f267e4a483980a45e85", "type": "electric_scooter", "is_reserved": 0, "lon": -77.03446766666667}, {"fusion_lat": 0.0, "name": "c0ba083a0cc0203d581a4fe11c63d3f8", "is_disabled": 0, "rental_uris": {"android": "https://dc.lft.to/lastmile_qr_scan", "ios": "https://dc.lft.to/lastmile_qr_scan"}, "fusion_lon": 0.0, "lat": 38.90821416666667, "bike_id": "c0ba083a0cc0203d581a4fe11c63d3f8", "type": "electric_scooter", "is_reserved": 0, "lon": -77.04279483333333}, {"fusion_lat": 0.0, "name": "d5072c10b91f310a76604329a87c4bac", "is_disabled": 0, "rental_uris": {"android": "https://dc.lft.to/lastmile_qr_scan", "ios": "https://dc.lft.to/lastmile_qr_scan"}, "fusion_lon": 0.0, "lat": 38.84285283333333, "bike_id": "d5072c10b91f310a76604329a87c4bac", "type": "electric_bike", "is_reserved": 0, "lon": -77.04501733333333}, {"fusion_lat": 0.0, "name": "74f297f514406fe2541fc9625540c0ec", "is_disabled": 0, "rental_uris": {"android": "https://dc.lft.to/lastmile_qr_scan", "ios": "https://dc.lft.to/lastmile_qr_scan"}, "fusion_lon": 0.0, "lat": 38.93608616666667, "bike_id": "74f297f514406fe2541fc9625540c0ec", "type": "electric_scooter", "is_reserved": 0, "lon": -77.0585875}, {"fusion_lat": 0.0, "name": "abbed575a36812da604bfcc5a3f5c949", "is_disabled": 0, "rental_uris": {"android": "https://dc.lft.to/lastmile_qr_scan", "ios": "https://dc.lft.to/lastmile_qr_scan"}, "fusion_lon": 0.0, "lat": 38.94412633333334, "bike_id": "abbed575a36812da604bfcc5a3f5c949", "type": "electric_scooter", "is_reserved": 0, "lon": -77.063246}, {"fusion_lat": 0.0, "name": "d0aa760f0071a6d4f6e4c4840e6cdd84", "is_disabled": 0, "rental_uris": {"android": "https://dc.lft.to/lastmile_qr_scan", "ios": "https://dc.lft.to/lastmile_qr_scan"}, "fusion_lon": 0.0, "lat": 38.903350833333334, "bike_id": "d0aa760f0071a6d4f6e4c4840e6cdd84", "type": "electric_bike", "is_reserved": 0, "lon": -76.975324}, {"fusion_lat": 0.0, "name": "0ead7a70eb78f5d24b52c73a53823a20", "is_disabled": 0, "rental_uris": {"android": "https://dc.lft.to/lastmile_qr_scan", "ios": "https://dc.lft.to/lastmile_qr_scan"}, "fusion_lon": 0.0, "lat": 38.9358835, "bike_id": "0ead7a70eb78f5d24b52c73a53823a20", "type": "electric_scooter", "is_reserved": 0, "lon": -77.02849316666666}, {"fusion_lat": 0.0, "name": "6446adb012e248b22089daaab3526b82", "is_disabled": 0, "rental_uris": {"android": "https://dc.lft.to/lastmile_qr_scan", "ios": "https://dc.lft.to/lastmile_qr_scan"}, "fusion_lon": 0.0, "lat": 38.857406, "bike_id": "6446adb012e248b22089daaab3526b82", "type": "electric_bike", "is_reserved": 0, "lon": -77.05353383333333}, {"fusion_lat": 0.0, "name": "650d975253c7ee92b97c73d8f29d4351", "is_disabled": 0, "rental_uris": {"android": "https://dc.lft.to/lastmile_qr_scan", "ios": "https://dc.lft.to/lastmile_qr_scan"}, "fusion_lon": 0.0, "lat": 38.91131033333333, "bike_id": "650d975253c7ee92b97c73d8f29d4351", "type": "electric_scooter", "is_reserved": 0, "lon": -77.04417433333333}, {"fusion_lat": 0.0, "name": "596e87b5db09d4056c738142d2200676", "is_disabled": 0, "rental_uris": {"android": "https://dc.lft.to/lastmile_qr_scan", "ios": "https://dc.lft.to/lastmile_qr_scan"}, "fusion_lon": 0.0, "lat": 38.93647583333333, "bike_id": "596e87b5db09d4056c738142d2200676", "type": "electric_scooter", "is_reserved": 0, "lon": -77.03689983333334}, {"fusion_lat": 0.0, "name": "36ede88baf71256dab2dd48fd95a7c3d", "is_disabled": 0, "rental_uris": {"android": "https://dc.lft.to/lastmile_qr_scan", "ios": "https://dc.lft.to/lastmile_qr_scan"}, "fusion_lon": 0.0, "lat": 38.928169, "bike_id": "36ede88baf71256dab2dd48fd95a7c3d", "type": "electric_scooter", "is_reserved": 0, "lon": -77.02333316666666}, {"fusion_lat": 0.0, "name": "e2e5bbdc7a18a0eed1430bb53bb8abff", "is_disabled": 0, "rental_uris": {"android": "https://dc.lft.to/lastmile_qr_scan", "ios": "https://dc.lft.to/lastmile_qr_scan"}, "fusion_lon": 0.0, "lat": 38.89236483333333, "bike_id": "e2e5bbdc7a18a0eed1430bb53bb8abff", "type": "electric_scooter", "is_reserved": 0, "lon": -77.0465295}, {"fusion_lat": 0.0, "name": "05321318c0ce0c068c0d905ae1e5b479", "is_disabled": 0, "rental_uris": {"android": "https://dc.lft.to/lastmile_qr_scan", "ios": "https://dc.lft.to/lastmile_qr_scan"}, "fusion_lon": 0.0, "lat": 38.898959833333336, "bike_id": "05321318c0ce0c068c0d905ae1e5b479", "type": "electric_scooter", "is_reserved": 0, "lon": -76.98060633333333}, {"fusion_lat": 0.0, "name": "7bced2aa364b8d580fe75eb9d899be56", "is_disabled": 0, "rental_uris": {"android": "https://dc.lft.to/lastmile_qr_scan", "ios": "https://dc.lft.to/lastmile_qr_scan"}, "fusion_lon": 0.0, "lat": 38.92353033333333, "bike_id": "7bced2aa364b8d580fe75eb9d899be56", "type": "electric_scooter", "is_reserved": 0, "lon": -77.033704}, {"fusion_lat": 0.0, "name": "36c3f60423840dc00789908649db54c2", "is_disabled": 0, "rental_uris": {"android": "https://dc.lft.to/lastmile_qr_scan", "ios": "https://dc.lft.to/lastmile_qr_scan"}, "fusion_lon": 0.0, "lat": 38.898558, "bike_id": "36c3f60423840dc00789908649db54c2", "type": "electric_scooter", "is_reserved": 0, "lon": -77.03933583333334}, {"fusion_lat": 0.0, "name": "f190387c8c3137f8e32d086c0a76d5be", "is_disabled": 0, "rental_uris": {"android": "https://dc.lft.to/lastmile_qr_scan", "ios": "https://dc.lft.to/lastmile_qr_scan"}, "fusion_lon": 0.0, "lat": 38.876459833333335, "bike_id": "f190387c8c3137f8e32d086c0a76d5be", "type": "electric_scooter", "is_reserved": 0, "lon": -77.00063583333333}, {"fusion_lat": 0.0, "name": "afdfeb9c4f7f9f789549575e9e3a973c", "is_disabled": 0, "rental_uris": {"android": "https://dc.lft.to/lastmile_qr_scan", "ios": "https://dc.lft.to/lastmile_qr_scan"}, "fusion_lon": 0.0, "lat": 38.89999983333333, "bike_id": "afdfeb9c4f7f9f789549575e9e3a973c", "type": "electric_scooter", "is_reserved": 0, "lon": -77.02279483333334}, {"fusion_lat": 0.0, "name": "092ec5a0a4179e7c213f1b237ad71018", "is_disabled": 0, "rental_uris": {"android": "https://dc.lft.to/lastmile_qr_scan", "ios": "https://dc.lft.to/lastmile_qr_scan"}, "fusion_lon": 0.0, "lat": 38.923337833333335, "bike_id": "092ec5a0a4179e7c213f1b237ad71018", "type": "electric_scooter", "is_reserved": 0, "lon": -77.03618366666667}, {"fusion_lat": 0.0, "name": "93f4e34524fc6d0a200ab5dc5b81dd16", "is_disabled": 0, "rental_uris": {"android": "https://dc.lft.to/lastmile_qr_scan", "ios": "https://dc.lft.to/lastmile_qr_scan"}, "fusion_lon": 0.0, "lat": 39.0705225, "bike_id": "93f4e34524fc6d0a200ab5dc5b81dd16", "type": "electric_bike", "is_reserved": 0, "lon": -77.1148285}, {"fusion_lat": 0.0, "name": "b610117671280841ea87ef7336f77475", "is_disabled": 0, "rental_uris": {"android": "https://dc.lft.to/lastmile_qr_scan", "ios": "https://dc.lft.to/lastmile_qr_scan"}, "fusion_lon": 0.0, "lat": 38.898152, "bike_id": "b610117671280841ea87ef7336f77475", "type": "electric_scooter", "is_reserved": 0, "lon": -77.00740383333333}, {"fusion_lat": 0.0, "name": "cd345e7405b85653554a5a5d204e5157", "is_disabled": 0, "rental_uris": {"android": "https://dc.lft.to/lastmile_qr_scan", "ios": "https://dc.lft.to/lastmile_qr_scan"}, "fusion_lon": 0.0, "lat": 38.91657333333333, "bike_id": "cd345e7405b85653554a5a5d204e5157", "type": "electric_scooter", "is_reserved": 0, "lon": -77.038525}, {"fusion_lat": 0.0, "name": "920ba9c2d0e17efbd79cb584f0ac120a", "is_disabled": 0, "rental_uris": {"android": "https://dc.lft.to/lastmile_qr_scan", "ios": "https://dc.lft.to/lastmile_qr_scan"}, "fusion_lon": 0.0, "lat": 38.858615, "bike_id": "920ba9c2d0e17efbd79cb584f0ac120a", "type": "electric_bike", "is_reserved": 0, "lon": -77.09554983333334}, {"fusion_lat": 0.0, "name": "f8e7236ae5e2fe7045afb4f1b8579ee5", "is_disabled": 0, "rental_uris": {"android": "https://dc.lft.to/lastmile_qr_scan", "ios": "https://dc.lft.to/lastmile_qr_scan"}, "fusion_lon": 0.0, "lat": 38.903024333333335, "bike_id": "f8e7236ae5e2fe7045afb4f1b8579ee5", "type": "electric_scooter", "is_reserved": 0, "lon": -77.04960466666667}, {"fusion_lat": 0.0, "name": "77cb3829b22bebe025cf6e42470ba288", "is_disabled": 0, "rental_uris": {"android": "https://dc.lft.to/lastmile_qr_scan", "ios": "https://dc.lft.to/lastmile_qr_scan"}, "fusion_lon": 0.0, "lat": 38.897969, "bike_id": "77cb3829b22bebe025cf6e42470ba288", "type": "electric_scooter", "is_reserved": 0, "lon": -76.98459966666667}, {"fusion_lat": 0.0, "name": "a84a5a2ad13c2fbd3d47ab6916379de1", "is_disabled": 0, "rental_uris": {"android": "https://dc.lft.to/lastmile_qr_scan", "ios": "https://dc.lft.to/lastmile_qr_scan"}, "fusion_lon": 0.0, "lat": 38.905681333333334, "bike_id": "a84a5a2ad13c2fbd3d47ab6916379de1", "type": "electric_scooter", "is_reserved": 0, "lon": -77.04065116666666}, {"fusion_lat": 0.0, "name": "2fb9f373713a5362eabaab1ed1b66874", "is_disabled": 0, "rental_uris": {"android": "https://dc.lft.to/lastmile_qr_scan", "ios": "https://dc.lft.to/lastmile_qr_scan"}, "fusion_lon": 0.0, "lat": 38.87812133333333, "bike_id": "2fb9f373713a5362eabaab1ed1b66874", "type": "electric_scooter", "is_reserved": 0, "lon": -77.01531666666666}, {"fusion_lat": 0.0, "name": "66d0222ec5fded17359bd1d391c490ba", "is_disabled": 0, "rental_uris": {"android": "https://dc.lft.to/lastmile_qr_scan", "ios": "https://dc.lft.to/lastmile_qr_scan"}, "fusion_lon": 0.0, "lat": 38.9323705, "bike_id": "66d0222ec5fded17359bd1d391c490ba", "type": "electric_bike", "is_reserved": 0, "lon": -77.028321}, {"fusion_lat": 0.0, "name": "0af86b956fbdd48588dba7c95df2818a", "is_disabled": 0, "rental_uris": {"android": "https://dc.lft.to/lastmile_qr_scan", "ios": "https://dc.lft.to/lastmile_qr_scan"}, "fusion_lon": 0.0, "lat": 38.934543166666664, "bike_id": "0af86b956fbdd48588dba7c95df2818a", "type": "electric_scooter", "is_reserved": 0, "lon": -77.03879933333333}, {"fusion_lat": 0.0, "name": "e6338cd42d6638fe6adec98ccabaed9e", "is_disabled": 0, "rental_uris": {"android": "https://dc.lft.to/lastmile_qr_scan", "ios": "https://dc.lft.to/lastmile_qr_scan"}, "fusion_lon": 0.0, "lat": 38.92815616666667, "bike_id": "e6338cd42d6638fe6adec98ccabaed9e", "type": "electric_scooter", "is_reserved": 0, "lon": -77.02332833333334}, {"fusion_lat": 0.0, "name": "7c3e0c57eef920be5098bcb22740a835", "is_disabled": 0, "rental_uris": {"android": "https://dc.lft.to/lastmile_qr_scan", "ios": "https://dc.lft.to/lastmile_qr_scan"}, "fusion_lon": 0.0, "lat": 38.927618833333334, "bike_id": "7c3e0c57eef920be5098bcb22740a835", "type": "electric_scooter", "is_reserved": 0, "lon": -77.03274216666667}, {"fusion_lat": 0.0, "name": "53361ab52fd17bad01a5795f67e23d40", "is_disabled": 0, "rental_uris": {"android": "https://dc.lft.to/lastmile_qr_scan", "ios": "https://dc.lft.to/lastmile_qr_scan"}, "fusion_lon": 0.0, "lat": 38.92132733333333, "bike_id": "53361ab52fd17bad01a5795f67e23d40", "type": "electric_scooter", "is_reserved": 0, "lon": -77.0180185}, {"fusion_lat": 0.0, "name": "c29d23a008819772b0787218a54fde5a", "is_disabled": 0, "rental_uris": {"android": "https://dc.lft.to/lastmile_qr_scan", "ios": "https://dc.lft.to/lastmile_qr_scan"}, "fusion_lon": 0.0, "lat": 38.934464166666665, "bike_id": "c29d23a008819772b0787218a54fde5a", "type": "electric_scooter", "is_reserved": 0, "lon": -77.03870316666666}, {"fusion_lat": 0.0, "name": "d35b17424aa2fd2a0a9039485d522867", "is_disabled": 0, "rental_uris": {"android": "https://dc.lft.to/lastmile_qr_scan", "ios": "https://dc.lft.to/lastmile_qr_scan"}, "fusion_lon": 0.0, "lat": 38.90266883333334, "bike_id": "d35b17424aa2fd2a0a9039485d522867", "type": "electric_scooter", "is_reserved": 0, "lon": -77.003274}, {"fusion_lat": 0.0, "name": "ee9a51ccaff2ab84f1e08da4397c93db", "is_disabled": 0, "rental_uris": {"android": "https://dc.lft.to/lastmile_qr_scan", "ios": "https://dc.lft.to/lastmile_qr_scan"}, "fusion_lon": 0.0, "lat": 38.905671166666664, "bike_id": "ee9a51ccaff2ab84f1e08da4397c93db", "type": "electric_scooter", "is_reserved": 0, "lon": -77.007175}, {"fusion_lat": 0.0, "name": "de38f898170d8090854e16c154a8398b", "is_disabled": 0, "rental_uris": {"android": "https://dc.lft.to/lastmile_qr_scan", "ios": "https://dc.lft.to/lastmile_qr_scan"}, "fusion_lon": 0.0, "lat": 38.925284166666664, "bike_id": "de38f898170d8090854e16c154a8398b", "type": "electric_scooter", "is_reserved": 0, "lon": -77.03487483333333}, {"fusion_lat": 0.0, "name": "21fdcbf0d6e397f50b107ac5c9501382", "is_disabled": 0, "rental_uris": {"android": "https://dc.lft.to/lastmile_qr_scan", "ios": "https://dc.lft.to/lastmile_qr_scan"}, "fusion_lon": 0.0, "lat": 38.902544, "bike_id": "21fdcbf0d6e397f50b107ac5c9501382", "type": "electric_scooter", "is_reserved": 0, "lon": -77.01720366666666}, {"fusion_lat": 0.0, "name": "e370be44c9dd6e321a4e7fc0bad5ab71", "is_disabled": 0, "rental_uris": {"android": "https://dc.lft.to/lastmile_qr_scan", "ios": "https://dc.lft.to/lastmile_qr_scan"}, "fusion_lon": 0.0, "lat": 38.912012833333335, "bike_id": "e370be44c9dd6e321a4e7fc0bad5ab71", "type": "electric_scooter", "is_reserved": 0, "lon": -77.0320375}, {"fusion_lat": 0.0, "name": "b387aa0de31a75902769b54ea8e80153", "is_disabled": 0, "rental_uris": {"android": "https://dc.lft.to/lastmile_qr_scan", "ios": "https://dc.lft.to/lastmile_qr_scan"}, "fusion_lon": 0.0, "lat": 38.909815, "bike_id": "b387aa0de31a75902769b54ea8e80153", "type": "electric_scooter", "is_reserved": 0, "lon": -77.03210083333333}, {"fusion_lat": 0.0, "name": "5d65c3b8d5d69ceef45f15cd28a78629", "is_disabled": 0, "rental_uris": {"android": "https://dc.lft.to/lastmile_qr_scan", "ios": "https://dc.lft.to/lastmile_qr_scan"}, "fusion_lon": 0.0, "lat": 38.922329, "bike_id": "5d65c3b8d5d69ceef45f15cd28a78629", "type": "electric_scooter", "is_reserved": 0, "lon": -77.03521216666667}, {"fusion_lat": 0.0, "name": "e1827ac189b105309dd5943c6055bbd3", "is_disabled": 0, "rental_uris": {"android": "https://dc.lft.to/lastmile_qr_scan", "ios": "https://dc.lft.to/lastmile_qr_scan"}, "fusion_lon": 0.0, "lat": 38.91707566666667, "bike_id": "e1827ac189b105309dd5943c6055bbd3", "type": "electric_scooter", "is_reserved": 0, "lon": -77.042059}, {"fusion_lat": 0.0, "name": "7c7429bb9289987df2afdb78db4a9f42", "is_disabled": 0, "rental_uris": {"android": "https://dc.lft.to/lastmile_qr_scan", "ios": "https://dc.lft.to/lastmile_qr_scan"}, "fusion_lon": 0.0, "lat": 38.93204, "bike_id": "7c7429bb9289987df2afdb78db4a9f42", "type": "electric_scooter", "is_reserved": 0, "lon": -77.03664666666667}, {"fusion_lat": 0.0, "name": "8bb09c3a1dea493295c82abddf14c729", "is_disabled": 0, "rental_uris": {"android": "https://dc.lft.to/lastmile_qr_scan", "ios": "https://dc.lft.to/lastmile_qr_scan"}, "fusion_lon": 0.0, "lat": 38.89227833333333, "bike_id": "8bb09c3a1dea493295c82abddf14c729", "type": "electric_scooter", "is_reserved": 0, "lon": -77.04871533333333}, {"fusion_lat": 0.0, "name": "d1607e602aa7b21c309ad514f522ec4e", "is_disabled": 0, "rental_uris": {"android": "https://dc.lft.to/lastmile_qr_scan", "ios": "https://dc.lft.to/lastmile_qr_scan"}, "fusion_lon": 0.0, "lat": 38.887069333333336, "bike_id": "d1607e602aa7b21c309ad514f522ec4e", "type": "electric_scooter", "is_reserved": 0, "lon": -76.996775}, {"fusion_lat": 0.0, "name": "4e7fd03435184c24b26d520d78f7088c", "is_disabled": 0, "rental_uris": {"android": "https://dc.lft.to/lastmile_qr_scan", "ios": "https://dc.lft.to/lastmile_qr_scan"}, "fusion_lon": 0.0, "lat": 38.895455166666665, "bike_id": "4e7fd03435184c24b26d520d78f7088c", "type": "electric_scooter", "is_reserved": 0, "lon": -76.983385}, {"fusion_lat": 0.0, "name": "40fd4216d560c432088752185fd63f41", "is_disabled": 0, "rental_uris": {"android": "https://dc.lft.to/lastmile_qr_scan", "ios": "https://dc.lft.to/lastmile_qr_scan"}, "fusion_lon": 0.0, "lat": 38.90617616666667, "bike_id": "40fd4216d560c432088752185fd63f41", "type": "electric_scooter", "is_reserved": 0, "lon": -77.02528016666666}, {"fusion_lat": 0.0, "name": "860b6a70bab1b035c890abdf57ce8a2e", "is_disabled": 0, "rental_uris": {"android": "https://dc.lft.to/lastmile_qr_scan", "ios": "https://dc.lft.to/lastmile_qr_scan"}, "fusion_lon": 0.0, "lat": 38.9225085, "bike_id": "860b6a70bab1b035c890abdf57ce8a2e", "type": "electric_scooter", "is_reserved": 0, "lon": -77.03088116666666}, {"fusion_lat": 0.0, "name": "3595914dee0c1f2d2337323e79dfb6c9", "is_disabled": 0, "rental_uris": {"android": "https://dc.lft.to/lastmile_qr_scan", "ios": "https://dc.lft.to/lastmile_qr_scan"}, "fusion_lon": 0.0, "lat": 38.935837, "bike_id": "3595914dee0c1f2d2337323e79dfb6c9", "type": "electric_scooter", "is_reserved": 0, "lon": -77.03348616666666}, {"fusion_lat": 0.0, "name": "13a497100e3380dad82a1461ce9d4f09", "is_disabled": 0, "rental_uris": {"android": "https://dc.lft.to/lastmile_qr_scan", "ios": "https://dc.lft.to/lastmile_qr_scan"}, "fusion_lon": 0.0, "lat": 38.9228525, "bike_id": "13a497100e3380dad82a1461ce9d4f09", "type": "electric_scooter", "is_reserved": 0, "lon": -77.02332316666667}, {"fusion_lat": 0.0, "name": "adf85ec6755e2ade8fd893dc95657809", "is_disabled": 0, "rental_uris": {"android": "https://dc.lft.to/lastmile_qr_scan", "ios": "https://dc.lft.to/lastmile_qr_scan"}, "fusion_lon": 0.0, "lat": 38.88309666666667, "bike_id": "adf85ec6755e2ade8fd893dc95657809", "type": "electric_scooter", "is_reserved": 0, "lon": -77.0138635}, {"fusion_lat": 0.0, "name": "e18f99e7ee597acdd526f34ccbb039ba", "is_disabled": 0, "rental_uris": {"android": "https://dc.lft.to/lastmile_qr_scan", "ios": "https://dc.lft.to/lastmile_qr_scan"}, "fusion_lon": 0.0, "lat": 38.90264616666666, "bike_id": "e18f99e7ee597acdd526f34ccbb039ba", "type": "electric_scooter", "is_reserved": 0, "lon": -77.03372466666667}, {"fusion_lat": 0.0, "name": "6f5753cbce69b56a54c297f1bac92bb1", "is_disabled": 0, "rental_uris": {"android": "https://dc.lft.to/lastmile_qr_scan", "ios": "https://dc.lft.to/lastmile_qr_scan"}, "fusion_lon": 0.0, "lat": 38.924496, "bike_id": "6f5753cbce69b56a54c297f1bac92bb1", "type": "electric_scooter", "is_reserved": 0, "lon": -77.00879833333333}, {"fusion_lat": 0.0, "name": "029ccc6805f78088dfc9070fdf913938", "is_disabled": 0, "rental_uris": {"android": "https://dc.lft.to/lastmile_qr_scan", "ios": "https://dc.lft.to/lastmile_qr_scan"}, "fusion_lon": 0.0, "lat": 38.9225505, "bike_id": "029ccc6805f78088dfc9070fdf913938", "type": "electric_scooter", "is_reserved": 0, "lon": -77.030682}, {"fusion_lat": 0.0, "name": "be2844c31c677271c51df2068826fb38", "is_disabled": 0, "rental_uris": {"android": "https://dc.lft.to/lastmile_qr_scan", "ios": "https://dc.lft.to/lastmile_qr_scan"}, "fusion_lon": 0.0, "lat": 38.88989433333333, "bike_id": "be2844c31c677271c51df2068826fb38", "type": "electric_scooter", "is_reserved": 0, "lon": -77.00339066666666}, {"fusion_lat": 0.0, "name": "ca42d74f2a193bdb6d9eda2f0e775341", "is_disabled": 0, "rental_uris": {"android": "https://dc.lft.to/lastmile_qr_scan", "ios": "https://dc.lft.to/lastmile_qr_scan"}, "fusion_lon": 0.0, "lat": 38.907236833333336, "bike_id": "ca42d74f2a193bdb6d9eda2f0e775341", "type": "electric_scooter", "is_reserved": 0, "lon": -77.02808333333333}, {"fusion_lat": 0.0, "name": "7dd73df5071e9a59a569f40d055a6982", "is_disabled": 0, "rental_uris": {"android": "https://dc.lft.to/lastmile_qr_scan", "ios": "https://dc.lft.to/lastmile_qr_scan"}, "fusion_lon": 0.0, "lat": 38.90080283333333, "bike_id": "7dd73df5071e9a59a569f40d055a6982", "type": "electric_scooter", "is_reserved": 0, "lon": -77.02210516666666}, {"fusion_lat": 0.0, "name": "6682ec10da5421dae967f8f499fc7df4", "is_disabled": 0, "rental_uris": {"android": "https://dc.lft.to/lastmile_qr_scan", "ios": "https://dc.lft.to/lastmile_qr_scan"}, "fusion_lon": 0.0, "lat": 38.91117, "bike_id": "6682ec10da5421dae967f8f499fc7df4", "type": "electric_scooter", "is_reserved": 0, "lon": -77.02195883333333}, {"fusion_lat": 0.0, "name": "ebedc51a6e262dc744967db47af70465", "is_disabled": 0, "rental_uris": {"android": "https://dc.lft.to/lastmile_qr_scan", "ios": "https://dc.lft.to/lastmile_qr_scan"}, "fusion_lon": 0.0, "lat": 38.907319333333334, "bike_id": "ebedc51a6e262dc744967db47af70465", "type": "electric_scooter", "is_reserved": 0, "lon": -77.0280815}, {"fusion_lat": 0.0, "name": "ec461db679cf419ca5b06efc0b92d7e3", "is_disabled": 0, "rental_uris": {"android": "https://dc.lft.to/lastmile_qr_scan", "ios": "https://dc.lft.to/lastmile_qr_scan"}, "fusion_lon": 0.0, "lat": 38.919926333333336, "bike_id": "ec461db679cf419ca5b06efc0b92d7e3", "type": "electric_scooter", "is_reserved": 0, "lon": -77.03281983333333}, {"fusion_lat": 0.0, "name": "af95f63e842c54a5f77042cbbc667fdb", "is_disabled": 0, "rental_uris": {"android": "https://dc.lft.to/lastmile_qr_scan", "ios": "https://dc.lft.to/lastmile_qr_scan"}, "fusion_lon": 0.0, "lat": 38.94123333333334, "bike_id": "af95f63e842c54a5f77042cbbc667fdb", "type": "electric_scooter", "is_reserved": 0, "lon": -77.04379833333333}, {"fusion_lat": 0.0, "name": "269dd6d0a4b6685bd3a4c5148a99d4e0", "is_disabled": 0, "rental_uris": {"android": "https://dc.lft.to/lastmile_qr_scan", "ios": "https://dc.lft.to/lastmile_qr_scan"}, "fusion_lon": 0.0, "lat": 38.913305666666666, "bike_id": "269dd6d0a4b6685bd3a4c5148a99d4e0", "type": "electric_scooter", "is_reserved": 0, "lon": -77.01501966666666}, {"fusion_lat": 0.0, "name": "aff21fb196df90e35eab3624e3cbb928", "is_disabled": 0, "rental_uris": {"android": "https://dc.lft.to/lastmile_qr_scan", "ios": "https://dc.lft.to/lastmile_qr_scan"}, "fusion_lon": 0.0, "lat": 38.9173405, "bike_id": "aff21fb196df90e35eab3624e3cbb928", "type": "electric_scooter", "is_reserved": 0, "lon": -77.036673}, {"fusion_lat": 0.0, "name": "3c6e6fc3f2daeba701d56c13789ac5c1", "is_disabled": 0, "rental_uris": {"android": "https://dc.lft.to/lastmile_qr_scan", "ios": "https://dc.lft.to/lastmile_qr_scan"}, "fusion_lon": 0.0, "lat": 38.941982, "bike_id": "3c6e6fc3f2daeba701d56c13789ac5c1", "type": "electric_scooter", "is_reserved": 0, "lon": -77.02590016666667}, {"fusion_lat": 0.0, "name": "b850acf21e97e57bd955ea01f4517fa4", "is_disabled": 0, "rental_uris": {"android": "https://dc.lft.to/lastmile_qr_scan", "ios": "https://dc.lft.to/lastmile_qr_scan"}, "fusion_lon": 0.0, "lat": 38.93128316666667, "bike_id": "b850acf21e97e57bd955ea01f4517fa4", "type": "electric_scooter", "is_reserved": 0, "lon": -77.02974816666666}, {"fusion_lat": 0.0, "name": "e60153642b955ff3ba93d3869143a857", "is_disabled": 0, "rental_uris": {"android": "https://dc.lft.to/lastmile_qr_scan", "ios": "https://dc.lft.to/lastmile_qr_scan"}, "fusion_lon": 0.0, "lat": 38.914148833333336, "bike_id": "e60153642b955ff3ba93d3869143a857", "type": "electric_scooter", "is_reserved": 0, "lon": -77.04071766666667}, {"fusion_lat": 0.0, "name": "cd2529a57594acc01d14bfd8ca3769cd", "is_disabled": 0, "rental_uris": {"android": "https://dc.lft.to/lastmile_qr_scan", "ios": "https://dc.lft.to/lastmile_qr_scan"}, "fusion_lon": 0.0, "lat": 38.8450715, "bike_id": "cd2529a57594acc01d14bfd8ca3769cd", "type": "electric_bike", "is_reserved": 0, "lon": -76.9935185}, {"fusion_lat": 0.0, "name": "30bd12bc3f724012f6c310d481d9dbe1", "is_disabled": 0, "rental_uris": {"android": "https://dc.lft.to/lastmile_qr_scan", "ios": "https://dc.lft.to/lastmile_qr_scan"}, "fusion_lon": 0.0, "lat": 38.900295, "bike_id": "30bd12bc3f724012f6c310d481d9dbe1", "type": "electric_scooter", "is_reserved": 0, "lon": -77.011791}, {"fusion_lat": 0.0, "name": "06ab28033f3e38ef8fc397a69fd5642f", "is_disabled": 0, "rental_uris": {"android": "https://dc.lft.to/lastmile_qr_scan", "ios": "https://dc.lft.to/lastmile_qr_scan"}, "fusion_lon": 0.0, "lat": 38.892410166666664, "bike_id": "06ab28033f3e38ef8fc397a69fd5642f", "type": "electric_scooter", "is_reserved": 0, "lon": -77.043621}, {"fusion_lat": 0.0, "name": "b6fd5ddc2ed115c5d8a15810a15710ef", "is_disabled": 0, "rental_uris": {"android": "https://dc.lft.to/lastmile_qr_scan", "ios": "https://dc.lft.to/lastmile_qr_scan"}, "fusion_lon": 0.0, "lat": 38.92282216666667, "bike_id": "b6fd5ddc2ed115c5d8a15810a15710ef", "type": "electric_scooter", "is_reserved": 0, "lon": -77.03660683333334}, {"fusion_lat": 0.0, "name": "af42fdc7bd4b09f3a322e48a1a5dde2f", "is_disabled": 0, "rental_uris": {"android": "https://dc.lft.to/lastmile_qr_scan", "ios": "https://dc.lft.to/lastmile_qr_scan"}, "fusion_lon": 0.0, "lat": 38.921113, "bike_id": "af42fdc7bd4b09f3a322e48a1a5dde2f", "type": "electric_scooter", "is_reserved": 0, "lon": -77.03175316666666}, {"fusion_lat": 0.0, "name": "8444b7f5b34e37128f377d760edbd7ce", "is_disabled": 0, "rental_uris": {"android": "https://dc.lft.to/lastmile_qr_scan", "ios": "https://dc.lft.to/lastmile_qr_scan"}, "fusion_lon": 0.0, "lat": 38.8818725, "bike_id": "8444b7f5b34e37128f377d760edbd7ce", "type": "electric_scooter", "is_reserved": 0, "lon": -77.003568}, {"fusion_lat": 0.0, "name": "22606fc67e48652fd254bac2e87546ae", "is_disabled": 0, "rental_uris": {"android": "https://dc.lft.to/lastmile_qr_scan", "ios": "https://dc.lft.to/lastmile_qr_scan"}, "fusion_lon": 0.0, "lat": 38.9273685, "bike_id": "22606fc67e48652fd254bac2e87546ae", "type": "electric_scooter", "is_reserved": 0, "lon": -77.05261233333333}, {"fusion_lat": 0.0, "name": "3fb1ca229462b896e75ae63e635d5c8f", "is_disabled": 0, "rental_uris": {"android": "https://dc.lft.to/lastmile_qr_scan", "ios": "https://dc.lft.to/lastmile_qr_scan"}, "fusion_lon": 0.0, "lat": 38.90404433333333, "bike_id": "3fb1ca229462b896e75ae63e635d5c8f", "type": "electric_scooter", "is_reserved": 0, "lon": -77.051373}, {"fusion_lat": 0.0, "name": "c84517e2d8362574410d3ce0091c49a8", "is_disabled": 0, "rental_uris": {"android": "https://dc.lft.to/lastmile_qr_scan", "ios": "https://dc.lft.to/lastmile_qr_scan"}, "fusion_lon": 0.0, "lat": 38.9238445, "bike_id": "c84517e2d8362574410d3ce0091c49a8", "type": "electric_scooter", "is_reserved": 0, "lon": -77.04473783333333}, {"fusion_lat": 0.0, "name": "c6d3e56102a3ee15ce42af001f1fe026", "is_disabled": 0, "rental_uris": {"android": "https://dc.lft.to/lastmile_qr_scan", "ios": "https://dc.lft.to/lastmile_qr_scan"}, "fusion_lon": 0.0, "lat": 38.92007016666667, "bike_id": "c6d3e56102a3ee15ce42af001f1fe026", "type": "electric_scooter", "is_reserved": 0, "lon": -77.03887516666667}, {"fusion_lat": 0.0, "name": "efd3ddc6f1de1421ec8a1337f687fbea", "is_disabled": 0, "rental_uris": {"android": "https://dc.lft.to/lastmile_qr_scan", "ios": "https://dc.lft.to/lastmile_qr_scan"}, "fusion_lon": 0.0, "lat": 38.903788666666664, "bike_id": "efd3ddc6f1de1421ec8a1337f687fbea", "type": "electric_scooter", "is_reserved": 0, "lon": -76.976155}, {"fusion_lat": 0.0, "name": "02ff581c0f4d253595fc753b37caa8e7", "is_disabled": 0, "rental_uris": {"android": "https://dc.lft.to/lastmile_qr_scan", "ios": "https://dc.lft.to/lastmile_qr_scan"}, "fusion_lon": 0.0, "lat": 38.9275785, "bike_id": "02ff581c0f4d253595fc753b37caa8e7", "type": "electric_scooter", "is_reserved": 0, "lon": -77.03274}, {"fusion_lat": 0.0, "name": "e632bc922ea87613608ace276b8c93fa", "is_disabled": 0, "rental_uris": {"android": "https://dc.lft.to/lastmile_qr_scan", "ios": "https://dc.lft.to/lastmile_qr_scan"}, "fusion_lon": 0.0, "lat": 38.963956, "bike_id": "e632bc922ea87613608ace276b8c93fa", "type": "electric_scooter", "is_reserved": 0, "lon": -77.0259065}, {"fusion_lat": 0.0, "name": "694a6ea33f713014cf433f800755940c", "is_disabled": 0, "rental_uris": {"android": "https://dc.lft.to/lastmile_qr_scan", "ios": "https://dc.lft.to/lastmile_qr_scan"}, "fusion_lon": 0.0, "lat": 38.90714966666667, "bike_id": "694a6ea33f713014cf433f800755940c", "type": "electric_scooter", "is_reserved": 0, "lon": -77.03203583333334}, {"fusion_lat": 0.0, "name": "165b09dd2a376c87698ec3a0aa153a45", "is_disabled": 0, "rental_uris": {"android": "https://dc.lft.to/lastmile_qr_scan", "ios": "https://dc.lft.to/lastmile_qr_scan"}, "fusion_lon": 0.0, "lat": 38.802986833333335, "bike_id": "165b09dd2a376c87698ec3a0aa153a45", "type": "electric_bike", "is_reserved": 0, "lon": -77.05938316666666}, {"fusion_lat": 0.0, "name": "d6873d9e597fd601035d9837a1503023", "is_disabled": 0, "rental_uris": {"android": "https://dc.lft.to/lastmile_qr_scan", "ios": "https://dc.lft.to/lastmile_qr_scan"}, "fusion_lon": 0.0, "lat": 38.932484, "bike_id": "d6873d9e597fd601035d9837a1503023", "type": "electric_scooter", "is_reserved": 0, "lon": -77.0328225}, {"fusion_lat": 0.0, "name": "e92ad2fa0a7222d3f63882b0c4741dff", "is_disabled": 0, "rental_uris": {"android": "https://dc.lft.to/lastmile_qr_scan", "ios": "https://dc.lft.to/lastmile_qr_scan"}, "fusion_lon": 0.0, "lat": 38.879913, "bike_id": "e92ad2fa0a7222d3f63882b0c4741dff", "type": "electric_scooter", "is_reserved": 0, "lon": -77.00595}, {"fusion_lat": 0.0, "name": "a16db51a9433e7904ad3c0f55e480f55", "is_disabled": 0, "rental_uris": {"android": "https://dc.lft.to/lastmile_qr_scan", "ios": "https://dc.lft.to/lastmile_qr_scan"}, "fusion_lon": 0.0, "lat": 38.90012316666667, "bike_id": "a16db51a9433e7904ad3c0f55e480f55", "type": "electric_scooter", "is_reserved": 0, "lon": -77.024062}, {"fusion_lat": 0.0, "name": "3907a55e45b1fe38ada15d0c49d83dbf", "is_disabled": 0, "rental_uris": {"android": "https://dc.lft.to/lastmile_qr_scan", "ios": "https://dc.lft.to/lastmile_qr_scan"}, "fusion_lon": 0.0, "lat": 38.873771, "bike_id": "3907a55e45b1fe38ada15d0c49d83dbf", "type": "electric_scooter", "is_reserved": 0, "lon": -77.00118616666667}, {"fusion_lat": 0.0, "name": "f31486c996b111d722a0dc6daa66a9a6", "is_disabled": 0, "rental_uris": {"android": "https://dc.lft.to/lastmile_qr_scan", "ios": "https://dc.lft.to/lastmile_qr_scan"}, "fusion_lon": 0.0, "lat": 38.916915833333334, "bike_id": "f31486c996b111d722a0dc6daa66a9a6", "type": "electric_scooter", "is_reserved": 0, "lon": -77.02595333333333}, {"fusion_lat": 0.0, "name": "83b5f020d0e1ebd88769d5cae34fee44", "is_disabled": 0, "rental_uris": {"android": "https://dc.lft.to/lastmile_qr_scan", "ios": "https://dc.lft.to/lastmile_qr_scan"}, "fusion_lon": 0.0, "lat": 38.9879185, "bike_id": "83b5f020d0e1ebd88769d5cae34fee44", "type": "electric_bike", "is_reserved": 0, "lon": -77.14101116666667}, {"fusion_lat": 0.0, "name": "22ed9babc1649e33640752462b24057e", "is_disabled": 0, "rental_uris": {"android": "https://dc.lft.to/lastmile_qr_scan", "ios": "https://dc.lft.to/lastmile_qr_scan"}, "fusion_lon": 0.0, "lat": 38.908612166666664, "bike_id": "22ed9babc1649e33640752462b24057e", "type": "electric_scooter", "is_reserved": 0, "lon": -77.02399333333334}, {"fusion_lat": 0.0, "name": "9897f2d81d095b5fc8da8d54d3a7a3a1", "is_disabled": 0, "rental_uris": {"android": "https://dc.lft.to/lastmile_qr_scan", "ios": "https://dc.lft.to/lastmile_qr_scan"}, "fusion_lon": 0.0, "lat": 38.94156566666667, "bike_id": "9897f2d81d095b5fc8da8d54d3a7a3a1", "type": "electric_bike", "is_reserved": 0, "lon": -77.00194016666667}, {"fusion_lat": 0.0, "name": "49da4e91bdfaf071a6df7d44855eb044", "is_disabled": 0, "rental_uris": {"android": "https://dc.lft.to/lastmile_qr_scan", "ios": "https://dc.lft.to/lastmile_qr_scan"}, "fusion_lon": 0.0, "lat": 38.941706833333335, "bike_id": "49da4e91bdfaf071a6df7d44855eb044", "type": "electric_bike", "is_reserved": 0, "lon": -76.96654066666666}, {"fusion_lat": 0.0, "name": "21cfe06891dcaf2388f12c91b7ea56ce", "is_disabled": 0, "rental_uris": {"android": "https://dc.lft.to/lastmile_qr_scan", "ios": "https://dc.lft.to/lastmile_qr_scan"}, "fusion_lon": 0.0, "lat": 38.90447866666667, "bike_id": "21cfe06891dcaf2388f12c91b7ea56ce", "type": "electric_scooter", "is_reserved": 0, "lon": -77.058865}, {"fusion_lat": 0.0, "name": "42635f9b5431617958822f676e8eebb7", "is_disabled": 0, "rental_uris": {"android": "https://dc.lft.to/lastmile_qr_scan", "ios": "https://dc.lft.to/lastmile_qr_scan"}, "fusion_lon": 0.0, "lat": 38.88714916666667, "bike_id": "42635f9b5431617958822f676e8eebb7", "type": "electric_scooter", "is_reserved": 0, "lon": -77.02580933333333}, {"fusion_lat": 0.0, "name": "27a9b8b5c102e9a31b54a7b80299195b", "is_disabled": 0, "rental_uris": {"android": "https://dc.lft.to/lastmile_qr_scan", "ios": "https://dc.lft.to/lastmile_qr_scan"}, "fusion_lon": 0.0, "lat": 38.88393266666667, "bike_id": "27a9b8b5c102e9a31b54a7b80299195b", "type": "electric_scooter", "is_reserved": 0, "lon": -77.0200045}, {"fusion_lat": 0.0, "name": "c668d75848c6a46e5588dbd5df789169", "is_disabled": 0, "rental_uris": {"android": "https://dc.lft.to/lastmile_qr_scan", "ios": "https://dc.lft.to/lastmile_qr_scan"}, "fusion_lon": 0.0, "lat": 38.9239, "bike_id": "c668d75848c6a46e5588dbd5df789169", "type": "electric_scooter", "is_reserved": 0, "lon": -77.035351}, {"fusion_lat": 0.0, "name": "9ace59dd49ff06b8d82e147de222a951", "is_disabled": 0, "rental_uris": {"android": "https://dc.lft.to/lastmile_qr_scan", "ios": "https://dc.lft.to/lastmile_qr_scan"}, "fusion_lon": 0.0, "lat": 38.89566283333333, "bike_id": "9ace59dd49ff06b8d82e147de222a951", "type": "electric_scooter", "is_reserved": 0, "lon": -77.02409883333333}, {"fusion_lat": 0.0, "name": "a445ef8f99a490b3b2799e729d2e728e", "is_disabled": 0, "rental_uris": {"android": "https://dc.lft.to/lastmile_qr_scan", "ios": "https://dc.lft.to/lastmile_qr_scan"}, "fusion_lon": 0.0, "lat": 38.92282566666667, "bike_id": "a445ef8f99a490b3b2799e729d2e728e", "type": "electric_scooter", "is_reserved": 0, "lon": -77.07318283333333}, {"fusion_lat": 0.0, "name": "99b65375d066eb446e54444c7372cd54", "is_disabled": 0, "rental_uris": {"android": "https://dc.lft.to/lastmile_qr_scan", "ios": "https://dc.lft.to/lastmile_qr_scan"}, "fusion_lon": 0.0, "lat": 38.932594, "bike_id": "99b65375d066eb446e54444c7372cd54", "type": "electric_scooter", "is_reserved": 0, "lon": -77.03462166666667}, {"fusion_lat": 0.0, "name": "89e7988d9e0e02a477f5b12362d2d7ee", "is_disabled": 0, "rental_uris": {"android": "https://dc.lft.to/lastmile_qr_scan", "ios": "https://dc.lft.to/lastmile_qr_scan"}, "fusion_lon": 0.0, "lat": 38.90277066666667, "bike_id": "89e7988d9e0e02a477f5b12362d2d7ee", "type": "electric_scooter", "is_reserved": 0, "lon": -77.0435295}, {"fusion_lat": 0.0, "name": "6f4ff8c1a1920e8d5d8c8475332ee6d5", "is_disabled": 0, "rental_uris": {"android": "https://dc.lft.to/lastmile_qr_scan", "ios": "https://dc.lft.to/lastmile_qr_scan"}, "fusion_lon": 0.0, "lat": 38.90234266666667, "bike_id": "6f4ff8c1a1920e8d5d8c8475332ee6d5", "type": "electric_scooter", "is_reserved": 0, "lon": -77.03643066666666}, {"fusion_lat": 0.0, "name": "8d0b000799fd4eacd2a0b6b1bba6e503", "is_disabled": 0, "rental_uris": {"android": "https://dc.lft.to/lastmile_qr_scan", "ios": "https://dc.lft.to/lastmile_qr_scan"}, "fusion_lon": 0.0, "lat": 38.8934055, "bike_id": "8d0b000799fd4eacd2a0b6b1bba6e503", "type": "electric_scooter", "is_reserved": 0, "lon": -76.9915435}, {"fusion_lat": 0.0, "name": "6d396baa271d309d557084776a1eeae6", "is_disabled": 0, "rental_uris": {"android": "https://dc.lft.to/lastmile_qr_scan", "ios": "https://dc.lft.to/lastmile_qr_scan"}, "fusion_lon": 0.0, "lat": 38.877235666666664, "bike_id": "6d396baa271d309d557084776a1eeae6", "type": "electric_scooter", "is_reserved": 0, "lon": -77.0059535}, {"fusion_lat": 0.0, "name": "f9dc41ae5542e919f2fc8969aa6b89ba", "is_disabled": 0, "rental_uris": {"android": "https://dc.lft.to/lastmile_qr_scan", "ios": "https://dc.lft.to/lastmile_qr_scan"}, "fusion_lon": 0.0, "lat": 38.903988, "bike_id": "f9dc41ae5542e919f2fc8969aa6b89ba", "type": "electric_scooter", "is_reserved": 0, "lon": -77.03853083333334}, {"fusion_lat": 0.0, "name": "940b53deeeb08444607d3372b60a3d61", "is_disabled": 0, "rental_uris": {"android": "https://dc.lft.to/lastmile_qr_scan", "ios": "https://dc.lft.to/lastmile_qr_scan"}, "fusion_lon": 0.0, "lat": 38.9090515, "bike_id": "940b53deeeb08444607d3372b60a3d61", "type": "electric_scooter", "is_reserved": 0, "lon": -77.04211516666666}, {"fusion_lat": 0.0, "name": "9deb38012e59b8b790aa2c354305f9fd", "is_disabled": 0, "rental_uris": {"android": "https://dc.lft.to/lastmile_qr_scan", "ios": "https://dc.lft.to/lastmile_qr_scan"}, "fusion_lon": 0.0, "lat": 38.93825783333333, "bike_id": "9deb38012e59b8b790aa2c354305f9fd", "type": "electric_scooter", "is_reserved": 0, "lon": -76.99189166666666}, {"fusion_lat": 0.0, "name": "3f91539836963d3add8a6aed6897ce88", "is_disabled": 0, "rental_uris": {"android": "https://dc.lft.to/lastmile_qr_scan", "ios": "https://dc.lft.to/lastmile_qr_scan"}, "fusion_lon": 0.0, "lat": 38.92306766666667, "bike_id": "3f91539836963d3add8a6aed6897ce88", "type": "electric_bike", "is_reserved": 0, "lon": -76.99360016666667}, {"fusion_lat": 0.0, "name": "0fe350e87a0b854183a24de7600fcb64", "is_disabled": 0, "rental_uris": {"android": "https://dc.lft.to/lastmile_qr_scan", "ios": "https://dc.lft.to/lastmile_qr_scan"}, "fusion_lon": 0.0, "lat": 38.9025575, "bike_id": "0fe350e87a0b854183a24de7600fcb64", "type": "electric_scooter", "is_reserved": 0, "lon": -77.06384233333333}, {"fusion_lat": 0.0, "name": "d18b12b6f537c779b63b120a83312fa9", "is_disabled": 0, "rental_uris": {"android": "https://dc.lft.to/lastmile_qr_scan", "ios": "https://dc.lft.to/lastmile_qr_scan"}, "fusion_lon": 0.0, "lat": 38.908457166666665, "bike_id": "d18b12b6f537c779b63b120a83312fa9", "type": "electric_scooter", "is_reserved": 0, "lon": -77.02280566666667}, {"fusion_lat": 0.0, "name": "3580c1eadea87a7fe23e657912018dce", "is_disabled": 0, "rental_uris": {"android": "https://dc.lft.to/lastmile_qr_scan", "ios": "https://dc.lft.to/lastmile_qr_scan"}, "fusion_lon": 0.0, "lat": 38.90645583333333, "bike_id": "3580c1eadea87a7fe23e657912018dce", "type": "electric_scooter", "is_reserved": 0, "lon": -77.0531815}, {"fusion_lat": 0.0, "name": "377aa6c339d4c9e13440f8831f1fc6a6", "is_disabled": 0, "rental_uris": {"android": "https://dc.lft.to/lastmile_qr_scan", "ios": "https://dc.lft.to/lastmile_qr_scan"}, "fusion_lon": 0.0, "lat": 38.93363016666667, "bike_id": "377aa6c339d4c9e13440f8831f1fc6a6", "type": "electric_scooter", "is_reserved": 0, "lon": -77.057308}, {"fusion_lat": 0.0, "name": "3244f69ad77a1371863a7736a29d50b9", "is_disabled": 0, "rental_uris": {"android": "https://dc.lft.to/lastmile_qr_scan", "ios": "https://dc.lft.to/lastmile_qr_scan"}, "fusion_lon": 0.0, "lat": 39.0525605, "bike_id": "3244f69ad77a1371863a7736a29d50b9", "type": "electric_bike", "is_reserved": 0, "lon": -77.08067016666666}, {"fusion_lat": 0.0, "name": "e318bb7b48ba5fa0020efc58b62aebe8", "is_disabled": 0, "rental_uris": {"android": "https://dc.lft.to/lastmile_qr_scan", "ios": "https://dc.lft.to/lastmile_qr_scan"}, "fusion_lon": 0.0, "lat": 38.877091, "bike_id": "e318bb7b48ba5fa0020efc58b62aebe8", "type": "electric_scooter", "is_reserved": 0, "lon": -77.01762733333334}, {"fusion_lat": 0.0, "name": "fa9f7ad8774f012f30c150430fe2bdbd", "is_disabled": 0, "rental_uris": {"android": "https://dc.lft.to/lastmile_qr_scan", "ios": "https://dc.lft.to/lastmile_qr_scan"}, "fusion_lon": 0.0, "lat": 38.92532583333333, "bike_id": "fa9f7ad8774f012f30c150430fe2bdbd", "type": "electric_scooter", "is_reserved": 0, "lon": -77.03528116666666}, {"fusion_lat": 0.0, "name": "2668aff8d1532c9abdd15902f0aec630", "is_disabled": 0, "rental_uris": {"android": "https://dc.lft.to/lastmile_qr_scan", "ios": "https://dc.lft.to/lastmile_qr_scan"}, "fusion_lon": 0.0, "lat": 38.91927583333333, "bike_id": "2668aff8d1532c9abdd15902f0aec630", "type": "electric_scooter", "is_reserved": 0, "lon": -77.03179216666666}, {"fusion_lat": 0.0, "name": "fa65010e3bc033072ad81482568e811a", "is_disabled": 0, "rental_uris": {"android": "https://dc.lft.to/lastmile_qr_scan", "ios": "https://dc.lft.to/lastmile_qr_scan"}, "fusion_lon": 0.0, "lat": 38.900536833333334, "bike_id": "fa65010e3bc033072ad81482568e811a", "type": "electric_scooter", "is_reserved": 0, "lon": -77.03866366666666}, {"fusion_lat": 0.0, "name": "69475afc6de52ba40b9fbd21f8024014", "is_disabled": 0, "rental_uris": {"android": "https://dc.lft.to/lastmile_qr_scan", "ios": "https://dc.lft.to/lastmile_qr_scan"}, "fusion_lon": 0.0, "lat": 38.847547666666664, "bike_id": "69475afc6de52ba40b9fbd21f8024014", "type": "electric_scooter", "is_reserved": 0, "lon": -76.9950015}, {"fusion_lat": 0.0, "name": "7f485ebbce7580cffae82dbeb16e2776", "is_disabled": 0, "rental_uris": {"android": "https://dc.lft.to/lastmile_qr_scan", "ios": "https://dc.lft.to/lastmile_qr_scan"}, "fusion_lon": 0.0, "lat": 38.92855733333333, "bike_id": "7f485ebbce7580cffae82dbeb16e2776", "type": "electric_scooter", "is_reserved": 0, "lon": -77.05423083333334}, {"fusion_lat": 0.0, "name": "1d0323fdf2c4d47d9f09a05db9cb31a8", "is_disabled": 0, "rental_uris": {"android": "https://dc.lft.to/lastmile_qr_scan", "ios": "https://dc.lft.to/lastmile_qr_scan"}, "fusion_lon": 0.0, "lat": 38.898718, "bike_id": "1d0323fdf2c4d47d9f09a05db9cb31a8", "type": "electric_scooter", "is_reserved": 0, "lon": -76.93186866666667}, {"fusion_lat": 0.0, "name": "d871db29ebca7a33acea79d1dba3fb86", "is_disabled": 0, "rental_uris": {"android": "https://dc.lft.to/lastmile_qr_scan", "ios": "https://dc.lft.to/lastmile_qr_scan"}, "fusion_lon": 0.0, "lat": 38.895161, "bike_id": "d871db29ebca7a33acea79d1dba3fb86", "type": "electric_scooter", "is_reserved": 0, "lon": -76.98812283333334}, {"fusion_lat": 0.0, "name": "94249944246d92ae9242e446a4b5df4d", "is_disabled": 0, "rental_uris": {"android": "https://dc.lft.to/lastmile_qr_scan", "ios": "https://dc.lft.to/lastmile_qr_scan"}, "fusion_lon": 0.0, "lat": 38.868152, "bike_id": "94249944246d92ae9242e446a4b5df4d", "type": "electric_scooter", "is_reserved": 0, "lon": -76.995852}, {"fusion_lat": 0.0, "name": "93125f0f613a0e6c6e531f298dda75e0", "is_disabled": 0, "rental_uris": {"android": "https://dc.lft.to/lastmile_qr_scan", "ios": "https://dc.lft.to/lastmile_qr_scan"}, "fusion_lon": 0.0, "lat": 38.90439283333333, "bike_id": "93125f0f613a0e6c6e531f298dda75e0", "type": "electric_scooter", "is_reserved": 0, "lon": -77.04860183333334}, {"fusion_lat": 0.0, "name": "a7d0c23e4a0f5f93ec0ed7e157c837cb", "is_disabled": 0, "rental_uris": {"android": "https://dc.lft.to/lastmile_qr_scan", "ios": "https://dc.lft.to/lastmile_qr_scan"}, "fusion_lon": 0.0, "lat": 38.90199716666667, "bike_id": "a7d0c23e4a0f5f93ec0ed7e157c837cb", "type": "electric_scooter", "is_reserved": 0, "lon": -77.02373933333334}, {"fusion_lat": 0.0, "name": "83b429d7e01aa61bf0290cf5e80d8527", "is_disabled": 0, "rental_uris": {"android": "https://dc.lft.to/lastmile_qr_scan", "ios": "https://dc.lft.to/lastmile_qr_scan"}, "fusion_lon": 0.0, "lat": 38.93239283333333, "bike_id": "83b429d7e01aa61bf0290cf5e80d8527", "type": "electric_scooter", "is_reserved": 0, "lon": -77.0340795}, {"fusion_lat": 0.0, "name": "72832bf873b2835dcb51f4786c3c78d2", "is_disabled": 0, "rental_uris": {"android": "https://dc.lft.to/lastmile_qr_scan", "ios": "https://dc.lft.to/lastmile_qr_scan"}, "fusion_lon": 0.0, "lat": 38.897255666666666, "bike_id": "72832bf873b2835dcb51f4786c3c78d2", "type": "electric_scooter", "is_reserved": 0, "lon": -76.94700933333333}, {"fusion_lat": 0.0, "name": "44aa6bab58133cb3f649eb593bbcb98a", "is_disabled": 0, "rental_uris": {"android": "https://dc.lft.to/lastmile_qr_scan", "ios": "https://dc.lft.to/lastmile_qr_scan"}, "fusion_lon": 0.0, "lat": 38.862962833333334, "bike_id": "44aa6bab58133cb3f649eb593bbcb98a", "type": "electric_bike", "is_reserved": 0, "lon": -77.06371783333333}, {"fusion_lat": 0.0, "name": "f9d349582d6ae67056696f43bdc1614c", "is_disabled": 0, "rental_uris": {"android": "https://dc.lft.to/lastmile_qr_scan", "ios": "https://dc.lft.to/lastmile_qr_scan"}, "fusion_lon": 0.0, "lat": 38.907847, "bike_id": "f9d349582d6ae67056696f43bdc1614c", "type": "electric_scooter", "is_reserved": 0, "lon": -77.0023235}, {"fusion_lat": 0.0, "name": "9594880897aec43636189ea5900ae917", "is_disabled": 0, "rental_uris": {"android": "https://dc.lft.to/lastmile_qr_scan", "ios": "https://dc.lft.to/lastmile_qr_scan"}, "fusion_lon": 0.0, "lat": 38.91684383333333, "bike_id": "9594880897aec43636189ea5900ae917", "type": "electric_scooter", "is_reserved": 0, "lon": -77.02974016666667}, {"fusion_lat": 0.0, "name": "72a199573a80d70f29a20376755c4343", "is_disabled": 0, "rental_uris": {"android": "https://dc.lft.to/lastmile_qr_scan", "ios": "https://dc.lft.to/lastmile_qr_scan"}, "fusion_lon": 0.0, "lat": 38.960717, "bike_id": "72a199573a80d70f29a20376755c4343", "type": "electric_scooter", "is_reserved": 0, "lon": -77.00096816666667}, {"fusion_lat": 0.0, "name": "09a4d2cea01137ad86a0eb75d753f0b0", "is_disabled": 0, "rental_uris": {"android": "https://dc.lft.to/lastmile_qr_scan", "ios": "https://dc.lft.to/lastmile_qr_scan"}, "fusion_lon": 0.0, "lat": 38.901167, "bike_id": "09a4d2cea01137ad86a0eb75d753f0b0", "type": "electric_scooter", "is_reserved": 0, "lon": -77.04186116666666}, {"fusion_lat": 0.0, "name": "044c58d33e361476fad5a078bfc3f682", "is_disabled": 0, "rental_uris": {"android": "https://dc.lft.to/lastmile_qr_scan", "ios": "https://dc.lft.to/lastmile_qr_scan"}, "fusion_lon": 0.0, "lat": 38.938788, "bike_id": "044c58d33e361476fad5a078bfc3f682", "type": "electric_scooter", "is_reserved": 0, "lon": -77.0247045}, {"fusion_lat": 0.0, "name": "7dddd66a08011e0928644896bed20c6f", "is_disabled": 0, "rental_uris": {"android": "https://dc.lft.to/lastmile_qr_scan", "ios": "https://dc.lft.to/lastmile_qr_scan"}, "fusion_lon": 0.0, "lat": 38.90973016666667, "bike_id": "7dddd66a08011e0928644896bed20c6f", "type": "electric_scooter", "is_reserved": 0, "lon": -77.03435583333334}, {"fusion_lat": 0.0, "name": "23ab19fe242932062164935f0e660ab8", "is_disabled": 0, "rental_uris": {"android": "https://dc.lft.to/lastmile_qr_scan", "ios": "https://dc.lft.to/lastmile_qr_scan"}, "fusion_lon": 0.0, "lat": 38.85319483333333, "bike_id": "23ab19fe242932062164935f0e660ab8", "type": "electric_scooter", "is_reserved": 0, "lon": -76.98011283333334}, {"fusion_lat": 0.0, "name": "b417b2b61d805388fd77a393f97db37a", "is_disabled": 0, "rental_uris": {"android": "https://dc.lft.to/lastmile_qr_scan", "ios": "https://dc.lft.to/lastmile_qr_scan"}, "fusion_lon": 0.0, "lat": 38.8923115, "bike_id": "b417b2b61d805388fd77a393f97db37a", "type": "electric_scooter", "is_reserved": 0, "lon": -77.02508633333333}, {"fusion_lat": 0.0, "name": "3d027a79b3e5a94f6a76469491be6d15", "is_disabled": 0, "rental_uris": {"android": "https://dc.lft.to/lastmile_qr_scan", "ios": "https://dc.lft.to/lastmile_qr_scan"}, "fusion_lon": 0.0, "lat": 38.909509666666665, "bike_id": "3d027a79b3e5a94f6a76469491be6d15", "type": "electric_scooter", "is_reserved": 0, "lon": -77.01892566666666}, {"fusion_lat": 0.0, "name": "009650ebc463fbbbbe4efb3c707932ad", "is_disabled": 0, "rental_uris": {"android": "https://dc.lft.to/lastmile_qr_scan", "ios": "https://dc.lft.to/lastmile_qr_scan"}, "fusion_lon": 0.0, "lat": 38.920793833333335, "bike_id": "009650ebc463fbbbbe4efb3c707932ad", "type": "electric_scooter", "is_reserved": 0, "lon": -77.01394}, {"fusion_lat": 0.0, "name": "c2e2b296fc8ec72a0e65e8437e8ff741", "is_disabled": 0, "rental_uris": {"android": "https://dc.lft.to/lastmile_qr_scan", "ios": "https://dc.lft.to/lastmile_qr_scan"}, "fusion_lon": 0.0, "lat": 38.93466033333333, "bike_id": "c2e2b296fc8ec72a0e65e8437e8ff741", "type": "electric_scooter", "is_reserved": 0, "lon": -77.07212483333333}, {"fusion_lat": 0.0, "name": "7de91a2a7e626fdfb2df98f00263d649", "is_disabled": 0, "rental_uris": {"android": "https://dc.lft.to/lastmile_qr_scan", "ios": "https://dc.lft.to/lastmile_qr_scan"}, "fusion_lon": 0.0, "lat": 38.900909, "bike_id": "7de91a2a7e626fdfb2df98f00263d649", "type": "electric_scooter", "is_reserved": 0, "lon": -76.98329933333333}, {"fusion_lat": 0.0, "name": "f2f05e59c848c21417e9843212317e5f", "is_disabled": 0, "rental_uris": {"android": "https://dc.lft.to/lastmile_qr_scan", "ios": "https://dc.lft.to/lastmile_qr_scan"}, "fusion_lon": 0.0, "lat": 38.91329566666667, "bike_id": "f2f05e59c848c21417e9843212317e5f", "type": "electric_scooter", "is_reserved": 0, "lon": -77.03168666666667}, {"fusion_lat": 0.0, "name": "96346377e6d83747b4a75dce6c285c0c", "is_disabled": 0, "rental_uris": {"android": "https://dc.lft.to/lastmile_qr_scan", "ios": "https://dc.lft.to/lastmile_qr_scan"}, "fusion_lon": 0.0, "lat": 38.909479, "bike_id": "96346377e6d83747b4a75dce6c285c0c", "type": "electric_scooter", "is_reserved": 0, "lon": -76.98770283333333}, {"fusion_lat": 0.0, "name": "0af3b2b620d693890a0a6d4c19ddd879", "is_disabled": 0, "rental_uris": {"android": "https://dc.lft.to/lastmile_qr_scan", "ios": "https://dc.lft.to/lastmile_qr_scan"}, "fusion_lon": 0.0, "lat": 38.9068875, "bike_id": "0af3b2b620d693890a0a6d4c19ddd879", "type": "electric_scooter", "is_reserved": 0, "lon": -76.99967133333334}, {"fusion_lat": 0.0, "name": "5ed795e7c2382f40d1d305b71a6314b9", "is_disabled": 0, "rental_uris": {"android": "https://dc.lft.to/lastmile_qr_scan", "ios": "https://dc.lft.to/lastmile_qr_scan"}, "fusion_lon": 0.0, "lat": 38.91257016666667, "bike_id": "5ed795e7c2382f40d1d305b71a6314b9", "type": "electric_scooter", "is_reserved": 0, "lon": -77.038713}, {"fusion_lat": 0.0, "name": "e3d42cd175a27d93cfa34a97c45e1e39", "is_disabled": 0, "rental_uris": {"android": "https://dc.lft.to/lastmile_qr_scan", "ios": "https://dc.lft.to/lastmile_qr_scan"}, "fusion_lon": 0.0, "lat": 38.90022316666666, "bike_id": "e3d42cd175a27d93cfa34a97c45e1e39", "type": "electric_scooter", "is_reserved": 0, "lon": -76.97400533333334}, {"fusion_lat": 0.0, "name": "cf982cb85148c1bdbf8cba34c19bf811", "is_disabled": 0, "rental_uris": {"android": "https://dc.lft.to/lastmile_qr_scan", "ios": "https://dc.lft.to/lastmile_qr_scan"}, "fusion_lon": 0.0, "lat": 38.904687833333334, "bike_id": "cf982cb85148c1bdbf8cba34c19bf811", "type": "electric_bike", "is_reserved": 0, "lon": -77.01877583333334}, {"fusion_lat": 0.0, "name": "cceba95579afae5b382108469ef2a3d8", "is_disabled": 0, "rental_uris": {"android": "https://dc.lft.to/lastmile_qr_scan", "ios": "https://dc.lft.to/lastmile_qr_scan"}, "fusion_lon": 0.0, "lat": 38.92001166666667, "bike_id": "cceba95579afae5b382108469ef2a3d8", "type": "electric_scooter", "is_reserved": 0, "lon": -77.0237775}, {"fusion_lat": 0.0, "name": "18347be324bcc54b9caad7adf3111487", "is_disabled": 0, "rental_uris": {"android": "https://dc.lft.to/lastmile_qr_scan", "ios": "https://dc.lft.to/lastmile_qr_scan"}, "fusion_lon": 0.0, "lat": 38.930527, "bike_id": "18347be324bcc54b9caad7adf3111487", "type": "electric_scooter", "is_reserved": 0, "lon": -77.03797833333333}, {"fusion_lat": 0.0, "name": "79dd90f7819f0a257d9da951e7ec1d4f", "is_disabled": 0, "rental_uris": {"android": "https://dc.lft.to/lastmile_qr_scan", "ios": "https://dc.lft.to/lastmile_qr_scan"}, "fusion_lon": 0.0, "lat": 38.922768166666664, "bike_id": "79dd90f7819f0a257d9da951e7ec1d4f", "type": "electric_scooter", "is_reserved": 0, "lon": -76.99761516666666}, {"fusion_lat": 0.0, "name": "e91dc975d45a530d0b21010c96b826c1", "is_disabled": 0, "rental_uris": {"android": "https://dc.lft.to/lastmile_qr_scan", "ios": "https://dc.lft.to/lastmile_qr_scan"}, "fusion_lon": 0.0, "lat": 38.89726183333333, "bike_id": "e91dc975d45a530d0b21010c96b826c1", "type": "electric_scooter", "is_reserved": 0, "lon": -77.0092635}, {"fusion_lat": 0.0, "name": "df5c3cd309da19d9696bbeb5f65fcc29", "is_disabled": 0, "rental_uris": {"android": "https://dc.lft.to/lastmile_qr_scan", "ios": "https://dc.lft.to/lastmile_qr_scan"}, "fusion_lon": 0.0, "lat": 38.89920866666667, "bike_id": "df5c3cd309da19d9696bbeb5f65fcc29", "type": "electric_scooter", "is_reserved": 0, "lon": -77.003532}, {"fusion_lat": 0.0, "name": "fe6994e2d6ca1052fc11030a6d14d149", "is_disabled": 0, "rental_uris": {"android": "https://dc.lft.to/lastmile_qr_scan", "ios": "https://dc.lft.to/lastmile_qr_scan"}, "fusion_lon": 0.0, "lat": 38.913853, "bike_id": "fe6994e2d6ca1052fc11030a6d14d149", "type": "electric_scooter", "is_reserved": 0, "lon": -77.018048}, {"fusion_lat": 0.0, "name": "b726871d465dcf3717a9406196ac319a", "is_disabled": 0, "rental_uris": {"android": "https://dc.lft.to/lastmile_qr_scan", "ios": "https://dc.lft.to/lastmile_qr_scan"}, "fusion_lon": 0.0, "lat": 38.91115416666667, "bike_id": "b726871d465dcf3717a9406196ac319a", "type": "electric_scooter", "is_reserved": 0, "lon": -77.03733916666667}, {"fusion_lat": 0.0, "name": "b4526db931e8acadf4e680d5be09c80b", "is_disabled": 0, "rental_uris": {"android": "https://dc.lft.to/lastmile_qr_scan", "ios": "https://dc.lft.to/lastmile_qr_scan"}, "fusion_lon": 0.0, "lat": 38.952436666666664, "bike_id": "b4526db931e8acadf4e680d5be09c80b", "type": "electric_scooter", "is_reserved": 0, "lon": -77.02378083333333}, {"fusion_lat": 0.0, "name": "6cace4b31a379ec6c847adc64ff6e82d", "is_disabled": 0, "rental_uris": {"android": "https://dc.lft.to/lastmile_qr_scan", "ios": "https://dc.lft.to/lastmile_qr_scan"}, "fusion_lon": 0.0, "lat": 38.9210755, "bike_id": "6cace4b31a379ec6c847adc64ff6e82d", "type": "electric_scooter", "is_reserved": 0, "lon": -77.04384066666667}, {"fusion_lat": 0.0, "name": "82d656073e7f29ead7c87333aa7289dd", "is_disabled": 0, "rental_uris": {"android": "https://dc.lft.to/lastmile_qr_scan", "ios": "https://dc.lft.to/lastmile_qr_scan"}, "fusion_lon": 0.0, "lat": 38.9297035, "bike_id": "82d656073e7f29ead7c87333aa7289dd", "type": "electric_scooter", "is_reserved": 0, "lon": -77.04188116666667}, {"fusion_lat": 0.0, "name": "73977f765fac722c598bab2e749af06e", "is_disabled": 0, "rental_uris": {"android": "https://dc.lft.to/lastmile_qr_scan", "ios": "https://dc.lft.to/lastmile_qr_scan"}, "fusion_lon": 0.0, "lat": 38.926817666666665, "bike_id": "73977f765fac722c598bab2e749af06e", "type": "electric_scooter", "is_reserved": 0, "lon": -77.03101283333334}, {"fusion_lat": 0.0, "name": "1aad3d0f3dd230b83d49400a85c5e89a", "is_disabled": 0, "rental_uris": {"android": "https://dc.lft.to/lastmile_qr_scan", "ios": "https://dc.lft.to/lastmile_qr_scan"}, "fusion_lon": 0.0, "lat": 38.930604833333334, "bike_id": "1aad3d0f3dd230b83d49400a85c5e89a", "type": "electric_scooter", "is_reserved": 0, "lon": -77.022697}, {"fusion_lat": 0.0, "name": "27c576e308c01811b7dbbe59921e02be", "is_disabled": 0, "rental_uris": {"android": "https://dc.lft.to/lastmile_qr_scan", "ios": "https://dc.lft.to/lastmile_qr_scan"}, "fusion_lon": 0.0, "lat": 38.890195, "bike_id": "27c576e308c01811b7dbbe59921e02be", "type": "electric_scooter", "is_reserved": 0, "lon": -76.93735966666667}, {"fusion_lat": 0.0, "name": "48b2ccde38696256118b8ab1e1eb8889", "is_disabled": 0, "rental_uris": {"android": "https://dc.lft.to/lastmile_qr_scan", "ios": "https://dc.lft.to/lastmile_qr_scan"}, "fusion_lon": 0.0, "lat": 38.92167666666667, "bike_id": "48b2ccde38696256118b8ab1e1eb8889", "type": "electric_scooter", "is_reserved": 0, "lon": -77.04242316666667}, {"fusion_lat": 0.0, "name": "053485181ba7ff2feee39b4eb15ae128", "is_disabled": 0, "rental_uris": {"android": "https://dc.lft.to/lastmile_qr_scan", "ios": "https://dc.lft.to/lastmile_qr_scan"}, "fusion_lon": 0.0, "lat": 38.919879, "bike_id": "053485181ba7ff2feee39b4eb15ae128", "type": "electric_scooter", "is_reserved": 0, "lon": -77.023946}, {"fusion_lat": 0.0, "name": "141b955ccc0d939c6267a2f5777532f7", "is_disabled": 0, "rental_uris": {"android": "https://dc.lft.to/lastmile_qr_scan", "ios": "https://dc.lft.to/lastmile_qr_scan"}, "fusion_lon": 0.0, "lat": 38.91922483333333, "bike_id": "141b955ccc0d939c6267a2f5777532f7", "type": "electric_scooter", "is_reserved": 0, "lon": -77.031819}, {"fusion_lat": 0.0, "name": "05618cde1c2e44e81f25852abf843d2d", "is_disabled": 0, "rental_uris": {"android": "https://dc.lft.to/lastmile_qr_scan", "ios": "https://dc.lft.to/lastmile_qr_scan"}, "fusion_lon": 0.0, "lat": 38.87999, "bike_id": "05618cde1c2e44e81f25852abf843d2d", "type": "electric_bike", "is_reserved": 0, "lon": -76.98412566666667}, {"fusion_lat": 0.0, "name": "b94a4ed360dff612b6cd4af656993772", "is_disabled": 0, "rental_uris": {"android": "https://dc.lft.to/lastmile_qr_scan", "ios": "https://dc.lft.to/lastmile_qr_scan"}, "fusion_lon": 0.0, "lat": 38.8793825, "bike_id": "b94a4ed360dff612b6cd4af656993772", "type": "electric_scooter", "is_reserved": 0, "lon": -77.00419966666666}, {"fusion_lat": 0.0, "name": "7a42c32cce6d2f4d168afc07c838f745", "is_disabled": 0, "rental_uris": {"android": "https://dc.lft.to/lastmile_qr_scan", "ios": "https://dc.lft.to/lastmile_qr_scan"}, "fusion_lon": 0.0, "lat": 38.931842, "bike_id": "7a42c32cce6d2f4d168afc07c838f745", "type": "electric_scooter", "is_reserved": 0, "lon": -77.01965766666666}, {"fusion_lat": 0.0, "name": "af0073b120ab1f2bfac09cd37c481a2e", "is_disabled": 0, "rental_uris": {"android": "https://dc.lft.to/lastmile_qr_scan", "ios": "https://dc.lft.to/lastmile_qr_scan"}, "fusion_lon": 0.0, "lat": 38.903592, "bike_id": "af0073b120ab1f2bfac09cd37c481a2e", "type": "electric_scooter", "is_reserved": 0, "lon": -77.04500333333333}, {"fusion_lat": 0.0, "name": "255e05c7587db48892a24c569b92f15a", "is_disabled": 0, "rental_uris": {"android": "https://dc.lft.to/lastmile_qr_scan", "ios": "https://dc.lft.to/lastmile_qr_scan"}, "fusion_lon": 0.0, "lat": 38.922503166666665, "bike_id": "255e05c7587db48892a24c569b92f15a", "type": "electric_scooter", "is_reserved": 0, "lon": -77.03086166666667}, {"fusion_lat": 0.0, "name": "28773fa5de575e7171788a321032be1c", "is_disabled": 0, "rental_uris": {"android": "https://dc.lft.to/lastmile_qr_scan", "ios": "https://dc.lft.to/lastmile_qr_scan"}, "fusion_lon": 0.0, "lat": 38.91502366666667, "bike_id": "28773fa5de575e7171788a321032be1c", "type": "electric_scooter", "is_reserved": 0, "lon": -77.032698}, {"fusion_lat": 0.0, "name": "34295cb729ebc748ac55c4c9a2fd93e3", "is_disabled": 0, "rental_uris": {"android": "https://dc.lft.to/lastmile_qr_scan", "ios": "https://dc.lft.to/lastmile_qr_scan"}, "fusion_lon": 0.0, "lat": 38.89566116666666, "bike_id": "34295cb729ebc748ac55c4c9a2fd93e3", "type": "electric_bike", "is_reserved": 0, "lon": -77.12738416666667}, {"fusion_lat": 0.0, "name": "cd1430a3532d5a7c16adb5c226d4524a", "is_disabled": 0, "rental_uris": {"android": "https://dc.lft.to/lastmile_qr_scan", "ios": "https://dc.lft.to/lastmile_qr_scan"}, "fusion_lon": 0.0, "lat": 38.895333666666666, "bike_id": "cd1430a3532d5a7c16adb5c226d4524a", "type": "electric_scooter", "is_reserved": 0, "lon": -76.94896383333334}, {"fusion_lat": 0.0, "name": "8ebaa8819153d597ca834d2802f41005", "is_disabled": 0, "rental_uris": {"android": "https://dc.lft.to/lastmile_qr_scan", "ios": "https://dc.lft.to/lastmile_qr_scan"}, "fusion_lon": 0.0, "lat": 38.90534266666667, "bike_id": "8ebaa8819153d597ca834d2802f41005", "type": "electric_bike", "is_reserved": 0, "lon": -76.998006}, {"fusion_lat": 0.0, "name": "90723236f2703778477ad8ea16034223", "is_disabled": 0, "rental_uris": {"android": "https://dc.lft.to/lastmile_qr_scan", "ios": "https://dc.lft.to/lastmile_qr_scan"}, "fusion_lon": 0.0, "lat": 38.90904316666666, "bike_id": "90723236f2703778477ad8ea16034223", "type": "electric_scooter", "is_reserved": 0, "lon": -77.0428335}, {"fusion_lat": 0.0, "name": "a21658a0608829ed89f7365caadcfd2a", "is_disabled": 0, "rental_uris": {"android": "https://dc.lft.to/lastmile_qr_scan", "ios": "https://dc.lft.to/lastmile_qr_scan"}, "fusion_lon": 0.0, "lat": 38.92864466666666, "bike_id": "a21658a0608829ed89f7365caadcfd2a", "type": "electric_scooter", "is_reserved": 0, "lon": -77.03406133333333}, {"fusion_lat": 0.0, "name": "c498deb0040875cb6392760fb00271d7", "is_disabled": 0, "rental_uris": {"android": "https://dc.lft.to/lastmile_qr_scan", "ios": "https://dc.lft.to/lastmile_qr_scan"}, "fusion_lon": 0.0, "lat": 38.935045833333334, "bike_id": "c498deb0040875cb6392760fb00271d7", "type": "electric_scooter", "is_reserved": 0, "lon": -77.07335033333334}, {"fusion_lat": 0.0, "name": "0f7a9f7119ea9b07fa68a406cb07b4e5", "is_disabled": 0, "rental_uris": {"android": "https://dc.lft.to/lastmile_qr_scan", "ios": "https://dc.lft.to/lastmile_qr_scan"}, "fusion_lon": 0.0, "lat": 38.9023215, "bike_id": "0f7a9f7119ea9b07fa68a406cb07b4e5", "type": "electric_scooter", "is_reserved": 0, "lon": -77.054481}, {"fusion_lat": 0.0, "name": "c69e8b623023250738918a13b5994d49", "is_disabled": 0, "rental_uris": {"android": "https://dc.lft.to/lastmile_qr_scan", "ios": "https://dc.lft.to/lastmile_qr_scan"}, "fusion_lon": 0.0, "lat": 38.9075805, "bike_id": "c69e8b623023250738918a13b5994d49", "type": "electric_scooter", "is_reserved": 0, "lon": -77.03582383333334}, {"fusion_lat": 0.0, "name": "d8e587b1d246c7d0694611847a6e829c", "is_disabled": 0, "rental_uris": {"android": "https://dc.lft.to/lastmile_qr_scan", "ios": "https://dc.lft.to/lastmile_qr_scan"}, "fusion_lon": 0.0, "lat": 38.96619916666667, "bike_id": "d8e587b1d246c7d0694611847a6e829c", "type": "electric_bike", "is_reserved": 0, "lon": -77.0343365}, {"fusion_lat": 0.0, "name": "0521d9410fc97c5a813b77f91046ed39", "is_disabled": 0, "rental_uris": {"android": "https://dc.lft.to/lastmile_qr_scan", "ios": "https://dc.lft.to/lastmile_qr_scan"}, "fusion_lon": 0.0, "lat": 38.9057155, "bike_id": "0521d9410fc97c5a813b77f91046ed39", "type": "electric_scooter", "is_reserved": 0, "lon": -77.00811133333333}, {"fusion_lat": 0.0, "name": "fccb1cf6bebfe0b18787f84cb59c0662", "is_disabled": 0, "rental_uris": {"android": "https://dc.lft.to/lastmile_qr_scan", "ios": "https://dc.lft.to/lastmile_qr_scan"}, "fusion_lon": 0.0, "lat": 38.91404883333333, "bike_id": "fccb1cf6bebfe0b18787f84cb59c0662", "type": "electric_scooter", "is_reserved": 0, "lon": -77.04161466666666}, {"fusion_lat": 0.0, "name": "56463d40c25fd8024f7826f6ad505906", "is_disabled": 0, "rental_uris": {"android": "https://dc.lft.to/lastmile_qr_scan", "ios": "https://dc.lft.to/lastmile_qr_scan"}, "fusion_lon": 0.0, "lat": 38.92367016666667, "bike_id": "56463d40c25fd8024f7826f6ad505906", "type": "electric_scooter", "is_reserved": 0, "lon": -77.05030266666667}, {"fusion_lat": 0.0, "name": "a943959b66faefe1607f5b6d6a2466d6", "is_disabled": 0, "rental_uris": {"android": "https://dc.lft.to/lastmile_qr_scan", "ios": "https://dc.lft.to/lastmile_qr_scan"}, "fusion_lon": 0.0, "lat": 38.8922575, "bike_id": "a943959b66faefe1607f5b6d6a2466d6", "type": "electric_scooter", "is_reserved": 0, "lon": -77.04867216666666}, {"fusion_lat": 0.0, "name": "8945ba6ddc32a05dec73fc695b56f4ee", "is_disabled": 0, "rental_uris": {"android": "https://dc.lft.to/lastmile_qr_scan", "ios": "https://dc.lft.to/lastmile_qr_scan"}, "fusion_lon": 0.0, "lat": 38.913325, "bike_id": "8945ba6ddc32a05dec73fc695b56f4ee", "type": "electric_scooter", "is_reserved": 0, "lon": -77.04285533333334}, {"fusion_lat": 0.0, "name": "909089cee500c5d4dd9be131513560da", "is_disabled": 0, "rental_uris": {"android": "https://dc.lft.to/lastmile_qr_scan", "ios": "https://dc.lft.to/lastmile_qr_scan"}, "fusion_lon": 0.0, "lat": 38.941883, "bike_id": "909089cee500c5d4dd9be131513560da", "type": "electric_scooter", "is_reserved": 0, "lon": -77.0306705}, {"fusion_lat": 0.0, "name": "5ad712414144126d4126255df439b8a4", "is_disabled": 0, "rental_uris": {"android": "https://dc.lft.to/lastmile_qr_scan", "ios": "https://dc.lft.to/lastmile_qr_scan"}, "fusion_lon": 0.0, "lat": 38.91171216666667, "bike_id": "5ad712414144126d4126255df439b8a4", "type": "electric_scooter", "is_reserved": 0, "lon": -77.03866583333334}, {"fusion_lat": 0.0, "name": "69715b784645c207124c3bced311e248", "is_disabled": 0, "rental_uris": {"android": "https://dc.lft.to/lastmile_qr_scan", "ios": "https://dc.lft.to/lastmile_qr_scan"}, "fusion_lon": 0.0, "lat": 38.928506166666665, "bike_id": "69715b784645c207124c3bced311e248", "type": "electric_scooter", "is_reserved": 0, "lon": -77.05430633333333}, {"fusion_lat": 0.0, "name": "62b757cce27f7792b920fdd045662a72", "is_disabled": 0, "rental_uris": {"android": "https://dc.lft.to/lastmile_qr_scan", "ios": "https://dc.lft.to/lastmile_qr_scan"}, "fusion_lon": 0.0, "lat": 38.905107, "bike_id": "62b757cce27f7792b920fdd045662a72", "type": "electric_scooter", "is_reserved": 0, "lon": -77.06151016666666}, {"fusion_lat": 0.0, "name": "5425ce5ca9bac8379f99237b7ccf98de", "is_disabled": 0, "rental_uris": {"android": "https://dc.lft.to/lastmile_qr_scan", "ios": "https://dc.lft.to/lastmile_qr_scan"}, "fusion_lon": 0.0, "lat": 38.90039866666667, "bike_id": "5425ce5ca9bac8379f99237b7ccf98de", "type": "electric_scooter", "is_reserved": 0, "lon": -77.00200983333333}, {"fusion_lat": 0.0, "name": "0c1669a7956f5e1581190e0c7099b934", "is_disabled": 0, "rental_uris": {"android": "https://dc.lft.to/lastmile_qr_scan", "ios": "https://dc.lft.to/lastmile_qr_scan"}, "fusion_lon": 0.0, "lat": 38.90648633333333, "bike_id": "0c1669a7956f5e1581190e0c7099b934", "type": "electric_scooter", "is_reserved": 0, "lon": -77.04335866666666}, {"fusion_lat": 0.0, "name": "3343d3231520de58932a7a3aaf4be3ae", "is_disabled": 0, "rental_uris": {"android": "https://dc.lft.to/lastmile_qr_scan", "ios": "https://dc.lft.to/lastmile_qr_scan"}, "fusion_lon": 0.0, "lat": 38.85771966666667, "bike_id": "3343d3231520de58932a7a3aaf4be3ae", "type": "electric_bike", "is_reserved": 0, "lon": -76.987709}, {"fusion_lat": 0.0, "name": "d461a88c1dfd893075b2b69161d51aef", "is_disabled": 0, "rental_uris": {"android": "https://dc.lft.to/lastmile_qr_scan", "ios": "https://dc.lft.to/lastmile_qr_scan"}, "fusion_lon": 0.0, "lat": 38.8839615, "bike_id": "d461a88c1dfd893075b2b69161d51aef", "type": "electric_scooter", "is_reserved": 0, "lon": -76.93048316666666}, {"fusion_lat": 0.0, "name": "5951b67091c0de8c29a8693ce4d67431", "is_disabled": 0, "rental_uris": {"android": "https://dc.lft.to/lastmile_qr_scan", "ios": "https://dc.lft.to/lastmile_qr_scan"}, "fusion_lon": 0.0, "lat": 38.905503833333334, "bike_id": "5951b67091c0de8c29a8693ce4d67431", "type": "electric_scooter", "is_reserved": 0, "lon": -76.9833455}, {"fusion_lat": 0.0, "name": "eabbe29b862504f6931fa3e148fb76e7", "is_disabled": 0, "rental_uris": {"android": "https://dc.lft.to/lastmile_qr_scan", "ios": "https://dc.lft.to/lastmile_qr_scan"}, "fusion_lon": 0.0, "lat": 38.89733116666667, "bike_id": "eabbe29b862504f6931fa3e148fb76e7", "type": "electric_scooter", "is_reserved": 0, "lon": -77.0552775}, {"fusion_lat": 0.0, "name": "6e71ea398ce446034dc53454259c6d58", "is_disabled": 0, "rental_uris": {"android": "https://dc.lft.to/lastmile_qr_scan", "ios": "https://dc.lft.to/lastmile_qr_scan"}, "fusion_lon": 0.0, "lat": 38.9338285, "bike_id": "6e71ea398ce446034dc53454259c6d58", "type": "electric_scooter", "is_reserved": 0, "lon": -77.0388345}, {"fusion_lat": 0.0, "name": "f773b2c7d7cd12e9f8f344d4308ab0f6", "is_disabled": 0, "rental_uris": {"android": "https://dc.lft.to/lastmile_qr_scan", "ios": "https://dc.lft.to/lastmile_qr_scan"}, "fusion_lon": 0.0, "lat": 38.89782066666667, "bike_id": "f773b2c7d7cd12e9f8f344d4308ab0f6", "type": "electric_scooter", "is_reserved": 0, "lon": -77.0219365}, {"fusion_lat": 0.0, "name": "8f915de14b81beeaeb1c836b12e6817b", "is_disabled": 0, "rental_uris": {"android": "https://dc.lft.to/lastmile_qr_scan", "ios": "https://dc.lft.to/lastmile_qr_scan"}, "fusion_lon": 0.0, "lat": 38.90203066666667, "bike_id": "8f915de14b81beeaeb1c836b12e6817b", "type": "electric_scooter", "is_reserved": 0, "lon": -77.02370866666666}, {"fusion_lat": 0.0, "name": "fa69bea8028f106784763542db3763a7", "is_disabled": 0, "rental_uris": {"android": "https://dc.lft.to/lastmile_qr_scan", "ios": "https://dc.lft.to/lastmile_qr_scan"}, "fusion_lon": 0.0, "lat": 38.898537833333336, "bike_id": "fa69bea8028f106784763542db3763a7", "type": "electric_bike", "is_reserved": 0, "lon": -76.931886}, {"fusion_lat": 0.0, "name": "80743811acd1ad03cd89fb74bcdb84ea", "is_disabled": 0, "rental_uris": {"android": "https://dc.lft.to/lastmile_qr_scan", "ios": "https://dc.lft.to/lastmile_qr_scan"}, "fusion_lon": 0.0, "lat": 38.940872666666664, "bike_id": "80743811acd1ad03cd89fb74bcdb84ea", "type": "electric_scooter", "is_reserved": 0, "lon": -77.06184733333333}, {"fusion_lat": 0.0, "name": "c8a354c3e4a84ce131d7bb14bd1cf57e", "is_disabled": 0, "rental_uris": {"android": "https://dc.lft.to/lastmile_qr_scan", "ios": "https://dc.lft.to/lastmile_qr_scan"}, "fusion_lon": 0.0, "lat": 38.898241, "bike_id": "c8a354c3e4a84ce131d7bb14bd1cf57e", "type": "electric_scooter", "is_reserved": 0, "lon": -77.02631466666666}, {"fusion_lat": 0.0, "name": "38aa71b636910f78ec78b50cf2e45862", "is_disabled": 0, "rental_uris": {"android": "https://dc.lft.to/lastmile_qr_scan", "ios": "https://dc.lft.to/lastmile_qr_scan"}, "fusion_lon": 0.0, "lat": 38.90972216666667, "bike_id": "38aa71b636910f78ec78b50cf2e45862", "type": "electric_scooter", "is_reserved": 0, "lon": -77.02079516666667}, {"fusion_lat": 0.0, "name": "a55e27603098789b379cedd8eb9e5a34", "is_disabled": 0, "rental_uris": {"android": "https://dc.lft.to/lastmile_qr_scan", "ios": "https://dc.lft.to/lastmile_qr_scan"}, "fusion_lon": 0.0, "lat": 38.8991145, "bike_id": "a55e27603098789b379cedd8eb9e5a34", "type": "electric_scooter", "is_reserved": 0, "lon": -76.94587083333333}, {"fusion_lat": 0.0, "name": "6604a860fa23820a8d86718838a45807", "is_disabled": 0, "rental_uris": {"android": "https://dc.lft.to/lastmile_qr_scan", "ios": "https://dc.lft.to/lastmile_qr_scan"}, "fusion_lon": 0.0, "lat": 38.92838116666667, "bike_id": "6604a860fa23820a8d86718838a45807", "type": "electric_scooter", "is_reserved": 0, "lon": -77.01587966666666}, {"fusion_lat": 0.0, "name": "bedf870e4ef003721e19474670237298", "is_disabled": 0, "rental_uris": {"android": "https://dc.lft.to/lastmile_qr_scan", "ios": "https://dc.lft.to/lastmile_qr_scan"}, "fusion_lon": 0.0, "lat": 38.888364333333335, "bike_id": "bedf870e4ef003721e19474670237298", "type": "electric_scooter", "is_reserved": 0, "lon": -77.04908816666666}, {"fusion_lat": 0.0, "name": "fcc93d395c1a4fba46ff7ae270ee55c7", "is_disabled": 0, "rental_uris": {"android": "https://dc.lft.to/lastmile_qr_scan", "ios": "https://dc.lft.to/lastmile_qr_scan"}, "fusion_lon": 0.0, "lat": 38.9361085, "bike_id": "fcc93d395c1a4fba46ff7ae270ee55c7", "type": "electric_scooter", "is_reserved": 0, "lon": -77.05864366666667}, {"fusion_lat": 0.0, "name": "dca11e770d0e70bf3d25f2beb6ce2a23", "is_disabled": 0, "rental_uris": {"android": "https://dc.lft.to/lastmile_qr_scan", "ios": "https://dc.lft.to/lastmile_qr_scan"}, "fusion_lon": 0.0, "lat": 38.90785483333333, "bike_id": "dca11e770d0e70bf3d25f2beb6ce2a23", "type": "electric_scooter", "is_reserved": 0, "lon": -77.042458}, {"fusion_lat": 0.0, "name": "4f02e4ad430661cb68347b3477cd17ff", "is_disabled": 0, "rental_uris": {"android": "https://dc.lft.to/lastmile_qr_scan", "ios": "https://dc.lft.to/lastmile_qr_scan"}, "fusion_lon": 0.0, "lat": 38.875795, "bike_id": "4f02e4ad430661cb68347b3477cd17ff", "type": "electric_bike", "is_reserved": 0, "lon": -77.234124}, {"fusion_lat": 0.0, "name": "dd7596807d71e51c5cef131298c7acdf", "is_disabled": 0, "rental_uris": {"android": "https://dc.lft.to/lastmile_qr_scan", "ios": "https://dc.lft.to/lastmile_qr_scan"}, "fusion_lon": 0.0, "lat": 38.91549216666667, "bike_id": "dd7596807d71e51c5cef131298c7acdf", "type": "electric_scooter", "is_reserved": 0, "lon": -77.00361983333333}, {"fusion_lat": 0.0, "name": "428e6679230e7fe4f3d85af3f10496aa", "is_disabled": 0, "rental_uris": {"android": "https://dc.lft.to/lastmile_qr_scan", "ios": "https://dc.lft.to/lastmile_qr_scan"}, "fusion_lon": 0.0, "lat": 38.899107, "bike_id": "428e6679230e7fe4f3d85af3f10496aa", "type": "electric_scooter", "is_reserved": 0, "lon": -76.9335045}, {"fusion_lat": 0.0, "name": "f29b3d26bc46076963d8dd51d36d5ce8", "is_disabled": 0, "rental_uris": {"android": "https://dc.lft.to/lastmile_qr_scan", "ios": "https://dc.lft.to/lastmile_qr_scan"}, "fusion_lon": 0.0, "lat": 38.88530033333333, "bike_id": "f29b3d26bc46076963d8dd51d36d5ce8", "type": "electric_scooter", "is_reserved": 0, "lon": -76.92913383333334}, {"fusion_lat": 0.0, "name": "c80dae3b4c31f90e27a913accbff50fa", "is_disabled": 0, "rental_uris": {"android": "https://dc.lft.to/lastmile_qr_scan", "ios": "https://dc.lft.to/lastmile_qr_scan"}, "fusion_lon": 0.0, "lat": 38.905651, "bike_id": "c80dae3b4c31f90e27a913accbff50fa", "type": "electric_scooter", "is_reserved": 0, "lon": -77.02598633333334}, {"fusion_lat": 0.0, "name": "084bab0d63c58918880a99710be9e51f", "is_disabled": 0, "rental_uris": {"android": "https://dc.lft.to/lastmile_qr_scan", "ios": "https://dc.lft.to/lastmile_qr_scan"}, "fusion_lon": 0.0, "lat": 38.90842116666666, "bike_id": "084bab0d63c58918880a99710be9e51f", "type": "electric_scooter", "is_reserved": 0, "lon": -77.03296983333334}, {"fusion_lat": 0.0, "name": "8e5d11e3738f1632a69c042d0c3bd02b", "is_disabled": 0, "rental_uris": {"android": "https://dc.lft.to/lastmile_qr_scan", "ios": "https://dc.lft.to/lastmile_qr_scan"}, "fusion_lon": 0.0, "lat": 38.895246, "bike_id": "8e5d11e3738f1632a69c042d0c3bd02b", "type": "electric_scooter", "is_reserved": 0, "lon": -77.030572}, {"fusion_lat": 0.0, "name": "5a5ac3cfdcbed8c82464c86aa491d9a4", "is_disabled": 0, "rental_uris": {"android": "https://dc.lft.to/lastmile_qr_scan", "ios": "https://dc.lft.to/lastmile_qr_scan"}, "fusion_lon": 0.0, "lat": 38.87713166666666, "bike_id": "5a5ac3cfdcbed8c82464c86aa491d9a4", "type": "electric_scooter", "is_reserved": 0, "lon": -77.017563}, {"fusion_lat": 0.0, "name": "66fd84a01f9ed318369bf119b11b61f1", "is_disabled": 0, "rental_uris": {"android": "https://dc.lft.to/lastmile_qr_scan", "ios": "https://dc.lft.to/lastmile_qr_scan"}, "fusion_lon": 0.0, "lat": 38.90005466666667, "bike_id": "66fd84a01f9ed318369bf119b11b61f1", "type": "electric_bike", "is_reserved": 0, "lon": -76.99836433333333}, {"fusion_lat": 0.0, "name": "eb7e303d4e01ab5e7c5cea3f24fb372e", "is_disabled": 0, "rental_uris": {"android": "https://dc.lft.to/lastmile_qr_scan", "ios": "https://dc.lft.to/lastmile_qr_scan"}, "fusion_lon": 0.0, "lat": 38.888971833333336, "bike_id": "eb7e303d4e01ab5e7c5cea3f24fb372e", "type": "electric_bike", "is_reserved": 0, "lon": -77.11526483333333}, {"fusion_lat": 0.0, "name": "2d2d44a8cfae1fd5a5d8419701e9fa87", "is_disabled": 0, "rental_uris": {"android": "https://dc.lft.to/lastmile_qr_scan", "ios": "https://dc.lft.to/lastmile_qr_scan"}, "fusion_lon": 0.0, "lat": 38.927682833333336, "bike_id": "2d2d44a8cfae1fd5a5d8419701e9fa87", "type": "electric_scooter", "is_reserved": 0, "lon": -77.02297783333333}, {"fusion_lat": 0.0, "name": "c06be7c597cc7583444abd0bc7d72bb1", "is_disabled": 0, "rental_uris": {"android": "https://dc.lft.to/lastmile_qr_scan", "ios": "https://dc.lft.to/lastmile_qr_scan"}, "fusion_lon": 0.0, "lat": 38.934123166666666, "bike_id": "c06be7c597cc7583444abd0bc7d72bb1", "type": "electric_scooter", "is_reserved": 0, "lon": -76.97966183333334}, {"fusion_lat": 0.0, "name": "38a0b13780798466d5b791ff9adff797", "is_disabled": 0, "rental_uris": {"android": "https://dc.lft.to/lastmile_qr_scan", "ios": "https://dc.lft.to/lastmile_qr_scan"}, "fusion_lon": 0.0, "lat": 38.90464566666667, "bike_id": "38a0b13780798466d5b791ff9adff797", "type": "electric_scooter", "is_reserved": 0, "lon": -77.05339416666666}, {"fusion_lat": 0.0, "name": "94e858c32b04c8575ffde0ddc5644be7", "is_disabled": 0, "rental_uris": {"android": "https://dc.lft.to/lastmile_qr_scan", "ios": "https://dc.lft.to/lastmile_qr_scan"}, "fusion_lon": 0.0, "lat": 38.92017533333333, "bike_id": "94e858c32b04c8575ffde0ddc5644be7", "type": "electric_scooter", "is_reserved": 0, "lon": -77.03188133333333}, {"fusion_lat": 0.0, "name": "f7145f0e3adfc1a08b8e9d0408c71c33", "is_disabled": 0, "rental_uris": {"android": "https://dc.lft.to/lastmile_qr_scan", "ios": "https://dc.lft.to/lastmile_qr_scan"}, "fusion_lon": 0.0, "lat": 38.926138, "bike_id": "f7145f0e3adfc1a08b8e9d0408c71c33", "type": "electric_scooter", "is_reserved": 0, "lon": -77.03954533333334}, {"fusion_lat": 0.0, "name": "caf60780917ceefadebb09b6b70ae813", "is_disabled": 0, "rental_uris": {"android": "https://dc.lft.to/lastmile_qr_scan", "ios": "https://dc.lft.to/lastmile_qr_scan"}, "fusion_lon": 0.0, "lat": 38.909690833333336, "bike_id": "caf60780917ceefadebb09b6b70ae813", "type": "electric_scooter", "is_reserved": 0, "lon": -77.03997333333334}, {"fusion_lat": 0.0, "name": "717d350ec096cad1616e6c61889bba60", "is_disabled": 0, "rental_uris": {"android": "https://dc.lft.to/lastmile_qr_scan", "ios": "https://dc.lft.to/lastmile_qr_scan"}, "fusion_lon": 0.0, "lat": 38.912553833333334, "bike_id": "717d350ec096cad1616e6c61889bba60", "type": "electric_scooter", "is_reserved": 0, "lon": -77.00670566666666}, {"fusion_lat": 0.0, "name": "3157b3241b620a3d9e900989ed43f5d8", "is_disabled": 0, "rental_uris": {"android": "https://dc.lft.to/lastmile_qr_scan", "ios": "https://dc.lft.to/lastmile_qr_scan"}, "fusion_lon": 0.0, "lat": 38.844288666666664, "bike_id": "3157b3241b620a3d9e900989ed43f5d8", "type": "electric_scooter", "is_reserved": 0, "lon": -76.99783766666667}, {"fusion_lat": 0.0, "name": "a94cf08a12962c60177c11785a20c80c", "is_disabled": 0, "rental_uris": {"android": "https://dc.lft.to/lastmile_qr_scan", "ios": "https://dc.lft.to/lastmile_qr_scan"}, "fusion_lon": 0.0, "lat": 38.92077166666667, "bike_id": "a94cf08a12962c60177c11785a20c80c", "type": "electric_scooter", "is_reserved": 0, "lon": -77.02528816666667}, {"fusion_lat": 0.0, "name": "be0eeceb2a509f967e46b3f0fc5c9f64", "is_disabled": 0, "rental_uris": {"android": "https://dc.lft.to/lastmile_qr_scan", "ios": "https://dc.lft.to/lastmile_qr_scan"}, "fusion_lon": 0.0, "lat": 38.9335135, "bike_id": "be0eeceb2a509f967e46b3f0fc5c9f64", "type": "electric_scooter", "is_reserved": 0, "lon": -77.073138}, {"fusion_lat": 0.0, "name": "9eb0e73cf1728e5b9f117f22211a0d23", "is_disabled": 0, "rental_uris": {"android": "https://dc.lft.to/lastmile_qr_scan", "ios": "https://dc.lft.to/lastmile_qr_scan"}, "fusion_lon": 0.0, "lat": 38.9178185, "bike_id": "9eb0e73cf1728e5b9f117f22211a0d23", "type": "electric_scooter", "is_reserved": 0, "lon": -77.04096216666667}, {"fusion_lat": 0.0, "name": "96f8babac8464707d6ee9793ee5007d1", "is_disabled": 0, "rental_uris": {"android": "https://dc.lft.to/lastmile_qr_scan", "ios": "https://dc.lft.to/lastmile_qr_scan"}, "fusion_lon": 0.0, "lat": 38.91930716666667, "bike_id": "96f8babac8464707d6ee9793ee5007d1", "type": "electric_scooter", "is_reserved": 0, "lon": -77.04156283333333}, {"fusion_lat": 0.0, "name": "feecb6862f8734f155e718d36ee1d359", "is_disabled": 0, "rental_uris": {"android": "https://dc.lft.to/lastmile_qr_scan", "ios": "https://dc.lft.to/lastmile_qr_scan"}, "fusion_lon": 0.0, "lat": 38.892160833333335, "bike_id": "feecb6862f8734f155e718d36ee1d359", "type": "electric_scooter", "is_reserved": 0, "lon": -76.9574245}, {"fusion_lat": 0.0, "name": "65e09f648279d459e8de5157fcd0a402", "is_disabled": 0, "rental_uris": {"android": "https://dc.lft.to/lastmile_qr_scan", "ios": "https://dc.lft.to/lastmile_qr_scan"}, "fusion_lon": 0.0, "lat": 38.914038166666664, "bike_id": "65e09f648279d459e8de5157fcd0a402", "type": "electric_scooter", "is_reserved": 0, "lon": -77.032602}, {"fusion_lat": 0.0, "name": "5ba7ad9a9d73d3c6c82cf80302ea4cb3", "is_disabled": 0, "rental_uris": {"android": "https://dc.lft.to/lastmile_qr_scan", "ios": "https://dc.lft.to/lastmile_qr_scan"}, "fusion_lon": 0.0, "lat": 38.895808333333335, "bike_id": "5ba7ad9a9d73d3c6c82cf80302ea4cb3", "type": "electric_scooter", "is_reserved": 0, "lon": -76.94881716666667}, {"fusion_lat": 0.0, "name": "acb0c47c88781713cfb9907c1d7c46be", "is_disabled": 0, "rental_uris": {"android": "https://dc.lft.to/lastmile_qr_scan", "ios": "https://dc.lft.to/lastmile_qr_scan"}, "fusion_lon": 0.0, "lat": 38.89549366666667, "bike_id": "acb0c47c88781713cfb9907c1d7c46be", "type": "electric_scooter", "is_reserved": 0, "lon": -76.98337966666666}, {"fusion_lat": 0.0, "name": "2d6a47b72707130fa5087248fe24fc86", "is_disabled": 0, "rental_uris": {"android": "https://dc.lft.to/lastmile_qr_scan", "ios": "https://dc.lft.to/lastmile_qr_scan"}, "fusion_lon": 0.0, "lat": 38.917039333333335, "bike_id": "2d6a47b72707130fa5087248fe24fc86", "type": "electric_scooter", "is_reserved": 0, "lon": -77.02410933333333}, {"fusion_lat": 0.0, "name": "fe2f7e0c082338bb9d6d3c804a251bc6", "is_disabled": 0, "rental_uris": {"android": "https://dc.lft.to/lastmile_qr_scan", "ios": "https://dc.lft.to/lastmile_qr_scan"}, "fusion_lon": 0.0, "lat": 38.91733266666667, "bike_id": "fe2f7e0c082338bb9d6d3c804a251bc6", "type": "electric_scooter", "is_reserved": 0, "lon": -77.0366195}, {"fusion_lat": 0.0, "name": "8ec2e8bbace2f5d9a13346cf7a4ddd17", "is_disabled": 0, "rental_uris": {"android": "https://dc.lft.to/lastmile_qr_scan", "ios": "https://dc.lft.to/lastmile_qr_scan"}, "fusion_lon": 0.0, "lat": 38.9449865, "bike_id": "8ec2e8bbace2f5d9a13346cf7a4ddd17", "type": "electric_scooter", "is_reserved": 0, "lon": -77.03880433333333}, {"fusion_lat": 0.0, "name": "f804c53163677da069bf23231afc4952", "is_disabled": 0, "rental_uris": {"android": "https://dc.lft.to/lastmile_qr_scan", "ios": "https://dc.lft.to/lastmile_qr_scan"}, "fusion_lon": 0.0, "lat": 38.892961, "bike_id": "f804c53163677da069bf23231afc4952", "type": "electric_scooter", "is_reserved": 0, "lon": -77.04873583333334}, {"fusion_lat": 0.0, "name": "2c663d73214a8467751c1772498d992f", "is_disabled": 0, "rental_uris": {"android": "https://dc.lft.to/lastmile_qr_scan", "ios": "https://dc.lft.to/lastmile_qr_scan"}, "fusion_lon": 0.0, "lat": 38.904915833333334, "bike_id": "2c663d73214a8467751c1772498d992f", "type": "electric_scooter", "is_reserved": 0, "lon": -77.04667183333333}, {"fusion_lat": 0.0, "name": "4c2101e9172d6a52fd6417e04e21206e", "is_disabled": 0, "rental_uris": {"android": "https://dc.lft.to/lastmile_qr_scan", "ios": "https://dc.lft.to/lastmile_qr_scan"}, "fusion_lon": 0.0, "lat": 38.9580045, "bike_id": "4c2101e9172d6a52fd6417e04e21206e", "type": "electric_bike", "is_reserved": 0, "lon": -76.960442}, {"fusion_lat": 0.0, "name": "764be4dc249d689ea4650f8e06882d6d", "is_disabled": 0, "rental_uris": {"android": "https://dc.lft.to/lastmile_qr_scan", "ios": "https://dc.lft.to/lastmile_qr_scan"}, "fusion_lon": 0.0, "lat": 38.9250705, "bike_id": "764be4dc249d689ea4650f8e06882d6d", "type": "electric_scooter", "is_reserved": 0, "lon": -77.05227666666667}, {"fusion_lat": 0.0, "name": "581616a2c4e505fa6b8b2e9517c0a34d", "is_disabled": 0, "rental_uris": {"android": "https://dc.lft.to/lastmile_qr_scan", "ios": "https://dc.lft.to/lastmile_qr_scan"}, "fusion_lon": 0.0, "lat": 38.889871666666664, "bike_id": "581616a2c4e505fa6b8b2e9517c0a34d", "type": "electric_scooter", "is_reserved": 0, "lon": -76.91417183333333}, {"fusion_lat": 0.0, "name": "ae046abf7136c0832de067e75f7e798e", "is_disabled": 0, "rental_uris": {"android": "https://dc.lft.to/lastmile_qr_scan", "ios": "https://dc.lft.to/lastmile_qr_scan"}, "fusion_lon": 0.0, "lat": 38.907139, "bike_id": "ae046abf7136c0832de067e75f7e798e", "type": "electric_scooter", "is_reserved": 0, "lon": -77.03202316666666}, {"fusion_lat": 0.0, "name": "07b73107c1900e9c7b7cb75d7d2c318a", "is_disabled": 0, "rental_uris": {"android": "https://dc.lft.to/lastmile_qr_scan", "ios": "https://dc.lft.to/lastmile_qr_scan"}, "fusion_lon": 0.0, "lat": 38.920432166666664, "bike_id": "07b73107c1900e9c7b7cb75d7d2c318a", "type": "electric_scooter", "is_reserved": 0, "lon": -77.01795433333334}, {"fusion_lat": 0.0, "name": "8aa04e3517d638650068b7e07fca1ab0", "is_disabled": 0, "rental_uris": {"android": "https://dc.lft.to/lastmile_qr_scan", "ios": "https://dc.lft.to/lastmile_qr_scan"}, "fusion_lon": 0.0, "lat": 38.90840383333333, "bike_id": "8aa04e3517d638650068b7e07fca1ab0", "type": "electric_scooter", "is_reserved": 0, "lon": -77.04666616666667}, {"fusion_lat": 0.0, "name": "0c447d03e67b24ff6ca95a7bc7a2f473", "is_disabled": 0, "rental_uris": {"android": "https://dc.lft.to/lastmile_qr_scan", "ios": "https://dc.lft.to/lastmile_qr_scan"}, "fusion_lon": 0.0, "lat": 38.91556766666667, "bike_id": "0c447d03e67b24ff6ca95a7bc7a2f473", "type": "electric_scooter", "is_reserved": 0, "lon": -77.03862383333333}, {"fusion_lat": 0.0, "name": "f71383ff1bf406e11fa694402c5988f9", "is_disabled": 0, "rental_uris": {"android": "https://dc.lft.to/lastmile_qr_scan", "ios": "https://dc.lft.to/lastmile_qr_scan"}, "fusion_lon": 0.0, "lat": 38.950756, "bike_id": "f71383ff1bf406e11fa694402c5988f9", "type": "electric_bike", "is_reserved": 0, "lon": -77.01192283333333}, {"fusion_lat": 0.0, "name": "085a5784b2cc7ba984e9923326dde249", "is_disabled": 0, "rental_uris": {"android": "https://dc.lft.to/lastmile_qr_scan", "ios": "https://dc.lft.to/lastmile_qr_scan"}, "fusion_lon": 0.0, "lat": 38.9219175, "bike_id": "085a5784b2cc7ba984e9923326dde249", "type": "electric_scooter", "is_reserved": 0, "lon": -77.08077233333333}, {"fusion_lat": 0.0, "name": "0395db2da2e4ced09387d5a3f493dc32", "is_disabled": 0, "rental_uris": {"android": "https://dc.lft.to/lastmile_qr_scan", "ios": "https://dc.lft.to/lastmile_qr_scan"}, "fusion_lon": 0.0, "lat": 38.915605666666664, "bike_id": "0395db2da2e4ced09387d5a3f493dc32", "type": "electric_scooter", "is_reserved": 0, "lon": -77.03132716666667}, {"fusion_lat": 0.0, "name": "1c946fd9a7c64a5f045d744f1a090b92", "is_disabled": 0, "rental_uris": {"android": "https://dc.lft.to/lastmile_qr_scan", "ios": "https://dc.lft.to/lastmile_qr_scan"}, "fusion_lon": 0.0, "lat": 38.914370166666664, "bike_id": "1c946fd9a7c64a5f045d744f1a090b92", "type": "electric_scooter", "is_reserved": 0, "lon": -77.0447895}, {"fusion_lat": 0.0, "name": "385cdccc43b79d73b185f023a64fe471", "is_disabled": 0, "rental_uris": {"android": "https://dc.lft.to/lastmile_qr_scan", "ios": "https://dc.lft.to/lastmile_qr_scan"}, "fusion_lon": 0.0, "lat": 38.898749, "bike_id": "385cdccc43b79d73b185f023a64fe471", "type": "electric_scooter", "is_reserved": 0, "lon": -76.93184666666667}, {"fusion_lat": 0.0, "name": "18c2ea8fbcedc0622f0b8fd00cce6a70", "is_disabled": 0, "rental_uris": {"android": "https://dc.lft.to/lastmile_qr_scan", "ios": "https://dc.lft.to/lastmile_qr_scan"}, "fusion_lon": 0.0, "lat": 38.91553283333333, "bike_id": "18c2ea8fbcedc0622f0b8fd00cce6a70", "type": "electric_scooter", "is_reserved": 0, "lon": -77.03134766666666}, {"fusion_lat": 0.0, "name": "c85ff4ae214d56d98eb0e2706d3797ad", "is_disabled": 0, "rental_uris": {"android": "https://dc.lft.to/lastmile_qr_scan", "ios": "https://dc.lft.to/lastmile_qr_scan"}, "fusion_lon": 0.0, "lat": 38.918175, "bike_id": "c85ff4ae214d56d98eb0e2706d3797ad", "type": "electric_scooter", "is_reserved": 0, "lon": -77.04528716666667}, {"fusion_lat": 0.0, "name": "5e6a657de6aa6cfe0540d81c6f3a19fb", "is_disabled": 0, "rental_uris": {"android": "https://dc.lft.to/lastmile_qr_scan", "ios": "https://dc.lft.to/lastmile_qr_scan"}, "fusion_lon": 0.0, "lat": 38.928619, "bike_id": "5e6a657de6aa6cfe0540d81c6f3a19fb", "type": "electric_scooter", "is_reserved": 0, "lon": -77.032628}, {"fusion_lat": 0.0, "name": "457293bd27f0c695f2d63be07892e694", "is_disabled": 0, "rental_uris": {"android": "https://dc.lft.to/lastmile_qr_scan", "ios": "https://dc.lft.to/lastmile_qr_scan"}, "fusion_lon": 0.0, "lat": 38.89881066666667, "bike_id": "457293bd27f0c695f2d63be07892e694", "type": "electric_scooter", "is_reserved": 0, "lon": -77.05297933333334}, {"fusion_lat": 0.0, "name": "41bcf3569579a5d9b942c934ad2ae73f", "is_disabled": 0, "rental_uris": {"android": "https://dc.lft.to/lastmile_qr_scan", "ios": "https://dc.lft.to/lastmile_qr_scan"}, "fusion_lon": 0.0, "lat": 38.9223555, "bike_id": "41bcf3569579a5d9b942c934ad2ae73f", "type": "electric_scooter", "is_reserved": 0, "lon": -77.02910333333334}, {"fusion_lat": 0.0, "name": "e65946fc41727696fd718e5e6aa17548", "is_disabled": 0, "rental_uris": {"android": "https://dc.lft.to/lastmile_qr_scan", "ios": "https://dc.lft.to/lastmile_qr_scan"}, "fusion_lon": 0.0, "lat": 38.964899333333335, "bike_id": "e65946fc41727696fd718e5e6aa17548", "type": "electric_bike", "is_reserved": 0, "lon": -77.02211266666667}, {"fusion_lat": 0.0, "name": "8cb22c5814ae2840b6915a87af3149df", "is_disabled": 0, "rental_uris": {"android": "https://dc.lft.to/lastmile_qr_scan", "ios": "https://dc.lft.to/lastmile_qr_scan"}, "fusion_lon": 0.0, "lat": 38.901478, "bike_id": "8cb22c5814ae2840b6915a87af3149df", "type": "electric_scooter", "is_reserved": 0, "lon": -77.0227895}, {"fusion_lat": 0.0, "name": "1c908e5d587b8190bd5636d5e5b8187b", "is_disabled": 0, "rental_uris": {"android": "https://dc.lft.to/lastmile_qr_scan", "ios": "https://dc.lft.to/lastmile_qr_scan"}, "fusion_lon": 0.0, "lat": 38.920888, "bike_id": "1c908e5d587b8190bd5636d5e5b8187b", "type": "electric_scooter", "is_reserved": 0, "lon": -77.02370416666666}, {"fusion_lat": 0.0, "name": "1b13355d28e81025b9b33fd879242749", "is_disabled": 0, "rental_uris": {"android": "https://dc.lft.to/lastmile_qr_scan", "ios": "https://dc.lft.to/lastmile_qr_scan"}, "fusion_lon": 0.0, "lat": 38.924231, "bike_id": "1b13355d28e81025b9b33fd879242749", "type": "electric_scooter", "is_reserved": 0, "lon": -77.020271}, {"fusion_lat": 0.0, "name": "6667acd3bf54dc1bd798d6292d42d16c", "is_disabled": 0, "rental_uris": {"android": "https://dc.lft.to/lastmile_qr_scan", "ios": "https://dc.lft.to/lastmile_qr_scan"}, "fusion_lon": 0.0, "lat": 38.911094, "bike_id": "6667acd3bf54dc1bd798d6292d42d16c", "type": "electric_scooter", "is_reserved": 0, "lon": -77.00251883333334}, {"fusion_lat": 0.0, "name": "3e0ecb432f9db61f3b793833383ca518", "is_disabled": 0, "rental_uris": {"android": "https://dc.lft.to/lastmile_qr_scan", "ios": "https://dc.lft.to/lastmile_qr_scan"}, "fusion_lon": 0.0, "lat": 38.935305666666665, "bike_id": "3e0ecb432f9db61f3b793833383ca518", "type": "electric_scooter", "is_reserved": 0, "lon": -77.02353166666667}, {"fusion_lat": 0.0, "name": "2210b7165f9e9a995ad8d4298014435c", "is_disabled": 0, "rental_uris": {"android": "https://dc.lft.to/lastmile_qr_scan", "ios": "https://dc.lft.to/lastmile_qr_scan"}, "fusion_lon": 0.0, "lat": 38.8849175, "bike_id": "2210b7165f9e9a995ad8d4298014435c", "type": "electric_scooter", "is_reserved": 0, "lon": -77.00714266666667}, {"fusion_lat": 0.0, "name": "a452af3b2b9b41ea4645931a3aff57b1", "is_disabled": 0, "rental_uris": {"android": "https://dc.lft.to/lastmile_qr_scan", "ios": "https://dc.lft.to/lastmile_qr_scan"},