{"data": {"bikes": [{"type": "electric_scooter", "fusion_lon": 0.0, "name": "9fb5f3b01a1afcb3888049a7703fcc95", "lon": -77.04886883333333, "fusion_lat": 0.0, "is_disabled": 0, "is_reserved": 0, "rental_uris": {"ios": "https://dc.lft.to/lastmile_qr_scan", "android": "https://dc.lft.to/lastmile_qr_scan"}, "bike_id": "9fb5f3b01a1afcb3888049a7703fcc95", "lat": 38.905258333333336}, {"type": "electric_scooter", "fusion_lon": 0.0, "name": "03272a4d5718780f944bd565a766a1b4", "lon": -77.00922316666667, "fusion_lat": 0.0, "is_disabled": 0, "is_reserved": 0, "rental_uris": {"ios": "https://dc.lft.to/lastmile_qr_scan", "android": "https://dc.lft.to/lastmile_qr_scan"}, "bike_id": "03272a4d5718780f944bd565a766a1b4", "lat": 38.90598883333333}, {"type": "electric_scooter", "fusion_lon": 0.0, "name": "2271d37b27b9177b2a30822670c71a24", "lon": -77.0186815, "fusion_lat": 0.0, "is_disabled": 0, "is_reserved": 0, "rental_uris": {"ios": "https://dc.lft.to/lastmile_qr_scan", "android": "https://dc.lft.to/lastmile_qr_scan"}, "bike_id": "2271d37b27b9177b2a30822670c71a24", "lat": 38.9737475}, {"type": "electric_bike", "fusion_lon": 0.0, "name": "3af8c64c03714fa3ff4a200d89103431", "lon": -77.02822866666666, "fusion_lat": 0.0, "is_disabled": 0, "is_reserved": 0, "rental_uris": {"ios": "https://dc.lft.to/lastmile_qr_scan", "android": "https://dc.lft.to/lastmile_qr_scan"}, "bike_id": "3af8c64c03714fa3ff4a200d89103431", "lat": 38.965589333333334}, {"type": "electric_scooter", "fusion_lon": 0.0, "name": "53279ad8dc1d70a3ac27894e06ad8466", "lon": -77.032209, "fusion_lat": 0.0, "is_disabled": 0, "is_reserved": 0, "rental_uris": {"ios": "https://dc.lft.to/lastmile_qr_scan", "android": "https://dc.lft.to/lastmile_qr_scan"}, "bike_id": "53279ad8dc1d70a3ac27894e06ad8466", "lat": 38.892259833333334}, {"type": "electric_bike", "fusion_lon": 0.0, "name": "6b47919032915ab7523d1c2e98802121", "lon": -77.1040215, "fusion_lat": 0.0, "is_disabled": 0, "is_reserved": 0, "rental_uris": {"ios": "https://dc.lft.to/lastmile_qr_scan", "android": "https://dc.lft.to/lastmile_qr_scan"}, "bike_id": "6b47919032915ab7523d1c2e98802121", "lat": 39.00536816666666}, {"type": "electric_scooter", "fusion_lon": 0.0, "name": "5b85a50b5b171ff916d56a5ba8514d83", "lon": -77.04809533333334, "fusion_lat": 0.0, "is_disabled": 0, "is_reserved": 0, "rental_uris": {"ios": "https://dc.lft.to/lastmile_qr_scan", "android": "https://dc.lft.to/lastmile_qr_scan"}, "bike_id": "5b85a50b5b171ff916d56a5ba8514d83", "lat": 38.89594916666667}, {"type": "electric_scooter", "fusion_lon": 0.0, "name": "dad8405f1231a07d03f1b400c4690b71", "lon": -77.0280015, "fusion_lat": 0.0, "is_disabled": 0, "is_reserved": 0, "rental_uris": {"ios": "https://dc.lft.to/lastmile_qr_scan", "android": "https://dc.lft.to/lastmile_qr_scan"}, "bike_id": "dad8405f1231a07d03f1b400c4690b71", "lat": 38.8924055}, {"type": "electric_bike", "fusion_lon": 0.0, "name": "6368075826e75436358efe4834139437", "lon": -77.0830295, "fusion_lat": 0.0, "is_disabled": 0, "is_reserved": 0, "rental_uris": {"ios": "https://dc.lft.to/lastmile_qr_scan", "android": "https://dc.lft.to/lastmile_qr_scan"}, "bike_id": "6368075826e75436358efe4834139437", "lat": 38.930423166666664}, {"type": "electric_scooter", "fusion_lon": 0.0, "name": "5805eea0b1ebcb487616bda403be6209", "lon": -77.04881966666666, "fusion_lat": 0.0, "is_disabled": 0, "is_reserved": 0, "rental_uris": {"ios": "https://dc.lft.to/lastmile_qr_scan", "android": "https://dc.lft.to/lastmile_qr_scan"}, "bike_id": "5805eea0b1ebcb487616bda403be6209", "lat": 38.90090416666666}, {"type": "electric_scooter", "fusion_lon": 0.0, "name": "fa868d5b6157b486ea97f5204f32ab64", "lon": -77.02227283333333, "fusion_lat": 0.0, "is_disabled": 0, "is_reserved": 0, "rental_uris": {"ios": "https://dc.lft.to/lastmile_qr_scan", "android": "https://dc.lft.to/lastmile_qr_scan"}, "bike_id": "fa868d5b6157b486ea97f5204f32ab64", "lat": 38.88747566666667}, {"type": "electric_scooter", "fusion_lon": 0.0, "name": "ca54f251a31e827d1f96ad8ae74630fb", "lon": -76.99613866666667, "fusion_lat": 0.0, "is_disabled": 0, "is_reserved": 0, "rental_uris": {"ios": "https://dc.lft.to/lastmile_qr_scan", "android": "https://dc.lft.to/lastmile_qr_scan"}, "bike_id": "ca54f251a31e827d1f96ad8ae74630fb", "lat": 38.88532083333333}, {"type": "electric_scooter", "fusion_lon": 0.0, "name": "d39d3fa1c946695b7dc5ccf549d75468", "lon": -77.02715166666667, "fusion_lat": 0.0, "is_disabled": 0, "is_reserved": 0, "rental_uris": {"ios": "https://dc.lft.to/lastmile_qr_scan", "android": "https://dc.lft.to/lastmile_qr_scan"}, "bike_id": "d39d3fa1c946695b7dc5ccf549d75468", "lat": 38.923322}, {"type": "electric_bike", "fusion_lon": 0.0, "name": "16a5af7a29ba013bb236bdd56edd67cf", "lon": -77.01290233333333, "fusion_lat": 0.0, "is_disabled": 0, "is_reserved": 0, "rental_uris": {"ios": "https://dc.lft.to/lastmile_qr_scan", "android": "https://dc.lft.to/lastmile_qr_scan"}, "bike_id": "16a5af7a29ba013bb236bdd56edd67cf", "lat": 39.003867166666666}, {"type": "electric_scooter", "fusion_lon": 0.0, "name": "8552ec935176169a4e309a3b30de379c", "lon": -77.05518333333333, "fusion_lat": 0.0, "is_disabled": 0, "is_reserved": 0, "rental_uris": {"ios": "https://dc.lft.to/lastmile_qr_scan", "android": "https://dc.lft.to/lastmile_qr_scan"}, "bike_id": "8552ec935176169a4e309a3b30de379c", "lat": 38.9296435}, {"type": "electric_bike", "fusion_lon": 0.0, "name": "bcfcf9fb52e073912ad0102a066b5d2a", "lon": -76.94295966666667, "fusion_lat": 0.0, "is_disabled": 0, "is_reserved": 0, "rental_uris": {"ios": "https://dc.lft.to/lastmile_qr_scan", "android": "https://dc.lft.to/lastmile_qr_scan"}, "bike_id": "bcfcf9fb52e073912ad0102a066b5d2a", "lat": 38.953644833333335}, {"type": "electric_scooter", "fusion_lon": 0.0, "name": "2a6bc0932a1c7dffa74247cd93e9f3ff", "lon": -76.9969205, "fusion_lat": 0.0, "is_disabled": 0, "is_reserved": 0, "rental_uris": {"ios": "https://dc.lft.to/lastmile_qr_scan", "android": "https://dc.lft.to/lastmile_qr_scan"}, "bike_id": "2a6bc0932a1c7dffa74247cd93e9f3ff", "lat": 38.88429283333333}, {"type": "electric_scooter", "fusion_lon": 0.0, "name": "4e43120f98f768724dfba1e587d602de", "lon": -76.97576416666666, "fusion_lat": 0.0, "is_disabled": 0, "is_reserved": 0, "rental_uris": {"ios": "https://dc.lft.to/lastmile_qr_scan", "android": "https://dc.lft.to/lastmile_qr_scan"}, "bike_id": "4e43120f98f768724dfba1e587d602de", "lat": 38.903416166666666}, {"type": "electric_scooter", "fusion_lon": 0.0, "name": "3bf446e7c76abe49e6b6dcad2942d555", "lon": -77.032671, "fusion_lat": 0.0, "is_disabled": 0, "is_reserved": 0, "rental_uris": {"ios": "https://dc.lft.to/lastmile_qr_scan", "android": "https://dc.lft.to/lastmile_qr_scan"}, "bike_id": "3bf446e7c76abe49e6b6dcad2942d555", "lat": 38.929728833333336}, {"type": "electric_scooter", "fusion_lon": 0.0, "name": "b40f6bac25e538b1c5c975757e7e298b", "lon": -77.0629585, "fusion_lat": 0.0, "is_disabled": 0, "is_reserved": 0, "rental_uris": {"ios": "https://dc.lft.to/lastmile_qr_scan", "android": "https://dc.lft.to/lastmile_qr_scan"}, "bike_id": "b40f6bac25e538b1c5c975757e7e298b", "lat": 38.904028}, {"type": "electric_scooter", "fusion_lon": 0.0, "name": "e9642a56125298335d1048875734e61a", "lon": -77.00336966666667, "fusion_lat": 0.0, "is_disabled": 0, "is_reserved": 0, "rental_uris": {"ios": "https://dc.lft.to/lastmile_qr_scan", "android": "https://dc.lft.to/lastmile_qr_scan"}, "bike_id": "e9642a56125298335d1048875734e61a", "lat": 38.8996915}, {"type": "electric_scooter", "fusion_lon": 0.0, "name": "2ed8d084218ff0c0afadf0613976963b", "lon": -77.0343235, "fusion_lat": 0.0, "is_disabled": 0, "is_reserved": 0, "rental_uris": {"ios": "https://dc.lft.to/lastmile_qr_scan", "android": "https://dc.lft.to/lastmile_qr_scan"}, "bike_id": "2ed8d084218ff0c0afadf0613976963b", "lat": 38.93971916666667}, {"type": "electric_scooter", "fusion_lon": 0.0, "name": "da264518f4f2fb0e4836e03e1bc9928c", "lon": -76.97747266666667, "fusion_lat": 0.0, "is_disabled": 0, "is_reserved": 0, "rental_uris": {"ios": "https://dc.lft.to/lastmile_qr_scan", "android": "https://dc.lft.to/lastmile_qr_scan"}, "bike_id": "da264518f4f2fb0e4836e03e1bc9928c", "lat": 38.88772433333333}, {"type": "electric_scooter", "fusion_lon": 0.0, "name": "d8a921699b96ea6532499cda54ccc969", "lon": -77.02952183333333, "fusion_lat": 0.0, "is_disabled": 0, "is_reserved": 0, "rental_uris": {"ios": "https://dc.lft.to/lastmile_qr_scan", "android": "https://dc.lft.to/lastmile_qr_scan"}, "bike_id": "d8a921699b96ea6532499cda54ccc969", "lat": 38.9077915}, {"type": "electric_scooter", "fusion_lon": 0.0, "name": "0f4fd194fbf43dccd5059c5d5b9193db", "lon": -76.998559, "fusion_lat": 0.0, "is_disabled": 0, "is_reserved": 0, "rental_uris": {"ios": "https://dc.lft.to/lastmile_qr_scan", "android": "https://dc.lft.to/lastmile_qr_scan"}, "bike_id": "0f4fd194fbf43dccd5059c5d5b9193db", "lat": 38.83770116666667}, {"type": "electric_scooter", "fusion_lon": 0.0, "name": "eebbc860f891fa77f85d4a8e98dde8fc", "lon": -77.0156145, "fusion_lat": 0.0, "is_disabled": 0, "is_reserved": 0, "rental_uris": {"ios": "https://dc.lft.to/lastmile_qr_scan", "android": "https://dc.lft.to/lastmile_qr_scan"}, "bike_id": "eebbc860f891fa77f85d4a8e98dde8fc", "lat": 38.891796666666664}, {"type": "electric_scooter", "fusion_lon": 0.0, "name": "64feb45f57b00006cd5da9b13c490d84", "lon": -76.987134, "fusion_lat": 0.0, "is_disabled": 0, "is_reserved": 0, "rental_uris": {"ios": "https://dc.lft.to/lastmile_qr_scan", "android": "https://dc.lft.to/lastmile_qr_scan"}, "bike_id": "64feb45f57b00006cd5da9b13c490d84", "lat": 38.900718499999996}, {"type": "electric_bike", "fusion_lon": 0.0, "name": "aa0e63abc00aa929f35b022d132d7580", "lon": -77.08571216666667, "fusion_lat": 0.0, "is_disabled": 0, "is_reserved": 0, "rental_uris": {"ios": "https://dc.lft.to/lastmile_qr_scan", "android": "https://dc.lft.to/lastmile_qr_scan"}, "bike_id": "aa0e63abc00aa929f35b022d132d7580", "lat": 38.87426266666667}, {"type": "electric_scooter", "fusion_lon": 0.0, "name": "03d7c602636f4206503b6ad7d66b3c6e", "lon": -77.04238416666666, "fusion_lat": 0.0, "is_disabled": 0, "is_reserved": 0, "rental_uris": {"ios": "https://dc.lft.to/lastmile_qr_scan", "android": "https://dc.lft.to/lastmile_qr_scan"}, "bike_id": "03d7c602636f4206503b6ad7d66b3c6e", "lat": 38.921984333333334}, {"type": "electric_scooter", "fusion_lon": 0.0, "name": "5ac4cefc555cb9cf5acb971300684b57", "lon": -77.04458183333334, "fusion_lat": 0.0, "is_disabled": 0, "is_reserved": 0, "rental_uris": {"ios": "https://dc.lft.to/lastmile_qr_scan", "android": "https://dc.lft.to/lastmile_qr_scan"}, "bike_id": "5ac4cefc555cb9cf5acb971300684b57", "lat": 38.902915666666665}, {"type": "electric_scooter", "fusion_lon": 0.0, "name": "9aa5391e63c12bccb4becc11abac76f6", "lon": -76.9951695, "fusion_lat": 0.0, "is_disabled": 0, "is_reserved": 0, "rental_uris": {"ios": "https://dc.lft.to/lastmile_qr_scan", "android": "https://dc.lft.to/lastmile_qr_scan"}, "bike_id": "9aa5391e63c12bccb4becc11abac76f6", "lat": 38.883757333333335}, {"type": "electric_bike", "fusion_lon": 0.0, "name": "30b4de85f63d6b736bb42bfb548d6114", "lon": -77.11324566666667, "fusion_lat": 0.0, "is_disabled": 0, "is_reserved": 0, "rental_uris": {"ios": "https://dc.lft.to/lastmile_qr_scan", "android": "https://dc.lft.to/lastmile_qr_scan"}, "bike_id": "30b4de85f63d6b736bb42bfb548d6114", "lat": 38.80407783333333}, {"type": "electric_scooter", "fusion_lon": 0.0, "name": "d716c906e290cb918152c24bd3c7e04b", "lon": -77.03224866666666, "fusion_lat": 0.0, "is_disabled": 0, "is_reserved": 0, "rental_uris": {"ios": "https://dc.lft.to/lastmile_qr_scan", "android": "https://dc.lft.to/lastmile_qr_scan"}, "bike_id": "d716c906e290cb918152c24bd3c7e04b", "lat": 38.89927566666667}, {"type": "electric_scooter", "fusion_lon": 0.0, "name": "e892b29ae2e7fe08deeceaffbeefe9c8", "lon": -77.04207566666666, "fusion_lat": 0.0, "is_disabled": 0, "is_reserved": 0, "rental_uris": {"ios": "https://dc.lft.to/lastmile_qr_scan", "android": "https://dc.lft.to/lastmile_qr_scan"}, "bike_id": "e892b29ae2e7fe08deeceaffbeefe9c8", "lat": 38.909183}, {"type": "electric_scooter", "fusion_lon": 0.0, "name": "07b248626d3ca304e1a8c404690f7c0f", "lon": -77.03674333333333, "fusion_lat": 0.0, "is_disabled": 0, "is_reserved": 0, "rental_uris": {"ios": "https://dc.lft.to/lastmile_qr_scan", "android": "https://dc.lft.to/lastmile_qr_scan"}, "bike_id": "07b248626d3ca304e1a8c404690f7c0f", "lat": 38.91564733333333}, {"type": "electric_scooter", "fusion_lon": 0.0, "name": "d7cd441404bc77fd41477d424d2119b2", "lon": -77.01436766666667, "fusion_lat": 0.0, "is_disabled": 0, "is_reserved": 0, "rental_uris": {"ios": "https://dc.lft.to/lastmile_qr_scan", "android": "https://dc.lft.to/lastmile_qr_scan"}, "bike_id": "d7cd441404bc77fd41477d424d2119b2", "lat": 38.913198}, {"type": "electric_scooter", "fusion_lon": 0.0, "name": "0dc4b22b93b12439969b431178dfa744", "lon": -76.94159833333333, "fusion_lat": 0.0, "is_disabled": 0, "is_reserved": 0, "rental_uris": {"ios": "https://dc.lft.to/lastmile_qr_scan", "android": "https://dc.lft.to/lastmile_qr_scan"}, "bike_id": "0dc4b22b93b12439969b431178dfa744", "lat": 38.90174283333333}, {"type": "electric_scooter", "fusion_lon": 0.0, "name": "259b2de9917fe52eb9af41cb1457380c", "lon": -77.007612, "fusion_lat": 0.0, "is_disabled": 0, "is_reserved": 0, "rental_uris": {"ios": "https://dc.lft.to/lastmile_qr_scan", "android": "https://dc.lft.to/lastmile_qr_scan"}, "bike_id": "259b2de9917fe52eb9af41cb1457380c", "lat": 38.926818}, {"type": "electric_scooter", "fusion_lon": 0.0, "name": "4cd1f574c9d92800ee220fe633d1ab68", "lon": -77.0218335, "fusion_lat": 0.0, "is_disabled": 0, "is_reserved": 0, "rental_uris": {"ios": "https://dc.lft.to/lastmile_qr_scan", "android": "https://dc.lft.to/lastmile_qr_scan"}, "bike_id": "4cd1f574c9d92800ee220fe633d1ab68", "lat": 38.91993333333333}, {"type": "electric_scooter", "fusion_lon": 0.0, "name": "bcd7d700a800d59d9d5fe4686aecb3ff", "lon": -77.0385825, "fusion_lat": 0.0, "is_disabled": 0, "is_reserved": 0, "rental_uris": {"ios": "https://dc.lft.to/lastmile_qr_scan", "android": "https://dc.lft.to/lastmile_qr_scan"}, "bike_id": "bcd7d700a800d59d9d5fe4686aecb3ff", "lat": 38.913779}, {"type": "electric_scooter", "fusion_lon": 0.0, "name": "071137c23610a39dba974f676b529630", "lon": -77.0625155, "fusion_lat": 0.0, "is_disabled": 0, "is_reserved": 0, "rental_uris": {"ios": "https://dc.lft.to/lastmile_qr_scan", "android": "https://dc.lft.to/lastmile_qr_scan"}, "bike_id": "071137c23610a39dba974f676b529630", "lat": 38.902277}, {"type": "electric_scooter", "fusion_lon": 0.0, "name": "4459740feb6b23e6e78562623e2b01ac", "lon": -77.024498, "fusion_lat": 0.0, "is_disabled": 0, "is_reserved": 0, "rental_uris": {"ios": "https://dc.lft.to/lastmile_qr_scan", "android": "https://dc.lft.to/lastmile_qr_scan"}, "bike_id": "4459740feb6b23e6e78562623e2b01ac", "lat": 38.931995}, {"type": "electric_scooter", "fusion_lon": 0.0, "name": "41d2b3342662c55e29ca1d6df7d199d0", "lon": -77.0320955, "fusion_lat": 0.0, "is_disabled": 0, "is_reserved": 0, "rental_uris": {"ios": "https://dc.lft.to/lastmile_qr_scan", "android": "https://dc.lft.to/lastmile_qr_scan"}, "bike_id": "41d2b3342662c55e29ca1d6df7d199d0", "lat": 38.89239033333333}, {"type": "electric_scooter", "fusion_lon": 0.0, "name": "443d7f93f8260b81e547dd90e7e304a7", "lon": -77.0487715, "fusion_lat": 0.0, "is_disabled": 0, "is_reserved": 0, "rental_uris": {"ios": "https://dc.lft.to/lastmile_qr_scan", "android": "https://dc.lft.to/lastmile_qr_scan"}, "bike_id": "443d7f93f8260b81e547dd90e7e304a7", "lat": 38.9041315}, {"type": "electric_bike", "fusion_lon": 0.0, "name": "96e25294a52ad5c043ad66864c4ce722", "lon": -77.05373283333333, "fusion_lat": 0.0, "is_disabled": 0, "is_reserved": 0, "rental_uris": {"ios": "https://dc.lft.to/lastmile_qr_scan", "android": "https://dc.lft.to/lastmile_qr_scan"}, "bike_id": "96e25294a52ad5c043ad66864c4ce722", "lat": 38.847616333333335}, {"type": "electric_scooter", "fusion_lon": 0.0, "name": "40d1aeb44a906ddb235ad272a3178fb1", "lon": -77.05031866666667, "fusion_lat": 0.0, "is_disabled": 0, "is_reserved": 0, "rental_uris": {"ios": "https://dc.lft.to/lastmile_qr_scan", "android": "https://dc.lft.to/lastmile_qr_scan"}, "bike_id": "40d1aeb44a906ddb235ad272a3178fb1", "lat": 38.90207516666667}, {"type": "electric_scooter", "fusion_lon": 0.0, "name": "6d43f39fb3cadb606f6119de6417ccba", "lon": -76.99479233333334, "fusion_lat": 0.0, "is_disabled": 0, "is_reserved": 0, "rental_uris": {"ios": "https://dc.lft.to/lastmile_qr_scan", "android": "https://dc.lft.to/lastmile_qr_scan"}, "bike_id": "6d43f39fb3cadb606f6119de6417ccba", "lat": 38.86216316666667}, {"type": "electric_scooter", "fusion_lon": 0.0, "name": "efb461b5f6c1761537a426d0d2ed74d0", "lon": -77.000729, "fusion_lat": 0.0, "is_disabled": 0, "is_reserved": 0, "rental_uris": {"ios": "https://dc.lft.to/lastmile_qr_scan", "android": "https://dc.lft.to/lastmile_qr_scan"}, "bike_id": "efb461b5f6c1761537a426d0d2ed74d0", "lat": 38.87678366666667}, {"type": "electric_scooter", "fusion_lon": 0.0, "name": "b186b2cb992b91e95307f779408e3ca7", "lon": -77.022015, "fusion_lat": 0.0, "is_disabled": 0, "is_reserved": 0, "rental_uris": {"ios": "https://dc.lft.to/lastmile_qr_scan", "android": "https://dc.lft.to/lastmile_qr_scan"}, "bike_id": "b186b2cb992b91e95307f779408e3ca7", "lat": 38.92473066666667}, {"type": "electric_scooter", "fusion_lon": 0.0, "name": "b366229113deabf0838fb90a4476a90a", "lon": -77.01564233333333, "fusion_lat": 0.0, "is_disabled": 0, "is_reserved": 0, "rental_uris": {"ios": "https://dc.lft.to/lastmile_qr_scan", "android": "https://dc.lft.to/lastmile_qr_scan"}, "bike_id": "b366229113deabf0838fb90a4476a90a", "lat": 38.89219116666666}, {"type": "electric_scooter", "fusion_lon": 0.0, "name": "7cfd1b8dbf0ba9e4b0fe4444d6a75ecc", "lon": -77.02192333333333, "fusion_lat": 0.0, "is_disabled": 0, "is_reserved": 0, "rental_uris": {"ios": "https://dc.lft.to/lastmile_qr_scan", "android": "https://dc.lft.to/lastmile_qr_scan"}, "bike_id": "7cfd1b8dbf0ba9e4b0fe4444d6a75ecc", "lat": 38.910535333333335}, {"type": "electric_scooter", "fusion_lon": 0.0, "name": "eda01c4b876c28b945132b1d96afefe8", "lon": -77.00066433333333, "fusion_lat": 0.0, "is_disabled": 0, "is_reserved": 0, "rental_uris": {"ios": "https://dc.lft.to/lastmile_qr_scan", "android": "https://dc.lft.to/lastmile_qr_scan"}, "bike_id": "eda01c4b876c28b945132b1d96afefe8", "lat": 38.924422666666665}, {"type": "electric_scooter", "fusion_lon": 0.0, "name": "fbc3ba7e7e1d3d4fd109da6b69d9f0b4", "lon": -77.02233933333333, "fusion_lat": 0.0, "is_disabled": 0, "is_reserved": 0, "rental_uris": {"ios": "https://dc.lft.to/lastmile_qr_scan", "android": "https://dc.lft.to/lastmile_qr_scan"}, "bike_id": "fbc3ba7e7e1d3d4fd109da6b69d9f0b4", "lat": 38.9569385}, {"type": "electric_scooter", "fusion_lon": 0.0, "name": "de43fdd3cec51d6d63941578cef4a65e", "lon": -77.03667216666666, "fusion_lat": 0.0, "is_disabled": 0, "is_reserved": 0, "rental_uris": {"ios": "https://dc.lft.to/lastmile_qr_scan", "android": "https://dc.lft.to/lastmile_qr_scan"}, "bike_id": "de43fdd3cec51d6d63941578cef4a65e", "lat": 38.93171916666667}, {"type": "electric_bike", "fusion_lon": 0.0, "name": "5a7d99b91f4ce940293b644a1aebf802", "lon": -77.0601425, "fusion_lat": 0.0, "is_disabled": 0, "is_reserved": 0, "rental_uris": {"ios": "https://dc.lft.to/lastmile_qr_scan", "android": "https://dc.lft.to/lastmile_qr_scan"}, "bike_id": "5a7d99b91f4ce940293b644a1aebf802", "lat": 38.82778316666667}, {"type": "electric_scooter", "fusion_lon": 0.0, "name": "d45ba71f5e3b3bec8a8454aee9e30a38", "lon": -77.04164533333334, "fusion_lat": 0.0, "is_disabled": 0, "is_reserved": 0, "rental_uris": {"ios": "https://dc.lft.to/lastmile_qr_scan", "android": "https://dc.lft.to/lastmile_qr_scan"}, "bike_id": "d45ba71f5e3b3bec8a8454aee9e30a38", "lat": 38.905299166666666}, {"type": "electric_scooter", "fusion_lon": 0.0, "name": "4c7c229ec6f97aea6c7be82737e04ca6", "lon": -77.02802716666666, "fusion_lat": 0.0, "is_disabled": 0, "is_reserved": 0, "rental_uris": {"ios": "https://dc.lft.to/lastmile_qr_scan", "android": "https://dc.lft.to/lastmile_qr_scan"}, "bike_id": "4c7c229ec6f97aea6c7be82737e04ca6", "lat": 38.89232766666667}, {"type": "electric_scooter", "fusion_lon": 0.0, "name": "d99f48201574c76579894477a8938816", "lon": -77.02690066666666, "fusion_lat": 0.0, "is_disabled": 0, "is_reserved": 0, "rental_uris": {"ios": "https://dc.lft.to/lastmile_qr_scan", "android": "https://dc.lft.to/lastmile_qr_scan"}, "bike_id": "d99f48201574c76579894477a8938816", "lat": 38.92481133333333}, {"type": "electric_scooter", "fusion_lon": 0.0, "name": "b10a1841f637cc9543e6352c37d6e7b4", "lon": -77.06755266666667, "fusion_lat": 0.0, "is_disabled": 0, "is_reserved": 0, "rental_uris": {"ios": "https://dc.lft.to/lastmile_qr_scan", "android": "https://dc.lft.to/lastmile_qr_scan"}, "bike_id": "b10a1841f637cc9543e6352c37d6e7b4", "lat": 38.949665}, {"type": "electric_scooter", "fusion_lon": 0.0, "name": "da17ed0a1e6343135710662557ab331f", "lon": -77.02825516666667, "fusion_lat": 0.0, "is_disabled": 0, "is_reserved": 0, "rental_uris": {"ios": "https://dc.lft.to/lastmile_qr_scan", "android": "https://dc.lft.to/lastmile_qr_scan"}, "bike_id": "da17ed0a1e6343135710662557ab331f", "lat": 38.908596}, {"type": "electric_scooter", "fusion_lon": 0.0, "name": "e66f7dc8e6ac434517d9b570155ffd6a", "lon": -77.0240715, "fusion_lat": 0.0, "is_disabled": 0, "is_reserved": 0, "rental_uris": {"ios": "https://dc.lft.to/lastmile_qr_scan", "android": "https://dc.lft.to/lastmile_qr_scan"}, "bike_id": "e66f7dc8e6ac434517d9b570155ffd6a", "lat": 38.957339166666664}, {"type": "electric_scooter", "fusion_lon": 0.0, "name": "4f0a33968585c7f4f0fc40f3dc7f9a79", "lon": -77.02482233333333, "fusion_lat": 0.0, "is_disabled": 0, "is_reserved": 0, "rental_uris": {"ios": "https://dc.lft.to/lastmile_qr_scan", "android": "https://dc.lft.to/lastmile_qr_scan"}, "bike_id": "4f0a33968585c7f4f0fc40f3dc7f9a79", "lat": 38.9175}, {"type": "electric_scooter", "fusion_lon": 0.0, "name": "c0cb4d10f162b088357b7e3dc9730366", "lon": -77.01948716666666, "fusion_lat": 0.0, "is_disabled": 0, "is_reserved": 0, "rental_uris": {"ios": "https://dc.lft.to/lastmile_qr_scan", "android": "https://dc.lft.to/lastmile_qr_scan"}, "bike_id": "c0cb4d10f162b088357b7e3dc9730366", "lat": 38.95638683333333}, {"type": "electric_scooter", "fusion_lon": 0.0, "name": "a0732eb60b75fecfe2379fc6d7004001", "lon": -77.03176733333333, "fusion_lat": 0.0, "is_disabled": 0, "is_reserved": 0, "rental_uris": {"ios": "https://dc.lft.to/lastmile_qr_scan", "android": "https://dc.lft.to/lastmile_qr_scan"}, "bike_id": "a0732eb60b75fecfe2379fc6d7004001", "lat": 38.90737166666667}, {"type": "electric_scooter", "fusion_lon": 0.0, "name": "cf8a596893dea55af0ee95585d2d286a", "lon": -76.99953666666667, "fusion_lat": 0.0, "is_disabled": 0, "is_reserved": 0, "rental_uris": {"ios": "https://dc.lft.to/lastmile_qr_scan", "android": "https://dc.lft.to/lastmile_qr_scan"}, "bike_id": "cf8a596893dea55af0ee95585d2d286a", "lat": 38.908621833333335}, {"type": "electric_scooter", "fusion_lon": 0.0, "name": "0dc04556851be5ebc7e28f7022555911", "lon": -77.044962, "fusion_lat": 0.0, "is_disabled": 0, "is_reserved": 0, "rental_uris": {"ios": "https://dc.lft.to/lastmile_qr_scan", "android": "https://dc.lft.to/lastmile_qr_scan"}, "bike_id": "0dc04556851be5ebc7e28f7022555911", "lat": 38.89229816666667}, {"type": "electric_scooter", "fusion_lon": 0.0, "name": "54ad25024f37f7eb08dc1a56aa4f9660", "lon": -77.04639566666667, "fusion_lat": 0.0, "is_disabled": 0, "is_reserved": 0, "rental_uris": {"ios": "https://dc.lft.to/lastmile_qr_scan", "android": "https://dc.lft.to/lastmile_qr_scan"}, "bike_id": "54ad25024f37f7eb08dc1a56aa4f9660", "lat": 38.892228}, {"type": "electric_scooter", "fusion_lon": 0.0, "name": "64521839ad6afdacf4430c88cf031167", "lon": -77.01858916666667, "fusion_lat": 0.0, "is_disabled": 0, "is_reserved": 0, "rental_uris": {"ios": "https://dc.lft.to/lastmile_qr_scan", "android": "https://dc.lft.to/lastmile_qr_scan"}, "bike_id": "64521839ad6afdacf4430c88cf031167", "lat": 38.9492525}, {"type": "electric_scooter", "fusion_lon": 0.0, "name": "90a5b356cbf28c27b6ff23f6a59cdf39", "lon": -77.01253916666667, "fusion_lat": 0.0, "is_disabled": 0, "is_reserved": 0, "rental_uris": {"ios": "https://dc.lft.to/lastmile_qr_scan", "android": "https://dc.lft.to/lastmile_qr_scan"}, "bike_id": "90a5b356cbf28c27b6ff23f6a59cdf39", "lat": 38.90127566666666}, {"type": "electric_scooter", "fusion_lon": 0.0, "name": "0627936269dcd87711a54a3a11e4453e", "lon": -77.0250595, "fusion_lat": 0.0, "is_disabled": 0, "is_reserved": 0, "rental_uris": {"ios": "https://dc.lft.to/lastmile_qr_scan", "android": "https://dc.lft.to/lastmile_qr_scan"}, "bike_id": "0627936269dcd87711a54a3a11e4453e", "lat": 38.89735}, {"type": "electric_scooter", "fusion_lon": 0.0, "name": "2e639a495332c69315ed3029030e7729", "lon": -77.04182833333333, "fusion_lat": 0.0, "is_disabled": 0, "is_reserved": 0, "rental_uris": {"ios": "https://dc.lft.to/lastmile_qr_scan", "android": "https://dc.lft.to/lastmile_qr_scan"}, "bike_id": "2e639a495332c69315ed3029030e7729", "lat": 38.892411833333334}, {"type": "electric_scooter", "fusion_lon": 0.0, "name": "7a2ee4d33d8b0b2ccfb88d55a3cb6f65", "lon": -77.04868566666667, "fusion_lat": 0.0, "is_disabled": 0, "is_reserved": 0, "rental_uris": {"ios": "https://dc.lft.to/lastmile_qr_scan", "android": "https://dc.lft.to/lastmile_qr_scan"}, "bike_id": "7a2ee4d33d8b0b2ccfb88d55a3cb6f65", "lat": 38.912749833333336}, {"type": "electric_scooter", "fusion_lon": 0.0, "name": "8a12d266294c557b05939291ed561b37", "lon": -77.052009, "fusion_lat": 0.0, "is_disabled": 0, "is_reserved": 0, "rental_uris": {"ios": "https://dc.lft.to/lastmile_qr_scan", "android": "https://dc.lft.to/lastmile_qr_scan"}, "bike_id": "8a12d266294c557b05939291ed561b37", "lat": 38.9025195}, {"type": "electric_scooter", "fusion_lon": 0.0, "name": "1d5bc024a1b454ab5a9fd167ab72f004", "lon": -77.0295745, "fusion_lat": 0.0, "is_disabled": 0, "is_reserved": 0, "rental_uris": {"ios": "https://dc.lft.to/lastmile_qr_scan", "android": "https://dc.lft.to/lastmile_qr_scan"}, "bike_id": "1d5bc024a1b454ab5a9fd167ab72f004", "lat": 38.90156983333333}, {"type": "electric_scooter", "fusion_lon": 0.0, "name": "ada0535e61028c4b4e561bf711c0bfdc", "lon": -77.01955816666667, "fusion_lat": 0.0, "is_disabled": 0, "is_reserved": 0, "rental_uris": {"ios": "https://dc.lft.to/lastmile_qr_scan", "android": "https://dc.lft.to/lastmile_qr_scan"}, "bike_id": "ada0535e61028c4b4e561bf711c0bfdc", "lat": 38.92334}, {"type": "electric_scooter", "fusion_lon": 0.0, "name": "826ae403b8b3d4492a68f0ab6922a091", "lon": -77.056761, "fusion_lat": 0.0, "is_disabled": 0, "is_reserved": 0, "rental_uris": {"ios": "https://dc.lft.to/lastmile_qr_scan", "android": "https://dc.lft.to/lastmile_qr_scan"}, "bike_id": "826ae403b8b3d4492a68f0ab6922a091", "lat": 38.92345183333333}, {"type": "electric_scooter", "fusion_lon": 0.0, "name": "e5601cbb5e5b09cc3cda060d764fb37a", "lon": -77.0241865, "fusion_lat": 0.0, "is_disabled": 0, "is_reserved": 0, "rental_uris": {"ios": "https://dc.lft.to/lastmile_qr_scan", "android": "https://dc.lft.to/lastmile_qr_scan"}, "bike_id": "e5601cbb5e5b09cc3cda060d764fb37a", "lat": 38.901241166666665}, {"type": "electric_scooter", "fusion_lon": 0.0, "name": "7e6baff0b8116cfadafae5e659eacc64", "lon": -76.92789833333333, "fusion_lat": 0.0, "is_disabled": 0, "is_reserved": 0, "rental_uris": {"ios": "https://dc.lft.to/lastmile_qr_scan", "android": "https://dc.lft.to/lastmile_qr_scan"}, "bike_id": "7e6baff0b8116cfadafae5e659eacc64", "lat": 38.88364683333333}, {"type": "electric_scooter", "fusion_lon": 0.0, "name": "00c283446b0de56ec1b353d5cf98b398", "lon": -77.04376866666667, "fusion_lat": 0.0, "is_disabled": 0, "is_reserved": 0, "rental_uris": {"ios": "https://dc.lft.to/lastmile_qr_scan", "android": "https://dc.lft.to/lastmile_qr_scan"}, "bike_id": "00c283446b0de56ec1b353d5cf98b398", "lat": 38.90712}, {"type": "electric_scooter", "fusion_lon": 0.0, "name": "b2261c024bdc21c688b3904dab2905ec", "lon": -77.03943566666666, "fusion_lat": 0.0, "is_disabled": 0, "is_reserved": 0, "rental_uris": {"ios": "https://dc.lft.to/lastmile_qr_scan", "android": "https://dc.lft.to/lastmile_qr_scan"}, "bike_id": "b2261c024bdc21c688b3904dab2905ec", "lat": 38.90820933333333}, {"type": "electric_scooter", "fusion_lon": 0.0, "name": "8181113ed018b550121a2d35f647de12", "lon": -77.04394783333333, "fusion_lat": 0.0, "is_disabled": 0, "is_reserved": 0, "rental_uris": {"ios": "https://dc.lft.to/lastmile_qr_scan", "android": "https://dc.lft.to/lastmile_qr_scan"}, "bike_id": "8181113ed018b550121a2d35f647de12", "lat": 38.9014565}, {"type": "electric_scooter", "fusion_lon": 0.0, "name": "ed7e63f535ba291f390747ab3e2505e7", "lon": -77.07891933333333, "fusion_lat": 0.0, "is_disabled": 0, "is_reserved": 0, "rental_uris": {"ios": "https://dc.lft.to/lastmile_qr_scan", "android": "https://dc.lft.to/lastmile_qr_scan"}, "bike_id": "ed7e63f535ba291f390747ab3e2505e7", "lat": 38.92865366666667}, {"type": "electric_bike", "fusion_lon": 0.0, "name": "27d5ca8ffd3ae67644c89d541cd93f59", "lon": -76.91063683333333, "fusion_lat": 0.0, "is_disabled": 0, "is_reserved": 0, "rental_uris": {"ios": "https://dc.lft.to/lastmile_qr_scan", "android": "https://dc.lft.to/lastmile_qr_scan"}, "bike_id": "27d5ca8ffd3ae67644c89d541cd93f59", "lat": 39.01078233333333}, {"type": "electric_scooter", "fusion_lon": 0.0, "name": "698cf84d93e604ddedd97cfaaad09c4b", "lon": -77.0306605, "fusion_lat": 0.0, "is_disabled": 0, "is_reserved": 0, "rental_uris": {"ios": "https://dc.lft.to/lastmile_qr_scan", "android": "https://dc.lft.to/lastmile_qr_scan"}, "bike_id": "698cf84d93e604ddedd97cfaaad09c4b", "lat": 38.92252666666667}, {"type": "electric_scooter", "fusion_lon": 0.0, "name": "bf4bd3229f3f91a97b87478567cd21de", "lon": -77.03204966666667, "fusion_lat": 0.0, "is_disabled": 0, "is_reserved": 0, "rental_uris": {"ios": "https://dc.lft.to/lastmile_qr_scan", "android": "https://dc.lft.to/lastmile_qr_scan"}, "bike_id": "bf4bd3229f3f91a97b87478567cd21de", "lat": 38.916431833333334}, {"type": "electric_scooter", "fusion_lon": 0.0, "name": "d69aebb16250eb42ce94d4da44322172", "lon": -77.02774483333333, "fusion_lat": 0.0, "is_disabled": 0, "is_reserved": 0, "rental_uris": {"ios": "https://dc.lft.to/lastmile_qr_scan", "android": "https://dc.lft.to/lastmile_qr_scan"}, "bike_id": "d69aebb16250eb42ce94d4da44322172", "lat": 38.897200833333336}, {"type": "electric_scooter", "fusion_lon": 0.0, "name": "02eea13e9134e5ab6e72c2e61b91b03a", "lon": -76.99492633333334, "fusion_lat": 0.0, "is_disabled": 0, "is_reserved": 0, "rental_uris": {"ios": "https://dc.lft.to/lastmile_qr_scan", "android": "https://dc.lft.to/lastmile_qr_scan"}, "bike_id": "02eea13e9134e5ab6e72c2e61b91b03a", "lat": 38.89407583333333}, {"type": "electric_bike", "fusion_lon": 0.0, "name": "2370d259ad9a17b6b3e52b2f42052aff", "lon": -77.22911283333333, "fusion_lat": 0.0, "is_disabled": 0, "is_reserved": 0, "rental_uris": {"ios": "https://dc.lft.to/lastmile_qr_scan", "android": "https://dc.lft.to/lastmile_qr_scan"}, "bike_id": "2370d259ad9a17b6b3e52b2f42052aff", "lat": 38.870373666666666}, {"type": "electric_scooter", "fusion_lon": 0.0, "name": "acda656f9ccdcad84f28e46f7b8fbb6d", "lon": -77.027714, "fusion_lat": 0.0, "is_disabled": 0, "is_reserved": 0, "rental_uris": {"ios": "https://dc.lft.to/lastmile_qr_scan", "android": "https://dc.lft.to/lastmile_qr_scan"}, "bike_id": "acda656f9ccdcad84f28e46f7b8fbb6d", "lat": 38.901480666666664}, {"type": "electric_scooter", "fusion_lon": 0.0, "name": "3ae2e0029353abadf9f84021125eed94", "lon": -77.021631, "fusion_lat": 0.0, "is_disabled": 0, "is_reserved": 0, "rental_uris": {"ios": "https://dc.lft.to/lastmile_qr_scan", "android": "https://dc.lft.to/lastmile_qr_scan"}, "bike_id": "3ae2e0029353abadf9f84021125eed94", "lat": 38.926177}, {"type": "electric_scooter", "fusion_lon": 0.0, "name": "34fea7f83dae6b1314dded756586be1c", "lon": -77.05285016666667, "fusion_lat": 0.0, "is_disabled": 0, "is_reserved": 0, "rental_uris": {"ios": "https://dc.lft.to/lastmile_qr_scan", "android": "https://dc.lft.to/lastmile_qr_scan"}, "bike_id": "34fea7f83dae6b1314dded756586be1c", "lat": 38.91070883333333}, {"type": "electric_scooter", "fusion_lon": 0.0, "name": "7a0ee4416d27edffc940a22e3ef1208d", "lon": -77.02213233333333, "fusion_lat": 0.0, "is_disabled": 0, "is_reserved": 0, "rental_uris": {"ios": "https://dc.lft.to/lastmile_qr_scan", "android": "https://dc.lft.to/lastmile_qr_scan"}, "bike_id": "7a0ee4416d27edffc940a22e3ef1208d", "lat": 38.896118}, {"type": "electric_scooter", "fusion_lon": 0.0, "name": "d61cc53f8f0122bf084b6f7ecdee967c", "lon": -77.02384433333333, "fusion_lat": 0.0, "is_disabled": 0, "is_reserved": 0, "rental_uris": {"ios": "https://dc.lft.to/lastmile_qr_scan", "android": "https://dc.lft.to/lastmile_qr_scan"}, "bike_id": "d61cc53f8f0122bf084b6f7ecdee967c", "lat": 38.89912416666667}, {"type": "electric_scooter", "fusion_lon": 0.0, "name": "6c24b0e73d812602c6041da586846d32", "lon": -77.02003116666667, "fusion_lat": 0.0, "is_disabled": 0, "is_reserved": 0, "rental_uris": {"ios": "https://dc.lft.to/lastmile_qr_scan", "android": "https://dc.lft.to/lastmile_qr_scan"}, "bike_id": "6c24b0e73d812602c6041da586846d32", "lat": 38.915888}, {"type": "electric_scooter", "fusion_lon": 0.0, "name": "aea48b0c0f668787d128ff5dbf69894e", "lon": -76.99350216666667, "fusion_lat": 0.0, "is_disabled": 0, "is_reserved": 0, "rental_uris": {"ios": "https://dc.lft.to/lastmile_qr_scan", "android": "https://dc.lft.to/lastmile_qr_scan"}, "bike_id": "aea48b0c0f668787d128ff5dbf69894e", "lat": 38.900240333333336}, {"type": "electric_scooter", "fusion_lon": 0.0, "name": "1749edac36391f0807ed325d6b4a9cbf", "lon": -77.08963866666667, "fusion_lat": 0.0, "is_disabled": 0, "is_reserved": 0, "rental_uris": {"ios": "https://dc.lft.to/lastmile_qr_scan", "android": "https://dc.lft.to/lastmile_qr_scan"}, "bike_id": "1749edac36391f0807ed325d6b4a9cbf", "lat": 38.9345205}, {"type": "electric_scooter", "fusion_lon": 0.0, "name": "9dd3cbb1e7734a2ab9e9fa246ea98f57", "lon": -76.99871683333333, "fusion_lat": 0.0, "is_disabled": 0, "is_reserved": 0, "rental_uris": {"ios": "https://dc.lft.to/lastmile_qr_scan", "android": "https://dc.lft.to/lastmile_qr_scan"}, "bike_id": "9dd3cbb1e7734a2ab9e9fa246ea98f57", "lat": 38.90029116666667}, {"type": "electric_scooter", "fusion_lon": 0.0, "name": "182457229892d3989a23a04eda08aa3f", "lon": -77.009528, "fusion_lat": 0.0, "is_disabled": 0, "is_reserved": 0, "rental_uris": {"ios": "https://dc.lft.to/lastmile_qr_scan", "android": "https://dc.lft.to/lastmile_qr_scan"}, "bike_id": "182457229892d3989a23a04eda08aa3f", "lat": 38.91484333333333}, {"type": "electric_scooter", "fusion_lon": 0.0, "name": "6caec2b979e91465f4b9357ecfd66896", "lon": -77.02697166666667, "fusion_lat": 0.0, "is_disabled": 0, "is_reserved": 0, "rental_uris": {"ios": "https://dc.lft.to/lastmile_qr_scan", "android": "https://dc.lft.to/lastmile_qr_scan"}, "bike_id": "6caec2b979e91465f4b9357ecfd66896", "lat": 38.906683666666666}, {"type": "electric_scooter", "fusion_lon": 0.0, "name": "58ddcc502a0d2f06fcc40bf3610c4776", "lon": -77.01442333333334, "fusion_lat": 0.0, "is_disabled": 0, "is_reserved": 0, "rental_uris": {"ios": "https://dc.lft.to/lastmile_qr_scan", "android": "https://dc.lft.to/lastmile_qr_scan"}, "bike_id": "58ddcc502a0d2f06fcc40bf3610c4776", "lat": 38.91738633333333}, {"type": "electric_scooter", "fusion_lon": 0.0, "name": "35d77d173466c177d35ea27f62302992", "lon": -77.04204083333333, "fusion_lat": 0.0, "is_disabled": 0, "is_reserved": 0, "rental_uris": {"ios": "https://dc.lft.to/lastmile_qr_scan", "android": "https://dc.lft.to/lastmile_qr_scan"}, "bike_id": "35d77d173466c177d35ea27f62302992", "lat": 38.892674}, {"type": "electric_scooter", "fusion_lon": 0.0, "name": "0fb2794dc35de7a120a52ff322876b28", "lon": -77.0463615, "fusion_lat": 0.0, "is_disabled": 0, "is_reserved": 0, "rental_uris": {"ios": "https://dc.lft.to/lastmile_qr_scan", "android": "https://dc.lft.to/lastmile_qr_scan"}, "bike_id": "0fb2794dc35de7a120a52ff322876b28", "lat": 38.89973}, {"type": "electric_scooter", "fusion_lon": 0.0, "name": "881195f34bd793297047907f2ba08b28", "lon": -77.00170133333333, "fusion_lat": 0.0, "is_disabled": 0, "is_reserved": 0, "rental_uris": {"ios": "https://dc.lft.to/lastmile_qr_scan", "android": "https://dc.lft.to/lastmile_qr_scan"}, "bike_id": "881195f34bd793297047907f2ba08b28", "lat": 38.902583166666666}, {"type": "electric_scooter", "fusion_lon": 0.0, "name": "19efc60ee7952a8b846633074ddafa43", "lon": -77.050011, "fusion_lat": 0.0, "is_disabled": 0, "is_reserved": 0, "rental_uris": {"ios": "https://dc.lft.to/lastmile_qr_scan", "android": "https://dc.lft.to/lastmile_qr_scan"}, "bike_id": "19efc60ee7952a8b846633074ddafa43", "lat": 38.89232616666666}, {"type": "electric_scooter", "fusion_lon": 0.0, "name": "c2af4d7c921a740e67ea601b61b87ca1", "lon": -77.02942433333334, "fusion_lat": 0.0, "is_disabled": 0, "is_reserved": 0, "rental_uris": {"ios": "https://dc.lft.to/lastmile_qr_scan", "android": "https://dc.lft.to/lastmile_qr_scan"}, "bike_id": "c2af4d7c921a740e67ea601b61b87ca1", "lat": 38.89886033333333}, {"type": "electric_scooter", "fusion_lon": 0.0, "name": "0cef81eb01c9a069c5ddc5b5f450a29d", "lon": -77.06522266666667, "fusion_lat": 0.0, "is_disabled": 0, "is_reserved": 0, "rental_uris": {"ios": "https://dc.lft.to/lastmile_qr_scan", "android": "https://dc.lft.to/lastmile_qr_scan"}, "bike_id": "0cef81eb01c9a069c5ddc5b5f450a29d", "lat": 38.905220666666665}, {"type": "electric_scooter", "fusion_lon": 0.0, "name": "a8c650fbcde9bd92698b1c0a981a9059", "lon": -77.02034816666666, "fusion_lat": 0.0, "is_disabled": 0, "is_reserved": 0, "rental_uris": {"ios": "https://dc.lft.to/lastmile_qr_scan", "android": "https://dc.lft.to/lastmile_qr_scan"}, "bike_id": "a8c650fbcde9bd92698b1c0a981a9059", "lat": 38.94594716666667}, {"type": "electric_scooter", "fusion_lon": 0.0, "name": "3ce657ac91574249ec75f5a7a9ddccad", "lon": -77.01584766666667, "fusion_lat": 0.0, "is_disabled": 0, "is_reserved": 0, "rental_uris": {"ios": "https://dc.lft.to/lastmile_qr_scan", "android": "https://dc.lft.to/lastmile_qr_scan"}, "bike_id": "3ce657ac91574249ec75f5a7a9ddccad", "lat": 38.951089}, {"type": "electric_scooter", "fusion_lon": 0.0, "name": "32e5cd006b7d568a2cc1873aa49b9885", "lon": -77.030765, "fusion_lat": 0.0, "is_disabled": 0, "is_reserved": 0, "rental_uris": {"ios": "https://dc.lft.to/lastmile_qr_scan", "android": "https://dc.lft.to/lastmile_qr_scan"}, "bike_id": "32e5cd006b7d568a2cc1873aa49b9885", "lat": 38.907263}, {"type": "electric_bike", "fusion_lon": 0.0, "name": "d0f0afc8f9513ded45834d48e10c7a2f", "lon": -77.03793933333333, "fusion_lat": 0.0, "is_disabled": 0, "is_reserved": 0, "rental_uris": {"ios": "https://dc.lft.to/lastmile_qr_scan", "android": "https://dc.lft.to/lastmile_qr_scan"}, "bike_id": "d0f0afc8f9513ded45834d48e10c7a2f", "lat": 38.9967215}, {"type": "electric_scooter", "fusion_lon": 0.0, "name": "83c40ed64a684652daeae36a01959bdf", "lon": -77.02713983333334, "fusion_lat": 0.0, "is_disabled": 0, "is_reserved": 0, "rental_uris": {"ios": "https://dc.lft.to/lastmile_qr_scan", "android": "https://dc.lft.to/lastmile_qr_scan"}, "bike_id": "83c40ed64a684652daeae36a01959bdf", "lat": 38.91825166666667}, {"type": "electric_scooter", "fusion_lon": 0.0, "name": "620d5a87daeb15c3932826483f7434de", "lon": -77.0151215, "fusion_lat": 0.0, "is_disabled": 0, "is_reserved": 0, "rental_uris": {"ios": "https://dc.lft.to/lastmile_qr_scan", "android": "https://dc.lft.to/lastmile_qr_scan"}, "bike_id": "620d5a87daeb15c3932826483f7434de", "lat": 38.9267555}, {"type": "electric_scooter", "fusion_lon": 0.0, "name": "72293a2f693f053d4f546ca803e26aaf", "lon": -77.04859883333333, "fusion_lat": 0.0, "is_disabled": 0, "is_reserved": 0, "rental_uris": {"ios": "https://dc.lft.to/lastmile_qr_scan", "android": "https://dc.lft.to/lastmile_qr_scan"}, "bike_id": "72293a2f693f053d4f546ca803e26aaf", "lat": 38.91140516666667}, {"type": "electric_scooter", "fusion_lon": 0.0, "name": "5b2b0e91d55525a9c1c1044c6792f80a", "lon": -77.04353666666667, "fusion_lat": 0.0, "is_disabled": 0, "is_reserved": 0, "rental_uris": {"ios": "https://dc.lft.to/lastmile_qr_scan", "android": "https://dc.lft.to/lastmile_qr_scan"}, "bike_id": "5b2b0e91d55525a9c1c1044c6792f80a", "lat": 38.896176}, {"type": "electric_scooter", "fusion_lon": 0.0, "name": "99491a56fa1a186d6a9d92e573ea57a4", "lon": -77.056012, "fusion_lat": 0.0, "is_disabled": 0, "is_reserved": 0, "rental_uris": {"ios": "https://dc.lft.to/lastmile_qr_scan", "android": "https://dc.lft.to/lastmile_qr_scan"}, "bike_id": "99491a56fa1a186d6a9d92e573ea57a4", "lat": 38.9370215}, {"type": "electric_scooter", "fusion_lon": 0.0, "name": "a0e94be285fe10b6642019dbf062f7d9", "lon": -77.02258433333333, "fusion_lat": 0.0, "is_disabled": 0, "is_reserved": 0, "rental_uris": {"ios": "https://dc.lft.to/lastmile_qr_scan", "android": "https://dc.lft.to/lastmile_qr_scan"}, "bike_id": "a0e94be285fe10b6642019dbf062f7d9", "lat": 38.92427433333334}, {"type": "electric_scooter", "fusion_lon": 0.0, "name": "16050d07061cb3651dee5292afec2237", "lon": -77.04778283333333, "fusion_lat": 0.0, "is_disabled": 0, "is_reserved": 0, "rental_uris": {"ios": "https://dc.lft.to/lastmile_qr_scan", "android": "https://dc.lft.to/lastmile_qr_scan"}, "bike_id": "16050d07061cb3651dee5292afec2237", "lat": 38.900957}, {"type": "electric_bike", "fusion_lon": 0.0, "name": "c6e997efb375940f7dbe8c36f76d1fb9", "lon": -76.98356216666667, "fusion_lat": 0.0, "is_disabled": 0, "is_reserved": 0, "rental_uris": {"ios": "https://dc.lft.to/lastmile_qr_scan", "android": "https://dc.lft.to/lastmile_qr_scan"}, "bike_id": "c6e997efb375940f7dbe8c36f76d1fb9", "lat": 38.86265733333333}, {"type": "electric_scooter", "fusion_lon": 0.0, "name": "89af4e3303bc9d2a318b1b2a7af8bc20", "lon": -77.04215583333334, "fusion_lat": 0.0, "is_disabled": 0, "is_reserved": 0, "rental_uris": {"ios": "https://dc.lft.to/lastmile_qr_scan", "android": "https://dc.lft.to/lastmile_qr_scan"}, "bike_id": "89af4e3303bc9d2a318b1b2a7af8bc20", "lat": 38.90914333333333}, {"type": "electric_scooter", "fusion_lon": 0.0, "name": "d52c27d1358adccf393f278421c50aac", "lon": -77.02163066666667, "fusion_lat": 0.0, "is_disabled": 0, "is_reserved": 0, "rental_uris": {"ios": "https://dc.lft.to/lastmile_qr_scan", "android": "https://dc.lft.to/lastmile_qr_scan"}, "bike_id": "d52c27d1358adccf393f278421c50aac", "lat": 38.926170166666665}, {"type": "electric_scooter", "fusion_lon": 0.0, "name": "fe8f7f5b3c6ecaab9499663cc7af6e33", "lon": -77.043896, "fusion_lat": 0.0, "is_disabled": 0, "is_reserved": 0, "rental_uris": {"ios": "https://dc.lft.to/lastmile_qr_scan", "android": "https://dc.lft.to/lastmile_qr_scan"}, "bike_id": "fe8f7f5b3c6ecaab9499663cc7af6e33", "lat": 38.892030166666665}, {"type": "electric_scooter", "fusion_lon": 0.0, "name": "5ed738a46a53aa5e007c6e3a85a3495b", "lon": -77.0468245, "fusion_lat": 0.0, "is_disabled": 0, "is_reserved": 0, "rental_uris": {"ios": "https://dc.lft.to/lastmile_qr_scan", "android": "https://dc.lft.to/lastmile_qr_scan"}, "bike_id": "5ed738a46a53aa5e007c6e3a85a3495b", "lat": 38.89733716666667}, {"type": "electric_scooter", "fusion_lon": 0.0, "name": "76f4a0cdc5b6dd299030b19953236dd8", "lon": -76.937353, "fusion_lat": 0.0, "is_disabled": 0, "is_reserved": 0, "rental_uris": {"ios": "https://dc.lft.to/lastmile_qr_scan", "android": "https://dc.lft.to/lastmile_qr_scan"}, "bike_id": "76f4a0cdc5b6dd299030b19953236dd8", "lat": 38.890124166666666}, {"type": "electric_scooter", "fusion_lon": 0.0, "name": "4630f7353771b4e68a1ed5c9dfbf4078", "lon": -77.05006316666666, "fusion_lat": 0.0, "is_disabled": 0, "is_reserved": 0, "rental_uris": {"ios": "https://dc.lft.to/lastmile_qr_scan", "android": "https://dc.lft.to/lastmile_qr_scan"}, "bike_id": "4630f7353771b4e68a1ed5c9dfbf4078", "lat": 38.8923025}, {"type": "electric_scooter", "fusion_lon": 0.0, "name": "5dcbe7d0bd51d8a03afae7f13bcf7292", "lon": -77.03906333333333, "fusion_lat": 0.0, "is_disabled": 0, "is_reserved": 0, "rental_uris": {"ios": "https://dc.lft.to/lastmile_qr_scan", "android": "https://dc.lft.to/lastmile_qr_scan"}, "bike_id": "5dcbe7d0bd51d8a03afae7f13bcf7292", "lat": 38.917607}, {"type": "electric_bike", "fusion_lon": 0.0, "name": "485365cbad6a3ed17f99b1e08fcc4d20", "lon": -76.94252183333333, "fusion_lat": 0.0, "is_disabled": 0, "is_reserved": 0, "rental_uris": {"ios": "https://dc.lft.to/lastmile_qr_scan", "android": "https://dc.lft.to/lastmile_qr_scan"}, "bike_id": "485365cbad6a3ed17f99b1e08fcc4d20", "lat": 38.898500166666665}, {"type": "electric_scooter", "fusion_lon": 0.0, "name": "97bb0a0bd82c1cb810874156b4bec9e2", "lon": -76.95768333333334, "fusion_lat": 0.0, "is_disabled": 0, "is_reserved": 0, "rental_uris": {"ios": "https://dc.lft.to/lastmile_qr_scan", "android": "https://dc.lft.to/lastmile_qr_scan"}, "bike_id": "97bb0a0bd82c1cb810874156b4bec9e2", "lat": 38.88359466666667}, {"type": "electric_scooter", "fusion_lon": 0.0, "name": "c29eae2aa51646731ca8b906f911ac53", "lon": -77.02714516666667, "fusion_lat": 0.0, "is_disabled": 0, "is_reserved": 0, "rental_uris": {"ios": "https://dc.lft.to/lastmile_qr_scan", "android": "https://dc.lft.to/lastmile_qr_scan"}, "bike_id": "c29eae2aa51646731ca8b906f911ac53", "lat": 38.9182885}, {"type": "electric_scooter", "fusion_lon": 0.0, "name": "a5edea52a9e1eccc3ed409bd36c2fe72", "lon": -77.04746466666667, "fusion_lat": 0.0, "is_disabled": 0, "is_reserved": 0, "rental_uris": {"ios": "https://dc.lft.to/lastmile_qr_scan", "android": "https://dc.lft.to/lastmile_qr_scan"}, "bike_id": "a5edea52a9e1eccc3ed409bd36c2fe72", "lat": 38.91998683333333}, {"type": "electric_scooter", "fusion_lon": 0.0, "name": "83b0ee71b6a81d0773809e93b56cd9d4", "lon": -77.02855233333334, "fusion_lat": 0.0, "is_disabled": 0, "is_reserved": 0, "rental_uris": {"ios": "https://dc.lft.to/lastmile_qr_scan", "android": "https://dc.lft.to/lastmile_qr_scan"}, "bike_id": "83b0ee71b6a81d0773809e93b56cd9d4", "lat": 38.88189666666667}, {"type": "electric_scooter", "fusion_lon": 0.0, "name": "e60908f119ffd3e5d4785340f9f817b0", "lon": -76.99621233333333, "fusion_lat": 0.0, "is_disabled": 0, "is_reserved": 0, "rental_uris": {"ios": "https://dc.lft.to/lastmile_qr_scan", "android": "https://dc.lft.to/lastmile_qr_scan"}, "bike_id": "e60908f119ffd3e5d4785340f9f817b0", "lat": 38.921925333333334}, {"type": "electric_bike", "fusion_lon": 0.0, "name": "5b5ba8c45e56b9a21cde835a4826a8c4", "lon": -77.09692733333333, "fusion_lat": 0.0, "is_disabled": 0, "is_reserved": 0, "rental_uris": {"ios": "https://dc.lft.to/lastmile_qr_scan", "android": "https://dc.lft.to/lastmile_qr_scan"}, "bike_id": "5b5ba8c45e56b9a21cde835a4826a8c4", "lat": 38.807413333333336}, {"type": "electric_scooter", "fusion_lon": 0.0, "name": "0d5dace3c3a63ab79bb44eab94316723", "lon": -77.0285175, "fusion_lat": 0.0, "is_disabled": 0, "is_reserved": 0, "rental_uris": {"ios": "https://dc.lft.to/lastmile_qr_scan", "android": "https://dc.lft.to/lastmile_qr_scan"}, "bike_id": "0d5dace3c3a63ab79bb44eab94316723", "lat": 38.941988333333335}, {"type": "electric_scooter", "fusion_lon": 0.0, "name": "c357cfc0f71768ef3bffa34528e8e77a", "lon": -77.00724883333334, "fusion_lat": 0.0, "is_disabled": 0, "is_reserved": 0, "rental_uris": {"ios": "https://dc.lft.to/lastmile_qr_scan", "android": "https://dc.lft.to/lastmile_qr_scan"}, "bike_id": "c357cfc0f71768ef3bffa34528e8e77a", "lat": 38.90061083333333}, {"type": "electric_scooter", "fusion_lon": 0.0, "name": "cdb4c96d4bbe17699e79cf9dcc41c1ab", "lon": -77.0280775, "fusion_lat": 0.0, "is_disabled": 0, "is_reserved": 0, "rental_uris": {"ios": "https://dc.lft.to/lastmile_qr_scan", "android": "https://dc.lft.to/lastmile_qr_scan"}, "bike_id": "cdb4c96d4bbe17699e79cf9dcc41c1ab", "lat": 38.89590333333334}, {"type": "electric_scooter", "fusion_lon": 0.0, "name": "36990b65eec6cebbf4fb2ac88cd0ab61", "lon": -77.0330215, "fusion_lat": 0.0, "is_disabled": 0, "is_reserved": 0, "rental_uris": {"ios": "https://dc.lft.to/lastmile_qr_scan", "android": "https://dc.lft.to/lastmile_qr_scan"}, "bike_id": "36990b65eec6cebbf4fb2ac88cd0ab61", "lat": 38.905743}, {"type": "electric_bike", "fusion_lon": 0.0, "name": "e441877af4b215515c34c17623ccef56", "lon": -76.9625645, "fusion_lat": 0.0, "is_disabled": 0, "is_reserved": 0, "rental_uris": {"ios": "https://dc.lft.to/lastmile_qr_scan", "android": "https://dc.lft.to/lastmile_qr_scan"}, "bike_id": "e441877af4b215515c34c17623ccef56", "lat": 38.882516333333335}, {"type": "electric_bike", "fusion_lon": 0.0, "name": "471ef669202642c3c6b567e24a2cfeb0", "lon": -77.03260066666667, "fusion_lat": 0.0, "is_disabled": 0, "is_reserved": 0, "rental_uris": {"ios": "https://dc.lft.to/lastmile_qr_scan", "android": "https://dc.lft.to/lastmile_qr_scan"}, "bike_id": "471ef669202642c3c6b567e24a2cfeb0", "lat": 38.880827}, {"type": "electric_scooter", "fusion_lon": 0.0, "name": "d7d6ceb3a193a708ff8cfc84d25981d9", "lon": -76.99168666666667, "fusion_lat": 0.0, "is_disabled": 0, "is_reserved": 0, "rental_uris": {"ios": "https://dc.lft.to/lastmile_qr_scan", "android": "https://dc.lft.to/lastmile_qr_scan"}, "bike_id": "d7d6ceb3a193a708ff8cfc84d25981d9", "lat": 38.873402666666664}, {"type": "electric_scooter", "fusion_lon": 0.0, "name": "edc2f70d53ba87103f3325234c76d989", "lon": -77.04335866666666, "fusion_lat": 0.0, "is_disabled": 0, "is_reserved": 0, "rental_uris": {"ios": "https://dc.lft.to/lastmile_qr_scan", "android": "https://dc.lft.to/lastmile_qr_scan"}, "bike_id": "edc2f70d53ba87103f3325234c76d989", "lat": 38.901421666666664}, {"type": "electric_scooter", "fusion_lon": 0.0, "name": "0bb4e4d27f42000b4c0e2c17992a9268", "lon": -77.0440805, "fusion_lat": 0.0, "is_disabled": 0, "is_reserved": 0, "rental_uris": {"ios": "https://dc.lft.to/lastmile_qr_scan", "android": "https://dc.lft.to/lastmile_qr_scan"}, "bike_id": "0bb4e4d27f42000b4c0e2c17992a9268", "lat": 38.89610483333333}, {"type": "electric_scooter", "fusion_lon": 0.0, "name": "3ca3a25ba267b11f8be971dd0579e162", "lon": -77.02947933333333, "fusion_lat": 0.0, "is_disabled": 0, "is_reserved": 0, "rental_uris": {"ios": "https://dc.lft.to/lastmile_qr_scan", "android": "https://dc.lft.to/lastmile_qr_scan"}, "bike_id": "3ca3a25ba267b11f8be971dd0579e162", "lat": 38.8992715}, {"type": "electric_scooter", "fusion_lon": 0.0, "name": "3578f05fa08c0cb7f8257f799ff6e90a", "lon": -77.00715283333334, "fusion_lat": 0.0, "is_disabled": 0, "is_reserved": 0, "rental_uris": {"ios": "https://dc.lft.to/lastmile_qr_scan", "android": "https://dc.lft.to/lastmile_qr_scan"}, "bike_id": "3578f05fa08c0cb7f8257f799ff6e90a", "lat": 38.88495783333333}, {"type": "electric_scooter", "fusion_lon": 0.0, "name": "1a0fd85a86fa760290937884d5753757", "lon": -77.00556, "fusion_lat": 0.0, "is_disabled": 0, "is_reserved": 0, "rental_uris": {"ios": "https://dc.lft.to/lastmile_qr_scan", "android": "https://dc.lft.to/lastmile_qr_scan"}, "bike_id": "1a0fd85a86fa760290937884d5753757", "lat": 38.927534}, {"type": "electric_scooter", "fusion_lon": 0.0, "name": "a28fc20ebe52cd20a9bd1e6eb0840b7e", "lon": -77.0074665, "fusion_lat": 0.0, "is_disabled": 0, "is_reserved": 0, "rental_uris": {"ios": "https://dc.lft.to/lastmile_qr_scan", "android": "https://dc.lft.to/lastmile_qr_scan"}, "bike_id": "a28fc20ebe52cd20a9bd1e6eb0840b7e", "lat": 38.876358333333336}, {"type": "electric_bike", "fusion_lon": 0.0, "name": "c16e0d6b0f8a886755dec57f85c2d541", "lon": -76.99704066666666, "fusion_lat": 0.0, "is_disabled": 0, "is_reserved": 0, "rental_uris": {"ios": "https://dc.lft.to/lastmile_qr_scan", "android": "https://dc.lft.to/lastmile_qr_scan"}, "bike_id": "c16e0d6b0f8a886755dec57f85c2d541", "lat": 38.83872216666666}, {"type": "electric_scooter", "fusion_lon": 0.0, "name": "e6ef33dd1a757c923342cd780353b89b", "lon": -77.05549383333333, "fusion_lat": 0.0, "is_disabled": 0, "is_reserved": 0, "rental_uris": {"ios": "https://dc.lft.to/lastmile_qr_scan", "android": "https://dc.lft.to/lastmile_qr_scan"}, "bike_id": "e6ef33dd1a757c923342cd780353b89b", "lat": 38.90008816666667}, {"type": "electric_scooter", "fusion_lon": 0.0, "name": "97283aedbe57cf6608221fba1ba1c959", "lon": -77.02360816666666, "fusion_lat": 0.0, "is_disabled": 0, "is_reserved": 0, "rental_uris": {"ios": "https://dc.lft.to/lastmile_qr_scan", "android": "https://dc.lft.to/lastmile_qr_scan"}, "bike_id": "97283aedbe57cf6608221fba1ba1c959", "lat": 38.93528216666667}, {"type": "electric_bike", "fusion_lon": 0.0, "name": "52d99d4e1c4c7d5710ce259117a32b50", "lon": -77.00287483333334, "fusion_lat": 0.0, "is_disabled": 0, "is_reserved": 0, "rental_uris": {"ios": "https://dc.lft.to/lastmile_qr_scan", "android": "https://dc.lft.to/lastmile_qr_scan"}, "bike_id": "52d99d4e1c4c7d5710ce259117a32b50", "lat": 38.9116095}, {"type": "electric_scooter", "fusion_lon": 0.0, "name": "e549b1ac5b13d27a45db0a13079ad407", "lon": -77.04149216666667, "fusion_lat": 0.0, "is_disabled": 0, "is_reserved": 0, "rental_uris": {"ios": "https://dc.lft.to/lastmile_qr_scan", "android": "https://dc.lft.to/lastmile_qr_scan"}, "bike_id": "e549b1ac5b13d27a45db0a13079ad407", "lat": 38.88226783333333}, {"type": "electric_scooter", "fusion_lon": 0.0, "name": "ff399f62185ff3f6bab485c933b03ff2", "lon": -76.9793305, "fusion_lat": 0.0, "is_disabled": 0, "is_reserved": 0, "rental_uris": {"ios": "https://dc.lft.to/lastmile_qr_scan", "android": "https://dc.lft.to/lastmile_qr_scan"}, "bike_id": "ff399f62185ff3f6bab485c933b03ff2", "lat": 38.90683833333333}, {"type": "electric_scooter", "fusion_lon": 0.0, "name": "eb43890507d1f79f698681ba853386e4", "lon": -77.03821083333334, "fusion_lat": 0.0, "is_disabled": 0, "is_reserved": 0, "rental_uris": {"ios": "https://dc.lft.to/lastmile_qr_scan", "android": "https://dc.lft.to/lastmile_qr_scan"}, "bike_id": "eb43890507d1f79f698681ba853386e4", "lat": 38.92464416666667}, {"type": "electric_scooter", "fusion_lon": 0.0, "name": "091af4d6b7f34d90b8b5f10d398af887", "lon": -77.027154, "fusion_lat": 0.0, "is_disabled": 0, "is_reserved": 0, "rental_uris": {"ios": "https://dc.lft.to/lastmile_qr_scan", "android": "https://dc.lft.to/lastmile_qr_scan"}, "bike_id": "091af4d6b7f34d90b8b5f10d398af887", "lat": 38.924699333333336}, {"type": "electric_scooter", "fusion_lon": 0.0, "name": "b5b69265e0a0dcf9ca45b6a39a9dec6d", "lon": -77.03282766666666, "fusion_lat": 0.0, "is_disabled": 0, "is_reserved": 0, "rental_uris": {"ios": "https://dc.lft.to/lastmile_qr_scan", "android": "https://dc.lft.to/lastmile_qr_scan"}, "bike_id": "b5b69265e0a0dcf9ca45b6a39a9dec6d", "lat": 38.93112516666667}, {"type": "electric_bike", "fusion_lon": 0.0, "name": "98001609f0dbd23047d27ec0fe068f7a", "lon": -76.93177266666666, "fusion_lat": 0.0, "is_disabled": 0, "is_reserved": 0, "rental_uris": {"ios": "https://dc.lft.to/lastmile_qr_scan", "android": "https://dc.lft.to/lastmile_qr_scan"}, "bike_id": "98001609f0dbd23047d27ec0fe068f7a", "lat": 38.90223683333333}, {"type": "electric_scooter", "fusion_lon": 0.0, "name": "90387623777f2acd0321eb2343f1f0ce", "lon": -77.04192183333333, "fusion_lat": 0.0, "is_disabled": 0, "is_reserved": 0, "rental_uris": {"ios": "https://dc.lft.to/lastmile_qr_scan", "android": "https://dc.lft.to/lastmile_qr_scan"}, "bike_id": "90387623777f2acd0321eb2343f1f0ce", "lat": 38.90530716666667}, {"type": "electric_scooter", "fusion_lon": 0.0, "name": "e100f16e0e448cd9fc14a503f6c8a9af", "lon": -77.06049166666666, "fusion_lat": 0.0, "is_disabled": 0, "is_reserved": 0, "rental_uris": {"ios": "https://dc.lft.to/lastmile_qr_scan", "android": "https://dc.lft.to/lastmile_qr_scan"}, "bike_id": "e100f16e0e448cd9fc14a503f6c8a9af", "lat": 38.905162}, {"type": "electric_scooter", "fusion_lon": 0.0, "name": "7d0e3e43dbef01a4449e0c7676480af8", "lon": -77.04653283333333, "fusion_lat": 0.0, "is_disabled": 0, "is_reserved": 0, "rental_uris": {"ios": "https://dc.lft.to/lastmile_qr_scan", "android": "https://dc.lft.to/lastmile_qr_scan"}, "bike_id": "7d0e3e43dbef01a4449e0c7676480af8", "lat": 38.892503}, {"type": "electric_bike", "fusion_lon": 0.0, "name": "3f4761639d9e5151d3e25569d39b885b", "lon": -76.997244, "fusion_lat": 0.0, "is_disabled": 0, "is_reserved": 0, "rental_uris": {"ios": "https://dc.lft.to/lastmile_qr_scan", "android": "https://dc.lft.to/lastmile_qr_scan"}, "bike_id": "3f4761639d9e5151d3e25569d39b885b", "lat": 38.909227}, {"type": "electric_bike", "fusion_lon": 0.0, "name": "81145c75255e8e9942bff8dfaeac5c39", "lon": -77.09581116666666, "fusion_lat": 0.0, "is_disabled": 0, "is_reserved": 0, "rental_uris": {"ios": "https://dc.lft.to/lastmile_qr_scan", "android": "https://dc.lft.to/lastmile_qr_scan"}, "bike_id": "81145c75255e8e9942bff8dfaeac5c39", "lat": 38.974511}, {"type": "electric_scooter", "fusion_lon": 0.0, "name": "06306b6747288454c0e36edb8686b5bd", "lon": -77.043355, "fusion_lat": 0.0, "is_disabled": 0, "is_reserved": 0, "rental_uris": {"ios": "https://dc.lft.to/lastmile_qr_scan", "android": "https://dc.lft.to/lastmile_qr_scan"}, "bike_id": "06306b6747288454c0e36edb8686b5bd", "lat": 38.89653716666667}, {"type": "electric_scooter", "fusion_lon": 0.0, "name": "eab39c1e38e658045630ad2745207dd5", "lon": -77.06016733333334, "fusion_lat": 0.0, "is_disabled": 0, "is_reserved": 0, "rental_uris": {"ios": "https://dc.lft.to/lastmile_qr_scan", "android": "https://dc.lft.to/lastmile_qr_scan"}, "bike_id": "eab39c1e38e658045630ad2745207dd5", "lat": 38.926686333333336}, {"type": "electric_scooter", "fusion_lon": 0.0, "name": "7a94fec8c1c60dd442ae793f922b2bcf", "lon": -77.03645283333333, "fusion_lat": 0.0, "is_disabled": 0, "is_reserved": 0, "rental_uris": {"ios": "https://dc.lft.to/lastmile_qr_scan", "android": "https://dc.lft.to/lastmile_qr_scan"}, "bike_id": "7a94fec8c1c60dd442ae793f922b2bcf", "lat": 38.91759666666667}, {"type": "electric_scooter", "fusion_lon": 0.0, "name": "a5c9fa99782e73976192e0aea809b096", "lon": -77.02941616666666, "fusion_lat": 0.0, "is_disabled": 0, "is_reserved": 0, "rental_uris": {"ios": "https://dc.lft.to/lastmile_qr_scan", "android": "https://dc.lft.to/lastmile_qr_scan"}, "bike_id": "a5c9fa99782e73976192e0aea809b096", "lat": 38.91768533333333}, {"type": "electric_scooter", "fusion_lon": 0.0, "name": "1160780084aa443a7098473058fb7505", "lon": -77.03985083333333, "fusion_lat": 0.0, "is_disabled": 0, "is_reserved": 0, "rental_uris": {"ios": "https://dc.lft.to/lastmile_qr_scan", "android": "https://dc.lft.to/lastmile_qr_scan"}, "bike_id": "1160780084aa443a7098473058fb7505", "lat": 38.90555966666667}, {"type": "electric_scooter", "fusion_lon": 0.0, "name": "ecdf515b21d2ac29264997edbd25d05d", "lon": -77.03783766666666, "fusion_lat": 0.0, "is_disabled": 0, "is_reserved": 0, "rental_uris": {"ios": "https://dc.lft.to/lastmile_qr_scan", "android": "https://dc.lft.to/lastmile_qr_scan"}, "bike_id": "ecdf515b21d2ac29264997edbd25d05d", "lat": 38.9169375}, {"type": "electric_scooter", "fusion_lon": 0.0, "name": "9a04a0fa5846160b1e79b6116c14f265", "lon": -77.07466933333333, "fusion_lat": 0.0, "is_disabled": 0, "is_reserved": 0, "rental_uris": {"ios": "https://dc.lft.to/lastmile_qr_scan", "android": "https://dc.lft.to/lastmile_qr_scan"}, "bike_id": "9a04a0fa5846160b1e79b6116c14f265", "lat": 38.935597666666666}, {"type": "electric_scooter", "fusion_lon": 0.0, "name": "fd4c4acff863e2d42042ddbde6bc1f3c", "lon": -77.03401483333333, "fusion_lat": 0.0, "is_disabled": 0, "is_reserved": 0, "rental_uris": {"ios": "https://dc.lft.to/lastmile_qr_scan", "android": "https://dc.lft.to/lastmile_qr_scan"}, "bike_id": "fd4c4acff863e2d42042ddbde6bc1f3c", "lat": 38.92309616666667}, {"type": "electric_bike", "fusion_lon": 0.0, "name": "8fce3caae05694f0d3ac6772c570cbe9", "lon": -76.9321055, "fusion_lat": 0.0, "is_disabled": 0, "is_reserved": 0, "rental_uris": {"ios": "https://dc.lft.to/lastmile_qr_scan", "android": "https://dc.lft.to/lastmile_qr_scan"}, "bike_id": "8fce3caae05694f0d3ac6772c570cbe9", "lat": 38.896707666666664}, {"type": "electric_scooter", "fusion_lon": 0.0, "name": "4b05ae19c097a73c710f78ea0cd694e5", "lon": -77.048779, "fusion_lat": 0.0, "is_disabled": 0, "is_reserved": 0, "rental_uris": {"ios": "https://dc.lft.to/lastmile_qr_scan", "android": "https://dc.lft.to/lastmile_qr_scan"}, "bike_id": "4b05ae19c097a73c710f78ea0cd694e5", "lat": 38.906485}, {"type": "electric_scooter", "fusion_lon": 0.0, "name": "4c6efa6bf43f8ef680827d82c01e1c85", "lon": -77.058844, "fusion_lat": 0.0, "is_disabled": 0, "is_reserved": 0, "rental_uris": {"ios": "https://dc.lft.to/lastmile_qr_scan", "android": "https://dc.lft.to/lastmile_qr_scan"}, "bike_id": "4c6efa6bf43f8ef680827d82c01e1c85", "lat": 38.9358795}, {"type": "electric_scooter", "fusion_lon": 0.0, "name": "80dd23057495ac0a6ae54847bf201ca8", "lon": -77.04144083333334, "fusion_lat": 0.0, "is_disabled": 0, "is_reserved": 0, "rental_uris": {"ios": "https://dc.lft.to/lastmile_qr_scan", "android": "https://dc.lft.to/lastmile_qr_scan"}, "bike_id": "80dd23057495ac0a6ae54847bf201ca8", "lat": 38.90486933333333}, {"type": "electric_scooter", "fusion_lon": 0.0, "name": "b473347cbd7c3971fda26194dad3dfbe", "lon": -77.0264, "fusion_lat": 0.0, "is_disabled": 0, "is_reserved": 0, "rental_uris": {"ios": "https://dc.lft.to/lastmile_qr_scan", "android": "https://dc.lft.to/lastmile_qr_scan"}, "bike_id": "b473347cbd7c3971fda26194dad3dfbe", "lat": 38.897155833333336}, {"type": "electric_scooter", "fusion_lon": 0.0, "name": "d782d5522ae08fbbb7be5224ffa93211", "lon": -76.99623533333333, "fusion_lat": 0.0, "is_disabled": 0, "is_reserved": 0, "rental_uris": {"ios": "https://dc.lft.to/lastmile_qr_scan", "android": "https://dc.lft.to/lastmile_qr_scan"}, "bike_id": "d782d5522ae08fbbb7be5224ffa93211", "lat": 38.88140766666667}, {"type": "electric_scooter", "fusion_lon": 0.0, "name": "9332812371545a9307f8d8fddaa72571", "lon": -77.03247183333333, "fusion_lat": 0.0, "is_disabled": 0, "is_reserved": 0, "rental_uris": {"ios": "https://dc.lft.to/lastmile_qr_scan", "android": "https://dc.lft.to/lastmile_qr_scan"}, "bike_id": "9332812371545a9307f8d8fddaa72571", "lat": 38.908809833333336}, {"type": "electric_scooter", "fusion_lon": 0.0, "name": "45558d9dbe2b21948b23306e9979ce76", "lon": -77.0273925, "fusion_lat": 0.0, "is_disabled": 0, "is_reserved": 0, "rental_uris": {"ios": "https://dc.lft.to/lastmile_qr_scan", "android": "https://dc.lft.to/lastmile_qr_scan"}, "bike_id": "45558d9dbe2b21948b23306e9979ce76", "lat": 38.898315833333335}, {"type": "electric_scooter", "fusion_lon": 0.0, "name": "d8d0981b0ef1a827fd2a3190730d8fcb", "lon": -77.01994183333333, "fusion_lat": 0.0, "is_disabled": 0, "is_reserved": 0, "rental_uris": {"ios": "https://dc.lft.to/lastmile_qr_scan", "android": "https://dc.lft.to/lastmile_qr_scan"}, "bike_id": "d8d0981b0ef1a827fd2a3190730d8fcb", "lat": 38.9191085}, {"type": "electric_scooter", "fusion_lon": 0.0, "name": "0889604945ae98999d1dab399a49e08c", "lon": -76.9983985, "fusion_lat": 0.0, "is_disabled": 0, "is_reserved": 0, "rental_uris": {"ios": "https://dc.lft.to/lastmile_qr_scan", "android": "https://dc.lft.to/lastmile_qr_scan"}, "bike_id": "0889604945ae98999d1dab399a49e08c", "lat": 38.892166833333334}, {"type": "electric_scooter", "fusion_lon": 0.0, "name": "d4017521b5dcfda881d7f6fdcf30f6d3", "lon": -76.99982766666666, "fusion_lat": 0.0, "is_disabled": 0, "is_reserved": 0, "rental_uris": {"ios": "https://dc.lft.to/lastmile_qr_scan", "android": "https://dc.lft.to/lastmile_qr_scan"}, "bike_id": "d4017521b5dcfda881d7f6fdcf30f6d3", "lat": 38.90742016666667}, {"type": "electric_scooter", "fusion_lon": 0.0, "name": "12796bf355520facd04386fee5525511", "lon": -77.00597116666667, "fusion_lat": 0.0, "is_disabled": 0, "is_reserved": 0, "rental_uris": {"ios": "https://dc.lft.to/lastmile_qr_scan", "android": "https://dc.lft.to/lastmile_qr_scan"}, "bike_id": "12796bf355520facd04386fee5525511", "lat": 38.90698616666667}, {"type": "electric_scooter", "fusion_lon": 0.0, "name": "1facf4e396ab6b66e926eeebabc2fa4c", "lon": -77.04981583333333, "fusion_lat": 0.0, "is_disabled": 0, "is_reserved": 0, "rental_uris": {"ios": "https://dc.lft.to/lastmile_qr_scan", "android": "https://dc.lft.to/lastmile_qr_scan"}, "bike_id": "1facf4e396ab6b66e926eeebabc2fa4c", "lat": 38.9080105}, {"type": "electric_scooter", "fusion_lon": 0.0, "name": "777272c1ccd41e733e3960b40861dbfb", "lon": -77.00365016666667, "fusion_lat": 0.0, "is_disabled": 0, "is_reserved": 0, "rental_uris": {"ios": "https://dc.lft.to/lastmile_qr_scan", "android": "https://dc.lft.to/lastmile_qr_scan"}, "bike_id": "777272c1ccd41e733e3960b40861dbfb", "lat": 38.892830833333335}, {"type": "electric_scooter", "fusion_lon": 0.0, "name": "219162459aeee6619b8d0985da9a8038", "lon": -77.01515816666667, "fusion_lat": 0.0, "is_disabled": 0, "is_reserved": 0, "rental_uris": {"ios": "https://dc.lft.to/lastmile_qr_scan", "android": "https://dc.lft.to/lastmile_qr_scan"}, "bike_id": "219162459aeee6619b8d0985da9a8038", "lat": 38.9268165}, {"type": "electric_scooter", "fusion_lon": 0.0, "name": "d2947ae979ecf2fa1c368d32884e6486", "lon": -77.00631916666667, "fusion_lat": 0.0, "is_disabled": 0, "is_reserved": 0, "rental_uris": {"ios": "https://dc.lft.to/lastmile_qr_scan", "android": "https://dc.lft.to/lastmile_qr_scan"}, "bike_id": "d2947ae979ecf2fa1c368d32884e6486", "lat": 38.87173333333333}, {"type": "electric_scooter", "fusion_lon": 0.0, "name": "c4024bcd3263d4307e35f24eec07c30a", "lon": -77.029619, "fusion_lat": 0.0, "is_disabled": 0, "is_reserved": 0, "rental_uris": {"ios": "https://dc.lft.to/lastmile_qr_scan", "android": "https://dc.lft.to/lastmile_qr_scan"}, "bike_id": "c4024bcd3263d4307e35f24eec07c30a", "lat": 38.91688083333333}, {"type": "electric_scooter", "fusion_lon": 0.0, "name": "43186fc6db0d787425274f482086113e", "lon": -77.024383, "fusion_lat": 0.0, "is_disabled": 0, "is_reserved": 0, "rental_uris": {"ios": "https://dc.lft.to/lastmile_qr_scan", "android": "https://dc.lft.to/lastmile_qr_scan"}, "bike_id": "43186fc6db0d787425274f482086113e", "lat": 38.9564}, {"type": "electric_scooter", "fusion_lon": 0.0, "name": "c2f3c668f25dcfadd25e63eebcb7f60d", "lon": -77.04681133333334, "fusion_lat": 0.0, "is_disabled": 0, "is_reserved": 0, "rental_uris": {"ios": "https://dc.lft.to/lastmile_qr_scan", "android": "https://dc.lft.to/lastmile_qr_scan"}, "bike_id": "c2f3c668f25dcfadd25e63eebcb7f60d", "lat": 38.91667183333333}, {"type": "electric_scooter", "fusion_lon": 0.0, "name": "911b9373adaee421b2f143959cc38adb", "lon": -76.99501716666667, "fusion_lat": 0.0, "is_disabled": 0, "is_reserved": 0, "rental_uris": {"ios": "https://dc.lft.to/lastmile_qr_scan", "android": "https://dc.lft.to/lastmile_qr_scan"}, "bike_id": "911b9373adaee421b2f143959cc38adb", "lat": 38.89516233333333}, {"type": "electric_scooter", "fusion_lon": 0.0, "name": "9d273ddf6cbb9669e127f9c5f6c63a3c", "lon": -77.03948066666666, "fusion_lat": 0.0, "is_disabled": 0, "is_reserved": 0, "rental_uris": {"ios": "https://dc.lft.to/lastmile_qr_scan", "android": "https://dc.lft.to/lastmile_qr_scan"}, "bike_id": "9d273ddf6cbb9669e127f9c5f6c63a3c", "lat": 38.899080833333336}, {"type": "electric_scooter", "fusion_lon": 0.0, "name": "9dcb3c1f66ab117346bf635a7b42a3d8", "lon": -76.99863833333333, "fusion_lat": 0.0, "is_disabled": 0, "is_reserved": 0, "rental_uris": {"ios": "https://dc.lft.to/lastmile_qr_scan", "android": "https://dc.lft.to/lastmile_qr_scan"}, "bike_id": "9dcb3c1f66ab117346bf635a7b42a3d8", "lat": 38.90029533333333}, {"type": "electric_scooter", "fusion_lon": 0.0, "name": "e1dbef9e6e4be1399ef27d44bb3c91eb", "lon": -76.98527716666666, "fusion_lat": 0.0, "is_disabled": 0, "is_reserved": 0, "rental_uris": {"ios": "https://dc.lft.to/lastmile_qr_scan", "android": "https://dc.lft.to/lastmile_qr_scan"}, "bike_id": "e1dbef9e6e4be1399ef27d44bb3c91eb", "lat": 38.909762}, {"type": "electric_scooter", "fusion_lon": 0.0, "name": "a8114a92658097dea14d8ea1e5847c14", "lon": -77.025705, "fusion_lat": 0.0, "is_disabled": 0, "is_reserved": 0, "rental_uris": {"ios": "https://dc.lft.to/lastmile_qr_scan", "android": "https://dc.lft.to/lastmile_qr_scan"}, "bike_id": "a8114a92658097dea14d8ea1e5847c14", "lat": 38.955761333333335}, {"type": "electric_scooter", "fusion_lon": 0.0, "name": "81358a403d69bfb094c0dca5ab2312f3", "lon": -77.04878716666667, "fusion_lat": 0.0, "is_disabled": 0, "is_reserved": 0, "rental_uris": {"ios": "https://dc.lft.to/lastmile_qr_scan", "android": "https://dc.lft.to/lastmile_qr_scan"}, "bike_id": "81358a403d69bfb094c0dca5ab2312f3", "lat": 38.89911716666667}, {"type": "electric_scooter", "fusion_lon": 0.0, "name": "4e2140ba9c4388863b8e01f0d1d3a1ca", "lon": -77.0330745, "fusion_lat": 0.0, "is_disabled": 0, "is_reserved": 0, "rental_uris": {"ios": "https://dc.lft.to/lastmile_qr_scan", "android": "https://dc.lft.to/lastmile_qr_scan"}, "bike_id": "4e2140ba9c4388863b8e01f0d1d3a1ca", "lat": 38.9157}, {"type": "electric_scooter", "fusion_lon": 0.0, "name": "95d6cd646c94d97d753a8a88838454f4", "lon": -77.034319, "fusion_lat": 0.0, "is_disabled": 0, "is_reserved": 0, "rental_uris": {"ios": "https://dc.lft.to/lastmile_qr_scan", "android": "https://dc.lft.to/lastmile_qr_scan"}, "bike_id": "95d6cd646c94d97d753a8a88838454f4", "lat": 38.919239833333336}, {"type": "electric_scooter", "fusion_lon": 0.0, "name": "0c751953c6c9e7bef93eca1da880d380", "lon": -77.02693683333334, "fusion_lat": 0.0, "is_disabled": 0, "is_reserved": 0, "rental_uris": {"ios": "https://dc.lft.to/lastmile_qr_scan", "android": "https://dc.lft.to/lastmile_qr_scan"}, "bike_id": "0c751953c6c9e7bef93eca1da880d380", "lat": 38.913291}, {"type": "electric_scooter", "fusion_lon": 0.0, "name": "b86ce291c79ac670fc4116d12f8df6d9", "lon": -77.00076016666667, "fusion_lat": 0.0, "is_disabled": 0, "is_reserved": 0, "rental_uris": {"ios": "https://dc.lft.to/lastmile_qr_scan", "android": "https://dc.lft.to/lastmile_qr_scan"}, "bike_id": "b86ce291c79ac670fc4116d12f8df6d9", "lat": 38.915665}, {"type": "electric_bike", "fusion_lon": 0.0, "name": "2e4eb265b989c54d47ef9ba181ff4069", "lon": -76.95255583333334, "fusion_lat": 0.0, "is_disabled": 0, "is_reserved": 0, "rental_uris": {"ios": "https://dc.lft.to/lastmile_qr_scan", "android": "https://dc.lft.to/lastmile_qr_scan"}, "bike_id": "2e4eb265b989c54d47ef9ba181ff4069", "lat": 38.90696283333333}, {"type": "electric_bike", "fusion_lon": 0.0, "name": "f79758f714586ec6682d146435775774", "lon": -76.97708216666666, "fusion_lat": 0.0, "is_disabled": 0, "is_reserved": 0, "rental_uris": {"ios": "https://dc.lft.to/lastmile_qr_scan", "android": "https://dc.lft.to/lastmile_qr_scan"}, "bike_id": "f79758f714586ec6682d146435775774", "lat": 38.822124}, {"type": "electric_scooter", "fusion_lon": 0.0, "name": "9a547ea226a94dd542908a78d4ef47e9", "lon": -77.04340933333333, "fusion_lat": 0.0, "is_disabled": 0, "is_reserved": 0, "rental_uris": {"ios": "https://dc.lft.to/lastmile_qr_scan", "android": "https://dc.lft.to/lastmile_qr_scan"}, "bike_id": "9a547ea226a94dd542908a78d4ef47e9", "lat": 38.8922725}, {"type": "electric_bike", "fusion_lon": 0.0, "name": "210697915fefc13f9c5bb7ed8cadd32b", "lon": -77.01018133333334, "fusion_lat": 0.0, "is_disabled": 0, "is_reserved": 0, "rental_uris": {"ios": "https://dc.lft.to/lastmile_qr_scan", "android": "https://dc.lft.to/lastmile_qr_scan"}, "bike_id": "210697915fefc13f9c5bb7ed8cadd32b", "lat": 38.95597183333334}, {"type": "electric_scooter", "fusion_lon": 0.0, "name": "70109d9ba2eb276f79a8f2540e4f56f4", "lon": -77.02678683333333, "fusion_lat": 0.0, "is_disabled": 0, "is_reserved": 0, "rental_uris": {"ios": "https://dc.lft.to/lastmile_qr_scan", "android": "https://dc.lft.to/lastmile_qr_scan"}, "bike_id": "70109d9ba2eb276f79a8f2540e4f56f4", "lat": 38.894932}, {"type": "electric_scooter", "fusion_lon": 0.0, "name": "0c5e4143589bc14dde5ec87a2386e7f8", "lon": -77.04247683333334, "fusion_lat": 0.0, "is_disabled": 0, "is_reserved": 0, "rental_uris": {"ios": "https://dc.lft.to/lastmile_qr_scan", "android": "https://dc.lft.to/lastmile_qr_scan"}, "bike_id": "0c5e4143589bc14dde5ec87a2386e7f8", "lat": 38.922413166666665}, {"type": "electric_scooter", "fusion_lon": 0.0, "name": "2109907a9ee3f9174f1ec9390df472d5", "lon": -76.979765, "fusion_lat": 0.0, "is_disabled": 0, "is_reserved": 0, "rental_uris": {"ios": "https://dc.lft.to/lastmile_qr_scan", "android": "https://dc.lft.to/lastmile_qr_scan"}, "bike_id": "2109907a9ee3f9174f1ec9390df472d5", "lat": 38.87072916666666}, {"type": "electric_scooter", "fusion_lon": 0.0, "name": "477aea55093ca20e7ee8acd49b79d264", "lon": -77.06311466666666, "fusion_lat": 0.0, "is_disabled": 0, "is_reserved": 0, "rental_uris": {"ios": "https://dc.lft.to/lastmile_qr_scan", "android": "https://dc.lft.to/lastmile_qr_scan"}, "bike_id": "477aea55093ca20e7ee8acd49b79d264", "lat": 38.906910333333336}, {"type": "electric_scooter", "fusion_lon": 0.0, "name": "24708e6dde2d102c082f1f0e13e9d975", "lon": -77.0386535, "fusion_lat": 0.0, "is_disabled": 0, "is_reserved": 0, "rental_uris": {"ios": "https://dc.lft.to/lastmile_qr_scan", "android": "https://dc.lft.to/lastmile_qr_scan"}, "bike_id": "24708e6dde2d102c082f1f0e13e9d975", "lat": 38.9125845}, {"type": "electric_scooter", "fusion_lon": 0.0, "name": "fb60de613c76ca49e70ddcfe4c7f966b", "lon": -77.04496566666667, "fusion_lat": 0.0, "is_disabled": 0, "is_reserved": 0, "rental_uris": {"ios": "https://dc.lft.to/lastmile_qr_scan", "android": "https://dc.lft.to/lastmile_qr_scan"}, "bike_id": "fb60de613c76ca49e70ddcfe4c7f966b", "lat": 38.909618333333334}, {"type": "electric_scooter", "fusion_lon": 0.0, "name": "8db9923ba38022909f12e1d3d525de53", "lon": -76.92721233333333, "fusion_lat": 0.0, "is_disabled": 0, "is_reserved": 0, "rental_uris": {"ios": "https://dc.lft.to/lastmile_qr_scan", "android": "https://dc.lft.to/lastmile_qr_scan"}, "bike_id": "8db9923ba38022909f12e1d3d525de53", "lat": 38.88043833333333}, {"type": "electric_scooter", "fusion_lon": 0.0, "name": "0cd69638d3a3e21fd9f372e5c7c86473", "lon": -77.01242266666667, "fusion_lat": 0.0, "is_disabled": 0, "is_reserved": 0, "rental_uris": {"ios": "https://dc.lft.to/lastmile_qr_scan", "android": "https://dc.lft.to/lastmile_qr_scan"}, "bike_id": "0cd69638d3a3e21fd9f372e5c7c86473", "lat": 38.898559166666665}, {"type": "electric_scooter", "fusion_lon": 0.0, "name": "6b66feb1b64836358200ad9720ec6d70", "lon": -77.036599, "fusion_lat": 0.0, "is_disabled": 0, "is_reserved": 0, "rental_uris": {"ios": "https://dc.lft.to/lastmile_qr_scan", "android": "https://dc.lft.to/lastmile_qr_scan"}, "bike_id": "6b66feb1b64836358200ad9720ec6d70", "lat": 38.91835916666667}, {"type": "electric_bike", "fusion_lon": 0.0, "name": "6875ec07becf36fa0fc94f2083602789", "lon": -77.23411166666666, "fusion_lat": 0.0, "is_disabled": 0, "is_reserved": 0, "rental_uris": {"ios": "https://dc.lft.to/lastmile_qr_scan", "android": "https://dc.lft.to/lastmile_qr_scan"}, "bike_id": "6875ec07becf36fa0fc94f2083602789", "lat": 38.87581266666667}, {"type": "electric_scooter", "fusion_lon": 0.0, "name": "cfebb441a0001e7318fc283a2c46da3b", "lon": -77.01097566666667, "fusion_lat": 0.0, "is_disabled": 0, "is_reserved": 0, "rental_uris": {"ios": "https://dc.lft.to/lastmile_qr_scan", "android": "https://dc.lft.to/lastmile_qr_scan"}, "bike_id": "cfebb441a0001e7318fc283a2c46da3b", "lat": 38.89552883333333}, {"type": "electric_scooter", "fusion_lon": 0.0, "name": "01f20251f9012c72f85c67a6603aec1d", "lon": -77.02714933333333, "fusion_lat": 0.0, "is_disabled": 0, "is_reserved": 0, "rental_uris": {"ios": "https://dc.lft.to/lastmile_qr_scan", "android": "https://dc.lft.to/lastmile_qr_scan"}, "bike_id": "01f20251f9012c72f85c67a6603aec1d", "lat": 38.972368}, {"type": "electric_scooter", "fusion_lon": 0.0, "name": "4f8d3a98a1ef642ba8c2fc529109f630", "lon": -77.031749, "fusion_lat": 0.0, "is_disabled": 0, "is_reserved": 0, "rental_uris": {"ios": "https://dc.lft.to/lastmile_qr_scan", "android": "https://dc.lft.to/lastmile_qr_scan"}, "bike_id": "4f8d3a98a1ef642ba8c2fc529109f630", "lat": 38.9142105}, {"type": "electric_bike", "fusion_lon": 0.0, "name": "0b651b9c26001f4b10de6e5565ea0389", "lon": -77.019593, "fusion_lat": 0.0, "is_disabled": 0, "is_reserved": 0, "rental_uris": {"ios": "https://dc.lft.to/lastmile_qr_scan", "android": "https://dc.lft.to/lastmile_qr_scan"}, "bike_id": "0b651b9c26001f4b10de6e5565ea0389", "lat": 38.8788725}, {"type": "electric_scooter", "fusion_lon": 0.0, "name": "a3af027789c52d07eabe691a9f4de6d5", "lon": -77.01553916666667, "fusion_lat": 0.0, "is_disabled": 0, "is_reserved": 0, "rental_uris": {"ios": "https://dc.lft.to/lastmile_qr_scan", "android": "https://dc.lft.to/lastmile_qr_scan"}, "bike_id": "a3af027789c52d07eabe691a9f4de6d5", "lat": 38.8917485}, {"type": "electric_scooter", "fusion_lon": 0.0, "name": "469b049ad1f9515e1675361c26ad41b4", "lon": -77.02701966666666, "fusion_lat": 0.0, "is_disabled": 0, "is_reserved": 0, "rental_uris": {"ios": "https://dc.lft.to/lastmile_qr_scan", "android": "https://dc.lft.to/lastmile_qr_scan"}, "bike_id": "469b049ad1f9515e1675361c26ad41b4", "lat": 38.881376333333336}, {"type": "electric_scooter", "fusion_lon": 0.0, "name": "89a1eca7ff9e4da01e842af94a95998c", "lon": -76.98375783333333, "fusion_lat": 0.0, "is_disabled": 0, "is_reserved": 0, "rental_uris": {"ios": "https://dc.lft.to/lastmile_qr_scan", "android": "https://dc.lft.to/lastmile_qr_scan"}, "bike_id": "89a1eca7ff9e4da01e842af94a95998c", "lat": 38.89538433333333}, {"type": "electric_scooter", "fusion_lon": 0.0, "name": "4bf73140bb2c4291a7d6d551a6bac3ea", "lon": -76.98268583333333, "fusion_lat": 0.0, "is_disabled": 0, "is_reserved": 0, "rental_uris": {"ios": "https://dc.lft.to/lastmile_qr_scan", "android": "https://dc.lft.to/lastmile_qr_scan"}, "bike_id": "4bf73140bb2c4291a7d6d551a6bac3ea", "lat": 38.903517666666666}, {"type": "electric_scooter", "fusion_lon": 0.0, "name": "6594a47bfb0012886a9946b96aecd9a8", "lon": -77.01368216666667, "fusion_lat": 0.0, "is_disabled": 0, "is_reserved": 0, "rental_uris": {"ios": "https://dc.lft.to/lastmile_qr_scan", "android": "https://dc.lft.to/lastmile_qr_scan"}, "bike_id": "6594a47bfb0012886a9946b96aecd9a8", "lat": 38.887066833333336}, {"type": "electric_bike", "fusion_lon": 0.0, "name": "ca9b99ad72417a487a028022a927005e", "lon": -77.063861, "fusion_lat": 0.0, "is_disabled": 0, "is_reserved": 0, "rental_uris": {"ios": "https://dc.lft.to/lastmile_qr_scan", "android": "https://dc.lft.to/lastmile_qr_scan"}, "bike_id": "ca9b99ad72417a487a028022a927005e", "lat": 38.8429135}, {"type": "electric_bike", "fusion_lon": 0.0, "name": "470e3a564fc0fa8efe7457c92358a253", "lon": -77.0232325, "fusion_lat": 0.0, "is_disabled": 0, "is_reserved": 0, "rental_uris": {"ios": "https://dc.lft.to/lastmile_qr_scan", "android": "https://dc.lft.to/lastmile_qr_scan"}, "bike_id": "470e3a564fc0fa8efe7457c92358a253", "lat": 38.994097}, {"type": "electric_scooter", "fusion_lon": 0.0, "name": "d6c774cf4feaf04c90ff302b08342a36", "lon": -77.03646066666667, "fusion_lat": 0.0, "is_disabled": 0, "is_reserved": 0, "rental_uris": {"ios": "https://dc.lft.to/lastmile_qr_scan", "android": "https://dc.lft.to/lastmile_qr_scan"}, "bike_id": "d6c774cf4feaf04c90ff302b08342a36", "lat": 38.902843}, {"type": "electric_scooter", "fusion_lon": 0.0, "name": "11e9e3858f59cea819927e693a8efce4", "lon": -77.015605, "fusion_lat": 0.0, "is_disabled": 0, "is_reserved": 0, "rental_uris": {"ios": "https://dc.lft.to/lastmile_qr_scan", "android": "https://dc.lft.to/lastmile_qr_scan"}, "bike_id": "11e9e3858f59cea819927e693a8efce4", "lat": 38.891801666666666}, {"type": "electric_scooter", "fusion_lon": 0.0, "name": "5abf2de39b016770549e62f52b30e4fd", "lon": -77.03738083333333, "fusion_lat": 0.0, "is_disabled": 0, "is_reserved": 0, "rental_uris": {"ios": "https://dc.lft.to/lastmile_qr_scan", "android": "https://dc.lft.to/lastmile_qr_scan"}, "bike_id": "5abf2de39b016770549e62f52b30e4fd", "lat": 38.9035815}, {"type": "electric_scooter", "fusion_lon": 0.0, "name": "24de4dc859ae782a5f7cdb6423d59e6c", "lon": -77.01564066666667, "fusion_lat": 0.0, "is_disabled": 0, "is_reserved": 0, "rental_uris": {"ios": "https://dc.lft.to/lastmile_qr_scan", "android": "https://dc.lft.to/lastmile_qr_scan"}, "bike_id": "24de4dc859ae782a5f7cdb6423d59e6c", "lat": 38.89178716666667}, {"type": "electric_scooter", "fusion_lon": 0.0, "name": "7b5715193355bb8cfb4f1b97e09dcb3d", "lon": -77.03975666666666, "fusion_lat": 0.0, "is_disabled": 0, "is_reserved": 0, "rental_uris": {"ios": "https://dc.lft.to/lastmile_qr_scan", "android": "https://dc.lft.to/lastmile_qr_scan"}, "bike_id": "7b5715193355bb8cfb4f1b97e09dcb3d", "lat": 38.90841566666667}, {"type": "electric_scooter", "fusion_lon": 0.0, "name": "6503299213fb1a8f1a44cae326a2e894", "lon": -76.99040666666667, "fusion_lat": 0.0, "is_disabled": 0, "is_reserved": 0, "rental_uris": {"ios": "https://dc.lft.to/lastmile_qr_scan", "android": "https://dc.lft.to/lastmile_qr_scan"}, "bike_id": "6503299213fb1a8f1a44cae326a2e894", "lat": 38.897442166666664}, {"type": "electric_scooter", "fusion_lon": 0.0, "name": "2aaabf60c4c9b92505580eb30d3b29bc", "lon": -77.04174266666666, "fusion_lat": 0.0, "is_disabled": 0, "is_reserved": 0, "rental_uris": {"ios": "https://dc.lft.to/lastmile_qr_scan", "android": "https://dc.lft.to/lastmile_qr_scan"}, "bike_id": "2aaabf60c4c9b92505580eb30d3b29bc", "lat": 38.910025833333336}, {"type": "electric_scooter", "fusion_lon": 0.0, "name": "5599fa348c1944aa85d2037ad6ef016b", "lon": -77.04334883333334, "fusion_lat": 0.0, "is_disabled": 0, "is_reserved": 0, "rental_uris": {"ios": "https://dc.lft.to/lastmile_qr_scan", "android": "https://dc.lft.to/lastmile_qr_scan"}, "bike_id": "5599fa348c1944aa85d2037ad6ef016b", "lat": 38.9089355}, {"type": "electric_scooter", "fusion_lon": 0.0, "name": "a63e7280a934e1cec8cba0461b5d4aa3", "lon": -77.03224283333333, "fusion_lat": 0.0, "is_disabled": 0, "is_reserved": 0, "rental_uris": {"ios": "https://dc.lft.to/lastmile_qr_scan", "android": "https://dc.lft.to/lastmile_qr_scan"}, "bike_id": "a63e7280a934e1cec8cba0461b5d4aa3", "lat": 38.91410366666667}, {"type": "electric_scooter", "fusion_lon": 0.0, "name": "87cb92683ea001f02c5ab7f3be4a4a3e", "lon": -77.0499865, "fusion_lat": 0.0, "is_disabled": 0, "is_reserved": 0, "rental_uris": {"ios": "https://dc.lft.to/lastmile_qr_scan", "android": "https://dc.lft.to/lastmile_qr_scan"}, "bike_id": "87cb92683ea001f02c5ab7f3be4a4a3e", "lat": 38.90476116666667}, {"type": "electric_scooter", "fusion_lon": 0.0, "name": "d4d04fae2f412e8b49eccca42e9ef467", "lon": -77.0202475, "fusion_lat": 0.0, "is_disabled": 0, "is_reserved": 0, "rental_uris": {"ios": "https://dc.lft.to/lastmile_qr_scan", "android": "https://dc.lft.to/lastmile_qr_scan"}, "bike_id": "d4d04fae2f412e8b49eccca42e9ef467", "lat": 38.924449333333335}, {"type": "electric_scooter", "fusion_lon": 0.0, "name": "0ccdef3e0a30facb844e5362eb834e07", "lon": -77.0332725, "fusion_lat": 0.0, "is_disabled": 0, "is_reserved": 0, "rental_uris": {"ios": "https://dc.lft.to/lastmile_qr_scan", "android": "https://dc.lft.to/lastmile_qr_scan"}, "bike_id": "0ccdef3e0a30facb844e5362eb834e07", "lat": 38.91569066666667}, {"type": "electric_scooter", "fusion_lon": 0.0, "name": "64fddf36092790d41b9a0b15bfdf7b2f", "lon": -77.04002266666667, "fusion_lat": 0.0, "is_disabled": 0, "is_reserved": 0, "rental_uris": {"ios": "https://dc.lft.to/lastmile_qr_scan", "android": "https://dc.lft.to/lastmile_qr_scan"}, "bike_id": "64fddf36092790d41b9a0b15bfdf7b2f", "lat": 38.934329166666664}, {"type": "electric_scooter", "fusion_lon": 0.0, "name": "29aff120c412e1ea9afe5c20938656ae", "lon": -77.050247, "fusion_lat": 0.0, "is_disabled": 0, "is_reserved": 0, "rental_uris": {"ios": "https://dc.lft.to/lastmile_qr_scan", "android": "https://dc.lft.to/lastmile_qr_scan"}, "bike_id": "29aff120c412e1ea9afe5c20938656ae", "lat": 38.896542}, {"type": "electric_scooter", "fusion_lon": 0.0, "name": "654ac0b6803f0344994cec612051ea07", "lon": -77.01988583333333, "fusion_lat": 0.0, "is_disabled": 0, "is_reserved": 0, "rental_uris": {"ios": "https://dc.lft.to/lastmile_qr_scan", "android": "https://dc.lft.to/lastmile_qr_scan"}, "bike_id": "654ac0b6803f0344994cec612051ea07", "lat": 38.900257333333336}, {"type": "electric_scooter", "fusion_lon": 0.0, "name": "ef5d10c535b8e8fd0d3515397c2a49d0", "lon": -77.02397216666667, "fusion_lat": 0.0, "is_disabled": 0, "is_reserved": 0, "rental_uris": {"ios": "https://dc.lft.to/lastmile_qr_scan", "android": "https://dc.lft.to/lastmile_qr_scan"}, "bike_id": "ef5d10c535b8e8fd0d3515397c2a49d0", "lat": 38.93700716666667}, {"type": "electric_scooter", "fusion_lon": 0.0, "name": "d2e5b4731d575670be9a989b34dbaa90", "lon": -77.03786133333334, "fusion_lat": 0.0, "is_disabled": 0, "is_reserved": 0, "rental_uris": {"ios": "https://dc.lft.to/lastmile_qr_scan", "android": "https://dc.lft.to/lastmile_qr_scan"}, "bike_id": "d2e5b4731d575670be9a989b34dbaa90", "lat": 38.9283665}, {"type": "electric_scooter", "fusion_lon": 0.0, "name": "49f5f6b15e3d1b0de570cd1f125b4486", "lon": -77.03164583333333, "fusion_lat": 0.0, "is_disabled": 0, "is_reserved": 0, "rental_uris": {"ios": "https://dc.lft.to/lastmile_qr_scan", "android": "https://dc.lft.to/lastmile_qr_scan"}, "bike_id": "49f5f6b15e3d1b0de570cd1f125b4486", "lat": 38.892257}, {"type": "electric_scooter", "fusion_lon": 0.0, "name": "53d7b3785cb985c5fbb84b226235ba36", "lon": -77.0250525, "fusion_lat": 0.0, "is_disabled": 0, "is_reserved": 0, "rental_uris": {"ios": "https://dc.lft.to/lastmile_qr_scan", "android": "https://dc.lft.to/lastmile_qr_scan"}, "bike_id": "53d7b3785cb985c5fbb84b226235ba36", "lat": 38.91966983333333}, {"type": "electric_scooter", "fusion_lon": 0.0, "name": "7b92ed9eed24e4410158f1d5bc141618", "lon": -77.01636366666666, "fusion_lat": 0.0, "is_disabled": 0, "is_reserved": 0, "rental_uris": {"ios": "https://dc.lft.to/lastmile_qr_scan", "android": "https://dc.lft.to/lastmile_qr_scan"}, "bike_id": "7b92ed9eed24e4410158f1d5bc141618", "lat": 38.899807333333335}, {"type": "electric_scooter", "fusion_lon": 0.0, "name": "f27f99111b252387ca15f37ad9cc47fc", "lon": -77.042892, "fusion_lat": 0.0, "is_disabled": 0, "is_reserved": 0, "rental_uris": {"ios": "https://dc.lft.to/lastmile_qr_scan", "android": "https://dc.lft.to/lastmile_qr_scan"}, "bike_id": "f27f99111b252387ca15f37ad9cc47fc", "lat": 38.911949}, {"type": "electric_scooter", "fusion_lon": 0.0, "name": "416cefd9f083b36d38aaf2af7ae9b74a", "lon": -77.012754, "fusion_lat": 0.0, "is_disabled": 0, "is_reserved": 0, "rental_uris": {"ios": "https://dc.lft.to/lastmile_qr_scan", "android": "https://dc.lft.to/lastmile_qr_scan"}, "bike_id": "416cefd9f083b36d38aaf2af7ae9b74a", "lat": 38.89738633333333}, {"type": "electric_bike", "fusion_lon": 0.0, "name": "2bb35440dd55720d4e2f7e870d86fe16", "lon": -77.02712633333333, "fusion_lat": 0.0, "is_disabled": 0, "is_reserved": 0, "rental_uris": {"ios": "https://dc.lft.to/lastmile_qr_scan", "android": "https://dc.lft.to/lastmile_qr_scan"}, "bike_id": "2bb35440dd55720d4e2f7e870d86fe16", "lat": 38.93115683333333}, {"type": "electric_scooter", "fusion_lon": 0.0, "name": "73a87efa12c1aa3539b1915768779309", "lon": -77.02825316666667, "fusion_lat": 0.0, "is_disabled": 0, "is_reserved": 0, "rental_uris": {"ios": "https://dc.lft.to/lastmile_qr_scan", "android": "https://dc.lft.to/lastmile_qr_scan"}, "bike_id": "73a87efa12c1aa3539b1915768779309", "lat": 38.897079}, {"type": "electric_scooter", "fusion_lon": 0.0, "name": "164074d2d000824de08450f985739f04", "lon": -77.02118766666666, "fusion_lat": 0.0, "is_disabled": 0, "is_reserved": 0, "rental_uris": {"ios": "https://dc.lft.to/lastmile_qr_scan", "android": "https://dc.lft.to/lastmile_qr_scan"}, "bike_id": "164074d2d000824de08450f985739f04", "lat": 38.92243}, {"type": "electric_scooter", "fusion_lon": 0.0, "name": "6c89d8f736800386663474f70f79f66a", "lon": -77.02437033333334, "fusion_lat": 0.0, "is_disabled": 0, "is_reserved": 0, "rental_uris": {"ios": "https://dc.lft.to/lastmile_qr_scan", "android": "https://dc.lft.to/lastmile_qr_scan"}, "bike_id": "6c89d8f736800386663474f70f79f66a", "lat": 38.92272466666667}, {"type": "electric_scooter", "fusion_lon": 0.0, "name": "eef44983b4b270f5411b77d5917d7120", "lon": -77.0225775, "fusion_lat": 0.0, "is_disabled": 0, "is_reserved": 0, "rental_uris": {"ios": "https://dc.lft.to/lastmile_qr_scan", "android": "https://dc.lft.to/lastmile_qr_scan"}, "bike_id": "eef44983b4b270f5411b77d5917d7120", "lat": 38.92554166666667}, {"type": "electric_scooter", "fusion_lon": 0.0, "name": "f2182a6b3d3e4d9b739a5ea018c0b605", "lon": -77.02675433333333, "fusion_lat": 0.0, "is_disabled": 0, "is_reserved": 0, "rental_uris": {"ios": "https://dc.lft.to/lastmile_qr_scan", "android": "https://dc.lft.to/lastmile_qr_scan"}, "bike_id": "f2182a6b3d3e4d9b739a5ea018c0b605", "lat": 38.89490416666666}, {"type": "electric_scooter", "fusion_lon": 0.0, "name": "b31c610b955de47c8c37e70b5995425c", "lon": -77.03170683333333, "fusion_lat": 0.0, "is_disabled": 0, "is_reserved": 0, "rental_uris": {"ios": "https://dc.lft.to/lastmile_qr_scan", "android": "https://dc.lft.to/lastmile_qr_scan"}, "bike_id": "b31c610b955de47c8c37e70b5995425c", "lat": 38.914276}, {"type": "electric_scooter", "fusion_lon": 0.0, "name": "f12d51c33b84ad39492bdf0898e9f649", "lon": -77.03096666666667, "fusion_lat": 0.0, "is_disabled": 0, "is_reserved": 0, "rental_uris": {"ios": "https://dc.lft.to/lastmile_qr_scan", "android": "https://dc.lft.to/lastmile_qr_scan"}, "bike_id": "f12d51c33b84ad39492bdf0898e9f649", "lat": 38.923887}, {"type": "electric_scooter", "fusion_lon": 0.0, "name": "4eb10054f15dcee728dbb949a452ae0d", "lon": -76.93447833333333, "fusion_lat": 0.0, "is_disabled": 0, "is_reserved": 0, "rental_uris": {"ios": "https://dc.lft.to/lastmile_qr_scan", "android": "https://dc.lft.to/lastmile_qr_scan"}, "bike_id": "4eb10054f15dcee728dbb949a452ae0d", "lat": 38.9084735}, {"type": "electric_scooter", "fusion_lon": 0.0, "name": "017d98b6ef5b022c980e7cf465c82d47", "lon": -77.02430316666667, "fusion_lat": 0.0, "is_disabled": 0, "is_reserved": 0, "rental_uris": {"ios": "https://dc.lft.to/lastmile_qr_scan", "android": "https://dc.lft.to/lastmile_qr_scan"}, "bike_id": "017d98b6ef5b022c980e7cf465c82d47", "lat": 38.968003333333336}, {"type": "electric_scooter", "fusion_lon": 0.0, "name": "13374607c5d8a30486c16d6f6955873c", "lon": -77.03321866666667, "fusion_lat": 0.0, "is_disabled": 0, "is_reserved": 0, "rental_uris": {"ios": "https://dc.lft.to/lastmile_qr_scan", "android": "https://dc.lft.to/lastmile_qr_scan"}, "bike_id": "13374607c5d8a30486c16d6f6955873c", "lat": 38.91560883333333}, {"type": "electric_scooter", "fusion_lon": 0.0, "name": "70b839af244544e55027808d79f626f8", "lon": -77.02293366666666, "fusion_lat": 0.0, "is_disabled": 0, "is_reserved": 0, "rental_uris": {"ios": "https://dc.lft.to/lastmile_qr_scan", "android": "https://dc.lft.to/lastmile_qr_scan"}, "bike_id": "70b839af244544e55027808d79f626f8", "lat": 38.91572683333333}, {"type": "electric_scooter", "fusion_lon": 0.0, "name": "6dbae08630a0718cd00243f1231b595d", "lon": -77.038514, "fusion_lat": 0.0, "is_disabled": 0, "is_reserved": 0, "rental_uris": {"ios": "https://dc.lft.to/lastmile_qr_scan", "android": "https://dc.lft.to/lastmile_qr_scan"}, "bike_id": "6dbae08630a0718cd00243f1231b595d", "lat": 38.92651883333333}, {"type": "electric_scooter", "fusion_lon": 0.0, "name": "8a50bddb7e3867a1c19550faa4ceddf4", "lon": -77.029466, "fusion_lat": 0.0, "is_disabled": 0, "is_reserved": 0, "rental_uris": {"ios": "https://dc.lft.to/lastmile_qr_scan", "android": "https://dc.lft.to/lastmile_qr_scan"}, "bike_id": "8a50bddb7e3867a1c19550faa4ceddf4", "lat": 38.917029}, {"type": "electric_scooter", "fusion_lon": 0.0, "name": "5084e6113e64c0fb93e65a04d2737f1d", "lon": -77.0344695, "fusion_lat": 0.0, "is_disabled": 0, "is_reserved": 0, "rental_uris": {"ios": "https://dc.lft.to/lastmile_qr_scan", "android": "https://dc.lft.to/lastmile_qr_scan"}, "bike_id": "5084e6113e64c0fb93e65a04d2737f1d", "lat": 38.902807833333334}, {"type": "electric_bike", "fusion_lon": 0.0, "name": "2c0d06ef44b4373d1b337d4ec40d56e5", "lon": -77.23392516666667, "fusion_lat": 0.0, "is_disabled": 0, "is_reserved": 0, "rental_uris": {"ios": "https://dc.lft.to/lastmile_qr_scan", "android": "https://dc.lft.to/lastmile_qr_scan"}, "bike_id": "2c0d06ef44b4373d1b337d4ec40d56e5", "lat": 38.871796333333336}, {"type": "electric_scooter", "fusion_lon": 0.0, "name": "928f535e8ce48e5953501a40dc520fa3", "lon": -76.97707883333334, "fusion_lat": 0.0, "is_disabled": 0, "is_reserved": 0, "rental_uris": {"ios": "https://dc.lft.to/lastmile_qr_scan", "android": "https://dc.lft.to/lastmile_qr_scan"}, "bike_id": "928f535e8ce48e5953501a40dc520fa3", "lat": 38.886244166666664}, {"type": "electric_scooter", "fusion_lon": 0.0, "name": "700eb72abfe7a9494a1b27222f111bb4", "lon": -77.03274, "fusion_lat": 0.0, "is_disabled": 0, "is_reserved": 0, "rental_uris": {"ios": "https://dc.lft.to/lastmile_qr_scan", "android": "https://dc.lft.to/lastmile_qr_scan"}, "bike_id": "700eb72abfe7a9494a1b27222f111bb4", "lat": 38.898899666666665}, {"type": "electric_scooter", "fusion_lon": 0.0, "name": "e9b385496c06b32d295dc268970a9653", "lon": -77.05598, "fusion_lat": 0.0, "is_disabled": 0, "is_reserved": 0, "rental_uris": {"ios": "https://dc.lft.to/lastmile_qr_scan", "android": "https://dc.lft.to/lastmile_qr_scan"}, "bike_id": "e9b385496c06b32d295dc268970a9653", "lat": 38.93706733333333}, {"type": "electric_scooter", "fusion_lon": 0.0, "name": "6c30020d7a7e1163e4ef28929da1871a", "lon": -76.99162866666667, "fusion_lat": 0.0, "is_disabled": 0, "is_reserved": 0, "rental_uris": {"ios": "https://dc.lft.to/lastmile_qr_scan", "android": "https://dc.lft.to/lastmile_qr_scan"}, "bike_id": "6c30020d7a7e1163e4ef28929da1871a", "lat": 38.95374066666667}, {"type": "electric_bike", "fusion_lon": 0.0, "name": "f10ce84df87ae26c0939bc43489bc2b4", "lon": -76.94252316666666, "fusion_lat": 0.0, "is_disabled": 0, "is_reserved": 0, "rental_uris": {"ios": "https://dc.lft.to/lastmile_qr_scan", "android": "https://dc.lft.to/lastmile_qr_scan"}, "bike_id": "f10ce84df87ae26c0939bc43489bc2b4", "lat": 38.98031683333333}, {"type": "electric_scooter", "fusion_lon": 0.0, "name": "5a7cc9eb1a30c39baa60d5d9c14d6914", "lon": -77.00216083333333, "fusion_lat": 0.0, "is_disabled": 0, "is_reserved": 0, "rental_uris": {"ios": "https://dc.lft.to/lastmile_qr_scan", "android": "https://dc.lft.to/lastmile_qr_scan"}, "bike_id": "5a7cc9eb1a30c39baa60d5d9c14d6914", "lat": 38.90020066666666}, {"type": "electric_scooter", "fusion_lon": 0.0, "name": "c590995fb76156234229147ae92ef266", "lon": -77.022029, "fusion_lat": 0.0, "is_disabled": 0, "is_reserved": 0, "rental_uris": {"ios": "https://dc.lft.to/lastmile_qr_scan", "android": "https://dc.lft.to/lastmile_qr_scan"}, "bike_id": "c590995fb76156234229147ae92ef266", "lat": 38.88621166666667}, {"type": "electric_scooter", "fusion_lon": 0.0, "name": "17fba71a3c9248a5277e72ef088e85b0", "lon": -77.03436883333333, "fusion_lat": 0.0, "is_disabled": 0, "is_reserved": 0, "rental_uris": {"ios": "https://dc.lft.to/lastmile_qr_scan", "android": "https://dc.lft.to/lastmile_qr_scan"}, "bike_id": "17fba71a3c9248a5277e72ef088e85b0", "lat": 38.930999166666666}, {"type": "electric_scooter", "fusion_lon": 0.0, "name": "7c27cc01c7c4df2ca5a6b13742d59d3c", "lon": -77.0506245, "fusion_lat": 0.0, "is_disabled": 0, "is_reserved": 0, "rental_uris": {"ios": "https://dc.lft.to/lastmile_qr_scan", "android": "https://dc.lft.to/lastmile_qr_scan"}, "bike_id": "7c27cc01c7c4df2ca5a6b13742d59d3c", "lat": 38.90163483333333}, {"type": "electric_scooter", "fusion_lon": 0.0, "name": "a5f6ebf5cf02041442dafd16885c1cec", "lon": -77.02977433333334, "fusion_lat": 0.0, "is_disabled": 0, "is_reserved": 0, "rental_uris": {"ios": "https://dc.lft.to/lastmile_qr_scan", "android": "https://dc.lft.to/lastmile_qr_scan"}, "bike_id": "a5f6ebf5cf02041442dafd16885c1cec", "lat": 38.906143166666666}, {"type": "electric_scooter", "fusion_lon": 0.0, "name": "0a7553512c6af5a62575fcf372e8e8fd", "lon": -77.042345, "fusion_lat": 0.0, "is_disabled": 0, "is_reserved": 0, "rental_uris": {"ios": "https://dc.lft.to/lastmile_qr_scan", "android": "https://dc.lft.to/lastmile_qr_scan"}, "bike_id": "0a7553512c6af5a62575fcf372e8e8fd", "lat": 38.90776316666667}, {"type": "electric_scooter", "fusion_lon": 0.0, "name": "b81e3a622f866cb9edd8808cfdf92544", "lon": -77.02370933333333, "fusion_lat": 0.0, "is_disabled": 0, "is_reserved": 0, "rental_uris": {"ios": "https://dc.lft.to/lastmile_qr_scan", "android": "https://dc.lft.to/lastmile_qr_scan"}, "bike_id": "b81e3a622f866cb9edd8808cfdf92544", "lat": 38.89227066666667}, {"type": "electric_scooter", "fusion_lon": 0.0, "name": "fab1de4a45030e4f29a53def5f62d700", "lon": -77.04511566666666, "fusion_lat": 0.0, "is_disabled": 0, "is_reserved": 0, "rental_uris": {"ios": "https://dc.lft.to/lastmile_qr_scan", "android": "https://dc.lft.to/lastmile_qr_scan"}, "bike_id": "fab1de4a45030e4f29a53def5f62d700", "lat": 38.90788166666667}, {"type": "electric_scooter", "fusion_lon": 0.0, "name": "6d9ac514291b7dfe473d2258ebaad4c6", "lon": -77.0402835, "fusion_lat": 0.0, "is_disabled": 0, "is_reserved": 0, "rental_uris": {"ios": "https://dc.lft.to/lastmile_qr_scan", "android": "https://dc.lft.to/lastmile_qr_scan"}, "bike_id": "6d9ac514291b7dfe473d2258ebaad4c6", "lat": 38.901490333333335}, {"type": "electric_scooter", "fusion_lon": 0.0, "name": "73c36306d9a455f3072c1a16c62900b6", "lon": -77.04509333333333, "fusion_lat": 0.0, "is_disabled": 0, "is_reserved": 0, "rental_uris": {"ios": "https://dc.lft.to/lastmile_qr_scan", "android": "https://dc.lft.to/lastmile_qr_scan"}, "bike_id": "73c36306d9a455f3072c1a16c62900b6", "lat": 38.907835666666664}, {"type": "electric_scooter", "fusion_lon": 0.0, "name": "c0bf8fbd2db85a8716e172df269003fa", "lon": -77.00747266666667, "fusion_lat": 0.0, "is_disabled": 0, "is_reserved": 0, "rental_uris": {"ios": "https://dc.lft.to/lastmile_qr_scan", "android": "https://dc.lft.to/lastmile_qr_scan"}, "bike_id": "c0bf8fbd2db85a8716e172df269003fa", "lat": 38.9060155}, {"type": "electric_scooter", "fusion_lon": 0.0, "name": "a16c5b9a84490106ee1ac1fd3bcc6a03", "lon": -77.02085583333333, "fusion_lat": 0.0, "is_disabled": 0, "is_reserved": 0, "rental_uris": {"ios": "https://dc.lft.to/lastmile_qr_scan", "android": "https://dc.lft.to/lastmile_qr_scan"}, "bike_id": "a16c5b9a84490106ee1ac1fd3bcc6a03", "lat": 38.922552}, {"type": "electric_scooter", "fusion_lon": 0.0, "name": "ef63146ea76c50255d3b6672dab50236", "lon": -76.94959066666667, "fusion_lat": 0.0, "is_disabled": 0, "is_reserved": 0, "rental_uris": {"ios": "https://dc.lft.to/lastmile_qr_scan", "android": "https://dc.lft.to/lastmile_qr_scan"}, "bike_id": "ef63146ea76c50255d3b6672dab50236", "lat": 38.904962833333336}, {"type": "electric_bike", "fusion_lon": 0.0, "name": "41e3253c80e7c898a9b3ef79ac8c97bd", "lon": -77.0737915, "fusion_lat": 0.0, "is_disabled": 0, "is_reserved": 0, "rental_uris": {"ios": "https://dc.lft.to/lastmile_qr_scan", "android": "https://dc.lft.to/lastmile_qr_scan"}, "bike_id": "41e3253c80e7c898a9b3ef79ac8c97bd", "lat": 38.961782666666664}, {"type": "electric_scooter", "fusion_lon": 0.0, "name": "8e2ff4c748eae905f083c07bdd13d673", "lon": -77.02318016666666, "fusion_lat": 0.0, "is_disabled": 0, "is_reserved": 0, "rental_uris": {"ios": "https://dc.lft.to/lastmile_qr_scan", "android": "https://dc.lft.to/lastmile_qr_scan"}, "bike_id": "8e2ff4c748eae905f083c07bdd13d673", "lat": 38.949253666666664}, {"type": "electric_scooter", "fusion_lon": 0.0, "name": "8a0c9bb2b95e839a72c285a244f2cc84", "lon": -77.0318635, "fusion_lat": 0.0, "is_disabled": 0, "is_reserved": 0, "rental_uris": {"ios": "https://dc.lft.to/lastmile_qr_scan", "android": "https://dc.lft.to/lastmile_qr_scan"}, "bike_id": "8a0c9bb2b95e839a72c285a244f2cc84", "lat": 38.915530833333335}, {"type": "electric_scooter", "fusion_lon": 0.0, "name": "e7e827d9a5324b859c80207d63b7954e", "lon": -77.0371845, "fusion_lat": 0.0, "is_disabled": 0, "is_reserved": 0, "rental_uris": {"ios": "https://dc.lft.to/lastmile_qr_scan", "android": "https://dc.lft.to/lastmile_qr_scan"}, "bike_id": "e7e827d9a5324b859c80207d63b7954e", "lat": 38.913408833333335},