{"data": {"bikes": [{"is_disabled": 0, "rental_uris": {"android": "https://dc.lft.to/lastmile_qr_scan", "ios": "https://dc.lft.to/lastmile_qr_scan"}, "is_reserved": 0, "name": "899271db286733be26d78b91147fc2a9", "lon": -76.980782, "type": "electric_scooter", "bike_id": "899271db286733be26d78b91147fc2a9", "fusion_lon": 0.0, "lat": 38.85720966666667, "fusion_lat": 0.0}, {"is_disabled": 0, "rental_uris": {"android": "https://dc.lft.to/lastmile_qr_scan", "ios": "https://dc.lft.to/lastmile_qr_scan"}, "is_reserved": 0, "name": "4dc4bf2b200dd9ac831f455ea645a8f3", "lon": -77.030549, "type": "electric_scooter", "bike_id": "4dc4bf2b200dd9ac831f455ea645a8f3", "fusion_lon": 0.0, "lat": 38.90978066666667, "fusion_lat": 0.0}, {"is_disabled": 0, "rental_uris": {"android": "https://dc.lft.to/lastmile_qr_scan", "ios": "https://dc.lft.to/lastmile_qr_scan"}, "is_reserved": 0, "name": "c2c945779578279d06fb55fcfe16d30a", "lon": -77.05094466666667, "type": "electric_scooter", "bike_id": "c2c945779578279d06fb55fcfe16d30a", "fusion_lon": 0.0, "lat": 38.923452833333336, "fusion_lat": 0.0}, {"is_disabled": 0, "rental_uris": {"android": "https://dc.lft.to/lastmile_qr_scan", "ios": "https://dc.lft.to/lastmile_qr_scan"}, "is_reserved": 0, "name": "57696c4ecad12af949b9d4b3226f6d4c", "lon": -77.04549116666666, "type": "electric_scooter", "bike_id": "57696c4ecad12af949b9d4b3226f6d4c", "fusion_lon": 0.0, "lat": 38.901433, "fusion_lat": 0.0}, {"is_disabled": 0, "rental_uris": {"android": "https://dc.lft.to/lastmile_qr_scan", "ios": "https://dc.lft.to/lastmile_qr_scan"}, "is_reserved": 0, "name": "211b15849ca3c9090f32f39dd8e6d9ab", "lon": -76.9691305, "type": "electric_scooter", "bike_id": "211b15849ca3c9090f32f39dd8e6d9ab", "fusion_lon": 0.0, "lat": 38.855248, "fusion_lat": 0.0}, {"is_disabled": 0, "rental_uris": {"android": "https://dc.lft.to/lastmile_qr_scan", "ios": "https://dc.lft.to/lastmile_qr_scan"}, "is_reserved": 0, "name": "12b360a815f74813388e33eb6448ff7d", "lon": -77.1829295, "type": "electric_bike", "bike_id": "12b360a815f74813388e33eb6448ff7d", "fusion_lon": 0.0, "lat": 38.883446666666664, "fusion_lat": 0.0}, {"is_disabled": 0, "rental_uris": {"android": "https://dc.lft.to/lastmile_qr_scan", "ios": "https://dc.lft.to/lastmile_qr_scan"}, "is_reserved": 0, "name": "fa553f93e9ed1a7f412dab7a5b210722", "lon": -77.03304183333333, "type": "electric_scooter", "bike_id": "fa553f93e9ed1a7f412dab7a5b210722", "fusion_lon": 0.0, "lat": 38.928808333333336, "fusion_lat": 0.0}, {"is_disabled": 0, "rental_uris": {"android": "https://dc.lft.to/lastmile_qr_scan", "ios": "https://dc.lft.to/lastmile_qr_scan"}, "is_reserved": 0, "name": "cdb29c90171378f327ca8c96dd46aa8f", "lon": -77.01581766666666, "type": "electric_bike", "bike_id": "cdb29c90171378f327ca8c96dd46aa8f", "fusion_lon": 0.0, "lat": 39.046359833333334, "fusion_lat": 0.0}, {"is_disabled": 0, "rental_uris": {"android": "https://dc.lft.to/lastmile_qr_scan", "ios": "https://dc.lft.to/lastmile_qr_scan"}, "is_reserved": 0, "name": "8f41595571a5899c19c3a963ef9273cb", "lon": -77.04273983333333, "type": "electric_scooter", "bike_id": "8f41595571a5899c19c3a963ef9273cb", "fusion_lon": 0.0, "lat": 38.911124666666666, "fusion_lat": 0.0}, {"is_disabled": 0, "rental_uris": {"android": "https://dc.lft.to/lastmile_qr_scan", "ios": "https://dc.lft.to/lastmile_qr_scan"}, "is_reserved": 0, "name": "8fc3b187d4caeae42828930438e2fbb9", "lon": -77.02470783333334, "type": "electric_scooter", "bike_id": "8fc3b187d4caeae42828930438e2fbb9", "fusion_lon": 0.0, "lat": 38.939131833333334, "fusion_lat": 0.0}, {"is_disabled": 0, "rental_uris": {"android": "https://dc.lft.to/lastmile_qr_scan", "ios": "https://dc.lft.to/lastmile_qr_scan"}, "is_reserved": 0, "name": "35dc822fa093ce6dfe34463a6ac33d3b", "lon": -76.985208, "type": "electric_scooter", "bike_id": "35dc822fa093ce6dfe34463a6ac33d3b", "fusion_lon": 0.0, "lat": 38.860036666666666, "fusion_lat": 0.0}, {"is_disabled": 0, "rental_uris": {"android": "https://dc.lft.to/lastmile_qr_scan", "ios": "https://dc.lft.to/lastmile_qr_scan"}, "is_reserved": 0, "name": "3099f2b3e8d61e566fbe9023134cc127", "lon": -77.05940433333333, "type": "electric_scooter", "bike_id": "3099f2b3e8d61e566fbe9023134cc127", "fusion_lon": 0.0, "lat": 38.93663333333333, "fusion_lat": 0.0}, {"is_disabled": 0, "rental_uris": {"android": "https://dc.lft.to/lastmile_qr_scan", "ios": "https://dc.lft.to/lastmile_qr_scan"}, "is_reserved": 0, "name": "71e4a8851b7f352adf42e71654f011ed", "lon": -77.02832, "type": "electric_scooter", "bike_id": "71e4a8851b7f352adf42e71654f011ed", "fusion_lon": 0.0, "lat": 38.89525016666666, "fusion_lat": 0.0}, {"is_disabled": 0, "rental_uris": {"android": "https://dc.lft.to/lastmile_qr_scan", "ios": "https://dc.lft.to/lastmile_qr_scan"}, "is_reserved": 0, "name": "f1aecb83bfa4ab1dc7d252a9dc14f64f", "lon": -76.931099, "type": "electric_scooter", "bike_id": "f1aecb83bfa4ab1dc7d252a9dc14f64f", "fusion_lon": 0.0, "lat": 38.88009566666667, "fusion_lat": 0.0}, {"is_disabled": 0, "rental_uris": {"android": "https://dc.lft.to/lastmile_qr_scan", "ios": "https://dc.lft.to/lastmile_qr_scan"}, "is_reserved": 0, "name": "d2e47ea5af458c423365bc5f68a26aa5", "lon": -77.02698616666666, "type": "electric_scooter", "bike_id": "d2e47ea5af458c423365bc5f68a26aa5", "fusion_lon": 0.0, "lat": 38.94958833333333, "fusion_lat": 0.0}, {"is_disabled": 0, "rental_uris": {"android": "https://dc.lft.to/lastmile_qr_scan", "ios": "https://dc.lft.to/lastmile_qr_scan"}, "is_reserved": 0, "name": "676c4142c43925c00fdf70e2cb172943", "lon": -77.018947, "type": "electric_scooter", "bike_id": "676c4142c43925c00fdf70e2cb172943", "fusion_lon": 0.0, "lat": 38.912169666666664, "fusion_lat": 0.0}, {"is_disabled": 0, "rental_uris": {"android": "https://dc.lft.to/lastmile_qr_scan", "ios": "https://dc.lft.to/lastmile_qr_scan"}, "is_reserved": 0, "name": "26f76dbee7f8df295136e7722876ab26", "lon": -76.99006666666666, "type": "electric_scooter", "bike_id": "26f76dbee7f8df295136e7722876ab26", "fusion_lon": 0.0, "lat": 38.865090333333335, "fusion_lat": 0.0}, {"is_disabled": 0, "rental_uris": {"android": "https://dc.lft.to/lastmile_qr_scan", "ios": "https://dc.lft.to/lastmile_qr_scan"}, "is_reserved": 0, "name": "e3b8a899298f1a94759b8bab8b20f4dc", "lon": -77.0383685, "type": "electric_scooter", "bike_id": "e3b8a899298f1a94759b8bab8b20f4dc", "fusion_lon": 0.0, "lat": 38.9324675, "fusion_lat": 0.0}, {"is_disabled": 0, "rental_uris": {"android": "https://dc.lft.to/lastmile_qr_scan", "ios": "https://dc.lft.to/lastmile_qr_scan"}, "is_reserved": 0, "name": "d400482aa4e2dc5213a4ba2a704ef255", "lon": -77.02878183333333, "type": "electric_scooter", "bike_id": "d400482aa4e2dc5213a4ba2a704ef255", "fusion_lon": 0.0, "lat": 38.90123916666667, "fusion_lat": 0.0}, {"is_disabled": 0, "rental_uris": {"android": "https://dc.lft.to/lastmile_qr_scan", "ios": "https://dc.lft.to/lastmile_qr_scan"}, "is_reserved": 0, "name": "5aae99f9e386ead3e8241319b4e0d986", "lon": -77.04366333333333, "type": "electric_scooter", "bike_id": "5aae99f9e386ead3e8241319b4e0d986", "fusion_lon": 0.0, "lat": 38.90264916666667, "fusion_lat": 0.0}, {"is_disabled": 0, "rental_uris": {"android": "https://dc.lft.to/lastmile_qr_scan", "ios": "https://dc.lft.to/lastmile_qr_scan"}, "is_reserved": 0, "name": "c0cd507cef2f670492001a8eeb6525ee", "lon": -77.0955815, "type": "electric_bike", "bike_id": "c0cd507cef2f670492001a8eeb6525ee", "fusion_lon": 0.0, "lat": 38.91695216666667, "fusion_lat": 0.0}, {"is_disabled": 0, "rental_uris": {"android": "https://dc.lft.to/lastmile_qr_scan", "ios": "https://dc.lft.to/lastmile_qr_scan"}, "is_reserved": 0, "name": "59422508dba1b00002247aa196027239", "lon": -77.03332766666666, "type": "electric_scooter", "bike_id": "59422508dba1b00002247aa196027239", "fusion_lon": 0.0, "lat": 38.8989225, "fusion_lat": 0.0}, {"is_disabled": 0, "rental_uris": {"android": "https://dc.lft.to/lastmile_qr_scan", "ios": "https://dc.lft.to/lastmile_qr_scan"}, "is_reserved": 0, "name": "f4d3eb160be6bf28d1fca3bad3e3ed9b", "lon": -77.036657, "type": "electric_scooter", "bike_id": "f4d3eb160be6bf28d1fca3bad3e3ed9b", "fusion_lon": 0.0, "lat": 38.902893, "fusion_lat": 0.0}, {"is_disabled": 0, "rental_uris": {"android": "https://dc.lft.to/lastmile_qr_scan", "ios": "https://dc.lft.to/lastmile_qr_scan"}, "is_reserved": 0, "name": "528e0473cd947dd67198634bd453cbb8", "lon": -77.03659833333333, "type": "electric_scooter", "bike_id": "528e0473cd947dd67198634bd453cbb8", "fusion_lon": 0.0, "lat": 38.903974833333336, "fusion_lat": 0.0}, {"is_disabled": 0, "rental_uris": {"android": "https://dc.lft.to/lastmile_qr_scan", "ios": "https://dc.lft.to/lastmile_qr_scan"}, "is_reserved": 0, "name": "523232e20db7290e95050e3380eada7a", "lon": -77.03316933333333, "type": "electric_scooter", "bike_id": "523232e20db7290e95050e3380eada7a", "fusion_lon": 0.0, "lat": 38.904158833333334, "fusion_lat": 0.0}, {"is_disabled": 0, "rental_uris": {"android": "https://dc.lft.to/lastmile_qr_scan", "ios": "https://dc.lft.to/lastmile_qr_scan"}, "is_reserved": 0, "name": "93918fc09946f52265587ce66e186b1b", "lon": -77.01989583333334, "type": "electric_scooter", "bike_id": "93918fc09946f52265587ce66e186b1b", "fusion_lon": 0.0, "lat": 38.87782083333333, "fusion_lat": 0.0}, {"is_disabled": 0, "rental_uris": {"android": "https://dc.lft.to/lastmile_qr_scan", "ios": "https://dc.lft.to/lastmile_qr_scan"}, "is_reserved": 0, "name": "ede7fa83c74d11cd1ea3dfc3d622852d", "lon": -77.03194483333333, "type": "electric_scooter", "bike_id": "ede7fa83c74d11cd1ea3dfc3d622852d", "fusion_lon": 0.0, "lat": 38.90745716666667, "fusion_lat": 0.0}, {"is_disabled": 0, "rental_uris": {"android": "https://dc.lft.to/lastmile_qr_scan", "ios": "https://dc.lft.to/lastmile_qr_scan"}, "is_reserved": 0, "name": "aace6e96ca9a723ff4eb11e7dca8a8d0", "lon": -77.03839533333333, "type": "electric_scooter", "bike_id": "aace6e96ca9a723ff4eb11e7dca8a8d0", "fusion_lon": 0.0, "lat": 38.92648483333333, "fusion_lat": 0.0}, {"is_disabled": 0, "rental_uris": {"android": "https://dc.lft.to/lastmile_qr_scan", "ios": "https://dc.lft.to/lastmile_qr_scan"}, "is_reserved": 0, "name": "f3a476b4c5848b7a1cbeda72a224bd16", "lon": -77.03227266666667, "type": "electric_scooter", "bike_id": "f3a476b4c5848b7a1cbeda72a224bd16", "fusion_lon": 0.0, "lat": 38.928930333333334, "fusion_lat": 0.0}, {"is_disabled": 0, "rental_uris": {"android": "https://dc.lft.to/lastmile_qr_scan", "ios": "https://dc.lft.to/lastmile_qr_scan"}, "is_reserved": 0, "name": "fcfdb57a1da8af827d6af6b5d086fbf8", "lon": -77.010159, "type": "electric_scooter", "bike_id": "fcfdb57a1da8af827d6af6b5d086fbf8", "fusion_lon": 0.0, "lat": 38.90627883333333, "fusion_lat": 0.0}, {"is_disabled": 0, "rental_uris": {"android": "https://dc.lft.to/lastmile_qr_scan", "ios": "https://dc.lft.to/lastmile_qr_scan"}, "is_reserved": 0, "name": "24333b1a4688c4d2014b8914a1216f3e", "lon": -77.0436145, "type": "electric_scooter", "bike_id": "24333b1a4688c4d2014b8914a1216f3e", "fusion_lon": 0.0, "lat": 38.915700666666666, "fusion_lat": 0.0}, {"is_disabled": 0, "rental_uris": {"android": "https://dc.lft.to/lastmile_qr_scan", "ios": "https://dc.lft.to/lastmile_qr_scan"}, "is_reserved": 0, "name": "6257f4e9f0a26f69a68a985f62dfc37a", "lon": -77.02945083333333, "type": "electric_scooter", "bike_id": "6257f4e9f0a26f69a68a985f62dfc37a", "fusion_lon": 0.0, "lat": 38.90491083333333, "fusion_lat": 0.0}, {"is_disabled": 0, "rental_uris": {"android": "https://dc.lft.to/lastmile_qr_scan", "ios": "https://dc.lft.to/lastmile_qr_scan"}, "is_reserved": 0, "name": "0021cfb74304535270fef67bf714e60d", "lon": -77.02346466666667, "type": "electric_scooter", "bike_id": "0021cfb74304535270fef67bf714e60d", "fusion_lon": 0.0, "lat": 38.92260016666667, "fusion_lat": 0.0}, {"is_disabled": 0, "rental_uris": {"android": "https://dc.lft.to/lastmile_qr_scan", "ios": "https://dc.lft.to/lastmile_qr_scan"}, "is_reserved": 0, "name": "8e1eba288d9432fded4190c140b0052b", "lon": -77.0435185, "type": "electric_scooter", "bike_id": "8e1eba288d9432fded4190c140b0052b", "fusion_lon": 0.0, "lat": 38.89837416666667, "fusion_lat": 0.0}, {"is_disabled": 0, "rental_uris": {"android": "https://dc.lft.to/lastmile_qr_scan", "ios": "https://dc.lft.to/lastmile_qr_scan"}, "is_reserved": 0, "name": "d510e053ba3ce00f43d365bb5816c019", "lon": -76.9520735, "type": "electric_bike", "bike_id": "d510e053ba3ce00f43d365bb5816c019", "fusion_lon": 0.0, "lat": 38.93667966666667, "fusion_lat": 0.0}, {"is_disabled": 0, "rental_uris": {"android": "https://dc.lft.to/lastmile_qr_scan", "ios": "https://dc.lft.to/lastmile_qr_scan"}, "is_reserved": 0, "name": "f531cd70f25a225a12665ed89edd7602", "lon": -77.003343, "type": "electric_scooter", "bike_id": "f531cd70f25a225a12665ed89edd7602", "fusion_lon": 0.0, "lat": 38.89357833333333, "fusion_lat": 0.0}, {"is_disabled": 0, "rental_uris": {"android": "https://dc.lft.to/lastmile_qr_scan", "ios": "https://dc.lft.to/lastmile_qr_scan"}, "is_reserved": 0, "name": "7be3527c44c46144ad5075fd69927fd0", "lon": -77.01156216666666, "type": "electric_scooter", "bike_id": "7be3527c44c46144ad5075fd69927fd0", "fusion_lon": 0.0, "lat": 38.897363666666664, "fusion_lat": 0.0}, {"is_disabled": 0, "rental_uris": {"android": "https://dc.lft.to/lastmile_qr_scan", "ios": "https://dc.lft.to/lastmile_qr_scan"}, "is_reserved": 0, "name": "73b1dc8e924f3d003b24ba98cd77654a", "lon": -77.04750766666666, "type": "electric_scooter", "bike_id": "73b1dc8e924f3d003b24ba98cd77654a", "fusion_lon": 0.0, "lat": 38.90726333333333, "fusion_lat": 0.0}, {"is_disabled": 0, "rental_uris": {"android": "https://dc.lft.to/lastmile_qr_scan", "ios": "https://dc.lft.to/lastmile_qr_scan"}, "is_reserved": 0, "name": "543959bc99a7a4d9f4c2673817f14fb7", "lon": -77.03457316666666, "type": "electric_scooter", "bike_id": "543959bc99a7a4d9f4c2673817f14fb7", "fusion_lon": 0.0, "lat": 38.9025605, "fusion_lat": 0.0}, {"is_disabled": 0, "rental_uris": {"android": "https://dc.lft.to/lastmile_qr_scan", "ios": "https://dc.lft.to/lastmile_qr_scan"}, "is_reserved": 0, "name": "0c2da927515ec873cf50cf9c78f4a22d", "lon": -76.9872805, "type": "electric_scooter", "bike_id": "0c2da927515ec873cf50cf9c78f4a22d", "fusion_lon": 0.0, "lat": 38.86715483333333, "fusion_lat": 0.0}, {"is_disabled": 0, "rental_uris": {"android": "https://dc.lft.to/lastmile_qr_scan", "ios": "https://dc.lft.to/lastmile_qr_scan"}, "is_reserved": 0, "name": "7be44136b161c83c6608d6d9f643a22c", "lon": -77.02597533333334, "type": "electric_scooter", "bike_id": "7be44136b161c83c6608d6d9f643a22c", "fusion_lon": 0.0, "lat": 38.90493816666667, "fusion_lat": 0.0}, {"is_disabled": 0, "rental_uris": {"android": "https://dc.lft.to/lastmile_qr_scan", "ios": "https://dc.lft.to/lastmile_qr_scan"}, "is_reserved": 0, "name": "acae8e3a100cb7855ed28dfa9d4281e4", "lon": -77.048737, "type": "electric_scooter", "bike_id": "acae8e3a100cb7855ed28dfa9d4281e4", "fusion_lon": 0.0, "lat": 38.90744133333333, "fusion_lat": 0.0}, {"is_disabled": 0, "rental_uris": {"android": "https://dc.lft.to/lastmile_qr_scan", "ios": "https://dc.lft.to/lastmile_qr_scan"}, "is_reserved": 0, "name": "62c072bf0040a5867bffff9546e93463", "lon": -77.043984, "type": "electric_scooter", "bike_id": "62c072bf0040a5867bffff9546e93463", "fusion_lon": 0.0, "lat": 38.893956333333335, "fusion_lat": 0.0}, {"is_disabled": 0, "rental_uris": {"android": "https://dc.lft.to/lastmile_qr_scan", "ios": "https://dc.lft.to/lastmile_qr_scan"}, "is_reserved": 0, "name": "9a39c1db352963c0529fba4baa43228e", "lon": -77.02382483333334, "type": "electric_bike", "bike_id": "9a39c1db352963c0529fba4baa43228e", "fusion_lon": 0.0, "lat": 38.990696166666666, "fusion_lat": 0.0}, {"is_disabled": 0, "rental_uris": {"android": "https://dc.lft.to/lastmile_qr_scan", "ios": "https://dc.lft.to/lastmile_qr_scan"}, "is_reserved": 0, "name": "754b19d1e9711f1756c7c813363bbeaf", "lon": -77.03207933333333, "type": "electric_scooter", "bike_id": "754b19d1e9711f1756c7c813363bbeaf", "fusion_lon": 0.0, "lat": 38.917440666666664, "fusion_lat": 0.0}, {"is_disabled": 0, "rental_uris": {"android": "https://dc.lft.to/lastmile_qr_scan", "ios": "https://dc.lft.to/lastmile_qr_scan"}, "is_reserved": 0, "name": "a9ed2ae97d1e4839694360bf6f98903d", "lon": -77.04277616666667, "type": "electric_scooter", "bike_id": "a9ed2ae97d1e4839694360bf6f98903d", "fusion_lon": 0.0, "lat": 38.93413316666667, "fusion_lat": 0.0}, {"is_disabled": 0, "rental_uris": {"android": "https://dc.lft.to/lastmile_qr_scan", "ios": "https://dc.lft.to/lastmile_qr_scan"}, "is_reserved": 0, "name": "aebe450fcb358426ca1a23cb18bfd066", "lon": -77.00562766666667, "type": "electric_scooter", "bike_id": "aebe450fcb358426ca1a23cb18bfd066", "fusion_lon": 0.0, "lat": 38.88508083333333, "fusion_lat": 0.0}, {"is_disabled": 0, "rental_uris": {"android": "https://dc.lft.to/lastmile_qr_scan", "ios": "https://dc.lft.to/lastmile_qr_scan"}, "is_reserved": 0, "name": "0ebe45cc037f5e42ea3072d01862f7a7", "lon": -77.061368, "type": "electric_scooter", "bike_id": "0ebe45cc037f5e42ea3072d01862f7a7", "fusion_lon": 0.0, "lat": 38.9052665, "fusion_lat": 0.0}, {"is_disabled": 0, "rental_uris": {"android": "https://dc.lft.to/lastmile_qr_scan", "ios": "https://dc.lft.to/lastmile_qr_scan"}, "is_reserved": 0, "name": "9add0a4f3002d0ee95744de5a4d2c30d", "lon": -77.03481, "type": "electric_scooter", "bike_id": "9add0a4f3002d0ee95744de5a4d2c30d", "fusion_lon": 0.0, "lat": 38.924819166666666, "fusion_lat": 0.0}, {"is_disabled": 0, "rental_uris": {"android": "https://dc.lft.to/lastmile_qr_scan", "ios": "https://dc.lft.to/lastmile_qr_scan"}, "is_reserved": 0, "name": "36686b987e5399818119f148c1d6c43b", "lon": -76.99492966666666, "type": "electric_bike", "bike_id": "36686b987e5399818119f148c1d6c43b", "fusion_lon": 0.0, "lat": 38.900355, "fusion_lat": 0.0}, {"is_disabled": 0, "rental_uris": {"android": "https://dc.lft.to/lastmile_qr_scan", "ios": "https://dc.lft.to/lastmile_qr_scan"}, "is_reserved": 0, "name": "8da93e27659e980840051bf2e57ba60e", "lon": -77.02061616666667, "type": "electric_scooter", "bike_id": "8da93e27659e980840051bf2e57ba60e", "fusion_lon": 0.0, "lat": 38.881155, "fusion_lat": 0.0}, {"is_disabled": 0, "rental_uris": {"android": "https://dc.lft.to/lastmile_qr_scan", "ios": "https://dc.lft.to/lastmile_qr_scan"}, "is_reserved": 0, "name": "a9aad01cbc2044dc4e4d4a82034a7be4", "lon": -77.0268805, "type": "electric_scooter", "bike_id": "a9aad01cbc2044dc4e4d4a82034a7be4", "fusion_lon": 0.0, "lat": 38.89662, "fusion_lat": 0.0}, {"is_disabled": 0, "rental_uris": {"android": "https://dc.lft.to/lastmile_qr_scan", "ios": "https://dc.lft.to/lastmile_qr_scan"}, "is_reserved": 0, "name": "9e819360f2b9618305d966dbb651ed26", "lon": -76.98884366666667, "type": "electric_scooter", "bike_id": "9e819360f2b9618305d966dbb651ed26", "fusion_lon": 0.0, "lat": 38.866607333333334, "fusion_lat": 0.0}, {"is_disabled": 0, "rental_uris": {"android": "https://dc.lft.to/lastmile_qr_scan", "ios": "https://dc.lft.to/lastmile_qr_scan"}, "is_reserved": 0, "name": "d1335e01eeb703f81552ef58bd9f3d39", "lon": -76.977911, "type": "electric_bike", "bike_id": "d1335e01eeb703f81552ef58bd9f3d39", "fusion_lon": 0.0, "lat": 38.89619033333334, "fusion_lat": 0.0}, {"is_disabled": 0, "rental_uris": {"android": "https://dc.lft.to/lastmile_qr_scan", "ios": "https://dc.lft.to/lastmile_qr_scan"}, "is_reserved": 0, "name": "72e30477934060201a7cb1c94593dc63", "lon": -77.03225033333334, "type": "electric_scooter", "bike_id": "72e30477934060201a7cb1c94593dc63", "fusion_lon": 0.0, "lat": 38.90125883333333, "fusion_lat": 0.0}, {"is_disabled": 0, "rental_uris": {"android": "https://dc.lft.to/lastmile_qr_scan", "ios": "https://dc.lft.to/lastmile_qr_scan"}, "is_reserved": 0, "name": "5e871d04225d47e424c7ff2383853884", "lon": -76.97504233333333, "type": "electric_bike", "bike_id": "5e871d04225d47e424c7ff2383853884", "fusion_lon": 0.0, "lat": 38.90313233333333, "fusion_lat": 0.0}, {"is_disabled": 0, "rental_uris": {"android": "https://dc.lft.to/lastmile_qr_scan", "ios": "https://dc.lft.to/lastmile_qr_scan"}, "is_reserved": 0, "name": "ea2a47bb196ef617245b97d622c87605", "lon": -77.01226816666667, "type": "electric_scooter", "bike_id": "ea2a47bb196ef617245b97d622c87605", "fusion_lon": 0.0, "lat": 38.8858025, "fusion_lat": 0.0}, {"is_disabled": 0, "rental_uris": {"android": "https://dc.lft.to/lastmile_qr_scan", "ios": "https://dc.lft.to/lastmile_qr_scan"}, "is_reserved": 0, "name": "f48675256eebb1f929ae5c1939b5a31b", "lon": -77.03307016666666, "type": "electric_scooter", "bike_id": "f48675256eebb1f929ae5c1939b5a31b", "fusion_lon": 0.0, "lat": 38.89842066666667, "fusion_lat": 0.0}, {"is_disabled": 0, "rental_uris": {"android": "https://dc.lft.to/lastmile_qr_scan", "ios": "https://dc.lft.to/lastmile_qr_scan"}, "is_reserved": 0, "name": "9ecf161c887a9d7e0823c7e5f25e0e8d", "lon": -77.00857966666666, "type": "electric_scooter", "bike_id": "9ecf161c887a9d7e0823c7e5f25e0e8d", "fusion_lon": 0.0, "lat": 38.906728333333334, "fusion_lat": 0.0}, {"is_disabled": 0, "rental_uris": {"android": "https://dc.lft.to/lastmile_qr_scan", "ios": "https://dc.lft.to/lastmile_qr_scan"}, "is_reserved": 0, "name": "dd8acc18446295ab80076472305d5bb4", "lon": -76.9482835, "type": "electric_scooter", "bike_id": "dd8acc18446295ab80076472305d5bb4", "fusion_lon": 0.0, "lat": 38.88519766666667, "fusion_lat": 0.0}, {"is_disabled": 0, "rental_uris": {"android": "https://dc.lft.to/lastmile_qr_scan", "ios": "https://dc.lft.to/lastmile_qr_scan"}, "is_reserved": 0, "name": "45a542b1fd74817a3b1fa45465c3c30c", "lon": -76.978742, "type": "electric_scooter", "bike_id": "45a542b1fd74817a3b1fa45465c3c30c", "fusion_lon": 0.0, "lat": 38.92727083333333, "fusion_lat": 0.0}, {"is_disabled": 0, "rental_uris": {"android": "https://dc.lft.to/lastmile_qr_scan", "ios": "https://dc.lft.to/lastmile_qr_scan"}, "is_reserved": 0, "name": "3d62f9ee8a9a25a70b6ef308cc48e39c", "lon": -77.0376445, "type": "electric_scooter", "bike_id": "3d62f9ee8a9a25a70b6ef308cc48e39c", "fusion_lon": 0.0, "lat": 38.916887833333334, "fusion_lat": 0.0}, {"is_disabled": 0, "rental_uris": {"android": "https://dc.lft.to/lastmile_qr_scan", "ios": "https://dc.lft.to/lastmile_qr_scan"}, "is_reserved": 0, "name": "97c6cca7be3b9be7c00d85d85e0b67f5", "lon": -77.05437466666666, "type": "electric_scooter", "bike_id": "97c6cca7be3b9be7c00d85d85e0b67f5", "fusion_lon": 0.0, "lat": 38.896062666666666, "fusion_lat": 0.0}, {"is_disabled": 0, "rental_uris": {"android": "https://dc.lft.to/lastmile_qr_scan", "ios": "https://dc.lft.to/lastmile_qr_scan"}, "is_reserved": 0, "name": "125e5a5dbee198ec03dc721c02b0ca56", "lon": -77.0385215, "type": "electric_scooter", "bike_id": "125e5a5dbee198ec03dc721c02b0ca56", "fusion_lon": 0.0, "lat": 38.90338166666667, "fusion_lat": 0.0}, {"is_disabled": 0, "rental_uris": {"android": "https://dc.lft.to/lastmile_qr_scan", "ios": "https://dc.lft.to/lastmile_qr_scan"}, "is_reserved": 0, "name": "b3ba6298138595eccb9c22ae97e2d122", "lon": -77.0434925, "type": "electric_scooter", "bike_id": "b3ba6298138595eccb9c22ae97e2d122", "fusion_lon": 0.0, "lat": 38.898432666666665, "fusion_lat": 0.0}, {"is_disabled": 0, "rental_uris": {"android": "https://dc.lft.to/lastmile_qr_scan", "ios": "https://dc.lft.to/lastmile_qr_scan"}, "is_reserved": 0, "name": "611e6c85f2b93ff295bb43e97bebe4d5", "lon": -77.045731, "type": "electric_scooter", "bike_id": "611e6c85f2b93ff295bb43e97bebe4d5", "fusion_lon": 0.0, "lat": 38.917826833333336, "fusion_lat": 0.0}, {"is_disabled": 0, "rental_uris": {"android": "https://dc.lft.to/lastmile_qr_scan", "ios": "https://dc.lft.to/lastmile_qr_scan"}, "is_reserved": 0, "name": "61eea0c32dcc14ac3b6f8397ea191dd0", "lon": -77.023052, "type": "electric_scooter", "bike_id": "61eea0c32dcc14ac3b6f8397ea191dd0", "fusion_lon": 0.0, "lat": 38.91784416666667, "fusion_lat": 0.0}, {"is_disabled": 0, "rental_uris": {"android": "https://dc.lft.to/lastmile_qr_scan", "ios": "https://dc.lft.to/lastmile_qr_scan"}, "is_reserved": 0, "name": "bd013047860b4f5f918a7756141e9d7c", "lon": -77.0409675, "type": "electric_scooter", "bike_id": "bd013047860b4f5f918a7756141e9d7c", "fusion_lon": 0.0, "lat": 38.8982985, "fusion_lat": 0.0}, {"is_disabled": 0, "rental_uris": {"android": "https://dc.lft.to/lastmile_qr_scan", "ios": "https://dc.lft.to/lastmile_qr_scan"}, "is_reserved": 0, "name": "960d4bb174384cd24dcefded61fe171b", "lon": -77.01952333333334, "type": "electric_scooter", "bike_id": "960d4bb174384cd24dcefded61fe171b", "fusion_lon": 0.0, "lat": 38.922545666666664, "fusion_lat": 0.0}, {"is_disabled": 0, "rental_uris": {"android": "https://dc.lft.to/lastmile_qr_scan", "ios": "https://dc.lft.to/lastmile_qr_scan"}, "is_reserved": 0, "name": "8a4f8d51313b5b019303fbdcf4f54816", "lon": -77.0235185, "type": "electric_scooter", "bike_id": "8a4f8d51313b5b019303fbdcf4f54816", "fusion_lon": 0.0, "lat": 38.9159235, "fusion_lat": 0.0}, {"is_disabled": 0, "rental_uris": {"android": "https://dc.lft.to/lastmile_qr_scan", "ios": "https://dc.lft.to/lastmile_qr_scan"}, "is_reserved": 0, "name": "51b65d589e0e9ff496b3d651fd53eee1", "lon": -77.02294233333333, "type": "electric_scooter", "bike_id": "51b65d589e0e9ff496b3d651fd53eee1", "fusion_lon": 0.0, "lat": 38.916053833333336, "fusion_lat": 0.0}, {"is_disabled": 0, "rental_uris": {"android": "https://dc.lft.to/lastmile_qr_scan", "ios": "https://dc.lft.to/lastmile_qr_scan"}, "is_reserved": 0, "name": "29c9918779f02d607845fda34f892eee", "lon": -77.04034466666667, "type": "electric_scooter", "bike_id": "29c9918779f02d607845fda34f892eee", "fusion_lon": 0.0, "lat": 38.90446133333333, "fusion_lat": 0.0}, {"is_disabled": 0, "rental_uris": {"android": "https://dc.lft.to/lastmile_qr_scan", "ios": "https://dc.lft.to/lastmile_qr_scan"}, "is_reserved": 0, "name": "c0694f3642c624db7759d775c6436a40", "lon": -77.0318705, "type": "electric_scooter", "bike_id": "c0694f3642c624db7759d775c6436a40", "fusion_lon": 0.0, "lat": 38.90748083333333, "fusion_lat": 0.0}, {"is_disabled": 0, "rental_uris": {"android": "https://dc.lft.to/lastmile_qr_scan", "ios": "https://dc.lft.to/lastmile_qr_scan"}, "is_reserved": 0, "name": "3ec5d8a20c04e23a968a815822220dbb", "lon": -77.02418866666666, "type": "electric_scooter", "bike_id": "3ec5d8a20c04e23a968a815822220dbb", "fusion_lon": 0.0, "lat": 38.8936145, "fusion_lat": 0.0}, {"is_disabled": 0, "rental_uris": {"android": "https://dc.lft.to/lastmile_qr_scan", "ios": "https://dc.lft.to/lastmile_qr_scan"}, "is_reserved": 0, "name": "5ac7560a514be63b60a43aab172f1b1e", "lon": -77.094342, "type": "electric_scooter", "bike_id": "5ac7560a514be63b60a43aab172f1b1e", "fusion_lon": 0.0, "lat": 38.917878, "fusion_lat": 0.0}, {"is_disabled": 0, "rental_uris": {"android": "https://dc.lft.to/lastmile_qr_scan", "ios": "https://dc.lft.to/lastmile_qr_scan"}, "is_reserved": 0, "name": "4545adf3e7bafc4b420847e98367977a", "lon": -77.00304583333333, "type": "electric_scooter", "bike_id": "4545adf3e7bafc4b420847e98367977a", "fusion_lon": 0.0, "lat": 38.89219583333333, "fusion_lat": 0.0}, {"is_disabled": 0, "rental_uris": {"android": "https://dc.lft.to/lastmile_qr_scan", "ios": "https://dc.lft.to/lastmile_qr_scan"}, "is_reserved": 0, "name": "7021b0c622f262d707f02a5dd77fb07a", "lon": -77.04159233333333, "type": "electric_scooter", "bike_id": "7021b0c622f262d707f02a5dd77fb07a", "fusion_lon": 0.0, "lat": 38.92330583333333, "fusion_lat": 0.0}, {"is_disabled": 0, "rental_uris": {"android": "https://dc.lft.to/lastmile_qr_scan", "ios": "https://dc.lft.to/lastmile_qr_scan"}, "is_reserved": 0, "name": "15c06f0144fc6aa2c51c729fa6cbe6ff", "lon": -77.004562, "type": "electric_scooter", "bike_id": "15c06f0144fc6aa2c51c729fa6cbe6ff", "fusion_lon": 0.0, "lat": 38.90759833333333, "fusion_lat": 0.0}, {"is_disabled": 0, "rental_uris": {"android": "https://dc.lft.to/lastmile_qr_scan", "ios": "https://dc.lft.to/lastmile_qr_scan"}, "is_reserved": 0, "name": "ca099bf1aa2e519f21ae5ac64a8529ed", "lon": -77.02836016666667, "type": "electric_scooter", "bike_id": "ca099bf1aa2e519f21ae5ac64a8529ed", "fusion_lon": 0.0, "lat": 38.9298085, "fusion_lat": 0.0}, {"is_disabled": 0, "rental_uris": {"android": "https://dc.lft.to/lastmile_qr_scan", "ios": "https://dc.lft.to/lastmile_qr_scan"}, "is_reserved": 0, "name": "2da47ad4e92cb10b27a0b2fe2bf28cab", "lon": -76.94940833333334, "type": "electric_scooter", "bike_id": "2da47ad4e92cb10b27a0b2fe2bf28cab", "fusion_lon": 0.0, "lat": 38.883175, "fusion_lat": 0.0}, {"is_disabled": 0, "rental_uris": {"android": "https://dc.lft.to/lastmile_qr_scan", "ios": "https://dc.lft.to/lastmile_qr_scan"}, "is_reserved": 0, "name": "eec09fce274a9674951dae6de7d71d97", "lon": -77.04675666666667, "type": "electric_scooter", "bike_id": "eec09fce274a9674951dae6de7d71d97", "fusion_lon": 0.0, "lat": 38.90737816666667, "fusion_lat": 0.0}, {"is_disabled": 0, "rental_uris": {"android": "https://dc.lft.to/lastmile_qr_scan", "ios": "https://dc.lft.to/lastmile_qr_scan"}, "is_reserved": 0, "name": "de94b95f6f6baa72a0122386c23c395c", "lon": -77.06128433333333, "type": "electric_scooter", "bike_id": "de94b95f6f6baa72a0122386c23c395c", "fusion_lon": 0.0, "lat": 38.943638, "fusion_lat": 0.0}, {"is_disabled": 0, "rental_uris": {"android": "https://dc.lft.to/lastmile_qr_scan", "ios": "https://dc.lft.to/lastmile_qr_scan"}, "is_reserved": 0, "name": "29c6113bfe80bea196db8fc3c3306736", "lon": -77.00869883333333, "type": "electric_scooter", "bike_id": "29c6113bfe80bea196db8fc3c3306736", "fusion_lon": 0.0, "lat": 38.90585133333333, "fusion_lat": 0.0}, {"is_disabled": 0, "rental_uris": {"android": "https://dc.lft.to/lastmile_qr_scan", "ios": "https://dc.lft.to/lastmile_qr_scan"}, "is_reserved": 0, "name": "f35626a070c5ae6f27991cfd297f34bc", "lon": -77.03396716666667, "type": "electric_scooter", "bike_id": "f35626a070c5ae6f27991cfd297f34bc", "fusion_lon": 0.0, "lat": 38.919660666666665, "fusion_lat": 0.0}, {"is_disabled": 0, "rental_uris": {"android": "https://dc.lft.to/lastmile_qr_scan", "ios": "https://dc.lft.to/lastmile_qr_scan"}, "is_reserved": 0, "name": "49e6313e2537e6993640fb0938e64b47", "lon": -77.0240425, "type": "electric_scooter", "bike_id": "49e6313e2537e6993640fb0938e64b47", "fusion_lon": 0.0, "lat": 38.91681533333333, "fusion_lat": 0.0}, {"is_disabled": 0, "rental_uris": {"android": "https://dc.lft.to/lastmile_qr_scan", "ios": "https://dc.lft.to/lastmile_qr_scan"}, "is_reserved": 0, "name": "a3d7d78cb0eba7b380a2d211ed963e43", "lon": -76.9916605, "type": "electric_bike", "bike_id": "a3d7d78cb0eba7b380a2d211ed963e43", "fusion_lon": 0.0, "lat": 38.97261733333333, "fusion_lat": 0.0}, {"is_disabled": 0, "rental_uris": {"android": "https://dc.lft.to/lastmile_qr_scan", "ios": "https://dc.lft.to/lastmile_qr_scan"}, "is_reserved": 0, "name": "4cefe2d9ce7e7a4ea8907fd670e5f2c9", "lon": -77.07900133333334, "type": "electric_bike", "bike_id": "4cefe2d9ce7e7a4ea8907fd670e5f2c9", "fusion_lon": 0.0, "lat": 38.839369833333336, "fusion_lat": 0.0}, {"is_disabled": 0, "rental_uris": {"android": "https://dc.lft.to/lastmile_qr_scan", "ios": "https://dc.lft.to/lastmile_qr_scan"}, "is_reserved": 0, "name": "fdffd114014ff09cc5f9fcae7987dbde", "lon": -77.0617155, "type": "electric_bike", "bike_id": "fdffd114014ff09cc5f9fcae7987dbde", "fusion_lon": 0.0, "lat": 38.812702, "fusion_lat": 0.0}, {"is_disabled": 0, "rental_uris": {"android": "https://dc.lft.to/lastmile_qr_scan", "ios": "https://dc.lft.to/lastmile_qr_scan"}, "is_reserved": 0, "name": "9f2cbda49b4870c86c1f5ccc89362b39", "lon": -77.01004633333334, "type": "electric_scooter", "bike_id": "9f2cbda49b4870c86c1f5ccc89362b39", "fusion_lon": 0.0, "lat": 38.87968583333333, "fusion_lat": 0.0}, {"is_disabled": 0, "rental_uris": {"android": "https://dc.lft.to/lastmile_qr_scan", "ios": "https://dc.lft.to/lastmile_qr_scan"}, "is_reserved": 0, "name": "87254e2fc6b6e9e6a514610cae2e6ceb", "lon": -76.99485283333334, "type": "electric_scooter", "bike_id": "87254e2fc6b6e9e6a514610cae2e6ceb", "fusion_lon": 0.0, "lat": 38.932257, "fusion_lat": 0.0}, {"is_disabled": 0, "rental_uris": {"android": "https://dc.lft.to/lastmile_qr_scan", "ios": "https://dc.lft.to/lastmile_qr_scan"}, "is_reserved": 0, "name": "f3a0793277f9f9351e5d5583e9cbbbdc", "lon": -77.0290965, "type": "electric_scooter", "bike_id": "f3a0793277f9f9351e5d5583e9cbbbdc", "fusion_lon": 0.0, "lat": 38.898238666666664, "fusion_lat": 0.0}, {"is_disabled": 0, "rental_uris": {"android": "https://dc.lft.to/lastmile_qr_scan", "ios": "https://dc.lft.to/lastmile_qr_scan"}, "is_reserved": 0, "name": "b4aca49d6425e423964047c82f0069c1", "lon": -77.02782983333333, "type": "electric_scooter", "bike_id": "b4aca49d6425e423964047c82f0069c1", "fusion_lon": 0.0, "lat": 38.896292833333334, "fusion_lat": 0.0}, {"is_disabled": 0, "rental_uris": {"android": "https://dc.lft.to/lastmile_qr_scan", "ios": "https://dc.lft.to/lastmile_qr_scan"}, "is_reserved": 0, "name": "434f34f6e6e7dcd76aa8a502ba663c07", "lon": -77.05853266666666, "type": "electric_scooter", "bike_id": "434f34f6e6e7dcd76aa8a502ba663c07", "fusion_lon": 0.0, "lat": 38.936992833333335, "fusion_lat": 0.0}, {"is_disabled": 0, "rental_uris": {"android": "https://dc.lft.to/lastmile_qr_scan", "ios": "https://dc.lft.to/lastmile_qr_scan"}, "is_reserved": 0, "name": "59359dc84227cd8ddf3f285dde54d287", "lon": -77.02985616666666, "type": "electric_scooter", "bike_id": "59359dc84227cd8ddf3f285dde54d287", "fusion_lon": 0.0, "lat": 38.924716333333336, "fusion_lat": 0.0}, {"is_disabled": 0, "rental_uris": {"android": "https://dc.lft.to/lastmile_qr_scan", "ios": "https://dc.lft.to/lastmile_qr_scan"}, "is_reserved": 0, "name": "200117c7a02531b2d6d065e5fcfd83ec", "lon": -77.02233233333334, "type": "electric_scooter", "bike_id": "200117c7a02531b2d6d065e5fcfd83ec", "fusion_lon": 0.0, "lat": 38.916666166666666, "fusion_lat": 0.0}, {"is_disabled": 0, "rental_uris": {"android": "https://dc.lft.to/lastmile_qr_scan", "ios": "https://dc.lft.to/lastmile_qr_scan"}, "is_reserved": 0, "name": "1af187c63ba2b601ce454c7325e9821d", "lon": -76.98019083333334, "type": "electric_scooter", "bike_id": "1af187c63ba2b601ce454c7325e9821d", "fusion_lon": 0.0, "lat": 38.86405216666667, "fusion_lat": 0.0}, {"is_disabled": 0, "rental_uris": {"android": "https://dc.lft.to/lastmile_qr_scan", "ios": "https://dc.lft.to/lastmile_qr_scan"}, "is_reserved": 0, "name": "4fa0d84e9fc6ba29e58d6dc7a0c1b87f", "lon": -77.04854783333333, "type": "electric_scooter", "bike_id": "4fa0d84e9fc6ba29e58d6dc7a0c1b87f", "fusion_lon": 0.0, "lat": 38.90429916666667, "fusion_lat": 0.0}, {"is_disabled": 0, "rental_uris": {"android": "https://dc.lft.to/lastmile_qr_scan", "ios": "https://dc.lft.to/lastmile_qr_scan"}, "is_reserved": 0, "name": "259817e6c8e256d2b6711ed3fa9f4ac8", "lon": -77.04487616666667, "type": "electric_scooter", "bike_id": "259817e6c8e256d2b6711ed3fa9f4ac8", "fusion_lon": 0.0, "lat": 38.8975175, "fusion_lat": 0.0}, {"is_disabled": 0, "rental_uris": {"android": "https://dc.lft.to/lastmile_qr_scan", "ios": "https://dc.lft.to/lastmile_qr_scan"}, "is_reserved": 0, "name": "2758ca299161e8dc6d9caf9683fc4992", "lon": -76.99593716666666, "type": "electric_scooter", "bike_id": "2758ca299161e8dc6d9caf9683fc4992", "fusion_lon": 0.0, "lat": 38.887324, "fusion_lat": 0.0}, {"is_disabled": 0, "rental_uris": {"android": "https://dc.lft.to/lastmile_qr_scan", "ios": "https://dc.lft.to/lastmile_qr_scan"}, "is_reserved": 0, "name": "65ddd5bd284782056d2941585bf3b9a0", "lon": -77.077954, "type": "electric_bike", "bike_id": "65ddd5bd284782056d2941585bf3b9a0", "fusion_lon": 0.0, "lat": 38.84518883333333, "fusion_lat": 0.0}, {"is_disabled": 0, "rental_uris": {"android": "https://dc.lft.to/lastmile_qr_scan", "ios": "https://dc.lft.to/lastmile_qr_scan"}, "is_reserved": 0, "name": "aed3b1c2477297dd5ecb11b6949bfb1a", "lon": -77.04615633333333, "type": "electric_scooter", "bike_id": "aed3b1c2477297dd5ecb11b6949bfb1a", "fusion_lon": 0.0, "lat": 38.9046725, "fusion_lat": 0.0}, {"is_disabled": 0, "rental_uris": {"android": "https://dc.lft.to/lastmile_qr_scan", "ios": "https://dc.lft.to/lastmile_qr_scan"}, "is_reserved": 0, "name": "b909fb414281513e430f1160333d890d", "lon": -77.03422566666667, "type": "electric_scooter", "bike_id": "b909fb414281513e430f1160333d890d", "fusion_lon": 0.0, "lat": 38.91927066666667, "fusion_lat": 0.0}, {"is_disabled": 0, "rental_uris": {"android": "https://dc.lft.to/lastmile_qr_scan", "ios": "https://dc.lft.to/lastmile_qr_scan"}, "is_reserved": 0, "name": "b496f300c6c10d89c0f0d089ea1b7e17", "lon": -77.029611, "type": "electric_scooter", "bike_id": "b496f300c6c10d89c0f0d089ea1b7e17", "fusion_lon": 0.0, "lat": 38.9214085, "fusion_lat": 0.0}, {"is_disabled": 0, "rental_uris": {"android": "https://dc.lft.to/lastmile_qr_scan", "ios": "https://dc.lft.to/lastmile_qr_scan"}, "is_reserved": 0, "name": "b61b223d2247c580dede12d74f06477a", "lon": -77.02491816666667, "type": "electric_scooter", "bike_id": "b61b223d2247c580dede12d74f06477a", "fusion_lon": 0.0, "lat": 38.94184216666667, "fusion_lat": 0.0}, {"is_disabled": 0, "rental_uris": {"android": "https://dc.lft.to/lastmile_qr_scan", "ios": "https://dc.lft.to/lastmile_qr_scan"}, "is_reserved": 0, "name": "e3793f51fbb43bf84b0934e03a5f21a6", "lon": -77.04173783333333, "type": "electric_scooter", "bike_id": "e3793f51fbb43bf84b0934e03a5f21a6", "fusion_lon": 0.0, "lat": 38.916162666666665, "fusion_lat": 0.0}, {"is_disabled": 0, "rental_uris": {"android": "https://dc.lft.to/lastmile_qr_scan", "ios": "https://dc.lft.to/lastmile_qr_scan"}, "is_reserved": 0, "name": "251212d419733bf678bffb590cbedd81", "lon": -76.97318816666666, "type": "electric_scooter", "bike_id": "251212d419733bf678bffb590cbedd81", "fusion_lon": 0.0, "lat": 38.9198435, "fusion_lat": 0.0}, {"is_disabled": 0, "rental_uris": {"android": "https://dc.lft.to/lastmile_qr_scan", "ios": "https://dc.lft.to/lastmile_qr_scan"}, "is_reserved": 0, "name": "56f2c143042c4f0186334cedaff78aaf", "lon": -77.07279383333334, "type": "electric_scooter", "bike_id": "56f2c143042c4f0186334cedaff78aaf", "fusion_lon": 0.0, "lat": 38.93183833333333, "fusion_lat": 0.0}, {"is_disabled": 0, "rental_uris": {"android": "https://dc.lft.to/lastmile_qr_scan", "ios": "https://dc.lft.to/lastmile_qr_scan"}, "is_reserved": 0, "name": "53be04dd27f5e94eae0809bd62e53f9d", "lon": -77.024056, "type": "electric_scooter", "bike_id": "53be04dd27f5e94eae0809bd62e53f9d", "fusion_lon": 0.0, "lat": 38.91568, "fusion_lat": 0.0}, {"is_disabled": 0, "rental_uris": {"android": "https://dc.lft.to/lastmile_qr_scan", "ios": "https://dc.lft.to/lastmile_qr_scan"}, "is_reserved": 0, "name": "6bea87287521ff11133492599887574e", "lon": -76.99686833333334, "type": "electric_scooter", "bike_id": "6bea87287521ff11133492599887574e", "fusion_lon": 0.0, "lat": 38.900491333333335, "fusion_lat": 0.0}, {"is_disabled": 0, "rental_uris": {"android": "https://dc.lft.to/lastmile_qr_scan", "ios": "https://dc.lft.to/lastmile_qr_scan"}, "is_reserved": 0, "name": "0a3739eca0e689fea43265e12849b37a", "lon": -77.02996516666667, "type": "electric_scooter", "bike_id": "0a3739eca0e689fea43265e12849b37a", "fusion_lon": 0.0, "lat": 38.9247565, "fusion_lat": 0.0}, {"is_disabled": 0, "rental_uris": {"android": "https://dc.lft.to/lastmile_qr_scan", "ios": "https://dc.lft.to/lastmile_qr_scan"}, "is_reserved": 0, "name": "da743904ca3bb8471a81993fef4a3770", "lon": -77.05109466666667, "type": "electric_scooter", "bike_id": "da743904ca3bb8471a81993fef4a3770", "fusion_lon": 0.0, "lat": 38.923625333333334, "fusion_lat": 0.0}, {"is_disabled": 0, "rental_uris": {"android": "https://dc.lft.to/lastmile_qr_scan", "ios": "https://dc.lft.to/lastmile_qr_scan"}, "is_reserved": 0, "name": "cfd158f6e21e0870fe031d07fd84dbd8", "lon": -77.01412783333333, "type": "electric_scooter", "bike_id": "cfd158f6e21e0870fe031d07fd84dbd8", "fusion_lon": 0.0, "lat": 38.928618166666666, "fusion_lat": 0.0}, {"is_disabled": 0, "rental_uris": {"android": "https://dc.lft.to/lastmile_qr_scan", "ios": "https://dc.lft.to/lastmile_qr_scan"}, "is_reserved": 0, "name": "b6bb4b5a744a7027e26d71a3231bd40f", "lon": -77.00329566666667, "type": "electric_scooter", "bike_id": "b6bb4b5a744a7027e26d71a3231bd40f", "fusion_lon": 0.0, "lat": 38.893538166666666, "fusion_lat": 0.0}, {"is_disabled": 0, "rental_uris": {"android": "https://dc.lft.to/lastmile_qr_scan", "ios": "https://dc.lft.to/lastmile_qr_scan"}, "is_reserved": 0, "name": "688b329d5df58465c8206995f03aa781", "lon": -77.0059655, "type": "electric_scooter", "bike_id": "688b329d5df58465c8206995f03aa781", "fusion_lon": 0.0, "lat": 38.905549666666666, "fusion_lat": 0.0}, {"is_disabled": 0, "rental_uris": {"android": "https://dc.lft.to/lastmile_qr_scan", "ios": "https://dc.lft.to/lastmile_qr_scan"}, "is_reserved": 0, "name": "61e9833c562531337607acd807078b02", "lon": -77.00828233333333, "type": "electric_scooter", "bike_id": "61e9833c562531337607acd807078b02", "fusion_lon": 0.0, "lat": 38.91266816666667, "fusion_lat": 0.0}, {"is_disabled": 0, "rental_uris": {"android": "https://dc.lft.to/lastmile_qr_scan", "ios": "https://dc.lft.to/lastmile_qr_scan"}, "is_reserved": 0, "name": "9124853531f07e34cbe72361756c7c8e", "lon": -76.889036, "type": "electric_bike", "bike_id": "9124853531f07e34cbe72361756c7c8e", "fusion_lon": 0.0, "lat": 38.925900166666665, "fusion_lat": 0.0}, {"is_disabled": 0, "rental_uris": {"android": "https://dc.lft.to/lastmile_qr_scan", "ios": "https://dc.lft.to/lastmile_qr_scan"}, "is_reserved": 0, "name": "7b31187299e1dca79ec1d36af7b46188", "lon": -77.0383085, "type": "electric_scooter", "bike_id": "7b31187299e1dca79ec1d36af7b46188", "fusion_lon": 0.0, "lat": 38.9032535, "fusion_lat": 0.0}, {"is_disabled": 0, "rental_uris": {"android": "https://dc.lft.to/lastmile_qr_scan", "ios": "https://dc.lft.to/lastmile_qr_scan"}, "is_reserved": 0, "name": "8f3679c1e8b05a58d8654759c0330d75", "lon": -77.05419916666666, "type": "electric_scooter", "bike_id": "8f3679c1e8b05a58d8654759c0330d75", "fusion_lon": 0.0, "lat": 38.8991865, "fusion_lat": 0.0}, {"is_disabled": 0, "rental_uris": {"android": "https://dc.lft.to/lastmile_qr_scan", "ios": "https://dc.lft.to/lastmile_qr_scan"}, "is_reserved": 0, "name": "1f6dd60d2bff369a30c22c58a2a8bb6c", "lon": -76.95218983333334, "type": "electric_bike", "bike_id": "1f6dd60d2bff369a30c22c58a2a8bb6c", "fusion_lon": 0.0, "lat": 38.89235566666667, "fusion_lat": 0.0}, {"is_disabled": 0, "rental_uris": {"android": "https://dc.lft.to/lastmile_qr_scan", "ios": "https://dc.lft.to/lastmile_qr_scan"}, "is_reserved": 0, "name": "de68c95be58e9f3efc09a495847e9398", "lon": -77.0208665, "type": "electric_scooter", "bike_id": "de68c95be58e9f3efc09a495847e9398", "fusion_lon": 0.0, "lat": 38.930101, "fusion_lat": 0.0}, {"is_disabled": 0, "rental_uris": {"android": "https://dc.lft.to/lastmile_qr_scan", "ios": "https://dc.lft.to/lastmile_qr_scan"}, "is_reserved": 0, "name": "aabf721c308024965629d15a8c1a8ffb", "lon": -77.05169683333334, "type": "electric_scooter", "bike_id": "aabf721c308024965629d15a8c1a8ffb", "fusion_lon": 0.0, "lat": 38.90582833333333, "fusion_lat": 0.0}, {"is_disabled": 0, "rental_uris": {"android": "https://dc.lft.to/lastmile_qr_scan", "ios": "https://dc.lft.to/lastmile_qr_scan"}, "is_reserved": 0, "name": "2f78dbdaee24ad2b999a1a0de69b42e6", "lon": -77.05187083333334, "type": "electric_scooter", "bike_id": "2f78dbdaee24ad2b999a1a0de69b42e6", "fusion_lon": 0.0, "lat": 38.925400333333336, "fusion_lat": 0.0}, {"is_disabled": 0, "rental_uris": {"android": "https://dc.lft.to/lastmile_qr_scan", "ios": "https://dc.lft.to/lastmile_qr_scan"}, "is_reserved": 0, "name": "3ddc20144c573d5adeadf22aee4aefef", "lon": -77.03882216666666, "type": "electric_scooter", "bike_id": "3ddc20144c573d5adeadf22aee4aefef", "fusion_lon": 0.0, "lat": 38.9126755, "fusion_lat": 0.0}, {"is_disabled": 0, "rental_uris": {"android": "https://dc.lft.to/lastmile_qr_scan", "ios": "https://dc.lft.to/lastmile_qr_scan"}, "is_reserved": 0, "name": "56748397b39d99202d40fa907d851191", "lon": -77.01027083333334, "type": "electric_scooter", "bike_id": "56748397b39d99202d40fa907d851191", "fusion_lon": 0.0, "lat": 38.91117366666667, "fusion_lat": 0.0}, {"is_disabled": 0, "rental_uris": {"android": "https://dc.lft.to/lastmile_qr_scan", "ios": "https://dc.lft.to/lastmile_qr_scan"}, "is_reserved": 0, "name": "083242d7d9e9bc80cab0e805b8b00d92", "lon": -77.06530333333333, "type": "electric_scooter", "bike_id": "083242d7d9e9bc80cab0e805b8b00d92", "fusion_lon": 0.0, "lat": 38.90518383333333, "fusion_lat": 0.0}, {"is_disabled": 0, "rental_uris": {"android": "https://dc.lft.to/lastmile_qr_scan", "ios": "https://dc.lft.to/lastmile_qr_scan"}, "is_reserved": 0, "name": "8664ffae06475552a66c0f6aff9472b8", "lon": -77.08049433333333, "type": "electric_bike", "bike_id": "8664ffae06475552a66c0f6aff9472b8", "fusion_lon": 0.0, "lat": 38.848455333333334, "fusion_lat": 0.0}, {"is_disabled": 0, "rental_uris": {"android": "https://dc.lft.to/lastmile_qr_scan", "ios": "https://dc.lft.to/lastmile_qr_scan"}, "is_reserved": 0, "name": "797b249c53d203b2e398d58f3c1ee89c", "lon": -77.0435025, "type": "electric_scooter", "bike_id": "797b249c53d203b2e398d58f3c1ee89c", "fusion_lon": 0.0, "lat": 38.91127633333333, "fusion_lat": 0.0}, {"is_disabled": 0, "rental_uris": {"android": "https://dc.lft.to/lastmile_qr_scan", "ios": "https://dc.lft.to/lastmile_qr_scan"}, "is_reserved": 0, "name": "3935974efe20ed95b20c225973490808", "lon": -76.966884, "type": "electric_bike", "bike_id": "3935974efe20ed95b20c225973490808", "fusion_lon": 0.0, "lat": 38.95883116666667, "fusion_lat": 0.0}, {"is_disabled": 0, "rental_uris": {"android": "https://dc.lft.to/lastmile_qr_scan", "ios": "https://dc.lft.to/lastmile_qr_scan"}, "is_reserved": 0, "name": "eac92161dd8e9b848776f20806c67fe0", "lon": -77.054073, "type": "electric_scooter", "bike_id": "eac92161dd8e9b848776f20806c67fe0", "fusion_lon": 0.0, "lat": 38.928302, "fusion_lat": 0.0}, {"is_disabled": 0, "rental_uris": {"android": "https://dc.lft.to/lastmile_qr_scan", "ios": "https://dc.lft.to/lastmile_qr_scan"}, "is_reserved": 0, "name": "41d6f7c9d58b08b8ef09f7d937692acd", "lon": -77.0342445, "type": "electric_scooter", "bike_id": "41d6f7c9d58b08b8ef09f7d937692acd", "fusion_lon": 0.0, "lat": 38.919248, "fusion_lat": 0.0}, {"is_disabled": 0, "rental_uris": {"android": "https://dc.lft.to/lastmile_qr_scan", "ios": "https://dc.lft.to/lastmile_qr_scan"}, "is_reserved": 0, "name": "e8b22acda74d59ebaa9582d8a13e1ac4", "lon": -77.03159766666667, "type": "electric_scooter", "bike_id": "e8b22acda74d59ebaa9582d8a13e1ac4", "fusion_lon": 0.0, "lat": 38.916293, "fusion_lat": 0.0}, {"is_disabled": 0, "rental_uris": {"android": "https://dc.lft.to/lastmile_qr_scan", "ios": "https://dc.lft.to/lastmile_qr_scan"}, "is_reserved": 0, "name": "73888649ccc6e9ca62fa69cf92720048", "lon": -76.957545, "type": "electric_scooter", "bike_id": "73888649ccc6e9ca62fa69cf92720048", "fusion_lon": 0.0, "lat": 38.8842955, "fusion_lat": 0.0}, {"is_disabled": 0, "rental_uris": {"android": "https://dc.lft.to/lastmile_qr_scan", "ios": "https://dc.lft.to/lastmile_qr_scan"}, "is_reserved": 0, "name": "dda9e1eff7950819014e1058d013953b", "lon": -77.02222416666666, "type": "electric_scooter", "bike_id": "dda9e1eff7950819014e1058d013953b", "fusion_lon": 0.0, "lat": 38.88743266666667, "fusion_lat": 0.0}, {"is_disabled": 0, "rental_uris": {"android": "https://dc.lft.to/lastmile_qr_scan", "ios": "https://dc.lft.to/lastmile_qr_scan"}, "is_reserved": 0, "name": "0c23194a4991cca0e709587c517eeac6", "lon": -77.01893833333334, "type": "electric_scooter", "bike_id": "0c23194a4991cca0e709587c517eeac6", "fusion_lon": 0.0, "lat": 38.91140033333333, "fusion_lat": 0.0}, {"is_disabled": 0, "rental_uris": {"android": "https://dc.lft.to/lastmile_qr_scan", "ios": "https://dc.lft.to/lastmile_qr_scan"}, "is_reserved": 0, "name": "d21ff4d3c9146b08aef7870ebc062960", "lon": -77.0479325, "type": "electric_scooter", "bike_id": "d21ff4d3c9146b08aef7870ebc062960", "fusion_lon": 0.0, "lat": 38.8902345, "fusion_lat": 0.0}, {"is_disabled": 0, "rental_uris": {"android": "https://dc.lft.to/lastmile_qr_scan", "ios": "https://dc.lft.to/lastmile_qr_scan"}, "is_reserved": 0, "name": "f9bdf4e6a0a2dc122d8cd8f0c486bfc1", "lon": -76.94998533333333, "type": "electric_scooter", "bike_id": "f9bdf4e6a0a2dc122d8cd8f0c486bfc1", "fusion_lon": 0.0, "lat": 38.893897333333335, "fusion_lat": 0.0}, {"is_disabled": 0, "rental_uris": {"android": "https://dc.lft.to/lastmile_qr_scan", "ios": "https://dc.lft.to/lastmile_qr_scan"}, "is_reserved": 0, "name": "5d32d80a53c929b71bf5e8c7c7c58937", "lon": -77.03466, "type": "electric_scooter", "bike_id": "5d32d80a53c929b71bf5e8c7c7c58937", "fusion_lon": 0.0, "lat": 38.909778, "fusion_lat": 0.0}, {"is_disabled": 0, "rental_uris": {"android": "https://dc.lft.to/lastmile_qr_scan", "ios": "https://dc.lft.to/lastmile_qr_scan"}, "is_reserved": 0, "name": "a3d66f7d392a17dde42303b78f063841", "lon": -77.0459515, "type": "electric_scooter", "bike_id": "a3d66f7d392a17dde42303b78f063841", "fusion_lon": 0.0, "lat": 38.917137333333336, "fusion_lat": 0.0}, {"is_disabled": 0, "rental_uris": {"android": "https://dc.lft.to/lastmile_qr_scan", "ios": "https://dc.lft.to/lastmile_qr_scan"}, "is_reserved": 0, "name": "782730ddc7223c1e9b2f7d50d71ffe0f", "lon": -77.00339366666667, "type": "electric_scooter", "bike_id": "782730ddc7223c1e9b2f7d50d71ffe0f", "fusion_lon": 0.0, "lat": 38.89356466666667, "fusion_lat": 0.0}, {"is_disabled": 0, "rental_uris": {"android": "https://dc.lft.to/lastmile_qr_scan", "ios": "https://dc.lft.to/lastmile_qr_scan"}, "is_reserved": 0, "name": "74eb2bb5df082b7697153cfc8e2f5ab3", "lon": -77.04654733333334, "type": "electric_scooter", "bike_id": "74eb2bb5df082b7697153cfc8e2f5ab3", "fusion_lon": 0.0, "lat": 38.89338766666667, "fusion_lat": 0.0}, {"is_disabled": 0, "rental_uris": {"android": "https://dc.lft.to/lastmile_qr_scan", "ios": "https://dc.lft.to/lastmile_qr_scan"}, "is_reserved": 0, "name": "bab90e0d5e58ec3858df13857f2d25fd", "lon": -76.9949815, "type": "electric_scooter", "bike_id": "bab90e0d5e58ec3858df13857f2d25fd", "fusion_lon": 0.0, "lat": 38.86243133333333, "fusion_lat": 0.0}, {"is_disabled": 0, "rental_uris": {"android": "https://dc.lft.to/lastmile_qr_scan", "ios": "https://dc.lft.to/lastmile_qr_scan"}, "is_reserved": 0, "name": "176343786607d50f2d39957f0e45493b", "lon": -77.04480233333334, "type": "electric_scooter", "bike_id": "176343786607d50f2d39957f0e45493b", "fusion_lon": 0.0, "lat": 38.90851933333333, "fusion_lat": 0.0}, {"is_disabled": 0, "rental_uris": {"android": "https://dc.lft.to/lastmile_qr_scan", "ios": "https://dc.lft.to/lastmile_qr_scan"}, "is_reserved": 0, "name": "8200ad56c89565e7f715d563cefe692a", "lon": -77.01992133333333, "type": "electric_scooter", "bike_id": "8200ad56c89565e7f715d563cefe692a", "fusion_lon": 0.0, "lat": 38.87575116666667, "fusion_lat": 0.0}, {"is_disabled": 0, "rental_uris": {"android": "https://dc.lft.to/lastmile_qr_scan", "ios": "https://dc.lft.to/lastmile_qr_scan"}, "is_reserved": 0, "name": "2b8aac80b8cbfb27b66c2088d22c1621", "lon": -77.03177966666667, "type": "electric_scooter", "bike_id": "2b8aac80b8cbfb27b66c2088d22c1621", "fusion_lon": 0.0, "lat": 38.8923245, "fusion_lat": 0.0}, {"is_disabled": 0, "rental_uris": {"android": "https://dc.lft.to/lastmile_qr_scan", "ios": "https://dc.lft.to/lastmile_qr_scan"}, "is_reserved": 0, "name": "61abc4f8267c84368a4326a57277c631", "lon": -77.05003916666666, "type": "electric_scooter", "bike_id": "61abc4f8267c84368a4326a57277c631", "fusion_lon": 0.0, "lat": 38.90540266666667, "fusion_lat": 0.0}, {"is_disabled": 0, "rental_uris": {"android": "https://dc.lft.to/lastmile_qr_scan", "ios": "https://dc.lft.to/lastmile_qr_scan"}, "is_reserved": 0, "name": "d4d5e67dbf5e90e20794b5df1fd3b256", "lon": -77.0306365, "type": "electric_scooter", "bike_id": "d4d5e67dbf5e90e20794b5df1fd3b256", "fusion_lon": 0.0, "lat": 38.939776, "fusion_lat": 0.0}, {"is_disabled": 0, "rental_uris": {"android": "https://dc.lft.to/lastmile_qr_scan", "ios": "https://dc.lft.to/lastmile_qr_scan"}, "is_reserved": 0, "name": "ce26c1550277774bb936fd5489456a9c", "lon": -77.01363633333334, "type": "electric_scooter", "bike_id": "ce26c1550277774bb936fd5489456a9c", "fusion_lon": 0.0, "lat": 38.87901983333333, "fusion_lat": 0.0}, {"is_disabled": 0, "rental_uris": {"android": "https://dc.lft.to/lastmile_qr_scan", "ios": "https://dc.lft.to/lastmile_qr_scan"}, "is_reserved": 0, "name": "4fc70d561c273a21476983b8e3ba5605", "lon": -77.0272165, "type": "electric_scooter", "bike_id": "4fc70d561c273a21476983b8e3ba5605", "fusion_lon": 0.0, "lat": 38.90856466666666, "fusion_lat": 0.0}, {"is_disabled": 0, "rental_uris": {"android": "https://dc.lft.to/lastmile_qr_scan", "ios": "https://dc.lft.to/lastmile_qr_scan"}, "is_reserved": 0, "name": "d1479194a514cec7a986f24b41f53b8e", "lon": -77.021684, "type": "electric_scooter", "bike_id": "d1479194a514cec7a986f24b41f53b8e", "fusion_lon": 0.0, "lat": 38.942943666666665, "fusion_lat": 0.0}, {"is_disabled": 0, "rental_uris": {"android": "https://dc.lft.to/lastmile_qr_scan", "ios": "https://dc.lft.to/lastmile_qr_scan"}, "is_reserved": 0, "name": "7c5b0c9f9080b6f210a3b325b9985525", "lon": -76.98466016666667, "type": "electric_scooter", "bike_id": "7c5b0c9f9080b6f210a3b325b9985525", "fusion_lon": 0.0, "lat": 38.879827666666664, "fusion_lat": 0.0}, {"is_disabled": 0, "rental_uris": {"android": "https://dc.lft.to/lastmile_qr_scan", "ios": "https://dc.lft.to/lastmile_qr_scan"}, "is_reserved": 0, "name": "22447c8fae10e9447d850d8856eb0d6f", "lon": -77.0020115, "type": "electric_scooter", "bike_id": "22447c8fae10e9447d850d8856eb0d6f", "fusion_lon": 0.0, "lat": 38.90241066666667, "fusion_lat": 0.0}, {"is_disabled": 0, "rental_uris": {"android": "https://dc.lft.to/lastmile_qr_scan", "ios": "https://dc.lft.to/lastmile_qr_scan"}, "is_reserved": 0, "name": "9bdbac3d7663439003bce45f621ae0cb", "lon": -77.06986333333333, "type": "electric_scooter", "bike_id": "9bdbac3d7663439003bce45f621ae0cb", "fusion_lon": 0.0, "lat": 38.94692533333333, "fusion_lat": 0.0}, {"is_disabled": 0, "rental_uris": {"android": "https://dc.lft.to/lastmile_qr_scan", "ios": "https://dc.lft.to/lastmile_qr_scan"}, "is_reserved": 0, "name": "c717a80ce1334505626b99fe0bc0e231", "lon": -77.04332916666667, "type": "electric_scooter", "bike_id": "c717a80ce1334505626b99fe0bc0e231", "fusion_lon": 0.0, "lat": 38.915386833333336, "fusion_lat": 0.0}, {"is_disabled": 0, "rental_uris": {"android": "https://dc.lft.to/lastmile_qr_scan", "ios": "https://dc.lft.to/lastmile_qr_scan"}, "is_reserved": 0, "name": "dbca8e5a51c32ccbfe10f3be1cb8816a", "lon": -77.03055366666666, "type": "electric_scooter", "bike_id": "dbca8e5a51c32ccbfe10f3be1cb8816a", "fusion_lon": 0.0, "lat": 38.939795, "fusion_lat": 0.0}, {"is_disabled": 0, "rental_uris": {"android": "https://dc.lft.to/lastmile_qr_scan", "ios": "https://dc.lft.to/lastmile_qr_scan"}, "is_reserved": 0, "name": "30822eed069db2cbaba88dc49d9f10f2", "lon": -76.9939355, "type": "electric_scooter", "bike_id": "30822eed069db2cbaba88dc49d9f10f2", "fusion_lon": 0.0, "lat": 38.92162233333333, "fusion_lat": 0.0}, {"is_disabled": 0, "rental_uris": {"android": "https://dc.lft.to/lastmile_qr_scan", "ios": "https://dc.lft.to/lastmile_qr_scan"}, "is_reserved": 0, "name": "b14f7e525233cd22cc5c3e789549810a", "lon": -76.98602666666666, "type": "electric_scooter", "bike_id": "b14f7e525233cd22cc5c3e789549810a", "fusion_lon": 0.0, "lat": 38.9066005, "fusion_lat": 0.0}, {"is_disabled": 0, "rental_uris": {"android": "https://dc.lft.to/lastmile_qr_scan", "ios": "https://dc.lft.to/lastmile_qr_scan"}, "is_reserved": 0, "name": "5b1d05d7494a9cf7ff1cb6e0f8dd0de3", "lon": -76.9804535, "type": "electric_bike", "bike_id": "5b1d05d7494a9cf7ff1cb6e0f8dd0de3", "fusion_lon": 0.0, "lat": 38.90087316666666, "fusion_lat": 0.0}, {"is_disabled": 0, "rental_uris": {"android": "https://dc.lft.to/lastmile_qr_scan", "ios": "https://dc.lft.to/lastmile_qr_scan"}, "is_reserved": 0, "name": "763346fff4d2c806fde80d64d82c20d5", "lon": -77.03792166666666, "type": "electric_scooter", "bike_id": "763346fff4d2c806fde80d64d82c20d5", "fusion_lon": 0.0, "lat": 38.926315833333334, "fusion_lat": 0.0}, {"is_disabled": 0, "rental_uris": {"android": "https://dc.lft.to/lastmile_qr_scan", "ios": "https://dc.lft.to/lastmile_qr_scan"}, "is_reserved": 0, "name": "50318aaf0b0f213c7eb75622cf27a3a5", "lon": -77.0437855, "type": "electric_scooter", "bike_id": "50318aaf0b0f213c7eb75622cf27a3a5", "fusion_lon": 0.0, "lat": 38.90262283333333, "fusion_lat": 0.0}, {"is_disabled": 0, "rental_uris": {"android": "https://dc.lft.to/lastmile_qr_scan", "ios": "https://dc.lft.to/lastmile_qr_scan"}, "is_reserved": 0, "name": "c60d653bf0c5d8a07bd8129f70df78c7", "lon": -77.36090016666667, "type": "electric_bike", "bike_id": "c60d653bf0c5d8a07bd8129f70df78c7", "fusion_lon": 0.0, "lat": 38.939604833333334, "fusion_lat": 0.0}, {"is_disabled": 0, "rental_uris": {"android": "https://dc.lft.to/lastmile_qr_scan", "ios": "https://dc.lft.to/lastmile_qr_scan"}, "is_reserved": 0, "name": "b85c4010ff1c74b637ba3041c8d159ba", "lon": -76.97992766666667, "type": "electric_bike", "bike_id": "b85c4010ff1c74b637ba3041c8d159ba", "fusion_lon": 0.0, "lat": 38.87758016666667, "fusion_lat": 0.0}, {"is_disabled": 0, "rental_uris": {"android": "https://dc.lft.to/lastmile_qr_scan", "ios": "https://dc.lft.to/lastmile_qr_scan"}, "is_reserved": 0, "name": "411985dc35bed590cc6cd7b1154cc41b", "lon": -77.03169083333333, "type": "electric_scooter", "bike_id": "411985dc35bed590cc6cd7b1154cc41b", "fusion_lon": 0.0, "lat": 38.8978285, "fusion_lat": 0.0}, {"is_disabled": 0, "rental_uris": {"android": "https://dc.lft.to/lastmile_qr_scan", "ios": "https://dc.lft.to/lastmile_qr_scan"}, "is_reserved": 0, "name": "5b0ac2ed3fddd079d3bad8c08b65fe0c", "lon": -77.04678283333334, "type": "electric_scooter", "bike_id": "5b0ac2ed3fddd079d3bad8c08b65fe0c", "fusion_lon": 0.0, "lat": 38.89732033333333, "fusion_lat": 0.0}, {"is_disabled": 0, "rental_uris": {"android": "https://dc.lft.to/lastmile_qr_scan", "ios": "https://dc.lft.to/lastmile_qr_scan"}, "is_reserved": 0, "name": "a8fb51650afc89071515886a49dd5cd0", "lon": -77.03131833333333, "type": "electric_scooter", "bike_id": "a8fb51650afc89071515886a49dd5cd0", "fusion_lon": 0.0, "lat": 38.918220166666664, "fusion_lat": 0.0}, {"is_disabled": 0, "rental_uris": {"android": "https://dc.lft.to/lastmile_qr_scan", "ios": "https://dc.lft.to/lastmile_qr_scan"}, "is_reserved": 0, "name": "6907460b1f72c23a03da889fc176e1be", "lon": -77.022254, "type": "electric_scooter", "bike_id": "6907460b1f72c23a03da889fc176e1be", "fusion_lon": 0.0, "lat": 38.912664666666664, "fusion_lat": 0.0}, {"is_disabled": 0, "rental_uris": {"android": "https://dc.lft.to/lastmile_qr_scan", "ios": "https://dc.lft.to/lastmile_qr_scan"}, "is_reserved": 0, "name": "b3379e0368ce3e51d33b2389c67a4ba8", "lon": -77.0486145, "type": "electric_scooter", "bike_id": "b3379e0368ce3e51d33b2389c67a4ba8", "fusion_lon": 0.0, "lat": 38.913429666666666, "fusion_lat": 0.0}, {"is_disabled": 0, "rental_uris": {"android": "https://dc.lft.to/lastmile_qr_scan", "ios": "https://dc.lft.to/lastmile_qr_scan"}, "is_reserved": 0, "name": "6ccd7c0987ecb583cf1ea8113386ddae", "lon": -77.00619666666667, "type": "electric_scooter", "bike_id": "6ccd7c0987ecb583cf1ea8113386ddae", "fusion_lon": 0.0, "lat": 38.871935666666666, "fusion_lat": 0.0}, {"is_disabled": 0, "rental_uris": {"android": "https://dc.lft.to/lastmile_qr_scan", "ios": "https://dc.lft.to/lastmile_qr_scan"}, "is_reserved": 0, "name": "1e34a88b3a35146bcd2c5acf8c1a3026", "lon": -77.03181833333333, "type": "electric_scooter", "bike_id": "1e34a88b3a35146bcd2c5acf8c1a3026", "fusion_lon": 0.0, "lat": 38.914706333333335, "fusion_lat": 0.0}, {"is_disabled": 0, "rental_uris": {"android": "https://dc.lft.to/lastmile_qr_scan", "ios": "https://dc.lft.to/lastmile_qr_scan"}, "is_reserved": 0, "name": "e9f79d61231270b4b774abf79aee06a8", "lon": -77.0420345, "type": "electric_scooter", "bike_id": "e9f79d61231270b4b774abf79aee06a8", "fusion_lon": 0.0, "lat": 38.91126216666667, "fusion_lat": 0.0}, {"is_disabled": 0, "rental_uris": {"android": "https://dc.lft.to/lastmile_qr_scan", "ios": "https://dc.lft.to/lastmile_qr_scan"}, "is_reserved": 0, "name": "69bdfdcffbed5e39f8ce81daa9ee0adc", "lon": -77.122561, "type": "electric_bike", "bike_id": "69bdfdcffbed5e39f8ce81daa9ee0adc", "fusion_lon": 0.0, "lat": 38.8876985, "fusion_lat": 0.0}, {"is_disabled": 0, "rental_uris": {"android": "https://dc.lft.to/lastmile_qr_scan", "ios": "https://dc.lft.to/lastmile_qr_scan"}, "is_reserved": 0, "name": "58eda923b50f8850ab89b91dee0807de", "lon": -77.07684816666666, "type": "electric_bike", "bike_id": "58eda923b50f8850ab89b91dee0807de", "fusion_lon": 0.0, "lat": 38.831928166666664, "fusion_lat": 0.0}, {"is_disabled": 0, "rental_uris": {"android": "https://dc.lft.to/lastmile_qr_scan", "ios": "https://dc.lft.to/lastmile_qr_scan"}, "is_reserved": 0, "name": "af8eb392e34e55b58414a18d35f6a987", "lon": -76.93542166666667, "type": "electric_bike", "bike_id": "af8eb392e34e55b58414a18d35f6a987", "fusion_lon": 0.0, "lat": 38.95561683333333, "fusion_lat": 0.0}, {"is_disabled": 0, "rental_uris": {"android": "https://dc.lft.to/lastmile_qr_scan", "ios": "https://dc.lft.to/lastmile_qr_scan"}, "is_reserved": 0, "name": "0c5b3623356489d6451d23011df0033d", "lon": -77.112214, "type": "electric_bike", "bike_id": "0c5b3623356489d6451d23011df0033d", "fusion_lon": 0.0, "lat": 38.82881483333333, "fusion_lat": 0.0}, {"is_disabled": 0, "rental_uris": {"android": "https://dc.lft.to/lastmile_qr_scan", "ios": "https://dc.lft.to/lastmile_qr_scan"}, "is_reserved": 0, "name": "c1e1eb8eb6664561ac3efee4b8966748", "lon": -77.07845066666667, "type": "electric_scooter", "bike_id": "c1e1eb8eb6664561ac3efee4b8966748", "fusion_lon": 0.0, "lat": 38.931514666666665, "fusion_lat": 0.0}, {"is_disabled": 0, "rental_uris": {"android": "https://dc.lft.to/lastmile_qr_scan", "ios": "https://dc.lft.to/lastmile_qr_scan"}, "is_reserved": 0, "name": "8293ebf65c3420189705edca3da19ba9", "lon": -77.01094666666667, "type": "electric_scooter", "bike_id": "8293ebf65c3420189705edca3da19ba9", "fusion_lon": 0.0, "lat": 38.905592166666665, "fusion_lat": 0.0}, {"is_disabled": 0, "rental_uris": {"android": "https://dc.lft.to/lastmile_qr_scan", "ios": "https://dc.lft.to/lastmile_qr_scan"}, "is_reserved": 0, "name": "090518c7229bf81518a19a4af797669e", "lon": -77.033458, "type": "electric_scooter", "bike_id": "090518c7229bf81518a19a4af797669e", "fusion_lon": 0.0, "lat": 38.892511166666665, "fusion_lat": 0.0}, {"is_disabled": 0, "rental_uris": {"android": "https://dc.lft.to/lastmile_qr_scan", "ios": "https://dc.lft.to/lastmile_qr_scan"}, "is_reserved": 0, "name": "03ea10ec52dd7ed8f18fb8e9090beb79", "lon": -77.01964283333334, "type": "electric_scooter", "bike_id": "03ea10ec52dd7ed8f18fb8e9090beb79", "fusion_lon": 0.0, "lat": 38.896325166666664, "fusion_lat": 0.0}, {"is_disabled": 0, "rental_uris": {"android": "https://dc.lft.to/lastmile_qr_scan", "ios": "https://dc.lft.to/lastmile_qr_scan"}, "is_reserved": 0, "name": "1ca262d655e7bf46fce9eb7da93ffb82", "lon": -77.085267, "type": "electric_bike", "bike_id": "1ca262d655e7bf46fce9eb7da93ffb82", "fusion_lon": 0.0, "lat": 38.856472333333336, "fusion_lat": 0.0}, {"is_disabled": 0, "rental_uris": {"android": "https://dc.lft.to/lastmile_qr_scan", "ios": "https://dc.lft.to/lastmile_qr_scan"}, "is_reserved": 0, "name": "be5d8cdb545a451356838fd2dbd9d017", "lon": -76.93346433333333, "type": "electric_scooter", "bike_id": "be5d8cdb545a451356838fd2dbd9d017", "fusion_lon": 0.0, "lat": 38.89908116666667, "fusion_lat": 0.0}, {"is_disabled": 0, "rental_uris": {"android": "https://dc.lft.to/lastmile_qr_scan", "ios": "https://dc.lft.to/lastmile_qr_scan"}, "is_reserved": 0, "name": "b745255f9b422ff750768dc1e53955d1", "lon": -76.96526583333333, "type": "electric_scooter", "bike_id": "b745255f9b422ff750768dc1e53955d1", "fusion_lon": 0.0, "lat": 38.8762885, "fusion_lat": 0.0}, {"is_disabled": 0, "rental_uris": {"android": "https://dc.lft.to/lastmile_qr_scan", "ios": "https://dc.lft.to/lastmile_qr_scan"}, "is_reserved": 0, "name": "63a246b5bd30fbbce68e7b30bc79932f", "lon": -77.0111065, "type": "electric_scooter", "bike_id": "63a246b5bd30fbbce68e7b30bc79932f", "fusion_lon": 0.0, "lat": 38.903561833333335, "fusion_lat": 0.0}, {"is_disabled": 0, "rental_uris": {"android": "https://dc.lft.to/lastmile_qr_scan", "ios": "https://dc.lft.to/lastmile_qr_scan"}, "is_reserved": 0, "name": "dd750d4b2d4fe80b09e919b2ae264f5f", "lon": -77.02627216666667, "type": "electric_bike", "bike_id": "dd750d4b2d4fe80b09e919b2ae264f5f", "fusion_lon": 0.0, "lat": 38.962236833333336, "fusion_lat": 0.0}, {"is_disabled": 0, "rental_uris": {"android": "https://dc.lft.to/lastmile_qr_scan", "ios": "https://dc.lft.to/lastmile_qr_scan"}, "is_reserved": 0, "name": "eedff98c36557e4930c8aecc9dad789e", "lon": -77.02181183333333, "type": "electric_scooter", "bike_id": "eedff98c36557e4930c8aecc9dad789e", "fusion_lon": 0.0, "lat": 38.9150885, "fusion_lat": 0.0}, {"is_disabled": 0, "rental_uris": {"android": "https://dc.lft.to/lastmile_qr_scan", "ios": "https://dc.lft.to/lastmile_qr_scan"}, "is_reserved": 0, "name": "ae9963d7be8108f2e52bede915d242f1", "lon": -77.03150283333333, "type": "electric_scooter", "bike_id": "ae9963d7be8108f2e52bede915d242f1", "fusion_lon": 0.0, "lat": 38.88744533333333, "fusion_lat": 0.0}, {"is_disabled": 0, "rental_uris": {"android": "https://dc.lft.to/lastmile_qr_scan", "ios": "https://dc.lft.to/lastmile_qr_scan"}, "is_reserved": 0, "name": "11a4227d03a91c44252b7e0b81aff597", "lon": -77.04339483333334, "type": "electric_scooter", "bike_id": "11a4227d03a91c44252b7e0b81aff597", "fusion_lon": 0.0, "lat": 38.90479216666667, "fusion_lat": 0.0}, {"is_disabled": 0, "rental_uris": {"android": "https://dc.lft.to/lastmile_qr_scan", "ios": "https://dc.lft.to/lastmile_qr_scan"}, "is_reserved": 0, "name": "f36515a79f92007845247ff08e8d14a3", "lon": -77.02719966666666, "type": "electric_scooter", "bike_id": "f36515a79f92007845247ff08e8d14a3", "fusion_lon": 0.0, "lat": 38.908589, "fusion_lat": 0.0}, {"is_disabled": 0, "rental_uris": {"android": "https://dc.lft.to/lastmile_qr_scan", "ios": "https://dc.lft.to/lastmile_qr_scan"}, "is_reserved": 0, "name": "a9eec2644c34f7d08afee01ec21a4900", "lon": -77.00994466666667, "type": "electric_scooter", "bike_id": "a9eec2644c34f7d08afee01ec21a4900", "fusion_lon": 0.0, "lat": 38.897543166666665, "fusion_lat": 0.0}, {"is_disabled": 0, "rental_uris": {"android": "https://dc.lft.to/lastmile_qr_scan", "ios": "https://dc.lft.to/lastmile_qr_scan"}, "is_reserved": 0, "name": "b3dc164eddc6fbc80c5c7c8da6cf4270", "lon": -77.046407, "type": "electric_scooter", "bike_id": "b3dc164eddc6fbc80c5c7c8da6cf4270", "fusion_lon": 0.0, "lat": 38.903395, "fusion_lat": 0.0}, {"is_disabled": 0, "rental_uris": {"android": "https://dc.lft.to/lastmile_qr_scan", "ios": "https://dc.lft.to/lastmile_qr_scan"}, "is_reserved": 0, "name": "305f5f63c154c447aede9a16503ef55a", "lon": -77.03701133333334, "type": "electric_scooter", "bike_id": "305f5f63c154c447aede9a16503ef55a", "fusion_lon": 0.0, "lat": 38.92645683333333, "fusion_lat": 0.0}, {"is_disabled": 0, "rental_uris": {"android": "https://dc.lft.to/lastmile_qr_scan", "ios": "https://dc.lft.to/lastmile_qr_scan"}, "is_reserved": 0, "name": "5df132aece31053ebf2f81a73a5f35d7", "lon": -77.03440216666667, "type": "electric_scooter", "bike_id": "5df132aece31053ebf2f81a73a5f35d7", "fusion_lon": 0.0, "lat": 38.93364716666667, "fusion_lat": 0.0}, {"is_disabled": 0, "rental_uris": {"android": "https://dc.lft.to/lastmile_qr_scan", "ios": "https://dc.lft.to/lastmile_qr_scan"}, "is_reserved": 0, "name": "3786abaedda2e16c76e9c1c0443eb4ad", "lon": -76.99398583333334, "type": "electric_scooter", "bike_id": "3786abaedda2e16c76e9c1c0443eb4ad", "fusion_lon": 0.0, "lat": 38.92167033333333, "fusion_lat": 0.0}, {"is_disabled": 0, "rental_uris": {"android": "https://dc.lft.to/lastmile_qr_scan", "ios": "https://dc.lft.to/lastmile_qr_scan"}, "is_reserved": 0, "name": "51e98d6f71cb9cb2fd9efd2ed949d73f", "lon": -77.01800566666667, "type": "electric_scooter", "bike_id": "51e98d6f71cb9cb2fd9efd2ed949d73f", "fusion_lon": 0.0, "lat": 38.883714499999996, "fusion_lat": 0.0}, {"is_disabled": 0, "rental_uris": {"android": "https://dc.lft.to/lastmile_qr_scan", "ios": "https://dc.lft.to/lastmile_qr_scan"}, "is_reserved": 0, "name": "e21084df23862630d2ab40a49103a149", "lon": -77.03657583333333, "type": "electric_scooter", "bike_id": "e21084df23862630d2ab40a49103a149", "fusion_lon": 0.0, "lat": 38.922852666666664, "fusion_lat": 0.0}, {"is_disabled": 0, "rental_uris": {"android": "https://dc.lft.to/lastmile_qr_scan", "ios": "https://dc.lft.to/lastmile_qr_scan"}, "is_reserved": 0, "name": "c6475bc2d58d9c550723614a35e0a1b7", "lon": -76.98725833333333, "type": "electric_scooter", "bike_id": "c6475bc2d58d9c550723614a35e0a1b7", "fusion_lon": 0.0, "lat": 38.86719033333333, "fusion_lat": 0.0}, {"is_disabled": 0, "rental_uris": {"android": "https://dc.lft.to/lastmile_qr_scan", "ios": "https://dc.lft.to/lastmile_qr_scan"}, "is_reserved": 0, "name": "4ca70c4b2fe95b87cc22465b97b1e8dd", "lon": -76.97302483333333, "type": "electric_bike", "bike_id": "4ca70c4b2fe95b87cc22465b97b1e8dd", "fusion_lon": 0.0, "lat": 38.86570016666667, "fusion_lat": 0.0}, {"is_disabled": 0, "rental_uris": {"android": "https://dc.lft.to/lastmile_qr_scan", "ios": "https://dc.lft.to/lastmile_qr_scan"}, "is_reserved": 0, "name": "98471e33419af463da65d2209bd0ce2e", "lon": -77.0447715, "type": "electric_scooter", "bike_id": "98471e33419af463da65d2209bd0ce2e", "fusion_lon": 0.0, "lat": 38.90215033333333, "fusion_lat": 0.0}, {"is_disabled": 0, "rental_uris": {"android": "https://dc.lft.to/lastmile_qr_scan", "ios": "https://dc.lft.to/lastmile_qr_scan"}, "is_reserved": 0, "name": "f715205dd454b91ea4bd033b22183c0a", "lon": -77.05282383333333, "type": "electric_scooter", "bike_id": "f715205dd454b91ea4bd033b22183c0a", "fusion_lon": 0.0, "lat": 38.922624, "fusion_lat": 0.0}, {"is_disabled": 0, "rental_uris": {"android": "https://dc.lft.to/lastmile_qr_scan", "ios": "https://dc.lft.to/lastmile_qr_scan"}, "is_reserved": 0, "name": "3657ff566730fb81b211fa2724667109", "lon": -77.02952283333333, "type": "electric_scooter", "bike_id": "3657ff566730fb81b211fa2724667109", "fusion_lon": 0.0, "lat": 38.90408716666666, "fusion_lat": 0.0}, {"is_disabled": 0, "rental_uris": {"android": "https://dc.lft.to/lastmile_qr_scan", "ios": "https://dc.lft.to/lastmile_qr_scan"}, "is_reserved": 0, "name": "61d944ff42a7d49c4455df03597ed506", "lon": -76.94154016666667, "type": "electric_scooter", "bike_id": "61d944ff42a7d49c4455df03597ed506", "fusion_lon": 0.0, "lat": 38.88363183333333, "fusion_lat": 0.0}, {"is_disabled": 0, "rental_uris": {"android": "https://dc.lft.to/lastmile_qr_scan", "ios": "https://dc.lft.to/lastmile_qr_scan"}, "is_reserved": 0, "name": "5f62d782f7eb6110653d7de05b175766", "lon": -77.04164783333333, "type": "electric_scooter", "bike_id": "5f62d782f7eb6110653d7de05b175766", "fusion_lon": 0.0, "lat": 38.898956, "fusion_lat": 0.0}, {"is_disabled": 0, "rental_uris": {"android": "https://dc.lft.to/lastmile_qr_scan", "ios": "https://dc.lft.to/lastmile_qr_scan"}, "is_reserved": 0, "name": "b68d9617921e6d624f2efcedeb781f61", "lon": -77.05415483333333, "type": "electric_scooter", "bike_id": "b68d9617921e6d624f2efcedeb781f61", "fusion_lon": 0.0, "lat": 38.928308666666666, "fusion_lat": 0.0}, {"is_disabled": 0, "rental_uris": {"android": "https://dc.lft.to/lastmile_qr_scan", "ios": "https://dc.lft.to/lastmile_qr_scan"}, "is_reserved": 0, "name": "980541300d14d7de8cde2c2649110703", "lon": -77.01202766666667, "type": "electric_scooter", "bike_id": "980541300d14d7de8cde2c2649110703", "fusion_lon": 0.0, "lat": 38.9110745, "fusion_lat": 0.0}, {"is_disabled": 0, "rental_uris": {"android": "https://dc.lft.to/lastmile_qr_scan", "ios": "https://dc.lft.to/lastmile_qr_scan"}, "is_reserved": 0, "name": "0bac66718ae275cc719d8b9b7c7fedf7", "lon": -77.03306716666667, "type": "electric_scooter", "bike_id": "0bac66718ae275cc719d8b9b7c7fedf7", "fusion_lon": 0.0, "lat": 38.956155333333335, "fusion_lat": 0.0}, {"is_disabled": 0, "rental_uris": {"android": "https://dc.lft.to/lastmile_qr_scan", "ios": "https://dc.lft.to/lastmile_qr_scan"}, "is_reserved": 0, "name": "ac1c529c3e8f7a05ec562bff4e3bfe8c", "lon": -77.031218, "type": "electric_scooter", "bike_id": "ac1c529c3e8f7a05ec562bff4e3bfe8c", "fusion_lon": 0.0, "lat": 38.920197, "fusion_lat": 0.0}, {"is_disabled": 0, "rental_uris": {"android": "https://dc.lft.to/lastmile_qr_scan", "ios": "https://dc.lft.to/lastmile_qr_scan"}, "is_reserved": 0, "name": "6247df272d7ce5ea466376fd6ea09635", "lon": -77.04418433333333, "type": "electric_scooter", "bike_id": "6247df272d7ce5ea466376fd6ea09635", "fusion_lon": 0.0, "lat": 38.9177695, "fusion_lat": 0.0}, {"is_disabled": 0, "rental_uris": {"android": "https://dc.lft.to/lastmile_qr_scan", "ios": "https://dc.lft.to/lastmile_qr_scan"}, "is_reserved": 0, "name": "48d2fad8433598ef8364409d4b1edee1", "lon": -77.00197466666667, "type": "electric_scooter", "bike_id": "48d2fad8433598ef8364409d4b1edee1", "fusion_lon": 0.0, "lat": 38.902409166666665, "fusion_lat": 0.0}, {"is_disabled": 0, "rental_uris": {"android": "https://dc.lft.to/lastmile_qr_scan", "ios": "https://dc.lft.to/lastmile_qr_scan"}, "is_reserved": 0, "name": "9fe346b0e75478d5afb87c4036d997d7", "lon": -77.00603366666667, "type": "electric_bike", "bike_id": "9fe346b0e75478d5afb87c4036d997d7", "fusion_lon": 0.0, "lat": 38.898119666666666, "fusion_lat": 0.0}, {"is_disabled": 0, "rental_uris": {"android": "https://dc.lft.to/lastmile_qr_scan", "ios": "https://dc.lft.to/lastmile_qr_scan"}, "is_reserved": 0, "name": "f3ce627875c7e3fb7a4bb8c714641eed", "lon": -77.02086716666666, "type": "electric_scooter", "bike_id": "f3ce627875c7e3fb7a4bb8c714641eed", "fusion_lon": 0.0, "lat": 38.901983666666666, "fusion_lat": 0.0}, {"is_disabled": 0, "rental_uris": {"android": "https://dc.lft.to/lastmile_qr_scan", "ios": "https://dc.lft.to/lastmile_qr_scan"}, "is_reserved": 0, "name": "6f71e12a5d51959c1114f8eb76260386", "lon": -77.029853, "type": "electric_scooter", "bike_id": "6f71e12a5d51959c1114f8eb76260386", "fusion_lon": 0.0, "lat": 38.897362333333334, "fusion_lat": 0.0}, {"is_disabled": 0, "rental_uris": {"android": "https://dc.lft.to/lastmile_qr_scan", "ios": "https://dc.lft.to/lastmile_qr_scan"}, "is_reserved": 0, "name": "d6a8836d7dfa5b0e39e574acd08e01ed", "lon": -77.04673616666666, "type": "electric_scooter", "bike_id": "d6a8836d7dfa5b0e39e574acd08e01ed", "fusion_lon": 0.0, "lat": 38.907405, "fusion_lat": 0.0}, {"is_disabled": 0, "rental_uris": {"android": "https://dc.lft.to/lastmile_qr_scan", "ios": "https://dc.lft.to/lastmile_qr_scan"}, "is_reserved": 0, "name": "cb1ef9ed26de77aab1fb3d7646bd8888", "lon": -77.00355433333333, "type": "electric_scooter", "bike_id": "cb1ef9ed26de77aab1fb3d7646bd8888", "fusion_lon": 0.0, "lat": 38.895002, "fusion_lat": 0.0}, {"is_disabled": 0, "rental_uris": {"android": "https://dc.lft.to/lastmile_qr_scan", "ios": "https://dc.lft.to/lastmile_qr_scan"}, "is_reserved": 0, "name": "5671aadf07d56c3c124ca9da3e8bc003", "lon": -77.03488516666667, "type": "electric_scooter", "bike_id": "5671aadf07d56c3c124ca9da3e8bc003", "fusion_lon": 0.0, "lat": 38.921545333333334, "fusion_lat": 0.0}, {"is_disabled": 0, "rental_uris": {"android": "https://dc.lft.to/lastmile_qr_scan", "ios": "https://dc.lft.to/lastmile_qr_scan"}, "is_reserved": 0, "name": "6ac10e0555f801d32080aed92232c3e5", "lon": -77.04696766666666, "type": "electric_scooter", "bike_id": "6ac10e0555f801d32080aed92232c3e5", "fusion_lon": 0.0, "lat": 38.915680333333334, "fusion_lat": 0.0}, {"is_disabled": 0, "rental_uris": {"android": "https://dc.lft.to/lastmile_qr_scan", "ios": "https://dc.lft.to/lastmile_qr_scan"}, "is_reserved": 0, "name": "2d88b128dd22e6c3ec18d24a1d2cefb2", "lon": -77.061022, "type": "electric_scooter", "bike_id": "2d88b128dd22e6c3ec18d24a1d2cefb2", "fusion_lon": 0.0, "lat": 38.94364683333333, "fusion_lat": 0.0}, {"is_disabled": 0, "rental_uris": {"android": "https://dc.lft.to/lastmile_qr_scan", "ios": "https://dc.lft.to/lastmile_qr_scan"}, "is_reserved": 0, "name": "98a206b359aa482a72a1d56cb844dabb", "lon": -77.03342333333333, "type": "electric_scooter", "bike_id": "98a206b359aa482a72a1d56cb844dabb", "fusion_lon": 0.0, "lat": 38.93786216666667, "fusion_lat": 0.0}, {"is_disabled": 0, "rental_uris": {"android": "https://dc.lft.to/lastmile_qr_scan", "ios": "https://dc.lft.to/lastmile_qr_scan"}, "is_reserved": 0, "name": "1d5d079e3cb0883046464efd79bbfb35", "lon": -77.03564566666667, "type": "electric_scooter", "bike_id": "1d5d079e3cb0883046464efd79bbfb35", "fusion_lon": 0.0, "lat": 38.92748683333333, "fusion_lat": 0.0}, {"is_disabled": 0, "rental_uris": {"android": "https://dc.lft.to/lastmile_qr_scan", "ios": "https://dc.lft.to/lastmile_qr_scan"}, "is_reserved": 0, "name": "f83c17375fba91037a082006139775dd", "lon": -77.03436, "type": "electric_scooter", "bike_id": "f83c17375fba91037a082006139775dd", "fusion_lon": 0.0, "lat": 38.93439133333333, "fusion_lat": 0.0}, {"is_disabled": 0, "rental_uris": {"android": "https://dc.lft.to/lastmile_qr_scan", "ios": "https://dc.lft.to/lastmile_qr_scan"}, "is_reserved": 0, "name": "398e93313787bd497949b33c0599bf68", "lon": -77.03463633333334, "type": "electric_scooter", "bike_id": "398e93313787bd497949b33c0599bf68", "fusion_lon": 0.0, "lat": 38.90718783333333, "fusion_lat": 0.0}, {"is_disabled": 0, "rental_uris": {"android": "https://dc.lft.to/lastmile_qr_scan", "ios": "https://dc.lft.to/lastmile_qr_scan"}, "is_reserved": 0, "name": "892febabaa80b76d3af14d78cd1a8fa8", "lon": -77.03349566666667, "type": "electric_scooter", "bike_id": "892febabaa80b76d3af14d78cd1a8fa8", "fusion_lon": 0.0, "lat": 38.89841783333333, "fusion_lat": 0.0}, {"is_disabled": 0, "rental_uris": {"android": "https://dc.lft.to/lastmile_qr_scan", "ios": "https://dc.lft.to/lastmile_qr_scan"}, "is_reserved": 0, "name": "51093a7ca9d6bf82d815414a04f14c70", "lon": -77.02993916666667, "type": "electric_scooter", "bike_id": "51093a7ca9d6bf82d815414a04f14c70", "fusion_lon": 0.0, "lat": 38.907282, "fusion_lat": 0.0}, {"is_disabled": 0, "rental_uris": {"android": "https://dc.lft.to/lastmile_qr_scan", "ios": "https://dc.lft.to/lastmile_qr_scan"}, "is_reserved": 0, "name": "e3db14736fd59f1d5c20a8e99ef10435", "lon": -77.03645233333333, "type": "electric_scooter", "bike_id": "e3db14736fd59f1d5c20a8e99ef10435", "fusion_lon": 0.0, "lat": 38.909997, "fusion_lat": 0.0}, {"is_disabled": 0, "rental_uris": {"android": "https://dc.lft.to/lastmile_qr_scan", "ios": "https://dc.lft.to/lastmile_qr_scan"}, "is_reserved": 0, "name": "1c299b281e1a1c1b40f360ded8ec849d", "lon": -76.97947233333333, "type": "electric_scooter", "bike_id": "1c299b281e1a1c1b40f360ded8ec849d", "fusion_lon": 0.0, "lat": 38.90506333333333, "fusion_lat": 0.0}, {"is_disabled": 0, "rental_uris": {"android": "https://dc.lft.to/lastmile_qr_scan", "ios": "https://dc.lft.to/lastmile_qr_scan"}, "is_reserved": 0, "name": "64238cd77db2d006a340a7001eeabcca", "lon": -77.020093, "type": "electric_scooter", "bike_id": "64238cd77db2d006a340a7001eeabcca", "fusion_lon": 0.0, "lat": 38.924133, "fusion_lat": 0.0}, {"is_disabled": 0, "rental_uris": {"android": "https://dc.lft.to/lastmile_qr_scan", "ios": "https://dc.lft.to/lastmile_qr_scan"}, "is_reserved": 0, "name": "9cefdcdd30e5aa466e507a9673575efa", "lon": -77.0215845, "type": "electric_scooter", "bike_id": "9cefdcdd30e5aa466e507a9673575efa", "fusion_lon": 0.0, "lat": 38.894198, "fusion_lat": 0.0}, {"is_disabled": 0, "rental_uris": {"android": "https://dc.lft.to/lastmile_qr_scan", "ios": "https://dc.lft.to/lastmile_qr_scan"}, "is_reserved": 0, "name": "1252dd17d23c520ec4656fca4f928d0e", "lon": -77.034342, "type": "electric_scooter", "bike_id": "1252dd17d23c520ec4656fca4f928d0e", "fusion_lon": 0.0, "lat": 38.902793833333334, "fusion_lat": 0.0}, {"is_disabled": 0, "rental_uris": {"android": "https://dc.lft.to/lastmile_qr_scan", "ios": "https://dc.lft.to/lastmile_qr_scan"}, "is_reserved": 0, "name": "8068490b5b0e1c69a38b75774f9927b6", "lon": -77.00566666666667, "type": "electric_scooter", "bike_id": "8068490b5b0e1c69a38b75774f9927b6", "fusion_lon": 0.0, "lat": 38.88500416666667, "fusion_lat": 0.0}, {"is_disabled": 0, "rental_uris": {"android": "https://dc.lft.to/lastmile_qr_scan", "ios": "https://dc.lft.to/lastmile_qr_scan"}, "is_reserved": 0, "name": "1963e136a699b2497d2a4575f516fcce", "lon": -77.04531116666666, "type": "electric_scooter", "bike_id": "1963e136a699b2497d2a4575f516fcce", "fusion_lon": 0.0, "lat": 38.903794500000004, "fusion_lat": 0.0}, {"is_disabled": 0, "rental_uris": {"android": "https://dc.lft.to/lastmile_qr_scan", "ios": "https://dc.lft.to/lastmile_qr_scan"}, "is_reserved": 0, "name": "8de1ecbba045cd6866920ed2ebeff406", "lon": -77.03496566666666, "type": "electric_scooter", "bike_id": "8de1ecbba045cd6866920ed2ebeff406", "fusion_lon": 0.0, "lat": 38.9215575, "fusion_lat": 0.0}, {"is_disabled": 0, "rental_uris": {"android": "https://dc.lft.to/lastmile_qr_scan", "ios": "https://dc.lft.to/lastmile_qr_scan"}, "is_reserved": 0, "name": "51b97d06771ff6c7bb1cad596e780405", "lon": -76.99859516666666, "type": "electric_scooter", "bike_id": "51b97d06771ff6c7bb1cad596e780405", "fusion_lon": 0.0, "lat": 38.90027666666667, "fusion_lat": 0.0}, {"is_disabled": 0, "rental_uris": {"android": "https://dc.lft.to/lastmile_qr_scan", "ios": "https://dc.lft.to/lastmile_qr_scan"}, "is_reserved": 0, "name": "a63f13244bb333d5264542b06273c69d", "lon": -77.05023916666667, "type": "electric_scooter", "bike_id": "a63f13244bb333d5264542b06273c69d", "fusion_lon": 0.0, "lat": 38.89690916666667, "fusion_lat": 0.0}, {"is_disabled": 0, "rental_uris": {"android": "https://dc.lft.to/lastmile_qr_scan", "ios": "https://dc.lft.to/lastmile_qr_scan"}, "is_reserved": 0, "name": "61a149f2349b205256ac9bb010cd0358", "lon": -77.02029733333333, "type": "electric_scooter", "bike_id": "61a149f2349b205256ac9bb010cd0358", "fusion_lon": 0.0, "lat": 38.883471, "fusion_lat": 0.0}, {"is_disabled": 0, "rental_uris": {"android": "https://dc.lft.to/lastmile_qr_scan", "ios": "https://dc.lft.to/lastmile_qr_scan"}, "is_reserved": 0, "name": "4867789de97b728405175c3756cb8d87", "lon": -76.9671175, "type": "electric_scooter", "bike_id": "4867789de97b728405175c3756cb8d87", "fusion_lon": 0.0, "lat": 38.84796933333333, "fusion_lat": 0.0}, {"is_disabled": 0, "rental_uris": {"android": "https://dc.lft.to/lastmile_qr_scan", "ios": "https://dc.lft.to/lastmile_qr_scan"}, "is_reserved": 0, "name": "797e94c4edd26c6f73b18b864a7aa6c3", "lon": -77.030436, "type": "electric_bike", "bike_id": "797e94c4edd26c6f73b18b864a7aa6c3", "fusion_lon": 0.0, "lat": 38.884099, "fusion_lat": 0.0}, {"is_disabled": 0, "rental_uris": {"android": "https://dc.lft.to/lastmile_qr_scan", "ios": "https://dc.lft.to/lastmile_qr_scan"}, "is_reserved": 0, "name": "096e0a879795662f1f7255f8efae4eef", "lon": -77.03185066666667, "type": "electric_scooter", "bike_id": "096e0a879795662f1f7255f8efae4eef", "fusion_lon": 0.0, "lat": 38.916812666666665, "fusion_lat": 0.0}, {"is_disabled": 0, "rental_uris": {"android": "https://dc.lft.to/lastmile_qr_scan", "ios": "https://dc.lft.to/lastmile_qr_scan"}, "is_reserved": 0, "name": "f041fc42a96b045893aabeaab4aad512", "lon": -76.98000033333334, "type": "electric_scooter", "bike_id": "f041fc42a96b045893aabeaab4aad512", "fusion_lon": 0.0, "lat": 38.90681383333333, "fusion_lat": 0.0}, {"is_disabled": 0, "rental_uris": {"android": "https://dc.lft.to/lastmile_qr_scan", "ios": "https://dc.lft.to/lastmile_qr_scan"}, "is_reserved": 0, "name": "1f2c8b3a366f0466f8b1c30c4e0ecb85", "lon": -77.02995766666666, "type": "electric_scooter", "bike_id": "1f2c8b3a366f0466f8b1c30c4e0ecb85", "fusion_lon": 0.0, "lat": 38.896356833333336, "fusion_lat": 0.0}, {"is_disabled": 0, "rental_uris": {"android": "https://dc.lft.to/lastmile_qr_scan", "ios": "https://dc.lft.to/lastmile_qr_scan"}, "is_reserved": 0, "name": "579ae9e5bfedcd02f4826e99b96f467c", "lon": -76.97801516666667, "type": "electric_scooter", "bike_id": "579ae9e5bfedcd02f4826e99b96f467c", "fusion_lon": 0.0, "lat": 38.920634166666666, "fusion_lat": 0.0}, {"is_disabled": 0, "rental_uris": {"android": "https://dc.lft.to/lastmile_qr_scan", "ios": "https://dc.lft.to/lastmile_qr_scan"}, "is_reserved": 0, "name": "88819d5815876f4135a44dc8b8ef669d", "lon": -77.00214416666667, "type": "electric_scooter", "bike_id": "88819d5815876f4135a44dc8b8ef669d", "fusion_lon": 0.0, "lat": 38.911691833333336, "fusion_lat": 0.0}, {"is_disabled": 0, "rental_uris": {"android": "https://dc.lft.to/lastmile_qr_scan", "ios": "https://dc.lft.to/lastmile_qr_scan"}, "is_reserved": 0, "name": "6401fc3b854f6097f41d7b5ac0946ad7", "lon": -77.01783516666667, "type": "electric_scooter", "bike_id": "6401fc3b854f6097f41d7b5ac0946ad7", "fusion_lon": 0.0, "lat": 38.87696833333333, "fusion_lat": 0.0}, {"is_disabled": 0, "rental_uris": {"android": "https://dc.lft.to/lastmile_qr_scan", "ios": "https://dc.lft.to/lastmile_qr_scan"}, "is_reserved": 0, "name": "417a26dda4c929873e66de2bab9f9123", "lon": -76.99899766666667, "type": "electric_scooter", "bike_id": "417a26dda4c929873e66de2bab9f9123", "fusion_lon": 0.0, "lat": 38.8921315, "fusion_lat": 0.0}, {"is_disabled": 0, "rental_uris": {"android": "https://dc.lft.to/lastmile_qr_scan", "ios": "https://dc.lft.to/lastmile_qr_scan"}, "is_reserved": 0, "name": "57aa389128d369de1fa377d6f321bc0d", "lon": -77.03197083333333, "type": "electric_scooter", "bike_id": "57aa389128d369de1fa377d6f321bc0d", "fusion_lon": 0.0, "lat": 38.887478333333334, "fusion_lat": 0.0}, {"is_disabled": 0, "rental_uris": {"android": "https://dc.lft.to/lastmile_qr_scan", "ios": "https://dc.lft.to/lastmile_qr_scan"}, "is_reserved": 0, "name": "de8870f9ee77a2178548abc6726f9d72", "lon": -77.041507, "type": "electric_scooter", "bike_id": "de8870f9ee77a2178548abc6726f9d72", "fusion_lon": 0.0, "lat": 38.905263833333336, "fusion_lat": 0.0}, {"is_disabled": 0, "rental_uris": {"android": "https://dc.lft.to/lastmile_qr_scan", "ios": "https://dc.lft.to/lastmile_qr_scan"}, "is_reserved": 0, "name": "9f73409cfcf6380632515afacd7379a1", "lon": -77.14776333333333, "type": "electric_bike", "bike_id": "9f73409cfcf6380632515afacd7379a1", "fusion_lon": 0.0, "lat": 39.09592, "fusion_lat": 0.0}, {"is_disabled": 0, "rental_uris": {"android": "https://dc.lft.to/lastmile_qr_scan", "ios": "https://dc.lft.to/lastmile_qr_scan"}, "is_reserved": 0, "name": "0acf1c614358e3e15d5369cf69a51536", "lon": -77.09574016666667, "type": "electric_bike", "bike_id": "0acf1c614358e3e15d5369cf69a51536", "fusion_lon": 0.0, "lat": 38.83783066666667, "fusion_lat": 0.0}, {"is_disabled": 0, "rental_uris": {"android": "https://dc.lft.to/lastmile_qr_scan", "ios": "https://dc.lft.to/lastmile_qr_scan"}, "is_reserved": 0, "name": "75a9c077fa207b5a4dba9f757ad03d76", "lon": -77.0257155, "type": "electric_scooter", "bike_id": "75a9c077fa207b5a4dba9f757ad03d76", "fusion_lon": 0.0, "lat": 38.899614, "fusion_lat": 0.0}, {"is_disabled": 0, "rental_uris": {"android": "https://dc.lft.to/lastmile_qr_scan", "ios": "https://dc.lft.to/lastmile_qr_scan"}, "is_reserved": 0, "name": "9575a2a939112fc2ed691b6a0a2f10e1", "lon": -76.9922295, "type": "electric_scooter", "bike_id": "9575a2a939112fc2ed691b6a0a2f10e1", "fusion_lon": 0.0, "lat": 38.898852, "fusion_lat": 0.0}, {"is_disabled": 0, "rental_uris": {"android": "https://dc.lft.to/lastmile_qr_scan", "ios": "https://dc.lft.to/lastmile_qr_scan"}, "is_reserved": 0, "name": "0f0d040a64e1cfb20ab9eb7b785a1e5f", "lon": -77.04124083333333, "type": "electric_scooter", "bike_id": "0f0d040a64e1cfb20ab9eb7b785a1e5f", "fusion_lon": 0.0, "lat": 38.91706083333333, "fusion_lat": 0.0}, {"is_disabled": 0, "rental_uris": {"android": "https://dc.lft.to/lastmile_qr_scan", "ios": "https://dc.lft.to/lastmile_qr_scan"}, "is_reserved": 0, "name": "a9ca27e0ee338482d26a5e605a886a8c", "lon": -77.04276066666667, "type": "electric_bike", "bike_id": "a9ca27e0ee338482d26a5e605a886a8c", "fusion_lon": 0.0, "lat": 38.90299133333333, "fusion_lat": 0.0}, {"is_disabled": 0, "rental_uris": {"android": "https://dc.lft.to/lastmile_qr_scan", "ios": "https://dc.lft.to/lastmile_qr_scan"}, "is_reserved": 0, "name": "7f4819eba379e83304e78ec9b18f5dd3", "lon": -76.9968, "type": "electric_scooter", "bike_id": "7f4819eba379e83304e78ec9b18f5dd3", "fusion_lon": 0.0, "lat": 38.86038166666667, "fusion_lat": 0.0}, {"is_disabled": 0, "rental_uris": {"android": "https://dc.lft.to/lastmile_qr_scan", "ios": "https://dc.lft.to/lastmile_qr_scan"}, "is_reserved": 0, "name": "8d75edc80b944f85b1c31b47d01571b3", "lon": -77.05005233333333, "type": "electric_scooter", "bike_id": "8d75edc80b944f85b1c31b47d01571b3", "fusion_lon": 0.0, "lat": 38.892299, "fusion_lat": 0.0}, {"is_disabled": 0, "rental_uris": {"android": "https://dc.lft.to/lastmile_qr_scan", "ios": "https://dc.lft.to/lastmile_qr_scan"}, "is_reserved": 0, "name": "eca66a62d6f44986b0db6f8bdcf109af", "lon": -76.94884283333333, "type": "electric_scooter", "bike_id": "eca66a62d6f44986b0db6f8bdcf109af", "fusion_lon": 0.0, "lat": 38.895121833333334, "fusion_lat": 0.0}, {"is_disabled": 0, "rental_uris": {"android": "https://dc.lft.to/lastmile_qr_scan", "ios": "https://dc.lft.to/lastmile_qr_scan"}, "is_reserved": 0, "name": "4bfab4e7801d995389d9d2cf42671f42", "lon": -77.0459195, "type": "electric_scooter", "bike_id": "4bfab4e7801d995389d9d2cf42671f42", "fusion_lon": 0.0, "lat": 38.91713583333333, "fusion_lat": 0.0}, {"is_disabled": 0, "rental_uris": {"android": "https://dc.lft.to/lastmile_qr_scan", "ios": "https://dc.lft.to/lastmile_qr_scan"}, "is_reserved": 0, "name": "cf32b5af98385293235cb85d1c54e08e", "lon": -77.02758416666667, "type": "electric_scooter", "bike_id": "cf32b5af98385293235cb85d1c54e08e", "fusion_lon": 0.0, "lat": 38.94304016666667, "fusion_lat": 0.0}, {"is_disabled": 0, "rental_uris": {"android": "https://dc.lft.to/lastmile_qr_scan", "ios": "https://dc.lft.to/lastmile_qr_scan"}, "is_reserved": 0, "name": "20525d074bb4ed6e296f47a45926e01a", "lon": -77.00423816666667, "type": "electric_scooter", "bike_id": "20525d074bb4ed6e296f47a45926e01a", "fusion_lon": 0.0, "lat": 38.88771416666667, "fusion_lat": 0.0}, {"is_disabled": 0, "rental_uris": {"android": "https://dc.lft.to/lastmile_qr_scan", "ios": "https://dc.lft.to/lastmile_qr_scan"}, "is_reserved": 0, "name": "c1b388db0641fcb3e80e09ba3000c8c9", "lon": -77.08435383333334, "type": "electric_bike", "bike_id": "c1b388db0641fcb3e80e09ba3000c8c9", "fusion_lon": 0.0, "lat": 38.810284, "fusion_lat": 0.0}, {"is_disabled": 0, "rental_uris": {"android": "https://dc.lft.to/lastmile_qr_scan", "ios": "https://dc.lft.to/lastmile_qr_scan"}, "is_reserved": 0, "name": "f8d4e43b4f492c457d9e45d0da0f9c1e", "lon": -77.034886, "type": "electric_scooter", "bike_id": "f8d4e43b4f492c457d9e45d0da0f9c1e", "fusion_lon": 0.0, "lat": 38.90268433333333, "fusion_lat": 0.0}, {"is_disabled": 0, "rental_uris": {"android": "https://dc.lft.to/lastmile_qr_scan", "ios": "https://dc.lft.to/lastmile_qr_scan"}, "is_reserved": 0, "name": "1d3b54c55b74f9855ee79e3efef68835", "lon": -77.0094735, "type": "electric_scooter", "bike_id": "1d3b54c55b74f9855ee79e3efef68835", "fusion_lon": 0.0, "lat": 38.89500783333333, "fusion_lat": 0.0}, {"is_disabled": 0, "rental_uris": {"android": "https://dc.lft.to/lastmile_qr_scan", "ios": "https://dc.lft.to/lastmile_qr_scan"}, "is_reserved": 0, "name": "db07a192a2ef510877c14bb926b64cbe", "lon": -77.03195866666667, "type": "electric_scooter", "bike_id": "db07a192a2ef510877c14bb926b64cbe", "fusion_lon": 0.0, "lat": 38.916954, "fusion_lat": 0.0}, {"is_disabled": 0, "rental_uris": {"android": "https://dc.lft.to/lastmile_qr_scan", "ios": "https://dc.lft.to/lastmile_qr_scan"}, "is_reserved": 0, "name": "16312e219c62c0a23f70358decacb193", "lon": -76.99742216666667, "type": "electric_scooter", "bike_id": "16312e219c62c0a23f70358decacb193", "fusion_lon": 0.0, "lat": 38.899351, "fusion_lat": 0.0}, {"is_disabled": 0, "rental_uris": {"android": "https://dc.lft.to/lastmile_qr_scan", "ios": "https://dc.lft.to/lastmile_qr_scan"}, "is_reserved": 0, "name": "60110774ea475ff08ef7147908b2f88d", "lon": -76.97907833333333, "type": "electric_scooter", "bike_id": "60110774ea475ff08ef7147908b2f88d", "fusion_lon": 0.0, "lat": 38.90395266666667, "fusion_lat": 0.0}, {"is_disabled": 0, "rental_uris": {"android": "https://dc.lft.to/lastmile_qr_scan", "ios": "https://dc.lft.to/lastmile_qr_scan"}, "is_reserved": 0, "name": "4abaee632edd1f2cbfba8ecd63cddda1", "lon": -76.97503983333333, "type": "electric_bike", "bike_id": "4abaee632edd1f2cbfba8ecd63cddda1", "fusion_lon": 0.0, "lat": 38.919339666666666, "fusion_lat": 0.0}, {"is_disabled": 0, "rental_uris": {"android": "https://dc.lft.to/lastmile_qr_scan", "ios": "https://dc.lft.to/lastmile_qr_scan"}, "is_reserved": 0, "name": "bdf00011b5db85fedecbc2899a8487f0", "lon": -76.99031966666666, "type": "electric_scooter", "bike_id": "bdf00011b5db85fedecbc2899a8487f0", "fusion_lon": 0.0, "lat": 38.89876616666667, "fusion_lat": 0.0}, {"is_disabled": 0, "rental_uris": {"android": "https://dc.lft.to/lastmile_qr_scan", "ios": "https://dc.lft.to/lastmile_qr_scan"}, "is_reserved": 0, "name": "6f1158d48f7408a5582e7152ae90b33f", "lon": -77.00218833333334, "type": "electric_scooter", "bike_id": "6f1158d48f7408a5582e7152ae90b33f", "fusion_lon": 0.0, "lat": 38.9133895, "fusion_lat": 0.0}, {"is_disabled": 0, "rental_uris": {"android": "https://dc.lft.to/lastmile_qr_scan", "ios": "https://dc.lft.to/lastmile_qr_scan"}, "is_reserved": 0, "name": "66a9e10b3758c74f08f7d1bfaf759bb2", "lon": -77.02335683333334, "type": "electric_scooter", "bike_id": "66a9e10b3758c74f08f7d1bfaf759bb2", "fusion_lon": 0.0, "lat": 38.922308666666666, "fusion_lat": 0.0}, {"is_disabled": 0, "rental_uris": {"android": "https://dc.lft.to/lastmile_qr_scan", "ios": "https://dc.lft.to/lastmile_qr_scan"}, "is_reserved": 0, "name": "1e6a1f3fc701b741fe6d327d061f7f31", "lon": -77.04477783333333, "type": "electric_scooter", "bike_id": "1e6a1f3fc701b741fe6d327d061f7f31", "fusion_lon": 0.0, "lat": 38.911108666666664, "fusion_lat": 0.0}, {"is_disabled": 0, "rental_uris": {"android": "https://dc.lft.to/lastmile_qr_scan", "ios": "https://dc.lft.to/lastmile_qr_scan"}, "is_reserved": 0, "name": "37ff30673c83c593749c9a06b60f005c", "lon": -77.038069, "type": "electric_scooter", "bike_id": "37ff30673c83c593749c9a06b60f005c", "fusion_lon": 0.0, "lat": 38.9307585, "fusion_lat": 0.0}, {"is_disabled": 0, "rental_uris": {"android": "https://dc.lft.to/lastmile_qr_scan", "ios": "https://dc.lft.to/lastmile_qr_scan"}, "is_reserved": 0, "name": "241cba1c34d8e2238ad589e3da962c07", "lon": -76.94941966666667, "type": "electric_scooter", "bike_id": "241cba1c34d8e2238ad589e3da962c07", "fusion_lon": 0.0, "lat": 38.8936475, "fusion_lat": 0.0}, {"is_disabled": 0, "rental_uris": {"android": "https://dc.lft.to/lastmile_qr_scan", "ios": "https://dc.lft.to/lastmile_qr_scan"}, "is_reserved": 0, "name": "c58e5d04111123cdc9834d2cfee1bd01", "lon": -77.053261, "type": "electric_scooter", "bike_id": "c58e5d04111123cdc9834d2cfee1bd01", "fusion_lon": 0.0, "lat": 38.90495966666667, "fusion_lat": 0.0}, {"is_disabled": 0, "rental_uris": {"android": "https://dc.lft.to/lastmile_qr_scan", "ios": "https://dc.lft.to/lastmile_qr_scan"}, "is_reserved": 0, "name": "7df1d2dba734e4451b7eeb2b7d608485", "lon": -77.04276866666666, "type": "electric_scooter", "bike_id": "7df1d2dba734e4451b7eeb2b7d608485", "fusion_lon": 0.0, "lat": 38.9169915, "fusion_lat": 0.0}, {"is_disabled": 0, "rental_uris": {"android": "https://dc.lft.to/lastmile_qr_scan", "ios": "https://dc.lft.to/lastmile_qr_scan"}, "is_reserved": 0, "name": "0694c0d7b572f4c4d0775a71b5f3f04a", "lon": -77.03436333333333, "type": "electric_scooter", "bike_id": "0694c0d7b572f4c4d0775a71b5f3f04a", "fusion_lon": 0.0, "lat": 38.918031166666665, "fusion_lat": 0.0}, {"is_disabled": 0, "rental_uris": {"android": "https://dc.lft.to/lastmile_qr_scan", "ios": "https://dc.lft.to/lastmile_qr_scan"}, "is_reserved": 0, "name": "6eb5b898965e1e3ec6ff3014df449a9d", "lon": -77.0216235, "type": "electric_scooter", "bike_id": "6eb5b898965e1e3ec6ff3014df449a9d", "fusion_lon": 0.0, "lat": 38.92613383333333, "fusion_lat": 0.0}, {"is_disabled": 0, "rental_uris": {"android": "https://dc.lft.to/lastmile_qr_scan", "ios": "https://dc.lft.to/lastmile_qr_scan"}, "is_reserved": 0, "name": "ed105d424bef3dd0288f0997405541ba", "lon": -77.00590866666667, "type": "electric_scooter", "bike_id": "ed105d424bef3dd0288f0997405541ba", "fusion_lon": 0.0, "lat": 38.92755533333333, "fusion_lat": 0.0}, {"is_disabled": 0, "rental_uris": {"android": "https://dc.lft.to/lastmile_qr_scan", "ios": "https://dc.lft.to/lastmile_qr_scan"}, "is_reserved": 0, "name": "4bb7a30ee05cde9b2495d391491a9e7d", "lon": -77.03603233333334, "type": "electric_scooter", "bike_id": "4bb7a30ee05cde9b2495d391491a9e7d", "fusion_lon": 0.0, "lat": 38.91103116666667, "fusion_lat": 0.0}, {"is_disabled": 0, "rental_uris": {"android": "https://dc.lft.to/lastmile_qr_scan", "ios": "https://dc.lft.to/lastmile_qr_scan"}, "is_reserved": 0, "name": "ac455514b542531330fa7fe1755a5082", "lon": -76.98074333333334, "type": "electric_scooter", "bike_id": "ac455514b542531330fa7fe1755a5082", "fusion_lon": 0.0, "lat": 38.919360833333336, "fusion_lat": 0.0}, {"is_disabled": 0, "rental_uris": {"android": "https://dc.lft.to/lastmile_qr_scan", "ios": "https://dc.lft.to/lastmile_qr_scan"}, "is_reserved": 0, "name": "2d5673d3f4bda0eb12a986074fa93700", "lon": -77.05038216666667, "type": "electric_scooter", "bike_id": "2d5673d3f4bda0eb12a986074fa93700", "fusion_lon": 0.0, "lat": 38.923591333333334, "fusion_lat": 0.0}, {"is_disabled": 0, "rental_uris": {"android": "https://dc.lft.to/lastmile_qr_scan", "ios": "https://dc.lft.to/lastmile_qr_scan"}, "is_reserved": 0, "name": "7ee17361ff363f27f636488c3ab06cb4", "lon": -77.025392, "type": "electric_scooter", "bike_id": "7ee17361ff363f27f636488c3ab06cb4", "fusion_lon": 0.0, "lat": 38.90725616666667, "fusion_lat": 0.0}, {"is_disabled": 0, "rental_uris": {"android": "https://dc.lft.to/lastmile_qr_scan", "ios": "https://dc.lft.to/lastmile_qr_scan"}, "is_reserved": 0, "name": "de81b03655c5f923a725375dfdc6c11c", "lon": -76.991188, "type": "electric_scooter", "bike_id": "de81b03655c5f923a725375dfdc6c11c", "fusion_lon": 0.0, "lat": 38.90139416666667, "fusion_lat": 0.0}, {"is_disabled": 0, "rental_uris": {"android": "https://dc.lft.to/lastmile_qr_scan", "ios": "https://dc.lft.to/lastmile_qr_scan"}, "is_reserved": 0, "name": "73e00ebfb102d66fd892c319a8da3bec", "lon": -77.00760416666667, "type": "electric_scooter", "bike_id": "73e00ebfb102d66fd892c319a8da3bec", "fusion_lon": 0.0, "lat": 38.8767255, "fusion_lat": 0.0}, {"is_disabled": 0, "rental_uris": {"android": "https://dc.lft.to/lastmile_qr_scan", "ios": "https://dc.lft.to/lastmile_qr_scan"}, "is_reserved": 0, "name": "0a959ce18c6216cd4559accb42620847", "lon": -77.00875066666667, "type": "electric_scooter", "bike_id": "0a959ce18c6216cd4559accb42620847", "fusion_lon": 0.0, "lat": 38.905785, "fusion_lat": 0.0}, {"is_disabled": 0, "rental_uris": {"android": "https://dc.lft.to/lastmile_qr_scan", "ios": "https://dc.lft.to/lastmile_qr_scan"}, "is_reserved": 0, "name": "628be6c47ca37df52778b9a714e4667f", "lon": -77.04147683333333, "type": "electric_scooter", "bike_id": "628be6c47ca37df52778b9a714e4667f", "fusion_lon": 0.0, "lat": 38.92354383333333, "fusion_lat": 0.0}, {"is_disabled": 0, "rental_uris": {"android": "https://dc.lft.to/lastmile_qr_scan", "ios": "https://dc.lft.to/lastmile_qr_scan"}, "is_reserved": 0, "name": "c0718bb5d8f56e75d28184ac9c2bd236", "lon": -77.04125916666666, "type": "electric_scooter", "bike_id": "c0718bb5d8f56e75d28184ac9c2bd236", "fusion_lon": 0.0, "lat": 38.90582116666667, "fusion_lat": 0.0}, {"is_disabled": 0, "rental_uris": {"android": "https://dc.lft.to/lastmile_qr_scan", "ios": "https://dc.lft.to/lastmile_qr_scan"}, "is_reserved": 0, "name": "3c85107f74f079092b1e23b6e6dbfb7d", "lon": -77.01377383333333, "type": "electric_scooter", "bike_id": "3c85107f74f079092b1e23b6e6dbfb7d", "fusion_lon": 0.0, "lat": 38.8708575, "fusion_lat": 0.0},