{"data": {"bikes": [{"is_reserved": 0, "rental_uris": {"ios": "https://dc.lft.to/lastmile_qr_scan", "android": "https://dc.lft.to/lastmile_qr_scan"}, "is_disabled": 0, "fusion_lon": 0.0, "lat": 38.870096333333336, "type": "electric_bike", "fusion_lat": 0.0, "bike_id": "5c19abba4c3a83f6122feb1f9e3acf91", "name": "5c19abba4c3a83f6122feb1f9e3acf91", "lon": -76.96023283333334}, {"is_reserved": 0, "rental_uris": {"ios": "https://dc.lft.to/lastmile_qr_scan", "android": "https://dc.lft.to/lastmile_qr_scan"}, "is_disabled": 0, "fusion_lon": 0.0, "lat": 38.936739333333335, "type": "electric_bike", "fusion_lat": 0.0, "bike_id": "9c772d1c3f26c40056d149a1a148d66f", "name": "9c772d1c3f26c40056d149a1a148d66f", "lon": -76.9522295}, {"is_reserved": 0, "rental_uris": {"ios": "https://dc.lft.to/lastmile_qr_scan", "android": "https://dc.lft.to/lastmile_qr_scan"}, "is_disabled": 0, "fusion_lon": 0.0, "lat": 38.917131166666664, "type": "electric_scooter", "fusion_lat": 0.0, "bike_id": "7471b3b72096098580d0ce31177de0d8", "name": "7471b3b72096098580d0ce31177de0d8", "lon": -77.03324833333333}, {"is_reserved": 0, "rental_uris": {"ios": "https://dc.lft.to/lastmile_qr_scan", "android": "https://dc.lft.to/lastmile_qr_scan"}, "is_disabled": 0, "fusion_lon": 0.0, "lat": 38.934976166666665, "type": "electric_scooter", "fusion_lat": 0.0, "bike_id": "128999006d012b8fd9d9bd9707f221f8", "name": "128999006d012b8fd9d9bd9707f221f8", "lon": -77.05800033333334}, {"is_reserved": 0, "rental_uris": {"ios": "https://dc.lft.to/lastmile_qr_scan", "android": "https://dc.lft.to/lastmile_qr_scan"}, "is_disabled": 0, "fusion_lon": 0.0, "lat": 38.93615533333333, "type": "electric_scooter", "fusion_lat": 0.0, "bike_id": "e838d5ea7aaaa1faf1b27fba109846ab", "name": "e838d5ea7aaaa1faf1b27fba109846ab", "lon": -77.0818705}, {"is_reserved": 0, "rental_uris": {"ios": "https://dc.lft.to/lastmile_qr_scan", "android": "https://dc.lft.to/lastmile_qr_scan"}, "is_disabled": 0, "fusion_lon": 0.0, "lat": 38.900399666666665, "type": "electric_scooter", "fusion_lat": 0.0, "bike_id": "fd9aa429efdc102fecfd164b05e3efb1", "name": "fd9aa429efdc102fecfd164b05e3efb1", "lon": -76.99750233333333}, {"is_reserved": 0, "rental_uris": {"ios": "https://dc.lft.to/lastmile_qr_scan", "android": "https://dc.lft.to/lastmile_qr_scan"}, "is_disabled": 0, "fusion_lon": 0.0, "lat": 38.913918833333334, "type": "electric_scooter", "fusion_lat": 0.0, "bike_id": "9fffc873f19472a0f201e36a507cf373", "name": "9fffc873f19472a0f201e36a507cf373", "lon": -77.043484}, {"is_reserved": 0, "rental_uris": {"ios": "https://dc.lft.to/lastmile_qr_scan", "android": "https://dc.lft.to/lastmile_qr_scan"}, "is_disabled": 0, "fusion_lon": 0.0, "lat": 38.904971333333336, "type": "electric_scooter", "fusion_lat": 0.0, "bike_id": "ef8750e6a72a9aad66a334b5c27d8822", "name": "ef8750e6a72a9aad66a334b5c27d8822", "lon": -76.97928666666667}, {"is_reserved": 0, "rental_uris": {"ios": "https://dc.lft.to/lastmile_qr_scan", "android": "https://dc.lft.to/lastmile_qr_scan"}, "is_disabled": 0, "fusion_lon": 0.0, "lat": 38.836906666666664, "type": "electric_scooter", "fusion_lat": 0.0, "bike_id": "1d2b5c584d7275d3811b47ba118d2c1a", "name": "1d2b5c584d7275d3811b47ba118d2c1a", "lon": -77.0058095}, {"is_reserved": 0, "rental_uris": {"ios": "https://dc.lft.to/lastmile_qr_scan", "android": "https://dc.lft.to/lastmile_qr_scan"}, "is_disabled": 0, "fusion_lon": 0.0, "lat": 38.89656683333333, "type": "electric_scooter", "fusion_lat": 0.0, "bike_id": "d77bf4ab512156d5c0abcaa7cb338f52", "name": "d77bf4ab512156d5c0abcaa7cb338f52", "lon": -77.027371}, {"is_reserved": 0, "rental_uris": {"ios": "https://dc.lft.to/lastmile_qr_scan", "android": "https://dc.lft.to/lastmile_qr_scan"}, "is_disabled": 0, "fusion_lon": 0.0, "lat": 38.88034283333333, "type": "electric_scooter", "fusion_lat": 0.0, "bike_id": "168a081543ec06b7e38067e6d42d87c8", "name": "168a081543ec06b7e38067e6d42d87c8", "lon": -77.01924616666666}, {"is_reserved": 0, "rental_uris": {"ios": "https://dc.lft.to/lastmile_qr_scan", "android": "https://dc.lft.to/lastmile_qr_scan"}, "is_disabled": 0, "fusion_lon": 0.0, "lat": 38.917535, "type": "electric_scooter", "fusion_lat": 0.0, "bike_id": "dcd6c3e6a3795085a0191f44d92bd1a9", "name": "dcd6c3e6a3795085a0191f44d92bd1a9", "lon": -77.0318175}, {"is_reserved": 0, "rental_uris": {"ios": "https://dc.lft.to/lastmile_qr_scan", "android": "https://dc.lft.to/lastmile_qr_scan"}, "is_disabled": 0, "fusion_lon": 0.0, "lat": 38.9020735, "type": "electric_scooter", "fusion_lat": 0.0, "bike_id": "701111573fddcbab1d467781ee987488", "name": "701111573fddcbab1d467781ee987488", "lon": -77.01981016666667}, {"is_reserved": 0, "rental_uris": {"ios": "https://dc.lft.to/lastmile_qr_scan", "android": "https://dc.lft.to/lastmile_qr_scan"}, "is_disabled": 0, "fusion_lon": 0.0, "lat": 38.928758, "type": "electric_scooter", "fusion_lat": 0.0, "bike_id": "9a8819e3003804256f73377a8a2b44f8", "name": "9a8819e3003804256f73377a8a2b44f8", "lon": -77.032181}, {"is_reserved": 0, "rental_uris": {"ios": "https://dc.lft.to/lastmile_qr_scan", "android": "https://dc.lft.to/lastmile_qr_scan"}, "is_disabled": 0, "fusion_lon": 0.0, "lat": 38.924515, "type": "electric_scooter", "fusion_lat": 0.0, "bike_id": "40decceb7904a9c1a5d2bfc8047c5cd2", "name": "40decceb7904a9c1a5d2bfc8047c5cd2", "lon": -77.057579}, {"is_reserved": 0, "rental_uris": {"ios": "https://dc.lft.to/lastmile_qr_scan", "android": "https://dc.lft.to/lastmile_qr_scan"}, "is_disabled": 0, "fusion_lon": 0.0, "lat": 38.87198716666666, "type": "electric_scooter", "fusion_lat": 0.0, "bike_id": "2dc1e3762df3432635a022216867b19d", "name": "2dc1e3762df3432635a022216867b19d", "lon": -77.0060875}, {"is_reserved": 0, "rental_uris": {"ios": "https://dc.lft.to/lastmile_qr_scan", "android": "https://dc.lft.to/lastmile_qr_scan"}, "is_disabled": 0, "fusion_lon": 0.0, "lat": 38.93360783333333, "type": "electric_scooter", "fusion_lat": 0.0, "bike_id": "b35693a673ec121ee5c38a7382b7caf3", "name": "b35693a673ec121ee5c38a7382b7caf3", "lon": -77.057168}, {"is_reserved": 0, "rental_uris": {"ios": "https://dc.lft.to/lastmile_qr_scan", "android": "https://dc.lft.to/lastmile_qr_scan"}, "is_disabled": 0, "fusion_lon": 0.0, "lat": 38.918213333333334, "type": "electric_scooter", "fusion_lat": 0.0, "bike_id": "338750eab5fb1d71ecb6c8081ba8814d", "name": "338750eab5fb1d71ecb6c8081ba8814d", "lon": -77.03844433333333}, {"is_reserved": 0, "rental_uris": {"ios": "https://dc.lft.to/lastmile_qr_scan", "android": "https://dc.lft.to/lastmile_qr_scan"}, "is_disabled": 0, "fusion_lon": 0.0, "lat": 38.910513333333334, "type": "electric_scooter", "fusion_lat": 0.0, "bike_id": "5d5065679e00b35ab4095bf13869c955", "name": "5d5065679e00b35ab4095bf13869c955", "lon": -77.01524383333333}, {"is_reserved": 0, "rental_uris": {"ios": "https://dc.lft.to/lastmile_qr_scan", "android": "https://dc.lft.to/lastmile_qr_scan"}, "is_disabled": 0, "fusion_lon": 0.0, "lat": 38.8748865, "type": "electric_scooter", "fusion_lat": 0.0, "bike_id": "1c35666e059d9d3f21ba89ccdc01969f", "name": "1c35666e059d9d3f21ba89ccdc01969f", "lon": -77.00117466666667}, {"is_reserved": 0, "rental_uris": {"ios": "https://dc.lft.to/lastmile_qr_scan", "android": "https://dc.lft.to/lastmile_qr_scan"}, "is_disabled": 0, "fusion_lon": 0.0, "lat": 38.885195333333336, "type": "electric_scooter", "fusion_lat": 0.0, "bike_id": "f0b7fc5108abf79fbe28984224064164", "name": "f0b7fc5108abf79fbe28984224064164", "lon": -77.01581016666667}, {"is_reserved": 0, "rental_uris": {"ios": "https://dc.lft.to/lastmile_qr_scan", "android": "https://dc.lft.to/lastmile_qr_scan"}, "is_disabled": 0, "fusion_lon": 0.0, "lat": 38.90803483333333, "type": "electric_scooter", "fusion_lat": 0.0, "bike_id": "d97164c849a2f28da1ca5e67ab15d554", "name": "d97164c849a2f28da1ca5e67ab15d554", "lon": -77.03419666666667}, {"is_reserved": 0, "rental_uris": {"ios": "https://dc.lft.to/lastmile_qr_scan", "android": "https://dc.lft.to/lastmile_qr_scan"}, "is_disabled": 0, "fusion_lon": 0.0, "lat": 38.9055455, "type": "electric_scooter", "fusion_lat": 0.0, "bike_id": "a2aaf451371ca2395439b40d1eea5cdb", "name": "a2aaf451371ca2395439b40d1eea5cdb", "lon": -77.04552566666666}, {"is_reserved": 0, "rental_uris": {"ios": "https://dc.lft.to/lastmile_qr_scan", "android": "https://dc.lft.to/lastmile_qr_scan"}, "is_disabled": 0, "fusion_lon": 0.0, "lat": 38.8922375, "type": "electric_scooter", "fusion_lat": 0.0, "bike_id": "c21c97ac587bf4802e3dc4fd0cffcb35", "name": "c21c97ac587bf4802e3dc4fd0cffcb35", "lon": -77.04652133333333}, {"is_reserved": 0, "rental_uris": {"ios": "https://dc.lft.to/lastmile_qr_scan", "android": "https://dc.lft.to/lastmile_qr_scan"}, "is_disabled": 0, "fusion_lon": 0.0, "lat": 38.92344466666667, "type": "electric_scooter", "fusion_lat": 0.0, "bike_id": "04984be6b753201343bf4fc711f3bf7b", "name": "04984be6b753201343bf4fc711f3bf7b", "lon": -77.0506765}, {"is_reserved": 0, "rental_uris": {"ios": "https://dc.lft.to/lastmile_qr_scan", "android": "https://dc.lft.to/lastmile_qr_scan"}, "is_disabled": 0, "fusion_lon": 0.0, "lat": 38.95635733333334, "type": "electric_scooter", "fusion_lat": 0.0, "bike_id": "34bd761b52b1c714d17b14064073c330", "name": "34bd761b52b1c714d17b14064073c330", "lon": -77.033035}, {"is_reserved": 0, "rental_uris": {"ios": "https://dc.lft.to/lastmile_qr_scan", "android": "https://dc.lft.to/lastmile_qr_scan"}, "is_disabled": 0, "fusion_lon": 0.0, "lat": 38.90508633333334, "type": "electric_scooter", "fusion_lat": 0.0, "bike_id": "18a3f239e8ce1adc0f61fa1f8177cb78", "name": "18a3f239e8ce1adc0f61fa1f8177cb78", "lon": -77.06654266666666}, {"is_reserved": 0, "rental_uris": {"ios": "https://dc.lft.to/lastmile_qr_scan", "android": "https://dc.lft.to/lastmile_qr_scan"}, "is_disabled": 0, "fusion_lon": 0.0, "lat": 38.90491383333333, "type": "electric_scooter", "fusion_lat": 0.0, "bike_id": "f48434d6d6a8d93c1ffc003625bdfe6d", "name": "f48434d6d6a8d93c1ffc003625bdfe6d", "lon": -77.06788116666667}, {"is_reserved": 0, "rental_uris": {"ios": "https://dc.lft.to/lastmile_qr_scan", "android": "https://dc.lft.to/lastmile_qr_scan"}, "is_disabled": 0, "fusion_lon": 0.0, "lat": 38.902657833333336, "type": "electric_scooter", "fusion_lat": 0.0, "bike_id": "32016bb8200759e86f1ab07e0ea2a158", "name": "32016bb8200759e86f1ab07e0ea2a158", "lon": -77.04909183333334}, {"is_reserved": 0, "rental_uris": {"ios": "https://dc.lft.to/lastmile_qr_scan", "android": "https://dc.lft.to/lastmile_qr_scan"}, "is_disabled": 0, "fusion_lon": 0.0, "lat": 38.909588, "type": "electric_scooter", "fusion_lat": 0.0, "bike_id": "737c4f279b661a8160d580ff1071d72b", "name": "737c4f279b661a8160d580ff1071d72b", "lon": -77.046466}, {"is_reserved": 0, "rental_uris": {"ios": "https://dc.lft.to/lastmile_qr_scan", "android": "https://dc.lft.to/lastmile_qr_scan"}, "is_disabled": 0, "fusion_lon": 0.0, "lat": 38.8551595, "type": "electric_bike", "fusion_lat": 0.0, "bike_id": "c8e4acd7ecb16ef4be7910e8b79f3283", "name": "c8e4acd7ecb16ef4be7910e8b79f3283", "lon": -77.12022816666666}, {"is_reserved": 0, "rental_uris": {"ios": "https://dc.lft.to/lastmile_qr_scan", "android": "https://dc.lft.to/lastmile_qr_scan"}, "is_disabled": 0, "fusion_lon": 0.0, "lat": 38.896084333333334, "type": "electric_scooter", "fusion_lat": 0.0, "bike_id": "d38694c8bc38d700924184b6c5444767", "name": "d38694c8bc38d700924184b6c5444767", "lon": -77.04554166666667}, {"is_reserved": 0, "rental_uris": {"ios": "https://dc.lft.to/lastmile_qr_scan", "android": "https://dc.lft.to/lastmile_qr_scan"}, "is_disabled": 0, "fusion_lon": 0.0, "lat": 38.911798833333336, "type": "electric_scooter", "fusion_lat": 0.0, "bike_id": "9308cab448b0eaae8a304d985c14b8ac", "name": "9308cab448b0eaae8a304d985c14b8ac", "lon": -77.03445166666667}, {"is_reserved": 0, "rental_uris": {"ios": "https://dc.lft.to/lastmile_qr_scan", "android": "https://dc.lft.to/lastmile_qr_scan"}, "is_disabled": 0, "fusion_lon": 0.0, "lat": 38.999405833333334, "type": "electric_bike", "fusion_lat": 0.0, "bike_id": "c49247117b0114bd3f4769958c005e8f", "name": "c49247117b0114bd3f4769958c005e8f", "lon": -77.017673}, {"is_reserved": 0, "rental_uris": {"ios": "https://dc.lft.to/lastmile_qr_scan", "android": "https://dc.lft.to/lastmile_qr_scan"}, "is_disabled": 0, "fusion_lon": 0.0, "lat": 38.93243616666667, "type": "electric_scooter", "fusion_lat": 0.0, "bike_id": "649d8231046968b8fb5551c3c922f27a", "name": "649d8231046968b8fb5551c3c922f27a", "lon": -77.038623}, {"is_reserved": 0, "rental_uris": {"ios": "https://dc.lft.to/lastmile_qr_scan", "android": "https://dc.lft.to/lastmile_qr_scan"}, "is_disabled": 0, "fusion_lon": 0.0, "lat": 38.938766, "type": "electric_scooter", "fusion_lat": 0.0, "bike_id": "4af9869abf27e508fabcb32ee490121d", "name": "4af9869abf27e508fabcb32ee490121d", "lon": -77.024833}, {"is_reserved": 0, "rental_uris": {"ios": "https://dc.lft.to/lastmile_qr_scan", "android": "https://dc.lft.to/lastmile_qr_scan"}, "is_disabled": 0, "fusion_lon": 0.0, "lat": 38.9161225, "type": "electric_scooter", "fusion_lat": 0.0, "bike_id": "cc2da136b9c0be14f7e05edfd03c81f2", "name": "cc2da136b9c0be14f7e05edfd03c81f2", "lon": -77.04877266666666}, {"is_reserved": 0, "rental_uris": {"ios": "https://dc.lft.to/lastmile_qr_scan", "android": "https://dc.lft.to/lastmile_qr_scan"}, "is_disabled": 0, "fusion_lon": 0.0, "lat": 38.88514933333333, "type": "electric_scooter", "fusion_lat": 0.0, "bike_id": "1bb32b998dfcc0bccbb02ba382630568", "name": "1bb32b998dfcc0bccbb02ba382630568", "lon": -77.0212225}, {"is_reserved": 0, "rental_uris": {"ios": "https://dc.lft.to/lastmile_qr_scan", "android": "https://dc.lft.to/lastmile_qr_scan"}, "is_disabled": 0, "fusion_lon": 0.0, "lat": 38.949674, "type": "electric_bike", "fusion_lat": 0.0, "bike_id": "71c025d0b5e9d5d78235e47899b8e175", "name": "71c025d0b5e9d5d78235e47899b8e175", "lon": -77.06683883333334}, {"is_reserved": 0, "rental_uris": {"ios": "https://dc.lft.to/lastmile_qr_scan", "android": "https://dc.lft.to/lastmile_qr_scan"}, "is_disabled": 0, "fusion_lon": 0.0, "lat": 38.91546133333333, "type": "electric_scooter", "fusion_lat": 0.0, "bike_id": "0f91ac30841ec431aff4f9f638216628", "name": "0f91ac30841ec431aff4f9f638216628", "lon": -77.03841466666667}, {"is_reserved": 0, "rental_uris": {"ios": "https://dc.lft.to/lastmile_qr_scan", "android": "https://dc.lft.to/lastmile_qr_scan"}, "is_disabled": 0, "fusion_lon": 0.0, "lat": 38.892193, "type": "electric_scooter", "fusion_lat": 0.0, "bike_id": "24dab406fdf013f591b9337133414825", "name": "24dab406fdf013f591b9337133414825", "lon": -77.02632066666666}, {"is_reserved": 0, "rental_uris": {"ios": "https://dc.lft.to/lastmile_qr_scan", "android": "https://dc.lft.to/lastmile_qr_scan"}, "is_disabled": 0, "fusion_lon": 0.0, "lat": 38.8985255, "type": "electric_bike", "fusion_lat": 0.0, "bike_id": "5ca22f415b6aace6b0a48b7e83ef1b83", "name": "5ca22f415b6aace6b0a48b7e83ef1b83", "lon": -76.93190383333334}, {"is_reserved": 0, "rental_uris": {"ios": "https://dc.lft.to/lastmile_qr_scan", "android": "https://dc.lft.to/lastmile_qr_scan"}, "is_disabled": 0, "fusion_lon": 0.0, "lat": 38.922181333333334, "type": "electric_scooter", "fusion_lat": 0.0, "bike_id": "4e2287223cad14dad26adb01f158acc0", "name": "4e2287223cad14dad26adb01f158acc0", "lon": -77.03292916666666}, {"is_reserved": 0, "rental_uris": {"ios": "https://dc.lft.to/lastmile_qr_scan", "android": "https://dc.lft.to/lastmile_qr_scan"}, "is_disabled": 0, "fusion_lon": 0.0, "lat": 39.08857183333333, "type": "electric_bike", "fusion_lat": 0.0, "bike_id": "e816dfb4bbb6656dabb38822457faa9f", "name": "e816dfb4bbb6656dabb38822457faa9f", "lon": -77.1783975}, {"is_reserved": 0, "rental_uris": {"ios": "https://dc.lft.to/lastmile_qr_scan", "android": "https://dc.lft.to/lastmile_qr_scan"}, "is_disabled": 0, "fusion_lon": 0.0, "lat": 38.90728166666667, "type": "electric_scooter", "fusion_lat": 0.0, "bike_id": "595b65ea40c80050e4e1543f1190f80f", "name": "595b65ea40c80050e4e1543f1190f80f", "lon": -77.040042}, {"is_reserved": 0, "rental_uris": {"ios": "https://dc.lft.to/lastmile_qr_scan", "android": "https://dc.lft.to/lastmile_qr_scan"}, "is_disabled": 0, "fusion_lon": 0.0, "lat": 38.9286255, "type": "electric_bike", "fusion_lat": 0.0, "bike_id": "a3a0c8c01fc513f8643392d707c0e0be", "name": "a3a0c8c01fc513f8643392d707c0e0be", "lon": -77.22209}, {"is_reserved": 0, "rental_uris": {"ios": "https://dc.lft.to/lastmile_qr_scan", "android": "https://dc.lft.to/lastmile_qr_scan"}, "is_disabled": 0, "fusion_lon": 0.0, "lat": 38.928743, "type": "electric_scooter", "fusion_lat": 0.0, "bike_id": "a2d281edd5f9f0133c37bfd9b26dfc7a", "name": "a2d281edd5f9f0133c37bfd9b26dfc7a", "lon": -77.0271055}, {"is_reserved": 0, "rental_uris": {"ios": "https://dc.lft.to/lastmile_qr_scan", "android": "https://dc.lft.to/lastmile_qr_scan"}, "is_disabled": 0, "fusion_lon": 0.0, "lat": 38.98365883333334, "type": "electric_scooter", "fusion_lat": 0.0, "bike_id": "406a49a376eb0c6c78a6d6d6a17d0ce1", "name": "406a49a376eb0c6c78a6d6d6a17d0ce1", "lon": -77.02645566666666}, {"is_reserved": 0, "rental_uris": {"ios": "https://dc.lft.to/lastmile_qr_scan", "android": "https://dc.lft.to/lastmile_qr_scan"}, "is_disabled": 0, "fusion_lon": 0.0, "lat": 38.899462, "type": "electric_scooter", "fusion_lat": 0.0, "bike_id": "eb2b981c5cdde3dc7d92bc25c2d186e9", "name": "eb2b981c5cdde3dc7d92bc25c2d186e9", "lon": -77.02134233333334}, {"is_reserved": 0, "rental_uris": {"ios": "https://dc.lft.to/lastmile_qr_scan", "android": "https://dc.lft.to/lastmile_qr_scan"}, "is_disabled": 0, "fusion_lon": 0.0, "lat": 38.905122666666664, "type": "electric_scooter", "fusion_lat": 0.0, "bike_id": "31af792ff4485a24d5cdaabc06c10122", "name": "31af792ff4485a24d5cdaabc06c10122", "lon": -77.04344766666667}, {"is_reserved": 0, "rental_uris": {"ios": "https://dc.lft.to/lastmile_qr_scan", "android": "https://dc.lft.to/lastmile_qr_scan"}, "is_disabled": 0, "fusion_lon": 0.0, "lat": 38.87376483333333, "type": "electric_bike", "fusion_lat": 0.0, "bike_id": "c77cb1684a021e72997f8e96bdc4195a", "name": "c77cb1684a021e72997f8e96bdc4195a", "lon": -77.11803}, {"is_reserved": 0, "rental_uris": {"ios": "https://dc.lft.to/lastmile_qr_scan", "android": "https://dc.lft.to/lastmile_qr_scan"}, "is_disabled": 0, "fusion_lon": 0.0, "lat": 38.8949865, "type": "electric_scooter", "fusion_lat": 0.0, "bike_id": "803c4b5ce6c6b8c6798c39aa1c889cf3", "name": "803c4b5ce6c6b8c6798c39aa1c889cf3", "lon": -77.02283433333334}, {"is_reserved": 0, "rental_uris": {"ios": "https://dc.lft.to/lastmile_qr_scan", "android": "https://dc.lft.to/lastmile_qr_scan"}, "is_disabled": 0, "fusion_lon": 0.0, "lat": 38.893471, "type": "electric_scooter", "fusion_lat": 0.0, "bike_id": "49268231390ad32b94f60968351624b6", "name": "49268231390ad32b94f60968351624b6", "lon": -76.94935366666667}, {"is_reserved": 0, "rental_uris": {"ios": "https://dc.lft.to/lastmile_qr_scan", "android": "https://dc.lft.to/lastmile_qr_scan"}, "is_disabled": 0, "fusion_lon": 0.0, "lat": 38.944304833333334, "type": "electric_scooter", "fusion_lat": 0.0, "bike_id": "ab213d09b9f1169f25cbfeb29de2c2fd", "name": "ab213d09b9f1169f25cbfeb29de2c2fd", "lon": -76.99207883333334}, {"is_reserved": 0, "rental_uris": {"ios": "https://dc.lft.to/lastmile_qr_scan", "android": "https://dc.lft.to/lastmile_qr_scan"}, "is_disabled": 0, "fusion_lon": 0.0, "lat": 38.881249833333335, "type": "electric_scooter", "fusion_lat": 0.0, "bike_id": "57aa718930777a85091dcc9d57884c28", "name": "57aa718930777a85091dcc9d57884c28", "lon": -77.00094016666667}, {"is_reserved": 0, "rental_uris": {"ios": "https://dc.lft.to/lastmile_qr_scan", "android": "https://dc.lft.to/lastmile_qr_scan"}, "is_disabled": 0, "fusion_lon": 0.0, "lat": 38.9028235, "type": "electric_scooter", "fusion_lat": 0.0, "bike_id": "3bd38fa941eb57a8d065f21996e035e7", "name": "3bd38fa941eb57a8d065f21996e035e7", "lon": -77.03852816666667}, {"is_reserved": 0, "rental_uris": {"ios": "https://dc.lft.to/lastmile_qr_scan", "android": "https://dc.lft.to/lastmile_qr_scan"}, "is_disabled": 0, "fusion_lon": 0.0, "lat": 38.93473516666667, "type": "electric_scooter", "fusion_lat": 0.0, "bike_id": "69ce71c6039a0cb56a7daf77daa26183", "name": "69ce71c6039a0cb56a7daf77daa26183", "lon": -77.019312}, {"is_reserved": 0, "rental_uris": {"ios": "https://dc.lft.to/lastmile_qr_scan", "android": "https://dc.lft.to/lastmile_qr_scan"}, "is_disabled": 0, "fusion_lon": 0.0, "lat": 38.89220133333333, "type": "electric_scooter", "fusion_lat": 0.0, "bike_id": "e53a53ab7137815e9b6690e5e824c181", "name": "e53a53ab7137815e9b6690e5e824c181", "lon": -77.0222225}, {"is_reserved": 0, "rental_uris": {"ios": "https://dc.lft.to/lastmile_qr_scan", "android": "https://dc.lft.to/lastmile_qr_scan"}, "is_disabled": 0, "fusion_lon": 0.0, "lat": 38.91620133333333, "type": "electric_scooter", "fusion_lat": 0.0, "bike_id": "711a446f24cfc554fb0142e4555cc448", "name": "711a446f24cfc554fb0142e4555cc448", "lon": -77.03188233333333}, {"is_reserved": 0, "rental_uris": {"ios": "https://dc.lft.to/lastmile_qr_scan", "android": "https://dc.lft.to/lastmile_qr_scan"}, "is_disabled": 0, "fusion_lon": 0.0, "lat": 38.8850625, "type": "electric_scooter", "fusion_lat": 0.0, "bike_id": "5159d20a7bcaf7ef4849f6ad8af9f28e", "name": "5159d20a7bcaf7ef4849f6ad8af9f28e", "lon": -77.005665}, {"is_reserved": 0, "rental_uris": {"ios": "https://dc.lft.to/lastmile_qr_scan", "android": "https://dc.lft.to/lastmile_qr_scan"}, "is_disabled": 0, "fusion_lon": 0.0, "lat": 38.919489166666665, "type": "electric_scooter", "fusion_lat": 0.0, "bike_id": "06b595ca69a4923741db0662adbbd827", "name": "06b595ca69a4923741db0662adbbd827", "lon": -77.04149233333334}, {"is_reserved": 0, "rental_uris": {"ios": "https://dc.lft.to/lastmile_qr_scan", "android": "https://dc.lft.to/lastmile_qr_scan"}, "is_disabled": 0, "fusion_lon": 0.0, "lat": 38.905953833333335, "type": "electric_scooter", "fusion_lat": 0.0, "bike_id": "d5ce2dae73a1f6c6d16110d618385e0d", "name": "d5ce2dae73a1f6c6d16110d618385e0d", "lon": -77.04115533333334}, {"is_reserved": 0, "rental_uris": {"ios": "https://dc.lft.to/lastmile_qr_scan", "android": "https://dc.lft.to/lastmile_qr_scan"}, "is_disabled": 0, "fusion_lon": 0.0, "lat": 38.92047566666667, "type": "electric_scooter", "fusion_lat": 0.0, "bike_id": "ad37cce400efd631867fa7eae4ff8975", "name": "ad37cce400efd631867fa7eae4ff8975", "lon": -77.03424666666666}, {"is_reserved": 0, "rental_uris": {"ios": "https://dc.lft.to/lastmile_qr_scan", "android": "https://dc.lft.to/lastmile_qr_scan"}, "is_disabled": 0, "fusion_lon": 0.0, "lat": 38.899181166666665, "type": "electric_scooter", "fusion_lat": 0.0, "bike_id": "f1be913038bc9fec7bb6648fc1704e6f", "name": "f1be913038bc9fec7bb6648fc1704e6f", "lon": -76.933785}, {"is_reserved": 0, "rental_uris": {"ios": "https://dc.lft.to/lastmile_qr_scan", "android": "https://dc.lft.to/lastmile_qr_scan"}, "is_disabled": 0, "fusion_lon": 0.0, "lat": 38.915646833333334, "type": "electric_scooter", "fusion_lat": 0.0, "bike_id": "7d762da1364ead798e5771a25712a9ac", "name": "7d762da1364ead798e5771a25712a9ac", "lon": -77.02175516666667}, {"is_reserved": 0, "rental_uris": {"ios": "https://dc.lft.to/lastmile_qr_scan", "android": "https://dc.lft.to/lastmile_qr_scan"}, "is_disabled": 0, "fusion_lon": 0.0, "lat": 38.894981333333334, "type": "electric_scooter", "fusion_lat": 0.0, "bike_id": "2887923016f6b9405ce5d475725777f1", "name": "2887923016f6b9405ce5d475725777f1", "lon": -77.02285916666666}, {"is_reserved": 0, "rental_uris": {"ios": "https://dc.lft.to/lastmile_qr_scan", "android": "https://dc.lft.to/lastmile_qr_scan"}, "is_disabled": 0, "fusion_lon": 0.0, "lat": 38.88449133333334, "type": "electric_scooter", "fusion_lat": 0.0, "bike_id": "e336c05460c36dfb0cf7521f839ee790", "name": "e336c05460c36dfb0cf7521f839ee790", "lon": -76.95097766666666}, {"is_reserved": 0, "rental_uris": {"ios": "https://dc.lft.to/lastmile_qr_scan", "android": "https://dc.lft.to/lastmile_qr_scan"}, "is_disabled": 0, "fusion_lon": 0.0, "lat": 38.928712, "type": "electric_scooter", "fusion_lat": 0.0, "bike_id": "4039ae70ffaabf2863da475a560ea2af", "name": "4039ae70ffaabf2863da475a560ea2af", "lon": -77.013755}, {"is_reserved": 0, "rental_uris": {"ios": "https://dc.lft.to/lastmile_qr_scan", "android": "https://dc.lft.to/lastmile_qr_scan"}, "is_disabled": 0, "fusion_lon": 0.0, "lat": 38.91694, "type": "electric_scooter", "fusion_lat": 0.0, "bike_id": "0b999906133aa170c3c4dec1cfeddb42", "name": "0b999906133aa170c3c4dec1cfeddb42", "lon": -77.025932}, {"is_reserved": 0, "rental_uris": {"ios": "https://dc.lft.to/lastmile_qr_scan", "android": "https://dc.lft.to/lastmile_qr_scan"}, "is_disabled": 0, "fusion_lon": 0.0, "lat": 38.9155485, "type": "electric_scooter", "fusion_lat": 0.0, "bike_id": "e38d032ac233b662141f39e53596f159", "name": "e38d032ac233b662141f39e53596f159", "lon": -77.03027666666667}, {"is_reserved": 0, "rental_uris": {"ios": "https://dc.lft.to/lastmile_qr_scan", "android": "https://dc.lft.to/lastmile_qr_scan"}, "is_disabled": 0, "fusion_lon": 0.0, "lat": 38.900762666666665, "type": "electric_scooter", "fusion_lat": 0.0, "bike_id": "4798bb7a3302e0b1f395bbc669592ec9", "name": "4798bb7a3302e0b1f395bbc669592ec9", "lon": -77.04648816666666}, {"is_reserved": 0, "rental_uris": {"ios": "https://dc.lft.to/lastmile_qr_scan", "android": "https://dc.lft.to/lastmile_qr_scan"}, "is_disabled": 0, "fusion_lon": 0.0, "lat": 38.85324216666667, "type": "electric_bike", "fusion_lat": 0.0, "bike_id": "4da74af21c85676de0ee2cdb6aa8c572", "name": "4da74af21c85676de0ee2cdb6aa8c572", "lon": -76.9800315}, {"is_reserved": 0, "rental_uris": {"ios": "https://dc.lft.to/lastmile_qr_scan", "android": "https://dc.lft.to/lastmile_qr_scan"}, "is_disabled": 0, "fusion_lon": 0.0, "lat": 38.89683133333333, "type": "electric_scooter", "fusion_lat": 0.0, "bike_id": "aa925f554b2a4cc9b8dacfc5af119dae", "name": "aa925f554b2a4cc9b8dacfc5af119dae", "lon": -76.99625816666666}, {"is_reserved": 0, "rental_uris": {"ios": "https://dc.lft.to/lastmile_qr_scan", "android": "https://dc.lft.to/lastmile_qr_scan"}, "is_disabled": 0, "fusion_lon": 0.0, "lat": 38.900762666666665, "type": "electric_scooter", "fusion_lat": 0.0, "bike_id": "ba6a3364628b70f4921ba34915c51c62", "name": "ba6a3364628b70f4921ba34915c51c62", "lon": -77.0392435}, {"is_reserved": 0, "rental_uris": {"ios": "https://dc.lft.to/lastmile_qr_scan", "android": "https://dc.lft.to/lastmile_qr_scan"}, "is_disabled": 0, "fusion_lon": 0.0, "lat": 38.90524633333333, "type": "electric_scooter", "fusion_lat": 0.0, "bike_id": "1f4f3932c73e3c77cdd8af436a3df9c7", "name": "1f4f3932c73e3c77cdd8af436a3df9c7", "lon": -77.0654225}, {"is_reserved": 0, "rental_uris": {"ios": "https://dc.lft.to/lastmile_qr_scan", "android": "https://dc.lft.to/lastmile_qr_scan"}, "is_disabled": 0, "fusion_lon": 0.0, "lat": 38.899673666666665, "type": "electric_bike", "fusion_lat": 0.0, "bike_id": "6f7996d8a12cfb3eec5c9734a51bf8a1", "name": "6f7996d8a12cfb3eec5c9734a51bf8a1", "lon": -76.98670383333334}, {"is_reserved": 0, "rental_uris": {"ios": "https://dc.lft.to/lastmile_qr_scan", "android": "https://dc.lft.to/lastmile_qr_scan"}, "is_disabled": 0, "fusion_lon": 0.0, "lat": 38.92853783333333, "type": "electric_scooter", "fusion_lat": 0.0, "bike_id": "c6b7dd440f544d91aa9df1fb59c3006b", "name": "c6b7dd440f544d91aa9df1fb59c3006b", "lon": -77.0288235}, {"is_reserved": 0, "rental_uris": {"ios": "https://dc.lft.to/lastmile_qr_scan", "android": "https://dc.lft.to/lastmile_qr_scan"}, "is_disabled": 0, "fusion_lon": 0.0, "lat": 38.92480966666667, "type": "electric_scooter", "fusion_lat": 0.0, "bike_id": "71fc2f21ec6bb5d94e034e911f6ffba6", "name": "71fc2f21ec6bb5d94e034e911f6ffba6", "lon": -77.02719016666667}, {"is_reserved": 0, "rental_uris": {"ios": "https://dc.lft.to/lastmile_qr_scan", "android": "https://dc.lft.to/lastmile_qr_scan"}, "is_disabled": 0, "fusion_lon": 0.0, "lat": 38.871157, "type": "electric_scooter", "fusion_lat": 0.0, "bike_id": "61bdcf7d04e55013064fd16c82083554", "name": "61bdcf7d04e55013064fd16c82083554", "lon": -77.01070566666667}, {"is_reserved": 0, "rental_uris": {"ios": "https://dc.lft.to/lastmile_qr_scan", "android": "https://dc.lft.to/lastmile_qr_scan"}, "is_disabled": 0, "fusion_lon": 0.0, "lat": 38.91252166666666, "type": "electric_scooter", "fusion_lat": 0.0, "bike_id": "eef2a23f4ae7b1e8ee7ee13370d61dbc", "name": "eef2a23f4ae7b1e8ee7ee13370d61dbc", "lon": -77.0362965}, {"is_reserved": 0, "rental_uris": {"ios": "https://dc.lft.to/lastmile_qr_scan", "android": "https://dc.lft.to/lastmile_qr_scan"}, "is_disabled": 0, "fusion_lon": 0.0, "lat": 38.87733583333333, "type": "electric_bike", "fusion_lat": 0.0, "bike_id": "e13ead2201522db4325352d0d77f1612", "name": "e13ead2201522db4325352d0d77f1612", "lon": -77.1184965}, {"is_reserved": 0, "rental_uris": {"ios": "https://dc.lft.to/lastmile_qr_scan", "android": "https://dc.lft.to/lastmile_qr_scan"}, "is_disabled": 0, "fusion_lon": 0.0, "lat": 38.896645166666666, "type": "electric_scooter", "fusion_lat": 0.0, "bike_id": "7d1cf10f959bede0d368fac4d1b19d8f", "name": "7d1cf10f959bede0d368fac4d1b19d8f", "lon": -76.98094316666666}, {"is_reserved": 0, "rental_uris": {"ios": "https://dc.lft.to/lastmile_qr_scan", "android": "https://dc.lft.to/lastmile_qr_scan"}, "is_disabled": 0, "fusion_lon": 0.0, "lat": 38.951862166666665, "type": "electric_bike", "fusion_lat": 0.0, "bike_id": "52e348e8987015b50afcb0aa57321bd0", "name": "52e348e8987015b50afcb0aa57321bd0", "lon": -76.93542383333333}, {"is_reserved": 0, "rental_uris": {"ios": "https://dc.lft.to/lastmile_qr_scan", "android": "https://dc.lft.to/lastmile_qr_scan"}, "is_disabled": 0, "fusion_lon": 0.0, "lat": 38.89713416666667, "type": "electric_scooter", "fusion_lat": 0.0, "bike_id": "7e0221b155530cacd93fd360d119f0f6", "name": "7e0221b155530cacd93fd360d119f0f6", "lon": -77.00682783333333}, {"is_reserved": 0, "rental_uris": {"ios": "https://dc.lft.to/lastmile_qr_scan", "android": "https://dc.lft.to/lastmile_qr_scan"}, "is_disabled": 0, "fusion_lon": 0.0, "lat": 38.86370466666666, "type": "electric_scooter", "fusion_lat": 0.0, "bike_id": "2f5a7cfa65bb64e10e05c5e48789dae9", "name": "2f5a7cfa65bb64e10e05c5e48789dae9", "lon": -76.99041516666666}, {"is_reserved": 0, "rental_uris": {"ios": "https://dc.lft.to/lastmile_qr_scan", "android": "https://dc.lft.to/lastmile_qr_scan"}, "is_disabled": 0, "fusion_lon": 0.0, "lat": 38.91679716666667, "type": "electric_scooter", "fusion_lat": 0.0, "bike_id": "31e01e6e1ae7c1a853ad05fa9aa8a8f0", "name": "31e01e6e1ae7c1a853ad05fa9aa8a8f0", "lon": -77.03690866666666}, {"is_reserved": 0, "rental_uris": {"ios": "https://dc.lft.to/lastmile_qr_scan", "android": "https://dc.lft.to/lastmile_qr_scan"}, "is_disabled": 0, "fusion_lon": 0.0, "lat": 38.90359466666666, "type": "electric_scooter", "fusion_lat": 0.0, "bike_id": "8bae44b3677346bd20c813ce65a6f2aa", "name": "8bae44b3677346bd20c813ce65a6f2aa", "lon": -77.044959}, {"is_reserved": 0, "rental_uris": {"ios": "https://dc.lft.to/lastmile_qr_scan", "android": "https://dc.lft.to/lastmile_qr_scan"}, "is_disabled": 0, "fusion_lon": 0.0, "lat": 38.956359166666665, "type": "electric_scooter", "fusion_lat": 0.0, "bike_id": "94d669220c4782566532a961cf0eb196", "name": "94d669220c4782566532a961cf0eb196", "lon": -77.03306333333333}, {"is_reserved": 0, "rental_uris": {"ios": "https://dc.lft.to/lastmile_qr_scan", "android": "https://dc.lft.to/lastmile_qr_scan"}, "is_disabled": 0, "fusion_lon": 0.0, "lat": 38.916626666666666, "type": "electric_scooter", "fusion_lat": 0.0, "bike_id": "b361602f9678b907558ff9c772e25058", "name": "b361602f9678b907558ff9c772e25058", "lon": -77.041547}, {"is_reserved": 0, "rental_uris": {"ios": "https://dc.lft.to/lastmile_qr_scan", "android": "https://dc.lft.to/lastmile_qr_scan"}, "is_disabled": 0, "fusion_lon": 0.0, "lat": 38.897981333333334, "type": "electric_scooter", "fusion_lat": 0.0, "bike_id": "ab5f10c3a5ee382adf34d02fe9523de3", "name": "ab5f10c3a5ee382adf34d02fe9523de3", "lon": -76.99165333333333}, {"is_reserved": 0, "rental_uris": {"ios": "https://dc.lft.to/lastmile_qr_scan", "android": "https://dc.lft.to/lastmile_qr_scan"}, "is_disabled": 0, "fusion_lon": 0.0, "lat": 38.917070833333334, "type": "electric_scooter", "fusion_lat": 0.0, "bike_id": "e61203346509762e5311d60ab67682c8", "name": "e61203346509762e5311d60ab67682c8", "lon": -77.00715216666667}, {"is_reserved": 0, "rental_uris": {"ios": "https://dc.lft.to/lastmile_qr_scan", "android": "https://dc.lft.to/lastmile_qr_scan"}, "is_disabled": 0, "fusion_lon": 0.0, "lat": 38.86460016666667, "type": "electric_bike", "fusion_lat": 0.0, "bike_id": "be418e0a47e6a2ee6aa74e9e639ec5a9", "name": "be418e0a47e6a2ee6aa74e9e639ec5a9", "lon": -76.9454575}, {"is_reserved": 0, "rental_uris": {"ios": "https://dc.lft.to/lastmile_qr_scan", "android": "https://dc.lft.to/lastmile_qr_scan"}, "is_disabled": 0, "fusion_lon": 0.0, "lat": 38.871467833333334, "type": "electric_bike", "fusion_lat": 0.0, "bike_id": "e0b219ccd5afb9e5be20729f70b985f3", "name": "e0b219ccd5afb9e5be20729f70b985f3", "lon": -76.93704}, {"is_reserved": 0, "rental_uris": {"ios": "https://dc.lft.to/lastmile_qr_scan", "android": "https://dc.lft.to/lastmile_qr_scan"}, "is_disabled": 0, "fusion_lon": 0.0, "lat": 38.902415833333336, "type": "electric_scooter", "fusion_lat": 0.0, "bike_id": "d5e8e34f32acef07f224741963a60338", "name": "d5e8e34f32acef07f224741963a60338", "lon": -77.0020115}, {"is_reserved": 0, "rental_uris": {"ios": "https://dc.lft.to/lastmile_qr_scan", "android": "https://dc.lft.to/lastmile_qr_scan"}, "is_disabled": 0, "fusion_lon": 0.0, "lat": 38.923772, "type": "electric_scooter", "fusion_lat": 0.0, "bike_id": "18378e3fcb1da5fc3ea5a7ef7b53f345", "name": "18378e3fcb1da5fc3ea5a7ef7b53f345", "lon": -77.01914816666667}, {"is_reserved": 0, "rental_uris": {"ios": "https://dc.lft.to/lastmile_qr_scan", "android": "https://dc.lft.to/lastmile_qr_scan"}, "is_disabled": 0, "fusion_lon": 0.0, "lat": 38.89851433333333, "type": "electric_scooter", "fusion_lat": 0.0, "bike_id": "88c7a22562edf1e0e556de181b5184b8", "name": "88c7a22562edf1e0e556de181b5184b8", "lon": -77.03959}, {"is_reserved": 0, "rental_uris": {"ios": "https://dc.lft.to/lastmile_qr_scan", "android": "https://dc.lft.to/lastmile_qr_scan"}, "is_disabled": 0, "fusion_lon": 0.0, "lat": 38.906164, "type": "electric_scooter", "fusion_lat": 0.0, "bike_id": "9197fa316a07db44d46d3137566f3541", "name": "9197fa316a07db44d46d3137566f3541", "lon": -77.04353616666667}, {"is_reserved": 0, "rental_uris": {"ios": "https://dc.lft.to/lastmile_qr_scan", "android": "https://dc.lft.to/lastmile_qr_scan"}, "is_disabled": 0, "fusion_lon": 0.0, "lat": 38.8973, "type": "electric_scooter", "fusion_lat": 0.0, "bike_id": "0f366e4819a0c41e7e2df58a0a9306bf", "name": "0f366e4819a0c41e7e2df58a0a9306bf", "lon": -77.0488845}, {"is_reserved": 0, "rental_uris": {"ios": "https://dc.lft.to/lastmile_qr_scan", "android": "https://dc.lft.to/lastmile_qr_scan"}, "is_disabled": 0, "fusion_lon": 0.0, "lat": 38.91134066666667, "type": "electric_scooter", "fusion_lat": 0.0, "bike_id": "6c453bb854cdaf3a6c672661a001b766", "name": "6c453bb854cdaf3a6c672661a001b766", "lon": -77.02202483333333}, {"is_reserved": 0, "rental_uris": {"ios": "https://dc.lft.to/lastmile_qr_scan", "android": "https://dc.lft.to/lastmile_qr_scan"}, "is_disabled": 0, "fusion_lon": 0.0, "lat": 38.911103, "type": "electric_scooter", "fusion_lat": 0.0, "bike_id": "ab0b9d77fd435df69385905a36b9d9e1", "name": "ab0b9d77fd435df69385905a36b9d9e1", "lon": -77.04493833333333}, {"is_reserved": 0, "rental_uris": {"ios": "https://dc.lft.to/lastmile_qr_scan", "android": "https://dc.lft.to/lastmile_qr_scan"}, "is_disabled": 0, "fusion_lon": 0.0, "lat": 38.915505, "type": "electric_scooter", "fusion_lat": 0.0, "bike_id": "ddaf1ff7a141a7fe89a583f2856daaa7", "name": "ddaf1ff7a141a7fe89a583f2856daaa7", "lon": -77.01226866666667}, {"is_reserved": 0, "rental_uris": {"ios": "https://dc.lft.to/lastmile_qr_scan", "android": "https://dc.lft.to/lastmile_qr_scan"}, "is_disabled": 0, "fusion_lon": 0.0, "lat": 38.90425466666667, "type": "electric_scooter", "fusion_lat": 0.0, "bike_id": "b7ed8ae8097e2c69ec5bac4718a55908", "name": "b7ed8ae8097e2c69ec5bac4718a55908", "lon": -77.02458833333333}, {"is_reserved": 0, "rental_uris": {"ios": "https://dc.lft.to/lastmile_qr_scan", "android": "https://dc.lft.to/lastmile_qr_scan"}, "is_disabled": 0, "fusion_lon": 0.0, "lat": 38.900388, "type": "electric_scooter", "fusion_lat": 0.0, "bike_id": "4aeea6842c726e87a52e8bec07f7ae64", "name": "4aeea6842c726e87a52e8bec07f7ae64", "lon": -77.005385}, {"is_reserved": 0, "rental_uris": {"ios": "https://dc.lft.to/lastmile_qr_scan", "android": "https://dc.lft.to/lastmile_qr_scan"}, "is_disabled": 0, "fusion_lon": 0.0, "lat": 38.920243, "type": "electric_scooter", "fusion_lat": 0.0, "bike_id": "0d31fca2bc0836636bd00a290c915a0a", "name": "0d31fca2bc0836636bd00a290c915a0a", "lon": -77.027922}, {"is_reserved": 0, "rental_uris": {"ios": "https://dc.lft.to/lastmile_qr_scan", "android": "https://dc.lft.to/lastmile_qr_scan"}, "is_disabled": 0, "fusion_lon": 0.0, "lat": 38.8922235, "type": "electric_bike", "fusion_lat": 0.0, "bike_id": "2cdc4b1bfc5c2f7045fb129bde877be2", "name": "2cdc4b1bfc5c2f7045fb129bde877be2", "lon": -77.107789}, {"is_reserved": 0, "rental_uris": {"ios": "https://dc.lft.to/lastmile_qr_scan", "android": "https://dc.lft.to/lastmile_qr_scan"}, "is_disabled": 0, "fusion_lon": 0.0, "lat": 38.908571, "type": "electric_scooter", "fusion_lat": 0.0, "bike_id": "7e341c3051118c7a1a89134c8da0cd37", "name": "7e341c3051118c7a1a89134c8da0cd37", "lon": -77.02845983333333}, {"is_reserved": 0, "rental_uris": {"ios": "https://dc.lft.to/lastmile_qr_scan", "android": "https://dc.lft.to/lastmile_qr_scan"}, "is_disabled": 0, "fusion_lon": 0.0, "lat": 38.941799333333336, "type": "electric_scooter", "fusion_lat": 0.0, "bike_id": "2c1799feb64e1235212fd0b7659d3dbb", "name": "2c1799feb64e1235212fd0b7659d3dbb", "lon": -77.0248515}, {"is_reserved": 0, "rental_uris": {"ios": "https://dc.lft.to/lastmile_qr_scan", "android": "https://dc.lft.to/lastmile_qr_scan"}, "is_disabled": 0, "fusion_lon": 0.0, "lat": 38.892162, "type": "electric_scooter", "fusion_lat": 0.0, "bike_id": "11c765463b608b053a2b5bcb6d069495", "name": "11c765463b608b053a2b5bcb6d069495", "lon": -77.0213635}, {"is_reserved": 0, "rental_uris": {"ios": "https://dc.lft.to/lastmile_qr_scan", "android": "https://dc.lft.to/lastmile_qr_scan"}, "is_disabled": 0, "fusion_lon": 0.0, "lat": 38.8844405, "type": "electric_scooter", "fusion_lat": 0.0, "bike_id": "6ff71481bc02f353fb64b8d8d6dd3e08", "name": "6ff71481bc02f353fb64b8d8d6dd3e08", "lon": -77.01535416666667}, {"is_reserved": 0, "rental_uris": {"ios": "https://dc.lft.to/lastmile_qr_scan", "android": "https://dc.lft.to/lastmile_qr_scan"}, "is_disabled": 0, "fusion_lon": 0.0, "lat": 38.88738816666667, "type": "electric_scooter", "fusion_lat": 0.0, "bike_id": "8e5fd54e02b4754113e16693b19c436a", "name": "8e5fd54e02b4754113e16693b19c436a", "lon": -77.01534266666667}, {"is_reserved": 0, "rental_uris": {"ios": "https://dc.lft.to/lastmile_qr_scan", "android": "https://dc.lft.to/lastmile_qr_scan"}, "is_disabled": 0, "fusion_lon": 0.0, "lat": 38.892449, "type": "electric_scooter", "fusion_lat": 0.0, "bike_id": "f3e0323850c50454584e8eee780f818b", "name": "f3e0323850c50454584e8eee780f818b", "lon": -77.03958466666667}, {"is_reserved": 0, "rental_uris": {"ios": "https://dc.lft.to/lastmile_qr_scan", "android": "https://dc.lft.to/lastmile_qr_scan"}, "is_disabled": 0, "fusion_lon": 0.0, "lat": 38.990978166666665, "type": "electric_bike", "fusion_lat": 0.0, "bike_id": "f06dfd375df2e5be593a884e8a6e4884", "name": "f06dfd375df2e5be593a884e8a6e4884", "lon": -76.87459883333334}, {"is_reserved": 0, "rental_uris": {"ios": "https://dc.lft.to/lastmile_qr_scan", "android": "https://dc.lft.to/lastmile_qr_scan"}, "is_disabled": 0, "fusion_lon": 0.0, "lat": 38.9169865, "type": "electric_scooter", "fusion_lat": 0.0, "bike_id": "3f0b5c776966bd514d213e3da9aef293", "name": "3f0b5c776966bd514d213e3da9aef293", "lon": -77.0304715}, {"is_reserved": 0, "rental_uris": {"ios": "https://dc.lft.to/lastmile_qr_scan", "android": "https://dc.lft.to/lastmile_qr_scan"}, "is_disabled": 0, "fusion_lon": 0.0, "lat": 38.91915783333334, "type": "electric_scooter", "fusion_lat": 0.0, "bike_id": "2ba3428e68377c81755739f80b3106f2", "name": "2ba3428e68377c81755739f80b3106f2", "lon": -77.02786316666666}, {"is_reserved": 0, "rental_uris": {"ios": "https://dc.lft.to/lastmile_qr_scan", "android": "https://dc.lft.to/lastmile_qr_scan"}, "is_disabled": 0, "fusion_lon": 0.0, "lat": 38.903172833333336, "type": "electric_scooter", "fusion_lat": 0.0, "bike_id": "e2e4c55d0a39073c5e167c362f0bfd1d", "name": "e2e4c55d0a39073c5e167c362f0bfd1d", "lon": -77.043522}, {"is_reserved": 0, "rental_uris": {"ios": "https://dc.lft.to/lastmile_qr_scan", "android": "https://dc.lft.to/lastmile_qr_scan"}, "is_disabled": 0, "fusion_lon": 0.0, "lat": 38.9002195, "type": "electric_scooter", "fusion_lat": 0.0, "bike_id": "75e3163b7f5e465e973c0fa55399d88d", "name": "75e3163b7f5e465e973c0fa55399d88d", "lon": -77.01187233333333}, {"is_reserved": 0, "rental_uris": {"ios": "https://dc.lft.to/lastmile_qr_scan", "android": "https://dc.lft.to/lastmile_qr_scan"}, "is_disabled": 0, "fusion_lon": 0.0, "lat": 38.92867366666667, "type": "electric_scooter", "fusion_lat": 0.0, "bike_id": "3310ca2a8c67d78a70ab3c6c51459cd7", "name": "3310ca2a8c67d78a70ab3c6c51459cd7", "lon": -77.03290816666667}, {"is_reserved": 0, "rental_uris": {"ios": "https://dc.lft.to/lastmile_qr_scan", "android": "https://dc.lft.to/lastmile_qr_scan"}, "is_disabled": 0, "fusion_lon": 0.0, "lat": 38.9498225, "type": "electric_scooter", "fusion_lat": 0.0, "bike_id": "7c1d68d86e450d408f4c9400a3b08b4c", "name": "7c1d68d86e450d408f4c9400a3b08b4c", "lon": -77.026985}, {"is_reserved": 0, "rental_uris": {"ios": "https://dc.lft.to/lastmile_qr_scan", "android": "https://dc.lft.to/lastmile_qr_scan"}, "is_disabled": 0, "fusion_lon": 0.0, "lat": 38.828749, "type": "electric_bike", "fusion_lat": 0.0, "bike_id": "8c685a4fa2172cc8adc25163c8354489", "name": "8c685a4fa2172cc8adc25163c8354489", "lon": -77.11219083333333}, {"is_reserved": 0, "rental_uris": {"ios": "https://dc.lft.to/lastmile_qr_scan", "android": "https://dc.lft.to/lastmile_qr_scan"}, "is_disabled": 0, "fusion_lon": 0.0, "lat": 38.91432566666667, "type": "electric_scooter", "fusion_lat": 0.0, "bike_id": "d02720c833440301392b99e1e3a8e375", "name": "d02720c833440301392b99e1e3a8e375", "lon": -77.04539083333333}, {"is_reserved": 0, "rental_uris": {"ios": "https://dc.lft.to/lastmile_qr_scan", "android": "https://dc.lft.to/lastmile_qr_scan"}, "is_disabled": 0, "fusion_lon": 0.0, "lat": 38.897299333333336, "type": "electric_scooter", "fusion_lat": 0.0, "bike_id": "4224bb91f2ebdab0e12c4818c1fdbb75", "name": "4224bb91f2ebdab0e12c4818c1fdbb75", "lon": -77.04598316666667}, {"is_reserved": 0, "rental_uris": {"ios": "https://dc.lft.to/lastmile_qr_scan", "android": "https://dc.lft.to/lastmile_qr_scan"}, "is_disabled": 0, "fusion_lon": 0.0, "lat": 38.87910566666667, "type": "electric_scooter", "fusion_lat": 0.0, "bike_id": "b3815c2cb2b98ee9c66f296893edfd06", "name": "b3815c2cb2b98ee9c66f296893edfd06", "lon": -77.0088085}, {"is_reserved": 0, "rental_uris": {"ios": "https://dc.lft.to/lastmile_qr_scan", "android": "https://dc.lft.to/lastmile_qr_scan"}, "is_disabled": 0, "fusion_lon": 0.0, "lat": 38.89222983333333, "type": "electric_scooter", "fusion_lat": 0.0, "bike_id": "8f4437e73c59554bc476a0b02d37a5cc", "name": "8f4437e73c59554bc476a0b02d37a5cc", "lon": -77.02413716666666}, {"is_reserved": 0, "rental_uris": {"ios": "https://dc.lft.to/lastmile_qr_scan", "android": "https://dc.lft.to/lastmile_qr_scan"}, "is_disabled": 0, "fusion_lon": 0.0, "lat": 38.877823166666666, "type": "electric_scooter", "fusion_lat": 0.0, "bike_id": "9e399efd91ef8e607501db37629415ab", "name": "9e399efd91ef8e607501db37629415ab", "lon": -76.994082}, {"is_reserved": 0, "rental_uris": {"ios": "https://dc.lft.to/lastmile_qr_scan", "android": "https://dc.lft.to/lastmile_qr_scan"}, "is_disabled": 0, "fusion_lon": 0.0, "lat": 38.898462333333335, "type": "electric_scooter", "fusion_lat": 0.0, "bike_id": "8fe5f9e82ce1b91768eeb808eb72e597", "name": "8fe5f9e82ce1b91768eeb808eb72e597", "lon": -77.011626}, {"is_reserved": 0, "rental_uris": {"ios": "https://dc.lft.to/lastmile_qr_scan", "android": "https://dc.lft.to/lastmile_qr_scan"}, "is_disabled": 0, "fusion_lon": 0.0, "lat": 38.91460566666667, "type": "electric_scooter", "fusion_lat": 0.0, "bike_id": "cb8ddd891f9a830bce5606fa93c5e861", "name": "cb8ddd891f9a830bce5606fa93c5e861", "lon": -77.03187066666666}, {"is_reserved": 0, "rental_uris": {"ios": "https://dc.lft.to/lastmile_qr_scan", "android": "https://dc.lft.to/lastmile_qr_scan"}, "is_disabled": 0, "fusion_lon": 0.0, "lat": 38.914054666666665, "type": "electric_scooter", "fusion_lat": 0.0, "bike_id": "bfe3786d38cdd4d08c78a0f8fff1b983", "name": "bfe3786d38cdd4d08c78a0f8fff1b983", "lon": -77.03059616666667}, {"is_reserved": 0, "rental_uris": {"ios": "https://dc.lft.to/lastmile_qr_scan", "android": "https://dc.lft.to/lastmile_qr_scan"}, "is_disabled": 0, "fusion_lon": 0.0, "lat": 38.923202, "type": "electric_scooter", "fusion_lat": 0.0, "bike_id": "54e6a1095d234137de1b802f243acf43", "name": "54e6a1095d234137de1b802f243acf43", "lon": -77.03952366666667}, {"is_reserved": 0, "rental_uris": {"ios": "https://dc.lft.to/lastmile_qr_scan", "android": "https://dc.lft.to/lastmile_qr_scan"}, "is_disabled": 0, "fusion_lon": 0.0, "lat": 38.9037655, "type": "electric_scooter", "fusion_lat": 0.0, "bike_id": "7a88bea156cc7f08d073c9eb20a79ec1", "name": "7a88bea156cc7f08d073c9eb20a79ec1", "lon": -77.04445466666667}, {"is_reserved": 0, "rental_uris": {"ios": "https://dc.lft.to/lastmile_qr_scan", "android": "https://dc.lft.to/lastmile_qr_scan"}, "is_disabled": 0, "fusion_lon": 0.0, "lat": 38.94396166666667, "type": "electric_scooter", "fusion_lat": 0.0, "bike_id": "3df6c3a7d4271e7577931d16633cb954", "name": "3df6c3a7d4271e7577931d16633cb954", "lon": -77.05780283333333}, {"is_reserved": 0, "rental_uris": {"ios": "https://dc.lft.to/lastmile_qr_scan", "android": "https://dc.lft.to/lastmile_qr_scan"}, "is_disabled": 0, "fusion_lon": 0.0, "lat": 38.921433, "type": "electric_scooter", "fusion_lat": 0.0, "bike_id": "590fd808afd4224dda36b704427f7428", "name": "590fd808afd4224dda36b704427f7428", "lon": -77.04223133333333}, {"is_reserved": 0, "rental_uris": {"ios": "https://dc.lft.to/lastmile_qr_scan", "android": "https://dc.lft.to/lastmile_qr_scan"}, "is_disabled": 0, "fusion_lon": 0.0, "lat": 38.918846333333335, "type": "electric_scooter", "fusion_lat": 0.0, "bike_id": "3109064c9c3a66cb11e45c9f964f0d4c", "name": "3109064c9c3a66cb11e45c9f964f0d4c", "lon": -77.0391585}, {"is_reserved": 0, "rental_uris": {"ios": "https://dc.lft.to/lastmile_qr_scan", "android": "https://dc.lft.to/lastmile_qr_scan"}, "is_disabled": 0, "fusion_lon": 0.0, "lat": 38.8866285, "type": "electric_bike", "fusion_lat": 0.0, "bike_id": "33cdffbb1c50afc9694233b32d66e5a6", "name": "33cdffbb1c50afc9694233b32d66e5a6", "lon": -77.1622615}, {"is_reserved": 0, "rental_uris": {"ios": "https://dc.lft.to/lastmile_qr_scan", "android": "https://dc.lft.to/lastmile_qr_scan"}, "is_disabled": 0, "fusion_lon": 0.0, "lat": 38.89617166666667, "type": "electric_scooter", "fusion_lat": 0.0, "bike_id": "d89d37875647f9355d553e9f0ca68866", "name": "d89d37875647f9355d553e9f0ca68866", "lon": -77.04410283333333}, {"is_reserved": 0, "rental_uris": {"ios": "https://dc.lft.to/lastmile_qr_scan", "android": "https://dc.lft.to/lastmile_qr_scan"}, "is_disabled": 0, "fusion_lon": 0.0, "lat": 38.8961965, "type": "electric_scooter", "fusion_lat": 0.0, "bike_id": "89c721bf45fbc42651c3144e83e8a953", "name": "89c721bf45fbc42651c3144e83e8a953", "lon": -76.95587733333333}, {"is_reserved": 0, "rental_uris": {"ios": "https://dc.lft.to/lastmile_qr_scan", "android": "https://dc.lft.to/lastmile_qr_scan"}, "is_disabled": 0, "fusion_lon": 0.0, "lat": 38.917206, "type": "electric_scooter", "fusion_lat": 0.0, "bike_id": "5511ccf757ace2020d4934c1184e6ee8", "name": "5511ccf757ace2020d4934c1184e6ee8", "lon": -77.03838116666667}, {"is_reserved": 0, "rental_uris": {"ios": "https://dc.lft.to/lastmile_qr_scan", "android": "https://dc.lft.to/lastmile_qr_scan"}, "is_disabled": 0, "fusion_lon": 0.0, "lat": 38.919951, "type": "electric_scooter", "fusion_lat": 0.0, "bike_id": "cff8cb96b6c0fa730bb16b2793eb7b59", "name": "cff8cb96b6c0fa730bb16b2793eb7b59", "lon": -77.04759983333334}, {"is_reserved": 0, "rental_uris": {"ios": "https://dc.lft.to/lastmile_qr_scan", "android": "https://dc.lft.to/lastmile_qr_scan"}, "is_disabled": 0, "fusion_lon": 0.0, "lat": 38.887446833333335, "type": "electric_scooter", "fusion_lat": 0.0, "bike_id": "784627e2e5ba515c608c8371a414002c", "name": "784627e2e5ba515c608c8371a414002c", "lon": -77.02161733333334}, {"is_reserved": 0, "rental_uris": {"ios": "https://dc.lft.to/lastmile_qr_scan", "android": "https://dc.lft.to/lastmile_qr_scan"}, "is_disabled": 0, "fusion_lon": 0.0, "lat": 38.90438283333334, "type": "electric_scooter", "fusion_lat": 0.0, "bike_id": "0606887dd4ebb9838802d7748f7b4bcb", "name": "0606887dd4ebb9838802d7748f7b4bcb", "lon": -77.041667}, {"is_reserved": 0, "rental_uris": {"ios": "https://dc.lft.to/lastmile_qr_scan", "android": "https://dc.lft.to/lastmile_qr_scan"}, "is_disabled": 0, "fusion_lon": 0.0, "lat": 38.91862966666667, "type": "electric_scooter", "fusion_lat": 0.0, "bike_id": "36c95ffa3c1243344f143c2d8c0ad5e6", "name": "36c95ffa3c1243344f143c2d8c0ad5e6", "lon": -77.0357495}, {"is_reserved": 0, "rental_uris": {"ios": "https://dc.lft.to/lastmile_qr_scan", "android": "https://dc.lft.to/lastmile_qr_scan"}, "is_disabled": 0, "fusion_lon": 0.0, "lat": 38.884274166666664, "type": "electric_scooter", "fusion_lat": 0.0, "bike_id": "790776fbb2322c5efbd576f64eaf1eb7", "name": "790776fbb2322c5efbd576f64eaf1eb7", "lon": -77.02555966666667}, {"is_reserved": 0, "rental_uris": {"ios": "https://dc.lft.to/lastmile_qr_scan", "android": "https://dc.lft.to/lastmile_qr_scan"}, "is_disabled": 0, "fusion_lon": 0.0, "lat": 38.90367166666667, "type": "electric_scooter", "fusion_lat": 0.0, "bike_id": "700bdf76544cf9c7744fd1b38bb853ff", "name": "700bdf76544cf9c7744fd1b38bb853ff", "lon": -77.04087083333333}, {"is_reserved": 0, "rental_uris": {"ios": "https://dc.lft.to/lastmile_qr_scan", "android": "https://dc.lft.to/lastmile_qr_scan"}, "is_disabled": 0, "fusion_lon": 0.0, "lat": 38.92012033333334, "type": "electric_scooter", "fusion_lat": 0.0, "bike_id": "00697ad482955124241da47b12a987b1", "name": "00697ad482955124241da47b12a987b1", "lon": -77.0713145}, {"is_reserved": 0, "rental_uris": {"ios": "https://dc.lft.to/lastmile_qr_scan", "android": "https://dc.lft.to/lastmile_qr_scan"}, "is_disabled": 0, "fusion_lon": 0.0, "lat": 38.8563785, "type": "electric_bike", "fusion_lat": 0.0, "bike_id": "829500323b1f5eca96aed1c5153bb868", "name": "829500323b1f5eca96aed1c5153bb868", "lon": -77.11247166666666}, {"is_reserved": 0, "rental_uris": {"ios": "https://dc.lft.to/lastmile_qr_scan", "android": "https://dc.lft.to/lastmile_qr_scan"}, "is_disabled": 0, "fusion_lon": 0.0, "lat": 38.90716533333333, "type": "electric_scooter", "fusion_lat": 0.0, "bike_id": "f7c044b25303060fe79f3114ac62531a", "name": "f7c044b25303060fe79f3114ac62531a", "lon": -77.03094}, {"is_reserved": 0, "rental_uris": {"ios": "https://dc.lft.to/lastmile_qr_scan", "android": "https://dc.lft.to/lastmile_qr_scan"}, "is_disabled": 0, "fusion_lon": 0.0, "lat": 38.9256875, "type": "electric_scooter", "fusion_lat": 0.0, "bike_id": "ce13a2e275dd193f75a3aabe0961ed37", "name": "ce13a2e275dd193f75a3aabe0961ed37", "lon": -77.03929333333333}, {"is_reserved": 0, "rental_uris": {"ios": "https://dc.lft.to/lastmile_qr_scan", "android": "https://dc.lft.to/lastmile_qr_scan"}, "is_disabled": 0, "fusion_lon": 0.0, "lat": 38.90668433333333, "type": "electric_scooter", "fusion_lat": 0.0, "bike_id": "ac4eb46770b10932be16e79c7de373ea", "name": "ac4eb46770b10932be16e79c7de373ea", "lon": -77.03828483333334}, {"is_reserved": 0, "rental_uris": {"ios": "https://dc.lft.to/lastmile_qr_scan", "android": "https://dc.lft.to/lastmile_qr_scan"}, "is_disabled": 0, "fusion_lon": 0.0, "lat": 38.906644166666666, "type": "electric_scooter", "fusion_lat": 0.0, "bike_id": "b6b685f376a797bcd49c2d6a1f6b40e4", "name": "b6b685f376a797bcd49c2d6a1f6b40e4", "lon": -77.0390755}, {"is_reserved": 0, "rental_uris": {"ios": "https://dc.lft.to/lastmile_qr_scan", "android": "https://dc.lft.to/lastmile_qr_scan"}, "is_disabled": 0, "fusion_lon": 0.0, "lat": 38.91213916666667, "type": "electric_scooter", "fusion_lat": 0.0, "bike_id": "219d9d8e5e5c3fe0817af491022adc87", "name": "219d9d8e5e5c3fe0817af491022adc87", "lon": -77.012051}, {"is_reserved": 0, "rental_uris": {"ios": "https://dc.lft.to/lastmile_qr_scan", "android": "https://dc.lft.to/lastmile_qr_scan"}, "is_disabled": 0, "fusion_lon": 0.0, "lat": 38.903786333333336, "type": "electric_scooter", "fusion_lat": 0.0, "bike_id": "4320524ec59c724d8f33f4523af31c07", "name": "4320524ec59c724d8f33f4523af31c07", "lon": -77.04495683333333}, {"is_reserved": 0, "rental_uris": {"ios": "https://dc.lft.to/lastmile_qr_scan", "android": "https://dc.lft.to/lastmile_qr_scan"}, "is_disabled": 0, "fusion_lon": 0.0, "lat": 38.914882, "type": "electric_scooter", "fusion_lat": 0.0, "bike_id": "2c05ad9e06b6411cdc2c609b8fd26cba", "name": "2c05ad9e06b6411cdc2c609b8fd26cba", "lon": -77.03238683333333}, {"is_reserved": 0, "rental_uris": {"ios": "https://dc.lft.to/lastmile_qr_scan", "android": "https://dc.lft.to/lastmile_qr_scan"}, "is_disabled": 0, "fusion_lon": 0.0, "lat": 38.874970166666664, "type": "electric_scooter", "fusion_lat": 0.0, "bike_id": "22d243479735cb8e90b894bc6f60317c", "name": "22d243479735cb8e90b894bc6f60317c", "lon": -77.00334433333333}, {"is_reserved": 0, "rental_uris": {"ios": "https://dc.lft.to/lastmile_qr_scan", "android": "https://dc.lft.to/lastmile_qr_scan"}, "is_disabled": 0, "fusion_lon": 0.0, "lat": 38.84627066666667, "type": "electric_bike", "fusion_lat": 0.0, "bike_id": "539a8be1402b7c0d36c299572e21c7b4", "name": "539a8be1402b7c0d36c299572e21c7b4", "lon": -77.069373}, {"is_reserved": 0, "rental_uris": {"ios": "https://dc.lft.to/lastmile_qr_scan", "android": "https://dc.lft.to/lastmile_qr_scan"}, "is_disabled": 0, "fusion_lon": 0.0, "lat": 38.94297366666667, "type": "electric_scooter", "fusion_lat": 0.0, "bike_id": "3f0420f1eb1fda66ace98405a046c23c", "name": "3f0420f1eb1fda66ace98405a046c23c", "lon": -77.03264683333333}, {"is_reserved": 0, "rental_uris": {"ios": "https://dc.lft.to/lastmile_qr_scan", "android": "https://dc.lft.to/lastmile_qr_scan"}, "is_disabled": 0, "fusion_lon": 0.0, "lat": 38.892736666666664, "type": "electric_scooter", "fusion_lat": 0.0, "bike_id": "5c4935adb5996a4f5aee5fce6b1375c5", "name": "5c4935adb5996a4f5aee5fce6b1375c5", "lon": -77.05038083333334}, {"is_reserved": 0, "rental_uris": {"ios": "https://dc.lft.to/lastmile_qr_scan", "android": "https://dc.lft.to/lastmile_qr_scan"}, "is_disabled": 0, "fusion_lon": 0.0, "lat": 38.9236355, "type": "electric_scooter", "fusion_lat": 0.0, "bike_id": "b7f8fee801d3807d400c0f83a8162b9c", "name": "b7f8fee801d3807d400c0f83a8162b9c", "lon": -77.05128566666667}, {"is_reserved": 0, "rental_uris": {"ios": "https://dc.lft.to/lastmile_qr_scan", "android": "https://dc.lft.to/lastmile_qr_scan"}, "is_disabled": 0, "fusion_lon": 0.0, "lat": 38.9156695, "type": "electric_scooter", "fusion_lat": 0.0, "bike_id": "39a60c77b52ea9d33def2756bc3aa898", "name": "39a60c77b52ea9d33def2756bc3aa898", "lon": -77.02154283333333}, {"is_reserved": 0, "rental_uris": {"ios": "https://dc.lft.to/lastmile_qr_scan", "android": "https://dc.lft.to/lastmile_qr_scan"}, "is_disabled": 0, "fusion_lon": 0.0, "lat": 38.85562433333333, "type": "electric_scooter", "fusion_lat": 0.0, "bike_id": "bbb21d39f62781bf9ab714bfdb75a55f", "name": "bbb21d39f62781bf9ab714bfdb75a55f", "lon": -76.99500316666666}, {"is_reserved": 0, "rental_uris": {"ios": "https://dc.lft.to/lastmile_qr_scan", "android": "https://dc.lft.to/lastmile_qr_scan"}, "is_disabled": 0, "fusion_lon": 0.0, "lat": 38.905640166666664, "type": "electric_scooter", "fusion_lat": 0.0, "bike_id": "999a5b8e7dcb75fac9ba5e2cdb74da95", "name": "999a5b8e7dcb75fac9ba5e2cdb74da95", "lon": -77.00595933333334}, {"is_reserved": 0, "rental_uris": {"ios": "https://dc.lft.to/lastmile_qr_scan", "android": "https://dc.lft.to/lastmile_qr_scan"}, "is_disabled": 0, "fusion_lon": 0.0, "lat": 38.92372783333333, "type": "electric_scooter", "fusion_lat": 0.0, "bike_id": "74778433caee6a945f7b61b69a2ff6ce", "name": "74778433caee6a945f7b61b69a2ff6ce", "lon": -77.0190415}, {"is_reserved": 0, "rental_uris": {"ios": "https://dc.lft.to/lastmile_qr_scan", "android": "https://dc.lft.to/lastmile_qr_scan"}, "is_disabled": 0, "fusion_lon": 0.0, "lat": 38.91746283333333, "type": "electric_scooter", "fusion_lat": 0.0, "bike_id": "ac1fbccdc05d606e4c7adb75a1c70b2c", "name": "ac1fbccdc05d606e4c7adb75a1c70b2c", "lon": -77.03448883333333}, {"is_reserved": 0, "rental_uris": {"ios": "https://dc.lft.to/lastmile_qr_scan", "android": "https://dc.lft.to/lastmile_qr_scan"}, "is_disabled": 0, "fusion_lon": 0.0, "lat": 38.944447833333335, "type": "electric_scooter", "fusion_lat": 0.0, "bike_id": "3fde52c4b53ac7b5239a1bb3c7059a98", "name": "3fde52c4b53ac7b5239a1bb3c7059a98", "lon": -77.02341266666667}, {"is_reserved": 0, "rental_uris": {"ios": "https://dc.lft.to/lastmile_qr_scan", "android": "https://dc.lft.to/lastmile_qr_scan"}, "is_disabled": 0, "fusion_lon": 0.0, "lat": 38.9027035, "type": "electric_scooter", "fusion_lat": 0.0, "bike_id": "f6c3d1f3617c3ff90e41cff83eb3df2e", "name": "f6c3d1f3617c3ff90e41cff83eb3df2e", "lon": -77.04023533333333}, {"is_reserved": 0, "rental_uris": {"ios": "https://dc.lft.to/lastmile_qr_scan", "android": "https://dc.lft.to/lastmile_qr_scan"}, "is_disabled": 0, "fusion_lon": 0.0, "lat": 38.9036585, "type": "electric_scooter", "fusion_lat": 0.0, "bike_id": "dcd91acf8370ddeb7a03788d2e3f4054", "name": "dcd91acf8370ddeb7a03788d2e3f4054", "lon": -77.04248183333333}, {"is_reserved": 0, "rental_uris": {"ios": "https://dc.lft.to/lastmile_qr_scan", "android": "https://dc.lft.to/lastmile_qr_scan"}, "is_disabled": 0, "fusion_lon": 0.0, "lat": 38.93244633333333, "type": "electric_scooter", "fusion_lat": 0.0, "bike_id": "c98846f695c7d29fcc30edd733adddb3", "name": "c98846f695c7d29fcc30edd733adddb3", "lon": -77.03284766666667}, {"is_reserved": 0, "rental_uris": {"ios": "https://dc.lft.to/lastmile_qr_scan", "android": "https://dc.lft.to/lastmile_qr_scan"}, "is_disabled": 0, "fusion_lon": 0.0, "lat": 38.88745816666667, "type": "electric_scooter", "fusion_lat": 0.0, "bike_id": "1253382cb555f832c9f7f1f4b4c80b3a", "name": "1253382cb555f832c9f7f1f4b4c80b3a", "lon": -77.02167416666667}, {"is_reserved": 0, "rental_uris": {"ios": "https://dc.lft.to/lastmile_qr_scan", "android": "https://dc.lft.to/lastmile_qr_scan"}, "is_disabled": 0, "fusion_lon": 0.0, "lat": 38.931345666666665, "type": "electric_scooter", "fusion_lat": 0.0, "bike_id": "6523fa544564c4b72c4ffd616ab86119", "name": "6523fa544564c4b72c4ffd616ab86119", "lon": -77.05614883333334}, {"is_reserved": 0, "rental_uris": {"ios": "https://dc.lft.to/lastmile_qr_scan", "android": "https://dc.lft.to/lastmile_qr_scan"}, "is_disabled": 0, "fusion_lon": 0.0, "lat": 38.91554633333333, "type": "electric_scooter", "fusion_lat": 0.0, "bike_id": "908d8bb4bca48342a339542c8521988b", "name": "908d8bb4bca48342a339542c8521988b", "lon": -77.0317215}, {"is_reserved": 0, "rental_uris": {"ios": "https://dc.lft.to/lastmile_qr_scan", "android": "https://dc.lft.to/lastmile_qr_scan"}, "is_disabled": 0, "fusion_lon": 0.0, "lat": 38.922025833333336, "type": "electric_scooter", "fusion_lat": 0.0, "bike_id": "4a507899b3bf5a994160bb856fe005da", "name": "4a507899b3bf5a994160bb856fe005da", "lon": -77.040183}, {"is_reserved": 0, "rental_uris": {"ios": "https://dc.lft.to/lastmile_qr_scan", "android": "https://dc.lft.to/lastmile_qr_scan"}, "is_disabled": 0, "fusion_lon": 0.0, "lat": 38.89276066666667, "type": "electric_scooter", "fusion_lat": 0.0, "bike_id": "0d47f35c00d81efc71bd8e1c32340b04", "name": "0d47f35c00d81efc71bd8e1c32340b04", "lon": -77.02597033333333}, {"is_reserved": 0, "rental_uris": {"ios": "https://dc.lft.to/lastmile_qr_scan", "android": "https://dc.lft.to/lastmile_qr_scan"}, "is_disabled": 0, "fusion_lon": 0.0, "lat": 38.8618235, "type": "electric_scooter", "fusion_lat": 0.0, "bike_id": "b0850c29d84a125b627ca5f898efb4ae", "name": "b0850c29d84a125b627ca5f898efb4ae", "lon": -76.99423716666666}, {"is_reserved": 0, "rental_uris": {"ios": "https://dc.lft.to/lastmile_qr_scan", "android": "https://dc.lft.to/lastmile_qr_scan"}, "is_disabled": 0, "fusion_lon": 0.0, "lat": 38.89220783333333, "type": "electric_scooter", "fusion_lat": 0.0, "bike_id": "a71ab63f158487deb6dce38a8fb4da6d", "name": "a71ab63f158487deb6dce38a8fb4da6d", "lon": -77.046504}, {"is_reserved": 0, "rental_uris": {"ios": "https://dc.lft.to/lastmile_qr_scan", "android": "https://dc.lft.to/lastmile_qr_scan"}, "is_disabled": 0, "fusion_lon": 0.0, "lat": 38.90810333333334, "type": "electric_scooter", "fusion_lat": 0.0, "bike_id": "c0e8e7907c0bc48596ee8b0f722b3212", "name": "c0e8e7907c0bc48596ee8b0f722b3212", "lon": -77.0434425}, {"is_reserved": 0, "rental_uris": {"ios": "https://dc.lft.to/lastmile_qr_scan", "android": "https://dc.lft.to/lastmile_qr_scan"}, "is_disabled": 0, "fusion_lon": 0.0, "lat": 38.90383033333333, "type": "electric_scooter", "fusion_lat": 0.0, "bike_id": "7563a0e95702012fd4ff3881fbd7a83a", "name": "7563a0e95702012fd4ff3881fbd7a83a", "lon": -77.0264745}, {"is_reserved": 0, "rental_uris": {"ios": "https://dc.lft.to/lastmile_qr_scan", "android": "https://dc.lft.to/lastmile_qr_scan"}, "is_disabled": 0, "fusion_lon": 0.0, "lat": 38.939427, "type": "electric_scooter", "fusion_lat": 0.0, "bike_id": "be13f3c8c91751bc8e002c6ea78b7d09", "name": "be13f3c8c91751bc8e002c6ea78b7d09", "lon": -77.06112666666667}, {"is_reserved": 0, "rental_uris": {"ios": "https://dc.lft.to/lastmile_qr_scan", "android": "https://dc.lft.to/lastmile_qr_scan"}, "is_disabled": 0, "fusion_lon": 0.0, "lat": 38.8651755, "type": "electric_scooter", "fusion_lat": 0.0, "bike_id": "28da88bb15fb0a48ecb1e20eb2a5afc5", "name": "28da88bb15fb0a48ecb1e20eb2a5afc5", "lon": -76.99051166666666}, {"is_reserved": 0, "rental_uris": {"ios": "https://dc.lft.to/lastmile_qr_scan", "android": "https://dc.lft.to/lastmile_qr_scan"}, "is_disabled": 0, "fusion_lon": 0.0, "lat": 38.89222633333333, "type": "electric_scooter", "fusion_lat": 0.0, "bike_id": "f6128b787adb05edc466822549577d1a", "name": "f6128b787adb05edc466822549577d1a", "lon": -77.04869183333334}, {"is_reserved": 0, "rental_uris": {"ios": "https://dc.lft.to/lastmile_qr_scan", "android": "https://dc.lft.to/lastmile_qr_scan"}, "is_disabled": 0, "fusion_lon": 0.0, "lat": 38.918547833333335, "type": "electric_scooter", "fusion_lat": 0.0, "bike_id": "172359f12e591ff903cb45eaee29192e", "name": "172359f12e591ff903cb45eaee29192e", "lon": -77.04504566666667}, {"is_reserved": 0, "rental_uris": {"ios": "https://dc.lft.to/lastmile_qr_scan", "android": "https://dc.lft.to/lastmile_qr_scan"}, "is_disabled": 0, "fusion_lon": 0.0, "lat": 38.9168725, "type": "electric_scooter", "fusion_lat": 0.0, "bike_id": "f58822945f58411982cac1f7b0020a06", "name": "f58822945f58411982cac1f7b0020a06", "lon": -77.02279}, {"is_reserved": 0, "rental_uris": {"ios": "https://dc.lft.to/lastmile_qr_scan", "android": "https://dc.lft.to/lastmile_qr_scan"}, "is_disabled": 0, "fusion_lon": 0.0, "lat": 38.91172016666667, "type": "electric_scooter", "fusion_lat": 0.0, "bike_id": "58651f5c0ea005b1d2ddc66a0738985d", "name": "58651f5c0ea005b1d2ddc66a0738985d", "lon": -77.068581}, {"is_reserved": 0, "rental_uris": {"ios": "https://dc.lft.to/lastmile_qr_scan", "android": "https://dc.lft.to/lastmile_qr_scan"}, "is_disabled": 0, "fusion_lon": 0.0, "lat": 38.86699516666667, "type": "electric_scooter", "fusion_lat": 0.0, "bike_id": "f40c87fb7cd1d76a4dc28fc6e116c5c3", "name": "f40c87fb7cd1d76a4dc28fc6e116c5c3", "lon": -76.98714633333333}, {"is_reserved": 0, "rental_uris": {"ios": "https://dc.lft.to/lastmile_qr_scan", "android": "https://dc.lft.to/lastmile_qr_scan"}, "is_disabled": 0, "fusion_lon": 0.0, "lat": 38.92516633333334, "type": "electric_scooter", "fusion_lat": 0.0, "bike_id": "b53ced4c1251c2f6adefd7cb18a5a5e7", "name": "b53ced4c1251c2f6adefd7cb18a5a5e7", "lon": -77.03885316666667}, {"is_reserved": 0, "rental_uris": {"ios": "https://dc.lft.to/lastmile_qr_scan", "android": "https://dc.lft.to/lastmile_qr_scan"}, "is_disabled": 0, "fusion_lon": 0.0, "lat": 38.898315833333335, "type": "electric_scooter", "fusion_lat": 0.0, "bike_id": "e89fd65da12626d16bbaba743fa64fbf", "name": "e89fd65da12626d16bbaba743fa64fbf", "lon": -76.94634016666667}, {"is_reserved": 0, "rental_uris": {"ios": "https://dc.lft.to/lastmile_qr_scan", "android": "https://dc.lft.to/lastmile_qr_scan"}, "is_disabled": 0, "fusion_lon": 0.0, "lat": 38.916320666666664, "type": "electric_scooter", "fusion_lat": 0.0, "bike_id": "c9b3dcacf25ff648f6ca093093b1d4f9", "name": "c9b3dcacf25ff648f6ca093093b1d4f9", "lon": -77.031404}, {"is_reserved": 0, "rental_uris": {"ios": "https://dc.lft.to/lastmile_qr_scan", "android": "https://dc.lft.to/lastmile_qr_scan"}, "is_disabled": 0, "fusion_lon": 0.0, "lat": 38.945540333333334, "type": "electric_bike", "fusion_lat": 0.0, "bike_id": "3951a11c52519df3d4fa5caaece574f1", "name": "3951a11c52519df3d4fa5caaece574f1", "lon": -76.89541933333334}, {"is_reserved": 0, "rental_uris": {"ios": "https://dc.lft.to/lastmile_qr_scan", "android": "https://dc.lft.to/lastmile_qr_scan"}, "is_disabled": 0, "fusion_lon": 0.0, "lat": 38.90077016666667, "type": "electric_scooter", "fusion_lat": 0.0, "bike_id": "9dcf78735c9801e9b453d5803818dfac", "name": "9dcf78735c9801e9b453d5803818dfac", "lon": -77.02985183333334}, {"is_reserved": 0, "rental_uris": {"ios": "https://dc.lft.to/lastmile_qr_scan", "android": "https://dc.lft.to/lastmile_qr_scan"}, "is_disabled": 0, "fusion_lon": 0.0, "lat": 38.89771666666667, "type": "electric_scooter", "fusion_lat": 0.0, "bike_id": "77d88c275cf88078aa018086600129f4", "name": "77d88c275cf88078aa018086600129f4", "lon": -77.03222383333333}, {"is_reserved": 0, "rental_uris": {"ios": "https://dc.lft.to/lastmile_qr_scan", "android": "https://dc.lft.to/lastmile_qr_scan"}, "is_disabled": 0, "fusion_lon": 0.0, "lat": 38.94699116666666, "type": "electric_scooter", "fusion_lat": 0.0, "bike_id": "b65127c10521f4c2c2394335624fb023", "name": "b65127c10521f4c2c2394335624fb023", "lon": -77.092566}, {"is_reserved": 0, "rental_uris": {"ios": "https://dc.lft.to/lastmile_qr_scan", "android": "https://dc.lft.to/lastmile_qr_scan"}, "is_disabled": 0, "fusion_lon": 0.0, "lat": 38.9071835, "type": "electric_scooter", "fusion_lat": 0.0, "bike_id": "550991f130392ced99e3cd121015a6be", "name": "550991f130392ced99e3cd121015a6be", "lon": -77.04341716666667}, {"is_reserved": 0, "rental_uris": {"ios": "https://dc.lft.to/lastmile_qr_scan", "android": "https://dc.lft.to/lastmile_qr_scan"}, "is_disabled": 0, "fusion_lon": 0.0, "lat": 38.905738, "type": "electric_scooter", "fusion_lat": 0.0, "bike_id": "05c5420b9e899ae2896d4471e025ac5c", "name": "05c5420b9e899ae2896d4471e025ac5c", "lon": -77.06273483333334}, {"is_reserved": 0, "rental_uris": {"ios": "https://dc.lft.to/lastmile_qr_scan", "android": "https://dc.lft.to/lastmile_qr_scan"}, "is_disabled": 0, "fusion_lon": 0.0, "lat": 38.97325766666667, "type": "electric_bike", "fusion_lat": 0.0, "bike_id": "0103bae6c162c237ec926418d85920fa", "name": "0103bae6c162c237ec926418d85920fa", "lon": -77.02146683333333}, {"is_reserved": 0, "rental_uris": {"ios": "https://dc.lft.to/lastmile_qr_scan", "android": "https://dc.lft.to/lastmile_qr_scan"}, "is_disabled": 0, "fusion_lon": 0.0, "lat": 38.90296566666667, "type": "electric_scooter", "fusion_lat": 0.0, "bike_id": "4f31d7d2f48090ae976d51e5fe83bce7", "name": "4f31d7d2f48090ae976d51e5fe83bce7", "lon": -76.99253533333334}, {"is_reserved": 0, "rental_uris": {"ios": "https://dc.lft.to/lastmile_qr_scan", "android": "https://dc.lft.to/lastmile_qr_scan"}, "is_disabled": 0, "fusion_lon": 0.0, "lat": 38.844243666666664, "type": "electric_scooter", "fusion_lat": 0.0, "bike_id": "6e198ae01e09794e4033cb9b33f2a5db", "name": "6e198ae01e09794e4033cb9b33f2a5db", "lon": -76.99776733333333}, {"is_reserved": 0, "rental_uris": {"ios": "https://dc.lft.to/lastmile_qr_scan", "android": "https://dc.lft.to/lastmile_qr_scan"}, "is_disabled": 0, "fusion_lon": 0.0, "lat": 38.90281516666667, "type": "electric_scooter", "fusion_lat": 0.0, "bike_id": "ef5c697c0a3a46b3a354a3e2eb8c0dc5", "name": "ef5c697c0a3a46b3a354a3e2eb8c0dc5", "lon": -77.038428}, {"is_reserved": 0, "rental_uris": {"ios": "https://dc.lft.to/lastmile_qr_scan", "android": "https://dc.lft.to/lastmile_qr_scan"}, "is_disabled": 0, "fusion_lon": 0.0, "lat": 38.91941766666667, "type": "electric_scooter", "fusion_lat": 0.0, "bike_id": "f03acdecf547923fa7daa91a1328b22c", "name": "f03acdecf547923fa7daa91a1328b22c", "lon": -77.02495716666667}, {"is_reserved": 0, "rental_uris": {"ios": "https://dc.lft.to/lastmile_qr_scan", "android": "https://dc.lft.to/lastmile_qr_scan"}, "is_disabled": 0, "fusion_lon": 0.0, "lat": 38.9092545, "type": "electric_scooter", "fusion_lat": 0.0, "bike_id": "357e7ab9e205176dca5af7af6ccc2eb6", "name": "357e7ab9e205176dca5af7af6ccc2eb6", "lon": -77.03661733333334}, {"is_reserved": 0, "rental_uris": {"ios": "https://dc.lft.to/lastmile_qr_scan", "android": "https://dc.lft.to/lastmile_qr_scan"}, "is_disabled": 0, "fusion_lon": 0.0, "lat": 38.90238133333333, "type": "electric_scooter", "fusion_lat": 0.0, "bike_id": "6331acaf00dfba2c13cd7a7243037dd3", "name": "6331acaf00dfba2c13cd7a7243037dd3", "lon": -77.001969}, {"is_reserved": 0, "rental_uris": {"ios": "https://dc.lft.to/lastmile_qr_scan", "android": "https://dc.lft.to/lastmile_qr_scan"}, "is_disabled": 0, "fusion_lon": 0.0, "lat": 38.93616733333333, "type": "electric_scooter", "fusion_lat": 0.0, "bike_id": "974e3d3a0af15a3aa0147c74d7405b6e", "name": "974e3d3a0af15a3aa0147c74d7405b6e", "lon": -77.03212583333334}, {"is_reserved": 0, "rental_uris": {"ios": "https://dc.lft.to/lastmile_qr_scan", "android": "https://dc.lft.to/lastmile_qr_scan"}, "is_disabled": 0, "fusion_lon": 0.0, "lat": 39.0242925, "type": "electric_bike", "fusion_lat": 0.0, "bike_id": "7ada2bcaf9c254f1a37288095775f4ca", "name": "7ada2bcaf9c254f1a37288095775f4ca", "lon": -77.130963}, {"is_reserved": 0, "rental_uris": {"ios": "https://dc.lft.to/lastmile_qr_scan", "android": "https://dc.lft.to/lastmile_qr_scan"}, "is_disabled": 0, "fusion_lon": 0.0, "lat": 38.921899, "type": "electric_scooter", "fusion_lat": 0.0, "bike_id": "21250b597b33d8a59de1ffd2447e9bd8", "name": "21250b597b33d8a59de1ffd2447e9bd8", "lon": -77.01831266666667}, {"is_reserved": 0, "rental_uris": {"ios": "https://dc.lft.to/lastmile_qr_scan", "android": "https://dc.lft.to/lastmile_qr_scan"}, "is_disabled": 0, "fusion_lon": 0.0, "lat": 38.9025275, "type": "electric_scooter", "fusion_lat": 0.0, "bike_id": "ccb7925fa37eb660e37a5c13f0073632", "name": "ccb7925fa37eb660e37a5c13f0073632", "lon": -77.04863716666667}, {"is_reserved": 0, "rental_uris": {"ios": "https://dc.lft.to/lastmile_qr_scan", "android": "https://dc.lft.to/lastmile_qr_scan"}, "is_disabled": 0, "fusion_lon": 0.0, "lat": 38.910585833333336, "type": "electric_scooter", "fusion_lat": 0.0, "bike_id": "7bd7588e74e56f77f385024ee0ca2f0d", "name": "7bd7588e74e56f77f385024ee0ca2f0d", "lon": -77.04099966666666}, {"is_reserved": 0, "rental_uris": {"ios": "https://dc.lft.to/lastmile_qr_scan", "android": "https://dc.lft.to/lastmile_qr_scan"}, "is_disabled": 0, "fusion_lon": 0.0, "lat": 38.9182095, "type": "electric_scooter", "fusion_lat": 0.0, "bike_id": "5b9fc8404d3a46d6618a24e3503c78f7", "name": "5b9fc8404d3a46d6618a24e3503c78f7", "lon": -77.03847466666667}, {"is_reserved": 0, "rental_uris": {"ios": "https://dc.lft.to/lastmile_qr_scan", "android": "https://dc.lft.to/lastmile_qr_scan"}, "is_disabled": 0, "fusion_lon": 0.0, "lat": 38.88583966666667, "type": "electric_scooter", "fusion_lat": 0.0, "bike_id": "1b82ff0055fb5db79f6b28cc1a5140b5", "name": "1b82ff0055fb5db79f6b28cc1a5140b5", "lon": -77.01224783333333}, {"is_reserved": 0, "rental_uris": {"ios": "https://dc.lft.to/lastmile_qr_scan", "android": "https://dc.lft.to/lastmile_qr_scan"}, "is_disabled": 0, "fusion_lon": 0.0, "lat": 38.93088983333333, "type": "electric_scooter", "fusion_lat": 0.0, "bike_id": "472e931d91c34714c0ac603985b68aec", "name": "472e931d91c34714c0ac603985b68aec", "lon": -76.96716716666667}, {"is_reserved": 0, "rental_uris": {"ios": "https://dc.lft.to/lastmile_qr_scan", "android": "https://dc.lft.to/lastmile_qr_scan"}, "is_disabled": 0, "fusion_lon": 0.0, "lat": 39.0304915, "type": "electric_bike", "fusion_lat": 0.0, "bike_id": "b4bb290d78fb53be5bcf9701cc3e30b8", "name": "b4bb290d78fb53be5bcf9701cc3e30b8", "lon": -77.09478066666667}, {"is_reserved": 0, "rental_uris": {"ios": "https://dc.lft.to/lastmile_qr_scan", "android": "https://dc.lft.to/lastmile_qr_scan"}, "is_disabled": 0, "fusion_lon": 0.0, "lat": 38.965007666666665, "type": "electric_bike", "fusion_lat": 0.0, "bike_id": "8a6a7ec9784208ab39449db9337c13fd", "name": "8a6a7ec9784208ab39449db9337c13fd", "lon": -76.93839366666667}, {"is_reserved": 0, "rental_uris": {"ios": "https://dc.lft.to/lastmile_qr_scan", "android": "https://dc.lft.to/lastmile_qr_scan"}, "is_disabled": 0, "fusion_lon": 0.0, "lat": 38.92827366666667, "type": "electric_scooter", "fusion_lat": 0.0, "bike_id": "3c4a5d942f9d70d56549ecaa2cfa25e4", "name": "3c4a5d942f9d70d56549ecaa2cfa25e4", "lon": -77.02256616666666}, {"is_reserved": 0, "rental_uris": {"ios": "https://dc.lft.to/lastmile_qr_scan", "android": "https://dc.lft.to/lastmile_qr_scan"}, "is_disabled": 0, "fusion_lon": 0.0, "lat": 38.90771133333333, "type": "electric_scooter", "fusion_lat": 0.0, "bike_id": "8bb7f3070cda1f5b8a0dccc15c16b512", "name": "8bb7f3070cda1f5b8a0dccc15c16b512", "lon": -77.0691835}, {"is_reserved": 0, "rental_uris": {"ios": "https://dc.lft.to/lastmile_qr_scan", "android": "https://dc.lft.to/lastmile_qr_scan"}, "is_disabled": 0, "fusion_lon": 0.0, "lat": 38.8909995, "type": "electric_scooter", "fusion_lat": 0.0, "bike_id": "2a485dd9e654e390eb88706b158ff2d9", "name": "2a485dd9e654e390eb88706b158ff2d9", "lon": -77.00185283333333}, {"is_reserved": 0, "rental_uris": {"ios": "https://dc.lft.to/lastmile_qr_scan", "android": "https://dc.lft.to/lastmile_qr_scan"}, "is_disabled": 0, "fusion_lon": 0.0, "lat": 38.86559416666667, "type": "electric_scooter", "fusion_lat": 0.0, "bike_id": "de1ddf89bf1ed190a1dcf3b12fa3b4ea", "name": "de1ddf89bf1ed190a1dcf3b12fa3b4ea", "lon": -76.989399}, {"is_reserved": 0, "rental_uris": {"ios": "https://dc.lft.to/lastmile_qr_scan", "android": "https://dc.lft.to/lastmile_qr_scan"}, "is_disabled": 0, "fusion_lon": 0.0, "lat": 38.94835166666667, "type": "electric_scooter", "fusion_lat": 0.0, "bike_id": "d960f47e29c60de31d69d7596f48806c", "name": "d960f47e29c60de31d69d7596f48806c", "lon": -77.025518}, {"is_reserved": 0, "rental_uris": {"ios": "https://dc.lft.to/lastmile_qr_scan", "android": "https://dc.lft.to/lastmile_qr_scan"}, "is_disabled": 0, "fusion_lon": 0.0, "lat": 38.949791833333336, "type": "electric_scooter", "fusion_lat": 0.0, "bike_id": "551d9f94f24762fbeab79273b0b2f2e4", "name": "551d9f94f24762fbeab79273b0b2f2e4", "lon": -77.0269695}, {"is_reserved": 0, "rental_uris": {"ios": "https://dc.lft.to/lastmile_qr_scan", "android": "https://dc.lft.to/lastmile_qr_scan"}, "is_disabled": 0, "fusion_lon": 0.0, "lat": 38.9176765, "type": "electric_scooter", "fusion_lat": 0.0, "bike_id": "bf5a0319e0c5393d4de86019bb583a3e", "name": "bf5a0319e0c5393d4de86019bb583a3e", "lon": -77.0319205}, {"is_reserved": 0, "rental_uris": {"ios": "https://dc.lft.to/lastmile_qr_scan", "android": "https://dc.lft.to/lastmile_qr_scan"}, "is_disabled": 0, "fusion_lon": 0.0, "lat": 38.8937045, "type": "electric_scooter", "fusion_lat": 0.0, "bike_id": "d7e822eeeca6781769e45ddc8f8debf0", "name": "d7e822eeeca6781769e45ddc8f8debf0", "lon": -77.04796483333334}, {"is_reserved": 0, "rental_uris": {"ios": "https://dc.lft.to/lastmile_qr_scan", "android": "https://dc.lft.to/lastmile_qr_scan"}, "is_disabled": 0, "fusion_lon": 0.0, "lat": 38.91015983333333, "type": "electric_scooter", "fusion_lat": 0.0, "bike_id": "2f4074c31e8f51ef1ea81aabe84a76ec", "name": "2f4074c31e8f51ef1ea81aabe84a76ec", "lon": -77.05464483333333}, {"is_reserved": 0, "rental_uris": {"ios": "https://dc.lft.to/lastmile_qr_scan", "android": "https://dc.lft.to/lastmile_qr_scan"}, "is_disabled": 0, "fusion_lon": 0.0, "lat": 38.890623166666664, "type": "electric_scooter", "fusion_lat": 0.0, "bike_id": "e44d31e78aac35c3fb4c522b1b1e0def", "name": "e44d31e78aac35c3fb4c522b1b1e0def", "lon": -76.94331883333334}, {"is_reserved": 0, "rental_uris": {"ios": "https://dc.lft.to/lastmile_qr_scan", "android": "https://dc.lft.to/lastmile_qr_scan"}, "is_disabled": 0, "fusion_lon": 0.0, "lat": 38.9077855, "type": "electric_scooter", "fusion_lat": 0.0, "bike_id": "77f1948bc5bf5ccc39655a9cce18b451", "name": "77f1948bc5bf5ccc39655a9cce18b451", "lon": -77.0382565}, {"is_reserved": 0, "rental_uris": {"ios": "https://dc.lft.to/lastmile_qr_scan", "android": "https://dc.lft.to/lastmile_qr_scan"}, "is_disabled": 0, "fusion_lon": 0.0, "lat": 38.92445633333333, "type": "electric_scooter", "fusion_lat": 0.0, "bike_id": "7d2da035319ba84d6c4bd80bff89f520", "name": "7d2da035319ba84d6c4bd80bff89f520", "lon": -77.0216245}, {"is_reserved": 0, "rental_uris": {"ios": "https://dc.lft.to/lastmile_qr_scan", "android": "https://dc.lft.to/lastmile_qr_scan"}, "is_disabled": 0, "fusion_lon": 0.0, "lat": 38.86610316666667, "type": "electric_bike", "fusion_lat": 0.0, "bike_id": "44de5487e150a631cd7fb278e7253d4a", "name": "44de5487e150a631cd7fb278e7253d4a", "lon": -76.94568983333333}, {"is_reserved": 0, "rental_uris": {"ios": "https://dc.lft.to/lastmile_qr_scan", "android": "https://dc.lft.to/lastmile_qr_scan"}, "is_disabled": 0, "fusion_lon": 0.0, "lat": 38.85810716666667, "type": "electric_scooter", "fusion_lat": 0.0, "bike_id": "b279805f791e9ab5ff5601aeb981a58c", "name": "b279805f791e9ab5ff5601aeb981a58c", "lon": -76.986545}, {"is_reserved": 0, "rental_uris": {"ios": "https://dc.lft.to/lastmile_qr_scan", "android": "https://dc.lft.to/lastmile_qr_scan"}, "is_disabled": 0, "fusion_lon": 0.0, "lat": 38.91847633333333, "type": "electric_scooter", "fusion_lat": 0.0, "bike_id": "c3a3fe234e7981ada2209d7a9886778b", "name": "c3a3fe234e7981ada2209d7a9886778b", "lon": -77.03212633333334}, {"is_reserved": 0, "rental_uris": {"ios": "https://dc.lft.to/lastmile_qr_scan", "android": "https://dc.lft.to/lastmile_qr_scan"}, "is_disabled": 0, "fusion_lon": 0.0, "lat": 38.9246345, "type": "electric_bike", "fusion_lat": 0.0, "bike_id": "8509a5260086ab8364c19eb150b47492", "name": "8509a5260086ab8364c19eb150b47492", "lon": -77.2083805}, {"is_reserved": 0, "rental_uris": {"ios": "https://dc.lft.to/lastmile_qr_scan", "android": "https://dc.lft.to/lastmile_qr_scan"}, "is_disabled": 0, "fusion_lon": 0.0, "lat": 38.90994233333333, "type": "electric_scooter", "fusion_lat": 0.0, "bike_id": "6df55a8a2a9fc0a16253187d4502154f", "name": "6df55a8a2a9fc0a16253187d4502154f", "lon": -77.0345545}, {"is_reserved": 0, "rental_uris": {"ios": "https://dc.lft.to/lastmile_qr_scan", "android": "https://dc.lft.to/lastmile_qr_scan"}, "is_disabled": 0, "fusion_lon": 0.0, "lat": 38.924352166666665, "type": "electric_scooter", "fusion_lat": 0.0, "bike_id": "b55797804ac2f737cd96e68f1f01fb43", "name": "b55797804ac2f737cd96e68f1f01fb43", "lon": -77.04249116666666}, {"is_reserved": 0, "rental_uris": {"ios": "https://dc.lft.to/lastmile_qr_scan", "android": "https://dc.lft.to/lastmile_qr_scan"}, "is_disabled": 0, "fusion_lon": 0.0, "lat": 38.94167133333333, "type": "electric_scooter", "fusion_lat": 0.0, "bike_id": "8dec44e056ea2bcd127bc1a1b5d6348e", "name": "8dec44e056ea2bcd127bc1a1b5d6348e", "lon": -77.02532566666666}, {"is_reserved": 0, "rental_uris": {"ios": "https://dc.lft.to/lastmile_qr_scan", "android": "https://dc.lft.to/lastmile_qr_scan"}, "is_disabled": 0, "fusion_lon": 0.0, "lat": 38.92081683333333, "type": "electric_scooter", "fusion_lat": 0.0, "bike_id": "03003ea7f8f3da531d7d9b03abab495b", "name": "03003ea7f8f3da531d7d9b03abab495b", "lon": -77.02401483333334}, {"is_reserved": 0, "rental_uris": {"ios": "https://dc.lft.to/lastmile_qr_scan", "android": "https://dc.lft.to/lastmile_qr_scan"}, "is_disabled": 0, "fusion_lon": 0.0, "lat": 38.937086, "type": "electric_scooter", "fusion_lat": 0.0, "bike_id": "6cbc02ebb18526347acedf182609011f", "name": "6cbc02ebb18526347acedf182609011f", "lon": -77.02428816666666}, {"is_reserved": 0, "rental_uris": {"ios": "https://dc.lft.to/lastmile_qr_scan", "android": "https://dc.lft.to/lastmile_qr_scan"}, "is_disabled": 0, "fusion_lon": 0.0, "lat": 38.928773666666665, "type": "electric_scooter", "fusion_lat": 0.0, "bike_id": "02b1cabf7a381a7c7f67716a619ec0e5", "name": "02b1cabf7a381a7c7f67716a619ec0e5", "lon": -77.0342375}, {"is_reserved": 0, "rental_uris": {"ios": "https://dc.lft.to/lastmile_qr_scan", "android": "https://dc.lft.to/lastmile_qr_scan"}, "is_disabled": 0, "fusion_lon": 0.0, "lat": 38.891851333333335, "type": "electric_bike", "fusion_lat": 0.0, "bike_id": "e3bb2893d00899933f75cc49479c2005", "name": "e3bb2893d00899933f75cc49479c2005", "lon": -77.1225945}, {"is_reserved": 0, "rental_uris": {"ios": "https://dc.lft.to/lastmile_qr_scan", "android": "https://dc.lft.to/lastmile_qr_scan"}, "is_disabled": 0, "fusion_lon": 0.0, "lat": 38.899294833333336, "type": "electric_scooter", "fusion_lat": 0.0, "bike_id": "b8bb58a8e5f57a2d81929a1a6e1f561f", "name": "b8bb58a8e5f57a2d81929a1a6e1f561f", "lon": -77.00345083333333}, {"is_reserved": 0, "rental_uris": {"ios": "https://dc.lft.to/lastmile_qr_scan", "android": "https://dc.lft.to/lastmile_qr_scan"}, "is_disabled": 0, "fusion_lon": 0.0, "lat": 38.924154, "type": "electric_scooter", "fusion_lat": 0.0, "bike_id": "9572fccffd68e8bbcb4a3c286181f7f9", "name": "9572fccffd68e8bbcb4a3c286181f7f9", "lon": -77.02239166666666}, {"is_reserved": 0, "rental_uris": {"ios": "https://dc.lft.to/lastmile_qr_scan", "android": "https://dc.lft.to/lastmile_qr_scan"}, "is_disabled": 0, "fusion_lon": 0.0, "lat": 38.8990755, "type": "electric_scooter", "fusion_lat": 0.0, "bike_id": "1f0f1149cf14e9e48608e0e1c3242c5c", "name": "1f0f1149cf14e9e48608e0e1c3242c5c", "lon": -76.93353916666666}, {"is_reserved": 0, "rental_uris": {"ios": "https://dc.lft.to/lastmile_qr_scan", "android": "https://dc.lft.to/lastmile_qr_scan"}, "is_disabled": 0, "fusion_lon": 0.0, "lat": 38.9040235, "type": "electric_scooter", "fusion_lat": 0.0, "bike_id": "bbea72dc79d84e2b024ea23fb989933e", "name": "bbea72dc79d84e2b024ea23fb989933e", "lon": -77.02082533333333}, {"is_reserved": 0, "rental_uris": {"ios": "https://dc.lft.to/lastmile_qr_scan", "android": "https://dc.lft.to/lastmile_qr_scan"}, "is_disabled": 0, "fusion_lon": 0.0, "lat": 38.891972833333334, "type": "electric_scooter", "fusion_lat": 0.0, "bike_id": "e560447bfe4c08ca10c7c3811c62a30c", "name": "e560447bfe4c08ca10c7c3811c62a30c", "lon": -77.023785}, {"is_reserved": 0, "rental_uris": {"ios": "https://dc.lft.to/lastmile_qr_scan", "android": "https://dc.lft.to/lastmile_qr_scan"}, "is_disabled": 0, "fusion_lon": 0.0, "lat": 38.858084166666664, "type": "electric_scooter", "fusion_lat": 0.0, "bike_id": "7a0d3c35ce91244f2b2c008987c4497a", "name": "7a0d3c35ce91244f2b2c008987c4497a", "lon": -76.989922}, {"is_reserved": 0, "rental_uris": {"ios": "https://dc.lft.to/lastmile_qr_scan", "android": "https://dc.lft.to/lastmile_qr_scan"}, "is_disabled": 0, "fusion_lon": 0.0, "lat": 38.90490783333333, "type": "electric_scooter", "fusion_lat": 0.0, "bike_id": "004481d0021a43b4882e5d81589a0fc2", "name": "004481d0021a43b4882e5d81589a0fc2", "lon": -77.06014583333334}, {"is_reserved": 0, "rental_uris": {"ios": "https://dc.lft.to/lastmile_qr_scan", "android": "https://dc.lft.to/lastmile_qr_scan"}, "is_disabled": 0, "fusion_lon": 0.0, "lat": 38.883273333333335, "type": "electric_scooter", "fusion_lat": 0.0, "bike_id": "3cbd167a259e5aba9de954458531009c", "name": "3cbd167a259e5aba9de954458531009c", "lon": -76.93453216666667}, {"is_reserved": 0, "rental_uris": {"ios": "https://dc.lft.to/lastmile_qr_scan", "android": "https://dc.lft.to/lastmile_qr_scan"}, "is_disabled": 0, "fusion_lon": 0.0, "lat": 38.90141466666667, "type": "electric_scooter", "fusion_lat": 0.0, "bike_id": "99ffb29f9f7b7632f9d486eb43c20b52", "name": "99ffb29f9f7b7632f9d486eb43c20b52", "lon": -77.044786}, {"is_reserved": 0, "rental_uris": {"ios": "https://dc.lft.to/lastmile_qr_scan", "android": "https://dc.lft.to/lastmile_qr_scan"}, "is_disabled": 0, "fusion_lon": 0.0, "lat": 38.897695, "type": "electric_scooter", "fusion_lat": 0.0, "bike_id": "ec5a02cbf23a413fb163728d4dc24692", "name": "ec5a02cbf23a413fb163728d4dc24692", "lon": -77.03226933333333}, {"is_reserved": 0, "rental_uris": {"ios": "https://dc.lft.to/lastmile_qr_scan", "android": "https://dc.lft.to/lastmile_qr_scan"}, "is_disabled": 0, "fusion_lon": 0.0, "lat": 38.88518033333333, "type": "electric_scooter", "fusion_lat": 0.0, "bike_id": "ddb5d130187111fb676afb85ad64f3f9", "name": "ddb5d130187111fb676afb85ad64f3f9", "lon": -77.033496}, {"is_reserved": 0, "rental_uris": {"ios": "https://dc.lft.to/lastmile_qr_scan", "android": "https://dc.lft.to/lastmile_qr_scan"}, "is_disabled": 0, "fusion_lon": 0.0, "lat": 38.8749655, "type": "electric_scooter", "fusion_lat": 0.0, "bike_id": "232da8a568990728a93199f1159a4e3b", "name": "232da8a568990728a93199f1159a4e3b", "lon": -76.99797883333333}, {"is_reserved": 0, "rental_uris": {"ios": "https://dc.lft.to/lastmile_qr_scan", "android": "https://dc.lft.to/lastmile_qr_scan"}, "is_disabled": 0, "fusion_lon": 0.0, "lat": 38.898589333333334, "type": "electric_scooter", "fusion_lat": 0.0, "bike_id": "d77beb2c787d092a993c7eff84bc3bef", "name": "d77beb2c787d092a993c7eff84bc3bef", "lon": -77.04339583333334}, {"is_reserved": 0, "rental_uris": {"ios": "https://dc.lft.to/lastmile_qr_scan", "android": "https://dc.lft.to/lastmile_qr_scan"}, "is_disabled": 0, "fusion_lon": 0.0, "lat": 38.94016583333333, "type": "electric_scooter", "fusion_lat": 0.0, "bike_id": "ae238202485b902e1062c030248932d8", "name": "ae238202485b902e1062c030248932d8", "lon": -77.071726}, {"is_reserved": 0, "rental_uris": {"ios": "https://dc.lft.to/lastmile_qr_scan", "android": "https://dc.lft.to/lastmile_qr_scan"}, "is_disabled": 0, "fusion_lon": 0.0, "lat": 38.9284865, "type": "electric_scooter", "fusion_lat": 0.0, "bike_id": "b86a6ce37a9b015f892d045db3402da5", "name": "b86a6ce37a9b015f892d045db3402da5", "lon": -77.03306183333333}, {"is_reserved": 0, "rental_uris": {"ios": "https://dc.lft.to/lastmile_qr_scan", "android": "https://dc.lft.to/lastmile_qr_scan"}, "is_disabled": 0, "fusion_lon": 0.0, "lat": 38.92069166666667, "type": "electric_scooter", "fusion_lat": 0.0, "bike_id": "61f3d39db0476bd76d0770a9f52e8525", "name": "61f3d39db0476bd76d0770a9f52e8525", "lon": -77.04375633333333}, {"is_reserved": 0, "rental_uris": {"ios": "https://dc.lft.to/lastmile_qr_scan", "android": "https://dc.lft.to/lastmile_qr_scan"}, "is_disabled": 0, "fusion_lon": 0.0, "lat": 38.911111, "type": "electric_scooter", "fusion_lat": 0.0, "bike_id": "b680c95f5bcbe4e206557356e4f59be7", "name": "b680c95f5bcbe4e206557356e4f59be7", "lon": -77.04356766666666}, {"is_reserved": 0, "rental_uris": {"ios": "https://dc.lft.to/lastmile_qr_scan", "android": "https://dc.lft.to/lastmile_qr_scan"}, "is_disabled": 0, "fusion_lon": 0.0, "lat": 38.91451416666666, "type": "electric_scooter", "fusion_lat": 0.0, "bike_id": "b7625f3f6f9847675bf78feaadc441da", "name": "b7625f3f6f9847675bf78feaadc441da", "lon": -77.04622183333333}, {"is_reserved": 0, "rental_uris": {"ios": "https://dc.lft.to/lastmile_qr_scan", "android": "https://dc.lft.to/lastmile_qr_scan"}, "is_disabled": 0, "fusion_lon": 0.0, "lat": 38.89882333333333, "type": "electric_scooter", "fusion_lat": 0.0, "bike_id": "0e391416fec3134991aaa0f0616e1f7b", "name": "0e391416fec3134991aaa0f0616e1f7b", "lon": -76.93176116666666}, {"is_reserved": 0, "rental_uris": {"ios": "https://dc.lft.to/lastmile_qr_scan", "android": "https://dc.lft.to/lastmile_qr_scan"}, "is_disabled": 0, "fusion_lon": 0.0, "lat": 38.906259166666665, "type": "electric_scooter", "fusion_lat": 0.0, "bike_id": "b33a32bdc1e6f9aea2efa21d038af10a", "name": "b33a32bdc1e6f9aea2efa21d038af10a", "lon": -77.04361333333334}, {"is_reserved": 0, "rental_uris": {"ios": "https://dc.lft.to/lastmile_qr_scan", "android": "https://dc.lft.to/lastmile_qr_scan"}, "is_disabled": 0, "fusion_lon": 0.0, "lat": 38.9049565, "type": "electric_scooter", "fusion_lat": 0.0, "bike_id": "8ad782001e50728a9c828c0261d77924", "name": "8ad782001e50728a9c828c0261d77924", "lon": -77.06271316666667}, {"is_reserved": 0, "rental_uris": {"ios": "https://dc.lft.to/lastmile_qr_scan", "android": "https://dc.lft.to/lastmile_qr_scan"}, "is_disabled": 0, "fusion_lon": 0.0, "lat": 38.8505815, "type": "electric_bike", "fusion_lat": 0.0, "bike_id": "d4c113431f299de40a3d4d09b20d0045", "name": "d4c113431f299de40a3d4d09b20d0045", "lon": -76.97332283333333}, {"is_reserved": 0, "rental_uris": {"ios": "https://dc.lft.to/lastmile_qr_scan", "android": "https://dc.lft.to/lastmile_qr_scan"}, "is_disabled": 0, "fusion_lon": 0.0, "lat": 38.92246866666667, "type": "electric_scooter", "fusion_lat": 0.0, "bike_id": "caf99af5aa0b88286a21fdc0402bdb07", "name": "caf99af5aa0b88286a21fdc0402bdb07", "lon": -77.04571533333333}, {"is_reserved": 0, "rental_uris": {"ios": "https://dc.lft.to/lastmile_qr_scan", "android": "https://dc.lft.to/lastmile_qr_scan"}, "is_disabled": 0, "fusion_lon": 0.0, "lat": 38.940219166666665, "type": "electric_scooter", "fusion_lat": 0.0, "bike_id": "18414b52f9bc44477c7a472e88954001", "name": "18414b52f9bc44477c7a472e88954001", "lon": -77.07169466666667}, {"is_reserved": 0, "rental_uris": {"ios": "https://dc.lft.to/lastmile_qr_scan", "android": "https://dc.lft.to/lastmile_qr_scan"}, "is_disabled": 0, "fusion_lon": 0.0, "lat": 38.90551933333333, "type": "electric_scooter", "fusion_lat": 0.0, "bike_id": "f285309d2dd0ae846518ae549c20c583", "name": "f285309d2dd0ae846518ae549c20c583", "lon": -77.04662766666667}, {"is_reserved": 0, "rental_uris": {"ios": "https://dc.lft.to/lastmile_qr_scan", "android": "https://dc.lft.to/lastmile_qr_scan"}, "is_disabled": 0, "fusion_lon": 0.0, "lat": 38.909748666666665, "type": "electric_scooter", "fusion_lat": 0.0, "bike_id": "b924a6c6673bc13a08dfaa5ee92bed4c", "name": "b924a6c6673bc13a08dfaa5ee92bed4c", "lon": -77.0317945}, {"is_reserved": 0, "rental_uris": {"ios": "https://dc.lft.to/lastmile_qr_scan", "android": "https://dc.lft.to/lastmile_qr_scan"}, "is_disabled": 0, "fusion_lon": 0.0, "lat": 38.908989, "type": "electric_scooter", "fusion_lat": 0.0, "bike_id": "4c9efff8204f1c178b27a4c6c554d23f", "name": "4c9efff8204f1c178b27a4c6c554d23f", "lon": -77.04284133333333}, {"is_reserved": 0, "rental_uris": {"ios": "https://dc.lft.to/lastmile_qr_scan", "android": "https://dc.lft.to/lastmile_qr_scan"}, "is_disabled": 0, "fusion_lon": 0.0, "lat": 38.93426933333333, "type": "electric_scooter", "fusion_lat": 0.0, "bike_id": "bbf07aaf1e4f2825015c7d454f05525b", "name": "bbf07aaf1e4f2825015c7d454f05525b", "lon": -77.02845383333333}, {"is_reserved": 0, "rental_uris": {"ios": "https://dc.lft.to/lastmile_qr_scan", "android": "https://dc.lft.to/lastmile_qr_scan"}, "is_disabled": 0, "fusion_lon": 0.0, "lat": 38.854329, "type": "electric_bike", "fusion_lat": 0.0, "bike_id": "9c03e03b218065c35fb2ac3dc24c415c", "name": "9c03e03b218065c35fb2ac3dc24c415c", "lon": -76.9096655}, {"is_reserved": 0, "rental_uris": {"ios": "https://dc.lft.to/lastmile_qr_scan", "android": "https://dc.lft.to/lastmile_qr_scan"}, "is_disabled": 0, "fusion_lon": 0.0, "lat": 38.92603416666667, "type": "electric_scooter", "fusion_lat": 0.0, "bike_id": "9763e4745ecb36ad93aff1fbb5ab39af", "name": "9763e4745ecb36ad93aff1fbb5ab39af", "lon": -77.05695166666666}, {"is_reserved": 0, "rental_uris": {"ios": "https://dc.lft.to/lastmile_qr_scan", "android": "https://dc.lft.to/lastmile_qr_scan"}, "is_disabled": 0, "fusion_lon": 0.0, "lat": 38.810488166666666, "type": "electric_bike", "fusion_lat": 0.0, "bike_id": "782eab10eb2bea31af84a969a73cab1a", "name": "782eab10eb2bea31af84a969a73cab1a", "lon": -77.08514583333333}, {"is_reserved": 0, "rental_uris": {"ios": "https://dc.lft.to/lastmile_qr_scan", "android": "https://dc.lft.to/lastmile_qr_scan"}, "is_disabled": 0, "fusion_lon": 0.0, "lat": 38.90468933333333, "type": "electric_scooter", "fusion_lat": 0.0, "bike_id": "b5e1556c3c14336c3733daf938959016", "name": "b5e1556c3c14336c3733daf938959016", "lon": -77.0533325}, {"is_reserved": 0, "rental_uris": {"ios": "https://dc.lft.to/lastmile_qr_scan", "android": "https://dc.lft.to/lastmile_qr_scan"}, "is_disabled": 0, "fusion_lon": 0.0, "lat": 38.9156155, "type": "electric_scooter", "fusion_lat": 0.0, "bike_id": "fd5a6004f4ac4d56188f8f93f1b03d22", "name": "fd5a6004f4ac4d56188f8f93f1b03d22", "lon": -77.009778}, {"is_reserved": 0, "rental_uris": {"ios": "https://dc.lft.to/lastmile_qr_scan", "android": "https://dc.lft.to/lastmile_qr_scan"}, "is_disabled": 0, "fusion_lon": 0.0, "lat": 38.88709083333333, "type": "electric_scooter", "fusion_lat": 0.0, "bike_id": "02a343f712da802b814a6614b59eedc1", "name": "02a343f712da802b814a6614b59eedc1", "lon": -77.02827133333334}, {"is_reserved": 0, "rental_uris": {"ios": "https://dc.lft.to/lastmile_qr_scan", "android": "https://dc.lft.to/lastmile_qr_scan"}, "is_disabled": 0, "fusion_lon": 0.0, "lat": 38.844254166666666, "type": "electric_scooter", "fusion_lat": 0.0, "bike_id": "f9b0aaef9d4f14ea388aa33719c2f0b8", "name": "f9b0aaef9d4f14ea388aa33719c2f0b8", "lon": -76.99774816666667}, {"is_reserved": 0, "rental_uris": {"ios": "https://dc.lft.to/lastmile_qr_scan", "android": "https://dc.lft.to/lastmile_qr_scan"}, "is_disabled": 0, "fusion_lon": 0.0, "lat": 38.88696133333333, "type": "electric_scooter", "fusion_lat": 0.0, "bike_id": "27c3a25e99df9ef8aed5cba53a2fb294", "name": "27c3a25e99df9ef8aed5cba53a2fb294", "lon": -77.00345383333334}, {"is_reserved": 0, "rental_uris": {"ios": "https://dc.lft.to/lastmile_qr_scan", "android": "https://dc.lft.to/lastmile_qr_scan"}, "is_disabled": 0, "fusion_lon": 0.0, "lat": 38.886776166666664, "type": "electric_scooter", "fusion_lat": 0.0, "bike_id": "89562447ca0ade81509044adca0a6521", "name": "89562447ca0ade81509044adca0a6521", "lon": -77.0021385}, {"is_reserved": 0, "rental_uris": {"ios": "https://dc.lft.to/lastmile_qr_scan", "android": "https://dc.lft.to/lastmile_qr_scan"}, "is_disabled": 0, "fusion_lon": 0.0, "lat": 38.9041205, "type": "electric_scooter", "fusion_lat": 0.0, "bike_id": "1c023ceb51b0cd9573a1c9189877c82c", "name": "1c023ceb51b0cd9573a1c9189877c82c", "lon": -77.05347616666667}, {"is_reserved": 0, "rental_uris": {"ios": "https://dc.lft.to/lastmile_qr_scan", "android": "https://dc.lft.to/lastmile_qr_scan"}, "is_disabled": 0, "fusion_lon": 0.0, "lat": 38.9094635, "type": "electric_scooter", "fusion_lat": 0.0, "bike_id": "0e011b0fb9ae07173fb18a5877e72a2b", "name": "0e011b0fb9ae07173fb18a5877e72a2b", "lon": -77.04658583333334}, {"is_reserved": 0, "rental_uris": {"ios": "https://dc.lft.to/lastmile_qr_scan", "android": "https://dc.lft.to/lastmile_qr_scan"}, "is_disabled": 0, "fusion_lon": 0.0, "lat": 38.896179333333336, "type": "electric_scooter", "fusion_lat": 0.0, "bike_id": "c1677581956d31e1bed8a872cff2a8fe", "name": "c1677581956d31e1bed8a872cff2a8fe", "lon": -77.04502683333334}, {"is_reserved": 0, "rental_uris": {"ios": "https://dc.lft.to/lastmile_qr_scan", "android": "https://dc.lft.to/lastmile_qr_scan"}, "is_disabled": 0, "fusion_lon": 0.0, "lat": 38.8922485, "type": "electric_scooter", "fusion_lat": 0.0, "bike_id": "2ac3bf6581188dbbe83b32cccc06261e", "name": "2ac3bf6581188dbbe83b32cccc06261e", "lon": -77.04862183333333}, {"is_reserved": 0, "rental_uris": {"ios": "https://dc.lft.to/lastmile_qr_scan", "android": "https://dc.lft.to/lastmile_qr_scan"}, "is_disabled": 0, "fusion_lon": 0.0, "lat": 38.898321333333335, "type": "electric_scooter", "fusion_lat": 0.0, "bike_id": "76ad6f78bade4af1e231b21935af0357", "name": "76ad6f78bade4af1e231b21935af0357", "lon": -76.94634733333334}, {"is_reserved": 0, "rental_uris": {"ios": "https://dc.lft.to/lastmile_qr_scan", "android": "https://dc.lft.to/lastmile_qr_scan"}, "is_disabled": 0, "fusion_lon": 0.0, "lat": 38.916959166666665, "type": "electric_scooter", "fusion_lat": 0.0, "bike_id": "b8265ec841cd6b3036ba93c1c651e175", "name": "b8265ec841cd6b3036ba93c1c651e175", "lon": -77.03106733333334}, {"is_reserved": 0, "rental_uris": {"ios": "https://dc.lft.to/lastmile_qr_scan", "android": "https://dc.lft.to/lastmile_qr_scan"}, "is_disabled": 0, "fusion_lon": 0.0, "lat": 38.905793333333335, "type": "electric_scooter", "fusion_lat": 0.0, "bike_id": "52bae4d44b5e335db152ab49f3140007", "name": "52bae4d44b5e335db152ab49f3140007", "lon": -77.04577516666667}, {"is_reserved": 0, "rental_uris": {"ios": "https://dc.lft.to/lastmile_qr_scan", "android": "https://dc.lft.to/lastmile_qr_scan"}, "is_disabled": 0, "fusion_lon": 0.0, "lat": 38.90397266666667, "type": "electric_scooter", "fusion_lat": 0.0, "bike_id": "04799475109756487b90bbc51090b988", "name": "04799475109756487b90bbc51090b988", "lon": -77.04031083333334}, {"is_reserved": 0, "rental_uris": {"ios": "https://dc.lft.to/lastmile_qr_scan", "android": "https://dc.lft.to/lastmile_qr_scan"}, "is_disabled": 0, "fusion_lon": 0.0, "lat": 38.91736483333333, "type": "electric_scooter", "fusion_lat": 0.0, "bike_id": "f80bcd556de30281a5be328a91b13766", "name": "f80bcd556de30281a5be328a91b13766", "lon": -77.02810616666666}, {"is_reserved": 0, "rental_uris": {"ios": "https://dc.lft.to/lastmile_qr_scan", "android": "https://dc.lft.to/lastmile_qr_scan"}, "is_disabled": 0, "fusion_lon": 0.0, "lat": 38.91729766666667, "type": "electric_scooter", "fusion_lat": 0.0, "bike_id": "74474a9dce4644fabc53a7ac7384f47f", "name": "74474a9dce4644fabc53a7ac7384f47f", "lon": -77.04171983333333}, {"is_reserved": 0, "rental_uris": {"ios": "https://dc.lft.to/lastmile_qr_scan", "android": "https://dc.lft.to/lastmile_qr_scan"}, "is_disabled": 0, "fusion_lon": 0.0, "lat": 39.05198733333334, "type": "electric_bike", "fusion_lat": 0.0, "bike_id": "c0e6d160e0cc835841ec2e5ad4e1f136", "name": "c0e6d160e0cc835841ec2e5ad4e1f136", "lon": -77.10921683333333}, {"is_reserved": 0, "rental_uris": {"ios": "https://dc.lft.to/lastmile_qr_scan", "android": "https://dc.lft.to/lastmile_qr_scan"}, "is_disabled": 0, "fusion_lon": 0.0, "lat": 38.91816883333333, "type": "electric_scooter", "fusion_lat": 0.0, "bike_id": "d1f4af18159be3b573a0763273ac5af3", "name": "d1f4af18159be3b573a0763273ac5af3", "lon": -77.03653333333334}, {"is_reserved": 0, "rental_uris": {"ios": "https://dc.lft.to/lastmile_qr_scan", "android": "https://dc.lft.to/lastmile_qr_scan"}, "is_disabled": 0, "fusion_lon": 0.0, "lat": 38.90419883333333, "type": "electric_scooter", "fusion_lat": 0.0, "bike_id": "11303118eb3f7559edb4b9ac98ca0f47", "name": "11303118eb3f7559edb4b9ac98ca0f47", "lon": -77.04852883333334}, {"is_reserved": 0, "rental_uris": {"ios": "https://dc.lft.to/lastmile_qr_scan", "android": "https://dc.lft.to/lastmile_qr_scan"}, "is_disabled": 0, "fusion_lon": 0.0, "lat": 38.912158833333336, "type": "electric_scooter", "fusion_lat": 0.0, "bike_id": "a9596308c8f7a9e93e47fbc374d7c333", "name": "a9596308c8f7a9e93e47fbc374d7c333", "lon": -77.075947}, {"is_reserved": 0, "rental_uris": {"ios": "https://dc.lft.to/lastmile_qr_scan", "android": "https://dc.lft.to/lastmile_qr_scan"}, "is_disabled": 0, "fusion_lon": 0.0, "lat": 38.919204666666666, "type": "electric_scooter", "fusion_lat": 0.0, "bike_id": "b2042e6c38cae1172f298dee37f044d3", "name": "b2042e6c38cae1172f298dee37f044d3", "lon": -77.03421533333334}, {"is_reserved": 0, "rental_uris": {"ios": "https://dc.lft.to/lastmile_qr_scan", "android": "https://dc.lft.to/lastmile_qr_scan"},