{"data": {"bikes": [{"fusion_lat": 0.0, "name": "6b656eefe4bcb3f535bb63cda8d514ed", "is_disabled": 0, "rental_uris": {"android": "https://dc.lft.to/lastmile_qr_scan", "ios": "https://dc.lft.to/lastmile_qr_scan"}, "fusion_lon": 0.0, "lat": 38.88362466666667, "bike_id": "6b656eefe4bcb3f535bb63cda8d514ed", "type": "electric_scooter", "is_reserved": 0, "lon": -76.941674}, {"fusion_lat": 0.0, "name": "2f38e01bdb7bd395acaf124fd7b6e02c", "is_disabled": 0, "rental_uris": {"android": "https://dc.lft.to/lastmile_qr_scan", "ios": "https://dc.lft.to/lastmile_qr_scan"}, "fusion_lon": 0.0, "lat": 38.914295, "bike_id": "2f38e01bdb7bd395acaf124fd7b6e02c", "type": "electric_scooter", "is_reserved": 0, "lon": -77.03218883333334}, {"fusion_lat": 0.0, "name": "8da035d4d64bda75ca71fdf59a5c50bc", "is_disabled": 0, "rental_uris": {"android": "https://dc.lft.to/lastmile_qr_scan", "ios": "https://dc.lft.to/lastmile_qr_scan"}, "fusion_lon": 0.0, "lat": 38.895298, "bike_id": "8da035d4d64bda75ca71fdf59a5c50bc", "type": "electric_scooter", "is_reserved": 0, "lon": -77.04227816666666}, {"fusion_lat": 0.0, "name": "8810eee69c3a2d5eaa7e9e17ee3704db", "is_disabled": 0, "rental_uris": {"android": "https://dc.lft.to/lastmile_qr_scan", "ios": "https://dc.lft.to/lastmile_qr_scan"}, "fusion_lon": 0.0, "lat": 38.90971066666667, "bike_id": "8810eee69c3a2d5eaa7e9e17ee3704db", "type": "electric_scooter", "is_reserved": 0, "lon": -77.0322895}, {"fusion_lat": 0.0, "name": "8b593ea0bd4b790d8aa5524595662471", "is_disabled": 0, "rental_uris": {"android": "https://dc.lft.to/lastmile_qr_scan", "ios": "https://dc.lft.to/lastmile_qr_scan"}, "fusion_lon": 0.0, "lat": 38.928878166666664, "bike_id": "8b593ea0bd4b790d8aa5524595662471", "type": "electric_scooter", "is_reserved": 0, "lon": -77.02303683333334}, {"fusion_lat": 0.0, "name": "8e6b1ca617cf0eef586459602224d91e", "is_disabled": 0, "rental_uris": {"android": "https://dc.lft.to/lastmile_qr_scan", "ios": "https://dc.lft.to/lastmile_qr_scan"}, "fusion_lon": 0.0, "lat": 38.90217783333333, "bike_id": "8e6b1ca617cf0eef586459602224d91e", "type": "electric_scooter", "is_reserved": 0, "lon": -77.0347435}, {"fusion_lat": 0.0, "name": "eb273347cab3465879e50f2b21778854", "is_disabled": 0, "rental_uris": {"android": "https://dc.lft.to/lastmile_qr_scan", "ios": "https://dc.lft.to/lastmile_qr_scan"}, "fusion_lon": 0.0, "lat": 38.94503433333333, "bike_id": "eb273347cab3465879e50f2b21778854", "type": "electric_scooter", "is_reserved": 0, "lon": -77.031498}, {"fusion_lat": 0.0, "name": "1c57532ae5ecd26d136b69ea50d5d615", "is_disabled": 0, "rental_uris": {"android": "https://dc.lft.to/lastmile_qr_scan", "ios": "https://dc.lft.to/lastmile_qr_scan"}, "fusion_lon": 0.0, "lat": 38.843467833333335, "bike_id": "1c57532ae5ecd26d136b69ea50d5d615", "type": "electric_bike", "is_reserved": 0, "lon": -76.97825883333333}, {"fusion_lat": 0.0, "name": "8fd6598dc55dd8b3a36b0fad04d5cbb1", "is_disabled": 0, "rental_uris": {"android": "https://dc.lft.to/lastmile_qr_scan", "ios": "https://dc.lft.to/lastmile_qr_scan"}, "fusion_lon": 0.0, "lat": 38.90824833333333, "bike_id": "8fd6598dc55dd8b3a36b0fad04d5cbb1", "type": "electric_scooter", "is_reserved": 0, "lon": -77.04360016666666}, {"fusion_lat": 0.0, "name": "f2646f3f2960a787ae9ee0dd562de1e7", "is_disabled": 0, "rental_uris": {"android": "https://dc.lft.to/lastmile_qr_scan", "ios": "https://dc.lft.to/lastmile_qr_scan"}, "fusion_lon": 0.0, "lat": 38.924488833333335, "bike_id": "f2646f3f2960a787ae9ee0dd562de1e7", "type": "electric_scooter", "is_reserved": 0, "lon": -77.0087975}, {"fusion_lat": 0.0, "name": "6e8caea4d62e65e5434f31cde6272128", "is_disabled": 0, "rental_uris": {"android": "https://dc.lft.to/lastmile_qr_scan", "ios": "https://dc.lft.to/lastmile_qr_scan"}, "fusion_lon": 0.0, "lat": 38.9039015, "bike_id": "6e8caea4d62e65e5434f31cde6272128", "type": "electric_scooter", "is_reserved": 0, "lon": -77.01773833333333}, {"fusion_lat": 0.0, "name": "8e19e88a58e74f8ba39907c3d6ecd78c", "is_disabled": 0, "rental_uris": {"android": "https://dc.lft.to/lastmile_qr_scan", "ios": "https://dc.lft.to/lastmile_qr_scan"}, "fusion_lon": 0.0, "lat": 38.8832605, "bike_id": "8e19e88a58e74f8ba39907c3d6ecd78c", "type": "electric_scooter", "is_reserved": 0, "lon": -77.01390966666666}, {"fusion_lat": 0.0, "name": "73553c22bffa25d0a0a90589802c86ff", "is_disabled": 0, "rental_uris": {"android": "https://dc.lft.to/lastmile_qr_scan", "ios": "https://dc.lft.to/lastmile_qr_scan"}, "fusion_lon": 0.0, "lat": 38.9183905, "bike_id": "73553c22bffa25d0a0a90589802c86ff", "type": "electric_scooter", "is_reserved": 0, "lon": -77.03186866666667}, {"fusion_lat": 0.0, "name": "a2f66c4dba445b3d1bc8cba921d4a0c4", "is_disabled": 0, "rental_uris": {"android": "https://dc.lft.to/lastmile_qr_scan", "ios": "https://dc.lft.to/lastmile_qr_scan"}, "fusion_lon": 0.0, "lat": 38.935865166666666, "bike_id": "a2f66c4dba445b3d1bc8cba921d4a0c4", "type": "electric_scooter", "is_reserved": 0, "lon": -77.03358516666667}, {"fusion_lat": 0.0, "name": "4b26c4abc621a07a0cbcfe57234015f7", "is_disabled": 0, "rental_uris": {"android": "https://dc.lft.to/lastmile_qr_scan", "ios": "https://dc.lft.to/lastmile_qr_scan"}, "fusion_lon": 0.0, "lat": 38.92286633333333, "bike_id": "4b26c4abc621a07a0cbcfe57234015f7", "type": "electric_scooter", "is_reserved": 0, "lon": -77.02334583333334}, {"fusion_lat": 0.0, "name": "b004279806f456a8064550144d0bc0b9", "is_disabled": 0, "rental_uris": {"android": "https://dc.lft.to/lastmile_qr_scan", "ios": "https://dc.lft.to/lastmile_qr_scan"}, "fusion_lon": 0.0, "lat": 38.99758, "bike_id": "b004279806f456a8064550144d0bc0b9", "type": "electric_bike", "is_reserved": 0, "lon": -77.02684766666667}, {"fusion_lat": 0.0, "name": "af2ca1a5dd2c771fbceeef0f668a1a8c", "is_disabled": 0, "rental_uris": {"android": "https://dc.lft.to/lastmile_qr_scan", "ios": "https://dc.lft.to/lastmile_qr_scan"}, "fusion_lon": 0.0, "lat": 38.89679866666667, "bike_id": "af2ca1a5dd2c771fbceeef0f668a1a8c", "type": "electric_scooter", "is_reserved": 0, "lon": -77.05134066666666}, {"fusion_lat": 0.0, "name": "765c4e94c1f4f5521587c2070cd85118", "is_disabled": 0, "rental_uris": {"android": "https://dc.lft.to/lastmile_qr_scan", "ios": "https://dc.lft.to/lastmile_qr_scan"}, "fusion_lon": 0.0, "lat": 38.9193645, "bike_id": "765c4e94c1f4f5521587c2070cd85118", "type": "electric_scooter", "is_reserved": 0, "lon": -77.02438883333333}, {"fusion_lat": 0.0, "name": "35abaaf744edd5ee4dbab81506462968", "is_disabled": 0, "rental_uris": {"android": "https://dc.lft.to/lastmile_qr_scan", "ios": "https://dc.lft.to/lastmile_qr_scan"}, "fusion_lon": 0.0, "lat": 38.9192095, "bike_id": "35abaaf744edd5ee4dbab81506462968", "type": "electric_scooter", "is_reserved": 0, "lon": -77.012183}, {"fusion_lat": 0.0, "name": "fb531e60b7d81ad2254cb078fe2f18fe", "is_disabled": 0, "rental_uris": {"android": "https://dc.lft.to/lastmile_qr_scan", "ios": "https://dc.lft.to/lastmile_qr_scan"}, "fusion_lon": 0.0, "lat": 38.9237425, "bike_id": "fb531e60b7d81ad2254cb078fe2f18fe", "type": "electric_scooter", "is_reserved": 0, "lon": -77.02921966666666}, {"fusion_lat": 0.0, "name": "57a600ae516617749f0ca848437430b1", "is_disabled": 0, "rental_uris": {"android": "https://dc.lft.to/lastmile_qr_scan", "ios": "https://dc.lft.to/lastmile_qr_scan"}, "fusion_lon": 0.0, "lat": 38.907180833333335, "bike_id": "57a600ae516617749f0ca848437430b1", "type": "electric_scooter", "is_reserved": 0, "lon": -77.04012383333334}, {"fusion_lat": 0.0, "name": "8c7ad22bf5b92b41517a5e2dbf94c7a1", "is_disabled": 0, "rental_uris": {"android": "https://dc.lft.to/lastmile_qr_scan", "ios": "https://dc.lft.to/lastmile_qr_scan"}, "fusion_lon": 0.0, "lat": 38.89474666666667, "bike_id": "8c7ad22bf5b92b41517a5e2dbf94c7a1", "type": "electric_scooter", "is_reserved": 0, "lon": -77.010988}, {"fusion_lat": 0.0, "name": "e9e3b62c41068d41eda3e2f447ecb6ba", "is_disabled": 0, "rental_uris": {"android": "https://dc.lft.to/lastmile_qr_scan", "ios": "https://dc.lft.to/lastmile_qr_scan"}, "fusion_lon": 0.0, "lat": 38.88162616666666, "bike_id": "e9e3b62c41068d41eda3e2f447ecb6ba", "type": "electric_scooter", "is_reserved": 0, "lon": -77.02766466666667}, {"fusion_lat": 0.0, "name": "8c0977e734d4639bc8db479e17619821", "is_disabled": 0, "rental_uris": {"android": "https://dc.lft.to/lastmile_qr_scan", "ios": "https://dc.lft.to/lastmile_qr_scan"}, "fusion_lon": 0.0, "lat": 38.9142, "bike_id": "8c0977e734d4639bc8db479e17619821", "type": "electric_scooter", "is_reserved": 0, "lon": -77.01419466666667}, {"fusion_lat": 0.0, "name": "57e2ac8be0c3b6a87e244a3fe7a5e387", "is_disabled": 0, "rental_uris": {"android": "https://dc.lft.to/lastmile_qr_scan", "ios": "https://dc.lft.to/lastmile_qr_scan"}, "fusion_lon": 0.0, "lat": 38.90111783333333, "bike_id": "57e2ac8be0c3b6a87e244a3fe7a5e387", "type": "electric_scooter", "is_reserved": 0, "lon": -77.02010816666666}, {"fusion_lat": 0.0, "name": "b6d8ac9a18efe709a66aaf8944ccf8b2", "is_disabled": 0, "rental_uris": {"android": "https://dc.lft.to/lastmile_qr_scan", "ios": "https://dc.lft.to/lastmile_qr_scan"}, "fusion_lon": 0.0, "lat": 38.90273, "bike_id": "b6d8ac9a18efe709a66aaf8944ccf8b2", "type": "electric_scooter", "is_reserved": 0, "lon": -77.03656233333334}, {"fusion_lat": 0.0, "name": "ed2c161c1c3b57e89728a1a660e25a4c", "is_disabled": 0, "rental_uris": {"android": "https://dc.lft.to/lastmile_qr_scan", "ios": "https://dc.lft.to/lastmile_qr_scan"}, "fusion_lon": 0.0, "lat": 38.95639233333333, "bike_id": "ed2c161c1c3b57e89728a1a660e25a4c", "type": "electric_bike", "is_reserved": 0, "lon": -76.938652}, {"fusion_lat": 0.0, "name": "a6020fb322a32ad73e5b54d17a27984e", "is_disabled": 0, "rental_uris": {"android": "https://dc.lft.to/lastmile_qr_scan", "ios": "https://dc.lft.to/lastmile_qr_scan"}, "fusion_lon": 0.0, "lat": 38.922826, "bike_id": "a6020fb322a32ad73e5b54d17a27984e", "type": "electric_scooter", "is_reserved": 0, "lon": -77.03655983333333}, {"fusion_lat": 0.0, "name": "65fffbc61a702ccba7b61f45769a9132", "is_disabled": 0, "rental_uris": {"android": "https://dc.lft.to/lastmile_qr_scan", "ios": "https://dc.lft.to/lastmile_qr_scan"}, "fusion_lon": 0.0, "lat": 38.91598483333333, "bike_id": "65fffbc61a702ccba7b61f45769a9132", "type": "electric_scooter", "is_reserved": 0, "lon": -77.03188833333333}, {"fusion_lat": 0.0, "name": "3a67b04149c0a393ed26e643af858fcf", "is_disabled": 0, "rental_uris": {"android": "https://dc.lft.to/lastmile_qr_scan", "ios": "https://dc.lft.to/lastmile_qr_scan"}, "fusion_lon": 0.0, "lat": 38.8995575, "bike_id": "3a67b04149c0a393ed26e643af858fcf", "type": "electric_bike", "is_reserved": 0, "lon": -77.0453005}, {"fusion_lat": 0.0, "name": "20073747a79b9c1e7c3e9bc349ce19dd", "is_disabled": 0, "rental_uris": {"android": "https://dc.lft.to/lastmile_qr_scan", "ios": "https://dc.lft.to/lastmile_qr_scan"}, "fusion_lon": 0.0, "lat": 38.94532533333334, "bike_id": "20073747a79b9c1e7c3e9bc349ce19dd", "type": "electric_scooter", "is_reserved": 0, "lon": -77.02098133333334}, {"fusion_lat": 0.0, "name": "bccb0e2d06abe154f39ad117a223c719", "is_disabled": 0, "rental_uris": {"android": "https://dc.lft.to/lastmile_qr_scan", "ios": "https://dc.lft.to/lastmile_qr_scan"}, "fusion_lon": 0.0, "lat": 38.921229333333336, "bike_id": "bccb0e2d06abe154f39ad117a223c719", "type": "electric_scooter", "is_reserved": 0, "lon": -77.01030666666666}, {"fusion_lat": 0.0, "name": "f4b997219a62982cdb8d05e9455a8ee2", "is_disabled": 0, "rental_uris": {"android": "https://dc.lft.to/lastmile_qr_scan", "ios": "https://dc.lft.to/lastmile_qr_scan"}, "fusion_lon": 0.0, "lat": 39.01079, "bike_id": "f4b997219a62982cdb8d05e9455a8ee2", "type": "electric_bike", "is_reserved": 0, "lon": -76.9106965}, {"fusion_lat": 0.0, "name": "c974db47e16b69037bcf634dda6957de", "is_disabled": 0, "rental_uris": {"android": "https://dc.lft.to/lastmile_qr_scan", "ios": "https://dc.lft.to/lastmile_qr_scan"}, "fusion_lon": 0.0, "lat": 38.92283833333333, "bike_id": "c974db47e16b69037bcf634dda6957de", "type": "electric_scooter", "is_reserved": 0, "lon": -77.04226866666667}, {"fusion_lat": 0.0, "name": "f3c8c4b2e18969b8228af0c8e37cd38a", "is_disabled": 0, "rental_uris": {"android": "https://dc.lft.to/lastmile_qr_scan", "ios": "https://dc.lft.to/lastmile_qr_scan"}, "fusion_lon": 0.0, "lat": 38.930408666666665, "bike_id": "f3c8c4b2e18969b8228af0c8e37cd38a", "type": "electric_scooter", "is_reserved": 0, "lon": -77.04073466666667}, {"fusion_lat": 0.0, "name": "8ff52d3c943f9c49b5d434422d528463", "is_disabled": 0, "rental_uris": {"android": "https://dc.lft.to/lastmile_qr_scan", "ios": "https://dc.lft.to/lastmile_qr_scan"}, "fusion_lon": 0.0, "lat": 38.92273433333333, "bike_id": "8ff52d3c943f9c49b5d434422d528463", "type": "electric_scooter", "is_reserved": 0, "lon": -77.042313}, {"fusion_lat": 0.0, "name": "d972941d19b7734c387d543d93c984af", "is_disabled": 0, "rental_uris": {"android": "https://dc.lft.to/lastmile_qr_scan", "ios": "https://dc.lft.to/lastmile_qr_scan"}, "fusion_lon": 0.0, "lat": 38.89092016666667, "bike_id": "d972941d19b7734c387d543d93c984af", "type": "electric_scooter", "is_reserved": 0, "lon": -76.919275}, {"fusion_lat": 0.0, "name": "ed3e13604367833039ef3170e084a9cd", "is_disabled": 0, "rental_uris": {"android": "https://dc.lft.to/lastmile_qr_scan", "ios": "https://dc.lft.to/lastmile_qr_scan"}, "fusion_lon": 0.0, "lat": 38.87886833333334, "bike_id": "ed3e13604367833039ef3170e084a9cd", "type": "electric_scooter", "is_reserved": 0, "lon": -77.021993}, {"fusion_lat": 0.0, "name": "7bf9e3949375757d6406b1d62dace94f", "is_disabled": 0, "rental_uris": {"android": "https://dc.lft.to/lastmile_qr_scan", "ios": "https://dc.lft.to/lastmile_qr_scan"}, "fusion_lon": 0.0, "lat": 38.9207345, "bike_id": "7bf9e3949375757d6406b1d62dace94f", "type": "electric_scooter", "is_reserved": 0, "lon": -76.991795}, {"fusion_lat": 0.0, "name": "4c3644d09fbeb657d426491fec208dac", "is_disabled": 0, "rental_uris": {"android": "https://dc.lft.to/lastmile_qr_scan", "ios": "https://dc.lft.to/lastmile_qr_scan"}, "fusion_lon": 0.0, "lat": 38.915394166666665, "bike_id": "4c3644d09fbeb657d426491fec208dac", "type": "electric_scooter", "is_reserved": 0, "lon": -76.98364766666667}, {"fusion_lat": 0.0, "name": "b63307a1bbf4413d4d0a803e83804e55", "is_disabled": 0, "rental_uris": {"android": "https://dc.lft.to/lastmile_qr_scan", "ios": "https://dc.lft.to/lastmile_qr_scan"}, "fusion_lon": 0.0, "lat": 38.876306666666665, "bike_id": "b63307a1bbf4413d4d0a803e83804e55", "type": "electric_scooter", "is_reserved": 0, "lon": -77.01474666666667}, {"fusion_lat": 0.0, "name": "93004db9856b0265d5842e50e17d0e9a", "is_disabled": 0, "rental_uris": {"android": "https://dc.lft.to/lastmile_qr_scan", "ios": "https://dc.lft.to/lastmile_qr_scan"}, "fusion_lon": 0.0, "lat": 38.926748, "bike_id": "93004db9856b0265d5842e50e17d0e9a", "type": "electric_scooter", "is_reserved": 0, "lon": -77.03058383333334}, {"fusion_lat": 0.0, "name": "3a3b08e46cce208a2c717f61152f47b5", "is_disabled": 0, "rental_uris": {"android": "https://dc.lft.to/lastmile_qr_scan", "ios": "https://dc.lft.to/lastmile_qr_scan"}, "fusion_lon": 0.0, "lat": 38.94439466666667, "bike_id": "3a3b08e46cce208a2c717f61152f47b5", "type": "electric_bike", "is_reserved": 0, "lon": -77.02604266666667}, {"fusion_lat": 0.0, "name": "36c7802a61108ea53fce3477c29da712", "is_disabled": 0, "rental_uris": {"android": "https://dc.lft.to/lastmile_qr_scan", "ios": "https://dc.lft.to/lastmile_qr_scan"}, "fusion_lon": 0.0, "lat": 38.91951666666667, "bike_id": "36c7802a61108ea53fce3477c29da712", "type": "electric_scooter", "is_reserved": 0, "lon": -77.03196066666666}, {"fusion_lat": 0.0, "name": "f0a2b5743050824eb7cb5a92768e1ad3", "is_disabled": 0, "rental_uris": {"android": "https://dc.lft.to/lastmile_qr_scan", "ios": "https://dc.lft.to/lastmile_qr_scan"}, "fusion_lon": 0.0, "lat": 38.790243833333335, "bike_id": "f0a2b5743050824eb7cb5a92768e1ad3", "type": "electric_bike", "is_reserved": 0, "lon": -77.01551316666666}, {"fusion_lat": 0.0, "name": "11909dcc0bbc32c8d58af33aebb8d5b3", "is_disabled": 0, "rental_uris": {"android": "https://dc.lft.to/lastmile_qr_scan", "ios": "https://dc.lft.to/lastmile_qr_scan"}, "fusion_lon": 0.0, "lat": 38.93593, "bike_id": "11909dcc0bbc32c8d58af33aebb8d5b3", "type": "electric_scooter", "is_reserved": 0, "lon": -77.02297416666667}, {"fusion_lat": 0.0, "name": "b5e44bd1194610e98598e739194f1689", "is_disabled": 0, "rental_uris": {"android": "https://dc.lft.to/lastmile_qr_scan", "ios": "https://dc.lft.to/lastmile_qr_scan"}, "fusion_lon": 0.0, "lat": 38.90034583333333, "bike_id": "b5e44bd1194610e98598e739194f1689", "type": "electric_scooter", "is_reserved": 0, "lon": -77.002049}, {"fusion_lat": 0.0, "name": "1307de4187e543573260611d8acc40cd", "is_disabled": 0, "rental_uris": {"android": "https://dc.lft.to/lastmile_qr_scan", "ios": "https://dc.lft.to/lastmile_qr_scan"}, "fusion_lon": 0.0, "lat": 38.9171095, "bike_id": "1307de4187e543573260611d8acc40cd", "type": "electric_scooter", "is_reserved": 0, "lon": -77.03072833333333}, {"fusion_lat": 0.0, "name": "9c83685384bd6d92cc2669146b3dacce", "is_disabled": 0, "rental_uris": {"android": "https://dc.lft.to/lastmile_qr_scan", "ios": "https://dc.lft.to/lastmile_qr_scan"}, "fusion_lon": 0.0, "lat": 38.865163333333335, "bike_id": "9c83685384bd6d92cc2669146b3dacce", "type": "electric_bike", "is_reserved": 0, "lon": -77.129421}, {"fusion_lat": 0.0, "name": "c42c19b22ce7aa1900972a0de9fa6dc0", "is_disabled": 0, "rental_uris": {"android": "https://dc.lft.to/lastmile_qr_scan", "ios": "https://dc.lft.to/lastmile_qr_scan"}, "fusion_lon": 0.0, "lat": 38.916528166666666, "bike_id": "c42c19b22ce7aa1900972a0de9fa6dc0", "type": "electric_scooter", "is_reserved": 0, "lon": -77.00949633333333}, {"fusion_lat": 0.0, "name": "e4c0cd29551687314e075a12a6aaa749", "is_disabled": 0, "rental_uris": {"android": "https://dc.lft.to/lastmile_qr_scan", "ios": "https://dc.lft.to/lastmile_qr_scan"}, "fusion_lon": 0.0, "lat": 38.8695835, "bike_id": "e4c0cd29551687314e075a12a6aaa749", "type": "electric_scooter", "is_reserved": 0, "lon": -77.01377616666667}, {"fusion_lat": 0.0, "name": "e1f9d76d147cf50672539c22f23807b1", "is_disabled": 0, "rental_uris": {"android": "https://dc.lft.to/lastmile_qr_scan", "ios": "https://dc.lft.to/lastmile_qr_scan"}, "fusion_lon": 0.0, "lat": 38.88615, "bike_id": "e1f9d76d147cf50672539c22f23807b1", "type": "electric_scooter", "is_reserved": 0, "lon": -77.01810633333334}, {"fusion_lat": 0.0, "name": "a31d71656edcb386aa9a3cef2cf9be2d", "is_disabled": 0, "rental_uris": {"android": "https://dc.lft.to/lastmile_qr_scan", "ios": "https://dc.lft.to/lastmile_qr_scan"}, "fusion_lon": 0.0, "lat": 38.90964666666667, "bike_id": "a31d71656edcb386aa9a3cef2cf9be2d", "type": "electric_scooter", "is_reserved": 0, "lon": -77.03141933333333}, {"fusion_lat": 0.0, "name": "e8c12aeba1e1298dde3f9f83343fe318", "is_disabled": 0, "rental_uris": {"android": "https://dc.lft.to/lastmile_qr_scan", "ios": "https://dc.lft.to/lastmile_qr_scan"}, "fusion_lon": 0.0, "lat": 38.9297485, "bike_id": "e8c12aeba1e1298dde3f9f83343fe318", "type": "electric_scooter", "is_reserved": 0, "lon": -77.02347}, {"fusion_lat": 0.0, "name": "c207d2c312032032d6edadca3b8a5934", "is_disabled": 0, "rental_uris": {"android": "https://dc.lft.to/lastmile_qr_scan", "ios": "https://dc.lft.to/lastmile_qr_scan"}, "fusion_lon": 0.0, "lat": 38.916842, "bike_id": "c207d2c312032032d6edadca3b8a5934", "type": "electric_scooter", "is_reserved": 0, "lon": -77.02973133333333}, {"fusion_lat": 0.0, "name": "28f161fc8aa1219e1d12ea2db1d82e22", "is_disabled": 0, "rental_uris": {"android": "https://dc.lft.to/lastmile_qr_scan", "ios": "https://dc.lft.to/lastmile_qr_scan"}, "fusion_lon": 0.0, "lat": 38.90539416666667, "bike_id": "28f161fc8aa1219e1d12ea2db1d82e22", "type": "electric_scooter", "is_reserved": 0, "lon": -76.98196883333334}, {"fusion_lat": 0.0, "name": "8702d3ac5b3e9a2cd0f40ad055d85f5f", "is_disabled": 0, "rental_uris": {"android": "https://dc.lft.to/lastmile_qr_scan", "ios": "https://dc.lft.to/lastmile_qr_scan"}, "fusion_lon": 0.0, "lat": 38.88602233333334, "bike_id": "8702d3ac5b3e9a2cd0f40ad055d85f5f", "type": "electric_scooter", "is_reserved": 0, "lon": -77.04513583333333}, {"fusion_lat": 0.0, "name": "e6dcea1a6a75531d061f34e4c284109a", "is_disabled": 0, "rental_uris": {"android": "https://dc.lft.to/lastmile_qr_scan", "ios": "https://dc.lft.to/lastmile_qr_scan"}, "fusion_lon": 0.0, "lat": 38.9254835, "bike_id": "e6dcea1a6a75531d061f34e4c284109a", "type": "electric_scooter", "is_reserved": 0, "lon": -77.04304916666666}, {"fusion_lat": 0.0, "name": "4a60430ac09693315c537d4ad69f483a", "is_disabled": 0, "rental_uris": {"android": "https://dc.lft.to/lastmile_qr_scan", "ios": "https://dc.lft.to/lastmile_qr_scan"}, "fusion_lon": 0.0, "lat": 38.9537525, "bike_id": "4a60430ac09693315c537d4ad69f483a", "type": "electric_bike", "is_reserved": 0, "lon": -76.97961933333333}, {"fusion_lat": 0.0, "name": "5272e4a4e925eaa9d8a9ceea0091cbdc", "is_disabled": 0, "rental_uris": {"android": "https://dc.lft.to/lastmile_qr_scan", "ios": "https://dc.lft.to/lastmile_qr_scan"}, "fusion_lon": 0.0, "lat": 38.92015883333333, "bike_id": "5272e4a4e925eaa9d8a9ceea0091cbdc", "type": "electric_scooter", "is_reserved": 0, "lon": -77.07138433333333}, {"fusion_lat": 0.0, "name": "8b86c6d950303fc7b425aa6a763791d7", "is_disabled": 0, "rental_uris": {"android": "https://dc.lft.to/lastmile_qr_scan", "ios": "https://dc.lft.to/lastmile_qr_scan"}, "fusion_lon": 0.0, "lat": 38.926243166666666, "bike_id": "8b86c6d950303fc7b425aa6a763791d7", "type": "electric_scooter", "is_reserved": 0, "lon": -77.04318783333333}, {"fusion_lat": 0.0, "name": "a56189cd576c3faac6367b47f7eb6bc5", "is_disabled": 0, "rental_uris": {"android": "https://dc.lft.to/lastmile_qr_scan", "ios": "https://dc.lft.to/lastmile_qr_scan"}, "fusion_lon": 0.0, "lat": 38.91329916666667, "bike_id": "a56189cd576c3faac6367b47f7eb6bc5", "type": "electric_scooter", "is_reserved": 0, "lon": -77.0478045}, {"fusion_lat": 0.0, "name": "04d8fe056a6fa35cf186c2cffa09d391", "is_disabled": 0, "rental_uris": {"android": "https://dc.lft.to/lastmile_qr_scan", "ios": "https://dc.lft.to/lastmile_qr_scan"}, "fusion_lon": 0.0, "lat": 38.93124183333333, "bike_id": "04d8fe056a6fa35cf186c2cffa09d391", "type": "electric_scooter", "is_reserved": 0, "lon": -77.020951}, {"fusion_lat": 0.0, "name": "c0b901ed27e3a5e46722a5ca34a06a9c", "is_disabled": 0, "rental_uris": {"android": "https://dc.lft.to/lastmile_qr_scan", "ios": "https://dc.lft.to/lastmile_qr_scan"}, "fusion_lon": 0.0, "lat": 38.900248, "bike_id": "c0b901ed27e3a5e46722a5ca34a06a9c", "type": "electric_scooter", "is_reserved": 0, "lon": -77.00035966666667}, {"fusion_lat": 0.0, "name": "a7830ffcb5e0fac99bf0bed711200ea8", "is_disabled": 0, "rental_uris": {"android": "https://dc.lft.to/lastmile_qr_scan", "ios": "https://dc.lft.to/lastmile_qr_scan"}, "fusion_lon": 0.0, "lat": 38.9269625, "bike_id": "a7830ffcb5e0fac99bf0bed711200ea8", "type": "electric_scooter", "is_reserved": 0, "lon": -77.02087166666666}, {"fusion_lat": 0.0, "name": "8ee0b56088949a57ffbcaf64081bb40d", "is_disabled": 0, "rental_uris": {"android": "https://dc.lft.to/lastmile_qr_scan", "ios": "https://dc.lft.to/lastmile_qr_scan"}, "fusion_lon": 0.0, "lat": 38.9240605, "bike_id": "8ee0b56088949a57ffbcaf64081bb40d", "type": "electric_scooter", "is_reserved": 0, "lon": -77.02579333333334}, {"fusion_lat": 0.0, "name": "b2985a8ff950d682ae299a3336d24e06", "is_disabled": 0, "rental_uris": {"android": "https://dc.lft.to/lastmile_qr_scan", "ios": "https://dc.lft.to/lastmile_qr_scan"}, "fusion_lon": 0.0, "lat": 38.895246, "bike_id": "b2985a8ff950d682ae299a3336d24e06", "type": "electric_scooter", "is_reserved": 0, "lon": -76.9341355}, {"fusion_lat": 0.0, "name": "6c0a6544851ed4e42fbbff67e8117871", "is_disabled": 0, "rental_uris": {"android": "https://dc.lft.to/lastmile_qr_scan", "ios": "https://dc.lft.to/lastmile_qr_scan"}, "fusion_lon": 0.0, "lat": 38.87896683333334, "bike_id": "6c0a6544851ed4e42fbbff67e8117871", "type": "electric_scooter", "is_reserved": 0, "lon": -77.01368766666667}, {"fusion_lat": 0.0, "name": "e4eaa762020b9b2b7eff7eb8d7c1c06d", "is_disabled": 0, "rental_uris": {"android": "https://dc.lft.to/lastmile_qr_scan", "ios": "https://dc.lft.to/lastmile_qr_scan"}, "fusion_lon": 0.0, "lat": 38.89286383333334, "bike_id": "e4eaa762020b9b2b7eff7eb8d7c1c06d", "type": "electric_scooter", "is_reserved": 0, "lon": -77.0259505}, {"fusion_lat": 0.0, "name": "80f76237e4abba66bc296ecb73e8c0e3", "is_disabled": 0, "rental_uris": {"android": "https://dc.lft.to/lastmile_qr_scan", "ios": "https://dc.lft.to/lastmile_qr_scan"}, "fusion_lon": 0.0, "lat": 38.91255066666667, "bike_id": "80f76237e4abba66bc296ecb73e8c0e3", "type": "electric_scooter", "is_reserved": 0, "lon": -77.0246805}, {"fusion_lat": 0.0, "name": "7afb97eb2d493762e348233fc75cef0e", "is_disabled": 0, "rental_uris": {"android": "https://dc.lft.to/lastmile_qr_scan", "ios": "https://dc.lft.to/lastmile_qr_scan"}, "fusion_lon": 0.0, "lat": 38.892309, "bike_id": "7afb97eb2d493762e348233fc75cef0e", "type": "electric_scooter", "is_reserved": 0, "lon": -77.050037}, {"fusion_lat": 0.0, "name": "44e99dcc1a6a964710788c27bbfc8c23", "is_disabled": 0, "rental_uris": {"android": "https://dc.lft.to/lastmile_qr_scan", "ios": "https://dc.lft.to/lastmile_qr_scan"}, "fusion_lon": 0.0, "lat": 38.901054, "bike_id": "44e99dcc1a6a964710788c27bbfc8c23", "type": "electric_scooter", "is_reserved": 0, "lon": -77.05909283333334}, {"fusion_lat": 0.0, "name": "cfe5c2465b185cc9bb504a7e0b0aee0b", "is_disabled": 0, "rental_uris": {"android": "https://dc.lft.to/lastmile_qr_scan", "ios": "https://dc.lft.to/lastmile_qr_scan"}, "fusion_lon": 0.0, "lat": 38.897808833333336, "bike_id": "cfe5c2465b185cc9bb504a7e0b0aee0b", "type": "electric_scooter", "is_reserved": 0, "lon": -77.04500766666666}, {"fusion_lat": 0.0, "name": "2e968d9c3f6de5377456d253f17061f8", "is_disabled": 0, "rental_uris": {"android": "https://dc.lft.to/lastmile_qr_scan", "ios": "https://dc.lft.to/lastmile_qr_scan"}, "fusion_lon": 0.0, "lat": 38.904092, "bike_id": "2e968d9c3f6de5377456d253f17061f8", "type": "electric_scooter", "is_reserved": 0, "lon": -76.9732675}, {"fusion_lat": 0.0, "name": "f5cc152137bc2869b42bc52dc017bdb1", "is_disabled": 0, "rental_uris": {"android": "https://dc.lft.to/lastmile_qr_scan", "ios": "https://dc.lft.to/lastmile_qr_scan"}, "fusion_lon": 0.0, "lat": 38.935775666666665, "bike_id": "f5cc152137bc2869b42bc52dc017bdb1", "type": "electric_scooter", "is_reserved": 0, "lon": -77.019363}, {"fusion_lat": 0.0, "name": "8125def505e1ad8590bbcf366f37b716", "is_disabled": 0, "rental_uris": {"android": "https://dc.lft.to/lastmile_qr_scan", "ios": "https://dc.lft.to/lastmile_qr_scan"}, "fusion_lon": 0.0, "lat": 38.86213333333333, "bike_id": "8125def505e1ad8590bbcf366f37b716", "type": "electric_bike", "is_reserved": 0, "lon": -76.99549366666666}, {"fusion_lat": 0.0, "name": "2c4c4dca11d075f920ccbc0f50947f56", "is_disabled": 0, "rental_uris": {"android": "https://dc.lft.to/lastmile_qr_scan", "ios": "https://dc.lft.to/lastmile_qr_scan"}, "fusion_lon": 0.0, "lat": 38.922534, "bike_id": "2c4c4dca11d075f920ccbc0f50947f56", "type": "electric_scooter", "is_reserved": 0, "lon": -77.03387916666667}, {"fusion_lat": 0.0, "name": "53109b8d02dbfabe37dc33e3a91c439e", "is_disabled": 0, "rental_uris": {"android": "https://dc.lft.to/lastmile_qr_scan", "ios": "https://dc.lft.to/lastmile_qr_scan"}, "fusion_lon": 0.0, "lat": 38.9144615, "bike_id": "53109b8d02dbfabe37dc33e3a91c439e", "type": "electric_scooter", "is_reserved": 0, "lon": -77.03842216666666}, {"fusion_lat": 0.0, "name": "6510000e86cfa589a8410f2e25f7e6c0", "is_disabled": 0, "rental_uris": {"android": "https://dc.lft.to/lastmile_qr_scan", "ios": "https://dc.lft.to/lastmile_qr_scan"}, "fusion_lon": 0.0, "lat": 38.8713615, "bike_id": "6510000e86cfa589a8410f2e25f7e6c0", "type": "electric_scooter", "is_reserved": 0, "lon": -77.01229516666666}, {"fusion_lat": 0.0, "name": "86f6128bb2b4f167da690fabb9e135d6", "is_disabled": 0, "rental_uris": {"android": "https://dc.lft.to/lastmile_qr_scan", "ios": "https://dc.lft.to/lastmile_qr_scan"}, "fusion_lon": 0.0, "lat": 38.888241, "bike_id": "86f6128bb2b4f167da690fabb9e135d6", "type": "electric_scooter", "is_reserved": 0, "lon": -76.98658866666666}, {"fusion_lat": 0.0, "name": "371c108ccb5e39de9847c973dfdd4183", "is_disabled": 0, "rental_uris": {"android": "https://dc.lft.to/lastmile_qr_scan", "ios": "https://dc.lft.to/lastmile_qr_scan"}, "fusion_lon": 0.0, "lat": 38.90946866666667, "bike_id": "371c108ccb5e39de9847c973dfdd4183", "type": "electric_scooter", "is_reserved": 0, "lon": -77.038526}, {"fusion_lat": 0.0, "name": "44f2c5a462b68b158136c9c094670183", "is_disabled": 0, "rental_uris": {"android": "https://dc.lft.to/lastmile_qr_scan", "ios": "https://dc.lft.to/lastmile_qr_scan"}, "fusion_lon": 0.0, "lat": 38.904348666666664, "bike_id": "44f2c5a462b68b158136c9c094670183", "type": "electric_scooter", "is_reserved": 0, "lon": -76.982844}, {"fusion_lat": 0.0, "name": "a734d259cc9b433476ec407e9212ae72", "is_disabled": 0, "rental_uris": {"android": "https://dc.lft.to/lastmile_qr_scan", "ios": "https://dc.lft.to/lastmile_qr_scan"}, "fusion_lon": 0.0, "lat": 38.925601, "bike_id": "a734d259cc9b433476ec407e9212ae72", "type": "electric_scooter", "is_reserved": 0, "lon": -77.04369783333334}, {"fusion_lat": 0.0, "name": "10ede23d682df45a8cbc2ea0ef59e6fa", "is_disabled": 0, "rental_uris": {"android": "https://dc.lft.to/lastmile_qr_scan", "ios": "https://dc.lft.to/lastmile_qr_scan"}, "fusion_lon": 0.0, "lat": 38.9182755, "bike_id": "10ede23d682df45a8cbc2ea0ef59e6fa", "type": "electric_scooter", "is_reserved": 0, "lon": -77.03679183333334}, {"fusion_lat": 0.0, "name": "e5ac2a0a7d8ce9c5e2ca868e3bd4860c", "is_disabled": 0, "rental_uris": {"android": "https://dc.lft.to/lastmile_qr_scan", "ios": "https://dc.lft.to/lastmile_qr_scan"}, "fusion_lon": 0.0, "lat": 38.90794566666667, "bike_id": "e5ac2a0a7d8ce9c5e2ca868e3bd4860c", "type": "electric_scooter", "is_reserved": 0, "lon": -76.99427616666667}, {"fusion_lat": 0.0, "name": "704748f3521c69ce1f89b3e2f18a2958", "is_disabled": 0, "rental_uris": {"android": "https://dc.lft.to/lastmile_qr_scan", "ios": "https://dc.lft.to/lastmile_qr_scan"}, "fusion_lon": 0.0, "lat": 38.91124833333333, "bike_id": "704748f3521c69ce1f89b3e2f18a2958", "type": "electric_scooter", "is_reserved": 0, "lon": -76.99726183333334}, {"fusion_lat": 0.0, "name": "93ed91d586ebe92b22903d30e25d6252", "is_disabled": 0, "rental_uris": {"android": "https://dc.lft.to/lastmile_qr_scan", "ios": "https://dc.lft.to/lastmile_qr_scan"}, "fusion_lon": 0.0, "lat": 38.91976366666667, "bike_id": "93ed91d586ebe92b22903d30e25d6252", "type": "electric_scooter", "is_reserved": 0, "lon": -77.0442775}, {"fusion_lat": 0.0, "name": "a6b503cc138f1cfffe24e99161cef03e", "is_disabled": 0, "rental_uris": {"android": "https://dc.lft.to/lastmile_qr_scan", "ios": "https://dc.lft.to/lastmile_qr_scan"}, "fusion_lon": 0.0, "lat": 38.922538833333334, "bike_id": "a6b503cc138f1cfffe24e99161cef03e", "type": "electric_scooter", "is_reserved": 0, "lon": -77.07454}, {"fusion_lat": 0.0, "name": "218fba3e40b05e7b14790cd1f54432ab", "is_disabled": 0, "rental_uris": {"android": "https://dc.lft.to/lastmile_qr_scan", "ios": "https://dc.lft.to/lastmile_qr_scan"}, "fusion_lon": 0.0, "lat": 38.884675333333334, "bike_id": "218fba3e40b05e7b14790cd1f54432ab", "type": "electric_scooter", "is_reserved": 0, "lon": -77.0209175}, {"fusion_lat": 0.0, "name": "55e369886ab2220566048b46eabc2bc6", "is_disabled": 0, "rental_uris": {"android": "https://dc.lft.to/lastmile_qr_scan", "ios": "https://dc.lft.to/lastmile_qr_scan"}, "fusion_lon": 0.0, "lat": 38.8740015, "bike_id": "55e369886ab2220566048b46eabc2bc6", "type": "electric_scooter", "is_reserved": 0, "lon": -76.97477383333333}, {"fusion_lat": 0.0, "name": "a5fc6a8ea7eb349695c15c714521d8dc", "is_disabled": 0, "rental_uris": {"android": "https://dc.lft.to/lastmile_qr_scan", "ios": "https://dc.lft.to/lastmile_qr_scan"}, "fusion_lon": 0.0, "lat": 38.89971233333333, "bike_id": "a5fc6a8ea7eb349695c15c714521d8dc", "type": "electric_scooter", "is_reserved": 0, "lon": -77.01951483333333}, {"fusion_lat": 0.0, "name": "66b8d27f069847a3c0dee5583305548d", "is_disabled": 0, "rental_uris": {"android": "https://dc.lft.to/lastmile_qr_scan", "ios": "https://dc.lft.to/lastmile_qr_scan"}, "fusion_lon": 0.0, "lat": 38.8989365, "bike_id": "66b8d27f069847a3c0dee5583305548d", "type": "electric_scooter", "is_reserved": 0, "lon": -76.98068}, {"fusion_lat": 0.0, "name": "e6993aa0b10b298b6b3126211fbd40a5", "is_disabled": 0, "rental_uris": {"android": "https://dc.lft.to/lastmile_qr_scan", "ios": "https://dc.lft.to/lastmile_qr_scan"}, "fusion_lon": 0.0, "lat": 38.909598333333335, "bike_id": "e6993aa0b10b298b6b3126211fbd40a5", "type": "electric_scooter", "is_reserved": 0, "lon": -77.039338}, {"fusion_lat": 0.0, "name": "0461595af926bf17853082e8fad283dc", "is_disabled": 0, "rental_uris": {"android": "https://dc.lft.to/lastmile_qr_scan", "ios": "https://dc.lft.to/lastmile_qr_scan"}, "fusion_lon": 0.0, "lat": 39.070521666666664, "bike_id": "0461595af926bf17853082e8fad283dc", "type": "electric_bike", "is_reserved": 0, "lon": -77.11488483333333}, {"fusion_lat": 0.0, "name": "431cfeab563e5bd1595ee29a59b9e12f", "is_disabled": 0, "rental_uris": {"android": "https://dc.lft.to/lastmile_qr_scan", "ios": "https://dc.lft.to/lastmile_qr_scan"}, "fusion_lon": 0.0, "lat": 38.9039995, "bike_id": "431cfeab563e5bd1595ee29a59b9e12f", "type": "electric_scooter", "is_reserved": 0, "lon": -77.048572}, {"fusion_lat": 0.0, "name": "088d11ad60520d4a2517d108f12f18ff", "is_disabled": 0, "rental_uris": {"android": "https://dc.lft.to/lastmile_qr_scan", "ios": "https://dc.lft.to/lastmile_qr_scan"}, "fusion_lon": 0.0, "lat": 38.909502833333335, "bike_id": "088d11ad60520d4a2517d108f12f18ff", "type": "electric_scooter", "is_reserved": 0, "lon": -77.03857983333333}, {"fusion_lat": 0.0, "name": "d13427c8411b98e6532d5829c605c5fb", "is_disabled": 0, "rental_uris": {"android": "https://dc.lft.to/lastmile_qr_scan", "ios": "https://dc.lft.to/lastmile_qr_scan"}, "fusion_lon": 0.0, "lat": 38.869871333333336, "bike_id": "d13427c8411b98e6532d5829c605c5fb", "type": "electric_scooter", "is_reserved": 0, "lon": -77.01371516666667}, {"fusion_lat": 0.0, "name": "c3b13dd90a9404b763702b14162e7b77", "is_disabled": 0, "rental_uris": {"android": "https://dc.lft.to/lastmile_qr_scan", "ios": "https://dc.lft.to/lastmile_qr_scan"}, "fusion_lon": 0.0, "lat": 38.90024433333333, "bike_id": "c3b13dd90a9404b763702b14162e7b77", "type": "electric_scooter", "is_reserved": 0, "lon": -76.98943583333333}, {"fusion_lat": 0.0, "name": "a643b78d37539f6cbc62844d219b7a70", "is_disabled": 0, "rental_uris": {"android": "https://dc.lft.to/lastmile_qr_scan", "ios": "https://dc.lft.to/lastmile_qr_scan"}, "fusion_lon": 0.0, "lat": 38.901874166666666, "bike_id": "a643b78d37539f6cbc62844d219b7a70", "type": "electric_scooter", "is_reserved": 0, "lon": -76.98709216666667}, {"fusion_lat": 0.0, "name": "0d7accd45dae74c03343b66bc11466fa", "is_disabled": 0, "rental_uris": {"android": "https://dc.lft.to/lastmile_qr_scan", "ios": "https://dc.lft.to/lastmile_qr_scan"}, "fusion_lon": 0.0, "lat": 38.9039645, "bike_id": "0d7accd45dae74c03343b66bc11466fa", "type": "electric_scooter", "is_reserved": 0, "lon": -77.0182885}, {"fusion_lat": 0.0, "name": "8d05e1aa7dd9b5a416d6a7ecb7f0923e", "is_disabled": 0, "rental_uris": {"android": "https://dc.lft.to/lastmile_qr_scan", "ios": "https://dc.lft.to/lastmile_qr_scan"}, "fusion_lon": 0.0, "lat": 38.9500445, "bike_id": "8d05e1aa7dd9b5a416d6a7ecb7f0923e", "type": "electric_scooter", "is_reserved": 0, "lon": -77.01948416666667}, {"fusion_lat": 0.0, "name": "c584b3f04ae9bbc8d23313ac822793b7", "is_disabled": 0, "rental_uris": {"android": "https://dc.lft.to/lastmile_qr_scan", "ios": "https://dc.lft.to/lastmile_qr_scan"}, "fusion_lon": 0.0, "lat": 38.91847883333333, "bike_id": "c584b3f04ae9bbc8d23313ac822793b7", "type": "electric_scooter", "is_reserved": 0, "lon": -76.96538133333334}, {"fusion_lat": 0.0, "name": "b79eeb0ff5ae894cfb5770aa57bb7fbc", "is_disabled": 0, "rental_uris": {"android": "https://dc.lft.to/lastmile_qr_scan", "ios": "https://dc.lft.to/lastmile_qr_scan"}, "fusion_lon": 0.0, "lat": 38.91815883333334, "bike_id": "b79eeb0ff5ae894cfb5770aa57bb7fbc", "type": "electric_scooter", "is_reserved": 0, "lon": -77.03682266666667}, {"fusion_lat": 0.0, "name": "6a0bf88dbc1c9f5f0fec8b903d7f7af2", "is_disabled": 0, "rental_uris": {"android": "https://dc.lft.to/lastmile_qr_scan", "ios": "https://dc.lft.to/lastmile_qr_scan"}, "fusion_lon": 0.0, "lat": 38.98474066666667, "bike_id": "6a0bf88dbc1c9f5f0fec8b903d7f7af2", "type": "electric_scooter", "is_reserved": 0, "lon": -77.026469}, {"fusion_lat": 0.0, "name": "822a70a228a1b2a6ce701577f93c07e7", "is_disabled": 0, "rental_uris": {"android": "https://dc.lft.to/lastmile_qr_scan", "ios": "https://dc.lft.to/lastmile_qr_scan"}, "fusion_lon": 0.0, "lat": 38.91413283333333, "bike_id": "822a70a228a1b2a6ce701577f93c07e7", "type": "electric_scooter", "is_reserved": 0, "lon": -77.031843}, {"fusion_lat": 0.0, "name": "dc905019b91ea34d85ccb2c143ffc940", "is_disabled": 0, "rental_uris": {"android": "https://dc.lft.to/lastmile_qr_scan", "ios": "https://dc.lft.to/lastmile_qr_scan"}, "fusion_lon": 0.0, "lat": 38.91472533333334, "bike_id": "dc905019b91ea34d85ccb2c143ffc940", "type": "electric_scooter", "is_reserved": 0, "lon": -76.98389216666666}, {"fusion_lat": 0.0, "name": "a35cdc012a5776a719c7562b45e84264", "is_disabled": 0, "rental_uris": {"android": "https://dc.lft.to/lastmile_qr_scan", "ios": "https://dc.lft.to/lastmile_qr_scan"}, "fusion_lon": 0.0, "lat": 38.9217405, "bike_id": "a35cdc012a5776a719c7562b45e84264", "type": "electric_scooter", "is_reserved": 0, "lon": -77.0401965}, {"fusion_lat": 0.0, "name": "926149030fb10313725459fe2fc95a52", "is_disabled": 0, "rental_uris": {"android": "https://dc.lft.to/lastmile_qr_scan", "ios": "https://dc.lft.to/lastmile_qr_scan"}, "fusion_lon": 0.0, "lat": 38.918448833333336, "bike_id": "926149030fb10313725459fe2fc95a52", "type": "electric_scooter", "is_reserved": 0, "lon": -77.04099616666667}, {"fusion_lat": 0.0, "name": "d24e594d7c50e585032bfb83e3acf56e", "is_disabled": 0, "rental_uris": {"android": "https://dc.lft.to/lastmile_qr_scan", "ios": "https://dc.lft.to/lastmile_qr_scan"}, "fusion_lon": 0.0, "lat": 38.91352933333334, "bike_id": "d24e594d7c50e585032bfb83e3acf56e", "type": "electric_scooter", "is_reserved": 0, "lon": -77.033318}, {"fusion_lat": 0.0, "name": "68c91b14af262685f755173641ca531a", "is_disabled": 0, "rental_uris": {"android": "https://dc.lft.to/lastmile_qr_scan", "ios": "https://dc.lft.to/lastmile_qr_scan"}, "fusion_lon": 0.0, "lat": 38.9336845, "bike_id": "68c91b14af262685f755173641ca531a", "type": "electric_scooter", "is_reserved": 0, "lon": -77.04205633333333}, {"fusion_lat": 0.0, "name": "ddaca3da2cf6438e0ce5444311c486d9", "is_disabled": 0, "rental_uris": {"android": "https://dc.lft.to/lastmile_qr_scan", "ios": "https://dc.lft.to/lastmile_qr_scan"}, "fusion_lon": 0.0, "lat": 38.90235283333333, "bike_id": "ddaca3da2cf6438e0ce5444311c486d9", "type": "electric_scooter", "is_reserved": 0, "lon": -77.01929716666666}, {"fusion_lat": 0.0, "name": "fde7d99f9b4c3c8f726c437fa571cf54", "is_disabled": 0, "rental_uris": {"android": "https://dc.lft.to/lastmile_qr_scan", "ios": "https://dc.lft.to/lastmile_qr_scan"}, "fusion_lon": 0.0, "lat": 38.949155833333336, "bike_id": "fde7d99f9b4c3c8f726c437fa571cf54", "type": "electric_scooter", "is_reserved": 0, "lon": -77.01848866666667}, {"fusion_lat": 0.0, "name": "463bc5cd5ee88f5a9d25ae2631a4038f", "is_disabled": 0, "rental_uris": {"android": "https://dc.lft.to/lastmile_qr_scan", "ios": "https://dc.lft.to/lastmile_qr_scan"}, "fusion_lon": 0.0, "lat": 38.930549166666665, "bike_id": "463bc5cd5ee88f5a9d25ae2631a4038f", "type": "electric_scooter", "is_reserved": 0, "lon": -77.033608}, {"fusion_lat": 0.0, "name": "8d3a3d4a76f06d25f0b4b7dedbe003ac", "is_disabled": 0, "rental_uris": {"android": "https://dc.lft.to/lastmile_qr_scan", "ios": "https://dc.lft.to/lastmile_qr_scan"}, "fusion_lon": 0.0, "lat": 38.881278333333334, "bike_id": "8d3a3d4a76f06d25f0b4b7dedbe003ac", "type": "electric_scooter", "is_reserved": 0, "lon": -76.99512833333333}, {"fusion_lat": 0.0, "name": "ba6fee2947f1a0790ba4a9dc67816bec", "is_disabled": 0, "rental_uris": {"android": "https://dc.lft.to/lastmile_qr_scan", "ios": "https://dc.lft.to/lastmile_qr_scan"}, "fusion_lon": 0.0, "lat": 38.8968975, "bike_id": "ba6fee2947f1a0790ba4a9dc67816bec", "type": "electric_scooter", "is_reserved": 0, "lon": -77.00492616666666}, {"fusion_lat": 0.0, "name": "d798d903a7bbdb5d3bf5a1064c9bb6c4", "is_disabled": 0, "rental_uris": {"android": "https://dc.lft.to/lastmile_qr_scan", "ios": "https://dc.lft.to/lastmile_qr_scan"}, "fusion_lon": 0.0, "lat": 38.91626016666667, "bike_id": "d798d903a7bbdb5d3bf5a1064c9bb6c4", "type": "electric_scooter", "is_reserved": 0, "lon": -77.0385285}, {"fusion_lat": 0.0, "name": "c365feda2e0cb8a9a8641afd621d0c82", "is_disabled": 0, "rental_uris": {"android": "https://dc.lft.to/lastmile_qr_scan", "ios": "https://dc.lft.to/lastmile_qr_scan"}, "fusion_lon": 0.0, "lat": 38.91833166666667, "bike_id": "c365feda2e0cb8a9a8641afd621d0c82", "type": "electric_scooter", "is_reserved": 0, "lon": -77.04015983333333}, {"fusion_lat": 0.0, "name": "457fd2673119e44f63195982ea291e4a", "is_disabled": 0, "rental_uris": {"android": "https://dc.lft.to/lastmile_qr_scan", "ios": "https://dc.lft.to/lastmile_qr_scan"}, "fusion_lon": 0.0, "lat": 38.94524, "bike_id": "457fd2673119e44f63195982ea291e4a", "type": "electric_scooter", "is_reserved": 0, "lon": -77.02273416666667}, {"fusion_lat": 0.0, "name": "91f823748cee73e9faf2ee5dd5abef5f", "is_disabled": 0, "rental_uris": {"android": "https://dc.lft.to/lastmile_qr_scan", "ios": "https://dc.lft.to/lastmile_qr_scan"}, "fusion_lon": 0.0, "lat": 38.917807333333336, "bike_id": "91f823748cee73e9faf2ee5dd5abef5f", "type": "electric_scooter", "is_reserved": 0, "lon": -77.04097633333333}, {"fusion_lat": 0.0, "name": "05f90c634e51a72c71af9674f0bb1133", "is_disabled": 0, "rental_uris": {"android": "https://dc.lft.to/lastmile_qr_scan", "ios": "https://dc.lft.to/lastmile_qr_scan"}, "fusion_lon": 0.0, "lat": 38.93359066666667, "bike_id": "05f90c634e51a72c71af9674f0bb1133", "type": "electric_scooter", "is_reserved": 0, "lon": -77.07314933333333}, {"fusion_lat": 0.0, "name": "8f97cf559aa0d3b18ab70d32403b1220", "is_disabled": 0, "rental_uris": {"android": "https://dc.lft.to/lastmile_qr_scan", "ios": "https://dc.lft.to/lastmile_qr_scan"}, "fusion_lon": 0.0, "lat": 38.944982333333336, "bike_id": "8f97cf559aa0d3b18ab70d32403b1220", "type": "electric_scooter", "is_reserved": 0, "lon": -77.03879583333334}, {"fusion_lat": 0.0, "name": "a336020440ed55da9d84d882e32eeffb", "is_disabled": 0, "rental_uris": {"android": "https://dc.lft.to/lastmile_qr_scan", "ios": "https://dc.lft.to/lastmile_qr_scan"}, "fusion_lon": 0.0, "lat": 38.890135666666666, "bike_id": "a336020440ed55da9d84d882e32eeffb", "type": "electric_scooter", "is_reserved": 0, "lon": -76.93738466666667}, {"fusion_lat": 0.0, "name": "1631326a540bf0b83e81ccf4b3abdfe5", "is_disabled": 0, "rental_uris": {"android": "https://dc.lft.to/lastmile_qr_scan", "ios": "https://dc.lft.to/lastmile_qr_scan"}, "fusion_lon": 0.0, "lat": 38.8957715, "bike_id": "1631326a540bf0b83e81ccf4b3abdfe5", "type": "electric_scooter", "is_reserved": 0, "lon": -76.9488875}, {"fusion_lat": 0.0, "name": "d5e3b1167ff8cf3bb6979d5eaa291fd1", "is_disabled": 0, "rental_uris": {"android": "https://dc.lft.to/lastmile_qr_scan", "ios": "https://dc.lft.to/lastmile_qr_scan"}, "fusion_lon": 0.0, "lat": 38.957373, "bike_id": "d5e3b1167ff8cf3bb6979d5eaa291fd1", "type": "electric_bike", "is_reserved": 0, "lon": -76.9808485}, {"fusion_lat": 0.0, "name": "5db403b11606bda98cc9d53acfc31728", "is_disabled": 0, "rental_uris": {"android": "https://dc.lft.to/lastmile_qr_scan", "ios": "https://dc.lft.to/lastmile_qr_scan"}, "fusion_lon": 0.0, "lat": 38.9507105, "bike_id": "5db403b11606bda98cc9d53acfc31728", "type": "electric_bike", "is_reserved": 0, "lon": -77.01188116666667}, {"fusion_lat": 0.0, "name": "e9b3f6df042b0bfaaa8a6f90b6c0d585", "is_disabled": 0, "rental_uris": {"android": "https://dc.lft.to/lastmile_qr_scan", "ios": "https://dc.lft.to/lastmile_qr_scan"}, "fusion_lon": 0.0, "lat": 38.922026333333335, "bike_id": "e9b3f6df042b0bfaaa8a6f90b6c0d585", "type": "electric_scooter", "is_reserved": 0, "lon": -77.08079216666667}, {"fusion_lat": 0.0, "name": "d43e6b27ca55cfff3ddffc8bc7a06c58", "is_disabled": 0, "rental_uris": {"android": "https://dc.lft.to/lastmile_qr_scan", "ios": "https://dc.lft.to/lastmile_qr_scan"}, "fusion_lon": 0.0, "lat": 38.90480483333333, "bike_id": "d43e6b27ca55cfff3ddffc8bc7a06c58", "type": "electric_scooter", "is_reserved": 0, "lon": -77.04677133333334}, {"fusion_lat": 0.0, "name": "f37a99c17c51558a8bbf03028a1d98d4", "is_disabled": 0, "rental_uris": {"android": "https://dc.lft.to/lastmile_qr_scan", "ios": "https://dc.lft.to/lastmile_qr_scan"}, "fusion_lon": 0.0, "lat": 38.93083083333333, "bike_id": "f37a99c17c51558a8bbf03028a1d98d4", "type": "electric_scooter", "is_reserved": 0, "lon": -77.02550716666667}, {"fusion_lat": 0.0, "name": "799ced7086d635756d80f946e97b556f", "is_disabled": 0, "rental_uris": {"android": "https://dc.lft.to/lastmile_qr_scan", "ios": "https://dc.lft.to/lastmile_qr_scan"}, "fusion_lon": 0.0, "lat": 38.92541683333334, "bike_id": "799ced7086d635756d80f946e97b556f", "type": "electric_scooter", "is_reserved": 0, "lon": -77.0405265}, {"fusion_lat": 0.0, "name": "8fabe19a56739a4692da95deb92ae1cf", "is_disabled": 0, "rental_uris": {"android": "https://dc.lft.to/lastmile_qr_scan", "ios": "https://dc.lft.to/lastmile_qr_scan"}, "fusion_lon": 0.0, "lat": 38.914471666666664, "bike_id": "8fabe19a56739a4692da95deb92ae1cf", "type": "electric_scooter", "is_reserved": 0, "lon": -77.0449265}, {"fusion_lat": 0.0, "name": "61911cd112aa079dc94e67b4b584b5a5", "is_disabled": 0, "rental_uris": {"android": "https://dc.lft.to/lastmile_qr_scan", "ios": "https://dc.lft.to/lastmile_qr_scan"}, "fusion_lon": 0.0, "lat": 38.88987316666667, "bike_id": "61911cd112aa079dc94e67b4b584b5a5", "type": "electric_scooter", "is_reserved": 0, "lon": -76.91421733333334}, {"fusion_lat": 0.0, "name": "28fedaec57f76eec22e04429821e9baf", "is_disabled": 0, "rental_uris": {"android": "https://dc.lft.to/lastmile_qr_scan", "ios": "https://dc.lft.to/lastmile_qr_scan"}, "fusion_lon": 0.0, "lat": 38.923403, "bike_id": "28fedaec57f76eec22e04429821e9baf", "type": "electric_scooter", "is_reserved": 0, "lon": -77.0416655}, {"fusion_lat": 0.0, "name": "dca61d51c3224cd0fa0484e4955b4957", "is_disabled": 0, "rental_uris": {"android": "https://dc.lft.to/lastmile_qr_scan", "ios": "https://dc.lft.to/lastmile_qr_scan"}, "fusion_lon": 0.0, "lat": 38.914452, "bike_id": "dca61d51c3224cd0fa0484e4955b4957", "type": "electric_scooter", "is_reserved": 0, "lon": -77.04149766666667}, {"fusion_lat": 0.0, "name": "7715db26e5201e2f973637f89f853a65", "is_disabled": 0, "rental_uris": {"android": "https://dc.lft.to/lastmile_qr_scan", "ios": "https://dc.lft.to/lastmile_qr_scan"}, "fusion_lon": 0.0, "lat": 38.906101166666666, "bike_id": "7715db26e5201e2f973637f89f853a65", "type": "electric_scooter", "is_reserved": 0, "lon": -77.04129566666667}, {"fusion_lat": 0.0, "name": "38d6b93593062d62f25e6eafc0f9fb2a", "is_disabled": 0, "rental_uris": {"android": "https://dc.lft.to/lastmile_qr_scan", "ios": "https://dc.lft.to/lastmile_qr_scan"}, "fusion_lon": 0.0, "lat": 38.9595065, "bike_id": "38d6b93593062d62f25e6eafc0f9fb2a", "type": "electric_scooter", "is_reserved": 0, "lon": -77.00894416666667}, {"fusion_lat": 0.0, "name": "c6c01d68e8239fe40b8fd160f2bc57f1", "is_disabled": 0, "rental_uris": {"android": "https://dc.lft.to/lastmile_qr_scan", "ios": "https://dc.lft.to/lastmile_qr_scan"}, "fusion_lon": 0.0, "lat": 38.89228966666667, "bike_id": "c6c01d68e8239fe40b8fd160f2bc57f1", "type": "electric_scooter", "is_reserved": 0, "lon": -77.05004916666667}, {"fusion_lat": 0.0, "name": "bf7bec3dd85eaa1b8286772e1e6e908b", "is_disabled": 0, "rental_uris": {"android": "https://dc.lft.to/lastmile_qr_scan", "ios": "https://dc.lft.to/lastmile_qr_scan"}, "fusion_lon": 0.0, "lat": 38.9131245, "bike_id": "bf7bec3dd85eaa1b8286772e1e6e908b", "type": "electric_scooter", "is_reserved": 0, "lon": -77.045567}, {"fusion_lat": 0.0, "name": "e087b378ebfd913fae8f1f16da49b267", "is_disabled": 0, "rental_uris": {"android": "https://dc.lft.to/lastmile_qr_scan", "ios": "https://dc.lft.to/lastmile_qr_scan"}, "fusion_lon": 0.0, "lat": 38.956686, "bike_id": "e087b378ebfd913fae8f1f16da49b267", "type": "electric_bike", "is_reserved": 0, "lon": -77.01134916666666}, {"fusion_lat": 0.0, "name": "b6503f5f11f2ac0c93e4c4f9862e9a18", "is_disabled": 0, "rental_uris": {"android": "https://dc.lft.to/lastmile_qr_scan", "ios": "https://dc.lft.to/lastmile_qr_scan"}, "fusion_lon": 0.0, "lat": 38.906666666666666, "bike_id": "b6503f5f11f2ac0c93e4c4f9862e9a18", "type": "electric_scooter", "is_reserved": 0, "lon": -77.00929833333333}, {"fusion_lat": 0.0, "name": "2671efc669f953304299096207ba845d", "is_disabled": 0, "rental_uris": {"android": "https://dc.lft.to/lastmile_qr_scan", "ios": "https://dc.lft.to/lastmile_qr_scan"}, "fusion_lon": 0.0, "lat": 38.87944233333333, "bike_id": "2671efc669f953304299096207ba845d", "type": "electric_scooter", "is_reserved": 0, "lon": -77.00819583333333}, {"fusion_lat": 0.0, "name": "aa256e44af8610675abc36f6325e1aa3", "is_disabled": 0, "rental_uris": {"android": "https://dc.lft.to/lastmile_qr_scan", "ios": "https://dc.lft.to/lastmile_qr_scan"}, "fusion_lon": 0.0, "lat": 38.9201365, "bike_id": "aa256e44af8610675abc36f6325e1aa3", "type": "electric_scooter", "is_reserved": 0, "lon": -77.0175345}, {"fusion_lat": 0.0, "name": "b43ded9dd33a30c46f1fffab9b241468", "is_disabled": 0, "rental_uris": {"android": "https://dc.lft.to/lastmile_qr_scan", "ios": "https://dc.lft.to/lastmile_qr_scan"}, "fusion_lon": 0.0, "lat": 38.9038735, "bike_id": "b43ded9dd33a30c46f1fffab9b241468", "type": "electric_scooter", "is_reserved": 0, "lon": -77.01782783333333}, {"fusion_lat": 0.0, "name": "8e75e04422c10e6c4d0bf74a7eb89ee5", "is_disabled": 0, "rental_uris": {"android": "https://dc.lft.to/lastmile_qr_scan", "ios": "https://dc.lft.to/lastmile_qr_scan"}, "fusion_lon": 0.0, "lat": 38.962356666666665, "bike_id": "8e75e04422c10e6c4d0bf74a7eb89ee5", "type": "electric_bike", "is_reserved": 0, "lon": -76.92800583333333}, {"fusion_lat": 0.0, "name": "50c63012c0b3c2d6b6fe1be2c508c798", "is_disabled": 0, "rental_uris": {"android": "https://dc.lft.to/lastmile_qr_scan", "ios": "https://dc.lft.to/lastmile_qr_scan"}, "fusion_lon": 0.0, "lat": 38.92480483333333, "bike_id": "50c63012c0b3c2d6b6fe1be2c508c798", "type": "electric_scooter", "is_reserved": 0, "lon": -77.02650216666666}, {"fusion_lat": 0.0, "name": "75890ee32dd1d43f97a4f56e869a5939", "is_disabled": 0, "rental_uris": {"android": "https://dc.lft.to/lastmile_qr_scan", "ios": "https://dc.lft.to/lastmile_qr_scan"}, "fusion_lon": 0.0, "lat": 38.907015, "bike_id": "75890ee32dd1d43f97a4f56e869a5939", "type": "electric_scooter", "is_reserved": 0, "lon": -77.04496783333333}, {"fusion_lat": 0.0, "name": "f7c375e53e80115b947ec91b9376cdb7", "is_disabled": 0, "rental_uris": {"android": "https://dc.lft.to/lastmile_qr_scan", "ios": "https://dc.lft.to/lastmile_qr_scan"}, "fusion_lon": 0.0, "lat": 38.906204, "bike_id": "f7c375e53e80115b947ec91b9376cdb7", "type": "electric_scooter", "is_reserved": 0, "lon": -77.02690083333333}, {"fusion_lat": 0.0, "name": "48182f0872badadf43fcc0e741096aa3", "is_disabled": 0, "rental_uris": {"android": "https://dc.lft.to/lastmile_qr_scan", "ios": "https://dc.lft.to/lastmile_qr_scan"}, "fusion_lon": 0.0, "lat": 38.918157, "bike_id": "48182f0872badadf43fcc0e741096aa3", "type": "electric_scooter", "is_reserved": 0, "lon": -77.039331}, {"fusion_lat": 0.0, "name": "48fc747c1c8d5016c0f2c69bcd227d83", "is_disabled": 0, "rental_uris": {"android": "https://dc.lft.to/lastmile_qr_scan", "ios": "https://dc.lft.to/lastmile_qr_scan"}, "fusion_lon": 0.0, "lat": 38.9344745, "bike_id": "48fc747c1c8d5016c0f2c69bcd227d83", "type": "electric_scooter", "is_reserved": 0, "lon": -77.03876683333333}, {"fusion_lat": 0.0, "name": "00fc1589f13ca6cb3340ffd4f3c86344", "is_disabled": 0, "rental_uris": {"android": "https://dc.lft.to/lastmile_qr_scan", "ios": "https://dc.lft.to/lastmile_qr_scan"}, "fusion_lon": 0.0, "lat": 38.932900333333336, "bike_id": "00fc1589f13ca6cb3340ffd4f3c86344", "type": "electric_scooter", "is_reserved": 0, "lon": -77.024455}, {"fusion_lat": 0.0, "name": "b28e71f28d174786e00d9789e289a1c4", "is_disabled": 0, "rental_uris": {"android": "https://dc.lft.to/lastmile_qr_scan", "ios": "https://dc.lft.to/lastmile_qr_scan"}, "fusion_lon": 0.0, "lat": 38.917181666666664, "bike_id": "b28e71f28d174786e00d9789e289a1c4", "type": "electric_scooter", "is_reserved": 0, "lon": -76.9687665}, {"fusion_lat": 0.0, "name": "39f42419e929fbfe7e1ebb9b6c6487a4", "is_disabled": 0, "rental_uris": {"android": "https://dc.lft.to/lastmile_qr_scan", "ios": "https://dc.lft.to/lastmile_qr_scan"}, "fusion_lon": 0.0, "lat": 38.882230166666666, "bike_id": "39f42419e929fbfe7e1ebb9b6c6487a4", "type": "electric_scooter", "is_reserved": 0, "lon": -77.02941983333334}, {"fusion_lat": 0.0, "name": "7ed44c2fe4b0f6553a91cef99701605c", "is_disabled": 0, "rental_uris": {"android": "https://dc.lft.to/lastmile_qr_scan", "ios": "https://dc.lft.to/lastmile_qr_scan"}, "fusion_lon": 0.0, "lat": 38.906749833333336, "bike_id": "7ed44c2fe4b0f6553a91cef99701605c", "type": "electric_scooter", "is_reserved": 0, "lon": -77.0712075}, {"fusion_lat": 0.0, "name": "f1192a447401496a0371cb043bae626f", "is_disabled": 0, "rental_uris": {"android": "https://dc.lft.to/lastmile_qr_scan", "ios": "https://dc.lft.to/lastmile_qr_scan"}, "fusion_lon": 0.0, "lat": 38.9050545, "bike_id": "f1192a447401496a0371cb043bae626f", "type": "electric_scooter", "is_reserved": 0, "lon": -77.029528}, {"fusion_lat": 0.0, "name": "0ed42917e31b37a1909f2698f99a76f5", "is_disabled": 0, "rental_uris": {"android": "https://dc.lft.to/lastmile_qr_scan", "ios": "https://dc.lft.to/lastmile_qr_scan"}, "fusion_lon": 0.0, "lat": 38.907088, "bike_id": "0ed42917e31b37a1909f2698f99a76f5", "type": "electric_scooter", "is_reserved": 0, "lon": -77.03750416666666}, {"fusion_lat": 0.0, "name": "a4e44d350f32f5a6c99e73772290e7da", "is_disabled": 0, "rental_uris": {"android": "https://dc.lft.to/lastmile_qr_scan", "ios": "https://dc.lft.to/lastmile_qr_scan"}, "fusion_lon": 0.0, "lat": 38.91323966666667, "bike_id": "a4e44d350f32f5a6c99e73772290e7da", "type": "electric_scooter", "is_reserved": 0, "lon": -77.04710766666666}, {"fusion_lat": 0.0, "name": "6c52fc2db0d6b50ad5f914f1fd98eafd", "is_disabled": 0, "rental_uris": {"android": "https://dc.lft.to/lastmile_qr_scan", "ios": "https://dc.lft.to/lastmile_qr_scan"}, "fusion_lon": 0.0, "lat": 38.91385533333333, "bike_id": "6c52fc2db0d6b50ad5f914f1fd98eafd", "type": "electric_scooter", "is_reserved": 0, "lon": -77.0321485}, {"fusion_lat": 0.0, "name": "4359878e929fb22b8ed031bf707b0573", "is_disabled": 0, "rental_uris": {"android": "https://dc.lft.to/lastmile_qr_scan", "ios": "https://dc.lft.to/lastmile_qr_scan"}, "fusion_lon": 0.0, "lat": 38.915659833333336, "bike_id": "4359878e929fb22b8ed031bf707b0573", "type": "electric_scooter", "is_reserved": 0, "lon": -77.0422705}, {"fusion_lat": 0.0, "name": "9d0d186f03590eda6274e1c672e7c7ff", "is_disabled": 0, "rental_uris": {"android": "https://dc.lft.to/lastmile_qr_scan", "ios": "https://dc.lft.to/lastmile_qr_scan"}, "fusion_lon": 0.0, "lat": 38.902331833333335, "bike_id": "9d0d186f03590eda6274e1c672e7c7ff", "type": "electric_scooter", "is_reserved": 0, "lon": -77.03454}, {"fusion_lat": 0.0, "name": "5bf79fcd94809bf752196eb7368123ac", "is_disabled": 0, "rental_uris": {"android": "https://dc.lft.to/lastmile_qr_scan", "ios": "https://dc.lft.to/lastmile_qr_scan"}, "fusion_lon": 0.0, "lat": 38.887026166666665, "bike_id": "5bf79fcd94809bf752196eb7368123ac", "type": "electric_scooter", "is_reserved": 0, "lon": -76.99611766666666}, {"fusion_lat": 0.0, "name": "5ceffc7ec69c6cd7efda9a1acbf5f6b9", "is_disabled": 0, "rental_uris": {"android": "https://dc.lft.to/lastmile_qr_scan", "ios": "https://dc.lft.to/lastmile_qr_scan"}, "fusion_lon": 0.0, "lat": 38.835013333333336, "bike_id": "5ceffc7ec69c6cd7efda9a1acbf5f6b9", "type": "electric_bike", "is_reserved": 0, "lon": -77.09023416666666}, {"fusion_lat": 0.0, "name": "d749f20fa26d5bef301c82a013ee9997", "is_disabled": 0, "rental_uris": {"android": "https://dc.lft.to/lastmile_qr_scan", "ios": "https://dc.lft.to/lastmile_qr_scan"}, "fusion_lon": 0.0, "lat": 38.950867833333334, "bike_id": "d749f20fa26d5bef301c82a013ee9997", "type": "electric_bike", "is_reserved": 0, "lon": -77.01229483333333}, {"fusion_lat": 0.0, "name": "cbfb832e15de6efff14a464fdce97d29", "is_disabled": 0, "rental_uris": {"android": "https://dc.lft.to/lastmile_qr_scan", "ios": "https://dc.lft.to/lastmile_qr_scan"}, "fusion_lon": 0.0, "lat": 38.900725, "bike_id": "cbfb832e15de6efff14a464fdce97d29", "type": "electric_scooter", "is_reserved": 0, "lon": -77.0453785}, {"fusion_lat": 0.0, "name": "5ae287ed1709f89be13e7b58b57a7732", "is_disabled": 0, "rental_uris": {"android": "https://dc.lft.to/lastmile_qr_scan", "ios": "https://dc.lft.to/lastmile_qr_scan"}, "fusion_lon": 0.0, "lat": 38.931476333333336, "bike_id": "5ae287ed1709f89be13e7b58b57a7732", "type": "electric_scooter", "is_reserved": 0, "lon": -77.03971283333334}, {"fusion_lat": 0.0, "name": "c7f6846e8d232014c7d9c260d294a695", "is_disabled": 0, "rental_uris": {"android": "https://dc.lft.to/lastmile_qr_scan", "ios": "https://dc.lft.to/lastmile_qr_scan"}, "fusion_lon": 0.0, "lat": 38.92794033333333, "bike_id": "c7f6846e8d232014c7d9c260d294a695", "type": "electric_scooter", "is_reserved": 0, "lon": -77.03581883333334}, {"fusion_lat": 0.0, "name": "32deb6b1269e9cb2619ee5df4dc45fcb", "is_disabled": 0, "rental_uris": {"android": "https://dc.lft.to/lastmile_qr_scan", "ios": "https://dc.lft.to/lastmile_qr_scan"}, "fusion_lon": 0.0, "lat": 38.939414666666664, "bike_id": "32deb6b1269e9cb2619ee5df4dc45fcb", "type": "electric_scooter", "is_reserved": 0, "lon": -77.033152}, {"fusion_lat": 0.0, "name": "cfbddcd830ea0b4b5727e859b776a335", "is_disabled": 0, "rental_uris": {"android": "https://dc.lft.to/lastmile_qr_scan", "ios": "https://dc.lft.to/lastmile_qr_scan"}, "fusion_lon": 0.0, "lat": 38.9083725, "bike_id": "cfbddcd830ea0b4b5727e859b776a335", "type": "electric_scooter", "is_reserved": 0, "lon": -76.99982766666666}, {"fusion_lat": 0.0, "name": "e16afe8153af313926de222e1f74af13", "is_disabled": 0, "rental_uris": {"android": "https://dc.lft.to/lastmile_qr_scan", "ios": "https://dc.lft.to/lastmile_qr_scan"}, "fusion_lon": 0.0, "lat": 38.9344705, "bike_id": "e16afe8153af313926de222e1f74af13", "type": "electric_scooter", "is_reserved": 0, "lon": -77.03869016666667}, {"fusion_lat": 0.0, "name": "ee46b02e5258d0464b06a61a434452ac", "is_disabled": 0, "rental_uris": {"android": "https://dc.lft.to/lastmile_qr_scan", "ios": "https://dc.lft.to/lastmile_qr_scan"}, "fusion_lon": 0.0, "lat": 38.84914783333333, "bike_id": "ee46b02e5258d0464b06a61a434452ac", "type": "electric_bike", "is_reserved": 0, "lon": -77.1034365}, {"fusion_lat": 0.0, "name": "0a9440a652a7f2b5c6dd5e3a07d29095", "is_disabled": 0, "rental_uris": {"android": "https://dc.lft.to/lastmile_qr_scan", "ios": "https://dc.lft.to/lastmile_qr_scan"}, "fusion_lon": 0.0, "lat": 38.90939733333333, "bike_id": "0a9440a652a7f2b5c6dd5e3a07d29095", "type": "electric_scooter", "is_reserved": 0, "lon": -77.02127316666666}, {"fusion_lat": 0.0, "name": "4602574d3f9ffcd9d4b96786862cdf63", "is_disabled": 0, "rental_uris": {"android": "https://dc.lft.to/lastmile_qr_scan", "ios": "https://dc.lft.to/lastmile_qr_scan"}, "fusion_lon": 0.0, "lat": 38.87812566666667, "bike_id": "4602574d3f9ffcd9d4b96786862cdf63", "type": "electric_scooter", "is_reserved": 0, "lon": -77.01534933333333}, {"fusion_lat": 0.0, "name": "c8b5e1a18b43349bc2f7e2a71811e265", "is_disabled": 0, "rental_uris": {"android": "https://dc.lft.to/lastmile_qr_scan", "ios": "https://dc.lft.to/lastmile_qr_scan"}, "fusion_lon": 0.0, "lat": 38.88141433333333, "bike_id": "c8b5e1a18b43349bc2f7e2a71811e265", "type": "electric_scooter", "is_reserved": 0, "lon": -76.99483316666667}, {"fusion_lat": 0.0, "name": "0cb24dc0274efea02b78cdaddcc538f4", "is_disabled": 0, "rental_uris": {"android": "https://dc.lft.to/lastmile_qr_scan", "ios": "https://dc.lft.to/lastmile_qr_scan"}, "fusion_lon": 0.0, "lat": 38.92753533333333, "bike_id": "0cb24dc0274efea02b78cdaddcc538f4", "type": "electric_scooter", "is_reserved": 0, "lon": -77.03271816666667}, {"fusion_lat": 0.0, "name": "1e5098768e434540690dfe698e2cd658", "is_disabled": 0, "rental_uris": {"android": "https://dc.lft.to/lastmile_qr_scan", "ios": "https://dc.lft.to/lastmile_qr_scan"}, "fusion_lon": 0.0, "lat": 38.889899, "bike_id": "1e5098768e434540690dfe698e2cd658", "type": "electric_scooter", "is_reserved": 0, "lon": -76.99638466666667}, {"fusion_lat": 0.0, "name": "9effdae5906dde920488f7bd33dd8f3d", "is_disabled": 0, "rental_uris": {"android": "https://dc.lft.to/lastmile_qr_scan", "ios": "https://dc.lft.to/lastmile_qr_scan"}, "fusion_lon": 0.0, "lat": 38.916492, "bike_id": "9effdae5906dde920488f7bd33dd8f3d", "type": "electric_scooter", "is_reserved": 0, "lon": -77.03698716666666}, {"fusion_lat": 0.0, "name": "2d5de7f01c129f0bdddd887caaaee27d", "is_disabled": 0, "rental_uris": {"android": "https://dc.lft.to/lastmile_qr_scan", "ios": "https://dc.lft.to/lastmile_qr_scan"}, "fusion_lon": 0.0, "lat": 38.917059, "bike_id": "2d5de7f01c129f0bdddd887caaaee27d", "type": "electric_scooter", "is_reserved": 0, "lon": -77.04088333333333}, {"fusion_lat": 0.0, "name": "8f307ec042947bd7984d8940768b4cc1", "is_disabled": 0, "rental_uris": {"android": "https://dc.lft.to/lastmile_qr_scan", "ios": "https://dc.lft.to/lastmile_qr_scan"}, "fusion_lon": 0.0, "lat": 38.9141865, "bike_id": "8f307ec042947bd7984d8940768b4cc1", "type": "electric_scooter", "is_reserved": 0, "lon": -77.01409033333333}, {"fusion_lat": 0.0, "name": "1059bfd65406706e0e0b2f3e7e73f870", "is_disabled": 0, "rental_uris": {"android": "https://dc.lft.to/lastmile_qr_scan", "ios": "https://dc.lft.to/lastmile_qr_scan"}, "fusion_lon": 0.0, "lat": 38.872287166666666, "bike_id": "1059bfd65406706e0e0b2f3e7e73f870", "type": "electric_scooter", "is_reserved": 0, "lon": -77.017779}, {"fusion_lat": 0.0, "name": "2d292c3a887c247a25d85321c80b253a", "is_disabled": 0, "rental_uris": {"android": "https://dc.lft.to/lastmile_qr_scan", "ios": "https://dc.lft.to/lastmile_qr_scan"}, "fusion_lon": 0.0, "lat": 38.966186666666665, "bike_id": "2d292c3a887c247a25d85321c80b253a", "type": "electric_bike", "is_reserved": 0, "lon": -77.0343545}, {"fusion_lat": 0.0, "name": "3d659865c4f85ba045cdf6f6cfdf2baa", "is_disabled": 0, "rental_uris": {"android": "https://dc.lft.to/lastmile_qr_scan", "ios": "https://dc.lft.to/lastmile_qr_scan"}, "fusion_lon": 0.0, "lat": 38.90515033333333, "bike_id": "3d659865c4f85ba045cdf6f6cfdf2baa", "type": "electric_scooter", "is_reserved": 0, "lon": -77.061557}, {"fusion_lat": 0.0, "name": "498d89809f4f49d1f917a6fa89ac8b35", "is_disabled": 0, "rental_uris": {"android": "https://dc.lft.to/lastmile_qr_scan", "ios": "https://dc.lft.to/lastmile_qr_scan"}, "fusion_lon": 0.0, "lat": 38.91519133333333, "bike_id": "498d89809f4f49d1f917a6fa89ac8b35", "type": "electric_scooter", "is_reserved": 0, "lon": -77.03204916666667}, {"fusion_lat": 0.0, "name": "24849db86ac83106b75488f260507f04", "is_disabled": 0, "rental_uris": {"android": "https://dc.lft.to/lastmile_qr_scan", "ios": "https://dc.lft.to/lastmile_qr_scan"}, "fusion_lon": 0.0, "lat": 38.905680333333336, "bike_id": "24849db86ac83106b75488f260507f04", "type": "electric_scooter", "is_reserved": 0, "lon": -77.00802916666666}, {"fusion_lat": 0.0, "name": "8bcf7dc8d4265bfb8732b8c37f1dd1c7", "is_disabled": 0, "rental_uris": {"android": "https://dc.lft.to/lastmile_qr_scan", "ios": "https://dc.lft.to/lastmile_qr_scan"}, "fusion_lon": 0.0, "lat": 38.902291, "bike_id": "8bcf7dc8d4265bfb8732b8c37f1dd1c7", "type": "electric_scooter", "is_reserved": 0, "lon": -77.054803}, {"fusion_lat": 0.0, "name": "f42ca7b84917f2dcf1a536ae5566a503", "is_disabled": 0, "rental_uris": {"android": "https://dc.lft.to/lastmile_qr_scan", "ios": "https://dc.lft.to/lastmile_qr_scan"}, "fusion_lon": 0.0, "lat": 38.94330716666666, "bike_id": "f42ca7b84917f2dcf1a536ae5566a503", "type": "electric_scooter", "is_reserved": 0, "lon": -77.06060916666667}, {"fusion_lat": 0.0, "name": "95f1b39c693f4cb9d6ebd116e072c795", "is_disabled": 0, "rental_uris": {"android": "https://dc.lft.to/lastmile_qr_scan", "ios": "https://dc.lft.to/lastmile_qr_scan"}, "fusion_lon": 0.0, "lat": 38.908920333333334, "bike_id": "95f1b39c693f4cb9d6ebd116e072c795", "type": "electric_scooter", "is_reserved": 0, "lon": -77.03662216666666}, {"fusion_lat": 0.0, "name": "e0e094a76848430338693fb352cbedf0", "is_disabled": 0, "rental_uris": {"android": "https://dc.lft.to/lastmile_qr_scan", "ios": "https://dc.lft.to/lastmile_qr_scan"}, "fusion_lon": 0.0, "lat": 38.88850583333333, "bike_id": "e0e094a76848430338693fb352cbedf0", "type": "electric_scooter", "is_reserved": 0, "lon": -76.92685366666667}, {"fusion_lat": 0.0, "name": "160f4f81af50de8dfd64ebe3a948423a", "is_disabled": 0, "rental_uris": {"android": "https://dc.lft.to/lastmile_qr_scan", "ios": "https://dc.lft.to/lastmile_qr_scan"}, "fusion_lon": 0.0, "lat": 38.903321166666665, "bike_id": "160f4f81af50de8dfd64ebe3a948423a", "type": "electric_scooter", "is_reserved": 0, "lon": -77.02897533333334}, {"fusion_lat": 0.0, "name": "d12d715c9ef2867918c8a1b84da549c9", "is_disabled": 0, "rental_uris": {"android": "https://dc.lft.to/lastmile_qr_scan", "ios": "https://dc.lft.to/lastmile_qr_scan"}, "fusion_lon": 0.0, "lat": 38.922802, "bike_id": "d12d715c9ef2867918c8a1b84da549c9", "type": "electric_scooter", "is_reserved": 0, "lon": -76.9977865}, {"fusion_lat": 0.0, "name": "043d4225fa8e67f54d6ac57252662930", "is_disabled": 0, "rental_uris": {"android": "https://dc.lft.to/lastmile_qr_scan", "ios": "https://dc.lft.to/lastmile_qr_scan"}, "fusion_lon": 0.0, "lat": 38.89727766666667, "bike_id": "043d4225fa8e67f54d6ac57252662930", "type": "electric_scooter", "is_reserved": 0, "lon": -77.00763916666666}, {"fusion_lat": 0.0, "name": "fc93639a7b6405b3620e50a3d70966da", "is_disabled": 0, "rental_uris": {"android": "https://dc.lft.to/lastmile_qr_scan", "ios": "https://dc.lft.to/lastmile_qr_scan"}, "fusion_lon": 0.0, "lat": 38.88493716666667, "bike_id": "fc93639a7b6405b3620e50a3d70966da", "type": "electric_scooter", "is_reserved": 0, "lon": -77.01083533333333}, {"fusion_lat": 0.0, "name": "98b54b7044efa4404536f4399e6dbbc5", "is_disabled": 0, "rental_uris": {"android": "https://dc.lft.to/lastmile_qr_scan", "ios": "https://dc.lft.to/lastmile_qr_scan"}, "fusion_lon": 0.0, "lat": 38.89480783333333, "bike_id": "98b54b7044efa4404536f4399e6dbbc5", "type": "electric_scooter", "is_reserved": 0, "lon": -77.02112616666666}, {"fusion_lat": 0.0, "name": "22ac6c058520d43b6fbfd0ca9d0ec62b", "is_disabled": 0, "rental_uris": {"android": "https://dc.lft.to/lastmile_qr_scan", "ios": "https://dc.lft.to/lastmile_qr_scan"}, "fusion_lon": 0.0, "lat": 38.909468333333336, "bike_id": "22ac6c058520d43b6fbfd0ca9d0ec62b", "type": "electric_scooter", "is_reserved": 0, "lon": -76.98767716666667}, {"fusion_lat": 0.0, "name": "e8687522ba9a07dbf0cd7060fb443128", "is_disabled": 0, "rental_uris": {"android": "https://dc.lft.to/lastmile_qr_scan", "ios": "https://dc.lft.to/lastmile_qr_scan"}, "fusion_lon": 0.0, "lat": 38.92674216666666, "bike_id": "e8687522ba9a07dbf0cd7060fb443128", "type": "electric_scooter", "is_reserved": 0, "lon": -77.03076366666667}, {"fusion_lat": 0.0, "name": "6595d95da870e343cf4cab9210cc04a5", "is_disabled": 0, "rental_uris": {"android": "https://dc.lft.to/lastmile_qr_scan", "ios": "https://dc.lft.to/lastmile_qr_scan"}, "fusion_lon": 0.0, "lat": 38.88305166666667, "bike_id": "6595d95da870e343cf4cab9210cc04a5", "type": "electric_scooter", "is_reserved": 0, "lon": -76.94859166666667}, {"fusion_lat": 0.0, "name": "338ceb80915eba47602ce628fefa1535", "is_disabled": 0, "rental_uris": {"android": "https://dc.lft.to/lastmile_qr_scan", "ios": "https://dc.lft.to/lastmile_qr_scan"}, "fusion_lon": 0.0, "lat": 38.925335, "bike_id": "338ceb80915eba47602ce628fefa1535", "type": "electric_scooter", "is_reserved": 0, "lon": -77.007571}, {"fusion_lat": 0.0, "name": "397647586267056062dc19f54dbe7618", "is_disabled": 0, "rental_uris": {"android": "https://dc.lft.to/lastmile_qr_scan", "ios": "https://dc.lft.to/lastmile_qr_scan"}, "fusion_lon": 0.0, "lat": 38.91263683333333, "bike_id": "397647586267056062dc19f54dbe7618", "type": "electric_scooter", "is_reserved": 0, "lon": -77.03043133333334}, {"fusion_lat": 0.0, "name": "615b37ee3583a94b147ff51c0cc78cdf", "is_disabled": 0, "rental_uris": {"android": "https://dc.lft.to/lastmile_qr_scan", "ios": "https://dc.lft.to/lastmile_qr_scan"}, "fusion_lon": 0.0, "lat": 38.90384366666667, "bike_id": "615b37ee3583a94b147ff51c0cc78cdf", "type": "electric_scooter", "is_reserved": 0, "lon": -77.06805416666667}, {"fusion_lat": 0.0, "name": "ce4b8ff8693008326814779c4f9b7653", "is_disabled": 0, "rental_uris": {"android": "https://dc.lft.to/lastmile_qr_scan", "ios": "https://dc.lft.to/lastmile_qr_scan"}, "fusion_lon": 0.0, "lat": 38.807095833333335, "bike_id": "ce4b8ff8693008326814779c4f9b7653", "type": "electric_bike", "is_reserved": 0, "lon": -77.06180533333334}, {"fusion_lat": 0.0, "name": "5deaad0667f29d01c0377d00ed9ddcd4", "is_disabled": 0, "rental_uris": {"android": "https://dc.lft.to/lastmile_qr_scan", "ios": "https://dc.lft.to/lastmile_qr_scan"}, "fusion_lon": 0.0, "lat": 38.9163665, "bike_id": "5deaad0667f29d01c0377d00ed9ddcd4", "type": "electric_scooter", "is_reserved": 0, "lon": -77.0505635}, {"fusion_lat": 0.0, "name": "2d001bed096b1661c26612481faf6805", "is_disabled": 0, "rental_uris": {"android": "https://dc.lft.to/lastmile_qr_scan", "ios": "https://dc.lft.to/lastmile_qr_scan"}, "fusion_lon": 0.0, "lat": 38.8125405, "bike_id": "2d001bed096b1661c26612481faf6805", "type": "electric_bike", "is_reserved": 0, "lon": -77.11780566666667}, {"fusion_lat": 0.0, "name": "fca5124cc3a7bfb20850e9638f50ff9d", "is_disabled": 0, "rental_uris": {"android": "https://dc.lft.to/lastmile_qr_scan", "ios": "https://dc.lft.to/lastmile_qr_scan"}, "fusion_lon": 0.0, "lat": 38.890977, "bike_id": "fca5124cc3a7bfb20850e9638f50ff9d", "type": "electric_scooter", "is_reserved": 0, "lon": -76.99621916666666}, {"fusion_lat": 0.0, "name": "9bf28871f825e4719cc3fb647a69fdde", "is_disabled": 0, "rental_uris": {"android": "https://dc.lft.to/lastmile_qr_scan", "ios": "https://dc.lft.to/lastmile_qr_scan"}, "fusion_lon": 0.0, "lat": 38.9072985, "bike_id": "9bf28871f825e4719cc3fb647a69fdde", "type": "electric_scooter", "is_reserved": 0, "lon": -76.93553066666666}, {"fusion_lat": 0.0, "name": "62f35ec915e647ffb54e5118c08351dd", "is_disabled": 0, "rental_uris": {"android": "https://dc.lft.to/lastmile_qr_scan", "ios": "https://dc.lft.to/lastmile_qr_scan"}, "fusion_lon": 0.0, "lat": 38.819177333333336, "bike_id": "62f35ec915e647ffb54e5118c08351dd", "type": "electric_bike", "is_reserved": 0, "lon": -77.04805083333333}, {"fusion_lat": 0.0, "name": "f15e55bb578724d413d7006d7245a9df", "is_disabled": 0, "rental_uris": {"android": "https://dc.lft.to/lastmile_qr_scan", "ios": "https://dc.lft.to/lastmile_qr_scan"}, "fusion_lon": 0.0, "lat": 38.88500333333333, "bike_id": "f15e55bb578724d413d7006d7245a9df", "type": "electric_scooter", "is_reserved": 0, "lon": -77.02372583333333}, {"fusion_lat": 0.0, "name": "2bcc544533a312868304c3335a733f11", "is_disabled": 0, "rental_uris": {"android": "https://dc.lft.to/lastmile_qr_scan", "ios": "https://dc.lft.to/lastmile_qr_scan"}, "fusion_lon": 0.0, "lat": 38.902404, "bike_id": "2bcc544533a312868304c3335a733f11", "type": "electric_scooter", "is_reserved": 0, "lon": -77.01621133333333}, {"fusion_lat": 0.0, "name": "b0fa5311cb73d15cad8199e15ac23b56", "is_disabled": 0, "rental_uris": {"android": "https://dc.lft.to/lastmile_qr_scan", "ios": "https://dc.lft.to/lastmile_qr_scan"}, "fusion_lon": 0.0, "lat": 38.94052516666667, "bike_id": "b0fa5311cb73d15cad8199e15ac23b56", "type": "electric_bike", "is_reserved": 0, "lon": -76.90421233333333}, {"fusion_lat": 0.0, "name": "29075c478a675bae6793ceec3220d36c", "is_disabled": 0, "rental_uris": {"android": "https://dc.lft.to/lastmile_qr_scan", "ios": "https://dc.lft.to/lastmile_qr_scan"}, "fusion_lon": 0.0, "lat": 38.921054166666664, "bike_id": "29075c478a675bae6793ceec3220d36c", "type": "electric_scooter", "is_reserved": 0, "lon": -77.031916}, {"fusion_lat": 0.0, "name": "22357c2e414570656d281e2da4f30a87", "is_disabled": 0, "rental_uris": {"android": "https://dc.lft.to/lastmile_qr_scan", "ios": "https://dc.lft.to/lastmile_qr_scan"}, "fusion_lon": 0.0, "lat": 38.994434, "bike_id": "22357c2e414570656d281e2da4f30a87", "type": "electric_bike", "is_reserved": 0, "lon": -76.99592883333334}, {"fusion_lat": 0.0, "name": "10006e4f36c45fef5587c9de791860d7", "is_disabled": 0, "rental_uris": {"android": "https://dc.lft.to/lastmile_qr_scan", "ios": "https://dc.lft.to/lastmile_qr_scan"}, "fusion_lon": 0.0, "lat": 38.903072, "bike_id": "10006e4f36c45fef5587c9de791860d7", "type": "electric_scooter", "is_reserved": 0, "lon": -76.97655383333333}, {"fusion_lat": 0.0, "name": "14ec5b918d97a17b02d0feccdd7b6cdb", "is_disabled": 0, "rental_uris": {"android": "https://dc.lft.to/lastmile_qr_scan", "ios": "https://dc.lft.to/lastmile_qr_scan"}, "fusion_lon": 0.0, "lat": 38.93182633333333, "bike_id": "14ec5b918d97a17b02d0feccdd7b6cdb", "type": "electric_scooter", "is_reserved": 0, "lon": -77.019615}, {"fusion_lat": 0.0, "name": "4a547fdf5add3adb6c5f5e4c8355cc5d", "is_disabled": 0, "rental_uris": {"android": "https://dc.lft.to/lastmile_qr_scan", "ios": "https://dc.lft.to/lastmile_qr_scan"}, "fusion_lon": 0.0, "lat": 38.90446683333333, "bike_id": "4a547fdf5add3adb6c5f5e4c8355cc5d", "type": "electric_scooter", "is_reserved": 0, "lon": -77.059159}, {"fusion_lat": 0.0, "name": "cdfa506c60af6b2c57ad0621783de6a6", "is_disabled": 0, "rental_uris": {"android": "https://dc.lft.to/lastmile_qr_scan", "ios": "https://dc.lft.to/lastmile_qr_scan"}, "fusion_lon": 0.0, "lat": 38.87923883333333, "bike_id": "cdfa506c60af6b2c57ad0621783de6a6", "type": "electric_scooter", "is_reserved": 0, "lon": -77.0042475}, {"fusion_lat": 0.0, "name": "b1f079b48533c1370128aca30394e0e9", "is_disabled": 0, "rental_uris": {"android": "https://dc.lft.to/lastmile_qr_scan", "ios": "https://dc.lft.to/lastmile_qr_scan"}, "fusion_lon": 0.0, "lat": 38.913759, "bike_id": "b1f079b48533c1370128aca30394e0e9", "type": "electric_scooter", "is_reserved": 0, "lon": -77.01801833333333}, {"fusion_lat": 0.0, "name": "287a979d32dbf5957de785104f15d6e1", "is_disabled": 0, "rental_uris": {"android": "https://dc.lft.to/lastmile_qr_scan", "ios": "https://dc.lft.to/lastmile_qr_scan"}, "fusion_lon": 0.0, "lat": 38.952468833333334, "bike_id": "287a979d32dbf5957de785104f15d6e1", "type": "electric_scooter", "is_reserved": 0, "lon": -77.02378483333334}, {"fusion_lat": 0.0, "name": "393297bc5bbef2b0cf8c142a667eb90e", "is_disabled": 0, "rental_uris": {"android": "https://dc.lft.to/lastmile_qr_scan", "ios": "https://dc.lft.to/lastmile_qr_scan"}, "fusion_lon": 0.0, "lat": 38.92966666666667, "bike_id": "393297bc5bbef2b0cf8c142a667eb90e", "type": "electric_scooter", "is_reserved": 0, "lon": -77.04186166666666}, {"fusion_lat": 0.0, "name": "fcce816fa207a4d6bacd071ea22dd999", "is_disabled": 0, "rental_uris": {"android": "https://dc.lft.to/lastmile_qr_scan", "ios": "https://dc.lft.to/lastmile_qr_scan"}, "fusion_lon": 0.0, "lat": 38.907421666666664, "bike_id": "fcce816fa207a4d6bacd071ea22dd999", "type": "electric_scooter", "is_reserved": 0, "lon": -76.999576}, {"fusion_lat": 0.0, "name": "c951701b77c1c90f322a74b6eb599ca7", "is_disabled": 0, "rental_uris": {"android": "https://dc.lft.to/lastmile_qr_scan", "ios": "https://dc.lft.to/lastmile_qr_scan"}, "fusion_lon": 0.0, "lat": 38.926787, "bike_id": "c951701b77c1c90f322a74b6eb599ca7", "type": "electric_scooter", "is_reserved": 0, "lon": -77.0309985}, {"fusion_lat": 0.0, "name": "8a6e3d92c2cf41c27cde938c5d24ba57", "is_disabled": 0, "rental_uris": {"android": "https://dc.lft.to/lastmile_qr_scan", "ios": "https://dc.lft.to/lastmile_qr_scan"}, "fusion_lon": 0.0, "lat": 38.935067833333335, "bike_id": "8a6e3d92c2cf41c27cde938c5d24ba57", "type": "electric_scooter", "is_reserved": 0, "lon": -77.07334316666666}, {"fusion_lat": 0.0, "name": "a29b0852222222875db479ee8512440e", "is_disabled": 0, "rental_uris": {"android": "https://dc.lft.to/lastmile_qr_scan", "ios": "https://dc.lft.to/lastmile_qr_scan"}, "fusion_lon": 0.0, "lat": 38.90636683333334, "bike_id": "a29b0852222222875db479ee8512440e", "type": "electric_scooter", "is_reserved": 0, "lon": -77.06910283333333}, {"fusion_lat": 0.0, "name": "22e0125229daa44ed2dc6247c40b2f5a", "is_disabled": 0, "rental_uris": {"android": "https://dc.lft.to/lastmile_qr_scan", "ios": "https://dc.lft.to/lastmile_qr_scan"}, "fusion_lon": 0.0, "lat": 38.9042335, "bike_id": "22e0125229daa44ed2dc6247c40b2f5a", "type": "electric_scooter", "is_reserved": 0, "lon": -77.03450616666667}, {"fusion_lat": 0.0, "name": "7f4f1acc8e949d5af77adc9298ae84f1", "is_disabled": 0, "rental_uris": {"android": "https://dc.lft.to/lastmile_qr_scan", "ios": "https://dc.lft.to/lastmile_qr_scan"}, "fusion_lon": 0.0, "lat": 38.911064833333334, "bike_id": "7f4f1acc8e949d5af77adc9298ae84f1", "type": "electric_scooter", "is_reserved": 0, "lon": -77.01664266666667}, {"fusion_lat": 0.0, "name": "f9c49be98d2c7c20680f6a18de47bfe9", "is_disabled": 0, "rental_uris": {"android": "https://dc.lft.to/lastmile_qr_scan", "ios": "https://dc.lft.to/lastmile_qr_scan"}, "fusion_lon": 0.0, "lat": 38.918192, "bike_id": "f9c49be98d2c7c20680f6a18de47bfe9", "type": "electric_scooter", "is_reserved": 0, "lon": -77.0251015}, {"fusion_lat": 0.0, "name": "9330308863e7731ece94915601b3ae97", "is_disabled": 0, "rental_uris": {"android": "https://dc.lft.to/lastmile_qr_scan", "ios": "https://dc.lft.to/lastmile_qr_scan"}, "fusion_lon": 0.0, "lat": 38.919882333333334, "bike_id": "9330308863e7731ece94915601b3ae97", "type": "electric_scooter", "is_reserved": 0, "lon": -76.97308966666667}, {"fusion_lat": 0.0, "name": "22eb4b71608518e5cf429ee94edee33f", "is_disabled": 0, "rental_uris": {"android": "https://dc.lft.to/lastmile_qr_scan", "ios": "https://dc.lft.to/lastmile_qr_scan"}, "fusion_lon": 0.0, "lat": 38.90696466666667, "bike_id": "22eb4b71608518e5cf429ee94edee33f", "type": "electric_scooter", "is_reserved": 0, "lon": -77.06519733333333}, {"fusion_lat": 0.0, "name": "0f438812a15ef6e1fc324321a6dfbb3d", "is_disabled": 0, "rental_uris": {"android": "https://dc.lft.to/lastmile_qr_scan", "ios": "https://dc.lft.to/lastmile_qr_scan"}, "fusion_lon": 0.0, "lat": 38.89843033333333, "bike_id": "0f438812a15ef6e1fc324321a6dfbb3d", "type": "electric_scooter", "is_reserved": 0, "lon": -77.0242575}, {"fusion_lat": 0.0, "name": "dd21d8dfcadd87600bb42e5b9502897e", "is_disabled": 0, "rental_uris": {"android": "https://dc.lft.to/lastmile_qr_scan", "ios": "https://dc.lft.to/lastmile_qr_scan"}, "fusion_lon": 0.0, "lat": 38.916896, "bike_id": "dd21d8dfcadd87600bb42e5b9502897e", "type": "electric_scooter", "is_reserved": 0, "lon": -77.0228265}, {"fusion_lat": 0.0, "name": "1cef5b126ba1621aeda3a625104f3526", "is_disabled": 0, "rental_uris": {"android": "https://dc.lft.to/lastmile_qr_scan", "ios": "https://dc.lft.to/lastmile_qr_scan"}, "fusion_lon": 0.0, "lat": 38.84756466666666, "bike_id": "1cef5b126ba1621aeda3a625104f3526", "type": "electric_scooter", "is_reserved": 0, "lon": -76.99498233333334}, {"fusion_lat": 0.0, "name": "d5532c9108ede98c8f3b25ccc9636bd3", "is_disabled": 0, "rental_uris": {"android": "https://dc.lft.to/lastmile_qr_scan", "ios": "https://dc.lft.to/lastmile_qr_scan"}, "fusion_lon": 0.0, "lat": 38.90531416666666, "bike_id": "d5532c9108ede98c8f3b25ccc9636bd3", "type": "electric_scooter", "is_reserved": 0, "lon": -77.02981233333334}, {"fusion_lat": 0.0, "name": "64569d0630ce38b992708be24d1ca238", "is_disabled": 0, "rental_uris": {"android": "https://dc.lft.to/lastmile_qr_scan", "ios": "https://dc.lft.to/lastmile_qr_scan"}, "fusion_lon": 0.0, "lat": 38.921169166666665, "bike_id": "64569d0630ce38b992708be24d1ca238", "type": "electric_scooter", "is_reserved": 0, "lon": -77.04223366666666}, {"fusion_lat": 0.0, "name": "298ec6cd9f4afa67b24098c9d596d850", "is_disabled": 0, "rental_uris": {"android": "https://dc.lft.to/lastmile_qr_scan", "ios": "https://dc.lft.to/lastmile_qr_scan"}, "fusion_lon": 0.0, "lat": 38.910334, "bike_id": "298ec6cd9f4afa67b24098c9d596d850", "type": "electric_scooter", "is_reserved": 0, "lon": -77.04284033333333}, {"fusion_lat": 0.0, "name": "f32c3bbcc423b2b4209fdfab1aaf8ad0", "is_disabled": 0, "rental_uris": {"android": "https://dc.lft.to/lastmile_qr_scan", "ios": "https://dc.lft.to/lastmile_qr_scan"}, "fusion_lon": 0.0, "lat": 38.90747666666667, "bike_id": "f32c3bbcc423b2b4209fdfab1aaf8ad0", "type": "electric_scooter", "is_reserved": 0, "lon": -77.04558166666666}, {"fusion_lat": 0.0, "name": "3da438a213cee0e5ac5b30e8ea1679a6", "is_disabled": 0, "rental_uris": {"android": "https://dc.lft.to/lastmile_qr_scan", "ios": "https://dc.lft.to/lastmile_qr_scan"}, "fusion_lon": 0.0, "lat": 38.9064465, "bike_id": "3da438a213cee0e5ac5b30e8ea1679a6", "type": "electric_scooter", "is_reserved": 0, "lon": -77.05317716666667}, {"fusion_lat": 0.0, "name": "862871e01261ddd143d1e54def9cd3d0", "is_disabled": 0, "rental_uris": {"android": "https://dc.lft.to/lastmile_qr_scan", "ios": "https://dc.lft.to/lastmile_qr_scan"}, "fusion_lon": 0.0, "lat": 38.935197, "bike_id": "862871e01261ddd143d1e54def9cd3d0", "type": "electric_scooter", "is_reserved": 0, "lon": -77.07265833333334}, {"fusion_lat": 0.0, "name": "abc0f5d69f350b6e3621c2df5ab7d985", "is_disabled": 0, "rental_uris": {"android": "https://dc.lft.to/lastmile_qr_scan", "ios": "https://dc.lft.to/lastmile_qr_scan"}, "fusion_lon": 0.0, "lat": 38.871923, "bike_id": "abc0f5d69f350b6e3621c2df5ab7d985", "type": "electric_scooter", "is_reserved": 0, "lon": -77.006296}, {"fusion_lat": 0.0, "name": "3d8c0eb3d9a69c93e1275d74acef9fa3", "is_disabled": 0, "rental_uris": {"android": "https://dc.lft.to/lastmile_qr_scan", "ios": "https://dc.lft.to/lastmile_qr_scan"}, "fusion_lon": 0.0, "lat": 38.92992566666667, "bike_id": "3d8c0eb3d9a69c93e1275d74acef9fa3", "type": "electric_bike", "is_reserved": 0, "lon": -77.03271116666667}, {"fusion_lat": 0.0, "name": "dab3d44c499e08fd34dc25fa36d064a8", "is_disabled": 0, "rental_uris": {"android": "https://dc.lft.to/lastmile_qr_scan", "ios": "https://dc.lft.to/lastmile_qr_scan"}, "fusion_lon": 0.0, "lat": 39.052539, "bike_id": "dab3d44c499e08fd34dc25fa36d064a8", "type": "electric_bike", "is_reserved": 0, "lon": -77.08069016666667}, {"fusion_lat": 0.0, "name": "0c94a56108c0785f568f354e7f404726", "is_disabled": 0, "rental_uris": {"android": "https://dc.lft.to/lastmile_qr_scan", "ios": "https://dc.lft.to/lastmile_qr_scan"}, "fusion_lon": 0.0, "lat": 38.8944485, "bike_id": "0c94a56108c0785f568f354e7f404726", "type": "electric_scooter", "is_reserved": 0, "lon": -76.93684433333334}, {"fusion_lat": 0.0, "name": "407e46d010e78f8381fa2e3dbf477ec9", "is_disabled": 0, "rental_uris": {"android": "https://dc.lft.to/lastmile_qr_scan", "ios": "https://dc.lft.to/lastmile_qr_scan"}, "fusion_lon": 0.0, "lat": 38.902040166666666, "bike_id": "407e46d010e78f8381fa2e3dbf477ec9", "type": "electric_scooter", "is_reserved": 0, "lon": -77.03685016666667}, {"fusion_lat": 0.0, "name": "6dbe455645221168f088f95c482edd4d", "is_disabled": 0, "rental_uris": {"android": "https://dc.lft.to/lastmile_qr_scan", "ios": "https://dc.lft.to/lastmile_qr_scan"}, "fusion_lon": 0.0, "lat": 38.89665216666667, "bike_id": "6dbe455645221168f088f95c482edd4d", "type": "electric_scooter", "is_reserved": 0, "lon": -76.98841666666667}, {"fusion_lat": 0.0, "name": "bf2ee0556c481d86bcd79874a79d200e", "is_disabled": 0, "rental_uris": {"android": "https://dc.lft.to/lastmile_qr_scan", "ios": "https://dc.lft.to/lastmile_qr_scan"}, "fusion_lon": 0.0, "lat": 38.89872833333333, "bike_id": "bf2ee0556c481d86bcd79874a79d200e", "type": "electric_scooter", "is_reserved": 0, "lon": -76.9318945}, {"fusion_lat": 0.0, "name": "7347e6c68b786e092216167c5115cee8", "is_disabled": 0, "rental_uris": {"android": "https://dc.lft.to/lastmile_qr_scan", "ios": "https://dc.lft.to/lastmile_qr_scan"}, "fusion_lon": 0.0, "lat": 38.958777833333336, "bike_id": "7347e6c68b786e092216167c5115cee8", "type": "electric_bike", "is_reserved": 0, "lon": -76.97060216666667}, {"fusion_lat": 0.0, "name": "a3f492e7dff918012795169c0e4d10a5", "is_disabled": 0, "rental_uris": {"android": "https://dc.lft.to/lastmile_qr_scan", "ios": "https://dc.lft.to/lastmile_qr_scan"}, "fusion_lon": 0.0, "lat": 38.930620833333336, "bike_id": "a3f492e7dff918012795169c0e4d10a5", "type": "electric_scooter", "is_reserved": 0, "lon": -77.03254483333333}, {"fusion_lat": 0.0, "name": "7a807b8bbc6efaf6f7e330539c010824", "is_disabled": 0, "rental_uris": {"android": "https://dc.lft.to/lastmile_qr_scan", "ios": "https://dc.lft.to/lastmile_qr_scan"}, "fusion_lon": 0.0, "lat": 38.9178375, "bike_id": "7a807b8bbc6efaf6f7e330539c010824", "type": "electric_scooter", "is_reserved": 0, "lon": -77.02372683333333}, {"fusion_lat": 0.0, "name": "ecd1ec6298f5a3e10dff423cbac5cb12", "is_disabled": 0, "rental_uris": {"android": "https://dc.lft.to/lastmile_qr_scan", "ios": "https://dc.lft.to/lastmile_qr_scan"}, "fusion_lon": 0.0, "lat": 38.946269666666666, "bike_id": "ecd1ec6298f5a3e10dff423cbac5cb12", "type": "electric_scooter", "is_reserved": 0, "lon": -77.032865}, {"fusion_lat": 0.0, "name": "1bcbfa79c2c3d913098eb3b4eee82610", "is_disabled": 0, "rental_uris": {"android": "https://dc.lft.to/lastmile_qr_scan", "ios": "https://dc.lft.to/lastmile_qr_scan"}, "fusion_lon": 0.0, "lat": 38.92838, "bike_id": "1bcbfa79c2c3d913098eb3b4eee82610", "type": "electric_scooter", "is_reserved": 0, "lon": -76.993516}, {"fusion_lat": 0.0, "name": "74bb0b6e1fb91798054e083f9388cf07", "is_disabled": 0, "rental_uris": {"android": "https://dc.lft.to/lastmile_qr_scan", "ios": "https://dc.lft.to/lastmile_qr_scan"}, "fusion_lon": 0.0, "lat": 38.890130166666665, "bike_id": "74bb0b6e1fb91798054e083f9388cf07", "type": "electric_scooter", "is_reserved": 0, "lon": -76.93741083333333}, {"fusion_lat": 0.0, "name": "3facf4012d8658168978e705b2f9e354", "is_disabled": 0, "rental_uris": {"android": "https://dc.lft.to/lastmile_qr_scan", "ios": "https://dc.lft.to/lastmile_qr_scan"}, "fusion_lon": 0.0, "lat": 38.92557816666667, "bike_id": "3facf4012d8658168978e705b2f9e354", "type": "electric_scooter", "is_reserved": 0, "lon": -77.0355025}, {"fusion_lat": 0.0, "name": "c8b5b16f5cd674e4a4c1377a7fcb476f", "is_disabled": 0, "rental_uris": {"android": "https://dc.lft.to/lastmile_qr_scan", "ios": "https://dc.lft.to/lastmile_qr_scan"}, "fusion_lon": 0.0, "lat": 38.9556325, "bike_id": "c8b5b16f5cd674e4a4c1377a7fcb476f", "type": "electric_bike", "is_reserved": 0, "lon": -77.01004716666667}, {"fusion_lat": 0.0, "name": "07dd928d26bad63a6d34ca6053acb296", "is_disabled": 0, "rental_uris": {"android": "https://dc.lft.to/lastmile_qr_scan", "ios": "https://dc.lft.to/lastmile_qr_scan"}, "fusion_lon": 0.0, "lat": 38.92988583333333, "bike_id": "07dd928d26bad63a6d34ca6053acb296", "type": "electric_scooter", "is_reserved": 0, "lon": -77.03234783333333}, {"fusion_lat": 0.0, "name": "1719f302fb9a9eed1d711cd2dd78fc8f", "is_disabled": 0, "rental_uris": {"android": "https://dc.lft.to/lastmile_qr_scan", "ios": "https://dc.lft.to/lastmile_qr_scan"}, "fusion_lon": 0.0, "lat": 38.9283725, "bike_id": "1719f302fb9a9eed1d711cd2dd78fc8f", "type": "electric_scooter", "is_reserved": 0, "lon": -77.0159055}, {"fusion_lat": 0.0, "name": "5d90065062037c899e5f9c8d17de432b", "is_disabled": 0, "rental_uris": {"android": "https://dc.lft.to/lastmile_qr_scan", "ios": "https://dc.lft.to/lastmile_qr_scan"}, "fusion_lon": 0.0, "lat": 38.89902933333333, "bike_id": "5d90065062037c899e5f9c8d17de432b", "type": "electric_scooter", "is_reserved": 0, "lon": -76.9335355}, {"fusion_lat": 0.0, "name": "6085ff41286f8cf9742b10885b18303c", "is_disabled": 0, "rental_uris": {"android": "https://dc.lft.to/lastmile_qr_scan", "ios": "https://dc.lft.to/lastmile_qr_scan"}, "fusion_lon": 0.0, "lat": 38.8852565, "bike_id": "6085ff41286f8cf9742b10885b18303c", "type": "electric_scooter", "is_reserved": 0, "lon": -76.9292125}, {"fusion_lat": 0.0, "name": "7249ee290602e2c235a7f9d6031b18aa", "is_disabled": 0, "rental_uris": {"android": "https://dc.lft.to/lastmile_qr_scan", "ios": "https://dc.lft.to/lastmile_qr_scan"}, "fusion_lon": 0.0, "lat": 38.93905783333334, "bike_id": "7249ee290602e2c235a7f9d6031b18aa", "type": "electric_scooter", "is_reserved": 0, "lon": -77.07803483333333}, {"fusion_lat": 0.0, "name": "65be3c8e198a933401f6cc6944da7085", "is_disabled": 0, "rental_uris": {"android": "https://dc.lft.to/lastmile_qr_scan", "ios": "https://dc.lft.to/lastmile_qr_scan"}, "fusion_lon": 0.0, "lat": 38.89909933333333, "bike_id": "65be3c8e198a933401f6cc6944da7085", "type": "electric_scooter", "is_reserved": 0, "lon": -76.94593316666666}, {"fusion_lat": 0.0, "name": "212051835b3364363a63b334a69519c8", "is_disabled": 0, "rental_uris": {"android": "https://dc.lft.to/lastmile_qr_scan", "ios": "https://dc.lft.to/lastmile_qr_scan"}, "fusion_lon": 0.0, "lat": 38.929518, "bike_id": "212051835b3364363a63b334a69519c8", "type": "electric_scooter", "is_reserved": 0, "lon": -77.032673}, {"fusion_lat": 0.0, "name": "258b1b6538b16256d5d5d813d13c2036", "is_disabled": 0, "rental_uris": {"android": "https://dc.lft.to/lastmile_qr_scan", "ios": "https://dc.lft.to/lastmile_qr_scan"}, "fusion_lon": 0.0, "lat": 38.91555316666667, "bike_id": "258b1b6538b16256d5d5d813d13c2036", "type": "electric_scooter", "is_reserved": 0, "lon": -77.00594316666667}, {"fusion_lat": 0.0, "name": "ca0baea86c245cd335eebc48a39fc1e2", "is_disabled": 0, "rental_uris": {"android": "https://dc.lft.to/lastmile_qr_scan", "ios": "https://dc.lft.to/lastmile_qr_scan"}, "fusion_lon": 0.0, "lat": 38.9148455, "bike_id": "ca0baea86c245cd335eebc48a39fc1e2", "type": "electric_scooter", "is_reserved": 0, "lon": -77.04161016666667}, {"fusion_lat": 0.0, "name": "52744d5b713596652fc253a85d709430", "is_disabled": 0, "rental_uris": {"android": "https://dc.lft.to/lastmile_qr_scan", "ios": "https://dc.lft.to/lastmile_qr_scan"}, "fusion_lon": 0.0, "lat": 38.87581216666667, "bike_id": "52744d5b713596652fc253a85d709430", "type": "electric_bike", "is_reserved": 0, "lon": -77.23412916666666}, {"fusion_lat": 0.0, "name": "4bb432feb17ac3a90aa67beb53bd773a", "is_disabled": 0, "rental_uris": {"android": "https://dc.lft.to/lastmile_qr_scan", "ios": "https://dc.lft.to/lastmile_qr_scan"}, "fusion_lon": 0.0, "lat": 38.9079695, "bike_id": "4bb432feb17ac3a90aa67beb53bd773a", "type": "electric_scooter", "is_reserved": 0, "lon": -77.0423175}, {"fusion_lat": 0.0, "name": "04dde87be771af70af68b65bd06cc19c", "is_disabled": 0, "rental_uris": {"android": "https://dc.lft.to/lastmile_qr_scan", "ios": "https://dc.lft.to/lastmile_qr_scan"}, "fusion_lon": 0.0, "lat": 38.9240765, "bike_id": "04dde87be771af70af68b65bd06cc19c", "type": "electric_scooter", "is_reserved": 0, "lon": -77.03641216666666}, {"fusion_lat": 0.0, "name": "e38ba64a0b317897dde7e8e5b002ef7f", "is_disabled": 0, "rental_uris": {"android": "https://dc.lft.to/lastmile_qr_scan", "ios": "https://dc.lft.to/lastmile_qr_scan"}, "fusion_lon": 0.0, "lat": 38.91339416666667, "bike_id": "e38ba64a0b317897dde7e8e5b002ef7f", "type": "electric_scooter", "is_reserved": 0, "lon": -77.04875183333333}, {"fusion_lat": 0.0, "name": "fd6307b26c4efb3989256b770b9bba89", "is_disabled": 0, "rental_uris": {"android": "https://dc.lft.to/lastmile_qr_scan", "ios": "https://dc.lft.to/lastmile_qr_scan"}, "fusion_lon": 0.0, "lat": 38.912611166666665, "bike_id": "fd6307b26c4efb3989256b770b9bba89", "type": "electric_scooter", "is_reserved": 0, "lon": -77.049197}, {"fusion_lat": 0.0, "name": "f7f7d442a416470cbd4e217b9d1e5fff", "is_disabled": 0, "rental_uris": {"android": "https://dc.lft.to/lastmile_qr_scan", "ios": "https://dc.lft.to/lastmile_qr_scan"}, "fusion_lon": 0.0, "lat": 38.873827166666665, "bike_id": "f7f7d442a416470cbd4e217b9d1e5fff", "type": "electric_scooter", "is_reserved": 0, "lon": -77.000601}, {"fusion_lat": 0.0, "name": "0cf065926d1715c6fce0a60099a9bd57", "is_disabled": 0, "rental_uris": {"android": "https://dc.lft.to/lastmile_qr_scan", "ios": "https://dc.lft.to/lastmile_qr_scan"}, "fusion_lon": 0.0, "lat": 38.92641016666666, "bike_id": "0cf065926d1715c6fce0a60099a9bd57", "type": "electric_scooter", "is_reserved": 0, "lon": -77.041329}, {"fusion_lat": 0.0, "name": "0ec6b8307281b5900c69259ba3950810", "is_disabled": 0, "rental_uris": {"android": "https://dc.lft.to/lastmile_qr_scan", "ios": "https://dc.lft.to/lastmile_qr_scan"}, "fusion_lon": 0.0, "lat": 38.91800383333333, "bike_id": "0ec6b8307281b5900c69259ba3950810", "type": "electric_scooter", "is_reserved": 0, "lon": -77.03443266666666}, {"fusion_lat": 0.0, "name": "81350d13bb1b3176b1d3da4761321456", "is_disabled": 0, "rental_uris": {"android": "https://dc.lft.to/lastmile_qr_scan", "ios": "https://dc.lft.to/lastmile_qr_scan"}, "fusion_lon": 0.0, "lat": 38.89468983333333, "bike_id": "81350d13bb1b3176b1d3da4761321456", "type": "electric_scooter", "is_reserved": 0, "lon": -77.01776883333334}, {"fusion_lat": 0.0, "name": "6c0fd20d4b9bedd24c6a02e89fd4b450", "is_disabled": 0, "rental_uris": {"android": "https://dc.lft.to/lastmile_qr_scan", "ios": "https://dc.lft.to/lastmile_qr_scan"}, "fusion_lon": 0.0, "lat": 38.93107766666667, "bike_id": "6c0fd20d4b9bedd24c6a02e89fd4b450", "type": "electric_scooter", "is_reserved": 0, "lon": -77.02135466666667}, {"fusion_lat": 0.0, "name": "a62ed385b968a860619cb06fbfee016e", "is_disabled": 0, "rental_uris": {"android": "https://dc.lft.to/lastmile_qr_scan", "ios": "https://dc.lft.to/lastmile_qr_scan"}, "fusion_lon": 0.0, "lat": 38.915767333333335, "bike_id": "a62ed385b968a860619cb06fbfee016e", "type": "electric_scooter", "is_reserved": 0, "lon": -77.031943}, {"fusion_lat": 0.0, "name": "4929aa4ef02d131a12007ffdb2e405c0", "is_disabled": 0, "rental_uris": {"android": "https://dc.lft.to/lastmile_qr_scan", "ios": "https://dc.lft.to/lastmile_qr_scan"}, "fusion_lon": 0.0, "lat": 38.92066766666667, "bike_id": "4929aa4ef02d131a12007ffdb2e405c0", "type": "electric_scooter", "is_reserved": 0, "lon": -77.04560683333334}, {"fusion_lat": 0.0, "name": "7da3757b024c93f8fd3e2bb2f8b99a55", "is_disabled": 0, "rental_uris": {"android": "https://dc.lft.to/lastmile_qr_scan", "ios": "https://dc.lft.to/lastmile_qr_scan"}, "fusion_lon": 0.0, "lat": 38.921079666666664, "bike_id": "7da3757b024c93f8fd3e2bb2f8b99a55", "type": "electric_scooter", "is_reserved": 0, "lon": -77.04222866666667}, {"fusion_lat": 0.0, "name": "e73b574b7dce46ce5fa0e7127ffb6003", "is_disabled": 0, "rental_uris": {"android": "https://dc.lft.to/lastmile_qr_scan", "ios": "https://dc.lft.to/lastmile_qr_scan"}, "fusion_lon": 0.0, "lat": 38.922468333333335, "bike_id": "e73b574b7dce46ce5fa0e7127ffb6003", "type": "electric_scooter", "is_reserved": 0, "lon": -77.018835}, {"fusion_lat": 0.0, "name": "2b5b5fc75725c686456da31230140e34", "is_disabled": 0, "rental_uris": {"android": "https://dc.lft.to/lastmile_qr_scan", "ios": "https://dc.lft.to/lastmile_qr_scan"}, "fusion_lon": 0.0, "lat": 38.938751, "bike_id": "2b5b5fc75725c686456da31230140e34", "type": "electric_scooter", "is_reserved": 0, "lon": -77.032337}, {"fusion_lat": 0.0, "name": "3e0990ac2b614aa644a326728bc588cc", "is_disabled": 0, "rental_uris": {"android": "https://dc.lft.to/lastmile_qr_scan", "ios": "https://dc.lft.to/lastmile_qr_scan"}, "fusion_lon": 0.0, "lat": 38.91604233333333, "bike_id": "3e0990ac2b614aa644a326728bc588cc", "type": "electric_scooter", "is_reserved": 0, "lon": -77.02282366666667}, {"fusion_lat": 0.0, "name": "1c4eaf40eca38b52f62989140f3e15f9", "is_disabled": 0, "rental_uris": {"android": "https://dc.lft.to/lastmile_qr_scan", "ios": "https://dc.lft.to/lastmile_qr_scan"}, "fusion_lon": 0.0, "lat": 38.917888833333336, "bike_id": "1c4eaf40eca38b52f62989140f3e15f9", "type": "electric_scooter", "is_reserved": 0, "lon": -77.04028716666667}, {"fusion_lat": 0.0, "name": "a2ebbb5fdb59c2c447facf1f8d8b7cec", "is_disabled": 0, "rental_uris": {"android": "https://dc.lft.to/lastmile_qr_scan", "ios": "https://dc.lft.to/lastmile_qr_scan"}, "fusion_lon": 0.0, "lat": 38.90574616666667, "bike_id": "a2ebbb5fdb59c2c447facf1f8d8b7cec", "type": "electric_scooter", "is_reserved": 0, "lon": -77.02224916666667}, {"fusion_lat": 0.0, "name": "9d3e93504da10b90bc84eeb1459ddc9a", "is_disabled": 0, "rental_uris": {"android": "https://dc.lft.to/lastmile_qr_scan", "ios": "https://dc.lft.to/lastmile_qr_scan"}, "fusion_lon": 0.0, "lat": 38.932189666666666, "bike_id": "9d3e93504da10b90bc84eeb1459ddc9a", "type": "electric_scooter", "is_reserved": 0, "lon": -77.044202}, {"fusion_lat": 0.0, "name": "b656c1c9889895b14e001ca02f970652", "is_disabled": 0, "rental_uris": {"android": "https://dc.lft.to/lastmile_qr_scan", "ios": "https://dc.lft.to/lastmile_qr_scan"}, "fusion_lon": 0.0, "lat": 38.842812333333335, "bike_id": "b656c1c9889895b14e001ca02f970652", "type": "electric_bike", "is_reserved": 0, "lon": -76.988431}, {"fusion_lat": 0.0, "name": "3eae1647b16bea7fdca8042bab34343b", "is_disabled": 0, "rental_uris": {"android": "https://dc.lft.to/lastmile_qr_scan", "ios": "https://dc.lft.to/lastmile_qr_scan"}, "fusion_lon": 0.0, "lat": 38.90029833333333, "bike_id": "3eae1647b16bea7fdca8042bab34343b", "type": "electric_scooter", "is_reserved": 0, "lon": -77.01181333333334}, {"fusion_lat": 0.0, "name": "289a1595aa99d51d84b6fd3dfaa221eb", "is_disabled": 0, "rental_uris": {"android": "https://dc.lft.to/lastmile_qr_scan", "ios": "https://dc.lft.to/lastmile_qr_scan"}, "fusion_lon": 0.0, "lat": 38.91416433333333, "bike_id": "289a1595aa99d51d84b6fd3dfaa221eb", "type": "electric_scooter", "is_reserved": 0, "lon": -77.04090633333334}, {"fusion_lat": 0.0, "name": "07fe177a7a171200ed91c471f693388a", "is_disabled": 0, "rental_uris": {"android": "https://dc.lft.to/lastmile_qr_scan", "ios": "https://dc.lft.to/lastmile_qr_scan"}, "fusion_lon": 0.0, "lat": 38.96668616666667, "bike_id": "07fe177a7a171200ed91c471f693388a", "type": "electric_scooter", "is_reserved": 0, "lon": -77.02556216666666}, {"fusion_lat": 0.0, "name": "dcb58b3718349b3fdb8e112ce12d883e", "is_disabled": 0, "rental_uris": {"android": "https://dc.lft.to/lastmile_qr_scan", "ios": "https://dc.lft.to/lastmile_qr_scan"}, "fusion_lon": 0.0, "lat": 38.902423666666664, "bike_id": "dcb58b3718349b3fdb8e112ce12d883e", "type": "electric_scooter", "is_reserved": 0, "lon": -77.00356016666667}, {"fusion_lat": 0.0, "name": "6993a683c4032d63c9f87f6fa0a732a7", "is_disabled": 0, "rental_uris": {"android": "https://dc.lft.to/lastmile_qr_scan", "ios": "https://dc.lft.to/lastmile_qr_scan"}, "fusion_lon": 0.0, "lat": 38.9034975, "bike_id": "6993a683c4032d63c9f87f6fa0a732a7", "type": "electric_scooter", "is_reserved": 0, "lon": -77.06660016666666}, {"fusion_lat": 0.0, "name": "3675001540f38773b8d8512d5b63679f", "is_disabled": 0, "rental_uris": {"android": "https://dc.lft.to/lastmile_qr_scan", "ios": "https://dc.lft.to/lastmile_qr_scan"}, "fusion_lon": 0.0, "lat": 38.89669383333333, "bike_id": "3675001540f38773b8d8512d5b63679f", "type": "electric_scooter", "is_reserved": 0, "lon": -77.0055505}, {"fusion_lat": 0.0, "name": "cb7e83d73784e241ebfadcd51ea8ca1b", "is_disabled": 0, "rental_uris": {"android": "https://dc.lft.to/lastmile_qr_scan", "ios": "https://dc.lft.to/lastmile_qr_scan"},