{"data": {"bikes": [{"is_disabled": 0, "fusion_lat": 0.0, "lat": 38.895588000000004, "type": "electric_scooter", "lon": -76.93078733333333, "is_reserved": 0, "fusion_lon": 0.0, "bike_id": "9c28f0852d557b78e3e35c96c4a1f8dd", "name": "9c28f0852d557b78e3e35c96c4a1f8dd", "rental_uris": {"ios": "https://dc.lft.to/lastmile_qr_scan", "android": "https://dc.lft.to/lastmile_qr_scan"}}, {"is_disabled": 0, "fusion_lat": 0.0, "lat": 38.919164, "type": "electric_scooter", "lon": -77.03180783333333, "is_reserved": 0, "fusion_lon": 0.0, "bike_id": "dad7925a763935b6dc89d288a40c1314", "name": "dad7925a763935b6dc89d288a40c1314", "rental_uris": {"ios": "https://dc.lft.to/lastmile_qr_scan", "android": "https://dc.lft.to/lastmile_qr_scan"}}, {"is_disabled": 0, "fusion_lat": 0.0, "lat": 38.895569, "type": "electric_scooter", "lon": -77.04675616666667, "is_reserved": 0, "fusion_lon": 0.0, "bike_id": "0e0bfa35026f4678fd9c41b6621ab091", "name": "0e0bfa35026f4678fd9c41b6621ab091", "rental_uris": {"ios": "https://dc.lft.to/lastmile_qr_scan", "android": "https://dc.lft.to/lastmile_qr_scan"}}, {"is_disabled": 0, "fusion_lat": 0.0, "lat": 38.923269166666664, "type": "electric_scooter", "lon": -77.05469183333334, "is_reserved": 0, "fusion_lon": 0.0, "bike_id": "ca7cc7e4d39d0124f7b26d94a5449e15", "name": "ca7cc7e4d39d0124f7b26d94a5449e15", "rental_uris": {"ios": "https://dc.lft.to/lastmile_qr_scan", "android": "https://dc.lft.to/lastmile_qr_scan"}}, {"is_disabled": 0, "fusion_lat": 0.0, "lat": 38.939634833333336, "type": "electric_bike", "lon": -77.36092133333334, "is_reserved": 0, "fusion_lon": 0.0, "bike_id": "def6ccd5b507ae167df7147a8aaa409a", "name": "def6ccd5b507ae167df7147a8aaa409a", "rental_uris": {"ios": "https://dc.lft.to/lastmile_qr_scan", "android": "https://dc.lft.to/lastmile_qr_scan"}}, {"is_disabled": 0, "fusion_lat": 0.0, "lat": 38.92749633333333, "type": "electric_scooter", "lon": -77.02487116666667, "is_reserved": 0, "fusion_lon": 0.0, "bike_id": "6defd83eb23f891f3b73cacfb152d5c8", "name": "6defd83eb23f891f3b73cacfb152d5c8", "rental_uris": {"ios": "https://dc.lft.to/lastmile_qr_scan", "android": "https://dc.lft.to/lastmile_qr_scan"}}, {"is_disabled": 0, "fusion_lat": 0.0, "lat": 38.95284683333333, "type": "electric_bike", "lon": -77.06869766666667, "is_reserved": 0, "fusion_lon": 0.0, "bike_id": "7abb2c684534243d6fae6bfa77a4a5cc", "name": "7abb2c684534243d6fae6bfa77a4a5cc", "rental_uris": {"ios": "https://dc.lft.to/lastmile_qr_scan", "android": "https://dc.lft.to/lastmile_qr_scan"}}, {"is_disabled": 0, "fusion_lat": 0.0, "lat": 38.90020416666667, "type": "electric_scooter", "lon": -77.002141, "is_reserved": 0, "fusion_lon": 0.0, "bike_id": "045015767880a5b9f411e12824bcc82e", "name": "045015767880a5b9f411e12824bcc82e", "rental_uris": {"ios": "https://dc.lft.to/lastmile_qr_scan", "android": "https://dc.lft.to/lastmile_qr_scan"}}, {"is_disabled": 0, "fusion_lat": 0.0, "lat": 38.92556583333333, "type": "electric_scooter", "lon": -77.037769, "is_reserved": 0, "fusion_lon": 0.0, "bike_id": "b7812035726dfae3089e8864a59cb26a", "name": "b7812035726dfae3089e8864a59cb26a", "rental_uris": {"ios": "https://dc.lft.to/lastmile_qr_scan", "android": "https://dc.lft.to/lastmile_qr_scan"}}, {"is_disabled": 0, "fusion_lat": 0.0, "lat": 38.919647166666664, "type": "electric_scooter", "lon": -77.039571, "is_reserved": 0, "fusion_lon": 0.0, "bike_id": "1a52680755b7e71ffac92a31a9118fb9", "name": "1a52680755b7e71ffac92a31a9118fb9", "rental_uris": {"ios": "https://dc.lft.to/lastmile_qr_scan", "android": "https://dc.lft.to/lastmile_qr_scan"}}, {"is_disabled": 0, "fusion_lat": 0.0, "lat": 38.90133066666667, "type": "electric_scooter", "lon": -77.04885816666666, "is_reserved": 0, "fusion_lon": 0.0, "bike_id": "b7264020df79ca558055b6748d7ceb89", "name": "b7264020df79ca558055b6748d7ceb89", "rental_uris": {"ios": "https://dc.lft.to/lastmile_qr_scan", "android": "https://dc.lft.to/lastmile_qr_scan"}}, {"is_disabled": 0, "fusion_lat": 0.0, "lat": 38.911121, "type": "electric_scooter", "lon": -76.99724316666666, "is_reserved": 0, "fusion_lon": 0.0, "bike_id": "71ebdcc6b7d507180b016285659a564a", "name": "71ebdcc6b7d507180b016285659a564a", "rental_uris": {"ios": "https://dc.lft.to/lastmile_qr_scan", "android": "https://dc.lft.to/lastmile_qr_scan"}}, {"is_disabled": 0, "fusion_lat": 0.0, "lat": 38.86068483333333, "type": "electric_bike", "lon": -77.05647416666666, "is_reserved": 0, "fusion_lon": 0.0, "bike_id": "45b10579995bc384927f20fd53efa2c1", "name": "45b10579995bc384927f20fd53efa2c1", "rental_uris": {"ios": "https://dc.lft.to/lastmile_qr_scan", "android": "https://dc.lft.to/lastmile_qr_scan"}}, {"is_disabled": 0, "fusion_lat": 0.0, "lat": 38.9198705, "type": "electric_scooter", "lon": -76.97309733333333, "is_reserved": 0, "fusion_lon": 0.0, "bike_id": "ce9cc2b0d66096c6fb071364b65bf44a", "name": "ce9cc2b0d66096c6fb071364b65bf44a", "rental_uris": {"ios": "https://dc.lft.to/lastmile_qr_scan", "android": "https://dc.lft.to/lastmile_qr_scan"}}, {"is_disabled": 0, "fusion_lat": 0.0, "lat": 38.81327533333334, "type": "electric_bike", "lon": -77.0509215, "is_reserved": 0, "fusion_lon": 0.0, "bike_id": "1da5a82c8b5d7a6419015a7f09138edf", "name": "1da5a82c8b5d7a6419015a7f09138edf", "rental_uris": {"ios": "https://dc.lft.to/lastmile_qr_scan", "android": "https://dc.lft.to/lastmile_qr_scan"}}, {"is_disabled": 0, "fusion_lat": 0.0, "lat": 38.919830166666664, "type": "electric_scooter", "lon": -77.04168366666667, "is_reserved": 0, "fusion_lon": 0.0, "bike_id": "f19370fc5deaad72e26fb56251a7de35", "name": "f19370fc5deaad72e26fb56251a7de35", "rental_uris": {"ios": "https://dc.lft.to/lastmile_qr_scan", "android": "https://dc.lft.to/lastmile_qr_scan"}}, {"is_disabled": 0, "fusion_lat": 0.0, "lat": 38.932522666666664, "type": "electric_bike", "lon": -76.997485, "is_reserved": 0, "fusion_lon": 0.0, "bike_id": "89aef9c3e629d3c208cd5c714e479b1b", "name": "89aef9c3e629d3c208cd5c714e479b1b", "rental_uris": {"ios": "https://dc.lft.to/lastmile_qr_scan", "android": "https://dc.lft.to/lastmile_qr_scan"}}, {"is_disabled": 0, "fusion_lat": 0.0, "lat": 38.914076, "type": "electric_scooter", "lon": -77.03153533333334, "is_reserved": 0, "fusion_lon": 0.0, "bike_id": "391d4579e36d6fde2bf7b99e6a9068ee", "name": "391d4579e36d6fde2bf7b99e6a9068ee", "rental_uris": {"ios": "https://dc.lft.to/lastmile_qr_scan", "android": "https://dc.lft.to/lastmile_qr_scan"}}, {"is_disabled": 0, "fusion_lat": 0.0, "lat": 38.914224, "type": "electric_scooter", "lon": -77.03257133333334, "is_reserved": 0, "fusion_lon": 0.0, "bike_id": "f30456d980c7c75d9f3e76562b17c664", "name": "f30456d980c7c75d9f3e76562b17c664", "rental_uris": {"ios": "https://dc.lft.to/lastmile_qr_scan", "android": "https://dc.lft.to/lastmile_qr_scan"}}, {"is_disabled": 0, "fusion_lat": 0.0, "lat": 38.893289833333334, "type": "electric_scooter", "lon": -76.92991066666667, "is_reserved": 0, "fusion_lon": 0.0, "bike_id": "8663d61c8de04395200144802b9638d7", "name": "8663d61c8de04395200144802b9638d7", "rental_uris": {"ios": "https://dc.lft.to/lastmile_qr_scan", "android": "https://dc.lft.to/lastmile_qr_scan"}}, {"is_disabled": 0, "fusion_lat": 0.0, "lat": 38.876248833333335, "type": "electric_scooter", "lon": -76.96524616666666, "is_reserved": 0, "fusion_lon": 0.0, "bike_id": "270155c13b4ea6399314616914936800", "name": "270155c13b4ea6399314616914936800", "rental_uris": {"ios": "https://dc.lft.to/lastmile_qr_scan", "android": "https://dc.lft.to/lastmile_qr_scan"}}, {"is_disabled": 0, "fusion_lat": 0.0, "lat": 38.921754, "type": "electric_scooter", "lon": -77.032079, "is_reserved": 0, "fusion_lon": 0.0, "bike_id": "ec4a5862e619aa8af4fd7030c0084c31", "name": "ec4a5862e619aa8af4fd7030c0084c31", "rental_uris": {"ios": "https://dc.lft.to/lastmile_qr_scan", "android": "https://dc.lft.to/lastmile_qr_scan"}}, {"is_disabled": 0, "fusion_lat": 0.0, "lat": 38.897324833333336, "type": "electric_scooter", "lon": -77.02468666666667, "is_reserved": 0, "fusion_lon": 0.0, "bike_id": "08ca813a8011a31c1fbfd2fa99ef7045", "name": "08ca813a8011a31c1fbfd2fa99ef7045", "rental_uris": {"ios": "https://dc.lft.to/lastmile_qr_scan", "android": "https://dc.lft.to/lastmile_qr_scan"}}, {"is_disabled": 0, "fusion_lat": 0.0, "lat": 38.905154333333336, "type": "electric_scooter", "lon": -76.98839983333333, "is_reserved": 0, "fusion_lon": 0.0, "bike_id": "a31f71c02a7aec60b12edfa64251069a", "name": "a31f71c02a7aec60b12edfa64251069a", "rental_uris": {"ios": "https://dc.lft.to/lastmile_qr_scan", "android": "https://dc.lft.to/lastmile_qr_scan"}}, {"is_disabled": 0, "fusion_lat": 0.0, "lat": 38.905076666666666, "type": "electric_scooter", "lon": -77.04765433333333, "is_reserved": 0, "fusion_lon": 0.0, "bike_id": "943ac8d6be5921a83bd52beda63a9c6c", "name": "943ac8d6be5921a83bd52beda63a9c6c", "rental_uris": {"ios": "https://dc.lft.to/lastmile_qr_scan", "android": "https://dc.lft.to/lastmile_qr_scan"}}, {"is_disabled": 0, "fusion_lat": 0.0, "lat": 38.90833883333333, "type": "electric_scooter", "lon": -77.04368366666667, "is_reserved": 0, "fusion_lon": 0.0, "bike_id": "be1d9e7467c6fd4f0eefbda4e0c81dde", "name": "be1d9e7467c6fd4f0eefbda4e0c81dde", "rental_uris": {"ios": "https://dc.lft.to/lastmile_qr_scan", "android": "https://dc.lft.to/lastmile_qr_scan"}}, {"is_disabled": 0, "fusion_lat": 0.0, "lat": 38.873776166666666, "type": "electric_scooter", "lon": -77.00083666666667, "is_reserved": 0, "fusion_lon": 0.0, "bike_id": "8caa05478ebe79fffd783c46d799b917", "name": "8caa05478ebe79fffd783c46d799b917", "rental_uris": {"ios": "https://dc.lft.to/lastmile_qr_scan", "android": "https://dc.lft.to/lastmile_qr_scan"}}, {"is_disabled": 0, "fusion_lat": 0.0, "lat": 38.91704433333334, "type": "electric_scooter", "lon": -77.0289305, "is_reserved": 0, "fusion_lon": 0.0, "bike_id": "9f8e2bb7098769bdcd4364f5c8f0adb2", "name": "9f8e2bb7098769bdcd4364f5c8f0adb2", "rental_uris": {"ios": "https://dc.lft.to/lastmile_qr_scan", "android": "https://dc.lft.to/lastmile_qr_scan"}}, {"is_disabled": 0, "fusion_lat": 0.0, "lat": 38.917869333333336, "type": "electric_scooter", "lon": -77.02311783333333, "is_reserved": 0, "fusion_lon": 0.0, "bike_id": "049de7932c769d8ca4e001883aa8aa98", "name": "049de7932c769d8ca4e001883aa8aa98", "rental_uris": {"ios": "https://dc.lft.to/lastmile_qr_scan", "android": "https://dc.lft.to/lastmile_qr_scan"}}, {"is_disabled": 0, "fusion_lat": 0.0, "lat": 38.9032115, "type": "electric_scooter", "lon": -77.051728, "is_reserved": 0, "fusion_lon": 0.0, "bike_id": "2cc5ec0ee69d820c6b6b2e2df5623461", "name": "2cc5ec0ee69d820c6b6b2e2df5623461", "rental_uris": {"ios": "https://dc.lft.to/lastmile_qr_scan", "android": "https://dc.lft.to/lastmile_qr_scan"}}, {"is_disabled": 0, "fusion_lat": 0.0, "lat": 38.924177, "type": "electric_scooter", "lon": -77.01943733333333, "is_reserved": 0, "fusion_lon": 0.0, "bike_id": "6b93654df9134a82f7007d5b1cc00bb4", "name": "6b93654df9134a82f7007d5b1cc00bb4", "rental_uris": {"ios": "https://dc.lft.to/lastmile_qr_scan", "android": "https://dc.lft.to/lastmile_qr_scan"}}, {"is_disabled": 0, "fusion_lat": 0.0, "lat": 38.898929833333334, "type": "electric_scooter", "lon": -76.93301966666667, "is_reserved": 0, "fusion_lon": 0.0, "bike_id": "8fb38b2938d4681541c76cb38c506a97", "name": "8fb38b2938d4681541c76cb38c506a97", "rental_uris": {"ios": "https://dc.lft.to/lastmile_qr_scan", "android": "https://dc.lft.to/lastmile_qr_scan"}}, {"is_disabled": 0, "fusion_lat": 0.0, "lat": 38.9097475, "type": "electric_scooter", "lon": -77.03192183333333, "is_reserved": 0, "fusion_lon": 0.0, "bike_id": "9fce2a8b6be8ad1e51fcc00f1b071cde", "name": "9fce2a8b6be8ad1e51fcc00f1b071cde", "rental_uris": {"ios": "https://dc.lft.to/lastmile_qr_scan", "android": "https://dc.lft.to/lastmile_qr_scan"}}, {"is_disabled": 0, "fusion_lat": 0.0, "lat": 38.8398735, "type": "electric_bike", "lon": -77.005687, "is_reserved": 0, "fusion_lon": 0.0, "bike_id": "9a89b3fa6e5a081bd12f2cebe05c1c8c", "name": "9a89b3fa6e5a081bd12f2cebe05c1c8c", "rental_uris": {"ios": "https://dc.lft.to/lastmile_qr_scan", "android": "https://dc.lft.to/lastmile_qr_scan"}}, {"is_disabled": 0, "fusion_lat": 0.0, "lat": 38.91989616666667, "type": "electric_scooter", "lon": -77.04156333333333, "is_reserved": 0, "fusion_lon": 0.0, "bike_id": "0592683000940529b2d5b717aef7d6df", "name": "0592683000940529b2d5b717aef7d6df", "rental_uris": {"ios": "https://dc.lft.to/lastmile_qr_scan", "android": "https://dc.lft.to/lastmile_qr_scan"}}, {"is_disabled": 0, "fusion_lat": 0.0, "lat": 38.866558, "type": "electric_scooter", "lon": -76.99013533333333, "is_reserved": 0, "fusion_lon": 0.0, "bike_id": "9296f6cfc0a186c9eac58e4b95ca626a", "name": "9296f6cfc0a186c9eac58e4b95ca626a", "rental_uris": {"ios": "https://dc.lft.to/lastmile_qr_scan", "android": "https://dc.lft.to/lastmile_qr_scan"}}, {"is_disabled": 0, "fusion_lat": 0.0, "lat": 38.899878, "type": "electric_scooter", "lon": -77.052349, "is_reserved": 0, "fusion_lon": 0.0, "bike_id": "09ef9774a96773e20729129ab4afca31", "name": "09ef9774a96773e20729129ab4afca31", "rental_uris": {"ios": "https://dc.lft.to/lastmile_qr_scan", "android": "https://dc.lft.to/lastmile_qr_scan"}}, {"is_disabled": 0, "fusion_lat": 0.0, "lat": 38.8813225, "type": "electric_bike", "lon": -76.9809295, "is_reserved": 0, "fusion_lon": 0.0, "bike_id": "4bd4b633cfa02b2a3a7c5d82674ab98c", "name": "4bd4b633cfa02b2a3a7c5d82674ab98c", "rental_uris": {"ios": "https://dc.lft.to/lastmile_qr_scan", "android": "https://dc.lft.to/lastmile_qr_scan"}}, {"is_disabled": 0, "fusion_lat": 0.0, "lat": 38.90776966666667, "type": "electric_scooter", "lon": -77.038316, "is_reserved": 0, "fusion_lon": 0.0, "bike_id": "5c764e7cd6e358b028e2756f5b879224", "name": "5c764e7cd6e358b028e2756f5b879224", "rental_uris": {"ios": "https://dc.lft.to/lastmile_qr_scan", "android": "https://dc.lft.to/lastmile_qr_scan"}}, {"is_disabled": 0, "fusion_lat": 0.0, "lat": 38.900848, "type": "electric_scooter", "lon": -77.03935433333334, "is_reserved": 0, "fusion_lon": 0.0, "bike_id": "ddb8029f79a92c67066aa6252266bfd5", "name": "ddb8029f79a92c67066aa6252266bfd5", "rental_uris": {"ios": "https://dc.lft.to/lastmile_qr_scan", "android": "https://dc.lft.to/lastmile_qr_scan"}}, {"is_disabled": 0, "fusion_lat": 0.0, "lat": 38.884499166666664, "type": "electric_scooter", "lon": -76.95097916666667, "is_reserved": 0, "fusion_lon": 0.0, "bike_id": "2d2525ae5503fd7466755ad023c72a35", "name": "2d2525ae5503fd7466755ad023c72a35", "rental_uris": {"ios": "https://dc.lft.to/lastmile_qr_scan", "android": "https://dc.lft.to/lastmile_qr_scan"}}, {"is_disabled": 0, "fusion_lat": 0.0, "lat": 38.917607833333335, "type": "electric_scooter", "lon": -77.03661666666666, "is_reserved": 0, "fusion_lon": 0.0, "bike_id": "c265fb495b635ac23a467d965828b590", "name": "c265fb495b635ac23a467d965828b590", "rental_uris": {"ios": "https://dc.lft.to/lastmile_qr_scan", "android": "https://dc.lft.to/lastmile_qr_scan"}}, {"is_disabled": 0, "fusion_lat": 0.0, "lat": 38.91693516666667, "type": "electric_scooter", "lon": -77.02595483333333, "is_reserved": 0, "fusion_lon": 0.0, "bike_id": "11b470d42a059c3e8587b70522273a5c", "name": "11b470d42a059c3e8587b70522273a5c", "rental_uris": {"ios": "https://dc.lft.to/lastmile_qr_scan", "android": "https://dc.lft.to/lastmile_qr_scan"}}, {"is_disabled": 0, "fusion_lat": 0.0, "lat": 38.9283505, "type": "electric_scooter", "lon": -77.01386916666667, "is_reserved": 0, "fusion_lon": 0.0, "bike_id": "f4e6f4a2070c5c2a8be138f65cc43f5e", "name": "f4e6f4a2070c5c2a8be138f65cc43f5e", "rental_uris": {"ios": "https://dc.lft.to/lastmile_qr_scan", "android": "https://dc.lft.to/lastmile_qr_scan"}}, {"is_disabled": 0, "fusion_lat": 0.0, "lat": 38.91559316666667, "type": "electric_scooter", "lon": -77.03038383333333, "is_reserved": 0, "fusion_lon": 0.0, "bike_id": "ef5fe85fa510fcef34dc01700ef597e3", "name": "ef5fe85fa510fcef34dc01700ef597e3", "rental_uris": {"ios": "https://dc.lft.to/lastmile_qr_scan", "android": "https://dc.lft.to/lastmile_qr_scan"}}, {"is_disabled": 0, "fusion_lat": 0.0, "lat": 38.896824, "type": "electric_scooter", "lon": -76.996251, "is_reserved": 0, "fusion_lon": 0.0, "bike_id": "acaeb6729722936f447790e21c94b632", "name": "acaeb6729722936f447790e21c94b632", "rental_uris": {"ios": "https://dc.lft.to/lastmile_qr_scan", "android": "https://dc.lft.to/lastmile_qr_scan"}}, {"is_disabled": 0, "fusion_lat": 0.0, "lat": 38.900703666666665, "type": "electric_scooter", "lon": -77.04650083333334, "is_reserved": 0, "fusion_lon": 0.0, "bike_id": "c1267cd737dc94e4593827b9979c296f", "name": "c1267cd737dc94e4593827b9979c296f", "rental_uris": {"ios": "https://dc.lft.to/lastmile_qr_scan", "android": "https://dc.lft.to/lastmile_qr_scan"}}, {"is_disabled": 0, "fusion_lat": 0.0, "lat": 38.853223666666665, "type": "electric_bike", "lon": -76.980052, "is_reserved": 0, "fusion_lon": 0.0, "bike_id": "535aa1db2fd0a0f4ad0974a97de64428", "name": "535aa1db2fd0a0f4ad0974a97de64428", "rental_uris": {"ios": "https://dc.lft.to/lastmile_qr_scan", "android": "https://dc.lft.to/lastmile_qr_scan"}}, {"is_disabled": 0, "fusion_lat": 0.0, "lat": 38.899146333333334, "type": "electric_scooter", "lon": -76.93378466666667, "is_reserved": 0, "fusion_lon": 0.0, "bike_id": "2fc72a79aa126442f11debad0100b401", "name": "2fc72a79aa126442f11debad0100b401", "rental_uris": {"ios": "https://dc.lft.to/lastmile_qr_scan", "android": "https://dc.lft.to/lastmile_qr_scan"}}, {"is_disabled": 0, "fusion_lat": 0.0, "lat": 38.89508266666667, "type": "electric_scooter", "lon": -77.0228845, "is_reserved": 0, "fusion_lon": 0.0, "bike_id": "a9f041e527d76c067df12da371efd3ac", "name": "a9f041e527d76c067df12da371efd3ac", "rental_uris": {"ios": "https://dc.lft.to/lastmile_qr_scan", "android": "https://dc.lft.to/lastmile_qr_scan"}}, {"is_disabled": 0, "fusion_lat": 0.0, "lat": 38.8610135, "type": "electric_scooter", "lon": -76.98333266666667, "is_reserved": 0, "fusion_lon": 0.0, "bike_id": "d9cc15302313dac3790ca9d7e5e55edc", "name": "d9cc15302313dac3790ca9d7e5e55edc", "rental_uris": {"ios": "https://dc.lft.to/lastmile_qr_scan", "android": "https://dc.lft.to/lastmile_qr_scan"}}, {"is_disabled": 0, "fusion_lat": 0.0, "lat": 38.919204666666666, "type": "electric_scooter", "lon": -77.03177433333333, "is_reserved": 0, "fusion_lon": 0.0, "bike_id": "b987aa173b9674539db5eb51c55782fe", "name": "b987aa173b9674539db5eb51c55782fe", "rental_uris": {"ios": "https://dc.lft.to/lastmile_qr_scan", "android": "https://dc.lft.to/lastmile_qr_scan"}}, {"is_disabled": 0, "fusion_lat": 0.0, "lat": 38.89197933333333, "type": "electric_scooter", "lon": -77.0310685, "is_reserved": 0, "fusion_lon": 0.0, "bike_id": "48fcea7a0678171b07824cdf229b522d", "name": "48fcea7a0678171b07824cdf229b522d", "rental_uris": {"ios": "https://dc.lft.to/lastmile_qr_scan", "android": "https://dc.lft.to/lastmile_qr_scan"}}, {"is_disabled": 0, "fusion_lat": 0.0, "lat": 38.931899333333334, "type": "electric_scooter", "lon": -77.02824983333333, "is_reserved": 0, "fusion_lon": 0.0, "bike_id": "822c3f0ae11463125d56148f8591621b", "name": "822c3f0ae11463125d56148f8591621b", "rental_uris": {"ios": "https://dc.lft.to/lastmile_qr_scan", "android": "https://dc.lft.to/lastmile_qr_scan"}}, {"is_disabled": 0, "fusion_lat": 0.0, "lat": 38.887687, "type": "electric_scooter", "lon": -77.02230216666666, "is_reserved": 0, "fusion_lon": 0.0, "bike_id": "f8e7f8aff6b07d21941df480f9c446f4", "name": "f8e7f8aff6b07d21941df480f9c446f4", "rental_uris": {"ios": "https://dc.lft.to/lastmile_qr_scan", "android": "https://dc.lft.to/lastmile_qr_scan"}}, {"is_disabled": 0, "fusion_lat": 0.0, "lat": 38.900603333333336, "type": "electric_scooter", "lon": -76.93389133333334, "is_reserved": 0, "fusion_lon": 0.0, "bike_id": "6c8bd14d137a79f4f98b5b7c85da6108", "name": "6c8bd14d137a79f4f98b5b7c85da6108", "rental_uris": {"ios": "https://dc.lft.to/lastmile_qr_scan", "android": "https://dc.lft.to/lastmile_qr_scan"}}, {"is_disabled": 0, "fusion_lat": 0.0, "lat": 38.91554566666667, "type": "electric_scooter", "lon": -77.030684, "is_reserved": 0, "fusion_lon": 0.0, "bike_id": "13c3665ed4c9b0bc9693df897d062a57", "name": "13c3665ed4c9b0bc9693df897d062a57", "rental_uris": {"ios": "https://dc.lft.to/lastmile_qr_scan", "android": "https://dc.lft.to/lastmile_qr_scan"}}, {"is_disabled": 0, "fusion_lat": 0.0, "lat": 39.0105045, "type": "electric_bike", "lon": -76.91104266666666, "is_reserved": 0, "fusion_lon": 0.0, "bike_id": "faa7e908bfe10051b071bd1015726d19", "name": "faa7e908bfe10051b071bd1015726d19", "rental_uris": {"ios": "https://dc.lft.to/lastmile_qr_scan", "android": "https://dc.lft.to/lastmile_qr_scan"}}, {"is_disabled": 0, "fusion_lat": 0.0, "lat": 38.92289533333334, "type": "electric_scooter", "lon": -77.0206415, "is_reserved": 0, "fusion_lon": 0.0, "bike_id": "e383868bddb4e006b2304482650d968f", "name": "e383868bddb4e006b2304482650d968f", "rental_uris": {"ios": "https://dc.lft.to/lastmile_qr_scan", "android": "https://dc.lft.to/lastmile_qr_scan"}}, {"is_disabled": 0, "fusion_lat": 0.0, "lat": 38.91936416666667, "type": "electric_scooter", "lon": -77.08133083333334, "is_reserved": 0, "fusion_lon": 0.0, "bike_id": "3bdb192cfbce750ca3396b7c94f72bf7", "name": "3bdb192cfbce750ca3396b7c94f72bf7", "rental_uris": {"ios": "https://dc.lft.to/lastmile_qr_scan", "android": "https://dc.lft.to/lastmile_qr_scan"}}, {"is_disabled": 0, "fusion_lat": 0.0, "lat": 38.907958, "type": "electric_scooter", "lon": -77.0239835, "is_reserved": 0, "fusion_lon": 0.0, "bike_id": "30db9f946641631ed895944c8272d80c", "name": "30db9f946641631ed895944c8272d80c", "rental_uris": {"ios": "https://dc.lft.to/lastmile_qr_scan", "android": "https://dc.lft.to/lastmile_qr_scan"}}, {"is_disabled": 0, "fusion_lat": 0.0, "lat": 38.884336166666664, "type": "electric_scooter", "lon": -76.95758783333333, "is_reserved": 0, "fusion_lon": 0.0, "bike_id": "1fe678dcbe8952c7dada2408dff04da1", "name": "1fe678dcbe8952c7dada2408dff04da1", "rental_uris": {"ios": "https://dc.lft.to/lastmile_qr_scan", "android": "https://dc.lft.to/lastmile_qr_scan"}}, {"is_disabled": 0, "fusion_lat": 0.0, "lat": 38.9027775, "type": "electric_scooter", "lon": -77.03845366666667, "is_reserved": 0, "fusion_lon": 0.0, "bike_id": "717c28d463f0019b99ea72d2f1c6207d", "name": "717c28d463f0019b99ea72d2f1c6207d", "rental_uris": {"ios": "https://dc.lft.to/lastmile_qr_scan", "android": "https://dc.lft.to/lastmile_qr_scan"}}, {"is_disabled": 0, "fusion_lat": 0.0, "lat": 38.887022333333334, "type": "electric_scooter", "lon": -77.03192033333333, "is_reserved": 0, "fusion_lon": 0.0, "bike_id": "3e67cf519be5235c9a25756a85d5cab5", "name": "3e67cf519be5235c9a25756a85d5cab5", "rental_uris": {"ios": "https://dc.lft.to/lastmile_qr_scan", "android": "https://dc.lft.to/lastmile_qr_scan"}}, {"is_disabled": 0, "fusion_lat": 0.0, "lat": 38.9261815, "type": "electric_scooter", "lon": -77.00557483333333, "is_reserved": 0, "fusion_lon": 0.0, "bike_id": "38998b1e1f121b737d606101bdb9f767", "name": "38998b1e1f121b737d606101bdb9f767", "rental_uris": {"ios": "https://dc.lft.to/lastmile_qr_scan", "android": "https://dc.lft.to/lastmile_qr_scan"}}, {"is_disabled": 0, "fusion_lat": 0.0, "lat": 38.922496333333335, "type": "electric_scooter", "lon": -77.03063166666666, "is_reserved": 0, "fusion_lon": 0.0, "bike_id": "8830eb471026ed08f2fc8c760654bc97", "name": "8830eb471026ed08f2fc8c760654bc97", "rental_uris": {"ios": "https://dc.lft.to/lastmile_qr_scan", "android": "https://dc.lft.to/lastmile_qr_scan"}}, {"is_disabled": 0, "fusion_lat": 0.0, "lat": 38.918776, "type": "electric_scooter", "lon": -76.97149666666667, "is_reserved": 0, "fusion_lon": 0.0, "bike_id": "801a8f6eadb554c7bbd99811e0d3c96b", "name": "801a8f6eadb554c7bbd99811e0d3c96b", "rental_uris": {"ios": "https://dc.lft.to/lastmile_qr_scan", "android": "https://dc.lft.to/lastmile_qr_scan"}}, {"is_disabled": 0, "fusion_lat": 0.0, "lat": 38.90502866666667, "type": "electric_scooter", "lon": -77.04500083333333, "is_reserved": 0, "fusion_lon": 0.0, "bike_id": "da3fc17882d63ef8172c2db2ad10e99e", "name": "da3fc17882d63ef8172c2db2ad10e99e", "rental_uris": {"ios": "https://dc.lft.to/lastmile_qr_scan", "android": "https://dc.lft.to/lastmile_qr_scan"}}, {"is_disabled": 0, "fusion_lat": 0.0, "lat": 38.8636365, "type": "electric_scooter", "lon": -76.99044616666667, "is_reserved": 0, "fusion_lon": 0.0, "bike_id": "8b4e77dad0c88dbc083f9b7dac497cda", "name": "8b4e77dad0c88dbc083f9b7dac497cda", "rental_uris": {"ios": "https://dc.lft.to/lastmile_qr_scan", "android": "https://dc.lft.to/lastmile_qr_scan"}}, {"is_disabled": 0, "fusion_lat": 0.0, "lat": 38.908537333333335, "type": "electric_scooter", "lon": -77.02453966666667, "is_reserved": 0, "fusion_lon": 0.0, "bike_id": "38601849e081a9721fffc4bf1bdfe851", "name": "38601849e081a9721fffc4bf1bdfe851", "rental_uris": {"ios": "https://dc.lft.to/lastmile_qr_scan", "android": "https://dc.lft.to/lastmile_qr_scan"}}, {"is_disabled": 0, "fusion_lat": 0.0, "lat": 38.946098, "type": "electric_scooter", "lon": -77.0351025, "is_reserved": 0, "fusion_lon": 0.0, "bike_id": "15046a7b3ba564d32c3cfe016ff6360d", "name": "15046a7b3ba564d32c3cfe016ff6360d", "rental_uris": {"ios": "https://dc.lft.to/lastmile_qr_scan", "android": "https://dc.lft.to/lastmile_qr_scan"}}, {"is_disabled": 0, "fusion_lat": 0.0, "lat": 38.899211333333334, "type": "electric_scooter", "lon": -77.05433033333334, "is_reserved": 0, "fusion_lon": 0.0, "bike_id": "62da755536128ea94c6e329b4cbaadc7", "name": "62da755536128ea94c6e329b4cbaadc7", "rental_uris": {"ios": "https://dc.lft.to/lastmile_qr_scan", "android": "https://dc.lft.to/lastmile_qr_scan"}}, {"is_disabled": 0, "fusion_lat": 0.0, "lat": 38.88281083333333, "type": "electric_scooter", "lon": -77.04152216666667, "is_reserved": 0, "fusion_lon": 0.0, "bike_id": "e7dd3a8551f956b3ded443acf10b9f11", "name": "e7dd3a8551f956b3ded443acf10b9f11", "rental_uris": {"ios": "https://dc.lft.to/lastmile_qr_scan", "android": "https://dc.lft.to/lastmile_qr_scan"}}, {"is_disabled": 0, "fusion_lat": 0.0, "lat": 38.874908, "type": "electric_scooter", "lon": -77.00188816666666, "is_reserved": 0, "fusion_lon": 0.0, "bike_id": "6e5cc7ef5d912c804d173e06f28612a8", "name": "6e5cc7ef5d912c804d173e06f28612a8", "rental_uris": {"ios": "https://dc.lft.to/lastmile_qr_scan", "android": "https://dc.lft.to/lastmile_qr_scan"}}, {"is_disabled": 0, "fusion_lat": 0.0, "lat": 38.898792666666665, "type": "electric_scooter", "lon": -76.93176233333334, "is_reserved": 0, "fusion_lon": 0.0, "bike_id": "2a7524840f089a3360d38a5708bdbb7c", "name": "2a7524840f089a3360d38a5708bdbb7c", "rental_uris": {"ios": "https://dc.lft.to/lastmile_qr_scan", "android": "https://dc.lft.to/lastmile_qr_scan"}}, {"is_disabled": 0, "fusion_lat": 0.0, "lat": 38.927558, "type": "electric_scooter", "lon": -77.00595916666667, "is_reserved": 0, "fusion_lon": 0.0, "bike_id": "997ab0edefa6d1d2629602ada23b5edc", "name": "997ab0edefa6d1d2629602ada23b5edc", "rental_uris": {"ios": "https://dc.lft.to/lastmile_qr_scan", "android": "https://dc.lft.to/lastmile_qr_scan"}}, {"is_disabled": 0, "fusion_lat": 0.0, "lat": 38.934890833333334, "type": "electric_scooter", "lon": -77.07271866666666, "is_reserved": 0, "fusion_lon": 0.0, "bike_id": "1583048cb2f8864bab0564d010c9129b", "name": "1583048cb2f8864bab0564d010c9129b", "rental_uris": {"ios": "https://dc.lft.to/lastmile_qr_scan", "android": "https://dc.lft.to/lastmile_qr_scan"}}, {"is_disabled": 0, "fusion_lat": 0.0, "lat": 38.90107416666667, "type": "electric_scooter", "lon": -77.04373783333334, "is_reserved": 0, "fusion_lon": 0.0, "bike_id": "4670fbfa44899364e37d9b10429833fb", "name": "4670fbfa44899364e37d9b10429833fb", "rental_uris": {"ios": "https://dc.lft.to/lastmile_qr_scan", "android": "https://dc.lft.to/lastmile_qr_scan"}}, {"is_disabled": 0, "fusion_lat": 0.0, "lat": 38.90365, "type": "electric_scooter", "lon": -77.04487783333333, "is_reserved": 0, "fusion_lon": 0.0, "bike_id": "43c93ab1f99e38ce6c8afd1c0ad5c69b", "name": "43c93ab1f99e38ce6c8afd1c0ad5c69b", "rental_uris": {"ios": "https://dc.lft.to/lastmile_qr_scan", "android": "https://dc.lft.to/lastmile_qr_scan"}}, {"is_disabled": 0, "fusion_lat": 0.0, "lat": 38.927424, "type": "electric_scooter", "lon": -77.02535633333333, "is_reserved": 0, "fusion_lon": 0.0, "bike_id": "3f860c32b4a796e6b882fa360c0aac6e", "name": "3f860c32b4a796e6b882fa360c0aac6e", "rental_uris": {"ios": "https://dc.lft.to/lastmile_qr_scan", "android": "https://dc.lft.to/lastmile_qr_scan"}}, {"is_disabled": 0, "fusion_lat": 0.0, "lat": 38.8982345, "type": "electric_scooter", "lon": -77.0333185, "is_reserved": 0, "fusion_lon": 0.0, "bike_id": "d6bb9d0f49e1b19345b38724e00dccfa", "name": "d6bb9d0f49e1b19345b38724e00dccfa", "rental_uris": {"ios": "https://dc.lft.to/lastmile_qr_scan", "android": "https://dc.lft.to/lastmile_qr_scan"}}, {"is_disabled": 0, "fusion_lat": 0.0, "lat": 38.91243, "type": "electric_scooter", "lon": -77.01624166666667, "is_reserved": 0, "fusion_lon": 0.0, "bike_id": "8614b6aa19e0e2057840526ba445b32e", "name": "8614b6aa19e0e2057840526ba445b32e", "rental_uris": {"ios": "https://dc.lft.to/lastmile_qr_scan", "android": "https://dc.lft.to/lastmile_qr_scan"}}, {"is_disabled": 0, "fusion_lat": 0.0, "lat": 38.9330925, "type": "electric_scooter", "lon": -77.029342, "is_reserved": 0, "fusion_lon": 0.0, "bike_id": "42d74327baeceda5d0ee84bb94fd376f", "name": "42d74327baeceda5d0ee84bb94fd376f", "rental_uris": {"ios": "https://dc.lft.to/lastmile_qr_scan", "android": "https://dc.lft.to/lastmile_qr_scan"}}, {"is_disabled": 0, "fusion_lat": 0.0, "lat": 38.892185, "type": "electric_scooter", "lon": -77.02634733333333, "is_reserved": 0, "fusion_lon": 0.0, "bike_id": "c2649737065ced1d005b885b688ff1a1", "name": "c2649737065ced1d005b885b688ff1a1", "rental_uris": {"ios": "https://dc.lft.to/lastmile_qr_scan", "android": "https://dc.lft.to/lastmile_qr_scan"}}, {"is_disabled": 0, "fusion_lat": 0.0, "lat": 38.90597566666667, "type": "electric_scooter", "lon": -77.03980616666666, "is_reserved": 0, "fusion_lon": 0.0, "bike_id": "5231897952b01b7456034d024e5bf72e", "name": "5231897952b01b7456034d024e5bf72e", "rental_uris": {"ios": "https://dc.lft.to/lastmile_qr_scan", "android": "https://dc.lft.to/lastmile_qr_scan"}}, {"is_disabled": 0, "fusion_lat": 0.0, "lat": 38.897212333333336, "type": "electric_scooter", "lon": -77.03124016666666, "is_reserved": 0, "fusion_lon": 0.0, "bike_id": "39914b08df2e5d52ad839877933dd001", "name": "39914b08df2e5d52ad839877933dd001", "rental_uris": {"ios": "https://dc.lft.to/lastmile_qr_scan", "android": "https://dc.lft.to/lastmile_qr_scan"}}, {"is_disabled": 0, "fusion_lat": 0.0, "lat": 38.92482483333333, "type": "electric_scooter", "lon": -77.0271905, "is_reserved": 0, "fusion_lon": 0.0, "bike_id": "487c69c6d7552ae64e42f727e3e4e86e", "name": "487c69c6d7552ae64e42f727e3e4e86e", "rental_uris": {"ios": "https://dc.lft.to/lastmile_qr_scan", "android": "https://dc.lft.to/lastmile_qr_scan"}}, {"is_disabled": 0, "fusion_lat": 0.0, "lat": 38.9051195, "type": "electric_scooter", "lon": -77.06871433333333, "is_reserved": 0, "fusion_lon": 0.0, "bike_id": "6643bd349191d3664383bf346b3eb1f4", "name": "6643bd349191d3664383bf346b3eb1f4", "rental_uris": {"ios": "https://dc.lft.to/lastmile_qr_scan", "android": "https://dc.lft.to/lastmile_qr_scan"}}, {"is_disabled": 0, "fusion_lat": 0.0, "lat": 38.91982633333333, "type": "electric_scooter", "lon": -77.0417285, "is_reserved": 0, "fusion_lon": 0.0, "bike_id": "13902266b9073e8e871dadba21fff3cb", "name": "13902266b9073e8e871dadba21fff3cb", "rental_uris": {"ios": "https://dc.lft.to/lastmile_qr_scan", "android": "https://dc.lft.to/lastmile_qr_scan"}}, {"is_disabled": 0, "fusion_lat": 0.0, "lat": 38.924767, "type": "electric_scooter", "lon": -77.02548833333333, "is_reserved": 0, "fusion_lon": 0.0, "bike_id": "3f9a8f42669dd8c4d507ce7f12b5ecc6", "name": "3f9a8f42669dd8c4d507ce7f12b5ecc6", "rental_uris": {"ios": "https://dc.lft.to/lastmile_qr_scan", "android": "https://dc.lft.to/lastmile_qr_scan"}}, {"is_disabled": 0, "fusion_lat": 0.0, "lat": 38.87842533333333, "type": "electric_scooter", "lon": -77.02267333333333, "is_reserved": 0, "fusion_lon": 0.0, "bike_id": "360125f08b527a0574d60edc3a47649d", "name": "360125f08b527a0574d60edc3a47649d", "rental_uris": {"ios": "https://dc.lft.to/lastmile_qr_scan", "android": "https://dc.lft.to/lastmile_qr_scan"}}, {"is_disabled": 0, "fusion_lat": 0.0, "lat": 38.90733916666667, "type": "electric_scooter", "lon": -77.04369466666667, "is_reserved": 0, "fusion_lon": 0.0, "bike_id": "701ae4df8521196ad0e5a0c5e9b8edbe", "name": "701ae4df8521196ad0e5a0c5e9b8edbe", "rental_uris": {"ios": "https://dc.lft.to/lastmile_qr_scan", "android": "https://dc.lft.to/lastmile_qr_scan"}}, {"is_disabled": 0, "fusion_lat": 0.0, "lat": 38.846114166666666, "type": "electric_bike", "lon": -76.97815883333334, "is_reserved": 0, "fusion_lon": 0.0, "bike_id": "58d6f9a6ee8f461268e55f051f8d52b8", "name": "58d6f9a6ee8f461268e55f051f8d52b8", "rental_uris": {"ios": "https://dc.lft.to/lastmile_qr_scan", "android": "https://dc.lft.to/lastmile_qr_scan"}}, {"is_disabled": 0, "fusion_lat": 0.0, "lat": 38.9035625, "type": "electric_scooter", "lon": -77.0387525, "is_reserved": 0, "fusion_lon": 0.0, "bike_id": "723365b9efcf4ae44c7487f0485e45d7", "name": "723365b9efcf4ae44c7487f0485e45d7", "rental_uris": {"ios": "https://dc.lft.to/lastmile_qr_scan", "android": "https://dc.lft.to/lastmile_qr_scan"}}, {"is_disabled": 0, "fusion_lat": 0.0, "lat": 38.903415, "type": "electric_scooter", "lon": -77.03463383333333, "is_reserved": 0, "fusion_lon": 0.0, "bike_id": "e84003cd304addedf578e3f3335bf194", "name": "e84003cd304addedf578e3f3335bf194", "rental_uris": {"ios": "https://dc.lft.to/lastmile_qr_scan", "android": "https://dc.lft.to/lastmile_qr_scan"}}, {"is_disabled": 0, "fusion_lat": 0.0, "lat": 38.90126433333333, "type": "electric_scooter", "lon": -76.9965935, "is_reserved": 0, "fusion_lon": 0.0, "bike_id": "8fc95062a3aa155c824320569405e575", "name": "8fc95062a3aa155c824320569405e575", "rental_uris": {"ios": "https://dc.lft.to/lastmile_qr_scan", "android": "https://dc.lft.to/lastmile_qr_scan"}}, {"is_disabled": 0, "fusion_lat": 0.0, "lat": 38.918938833333335, "type": "electric_scooter", "lon": -77.0415775, "is_reserved": 0, "fusion_lon": 0.0, "bike_id": "10d6456c272d9407ce8b24c71e1865a6", "name": "10d6456c272d9407ce8b24c71e1865a6", "rental_uris": {"ios": "https://dc.lft.to/lastmile_qr_scan", "android": "https://dc.lft.to/lastmile_qr_scan"}}, {"is_disabled": 0, "fusion_lat": 0.0, "lat": 38.91606683333333, "type": "electric_scooter", "lon": -77.045047, "is_reserved": 0, "fusion_lon": 0.0, "bike_id": "07af52126499735a73f417fe7ecef2fa", "name": "07af52126499735a73f417fe7ecef2fa", "rental_uris": {"ios": "https://dc.lft.to/lastmile_qr_scan", "android": "https://dc.lft.to/lastmile_qr_scan"}}, {"is_disabled": 0, "fusion_lat": 0.0, "lat": 39.058111833333335, "type": "electric_bike", "lon": -77.12625733333333, "is_reserved": 0, "fusion_lon": 0.0, "bike_id": "07ebe1376c6ee081b315f18bd42f8a9e", "name": "07ebe1376c6ee081b315f18bd42f8a9e", "rental_uris": {"ios": "https://dc.lft.to/lastmile_qr_scan", "android": "https://dc.lft.to/lastmile_qr_scan"}}, {"is_disabled": 0, "fusion_lat": 0.0, "lat": 38.923577333333334, "type": "electric_scooter", "lon": -77.0513455, "is_reserved": 0, "fusion_lon": 0.0, "bike_id": "bd28592a6937209fc5783694e8224693", "name": "bd28592a6937209fc5783694e8224693", "rental_uris": {"ios": "https://dc.lft.to/lastmile_qr_scan", "android": "https://dc.lft.to/lastmile_qr_scan"}}, {"is_disabled": 0, "fusion_lat": 0.0, "lat": 38.89624216666667, "type": "electric_scooter", "lon": -77.04051266666667, "is_reserved": 0, "fusion_lon": 0.0, "bike_id": "b0681443cf8e6ac26c01df8a2f458b84", "name": "b0681443cf8e6ac26c01df8a2f458b84", "rental_uris": {"ios": "https://dc.lft.to/lastmile_qr_scan", "android": "https://dc.lft.to/lastmile_qr_scan"}}, {"is_disabled": 0, "fusion_lat": 0.0, "lat": 38.895533, "type": "electric_scooter", "lon": -76.93043983333334, "is_reserved": 0, "fusion_lon": 0.0, "bike_id": "89aeab1d70a790a0f749e9998efe42d0", "name": "89aeab1d70a790a0f749e9998efe42d0", "rental_uris": {"ios": "https://dc.lft.to/lastmile_qr_scan", "android": "https://dc.lft.to/lastmile_qr_scan"}}, {"is_disabled": 0, "fusion_lat": 0.0, "lat": 38.9535395, "type": "electric_bike", "lon": -76.98093716666666, "is_reserved": 0, "fusion_lon": 0.0, "bike_id": "4284f1bb6728b477c24704f99fb91b55", "name": "4284f1bb6728b477c24704f99fb91b55", "rental_uris": {"ios": "https://dc.lft.to/lastmile_qr_scan", "android": "https://dc.lft.to/lastmile_qr_scan"}}, {"is_disabled": 0, "fusion_lat": 0.0, "lat": 38.920559, "type": "electric_scooter", "lon": -77.02433216666667, "is_reserved": 0, "fusion_lon": 0.0, "bike_id": "6df04b0e3a4eb07b7a09141e02ff57fd", "name": "6df04b0e3a4eb07b7a09141e02ff57fd", "rental_uris": {"ios": "https://dc.lft.to/lastmile_qr_scan", "android": "https://dc.lft.to/lastmile_qr_scan"}}, {"is_disabled": 0, "fusion_lat": 0.0, "lat": 38.846098833333336, "type": "electric_bike", "lon": -76.96908516666667, "is_reserved": 0, "fusion_lon": 0.0, "bike_id": "b0ef13cc9b1c02d3d73bdba2de9543d1", "name": "b0ef13cc9b1c02d3d73bdba2de9543d1", "rental_uris": {"ios": "https://dc.lft.to/lastmile_qr_scan", "android": "https://dc.lft.to/lastmile_qr_scan"}}, {"is_disabled": 0, "fusion_lat": 0.0, "lat": 38.915684, "type": "electric_scooter", "lon": -77.03203616666667, "is_reserved": 0, "fusion_lon": 0.0, "bike_id": "f1126b9130cd10c68a761913aabed1da", "name": "f1126b9130cd10c68a761913aabed1da", "rental_uris": {"ios": "https://dc.lft.to/lastmile_qr_scan", "android": "https://dc.lft.to/lastmile_qr_scan"}}, {"is_disabled": 0, "fusion_lat": 0.0, "lat": 38.909717666666666, "type": "electric_scooter", "lon": -77.038683, "is_reserved": 0, "fusion_lon": 0.0, "bike_id": "7a4d69cbbe8879ea2a425f803c378353", "name": "7a4d69cbbe8879ea2a425f803c378353", "rental_uris": {"ios": "https://dc.lft.to/lastmile_qr_scan", "android": "https://dc.lft.to/lastmile_qr_scan"}}, {"is_disabled": 0, "fusion_lat": 0.0, "lat": 38.844229, "type": "electric_scooter", "lon": -76.99779783333334, "is_reserved": 0, "fusion_lon": 0.0, "bike_id": "ebc6458808fb49704be42a8266b7ddeb", "name": "ebc6458808fb49704be42a8266b7ddeb", "rental_uris": {"ios": "https://dc.lft.to/lastmile_qr_scan", "android": "https://dc.lft.to/lastmile_qr_scan"}}, {"is_disabled": 0, "fusion_lat": 0.0, "lat": 38.892213166666664, "type": "electric_scooter", "lon": -77.0284385, "is_reserved": 0, "fusion_lon": 0.0, "bike_id": "9789d653c56662ac36cfcf3bab229719", "name": "9789d653c56662ac36cfcf3bab229719", "rental_uris": {"ios": "https://dc.lft.to/lastmile_qr_scan", "android": "https://dc.lft.to/lastmile_qr_scan"}}, {"is_disabled": 0, "fusion_lat": 0.0, "lat": 38.8022785, "type": "electric_bike", "lon": -77.079163, "is_reserved": 0, "fusion_lon": 0.0, "bike_id": "bdfd6ec2c3f68eb59e7548312b60585d", "name": "bdfd6ec2c3f68eb59e7548312b60585d", "rental_uris": {"ios": "https://dc.lft.to/lastmile_qr_scan", "android": "https://dc.lft.to/lastmile_qr_scan"}}, {"is_disabled": 0, "fusion_lat": 0.0, "lat": 38.906923666666664, "type": "electric_scooter", "lon": -77.06334416666667, "is_reserved": 0, "fusion_lon": 0.0, "bike_id": "c210ad6448aeb1f4a5922641f5e3e844", "name": "c210ad6448aeb1f4a5922641f5e3e844", "rental_uris": {"ios": "https://dc.lft.to/lastmile_qr_scan", "android": "https://dc.lft.to/lastmile_qr_scan"}}, {"is_disabled": 0, "fusion_lat": 0.0, "lat": 38.8899335, "type": "electric_scooter", "lon": -76.99512366666667, "is_reserved": 0, "fusion_lon": 0.0, "bike_id": "5a08f02666a6ef988890c8512cc77ace", "name": "5a08f02666a6ef988890c8512cc77ace", "rental_uris": {"ios": "https://dc.lft.to/lastmile_qr_scan", "android": "https://dc.lft.to/lastmile_qr_scan"}}, {"is_disabled": 0, "fusion_lat": 0.0, "lat": 38.915501666666664, "type": "electric_scooter", "lon": -77.04155733333333, "is_reserved": 0, "fusion_lon": 0.0, "bike_id": "992b20f8e580369297d96e60bb0ee345", "name": "992b20f8e580369297d96e60bb0ee345", "rental_uris": {"ios": "https://dc.lft.to/lastmile_qr_scan", "android": "https://dc.lft.to/lastmile_qr_scan"}}, {"is_disabled": 0, "fusion_lat": 0.0, "lat": 38.907673, "type": "electric_scooter", "lon": -77.02066783333333, "is_reserved": 0, "fusion_lon": 0.0, "bike_id": "00a037d86ad76349c55bd921d8f2288e", "name": "00a037d86ad76349c55bd921d8f2288e", "rental_uris": {"ios": "https://dc.lft.to/lastmile_qr_scan", "android": "https://dc.lft.to/lastmile_qr_scan"}}, {"is_disabled": 0, "fusion_lat": 0.0, "lat": 38.907762166666664, "type": "electric_bike", "lon": -76.9972295, "is_reserved": 0, "fusion_lon": 0.0, "bike_id": "9b4adf867f14504479099564e6d09d58", "name": "9b4adf867f14504479099564e6d09d58", "rental_uris": {"ios": "https://dc.lft.to/lastmile_qr_scan", "android": "https://dc.lft.to/lastmile_qr_scan"}}, {"is_disabled": 0, "fusion_lat": 0.0, "lat": 38.905073333333334, "type": "electric_scooter", "lon": -77.02949733333334, "is_reserved": 0, "fusion_lon": 0.0, "bike_id": "dc3bfc3f4d183003650546b67d02eb65", "name": "dc3bfc3f4d183003650546b67d02eb65", "rental_uris": {"ios": "https://dc.lft.to/lastmile_qr_scan", "android": "https://dc.lft.to/lastmile_qr_scan"}}, {"is_disabled": 0, "fusion_lat": 0.0, "lat": 38.909439, "type": "electric_scooter", "lon": -77.04479266666667, "is_reserved": 0, "fusion_lon": 0.0, "bike_id": "f69afcae4bf817357e6f946eae3c18b4", "name": "f69afcae4bf817357e6f946eae3c18b4", "rental_uris": {"ios": "https://dc.lft.to/lastmile_qr_scan", "android": "https://dc.lft.to/lastmile_qr_scan"}}, {"is_disabled": 0, "fusion_lat": 0.0, "lat": 38.902113, "type": "electric_scooter", "lon": -77.023764, "is_reserved": 0, "fusion_lon": 0.0, "bike_id": "cfab75a5cd650d093d6033e5fecedd4d", "name": "cfab75a5cd650d093d6033e5fecedd4d", "rental_uris": {"ios": "https://dc.lft.to/lastmile_qr_scan", "android": "https://dc.lft.to/lastmile_qr_scan"}}, {"is_disabled": 0, "fusion_lat": 0.0, "lat": 38.90685833333333, "type": "electric_bike", "lon": -76.95190483333333, "is_reserved": 0, "fusion_lon": 0.0, "bike_id": "4531bb234d6c1e609feff9a8b2f195cb", "name": "4531bb234d6c1e609feff9a8b2f195cb", "rental_uris": {"ios": "https://dc.lft.to/lastmile_qr_scan", "android": "https://dc.lft.to/lastmile_qr_scan"}}, {"is_disabled": 0, "fusion_lat": 0.0, "lat": 38.86250316666667, "type": "electric_scooter", "lon": -76.98700633333333, "is_reserved": 0, "fusion_lon": 0.0, "bike_id": "ecaa261c17c408bc78e8e7fad59ca479", "name": "ecaa261c17c408bc78e8e7fad59ca479", "rental_uris": {"ios": "https://dc.lft.to/lastmile_qr_scan", "android": "https://dc.lft.to/lastmile_qr_scan"}}, {"is_disabled": 0, "fusion_lat": 0.0, "lat": 38.86617283333333, "type": "electric_scooter", "lon": -76.9865365, "is_reserved": 0, "fusion_lon": 0.0, "bike_id": "3c149584b286b98853bcdcaae35840a5", "name": "3c149584b286b98853bcdcaae35840a5", "rental_uris": {"ios": "https://dc.lft.to/lastmile_qr_scan", "android": "https://dc.lft.to/lastmile_qr_scan"}}, {"is_disabled": 0, "fusion_lat": 0.0, "lat": 38.865267, "type": "electric_scooter", "lon": -76.990274, "is_reserved": 0, "fusion_lon": 0.0, "bike_id": "896227c2d2bfd0d8f6f8de4ca736e2ef", "name": "896227c2d2bfd0d8f6f8de4ca736e2ef", "rental_uris": {"ios": "https://dc.lft.to/lastmile_qr_scan", "android": "https://dc.lft.to/lastmile_qr_scan"}}, {"is_disabled": 0, "fusion_lat": 0.0, "lat": 38.918084, "type": "electric_scooter", "lon": -77.0101825, "is_reserved": 0, "fusion_lon": 0.0, "bike_id": "6e7068e4c91b4f0e9edfc1b509de05b9", "name": "6e7068e4c91b4f0e9edfc1b509de05b9", "rental_uris": {"ios": "https://dc.lft.to/lastmile_qr_scan", "android": "https://dc.lft.to/lastmile_qr_scan"}}, {"is_disabled": 0, "fusion_lat": 0.0, "lat": 38.95272283333333, "type": "electric_bike", "lon": -77.06980766666666, "is_reserved": 0, "fusion_lon": 0.0, "bike_id": "2b6f44360bb280df0d09aa26932f1310", "name": "2b6f44360bb280df0d09aa26932f1310", "rental_uris": {"ios": "https://dc.lft.to/lastmile_qr_scan", "android": "https://dc.lft.to/lastmile_qr_scan"}}, {"is_disabled": 0, "fusion_lat": 0.0, "lat": 38.902001166666665, "type": "electric_scooter", "lon": -77.0237625, "is_reserved": 0, "fusion_lon": 0.0, "bike_id": "6d8514912808299235246878880be75f", "name": "6d8514912808299235246878880be75f", "rental_uris": {"ios": "https://dc.lft.to/lastmile_qr_scan", "android": "https://dc.lft.to/lastmile_qr_scan"}}, {"is_disabled": 0, "fusion_lat": 0.0, "lat": 38.939083833333335, "type": "electric_scooter", "lon": -77.06035683333333, "is_reserved": 0, "fusion_lon": 0.0, "bike_id": "3a3a1e39b621e1049c30c1be9eea6d72", "name": "3a3a1e39b621e1049c30c1be9eea6d72", "rental_uris": {"ios": "https://dc.lft.to/lastmile_qr_scan", "android": "https://dc.lft.to/lastmile_qr_scan"}}, {"is_disabled": 0, "fusion_lat": 0.0, "lat": 38.892756166666665, "type": "electric_scooter", "lon": -77.05031833333334, "is_reserved": 0, "fusion_lon": 0.0, "bike_id": "1439e495685acfe047c68c75312cb0ba", "name": "1439e495685acfe047c68c75312cb0ba", "rental_uris": {"ios": "https://dc.lft.to/lastmile_qr_scan", "android": "https://dc.lft.to/lastmile_qr_scan"}}, {"is_disabled": 0, "fusion_lat": 0.0, "lat": 38.87648433333333, "type": "electric_scooter", "lon": -77.00417266666666, "is_reserved": 0, "fusion_lon": 0.0, "bike_id": "a1cf105189bcc37ac2e83bd11895d33b", "name": "a1cf105189bcc37ac2e83bd11895d33b", "rental_uris": {"ios": "https://dc.lft.to/lastmile_qr_scan", "android": "https://dc.lft.to/lastmile_qr_scan"}}, {"is_disabled": 0, "fusion_lat": 0.0, "lat": 38.919059, "type": "electric_scooter", "lon": -77.04630616666667, "is_reserved": 0, "fusion_lon": 0.0, "bike_id": "dbe690ea9fdd58ec02c1fdf5262ac4ac", "name": "dbe690ea9fdd58ec02c1fdf5262ac4ac", "rental_uris": {"ios": "https://dc.lft.to/lastmile_qr_scan", "android": "https://dc.lft.to/lastmile_qr_scan"}}, {"is_disabled": 0, "fusion_lat": 0.0, "lat": 38.939798, "type": "electric_scooter", "lon": -77.0314335, "is_reserved": 0, "fusion_lon": 0.0, "bike_id": "301417d5425ce1c29112ae1d61aab397", "name": "301417d5425ce1c29112ae1d61aab397", "rental_uris": {"ios": "https://dc.lft.to/lastmile_qr_scan", "android": "https://dc.lft.to/lastmile_qr_scan"}}, {"is_disabled": 0, "fusion_lat": 0.0, "lat": 38.9292315, "type": "electric_scooter", "lon": -77.03279266666667, "is_reserved": 0, "fusion_lon": 0.0, "bike_id": "7a74a7ed135fdc9f2b47ca2f47888073", "name": "7a74a7ed135fdc9f2b47ca2f47888073", "rental_uris": {"ios": "https://dc.lft.to/lastmile_qr_scan", "android": "https://dc.lft.to/lastmile_qr_scan"}}, {"is_disabled": 0, "fusion_lat": 0.0, "lat": 38.857895166666665, "type": "electric_bike", "lon": -77.09962866666666, "is_reserved": 0, "fusion_lon": 0.0, "bike_id": "ab7b78af7b59cc49d16428e4e0b48dac", "name": "ab7b78af7b59cc49d16428e4e0b48dac", "rental_uris": {"ios": "https://dc.lft.to/lastmile_qr_scan", "android": "https://dc.lft.to/lastmile_qr_scan"}}, {"is_disabled": 0, "fusion_lat": 0.0, "lat": 38.863737666666665, "type": "electric_scooter", "lon": -76.99063466666666, "is_reserved": 0, "fusion_lon": 0.0, "bike_id": "a67d45f084365f2e83d85908e95ef924", "name": "a67d45f084365f2e83d85908e95ef924", "rental_uris": {"ios": "https://dc.lft.to/lastmile_qr_scan", "android": "https://dc.lft.to/lastmile_qr_scan"}}, {"is_disabled": 0, "fusion_lat": 0.0, "lat": 38.9121355, "type": "electric_scooter", "lon": -77.038449, "is_reserved": 0, "fusion_lon": 0.0, "bike_id": "f89b2e18670f6d14248e1408e42eb13f", "name": "f89b2e18670f6d14248e1408e42eb13f", "rental_uris": {"ios": "https://dc.lft.to/lastmile_qr_scan", "android": "https://dc.lft.to/lastmile_qr_scan"}}, {"is_disabled": 0, "fusion_lat": 0.0, "lat": 38.90510166666667, "type": "electric_scooter", "lon": -77.04764583333333, "is_reserved": 0, "fusion_lon": 0.0, "bike_id": "41358985e8a85f45442dbb5bb5a9dfa9", "name": "41358985e8a85f45442dbb5bb5a9dfa9", "rental_uris": {"ios": "https://dc.lft.to/lastmile_qr_scan", "android": "https://dc.lft.to/lastmile_qr_scan"}}, {"is_disabled": 0, "fusion_lat": 0.0, "lat": 38.91271966666667, "type": "electric_scooter", "lon": -77.04509816666666, "is_reserved": 0, "fusion_lon": 0.0, "bike_id": "584987ec016b96ec0bb500627be19b80", "name": "584987ec016b96ec0bb500627be19b80", "rental_uris": {"ios": "https://dc.lft.to/lastmile_qr_scan", "android": "https://dc.lft.to/lastmile_qr_scan"}}, {"is_disabled": 0, "fusion_lat": 0.0, "lat": 38.906148, "type": "electric_scooter", "lon": -77.0395845, "is_reserved": 0, "fusion_lon": 0.0, "bike_id": "a4e689d0d6289b16cd8de637c74f1888", "name": "a4e689d0d6289b16cd8de637c74f1888", "rental_uris": {"ios": "https://dc.lft.to/lastmile_qr_scan", "android": "https://dc.lft.to/lastmile_qr_scan"}}, {"is_disabled": 0, "fusion_lat": 0.0, "lat": 38.90286916666667, "type": "electric_scooter", "lon": -77.03845766666667, "is_reserved": 0, "fusion_lon": 0.0, "bike_id": "fbe2b9d3b04664888bdd565596aded8b", "name": "fbe2b9d3b04664888bdd565596aded8b", "rental_uris": {"ios": "https://dc.lft.to/lastmile_qr_scan", "android": "https://dc.lft.to/lastmile_qr_scan"}}, {"is_disabled": 0, "fusion_lat": 0.0, "lat": 38.915446833333334, "type": "electric_scooter", "lon": -77.03843516666667, "is_reserved": 0, "fusion_lon": 0.0, "bike_id": "c374f0cd0b54246ae6d57a28eb950ad9", "name": "c374f0cd0b54246ae6d57a28eb950ad9", "rental_uris": {"ios": "https://dc.lft.to/lastmile_qr_scan", "android": "https://dc.lft.to/lastmile_qr_scan"}}, {"is_disabled": 0, "fusion_lat": 0.0, "lat": 38.921602666666665, "type": "electric_scooter", "lon": -77.0354745, "is_reserved": 0, "fusion_lon": 0.0, "bike_id": "7619c5120c939d0f85a4e63c605d68b2", "name": "7619c5120c939d0f85a4e63c605d68b2", "rental_uris": {"ios": "https://dc.lft.to/lastmile_qr_scan", "android": "https://dc.lft.to/lastmile_qr_scan"}}, {"is_disabled": 0, "fusion_lat": 0.0, "lat": 38.90975816666667, "type": "electric_scooter", "lon": -77.03378616666667, "is_reserved": 0, "fusion_lon": 0.0, "bike_id": "9f53a35932a43848e4a7389892be115a", "name": "9f53a35932a43848e4a7389892be115a", "rental_uris": {"ios": "https://dc.lft.to/lastmile_qr_scan", "android": "https://dc.lft.to/lastmile_qr_scan"}}, {"is_disabled": 0, "fusion_lat": 0.0, "lat": 38.920388, "type": "electric_scooter", "lon": -76.97907233333333, "is_reserved": 0, "fusion_lon": 0.0, "bike_id": "95d2add81e58cd53d1f59ce88fe834bd", "name": "95d2add81e58cd53d1f59ce88fe834bd", "rental_uris": {"ios": "https://dc.lft.to/lastmile_qr_scan", "android": "https://dc.lft.to/lastmile_qr_scan"}}, {"is_disabled": 0, "fusion_lat": 0.0, "lat": 38.9137385, "type": "electric_scooter", "lon": -77.019988, "is_reserved": 0, "fusion_lon": 0.0, "bike_id": "9ebed93364c28b5a956ed3c368faa78e", "name": "9ebed93364c28b5a956ed3c368faa78e", "rental_uris": {"ios": "https://dc.lft.to/lastmile_qr_scan", "android": "https://dc.lft.to/lastmile_qr_scan"}}, {"is_disabled": 0, "fusion_lat": 0.0, "lat": 38.903199666666666, "type": "electric_scooter", "lon": -77.03795666666667, "is_reserved": 0, "fusion_lon": 0.0, "bike_id": "788b44ad2f782a765f0db4e4e6019460", "name": "788b44ad2f782a765f0db4e4e6019460", "rental_uris": {"ios": "https://dc.lft.to/lastmile_qr_scan", "android": "https://dc.lft.to/lastmile_qr_scan"}}, {"is_disabled": 0, "fusion_lat": 0.0, "lat": 38.9138775, "type": "electric_scooter", "lon": -77.021996, "is_reserved": 0, "fusion_lon": 0.0, "bike_id": "62ab96b120ec6b9ffab930c21aa7d82e", "name": "62ab96b120ec6b9ffab930c21aa7d82e", "rental_uris": {"ios": "https://dc.lft.to/lastmile_qr_scan", "android": "https://dc.lft.to/lastmile_qr_scan"}}, {"is_disabled": 0, "fusion_lat": 0.0, "lat": 38.8948695, "type": "electric_scooter", "lon": -77.02179533333333, "is_reserved": 0, "fusion_lon": 0.0, "bike_id": "2eb87c906a8799f2ccd2c643cf146c67", "name": "2eb87c906a8799f2ccd2c643cf146c67", "rental_uris": {"ios": "https://dc.lft.to/lastmile_qr_scan", "android": "https://dc.lft.to/lastmile_qr_scan"}}, {"is_disabled": 0, "fusion_lat": 0.0, "lat": 38.905287333333334, "type": "electric_scooter", "lon": -77.0599775, "is_reserved": 0, "fusion_lon": 0.0, "bike_id": "2512d5e952c3df5c688901eda8d835f8", "name": "2512d5e952c3df5c688901eda8d835f8", "rental_uris": {"ios": "https://dc.lft.to/lastmile_qr_scan", "android": "https://dc.lft.to/lastmile_qr_scan"}}, {"is_disabled": 0, "fusion_lat": 0.0, "lat": 38.896672333333335, "type": "electric_scooter", "lon": -76.98828983333334, "is_reserved": 0, "fusion_lon": 0.0, "bike_id": "afa44162243a34307c7c8eb9d216245f", "name": "afa44162243a34307c7c8eb9d216245f", "rental_uris": {"ios": "https://dc.lft.to/lastmile_qr_scan", "android": "https://dc.lft.to/lastmile_qr_scan"}}, {"is_disabled": 0, "fusion_lat": 0.0, "lat": 38.8924745, "type": "electric_scooter", "lon": -77.027986, "is_reserved": 0, "fusion_lon": 0.0, "bike_id": "e05f6768574aca5d2270107309dc8aa3", "name": "e05f6768574aca5d2270107309dc8aa3", "rental_uris": {"ios": "https://dc.lft.to/lastmile_qr_scan", "android": "https://dc.lft.to/lastmile_qr_scan"}}, {"is_disabled": 0, "fusion_lat": 0.0, "lat": 38.91685616666667, "type": "electric_scooter", "lon": -77.02201933333333, "is_reserved": 0, "fusion_lon": 0.0, "bike_id": "93d653d0bc9ca43713acb968da3aeb53", "name": "93d653d0bc9ca43713acb968da3aeb53", "rental_uris": {"ios": "https://dc.lft.to/lastmile_qr_scan", "android": "https://dc.lft.to/lastmile_qr_scan"}}, {"is_disabled": 0, "fusion_lat": 0.0, "lat": 38.866303333333335, "type": "electric_scooter", "lon": -76.9871435, "is_reserved": 0, "fusion_lon": 0.0, "bike_id": "a505b7254ed99822405e7d7c6d150fd9", "name": "a505b7254ed99822405e7d7c6d150fd9", "rental_uris": {"ios": "https://dc.lft.to/lastmile_qr_scan", "android": "https://dc.lft.to/lastmile_qr_scan"}}, {"is_disabled": 0, "fusion_lat": 0.0, "lat": 38.921216, "type": "electric_scooter", "lon": -77.031836, "is_reserved": 0, "fusion_lon": 0.0, "bike_id": "349649a7158cdfc545ec3f2955ba59e4", "name": "349649a7158cdfc545ec3f2955ba59e4", "rental_uris": {"ios": "https://dc.lft.to/lastmile_qr_scan", "android": "https://dc.lft.to/lastmile_qr_scan"}}, {"is_disabled": 0, "fusion_lat": 0.0, "lat": 38.9008355, "type": "electric_scooter", "lon": -77.02528433333333, "is_reserved": 0, "fusion_lon": 0.0, "bike_id": "b9aac3e3b48e68da4549f8b78f102a13", "name": "b9aac3e3b48e68da4549f8b78f102a13", "rental_uris": {"ios": "https://dc.lft.to/lastmile_qr_scan", "android": "https://dc.lft.to/lastmile_qr_scan"}}, {"is_disabled": 0, "fusion_lat": 0.0, "lat": 38.9563245, "type": "electric_bike", "lon": -76.9388615, "is_reserved": 0, "fusion_lon": 0.0, "bike_id": "94301e317bddba28f2cd95a24ea207b0", "name": "94301e317bddba28f2cd95a24ea207b0", "rental_uris": {"ios": "https://dc.lft.to/lastmile_qr_scan", "android": "https://dc.lft.to/lastmile_qr_scan"}}, {"is_disabled": 0, "fusion_lat": 0.0, "lat": 38.91470666666667, "type": "electric_scooter", "lon": -77.03186183333334, "is_reserved": 0, "fusion_lon": 0.0, "bike_id": "3f82901dc37627dd5ba7e9fa4e136643", "name": "3f82901dc37627dd5ba7e9fa4e136643", "rental_uris": {"ios": "https://dc.lft.to/lastmile_qr_scan", "android": "https://dc.lft.to/lastmile_qr_scan"}}, {"is_disabled": 0, "fusion_lat": 0.0, "lat": 38.89847816666666, "type": "electric_scooter", "lon": -77.03942933333333, "is_reserved": 0, "fusion_lon": 0.0, "bike_id": "52bcdafd54f7f573d9db6527d4170942", "name": "52bcdafd54f7f573d9db6527d4170942", "rental_uris": {"ios": "https://dc.lft.to/lastmile_qr_scan", "android": "https://dc.lft.to/lastmile_qr_scan"}}, {"is_disabled": 0, "fusion_lat": 0.0, "lat": 38.900175833333336, "type": "electric_scooter", "lon": -77.01216583333333, "is_reserved": 0, "fusion_lon": 0.0, "bike_id": "a51b81a6b760271ae03fba72fc178cf3", "name": "a51b81a6b760271ae03fba72fc178cf3", "rental_uris": {"ios": "https://dc.lft.to/lastmile_qr_scan", "android": "https://dc.lft.to/lastmile_qr_scan"}}, {"is_disabled": 0, "fusion_lat": 0.0, "lat": 38.91787083333333, "type": "electric_scooter", "lon": -77.02323083333333, "is_reserved": 0, "fusion_lon": 0.0, "bike_id": "fcd8df63183a3c24449ab0d36457f59f", "name": "fcd8df63183a3c24449ab0d36457f59f", "rental_uris": {"ios": "https://dc.lft.to/lastmile_qr_scan", "android": "https://dc.lft.to/lastmile_qr_scan"}}, {"is_disabled": 0, "fusion_lat": 0.0, "lat": 38.929044166666664, "type": "electric_scooter", "lon": -77.0642365, "is_reserved": 0, "fusion_lon": 0.0, "bike_id": "c21e2d7361fbe72be8e6532ce086814e", "name": "c21e2d7361fbe72be8e6532ce086814e", "rental_uris": {"ios": "https://dc.lft.to/lastmile_qr_scan", "android": "https://dc.lft.to/lastmile_qr_scan"}}, {"is_disabled": 0, "fusion_lat": 0.0, "lat": 38.84269666666667, "type": "electric_bike", "lon": -76.9884345, "is_reserved": 0, "fusion_lon": 0.0, "bike_id": "43692019877e66ff1955a481352110ec", "name": "43692019877e66ff1955a481352110ec", "rental_uris": {"ios": "https://dc.lft.to/lastmile_qr_scan", "android": "https://dc.lft.to/lastmile_qr_scan"}}, {"is_disabled": 0, "fusion_lat": 0.0, "lat": 38.9002125, "type": "electric_scooter", "lon": -77.00863, "is_reserved": 0, "fusion_lon": 0.0, "bike_id": "a3acd30a8ba39cad81d5e0d60a293736", "name": "a3acd30a8ba39cad81d5e0d60a293736", "rental_uris": {"ios": "https://dc.lft.to/lastmile_qr_scan", "android": "https://dc.lft.to/lastmile_qr_scan"}}, {"is_disabled": 0, "fusion_lat": 0.0, "lat": 38.88502316666667, "type": "electric_scooter", "lon": -77.0056765, "is_reserved": 0, "fusion_lon": 0.0, "bike_id": "f1e3c4187967fb7d0d9432ce6cde0960", "name": "f1e3c4187967fb7d0d9432ce6cde0960", "rental_uris": {"ios": "https://dc.lft.to/lastmile_qr_scan", "android": "https://dc.lft.to/lastmile_qr_scan"}}, {"is_disabled": 0, "fusion_lat": 0.0, "lat": 38.944294, "type": "electric_scooter", "lon": -77.06307583333333, "is_reserved": 0, "fusion_lon": 0.0, "bike_id": "b06a678059f29518d99c63110a09f689", "name": "b06a678059f29518d99c63110a09f689", "rental_uris": {"ios": "https://dc.lft.to/lastmile_qr_scan", "android": "https://dc.lft.to/lastmile_qr_scan"}}, {"is_disabled": 0, "fusion_lat": 0.0, "lat": 38.86511, "type": "electric_bike", "lon": -76.97343016666667, "is_reserved": 0, "fusion_lon": 0.0, "bike_id": "34c589ff45a1c412c1bb8d54cc7fad54", "name": "34c589ff45a1c412c1bb8d54cc7fad54", "rental_uris": {"ios": "https://dc.lft.to/lastmile_qr_scan", "android": "https://dc.lft.to/lastmile_qr_scan"}}, {"is_disabled": 0, "fusion_lat": 0.0, "lat": 38.903661, "type": "electric_scooter", "lon": -77.026455, "is_reserved": 0, "fusion_lon": 0.0, "bike_id": "fbfe7c668bd231d03f3767129596e3a4", "name": "fbfe7c668bd231d03f3767129596e3a4", "rental_uris": {"ios": "https://dc.lft.to/lastmile_qr_scan", "android": "https://dc.lft.to/lastmile_qr_scan"}}, {"is_disabled": 0, "fusion_lat": 0.0, "lat": 38.892801166666665, "type": "electric_scooter", "lon": -77.02597083333333, "is_reserved": 0, "fusion_lon": 0.0, "bike_id": "0d7ed905e846cca373edaa5cee01ee71", "name": "0d7ed905e846cca373edaa5cee01ee71", "rental_uris": {"ios": "https://dc.lft.to/lastmile_qr_scan", "android": "https://dc.lft.to/lastmile_qr_scan"}}, {"is_disabled": 0, "fusion_lat": 0.0, "lat": 38.90561983333333, "type": "electric_scooter", "lon": -77.0487435, "is_reserved": 0, "fusion_lon": 0.0, "bike_id": "1b0cdf576b7f12264cfd97eba53ef327", "name": "1b0cdf576b7f12264cfd97eba53ef327", "rental_uris": {"ios": "https://dc.lft.to/lastmile_qr_scan", "android": "https://dc.lft.to/lastmile_qr_scan"}}, {"is_disabled": 0, "fusion_lat": 0.0, "lat": 38.93937116666667, "type": "electric_scooter", "lon": -77.06109533333333, "is_reserved": 0, "fusion_lon": 0.0, "bike_id": "22186ec677f779cdd309735599dc2f4a", "name": "22186ec677f779cdd309735599dc2f4a", "rental_uris": {"ios": "https://dc.lft.to/lastmile_qr_scan", "android": "https://dc.lft.to/lastmile_qr_scan"}}, {"is_disabled": 0, "fusion_lat": 0.0, "lat": 38.892201166666666, "type": "electric_scooter", "lon": -77.04633133333333, "is_reserved": 0, "fusion_lon": 0.0, "bike_id": "b1060a65e3d2d4ec98f73041d3ad175d", "name": "b1060a65e3d2d4ec98f73041d3ad175d", "rental_uris": {"ios": "https://dc.lft.to/lastmile_qr_scan", "android": "https://dc.lft.to/lastmile_qr_scan"}}, {"is_disabled": 0, "fusion_lat": 0.0, "lat": 38.86524166666667, "type": "electric_scooter", "lon": -76.9902965, "is_reserved": 0, "fusion_lon": 0.0, "bike_id": "57bdff60ac6bf93affbc6dbc692918db", "name": "57bdff60ac6bf93affbc6dbc692918db", "rental_uris": {"ios": "https://dc.lft.to/lastmile_qr_scan", "android": "https://dc.lft.to/lastmile_qr_scan"}}, {"is_disabled": 0, "fusion_lat": 0.0, "lat": 38.892245833333334, "type": "electric_scooter", "lon": -77.04867816666666, "is_reserved": 0, "fusion_lon": 0.0, "bike_id": "9ac938c0320afe548dea547034cf2cba", "name": "9ac938c0320afe548dea547034cf2cba", "rental_uris": {"ios": "https://dc.lft.to/lastmile_qr_scan", "android": "https://dc.lft.to/lastmile_qr_scan"}}, {"is_disabled": 0, "fusion_lat": 0.0, "lat": 38.86179833333333, "type": "electric_scooter", "lon": -76.994271, "is_reserved": 0, "fusion_lon": 0.0, "bike_id": "be5867242af3376ba898b69dd8039b6c", "name": "be5867242af3376ba898b69dd8039b6c", "rental_uris": {"ios": "https://dc.lft.to/lastmile_qr_scan", "android": "https://dc.lft.to/lastmile_qr_scan"}}, {"is_disabled": 0, "fusion_lat": 0.0, "lat": 38.909825833333336, "type": "electric_bike", "lon": -77.0343535, "is_reserved": 0, "fusion_lon": 0.0, "bike_id": "077d66600c61747cddac0a385f94b662", "name": "077d66600c61747cddac0a385f94b662", "rental_uris": {"ios": "https://dc.lft.to/lastmile_qr_scan", "android": "https://dc.lft.to/lastmile_qr_scan"}}, {"is_disabled": 0, "fusion_lat": 0.0, "lat": 38.902725833333335, "type": "electric_scooter", "lon": -77.0600165, "is_reserved": 0, "fusion_lon": 0.0, "bike_id": "8fdd44fdea4fb11da7c6f397db94f125", "name": "8fdd44fdea4fb11da7c6f397db94f125", "rental_uris": {"ios": "https://dc.lft.to/lastmile_qr_scan", "android": "https://dc.lft.to/lastmile_qr_scan"}}, {"is_disabled": 0, "fusion_lat": 0.0, "lat": 38.911098333333335, "type": "electric_scooter", "lon": -77.04497416666666, "is_reserved": 0, "fusion_lon": 0.0, "bike_id": "934fe59ca3dd1662b2e2c673885c1612", "name": "934fe59ca3dd1662b2e2c673885c1612", "rental_uris": {"ios": "https://dc.lft.to/lastmile_qr_scan", "android": "https://dc.lft.to/lastmile_qr_scan"}}, {"is_disabled": 0, "fusion_lat": 0.0, "lat": 38.91682516666667, "type": "electric_scooter", "lon": -77.01215116666667, "is_reserved": 0, "fusion_lon": 0.0, "bike_id": "a5bcc3bb93cd2b7dc3ca4f9f455f8ff4", "name": "a5bcc3bb93cd2b7dc3ca4f9f455f8ff4", "rental_uris": {"ios": "https://dc.lft.to/lastmile_qr_scan", "android": "https://dc.lft.to/lastmile_qr_scan"}}, {"is_disabled": 0, "fusion_lat": 0.0, "lat": 38.88738416666666, "type": "electric_scooter", "lon": -77.0153305, "is_reserved": 0, "fusion_lon": 0.0, "bike_id": "bf59c47786d0116b586993cb0ef06fa9", "name": "bf59c47786d0116b586993cb0ef06fa9", "rental_uris": {"ios": "https://dc.lft.to/lastmile_qr_scan", "android": "https://dc.lft.to/lastmile_qr_scan"}}, {"is_disabled": 0, "fusion_lat": 0.0, "lat": 38.90589516666667, "type": "electric_scooter", "lon": -77.01612683333333, "is_reserved": 0, "fusion_lon": 0.0, "bike_id": "5d7bea268914f258c6e4c1e13d8fe7f0", "name": "5d7bea268914f258c6e4c1e13d8fe7f0", "rental_uris": {"ios": "https://dc.lft.to/lastmile_qr_scan", "android": "https://dc.lft.to/lastmile_qr_scan"}}, {"is_disabled": 0, "fusion_lat": 0.0, "lat": 38.90415983333333, "type": "electric_scooter", "lon": -77.02450583333334, "is_reserved": 0, "fusion_lon": 0.0, "bike_id": "c53aa3510ccf09700106e10461fa22ac", "name": "c53aa3510ccf09700106e10461fa22ac", "rental_uris": {"ios": "https://dc.lft.to/lastmile_qr_scan", "android": "https://dc.lft.to/lastmile_qr_scan"}}, {"is_disabled": 0, "fusion_lat": 0.0, "lat": 38.892183333333335, "type": "electric_bike", "lon": -77.10780283333334, "is_reserved": 0, "fusion_lon": 0.0, "bike_id": "3934f894ac23a88f6d1130b87a18fc1c", "name": "3934f894ac23a88f6d1130b87a18fc1c", "rental_uris": {"ios": "https://dc.lft.to/lastmile_qr_scan", "android": "https://dc.lft.to/lastmile_qr_scan"}}, {"is_disabled": 0, "fusion_lat": 0.0, "lat": 38.9202155, "type": "electric_scooter", "lon": -77.0279625, "is_reserved": 0, "fusion_lon": 0.0, "bike_id": "429b5f63151acf91b64909f94c0cd2c7", "name": "429b5f63151acf91b64909f94c0cd2c7", "rental_uris": {"ios": "https://dc.lft.to/lastmile_qr_scan", "android": "https://dc.lft.to/lastmile_qr_scan"}}, {"is_disabled": 0, "fusion_lat": 0.0, "lat": 38.9003655, "type": "electric_scooter", "lon": -77.00536516666666, "is_reserved": 0, "fusion_lon": 0.0, "bike_id": "f78ae29a1e19566d1b52849ddf040098", "name": "f78ae29a1e19566d1b52849ddf040098", "rental_uris": {"ios": "https://dc.lft.to/lastmile_qr_scan", "android": "https://dc.lft.to/lastmile_qr_scan"}}, {"is_disabled": 0, "fusion_lat": 0.0, "lat": 38.9418425, "type": "electric_scooter", "lon": -77.0248575, "is_reserved": 0, "fusion_lon": 0.0, "bike_id": "7d52249b03d11c2b1f88b65a57b513af", "name": "7d52249b03d11c2b1f88b65a57b513af", "rental_uris": {"ios": "https://dc.lft.to/lastmile_qr_scan", "android": "https://dc.lft.to/lastmile_qr_scan"}}, {"is_disabled": 0, "fusion_lat": 0.0, "lat": 38.918048666666664, "type": "electric_scooter", "lon": -77.03340916666667, "is_reserved": 0, "fusion_lon": 0.0, "bike_id": "1ff47a7572a7207bb4ff5aceb298d2b0", "name": "1ff47a7572a7207bb4ff5aceb298d2b0", "rental_uris": {"ios": "https://dc.lft.to/lastmile_qr_scan", "android": "https://dc.lft.to/lastmile_qr_scan"}}, {"is_disabled": 0, "fusion_lat": 0.0, "lat": 38.8845905, "type": "electric_scooter", "lon": -77.0153385, "is_reserved": 0, "fusion_lon": 0.0, "bike_id": "f45269a8114d55aab049b379f7a130b7", "name": "f45269a8114d55aab049b379f7a130b7", "rental_uris": {"ios": "https://dc.lft.to/lastmile_qr_scan", "android": "https://dc.lft.to/lastmile_qr_scan"}}, {"is_disabled": 0, "fusion_lat": 0.0, "lat": 38.892206333333334, "type": "electric_scooter", "lon": -77.02137866666666, "is_reserved": 0, "fusion_lon": 0.0, "bike_id": "6054e1023e7357f97f52a9bf1f5f5b6b", "name": "6054e1023e7357f97f52a9bf1f5f5b6b", "rental_uris": {"ios": "https://dc.lft.to/lastmile_qr_scan", "android": "https://dc.lft.to/lastmile_qr_scan"}}, {"is_disabled": 0, "fusion_lat": 0.0, "lat": 38.90858633333333, "type": "electric_scooter", "lon": -77.0284825, "is_reserved": 0, "fusion_lon": 0.0, "bike_id": "b3899e497d82b1741e8b453bb19c8607", "name": "b3899e497d82b1741e8b453bb19c8607", "rental_uris": {"ios": "https://dc.lft.to/lastmile_qr_scan", "android": "https://dc.lft.to/lastmile_qr_scan"}}, {"is_disabled": 0, "fusion_lat": 0.0, "lat": 38.897312166666666, "type": "electric_scooter", "lon": -77.04894633333333, "is_reserved": 0, "fusion_lon": 0.0, "bike_id": "b049a206d7c22cb6be63ba38d7390ab4", "name": "b049a206d7c22cb6be63ba38d7390ab4", "rental_uris": {"ios": "https://dc.lft.to/lastmile_qr_scan", "android": "https://dc.lft.to/lastmile_qr_scan"}}, {"is_disabled": 0, "fusion_lat": 0.0, "lat": 38.90914933333333, "type": "electric_scooter", "lon": -77.08000083333333, "is_reserved": 0, "fusion_lon": 0.0, "bike_id": "99c81c93b3728e5bcba87e7453893f20", "name": "99c81c93b3728e5bcba87e7453893f20", "rental_uris": {"ios": "https://dc.lft.to/lastmile_qr_scan", "android": "https://dc.lft.to/lastmile_qr_scan"}}, {"is_disabled": 0, "fusion_lat": 0.0, "lat": 38.89221466666667, "type": "electric_scooter", "lon": -77.046546, "is_reserved": 0, "fusion_lon": 0.0, "bike_id": "c6cea7e3cbcaf7e34a3c18264c8ea852", "name": "c6cea7e3cbcaf7e34a3c18264c8ea852", "rental_uris": {"ios": "https://dc.lft.to/lastmile_qr_scan", "android": "https://dc.lft.to/lastmile_qr_scan"}}, {"is_disabled": 0, "fusion_lat": 0.0, "lat": 38.91803933333333, "type": "electric_scooter", "lon": -77.03296783333333, "is_reserved": 0, "fusion_lon": 0.0, "bike_id": "85e38b6d1a897b868d9dae06d2bf7a70", "name": "85e38b6d1a897b868d9dae06d2bf7a70", "rental_uris": {"ios": "https://dc.lft.to/lastmile_qr_scan", "android": "https://dc.lft.to/lastmile_qr_scan"}}, {"is_disabled": 0, "fusion_lat": 0.0, "lat": 38.9397, "type": "electric_scooter", "lon": -77.02894066666667, "is_reserved": 0, "fusion_lon": 0.0, "bike_id": "a44c0a14276cf5a361ece6077d0439b4", "name": "a44c0a14276cf5a361ece6077d0439b4", "rental_uris": {"ios": "https://dc.lft.to/lastmile_qr_scan", "android": "https://dc.lft.to/lastmile_qr_scan"}}, {"is_disabled": 0, "fusion_lat": 0.0, "lat": 38.924812833333334, "type": "electric_scooter", "lon": -77.02631983333333, "is_reserved": 0, "fusion_lon": 0.0, "bike_id": "3681b272a2c1e60e8adc07d0d2d1064d", "name": "3681b272a2c1e60e8adc07d0d2d1064d", "rental_uris": {"ios": "https://dc.lft.to/lastmile_qr_scan", "android": "https://dc.lft.to/lastmile_qr_scan"}}, {"is_disabled": 0, "fusion_lat": 0.0, "lat": 38.91298033333333, "type": "electric_scooter", "lon": -77.01965616666666, "is_reserved": 0, "fusion_lon": 0.0, "bike_id": "9bfdaa00ca54bd8ed43cfbd7fde2fe22", "name": "9bfdaa00ca54bd8ed43cfbd7fde2fe22", "rental_uris": {"ios": "https://dc.lft.to/lastmile_qr_scan", "android": "https://dc.lft.to/lastmile_qr_scan"}}, {"is_disabled": 0, "fusion_lat": 0.0, "lat": 38.919742, "type": "electric_bike", "lon": -77.0701305, "is_reserved": 0, "fusion_lon": 0.0, "bike_id": "a3a6ef187b3dfb7de4c583ac433802cc", "name": "a3a6ef187b3dfb7de4c583ac433802cc", "rental_uris": {"ios": "https://dc.lft.to/lastmile_qr_scan", "android": "https://dc.lft.to/lastmile_qr_scan"}}, {"is_disabled": 0, "fusion_lat": 0.0, "lat": 38.9171775, "type": "electric_scooter", "lon": -77.038386, "is_reserved": 0, "fusion_lon": 0.0, "bike_id": "1641e452424eaf5c668e66d8e3f5678c", "name": "1641e452424eaf5c668e66d8e3f5678c", "rental_uris": {"ios": "https://dc.lft.to/lastmile_qr_scan", "android": "https://dc.lft.to/lastmile_qr_scan"}}, {"is_disabled": 0, "fusion_lat": 0.0, "lat": 38.8874595, "type": "electric_scooter", "lon": -77.02573733333334, "is_reserved": 0, "fusion_lon": 0.0, "bike_id": "25879d069a9b52f0c3b62de557cfffa4", "name": "25879d069a9b52f0c3b62de557cfffa4", "rental_uris": {"ios": "https://dc.lft.to/lastmile_qr_scan", "android": "https://dc.lft.to/lastmile_qr_scan"}}, {"is_disabled": 0, "fusion_lat": 0.0, "lat": 38.9318845, "type": "electric_scooter", "lon": -77.0385425, "is_reserved": 0, "fusion_lon": 0.0, "bike_id": "ad4dd78ca35b026ff2162a58938f4dd9", "name": "ad4dd78ca35b026ff2162a58938f4dd9", "rental_uris": {"ios": "https://dc.lft.to/lastmile_qr_scan", "android": "https://dc.lft.to/lastmile_qr_scan"}}, {"is_disabled": 0, "fusion_lat": 0.0, "lat": 38.916950166666666, "type": "electric_scooter", "lon": -77.0460055, "is_reserved": 0, "fusion_lon": 0.0, "bike_id": "3555d78a3f59491dbe4029eee107cffc", "name": "3555d78a3f59491dbe4029eee107cffc", "rental_uris": {"ios": "https://dc.lft.to/lastmile_qr_scan", "android": "https://dc.lft.to/lastmile_qr_scan"}}, {"is_disabled": 0, "fusion_lat": 0.0, "lat": 38.8595525, "type": "electric_scooter", "lon": -76.99100916666667, "is_reserved": 0, "fusion_lon": 0.0, "bike_id": "58c3e039fb600a909d6addf407023e2d", "name": "58c3e039fb600a909d6addf407023e2d", "rental_uris": {"ios": "https://dc.lft.to/lastmile_qr_scan", "android": "https://dc.lft.to/lastmile_qr_scan"}}, {"is_disabled": 0, "fusion_lat": 0.0, "lat": 38.91445366666667, "type": "electric_scooter", "lon": -77.03845783333334, "is_reserved": 0, "fusion_lon": 0.0, "bike_id": "d63ec65fb5f69ab9d4b7a15e3c3e2cd6", "name": "d63ec65fb5f69ab9d4b7a15e3c3e2cd6", "rental_uris": {"ios": "https://dc.lft.to/lastmile_qr_scan", "android": "https://dc.lft.to/lastmile_qr_scan"}}, {"is_disabled": 0, "fusion_lat": 0.0, "lat": 38.908965333333335, "type": "electric_scooter", "lon": -77.08622116666666, "is_reserved": 0, "fusion_lon": 0.0, "bike_id": "63e42cbc126020e9ceed50e477db6e51", "name": "63e42cbc126020e9ceed50e477db6e51", "rental_uris": {"ios": "https://dc.lft.to/lastmile_qr_scan", "android": "https://dc.lft.to/lastmile_qr_scan"}}, {"is_disabled": 0, "fusion_lat": 0.0, "lat": 38.907272166666665, "type": "electric_scooter", "lon": -77.04271416666667, "is_reserved": 0, "fusion_lon": 0.0, "bike_id": "c2a1626f1778d86f0844ae2d717a098f", "name": "c2a1626f1778d86f0844ae2d717a098f", "rental_uris": {"ios": "https://dc.lft.to/lastmile_qr_scan", "android": "https://dc.lft.to/lastmile_qr_scan"}}, {"is_disabled": 0, "fusion_lat": 0.0, "lat": 38.90714583333333, "type": "electric_scooter", "lon": -77.04398483333334, "is_reserved": 0, "fusion_lon": 0.0, "bike_id": "6d96b53726d8c11e804ddd2e2a772b04", "name": "6d96b53726d8c11e804ddd2e2a772b04", "rental_uris": {"ios": "https://dc.lft.to/lastmile_qr_scan", "android": "https://dc.lft.to/lastmile_qr_scan"}}, {"is_disabled": 0, "fusion_lat": 0.0, "lat": 38.934901333333336, "type": "electric_scooter", "lon": -77.07254, "is_reserved": 0, "fusion_lon": 0.0, "bike_id": "07ae319b7f295669bd175449515ff280", "name": "07ae319b7f295669bd175449515ff280", "rental_uris": {"ios": "https://dc.lft.to/lastmile_qr_scan", "android": "https://dc.lft.to/lastmile_qr_scan"}}, {"is_disabled": 0, "fusion_lat": 0.0, "lat": 38.88424, "type": "electric_bike", "lon": -76.9808645, "is_reserved": 0, "fusion_lon": 0.0, "bike_id": "e1ec8c6e82a4dea3e0cc169577bd8465", "name": "e1ec8c6e82a4dea3e0cc169577bd8465", "rental_uris": {"ios": "https://dc.lft.to/lastmile_qr_scan", "android": "https://dc.lft.to/lastmile_qr_scan"}}, {"is_disabled": 0, "fusion_lat": 0.0, "lat": 38.90607383333333, "type": "electric_scooter", "lon": -77.05866983333334, "is_reserved": 0, "fusion_lon": 0.0, "bike_id": "3c9b5cfd0e528e019396c40033325b7f", "name": "3c9b5cfd0e528e019396c40033325b7f", "rental_uris": {"ios": "https://dc.lft.to/lastmile_qr_scan", "android": "https://dc.lft.to/lastmile_qr_scan"}}, {"is_disabled": 0, "fusion_lat": 0.0, "lat": 38.908151833333335, "type": "electric_scooter", "lon": -77.03941833333333, "is_reserved": 0, "fusion_lon": 0.0, "bike_id": "8bc06d9ed5c065fbae95f6d10b2264be", "name": "8bc06d9ed5c065fbae95f6d10b2264be", "rental_uris": {"ios": "https://dc.lft.to/lastmile_qr_scan", "android": "https://dc.lft.to/lastmile_qr_scan"}}, {"is_disabled": 0, "fusion_lat": 0.0, "lat": 38.9211875, "type": "electric_scooter", "lon": -77.01811216666667, "is_reserved": 0, "fusion_lon": 0.0, "bike_id": "c5d9f475a990e3c24f182620297aae96", "name": "c5d9f475a990e3c24f182620297aae96", "rental_uris": {"ios": "https://dc.lft.to/lastmile_qr_scan", "android": "https://dc.lft.to/lastmile_qr_scan"}}, {"is_disabled": 0, "fusion_lat": 0.0, "lat": 38.9174335, "type": "electric_scooter", "lon": -77.01097333333334, "is_reserved": 0, "fusion_lon": 0.0, "bike_id": "d3c63db11302ab15ead2fcfb5f9a16cc", "name": "d3c63db11302ab15ead2fcfb5f9a16cc", "rental_uris": {"ios": "https://dc.lft.to/lastmile_qr_scan", "android": "https://dc.lft.to/lastmile_qr_scan"}}, {"is_disabled": 0, "fusion_lat": 0.0, "lat": 38.914595166666665, "type": "electric_scooter", "lon": -77.036555, "is_reserved": 0, "fusion_lon": 0.0, "bike_id": "90d1cd02fcefdc8b19d614a14a1713be", "name": "90d1cd02fcefdc8b19d614a14a1713be", "rental_uris": {"ios": "https://dc.lft.to/lastmile_qr_scan", "android": "https://dc.lft.to/lastmile_qr_scan"}}, {"is_disabled": 0, "fusion_lat": 0.0, "lat": 38.923258833333335, "type": "electric_scooter", "lon": -77.03779683333333, "is_reserved": 0, "fusion_lon": 0.0, "bike_id": "55e29ebab16a2c9b2604f4fe9e56c755", "name": "55e29ebab16a2c9b2604f4fe9e56c755", "rental_uris": {"ios": "https://dc.lft.to/lastmile_qr_scan", "android": "https://dc.lft.to/lastmile_qr_scan"}}, {"is_disabled": 0, "fusion_lat": 0.0, "lat": 38.911109833333335, "type": "electric_scooter", "lon": -77.03828966666667, "is_reserved": 0, "fusion_lon": 0.0, "bike_id": "f5e6a1272792e9b766de59469b40edc4", "name": "f5e6a1272792e9b766de59469b40edc4", "rental_uris": {"ios": "https://dc.lft.to/lastmile_qr_scan", "android": "https://dc.lft.to/lastmile_qr_scan"}}, {"is_disabled": 0, "fusion_lat": 0.0, "lat": 38.90703633333333, "type": "electric_bike", "lon": -77.00342566666667, "is_reserved": 0, "fusion_lon": 0.0, "bike_id": "3edd919f5f7ab855b3b00774c2723a5b", "name": "3edd919f5f7ab855b3b00774c2723a5b", "rental_uris": {"ios": "https://dc.lft.to/lastmile_qr_scan", "android": "https://dc.lft.to/lastmile_qr_scan"}}, {"is_disabled": 0, "fusion_lat": 0.0, "lat": 38.9313295, "type": "electric_scooter", "lon": -77.03253483333333, "is_reserved": 0, "fusion_lon": 0.0, "bike_id": "e180854c2aa89f7bf4cfd75cf69dec4f", "name": "e180854c2aa89f7bf4cfd75cf69dec4f", "rental_uris": {"ios": "https://dc.lft.to/lastmile_qr_scan", "android": "https://dc.lft.to/lastmile_qr_scan"}}, {"is_disabled": 0, "fusion_lat": 0.0, "lat": 38.8826515, "type": "electric_scooter", "lon": -76.990021, "is_reserved": 0, "fusion_lon": 0.0, "bike_id": "5ec65763900636630de43942f7831679", "name": "5ec65763900636630de43942f7831679", "rental_uris": {"ios": "https://dc.lft.to/lastmile_qr_scan", "android": "https://dc.lft.to/lastmile_qr_scan"}}, {"is_disabled": 0, "fusion_lat": 0.0, "lat": 38.922150333333335, "type": "electric_scooter", "lon": -77.042496, "is_reserved": 0, "fusion_lon": 0.0, "bike_id": "415298ff4f4395862dde9ee827736135", "name": "415298ff4f4395862dde9ee827736135", "rental_uris": {"ios": "https://dc.lft.to/lastmile_qr_scan", "android": "https://dc.lft.to/lastmile_qr_scan"}}, {"is_disabled": 0, "fusion_lat": 0.0, "lat": 38.952693, "type": "electric_bike", "lon": -77.00196716666666, "is_reserved": 0, "fusion_lon": 0.0, "bike_id": "86cff40d67a25fdf7e1dbbc477a787a4", "name": "86cff40d67a25fdf7e1dbbc477a787a4", "rental_uris": {"ios": "https://dc.lft.to/lastmile_qr_scan", "android": "https://dc.lft.to/lastmile_qr_scan"}}, {"is_disabled": 0, "fusion_lat": 0.0, "lat": 38.93103766666667, "type": "electric_scooter", "lon": -77.0383555, "is_reserved": 0, "fusion_lon": 0.0, "bike_id": "4dfbef5a7c56bc0fcd0c949c4bb90390", "name": "4dfbef5a7c56bc0fcd0c949c4bb90390", "rental_uris": {"ios": "https://dc.lft.to/lastmile_qr_scan", "android": "https://dc.lft.to/lastmile_qr_scan"}}, {"is_disabled": 0, "fusion_lat": 0.0, "lat": 38.921259666666664, "type": "electric_scooter", "lon": -77.01797066666667, "is_reserved": 0, "fusion_lon": 0.0, "bike_id": "5d0dca9f6f5f0262639431d8f6d02d02", "name": "5d0dca9f6f5f0262639431d8f6d02d02", "rental_uris": {"ios": "https://dc.lft.to/lastmile_qr_scan", "android": "https://dc.lft.to/lastmile_qr_scan"}}, {"is_disabled": 0, "fusion_lat": 0.0, "lat": 38.90531566666667, "type": "electric_scooter", "lon": -77.02203483333334, "is_reserved": 0, "fusion_lon": 0.0, "bike_id": "f37b7097d3a4e2ca8485f67238ee4e4b", "name": "f37b7097d3a4e2ca8485f67238ee4e4b", "rental_uris": {"ios": "https://dc.lft.to/lastmile_qr_scan", "android": "https://dc.lft.to/lastmile_qr_scan"}}, {"is_disabled": 0, "fusion_lat": 0.0, "lat": 38.901311666666665, "type": "electric_scooter", "lon": -77.002797, "is_reserved": 0, "fusion_lon": 0.0, "bike_id": "e12584bcde8c3974347dd8b20f98c441", "name": "e12584bcde8c3974347dd8b20f98c441", "rental_uris": {"ios": "https://dc.lft.to/lastmile_qr_scan", "android": "https://dc.lft.to/lastmile_qr_scan"}}, {"is_disabled": 0, "fusion_lat": 0.0, "lat": 38.849304000000004, "type": "electric_bike", "lon": -77.10021383333333, "is_reserved": 0, "fusion_lon": 0.0, "bike_id": "843e0c99cd5d73addffbe889ffe6d3c2", "name": "843e0c99cd5d73addffbe889ffe6d3c2", "rental_uris": {"ios": "https://dc.lft.to/lastmile_qr_scan", "android": "https://dc.lft.to/lastmile_qr_scan"}}, {"is_disabled": 0, "fusion_lat": 0.0, "lat": 38.8661665, "type": "electric_scooter", "lon": -76.98692883333334, "is_reserved": 0, "fusion_lon": 0.0, "bike_id": "41717b660df76a327cb0ad67034ae89c", "name": "41717b660df76a327cb0ad67034ae89c", "rental_uris": {"ios": "https://dc.lft.to/lastmile_qr_scan", "android": "https://dc.lft.to/lastmile_qr_scan"}}, {"is_disabled": 0, "fusion_lat": 0.0, "lat": 38.842739, "type": "electric_bike", "lon": -76.98844766666667, "is_reserved": 0, "fusion_lon": 0.0, "bike_id": "fac6b8455ba8c6e8fafe06b0c031ae8c", "name": "fac6b8455ba8c6e8fafe06b0c031ae8c", "rental_uris": {"ios": "https://dc.lft.to/lastmile_qr_scan", "android": "https://dc.lft.to/lastmile_qr_scan"}}, {"is_disabled": 0, "fusion_lat": 0.0, "lat": 38.893733166666664, "type": "electric_scooter", "lon": -76.9499925, "is_reserved": 0, "fusion_lon": 0.0, "bike_id": "0b93e1c992d52d37d2be1cb24530e5f8", "name": "0b93e1c992d52d37d2be1cb24530e5f8", "rental_uris": {"ios": "https://dc.lft.to/lastmile_qr_scan", "android": "https://dc.lft.to/lastmile_qr_scan"}}, {"is_disabled": 0, "fusion_lat": 0.0, "lat": 38.842927833333334, "type": "electric_scooter", "lon": -76.99951016666667, "is_reserved": 0, "fusion_lon": 0.0, "bike_id": "e7a6990546b62fcb3f77bc02aa7b7f86", "name": "e7a6990546b62fcb3f77bc02aa7b7f86", "rental_uris": {"ios": "https://dc.lft.to/lastmile_qr_scan", "android": "https://dc.lft.to/lastmile_qr_scan"}}, {"is_disabled": 0, "fusion_lat": 0.0, "lat": 38.91882233333333, "type": "electric_scooter", "lon": -77.02968916666667, "is_reserved": 0, "fusion_lon": 0.0, "bike_id": "6e0618ee88e440c1f0112e0f2798b3a7", "name": "6e0618ee88e440c1f0112e0f2798b3a7", "rental_uris": {"ios": "https://dc.lft.to/lastmile_qr_scan", "android": "https://dc.lft.to/lastmile_qr_scan"}}, {"is_disabled": 0, "fusion_lat": 0.0, "lat": 38.90709566666666, "type": "electric_scooter", "lon": -77.0434315, "is_reserved": 0, "fusion_lon": 0.0, "bike_id": "a01a37b2780ffaacf365cdac228566e9", "name": "a01a37b2780ffaacf365cdac228566e9", "rental_uris": {"ios": "https://dc.lft.to/lastmile_qr_scan", "android": "https://dc.lft.to/lastmile_qr_scan"}}, {"is_disabled": 0, "fusion_lat": 0.0, "lat": 38.930862166666664, "type": "electric_scooter", "lon": -77.03749183333333, "is_reserved": 0, "fusion_lon": 0.0, "bike_id": "a99e4a7e792ed293a6930719686116b9", "name": "a99e4a7e792ed293a6930719686116b9", "rental_uris": {"ios": "https://dc.lft.to/lastmile_qr_scan", "android": "https://dc.lft.to/lastmile_qr_scan"}}, {"is_disabled": 0, "fusion_lat": 0.0, "lat": 38.905524666666665, "type": "electric_scooter", "lon": -77.03806966666667, "is_reserved": 0, "fusion_lon": 0.0, "bike_id": "0dfba355c49e56729920d179beda3205", "name": "0dfba355c49e56729920d179beda3205", "rental_uris": {"ios": "https://dc.lft.to/lastmile_qr_scan", "android": "https://dc.lft.to/lastmile_qr_scan"}}, {"is_disabled": 0, "fusion_lat": 0.0, "lat": 38.90533333333333, "type": "electric_scooter", "lon": -77.05126266666667, "is_reserved": 0, "fusion_lon": 0.0, "bike_id": "a352cbc8f9a7c8351d8bb1652db7e9ab", "name": "a352cbc8f9a7c8351d8bb1652db7e9ab", "rental_uris": {"ios": "https://dc.lft.to/lastmile_qr_scan", "android": "https://dc.lft.to/lastmile_qr_scan"}}, {"is_disabled": 0, "fusion_lat": 0.0, "lat": 38.88483683333333, "type": "electric_scooter", "lon": -77.01509466666667, "is_reserved": 0, "fusion_lon": 0.0, "bike_id": "c5c3450a39f25b25e4dec3a8da62a709", "name": "c5c3450a39f25b25e4dec3a8da62a709", "rental_uris": {"ios": "https://dc.lft.to/lastmile_qr_scan", "android": "https://dc.lft.to/lastmile_qr_scan"}}, {"is_disabled": 0, "fusion_lat": 0.0, "lat": 38.919967666666665, "type": "electric_scooter", "lon": -77.03174016666667, "is_reserved": 0, "fusion_lon": 0.0, "bike_id": "c1bc36c0107accfb1c2ad15997d4d4cb", "name": "c1bc36c0107accfb1c2ad15997d4d4cb", "rental_uris": {"ios": "https://dc.lft.to/lastmile_qr_scan", "android": "https://dc.lft.to/lastmile_qr_scan"}}, {"is_disabled": 0, "fusion_lat": 0.0, "lat": 38.9483135, "type": "electric_scooter", "lon": -77.02557633333333, "is_reserved": 0, "fusion_lon": 0.0, "bike_id": "dc5047e166654ada93007ea9e8fe2c19", "name": "dc5047e166654ada93007ea9e8fe2c19", "rental_uris": {"ios": "https://dc.lft.to/lastmile_qr_scan", "android": "https://dc.lft.to/lastmile_qr_scan"}}, {"is_disabled": 0, "fusion_lat": 0.0, "lat": 38.94976666666667, "type": "electric_scooter", "lon": -77.02697666666667, "is_reserved": 0, "fusion_lon": 0.0, "bike_id": "f053ff1f0595cd41b6a8969070c602ab", "name": "f053ff1f0595cd41b6a8969070c602ab", "rental_uris": {"ios": "https://dc.lft.to/lastmile_qr_scan", "android": "https://dc.lft.to/lastmile_qr_scan"}}, {"is_disabled": 0, "fusion_lat": 0.0, "lat": 38.917638333333336, "type": "electric_scooter", "lon": -77.0318415, "is_reserved": 0, "fusion_lon": 0.0, "bike_id": "a109b82a30b5f44e6cbdc9cb4d31d7d2", "name": "a109b82a30b5f44e6cbdc9cb4d31d7d2", "rental_uris": {"ios": "https://dc.lft.to/lastmile_qr_scan", "android": "https://dc.lft.to/lastmile_qr_scan"}}, {"is_disabled": 0, "fusion_lat": 0.0, "lat": 38.9023785, "type": "electric_scooter", "lon": -77.04354166666667, "is_reserved": 0, "fusion_lon": 0.0, "bike_id": "3897adcd1f2a199c775595f5f6addf25", "name": "3897adcd1f2a199c775595f5f6addf25", "rental_uris": {"ios": "https://dc.lft.to/lastmile_qr_scan", "android": "https://dc.lft.to/lastmile_qr_scan"}}, {"is_disabled": 0, "fusion_lat": 0.0, "lat": 38.89101, "type": "electric_scooter", "lon": -77.0018935, "is_reserved": 0, "fusion_lon": 0.0, "bike_id": "a5ca4aa99d7d871d79e89989bd003381", "name": "a5ca4aa99d7d871d79e89989bd003381", "rental_uris": {"ios": "https://dc.lft.to/lastmile_qr_scan", "android": "https://dc.lft.to/lastmile_qr_scan"}}, {"is_disabled": 0, "fusion_lat": 0.0, "lat": 38.8655615, "type": "electric_scooter", "lon": -76.98951133333334, "is_reserved": 0, "fusion_lon": 0.0, "bike_id": "972c52996f99fe4121b19f043e9b342a", "name": "972c52996f99fe4121b19f043e9b342a", "rental_uris": {"ios": "https://dc.lft.to/lastmile_qr_scan", "android": "https://dc.lft.to/lastmile_qr_scan"}}, {"is_disabled": 0, "fusion_lat": 0.0, "lat": 38.8982865, "type": "electric_scooter", "lon": -77.0433, "is_reserved": 0, "fusion_lon": 0.0, "bike_id": "92547b110cd595409249c3c2219d2343", "name": "92547b110cd595409249c3c2219d2343", "rental_uris": {"ios": "https://dc.lft.to/lastmile_qr_scan", "android": "https://dc.lft.to/lastmile_qr_scan"}}, {"is_disabled": 0, "fusion_lat": 0.0, "lat": 38.901518333333335, "type": "electric_scooter", "lon": -77.04167133333333, "is_reserved": 0, "fusion_lon": 0.0, "bike_id": "4672f4bbd4e009fd4aa88b2befd0f86c", "name": "4672f4bbd4e009fd4aa88b2befd0f86c", "rental_uris": {"ios": "https://dc.lft.to/lastmile_qr_scan", "android": "https://dc.lft.to/lastmile_qr_scan"}}, {"is_disabled": 0, "fusion_lat": 0.0, "lat": 38.8715845, "type": "electric_scooter", "lon": -77.01351533333333, "is_reserved": 0, "fusion_lon": 0.0, "bike_id": "8b017ff37bb1661109a01df7ba035867", "name": "8b017ff37bb1661109a01df7ba035867", "rental_uris": {"ios": "https://dc.lft.to/lastmile_qr_scan", "android": "https://dc.lft.to/lastmile_qr_scan"}}, {"is_disabled": 0, "fusion_lat": 0.0, "lat": 38.92697916666667, "type": "electric_scooter", "lon": -77.0142545, "is_reserved": 0, "fusion_lon": 0.0, "bike_id": "823e05f45023c0b8dc4860e767599ee4", "name": "823e05f45023c0b8dc4860e767599ee4", "rental_uris": {"ios": "https://dc.lft.to/lastmile_qr_scan", "android": "https://dc.lft.to/lastmile_qr_scan"}}, {"is_disabled": 0, "fusion_lat": 0.0, "lat": 38.89218116666667, "type": "electric_scooter", "lon": -77.02223083333334, "is_reserved": 0, "fusion_lon": 0.0, "bike_id": "705237eeede0a49520fb74a043ffdd8a", "name": "705237eeede0a49520fb74a043ffdd8a", "rental_uris": {"ios": "https://dc.lft.to/lastmile_qr_scan", "android": "https://dc.lft.to/lastmile_qr_scan"}}, {"is_disabled": 0, "fusion_lat": 0.0, "lat": 38.845719, "type": "electric_bike", "lon": -77.09625466666667, "is_reserved": 0, "fusion_lon": 0.0, "bike_id": "268e102c3add5036d4bc40df713568e5", "name": "268e102c3add5036d4bc40df713568e5", "rental_uris": {"ios": "https://dc.lft.to/lastmile_qr_scan", "android": "https://dc.lft.to/lastmile_qr_scan"}}, {"is_disabled": 0, "fusion_lat": 0.0, "lat": 38.91725816666667, "type": "electric_scooter", "lon": -77.036637, "is_reserved": 0, "fusion_lon": 0.0, "bike_id": "9365032e54ebab276a1da849e53d77f9", "name": "9365032e54ebab276a1da849e53d77f9", "rental_uris": {"ios": "https://dc.lft.to/lastmile_qr_scan", "android": "https://dc.lft.to/lastmile_qr_scan"}}, {"is_disabled": 0, "fusion_lat": 0.0, "lat": 38.900282, "type": "electric_scooter", "lon": -76.9986385, "is_reserved": 0, "fusion_lon": 0.0, "bike_id": "ffdd84c677dff557e1985f1cf05ccc14", "name": "ffdd84c677dff557e1985f1cf05ccc14", "rental_uris": {"ios": "https://dc.lft.to/lastmile_qr_scan", "android": "https://dc.lft.to/lastmile_qr_scan"}}, {"is_disabled": 0, "fusion_lat": 0.0, "lat": 38.9091565, "type": "electric_scooter", "lon": -76.99268366666666, "is_reserved": 0, "fusion_lon": 0.0, "bike_id": "1dac691985b8af1813ca4948b4e7c2a4", "name": "1dac691985b8af1813ca4948b4e7c2a4", "rental_uris": {"ios": "https://dc.lft.to/lastmile_qr_scan", "android": "https://dc.lft.to/lastmile_qr_scan"}}, {"is_disabled": 0, "fusion_lat": 0.0, "lat": 38.903362666666666, "type": "electric_scooter", "lon": -77.0658135, "is_reserved": 0, "fusion_lon": 0.0, "bike_id": "5f308bba42e65d1f27b4fe01fe36b6b8", "name": "5f308bba42e65d1f27b4fe01fe36b6b8", "rental_uris": {"ios": "https://dc.lft.to/lastmile_qr_scan", "android": "https://dc.lft.to/lastmile_qr_scan"}}, {"is_disabled": 0, "fusion_lat": 0.0, "lat": 38.91783016666667, "type": "electric_scooter", "lon": -77.03433633333333, "is_reserved": 0, "fusion_lon": 0.0, "bike_id": "f2ff2c6cb990c620bc22fdfb858ec301", "name": "f2ff2c6cb990c620bc22fdfb858ec301", "rental_uris": {"ios": "https://dc.lft.to/lastmile_qr_scan", "android": "https://dc.lft.to/lastmile_qr_scan"}}, {"is_disabled": 0, "fusion_lat": 0.0, "lat": 38.91727733333333, "type": "electric_scooter", "lon": -77.03659233333333, "is_reserved": 0, "fusion_lon": 0.0, "bike_id": "2216dd35565a29308a4a6e5c322e9eff", "name": "2216dd35565a29308a4a6e5c322e9eff", "rental_uris": {"ios": "https://dc.lft.to/lastmile_qr_scan", "android": "https://dc.lft.to/lastmile_qr_scan"}}, {"is_disabled": 0, "fusion_lat": 0.0, "lat": 38.92410233333333, "type": "electric_bike", "lon": -77.2081375, "is_reserved": 0, "fusion_lon": 0.0, "bike_id": "558d69ce28c2e137fc504eb3b96388df", "name": "558d69ce28c2e137fc504eb3b96388df", "rental_uris": {"ios": "https://dc.lft.to/lastmile_qr_scan", "android": "https://dc.lft.to/lastmile_qr_scan"}}, {"is_disabled": 0, "fusion_lat": 0.0, "lat": 38.90835233333333, "type": "electric_scooter", "lon": -77.03289333333333, "is_reserved": 0, "fusion_lon": 0.0, "bike_id": "f93fca7e05aec280fbd08c71371ed25c", "name": "f93fca7e05aec280fbd08c71371ed25c", "rental_uris": {"ios": "https://dc.lft.to/lastmile_qr_scan", "android": "https://dc.lft.to/lastmile_qr_scan"}}, {"is_disabled": 0, "fusion_lat": 0.0, "lat": 38.90271766666667, "type": "electric_scooter", "lon": -77.034352, "is_reserved": 0, "fusion_lon": 0.0, "bike_id": "bbad9f1f5e558df53081162afa727551", "name": "bbad9f1f5e558df53081162afa727551", "rental_uris": {"ios": "https://dc.lft.to/lastmile_qr_scan", "android": "https://dc.lft.to/lastmile_qr_scan"}}, {"is_disabled": 0, "fusion_lat": 0.0, "lat": 38.902717333333335, "type": "electric_scooter", "lon": -77.04605883333333, "is_reserved": 0, "fusion_lon": 0.0, "bike_id": "85d3417573adf05541c2c061c8a0fdf3", "name": "85d3417573adf05541c2c061c8a0fdf3", "rental_uris": {"ios": "https://dc.lft.to/lastmile_qr_scan", "android": "https://dc.lft.to/lastmile_qr_scan"}}, {"is_disabled": 0, "fusion_lat": 0.0, "lat": 38.921507, "type": "electric_scooter", "lon": -77.02428833333333, "is_reserved": 0, "fusion_lon": 0.0, "bike_id": "55c9238386f2f441d2f5e4f33d986052", "name": "55c9238386f2f441d2f5e4f33d986052", "rental_uris": {"ios": "https://dc.lft.to/lastmile_qr_scan", "android": "https://dc.lft.to/lastmile_qr_scan"}}, {"is_disabled": 0, "fusion_lat": 0.0, "lat": 38.93757816666667, "type": "electric_scooter", "lon": -77.03144033333334, "is_reserved": 0, "fusion_lon": 0.0, "bike_id": "6525a2bba39c35be2e144d572ef87863", "name": "6525a2bba39c35be2e144d572ef87863", "rental_uris": {"ios": "https://dc.lft.to/lastmile_qr_scan", "android": "https://dc.lft.to/lastmile_qr_scan"}}, {"is_disabled": 0, "fusion_lat": 0.0, "lat": 38.94828283333333, "type": "electric_scooter", "lon": -77.02427533333334, "is_reserved": 0, "fusion_lon": 0.0, "bike_id": "c2dbf539e9d9a2a10de13630e949fef4", "name": "c2dbf539e9d9a2a10de13630e949fef4", "rental_uris": {"ios": "https://dc.lft.to/lastmile_qr_scan", "android": "https://dc.lft.to/lastmile_qr_scan"}}, {"is_disabled": 0, "fusion_lat": 0.0, "lat": 38.88729216666667, "type": "electric_scooter", "lon": -77.03181166666667, "is_reserved": 0, "fusion_lon": 0.0, "bike_id": "f2315738718be029c84cade4fa796cc9", "name": "f2315738718be029c84cade4fa796cc9", "rental_uris": {"ios": "https://dc.lft.to/lastmile_qr_scan", "android": "https://dc.lft.to/lastmile_qr_scan"}}, {"is_disabled": 0, "fusion_lat": 0.0, "lat": 38.9254125, "type": "electric_scooter", "lon": -77.0407645, "is_reserved": 0, "fusion_lon": 0.0, "bike_id": "95231b8da965921979e2478b2ce850be", "name": "95231b8da965921979e2478b2ce850be", "rental_uris": {"ios": "https://dc.lft.to/lastmile_qr_scan", "android": "https://dc.lft.to/lastmile_qr_scan"}}, {"is_disabled": 0, "fusion_lat": 0.0, "lat": 38.928526833333336, "type": "electric_bike", "lon": -77.10678416666667, "is_reserved": 0, "fusion_lon": 0.0, "bike_id": "2f8fbd23d673a1ccd4f93d06f0739800", "name": "2f8fbd23d673a1ccd4f93d06f0739800", "rental_uris": {"ios": "https://dc.lft.to/lastmile_qr_scan", "android": "https://dc.lft.to/lastmile_qr_scan"}}, {"is_disabled": 0, "fusion_lat": 0.0, "lat": 38.906087, "type": "electric_scooter", "lon": -77.06510916666667, "is_reserved": 0, "fusion_lon": 0.0, "bike_id": "bf5bd376c2d5ff13df6866a98c1d3c52", "name": "bf5bd376c2d5ff13df6866a98c1d3c52", "rental_uris": {"ios": "https://dc.lft.to/lastmile_qr_scan", "android": "https://dc.lft.to/lastmile_qr_scan"}}, {"is_disabled": 0, "fusion_lat": 0.0, "lat": 38.93005316666667, "type": "electric_scooter", "lon": -77.0443955, "is_reserved": 0, "fusion_lon": 0.0, "bike_id": "89cb2427bb4ae1b8837516560131632d", "name": "89cb2427bb4ae1b8837516560131632d", "rental_uris": {"ios": "https://dc.lft.to/lastmile_qr_scan", "android": "https://dc.lft.to/lastmile_qr_scan"}}, {"is_disabled": 0, "fusion_lat": 0.0, "lat": 38.901626, "type": "electric_scooter", "lon": -77.04992366666667, "is_reserved": 0, "fusion_lon": 0.0, "bike_id": "d73917f490c6736537f8e8fd28720ecf", "name": "d73917f490c6736537f8e8fd28720ecf", "rental_uris": {"ios": "https://dc.lft.to/lastmile_qr_scan", "android": "https://dc.lft.to/lastmile_qr_scan"}}, {"is_disabled": 0, "fusion_lat": 0.0, "lat": 38.91056416666667, "type": "electric_scooter", "lon": -77.045845, "is_reserved": 0, "fusion_lon": 0.0, "bike_id": "c1f194769dd80e05dc5fa105442d5899", "name": "c1f194769dd80e05dc5fa105442d5899", "rental_uris": {"ios": "https://dc.lft.to/lastmile_qr_scan", "android": "https://dc.lft.to/lastmile_qr_scan"}}, {"is_disabled": 0, "fusion_lat": 0.0, "lat": 38.807444833333335, "type": "electric_bike", "lon": -77.09431133333334, "is_reserved": 0, "fusion_lon": 0.0, "bike_id": "af7894deb67750dc052c46c87818ad1a", "name": "af7894deb67750dc052c46c87818ad1a", "rental_uris": {"ios": "https://dc.lft.to/lastmile_qr_scan", "android": "https://dc.lft.to/lastmile_qr_scan"}}, {"is_disabled": 0, "fusion_lat": 0.0, "lat": 38.89878383333333, "type": "electric_scooter", "lon": -76.93162166666667, "is_reserved": 0, "fusion_lon": 0.0, "bike_id": "e181565d5065f0790c61294a09214a70", "name": "e181565d5065f0790c61294a09214a70", "rental_uris": {"ios": "https://dc.lft.to/lastmile_qr_scan", "android": "https://dc.lft.to/lastmile_qr_scan"}}, {"is_disabled": 0, "fusion_lat": 0.0, "lat": 38.9324255, "type": "electric_scooter", "lon": -77.030794, "is_reserved": 0, "fusion_lon": 0.0, "bike_id": "c35918d2a7c75d815316216cfe835a9e", "name": "c35918d2a7c75d815316216cfe835a9e", "rental_uris": {"ios": "https://dc.lft.to/lastmile_qr_scan", "android": "https://dc.lft.to/lastmile_qr_scan"}}, {"is_disabled": 0, "fusion_lat": 0.0, "lat": 38.934217333333336, "type": "electric_scooter", "lon": -77.04408466666666, "is_reserved": 0, "fusion_lon": 0.0, "bike_id": "2b4089fd2c16ccb85909ce83c5a2b28d", "name": "2b4089fd2c16ccb85909ce83c5a2b28d", "rental_uris": {"ios": "https://dc.lft.to/lastmile_qr_scan", "android": "https://dc.lft.to/lastmile_qr_scan"}}, {"is_disabled": 0, "fusion_lat": 0.0, "lat": 38.919647833333336, "type": "electric_scooter", "lon": -77.04153, "is_reserved": 0, "fusion_lon": 0.0, "bike_id": "c5163c04bf7f94617ad9d97c6ee3f3d2", "name": "c5163c04bf7f94617ad9d97c6ee3f3d2", "rental_uris": {"ios": "https://dc.lft.to/lastmile_qr_scan", "android": "https://dc.lft.to/lastmile_qr_scan"}}, {"is_disabled": 0, "fusion_lat": 0.0, "lat": 38.92451, "type": "electric_scooter", "lon": -77.0327845, "is_reserved": 0, "fusion_lon": 0.0, "bike_id": "62fae01403a81fec432529f086906ddd", "name": "62fae01403a81fec432529f086906ddd", "rental_uris": {"ios": "https://dc.lft.to/lastmile_qr_scan", "android": "https://dc.lft.to/lastmile_qr_scan"}}, {"is_disabled": 0, "fusion_lat": 0.0, "lat": 38.8922, "type": "electric_scooter", "lon": -77.02850833333333, "is_reserved": 0, "fusion_lon": 0.0, "bike_id": "f969511ddde57ba085d7fbab6f8c26c1", "name": "f969511ddde57ba085d7fbab6f8c26c1", "rental_uris": {"ios": "https://dc.lft.to/lastmile_qr_scan", "android": "https://dc.lft.to/lastmile_qr_scan"}}, {"is_disabled": 0, "fusion_lat": 0.0, "lat": 38.89035783333333, "type": "electric_scooter", "lon": -76.93748683333334, "is_reserved": 0, "fusion_lon": 0.0, "bike_id": "304821cfa4da7e6e691ef3c0864d3198", "name": "304821cfa4da7e6e691ef3c0864d3198", "rental_uris": {"ios": "https://dc.lft.to/lastmile_qr_scan", "android": "https://dc.lft.to/lastmile_qr_scan"}}, {"is_disabled": 0, "fusion_lat": 0.0, "lat": 38.904494166666666, "type": "electric_scooter", "lon": -77.05918866666667, "is_reserved": 0, "fusion_lon": 0.0, "bike_id": "998db2963af048a5f7f4889837f2b789", "name": "998db2963af048a5f7f4889837f2b789", "rental_uris": {"ios": "https://dc.lft.to/lastmile_qr_scan", "android": "https://dc.lft.to/lastmile_qr_scan"}}, {"is_disabled": 0, "fusion_lat": 0.0, "lat": 38.9125425, "type": "electric_scooter", "lon": -77.03500816666667, "is_reserved": 0, "fusion_lon": 0.0, "bike_id": "5959628a33e920f06bb7d64856185603", "name": "5959628a33e920f06bb7d64856185603", "rental_uris": {"ios": "https://dc.lft.to/lastmile_qr_scan", "android": "https://dc.lft.to/lastmile_qr_scan"}}, {"is_disabled": 0, "fusion_lat": 0.0, "lat": 38.88589266666666, "type": "electric_scooter", "lon": -77.00064666666667, "is_reserved": 0, "fusion_lon": 0.0, "bike_id": "123e6b0ee9af9758f5d41d0e68293b78", "name": "123e6b0ee9af9758f5d41d0e68293b78", "rental_uris": {"ios": "https://dc.lft.to/lastmile_qr_scan", "android": "https://dc.lft.to/lastmile_qr_scan"}}, {"is_disabled": 0, "fusion_lat": 0.0, "lat": 38.909005666666665, "type": "electric_scooter", "lon": -77.04207866666667, "is_reserved": 0, "fusion_lon": 0.0, "bike_id": "abfdc627ac7c9f841d9db79ade7711f8", "name": "abfdc627ac7c9f841d9db79ade7711f8", "rental_uris": {"ios": "https://dc.lft.to/lastmile_qr_scan", "android": "https://dc.lft.to/lastmile_qr_scan"}}, {"is_disabled": 0, "fusion_lat": 0.0, "lat": 38.8968095, "type": "electric_scooter", "lon": -76.93531733333333, "is_reserved": 0, "fusion_lon": 0.0, "bike_id": "efc5ab6f607338ded1084341c3c9a5d6", "name": "efc5ab6f607338ded1084341c3c9a5d6", "rental_uris": {"ios": "https://dc.lft.to/lastmile_qr_scan", "android": "https://dc.lft.to/lastmile_qr_scan"}}, {"is_disabled": 0, "fusion_lat": 0.0, "lat": 38.89559033333333, "type": "electric_scooter", "lon": -77.02934633333334, "is_reserved": 0, "fusion_lon": 0.0, "bike_id": "f55039a3f915d549cc2f2c3e80a315c8", "name": "f55039a3f915d549cc2f2c3e80a315c8", "rental_uris": {"ios": "https://dc.lft.to/lastmile_qr_scan", "android": "https://dc.lft.to/lastmile_qr_scan"}}, {"is_disabled": 0, "fusion_lat": 0.0, "lat": 38.915212333333336, "type": "electric_scooter", "lon": -77.044923, "is_reserved": 0, "fusion_lon": 0.0, "bike_id": "d97e866f7933c052002ba50dbc833462", "name": "d97e866f7933c052002ba50dbc833462", "rental_uris": {"ios": "https://dc.lft.to/lastmile_qr_scan", "android": "https://dc.lft.to/lastmile_qr_scan"}}, {"is_disabled": 0, "fusion_lat": 0.0, "lat": 38.8813125, "type": "electric_bike", "lon": -77.016638, "is_reserved": 0, "fusion_lon": 0.0, "bike_id": "cd66aa9e2e60e6fdcd3281ebc064da1b", "name": "cd66aa9e2e60e6fdcd3281ebc064da1b", "rental_uris": {"ios": "https://dc.lft.to/lastmile_qr_scan", "android": "https://dc.lft.to/lastmile_qr_scan"}},