{"data": {"bikes": [{"bike_id": "e099a023d2ea0c02bbae19d525e07ffb", "type": "electric_scooter", "is_disabled": 0, "lat": 38.92278616666667, "rental_uris": {"ios": "https://dc.lft.to/lastmile_qr_scan", "android": "https://dc.lft.to/lastmile_qr_scan"}, "is_reserved": 0, "fusion_lon": 0.0, "fusion_lat": 0.0, "lon": -76.99442633333334, "name": "e099a023d2ea0c02bbae19d525e07ffb"}, {"bike_id": "a5c9c62ab8b9511b449bdba4757225cf", "type": "electric_scooter", "is_disabled": 0, "lat": 38.92257933333333, "rental_uris": {"ios": "https://dc.lft.to/lastmile_qr_scan", "android": "https://dc.lft.to/lastmile_qr_scan"}, "is_reserved": 0, "fusion_lon": 0.0, "fusion_lat": 0.0, "lon": -77.03896416666667, "name": "a5c9c62ab8b9511b449bdba4757225cf"}, {"bike_id": "9284b39b890cb2b73797f3a8879addca", "type": "electric_scooter", "is_disabled": 0, "lat": 38.90556816666667, "rental_uris": {"ios": "https://dc.lft.to/lastmile_qr_scan", "android": "https://dc.lft.to/lastmile_qr_scan"}, "is_reserved": 0, "fusion_lon": 0.0, "fusion_lat": 0.0, "lon": -76.99620116666667, "name": "9284b39b890cb2b73797f3a8879addca"}, {"bike_id": "700d37deff6a05de94ca30980283c6fe", "type": "electric_scooter", "is_disabled": 0, "lat": 38.924905833333334, "rental_uris": {"ios": "https://dc.lft.to/lastmile_qr_scan", "android": "https://dc.lft.to/lastmile_qr_scan"}, "is_reserved": 0, "fusion_lon": 0.0, "fusion_lat": 0.0, "lon": -77.05210533333333, "name": "700d37deff6a05de94ca30980283c6fe"}, {"bike_id": "83929d6a148b61f653562171683a2da4", "type": "electric_scooter", "is_disabled": 0, "lat": 38.91972583333333, "rental_uris": {"ios": "https://dc.lft.to/lastmile_qr_scan", "android": "https://dc.lft.to/lastmile_qr_scan"}, "is_reserved": 0, "fusion_lon": 0.0, "fusion_lat": 0.0, "lon": -77.04211933333333, "name": "83929d6a148b61f653562171683a2da4"}, {"bike_id": "9d47b5bb34306f6a58870b363e474310", "type": "electric_scooter", "is_disabled": 0, "lat": 38.926555, "rental_uris": {"ios": "https://dc.lft.to/lastmile_qr_scan", "android": "https://dc.lft.to/lastmile_qr_scan"}, "is_reserved": 0, "fusion_lon": 0.0, "fusion_lat": 0.0, "lon": -77.024471, "name": "9d47b5bb34306f6a58870b363e474310"}, {"bike_id": "23e7630d4ee3c3660586f566febe4ed2", "type": "electric_bike", "is_disabled": 0, "lat": 38.80416016666667, "rental_uris": {"ios": "https://dc.lft.to/lastmile_qr_scan", "android": "https://dc.lft.to/lastmile_qr_scan"}, "is_reserved": 0, "fusion_lon": 0.0, "fusion_lat": 0.0, "lon": -77.055519, "name": "23e7630d4ee3c3660586f566febe4ed2"}, {"bike_id": "fed0c736972f732434272450225e46cb", "type": "electric_scooter", "is_disabled": 0, "lat": 38.884283833333335, "rental_uris": {"ios": "https://dc.lft.to/lastmile_qr_scan", "android": "https://dc.lft.to/lastmile_qr_scan"}, "is_reserved": 0, "fusion_lon": 0.0, "fusion_lat": 0.0, "lon": -76.9575085, "name": "fed0c736972f732434272450225e46cb"}, {"bike_id": "ff23719993b42c4aa4b91d9679368f7c", "type": "electric_scooter", "is_disabled": 0, "lat": 38.90574566666667, "rental_uris": {"ios": "https://dc.lft.to/lastmile_qr_scan", "android": "https://dc.lft.to/lastmile_qr_scan"}, "is_reserved": 0, "fusion_lon": 0.0, "fusion_lat": 0.0, "lon": -77.0057815, "name": "ff23719993b42c4aa4b91d9679368f7c"}, {"bike_id": "30b7d1917a891ee5b6847e02daf8ac40", "type": "electric_bike", "is_disabled": 0, "lat": 38.953382500000004, "rental_uris": {"ios": "https://dc.lft.to/lastmile_qr_scan", "android": "https://dc.lft.to/lastmile_qr_scan"}, "is_reserved": 0, "fusion_lon": 0.0, "fusion_lat": 0.0, "lon": -76.9823805, "name": "30b7d1917a891ee5b6847e02daf8ac40"}, {"bike_id": "b277ba9f8756c0270963c97dd6351bee", "type": "electric_bike", "is_disabled": 0, "lat": 38.877293, "rental_uris": {"ios": "https://dc.lft.to/lastmile_qr_scan", "android": "https://dc.lft.to/lastmile_qr_scan"}, "is_reserved": 0, "fusion_lon": 0.0, "fusion_lat": 0.0, "lon": -77.00309433333334, "name": "b277ba9f8756c0270963c97dd6351bee"}, {"bike_id": "8ccd9358224a6984e6ed728f087f973a", "type": "electric_scooter", "is_disabled": 0, "lat": 38.92233233333333, "rental_uris": {"ios": "https://dc.lft.to/lastmile_qr_scan", "android": "https://dc.lft.to/lastmile_qr_scan"}, "is_reserved": 0, "fusion_lon": 0.0, "fusion_lat": 0.0, "lon": -76.9734, "name": "8ccd9358224a6984e6ed728f087f973a"}, {"bike_id": "8bb96a405df3ec2a526d441d28821214", "type": "electric_bike", "is_disabled": 0, "lat": 38.94515166666667, "rental_uris": {"ios": "https://dc.lft.to/lastmile_qr_scan", "android": "https://dc.lft.to/lastmile_qr_scan"}, "is_reserved": 0, "fusion_lon": 0.0, "fusion_lat": 0.0, "lon": -77.00676716666666, "name": "8bb96a405df3ec2a526d441d28821214"}, {"bike_id": "5fe68fa5011b4fba755944fd3f076a1a", "type": "electric_scooter", "is_disabled": 0, "lat": 38.90721466666667, "rental_uris": {"ios": "https://dc.lft.to/lastmile_qr_scan", "android": "https://dc.lft.to/lastmile_qr_scan"}, "is_reserved": 0, "fusion_lon": 0.0, "fusion_lat": 0.0, "lon": -77.01024383333333, "name": "5fe68fa5011b4fba755944fd3f076a1a"}, {"bike_id": "d14159221181e2f7bfda7e41c1fc6e47", "type": "electric_bike", "is_disabled": 0, "lat": 38.8117425, "rental_uris": {"ios": "https://dc.lft.to/lastmile_qr_scan", "android": "https://dc.lft.to/lastmile_qr_scan"}, "is_reserved": 0, "fusion_lon": 0.0, "fusion_lat": 0.0, "lon": -77.06965433333333, "name": "d14159221181e2f7bfda7e41c1fc6e47"}, {"bike_id": "d36ba9a3814f2acfa7860d1ff655140f", "type": "electric_bike", "is_disabled": 0, "lat": 38.890491, "rental_uris": {"ios": "https://dc.lft.to/lastmile_qr_scan", "android": "https://dc.lft.to/lastmile_qr_scan"}, "is_reserved": 0, "fusion_lon": 0.0, "fusion_lat": 0.0, "lon": -77.08622916666667, "name": "d36ba9a3814f2acfa7860d1ff655140f"}, {"bike_id": "703df6910defa2c5479151501a21d056", "type": "electric_scooter", "is_disabled": 0, "lat": 38.912735833333336, "rental_uris": {"ios": "https://dc.lft.to/lastmile_qr_scan", "android": "https://dc.lft.to/lastmile_qr_scan"}, "is_reserved": 0, "fusion_lon": 0.0, "fusion_lat": 0.0, "lon": -77.03216916666666, "name": "703df6910defa2c5479151501a21d056"}, {"bike_id": "9aadc87575558eda6c0205004ddb9dc6", "type": "electric_scooter", "is_disabled": 0, "lat": 38.915626, "rental_uris": {"ios": "https://dc.lft.to/lastmile_qr_scan", "android": "https://dc.lft.to/lastmile_qr_scan"}, "is_reserved": 0, "fusion_lon": 0.0, "fusion_lat": 0.0, "lon": -77.03161183333333, "name": "9aadc87575558eda6c0205004ddb9dc6"}, {"bike_id": "d52adff3b92971362e3a39478a8d68cf", "type": "electric_scooter", "is_disabled": 0, "lat": 38.926382833333335, "rental_uris": {"ios": "https://dc.lft.to/lastmile_qr_scan", "android": "https://dc.lft.to/lastmile_qr_scan"}, "is_reserved": 0, "fusion_lon": 0.0, "fusion_lat": 0.0, "lon": -77.05312033333334, "name": "d52adff3b92971362e3a39478a8d68cf"}, {"bike_id": "dfa9bac4058d5f4004ee5566b6c2c58c", "type": "electric_scooter", "is_disabled": 0, "lat": 38.89680033333333, "rental_uris": {"ios": "https://dc.lft.to/lastmile_qr_scan", "android": "https://dc.lft.to/lastmile_qr_scan"}, "is_reserved": 0, "fusion_lon": 0.0, "fusion_lat": 0.0, "lon": -77.00514366666667, "name": "dfa9bac4058d5f4004ee5566b6c2c58c"}, {"bike_id": "c78b0f7da3926b5e67f08bdb5e3b965f", "type": "electric_scooter", "is_disabled": 0, "lat": 38.902502166666665, "rental_uris": {"ios": "https://dc.lft.to/lastmile_qr_scan", "android": "https://dc.lft.to/lastmile_qr_scan"}, "is_reserved": 0, "fusion_lon": 0.0, "fusion_lat": 0.0, "lon": -77.00197166666666, "name": "c78b0f7da3926b5e67f08bdb5e3b965f"}, {"bike_id": "7a6cb1eac2ff4124664675d2514b794b", "type": "electric_bike", "is_disabled": 0, "lat": 38.953588833333335, "rental_uris": {"ios": "https://dc.lft.to/lastmile_qr_scan", "android": "https://dc.lft.to/lastmile_qr_scan"}, "is_reserved": 0, "fusion_lon": 0.0, "fusion_lat": 0.0, "lon": -76.98092966666667, "name": "7a6cb1eac2ff4124664675d2514b794b"}, {"bike_id": "1a2d6a0510a06afb635155b00c65b636", "type": "electric_scooter", "is_disabled": 0, "lat": 38.93542933333333, "rental_uris": {"ios": "https://dc.lft.to/lastmile_qr_scan", "android": "https://dc.lft.to/lastmile_qr_scan"}, "is_reserved": 0, "fusion_lon": 0.0, "fusion_lat": 0.0, "lon": -77.058292, "name": "1a2d6a0510a06afb635155b00c65b636"}, {"bike_id": "3b06472260363d322421753dd5e45b15", "type": "electric_bike", "is_disabled": 0, "lat": 39.01372166666667, "rental_uris": {"ios": "https://dc.lft.to/lastmile_qr_scan", "android": "https://dc.lft.to/lastmile_qr_scan"}, "is_reserved": 0, "fusion_lon": 0.0, "fusion_lat": 0.0, "lon": -76.92133033333333, "name": "3b06472260363d322421753dd5e45b15"}, {"bike_id": "a1dea96ab88b0e5682fe77f107a8a7fd", "type": "electric_scooter", "is_disabled": 0, "lat": 38.93890366666667, "rental_uris": {"ios": "https://dc.lft.to/lastmile_qr_scan", "android": "https://dc.lft.to/lastmile_qr_scan"}, "is_reserved": 0, "fusion_lon": 0.0, "fusion_lat": 0.0, "lon": -77.02819216666667, "name": "a1dea96ab88b0e5682fe77f107a8a7fd"}, {"bike_id": "e917ce3486a6c3a2fa7c77b9c89845a1", "type": "electric_scooter", "is_disabled": 0, "lat": 38.90973916666667, "rental_uris": {"ios": "https://dc.lft.to/lastmile_qr_scan", "android": "https://dc.lft.to/lastmile_qr_scan"}, "is_reserved": 0, "fusion_lon": 0.0, "fusion_lat": 0.0, "lon": -77.03334266666667, "name": "e917ce3486a6c3a2fa7c77b9c89845a1"}, {"bike_id": "ccdcdc1cccdf98ce142deeb4e4c0cc1e", "type": "electric_scooter", "is_disabled": 0, "lat": 38.92334666666667, "rental_uris": {"ios": "https://dc.lft.to/lastmile_qr_scan", "android": "https://dc.lft.to/lastmile_qr_scan"}, "is_reserved": 0, "fusion_lon": 0.0, "fusion_lat": 0.0, "lon": -77.0229735, "name": "ccdcdc1cccdf98ce142deeb4e4c0cc1e"}, {"bike_id": "61994735de0cab1ae40a4af1d57876f8", "type": "electric_scooter", "is_disabled": 0, "lat": 38.92101233333333, "rental_uris": {"ios": "https://dc.lft.to/lastmile_qr_scan", "android": "https://dc.lft.to/lastmile_qr_scan"}, "is_reserved": 0, "fusion_lon": 0.0, "fusion_lat": 0.0, "lon": -77.00440833333333, "name": "61994735de0cab1ae40a4af1d57876f8"}, {"bike_id": "8dae9a668cf6c8c70e651caf1e2dcc9a", "type": "electric_scooter", "is_disabled": 0, "lat": 38.923292333333336, "rental_uris": {"ios": "https://dc.lft.to/lastmile_qr_scan", "android": "https://dc.lft.to/lastmile_qr_scan"}, "is_reserved": 0, "fusion_lon": 0.0, "fusion_lat": 0.0, "lon": -77.046103, "name": "8dae9a668cf6c8c70e651caf1e2dcc9a"}, {"bike_id": "d45666e46310ddc47388995c62f5df05", "type": "electric_scooter", "is_disabled": 0, "lat": 38.88013616666667, "rental_uris": {"ios": "https://dc.lft.to/lastmile_qr_scan", "android": "https://dc.lft.to/lastmile_qr_scan"}, "is_reserved": 0, "fusion_lon": 0.0, "fusion_lat": 0.0, "lon": -77.00576666666667, "name": "d45666e46310ddc47388995c62f5df05"}, {"bike_id": "7fa924b98df6799d022b3985f0f318fc", "type": "electric_scooter", "is_disabled": 0, "lat": 38.95187983333334, "rental_uris": {"ios": "https://dc.lft.to/lastmile_qr_scan", "android": "https://dc.lft.to/lastmile_qr_scan"}, "is_reserved": 0, "fusion_lon": 0.0, "fusion_lat": 0.0, "lon": -77.02611233333333, "name": "7fa924b98df6799d022b3985f0f318fc"}, {"bike_id": "434e7246bbf6f5f6b5f83c7956adef7f", "type": "electric_scooter", "is_disabled": 0, "lat": 38.8991805, "rental_uris": {"ios": "https://dc.lft.to/lastmile_qr_scan", "android": "https://dc.lft.to/lastmile_qr_scan"}, "is_reserved": 0, "fusion_lon": 0.0, "fusion_lat": 0.0, "lon": -76.93357966666667, "name": "434e7246bbf6f5f6b5f83c7956adef7f"}, {"bike_id": "0183af04adb66b6ebf78acce34a22221", "type": "electric_scooter", "is_disabled": 0, "lat": 38.908089, "rental_uris": {"ios": "https://dc.lft.to/lastmile_qr_scan", "android": "https://dc.lft.to/lastmile_qr_scan"}, "is_reserved": 0, "fusion_lon": 0.0, "fusion_lat": 0.0, "lon": -77.0367055, "name": "0183af04adb66b6ebf78acce34a22221"}, {"bike_id": "df4a29f36fc8a92f88cb57e38b742c15", "type": "electric_scooter", "is_disabled": 0, "lat": 38.8828045, "rental_uris": {"ios": "https://dc.lft.to/lastmile_qr_scan", "android": "https://dc.lft.to/lastmile_qr_scan"}, "is_reserved": 0, "fusion_lon": 0.0, "fusion_lat": 0.0, "lon": -76.98779533333334, "name": "df4a29f36fc8a92f88cb57e38b742c15"}, {"bike_id": "84775eee8025493038ad3682b4ba8aec", "type": "electric_scooter", "is_disabled": 0, "lat": 38.91682933333333, "rental_uris": {"ios": "https://dc.lft.to/lastmile_qr_scan", "android": "https://dc.lft.to/lastmile_qr_scan"}, "is_reserved": 0, "fusion_lon": 0.0, "fusion_lat": 0.0, "lon": -77.02969766666666, "name": "84775eee8025493038ad3682b4ba8aec"}, {"bike_id": "55a262d2e41edc0bf05ff67e66b729eb", "type": "electric_bike", "is_disabled": 0, "lat": 38.9238085, "rental_uris": {"ios": "https://dc.lft.to/lastmile_qr_scan", "android": "https://dc.lft.to/lastmile_qr_scan"}, "is_reserved": 0, "fusion_lon": 0.0, "fusion_lat": 0.0, "lon": -77.00211016666667, "name": "55a262d2e41edc0bf05ff67e66b729eb"}, {"bike_id": "86b6d2485b3bc6fb03635fd58e1cf7d3", "type": "electric_scooter", "is_disabled": 0, "lat": 38.958540666666664, "rental_uris": {"ios": "https://dc.lft.to/lastmile_qr_scan", "android": "https://dc.lft.to/lastmile_qr_scan"}, "is_reserved": 0, "fusion_lon": 0.0, "fusion_lat": 0.0, "lon": -77.02800583333334, "name": "86b6d2485b3bc6fb03635fd58e1cf7d3"}, {"bike_id": "2f4b3b570a40446fc297130ad3662281", "type": "electric_scooter", "is_disabled": 0, "lat": 38.936090166666666, "rental_uris": {"ios": "https://dc.lft.to/lastmile_qr_scan", "android": "https://dc.lft.to/lastmile_qr_scan"}, "is_reserved": 0, "fusion_lon": 0.0, "fusion_lat": 0.0, "lon": -77.05586733333334, "name": "2f4b3b570a40446fc297130ad3662281"}, {"bike_id": "db477866ada37744448636b067107eb6", "type": "electric_scooter", "is_disabled": 0, "lat": 38.914978166666664, "rental_uris": {"ios": "https://dc.lft.to/lastmile_qr_scan", "android": "https://dc.lft.to/lastmile_qr_scan"}, "is_reserved": 0, "fusion_lon": 0.0, "fusion_lat": 0.0, "lon": -77.021881, "name": "db477866ada37744448636b067107eb6"}, {"bike_id": "7f0fd1535b926fe73db4ae9be325c31b", "type": "electric_scooter", "is_disabled": 0, "lat": 38.908117, "rental_uris": {"ios": "https://dc.lft.to/lastmile_qr_scan", "android": "https://dc.lft.to/lastmile_qr_scan"}, "is_reserved": 0, "fusion_lon": 0.0, "fusion_lat": 0.0, "lon": -77.03049133333333, "name": "7f0fd1535b926fe73db4ae9be325c31b"}, {"bike_id": "278b59296ac6d3baf477b7c965ba5c7c", "type": "electric_scooter", "is_disabled": 0, "lat": 38.930992, "rental_uris": {"ios": "https://dc.lft.to/lastmile_qr_scan", "android": "https://dc.lft.to/lastmile_qr_scan"}, "is_reserved": 0, "fusion_lon": 0.0, "fusion_lat": 0.0, "lon": -77.03727583333334, "name": "278b59296ac6d3baf477b7c965ba5c7c"}, {"bike_id": "b3ef21b6fa53e64a34144b509776e44c", "type": "electric_scooter", "is_disabled": 0, "lat": 38.92816533333333, "rental_uris": {"ios": "https://dc.lft.to/lastmile_qr_scan", "android": "https://dc.lft.to/lastmile_qr_scan"}, "is_reserved": 0, "fusion_lon": 0.0, "fusion_lat": 0.0, "lon": -77.02812, "name": "b3ef21b6fa53e64a34144b509776e44c"}, {"bike_id": "30fe568c9a270d6bebf06253017c7100", "type": "electric_scooter", "is_disabled": 0, "lat": 38.93308, "rental_uris": {"ios": "https://dc.lft.to/lastmile_qr_scan", "android": "https://dc.lft.to/lastmile_qr_scan"}, "is_reserved": 0, "fusion_lon": 0.0, "fusion_lat": 0.0, "lon": -77.03262716666667, "name": "30fe568c9a270d6bebf06253017c7100"}, {"bike_id": "a16edf53e50179bf8e4b72cc73dc90e5", "type": "electric_scooter", "is_disabled": 0, "lat": 38.914236333333335, "rental_uris": {"ios": "https://dc.lft.to/lastmile_qr_scan", "android": "https://dc.lft.to/lastmile_qr_scan"}, "is_reserved": 0, "fusion_lon": 0.0, "fusion_lat": 0.0, "lon": -77.04807333333333, "name": "a16edf53e50179bf8e4b72cc73dc90e5"}, {"bike_id": "4c707acfe9451d2a463bdfeffe616e74", "type": "electric_bike", "is_disabled": 0, "lat": 38.91019, "rental_uris": {"ios": "https://dc.lft.to/lastmile_qr_scan", "android": "https://dc.lft.to/lastmile_qr_scan"}, "is_reserved": 0, "fusion_lon": 0.0, "fusion_lat": 0.0, "lon": -77.22798933333333, "name": "4c707acfe9451d2a463bdfeffe616e74"}, {"bike_id": "384fc463076d8285f2dc86755e030fe3", "type": "electric_scooter", "is_disabled": 0, "lat": 38.91306266666667, "rental_uris": {"ios": "https://dc.lft.to/lastmile_qr_scan", "android": "https://dc.lft.to/lastmile_qr_scan"}, "is_reserved": 0, "fusion_lon": 0.0, "fusion_lat": 0.0, "lon": -77.045388, "name": "384fc463076d8285f2dc86755e030fe3"}, {"bike_id": "1785d762b4a4cc39cc1ec795da7bafef", "type": "electric_scooter", "is_disabled": 0, "lat": 38.9102835, "rental_uris": {"ios": "https://dc.lft.to/lastmile_qr_scan", "android": "https://dc.lft.to/lastmile_qr_scan"}, "is_reserved": 0, "fusion_lon": 0.0, "fusion_lat": 0.0, "lon": -77.00758466666667, "name": "1785d762b4a4cc39cc1ec795da7bafef"}, {"bike_id": "537911ee0904cdd8069cca21bbf656c4", "type": "electric_scooter", "is_disabled": 0, "lat": 38.902242333333334, "rental_uris": {"ios": "https://dc.lft.to/lastmile_qr_scan", "android": "https://dc.lft.to/lastmile_qr_scan"}, "is_reserved": 0, "fusion_lon": 0.0, "fusion_lat": 0.0, "lon": -77.04031816666667, "name": "537911ee0904cdd8069cca21bbf656c4"}, {"bike_id": "c5da1e8539eebc44cad787467e413dee", "type": "electric_scooter", "is_disabled": 0, "lat": 38.966078, "rental_uris": {"ios": "https://dc.lft.to/lastmile_qr_scan", "android": "https://dc.lft.to/lastmile_qr_scan"}, "is_reserved": 0, "fusion_lon": 0.0, "fusion_lat": 0.0, "lon": -77.01976266666667, "name": "c5da1e8539eebc44cad787467e413dee"}, {"bike_id": "374d01cfb0e5f35795ef40dd1181e84e", "type": "electric_bike", "is_disabled": 0, "lat": 38.96181983333334, "rental_uris": {"ios": "https://dc.lft.to/lastmile_qr_scan", "android": "https://dc.lft.to/lastmile_qr_scan"}, "is_reserved": 0, "fusion_lon": 0.0, "fusion_lat": 0.0, "lon": -77.03227783333334, "name": "374d01cfb0e5f35795ef40dd1181e84e"}, {"bike_id": "b3d59bc3088fe77602fdf6a120001ff7", "type": "electric_scooter", "is_disabled": 0, "lat": 38.917792, "rental_uris": {"ios": "https://dc.lft.to/lastmile_qr_scan", "android": "https://dc.lft.to/lastmile_qr_scan"}, "is_reserved": 0, "fusion_lon": 0.0, "fusion_lat": 0.0, "lon": -77.02314383333334, "name": "b3d59bc3088fe77602fdf6a120001ff7"}, {"bike_id": "c0f0cd0b4f59e3bfb2d6e486a49986e3", "type": "electric_scooter", "is_disabled": 0, "lat": 38.90956116666667, "rental_uris": {"ios": "https://dc.lft.to/lastmile_qr_scan", "android": "https://dc.lft.to/lastmile_qr_scan"}, "is_reserved": 0, "fusion_lon": 0.0, "fusion_lat": 0.0, "lon": -77.02717683333333, "name": "c0f0cd0b4f59e3bfb2d6e486a49986e3"}, {"bike_id": "2f92155c43d04286c6fff50dc51b8ac5", "type": "electric_scooter", "is_disabled": 0, "lat": 38.92774333333333, "rental_uris": {"ios": "https://dc.lft.to/lastmile_qr_scan", "android": "https://dc.lft.to/lastmile_qr_scan"}, "is_reserved": 0, "fusion_lon": 0.0, "fusion_lat": 0.0, "lon": -77.02707783333334, "name": "2f92155c43d04286c6fff50dc51b8ac5"}, {"bike_id": "ab732f721d69f044f5b0d2ff4d5a83d8", "type": "electric_scooter", "is_disabled": 0, "lat": 38.900292, "rental_uris": {"ios": "https://dc.lft.to/lastmile_qr_scan", "android": "https://dc.lft.to/lastmile_qr_scan"}, "is_reserved": 0, "fusion_lon": 0.0, "fusion_lat": 0.0, "lon": -77.00192833333334, "name": "ab732f721d69f044f5b0d2ff4d5a83d8"}, {"bike_id": "fabce9d3aa20ef2f44e3d523aa4ad411", "type": "electric_bike", "is_disabled": 0, "lat": 38.87280783333333, "rental_uris": {"ios": "https://dc.lft.to/lastmile_qr_scan", "android": "https://dc.lft.to/lastmile_qr_scan"}, "is_reserved": 0, "fusion_lon": 0.0, "fusion_lat": 0.0, "lon": -77.23316983333333, "name": "fabce9d3aa20ef2f44e3d523aa4ad411"}, {"bike_id": "95400a749a6c533efefb2a51014f54e3", "type": "electric_scooter", "is_disabled": 0, "lat": 38.8698205, "rental_uris": {"ios": "https://dc.lft.to/lastmile_qr_scan", "android": "https://dc.lft.to/lastmile_qr_scan"}, "is_reserved": 0, "fusion_lon": 0.0, "fusion_lat": 0.0, "lon": -76.98168633333333, "name": "95400a749a6c533efefb2a51014f54e3"}, {"bike_id": "79bee49a4e91c117955d473ded3c8e61", "type": "electric_scooter", "is_disabled": 0, "lat": 38.9183915, "rental_uris": {"ios": "https://dc.lft.to/lastmile_qr_scan", "android": "https://dc.lft.to/lastmile_qr_scan"}, "is_reserved": 0, "fusion_lon": 0.0, "fusion_lat": 0.0, "lon": -77.02457616666666, "name": "79bee49a4e91c117955d473ded3c8e61"}, {"bike_id": "653dac8b48e97dcbacef58d9c65f7493", "type": "electric_bike", "is_disabled": 0, "lat": 38.880616333333336, "rental_uris": {"ios": "https://dc.lft.to/lastmile_qr_scan", "android": "https://dc.lft.to/lastmile_qr_scan"}, "is_reserved": 0, "fusion_lon": 0.0, "fusion_lat": 0.0, "lon": -76.96240466666667, "name": "653dac8b48e97dcbacef58d9c65f7493"}, {"bike_id": "d6d559976936027752b82bce4c906b9f", "type": "electric_scooter", "is_disabled": 0, "lat": 38.88223416666666, "rental_uris": {"ios": "https://dc.lft.to/lastmile_qr_scan", "android": "https://dc.lft.to/lastmile_qr_scan"}, "is_reserved": 0, "fusion_lon": 0.0, "fusion_lat": 0.0, "lon": -76.92662033333333, "name": "d6d559976936027752b82bce4c906b9f"}, {"bike_id": "13d79c20e396b94d0d5266662992d8a2", "type": "electric_scooter", "is_disabled": 0, "lat": 38.94791416666666, "rental_uris": {"ios": "https://dc.lft.to/lastmile_qr_scan", "android": "https://dc.lft.to/lastmile_qr_scan"}, "is_reserved": 0, "fusion_lon": 0.0, "fusion_lat": 0.0, "lon": -77.0213485, "name": "13d79c20e396b94d0d5266662992d8a2"}, {"bike_id": "6d2e68e0727ca89b1d19092bab0bfcfd", "type": "electric_scooter", "is_disabled": 0, "lat": 38.92373883333333, "rental_uris": {"ios": "https://dc.lft.to/lastmile_qr_scan", "android": "https://dc.lft.to/lastmile_qr_scan"}, "is_reserved": 0, "fusion_lon": 0.0, "fusion_lat": 0.0, "lon": -77.03055816666667, "name": "6d2e68e0727ca89b1d19092bab0bfcfd"}, {"bike_id": "3cbc540860755c3423cca8a35fa4c931", "type": "electric_scooter", "is_disabled": 0, "lat": 38.9049415, "rental_uris": {"ios": "https://dc.lft.to/lastmile_qr_scan", "android": "https://dc.lft.to/lastmile_qr_scan"}, "is_reserved": 0, "fusion_lon": 0.0, "fusion_lat": 0.0, "lon": -76.94960216666666, "name": "3cbc540860755c3423cca8a35fa4c931"}, {"bike_id": "d689dc2cd39247dc5e9d9e1ac169df38", "type": "electric_scooter", "is_disabled": 0, "lat": 38.9221265, "rental_uris": {"ios": "https://dc.lft.to/lastmile_qr_scan", "android": "https://dc.lft.to/lastmile_qr_scan"}, "is_reserved": 0, "fusion_lon": 0.0, "fusion_lat": 0.0, "lon": -77.03657083333333, "name": "d689dc2cd39247dc5e9d9e1ac169df38"}, {"bike_id": "7c36e36614d658ede6bc3a82dfbe4b32", "type": "electric_scooter", "is_disabled": 0, "lat": 38.86379916666667, "rental_uris": {"ios": "https://dc.lft.to/lastmile_qr_scan", "android": "https://dc.lft.to/lastmile_qr_scan"}, "is_reserved": 0, "fusion_lon": 0.0, "fusion_lat": 0.0, "lon": -76.990598, "name": "7c36e36614d658ede6bc3a82dfbe4b32"}, {"bike_id": "8bf2956216d7f8427df1d798a28c9ea6", "type": "electric_scooter", "is_disabled": 0, "lat": 38.910754, "rental_uris": {"ios": "https://dc.lft.to/lastmile_qr_scan", "android": "https://dc.lft.to/lastmile_qr_scan"}, "is_reserved": 0, "fusion_lon": 0.0, "fusion_lat": 0.0, "lon": -77.0272095, "name": "8bf2956216d7f8427df1d798a28c9ea6"}, {"bike_id": "04382cdfdf2473eb41f3bd7cbcb147f8", "type": "electric_scooter", "is_disabled": 0, "lat": 38.90598416666667, "rental_uris": {"ios": "https://dc.lft.to/lastmile_qr_scan", "android": "https://dc.lft.to/lastmile_qr_scan"}, "is_reserved": 0, "fusion_lon": 0.0, "fusion_lat": 0.0, "lon": -77.07356766666666, "name": "04382cdfdf2473eb41f3bd7cbcb147f8"}, {"bike_id": "9c8299ff9e4a7386f7b4ef221c937a6b", "type": "electric_scooter", "is_disabled": 0, "lat": 38.866867166666665, "rental_uris": {"ios": "https://dc.lft.to/lastmile_qr_scan", "android": "https://dc.lft.to/lastmile_qr_scan"}, "is_reserved": 0, "fusion_lon": 0.0, "fusion_lat": 0.0, "lon": -76.98559916666666, "name": "9c8299ff9e4a7386f7b4ef221c937a6b"}, {"bike_id": "89ce1e322beaa47875f4644b4c4a069e", "type": "electric_scooter", "is_disabled": 0, "lat": 38.921948, "rental_uris": {"ios": "https://dc.lft.to/lastmile_qr_scan", "android": "https://dc.lft.to/lastmile_qr_scan"}, "is_reserved": 0, "fusion_lon": 0.0, "fusion_lat": 0.0, "lon": -77.04704133333334, "name": "89ce1e322beaa47875f4644b4c4a069e"}, {"bike_id": "a9702e9ac91a9b7e87de56b8df03b5d4", "type": "electric_scooter", "is_disabled": 0, "lat": 38.923342833333336, "rental_uris": {"ios": "https://dc.lft.to/lastmile_qr_scan", "android": "https://dc.lft.to/lastmile_qr_scan"}, "is_reserved": 0, "fusion_lon": 0.0, "fusion_lat": 0.0, "lon": -77.0361255, "name": "a9702e9ac91a9b7e87de56b8df03b5d4"}, {"bike_id": "60ec7f8677d11d8c1362dee17ac96005", "type": "electric_scooter", "is_disabled": 0, "lat": 38.924764333333336, "rental_uris": {"ios": "https://dc.lft.to/lastmile_qr_scan", "android": "https://dc.lft.to/lastmile_qr_scan"}, "is_reserved": 0, "fusion_lon": 0.0, "fusion_lat": 0.0, "lon": -77.02838616666666, "name": "60ec7f8677d11d8c1362dee17ac96005"}, {"bike_id": "071cabc6336d5580b84a45aa2d798837", "type": "electric_scooter", "is_disabled": 0, "lat": 38.901429666666665, "rental_uris": {"ios": "https://dc.lft.to/lastmile_qr_scan", "android": "https://dc.lft.to/lastmile_qr_scan"}, "is_reserved": 0, "fusion_lon": 0.0, "fusion_lat": 0.0, "lon": -76.93085533333333, "name": "071cabc6336d5580b84a45aa2d798837"}, {"bike_id": "42643a91b2f5e0b00e355d1cc32f6c34", "type": "electric_scooter", "is_disabled": 0, "lat": 38.89915933333333, "rental_uris": {"ios": "https://dc.lft.to/lastmile_qr_scan", "android": "https://dc.lft.to/lastmile_qr_scan"}, "is_reserved": 0, "fusion_lon": 0.0, "fusion_lat": 0.0, "lon": -76.93367616666667, "name": "42643a91b2f5e0b00e355d1cc32f6c34"}, {"bike_id": "54b86f910555165dc229e22e22846827", "type": "electric_scooter", "is_disabled": 0, "lat": 38.9259135, "rental_uris": {"ios": "https://dc.lft.to/lastmile_qr_scan", "android": "https://dc.lft.to/lastmile_qr_scan"}, "is_reserved": 0, "fusion_lon": 0.0, "fusion_lat": 0.0, "lon": -77.03759083333334, "name": "54b86f910555165dc229e22e22846827"}, {"bike_id": "62c88afa13f118b8da4b0396b87c8a15", "type": "electric_scooter", "is_disabled": 0, "lat": 38.930401833333335, "rental_uris": {"ios": "https://dc.lft.to/lastmile_qr_scan", "android": "https://dc.lft.to/lastmile_qr_scan"}, "is_reserved": 0, "fusion_lon": 0.0, "fusion_lat": 0.0, "lon": -77.03301383333333, "name": "62c88afa13f118b8da4b0396b87c8a15"}, {"bike_id": "dc416f313e63592a4de6c6043e736475", "type": "electric_scooter", "is_disabled": 0, "lat": 38.898456333333336, "rental_uris": {"ios": "https://dc.lft.to/lastmile_qr_scan", "android": "https://dc.lft.to/lastmile_qr_scan"}, "is_reserved": 0, "fusion_lon": 0.0, "fusion_lat": 0.0, "lon": -77.033832, "name": "dc416f313e63592a4de6c6043e736475"}, {"bike_id": "bc871cbcd15ae71e255862f04da70e3e", "type": "electric_scooter", "is_disabled": 0, "lat": 38.9346215, "rental_uris": {"ios": "https://dc.lft.to/lastmile_qr_scan", "android": "https://dc.lft.to/lastmile_qr_scan"}, "is_reserved": 0, "fusion_lon": 0.0, "fusion_lat": 0.0, "lon": -77.02239483333334, "name": "bc871cbcd15ae71e255862f04da70e3e"}, {"bike_id": "0f9c70f1e72f7777461c91b589466caf", "type": "electric_scooter", "is_disabled": 0, "lat": 38.907929, "rental_uris": {"ios": "https://dc.lft.to/lastmile_qr_scan", "android": "https://dc.lft.to/lastmile_qr_scan"}, "is_reserved": 0, "fusion_lon": 0.0, "fusion_lat": 0.0, "lon": -77.04338066666666, "name": "0f9c70f1e72f7777461c91b589466caf"}, {"bike_id": "877f8e201c4a0a223dd63af23b687dc7", "type": "electric_scooter", "is_disabled": 0, "lat": 38.916943, "rental_uris": {"ios": "https://dc.lft.to/lastmile_qr_scan", "android": "https://dc.lft.to/lastmile_qr_scan"}, "is_reserved": 0, "fusion_lon": 0.0, "fusion_lat": 0.0, "lon": -77.023183, "name": "877f8e201c4a0a223dd63af23b687dc7"}, {"bike_id": "1b684065502c80cc91eeee96d067d4ca", "type": "electric_scooter", "is_disabled": 0, "lat": 38.926075833333336, "rental_uris": {"ios": "https://dc.lft.to/lastmile_qr_scan", "android": "https://dc.lft.to/lastmile_qr_scan"}, "is_reserved": 0, "fusion_lon": 0.0, "fusion_lat": 0.0, "lon": -77.10241783333333, "name": "1b684065502c80cc91eeee96d067d4ca"}, {"bike_id": "6828d31cb252c32cf451a5cc0ae2baa4", "type": "electric_scooter", "is_disabled": 0, "lat": 38.92794383333333, "rental_uris": {"ios": "https://dc.lft.to/lastmile_qr_scan", "android": "https://dc.lft.to/lastmile_qr_scan"}, "is_reserved": 0, "fusion_lon": 0.0, "fusion_lat": 0.0, "lon": -77.02207133333333, "name": "6828d31cb252c32cf451a5cc0ae2baa4"}, {"bike_id": "86e80f0bb3b43d351c42b8361d12c4c2", "type": "electric_bike", "is_disabled": 0, "lat": 38.88959966666667, "rental_uris": {"ios": "https://dc.lft.to/lastmile_qr_scan", "android": "https://dc.lft.to/lastmile_qr_scan"}, "is_reserved": 0, "fusion_lon": 0.0, "fusion_lat": 0.0, "lon": -77.0913365, "name": "86e80f0bb3b43d351c42b8361d12c4c2"}, {"bike_id": "9977c951fac1dbb1466dd78b6a19d62b", "type": "electric_scooter", "is_disabled": 0, "lat": 38.911776333333336, "rental_uris": {"ios": "https://dc.lft.to/lastmile_qr_scan", "android": "https://dc.lft.to/lastmile_qr_scan"}, "is_reserved": 0, "fusion_lon": 0.0, "fusion_lat": 0.0, "lon": -77.0686365, "name": "9977c951fac1dbb1466dd78b6a19d62b"}, {"bike_id": "fb65efedad0923e13ebb60b9eed701dc", "type": "electric_scooter", "is_disabled": 0, "lat": 38.9059425, "rental_uris": {"ios": "https://dc.lft.to/lastmile_qr_scan", "android": "https://dc.lft.to/lastmile_qr_scan"}, "is_reserved": 0, "fusion_lon": 0.0, "fusion_lat": 0.0, "lon": -77.07307666666667, "name": "fb65efedad0923e13ebb60b9eed701dc"}, {"bike_id": "36f9d501e1014171a9445320a7a5d3de", "type": "electric_scooter", "is_disabled": 0, "lat": 38.9216965, "rental_uris": {"ios": "https://dc.lft.to/lastmile_qr_scan", "android": "https://dc.lft.to/lastmile_qr_scan"}, "is_reserved": 0, "fusion_lon": 0.0, "fusion_lat": 0.0, "lon": -77.038496, "name": "36f9d501e1014171a9445320a7a5d3de"}, {"bike_id": "7fb717f23b147d329d6e2555bfe26396", "type": "electric_scooter", "is_disabled": 0, "lat": 38.8969365, "rental_uris": {"ios": "https://dc.lft.to/lastmile_qr_scan", "android": "https://dc.lft.to/lastmile_qr_scan"}, "is_reserved": 0, "fusion_lon": 0.0, "fusion_lat": 0.0, "lon": -76.99959716666666, "name": "7fb717f23b147d329d6e2555bfe26396"}, {"bike_id": "565571020990ce3b1d8b0cef79dba4b2", "type": "electric_bike", "is_disabled": 0, "lat": 38.8361075, "rental_uris": {"ios": "https://dc.lft.to/lastmile_qr_scan", "android": "https://dc.lft.to/lastmile_qr_scan"}, "is_reserved": 0, "fusion_lon": 0.0, "fusion_lat": 0.0, "lon": -77.00380683333333, "name": "565571020990ce3b1d8b0cef79dba4b2"}, {"bike_id": "19945baaa468252b22121907c016a2ff", "type": "electric_scooter", "is_disabled": 0, "lat": 38.90978533333333, "rental_uris": {"ios": "https://dc.lft.to/lastmile_qr_scan", "android": "https://dc.lft.to/lastmile_qr_scan"}, "is_reserved": 0, "fusion_lon": 0.0, "fusion_lat": 0.0, "lon": -77.04521716666666, "name": "19945baaa468252b22121907c016a2ff"}, {"bike_id": "d415b05697f4ecd4dd87f83e13c2b658", "type": "electric_scooter", "is_disabled": 0, "lat": 38.911880333333336, "rental_uris": {"ios": "https://dc.lft.to/lastmile_qr_scan", "android": "https://dc.lft.to/lastmile_qr_scan"}, "is_reserved": 0, "fusion_lon": 0.0, "fusion_lat": 0.0, "lon": -77.01117166666667, "name": "d415b05697f4ecd4dd87f83e13c2b658"}, {"bike_id": "bebf01c5de0d6f0ac761051bbe5136fb", "type": "electric_scooter", "is_disabled": 0, "lat": 38.91413083333333, "rental_uris": {"ios": "https://dc.lft.to/lastmile_qr_scan", "android": "https://dc.lft.to/lastmile_qr_scan"}, "is_reserved": 0, "fusion_lon": 0.0, "fusion_lat": 0.0, "lon": -77.03030866666667, "name": "bebf01c5de0d6f0ac761051bbe5136fb"}, {"bike_id": "280375ea1c8c85b9354209bb4b0bbfc4", "type": "electric_scooter", "is_disabled": 0, "lat": 38.94294933333333, "rental_uris": {"ios": "https://dc.lft.to/lastmile_qr_scan", "android": "https://dc.lft.to/lastmile_qr_scan"}, "is_reserved": 0, "fusion_lon": 0.0, "fusion_lat": 0.0, "lon": -77.021698, "name": "280375ea1c8c85b9354209bb4b0bbfc4"}, {"bike_id": "188b3bb2a8e63020137af41084f5c0d4", "type": "electric_bike", "is_disabled": 0, "lat": 38.87086083333333, "rental_uris": {"ios": "https://dc.lft.to/lastmile_qr_scan", "android": "https://dc.lft.to/lastmile_qr_scan"}, "is_reserved": 0, "fusion_lon": 0.0, "fusion_lat": 0.0, "lon": -76.964364, "name": "188b3bb2a8e63020137af41084f5c0d4"}, {"bike_id": "ce63f103d828c13ecee3086a026253c0", "type": "electric_scooter", "is_disabled": 0, "lat": 38.89594133333333, "rental_uris": {"ios": "https://dc.lft.to/lastmile_qr_scan", "android": "https://dc.lft.to/lastmile_qr_scan"}, "is_reserved": 0, "fusion_lon": 0.0, "fusion_lat": 0.0, "lon": -77.00501116666666, "name": "ce63f103d828c13ecee3086a026253c0"}, {"bike_id": "1eda8f534c66a3c8739fba0d95d83f09", "type": "electric_scooter", "is_disabled": 0, "lat": 38.92474516666667, "rental_uris": {"ios": "https://dc.lft.to/lastmile_qr_scan", "android": "https://dc.lft.to/lastmile_qr_scan"}, "is_reserved": 0, "fusion_lon": 0.0, "fusion_lat": 0.0, "lon": -77.0275975, "name": "1eda8f534c66a3c8739fba0d95d83f09"}, {"bike_id": "b7352b4d250719cb2c885420d8725900", "type": "electric_scooter", "is_disabled": 0, "lat": 38.909307, "rental_uris": {"ios": "https://dc.lft.to/lastmile_qr_scan", "android": "https://dc.lft.to/lastmile_qr_scan"}, "is_reserved": 0, "fusion_lon": 0.0, "fusion_lat": 0.0, "lon": -77.07367533333333, "name": "b7352b4d250719cb2c885420d8725900"}, {"bike_id": "998d3ee2cc2cdeab12fed0f703f962a4", "type": "electric_scooter", "is_disabled": 0, "lat": 38.9008865, "rental_uris": {"ios": "https://dc.lft.to/lastmile_qr_scan", "android": "https://dc.lft.to/lastmile_qr_scan"}, "is_reserved": 0, "fusion_lon": 0.0, "fusion_lat": 0.0, "lon": -77.01784366666666, "name": "998d3ee2cc2cdeab12fed0f703f962a4"}, {"bike_id": "a328954b6309c117e8904a540a6820ae", "type": "electric_scooter", "is_disabled": 0, "lat": 38.9367925, "rental_uris": {"ios": "https://dc.lft.to/lastmile_qr_scan", "android": "https://dc.lft.to/lastmile_qr_scan"}, "is_reserved": 0, "fusion_lon": 0.0, "fusion_lat": 0.0, "lon": -77.0358965, "name": "a328954b6309c117e8904a540a6820ae"}, {"bike_id": "9c95824e24913446d42362542d2f414f", "type": "electric_scooter", "is_disabled": 0, "lat": 38.927565333333334, "rental_uris": {"ios": "https://dc.lft.to/lastmile_qr_scan", "android": "https://dc.lft.to/lastmile_qr_scan"}, "is_reserved": 0, "fusion_lon": 0.0, "fusion_lat": 0.0, "lon": -77.025319, "name": "9c95824e24913446d42362542d2f414f"}, {"bike_id": "a65fa553cd19f4f330eb4d94a25e6635", "type": "electric_scooter", "is_disabled": 0, "lat": 38.902941166666665, "rental_uris": {"ios": "https://dc.lft.to/lastmile_qr_scan", "android": "https://dc.lft.to/lastmile_qr_scan"}, "is_reserved": 0, "fusion_lon": 0.0, "fusion_lat": 0.0, "lon": -76.9903755, "name": "a65fa553cd19f4f330eb4d94a25e6635"}, {"bike_id": "4be5693ab02b9056876dfcf211b9977e", "type": "electric_scooter", "is_disabled": 0, "lat": 38.93187116666667, "rental_uris": {"ios": "https://dc.lft.to/lastmile_qr_scan", "android": "https://dc.lft.to/lastmile_qr_scan"}, "is_reserved": 0, "fusion_lon": 0.0, "fusion_lat": 0.0, "lon": -77.0236835, "name": "4be5693ab02b9056876dfcf211b9977e"}, {"bike_id": "bc747a35bb296bf14d9b3758892ffb05", "type": "electric_bike", "is_disabled": 0, "lat": 38.853574, "rental_uris": {"ios": "https://dc.lft.to/lastmile_qr_scan", "android": "https://dc.lft.to/lastmile_qr_scan"}, "is_reserved": 0, "fusion_lon": 0.0, "fusion_lat": 0.0, "lon": -77.1346725, "name": "bc747a35bb296bf14d9b3758892ffb05"}, {"bike_id": "832d0ba5cf5aa2683cb5aac8f7a1a603", "type": "electric_scooter", "is_disabled": 0, "lat": 38.92181933333333, "rental_uris": {"ios": "https://dc.lft.to/lastmile_qr_scan", "android": "https://dc.lft.to/lastmile_qr_scan"}, "is_reserved": 0, "fusion_lon": 0.0, "fusion_lat": 0.0, "lon": -77.04224166666667, "name": "832d0ba5cf5aa2683cb5aac8f7a1a603"}, {"bike_id": "e488447d81a4fe1a8fdebb926fd3107f", "type": "electric_scooter", "is_disabled": 0, "lat": 38.91642916666667, "rental_uris": {"ios": "https://dc.lft.to/lastmile_qr_scan", "android": "https://dc.lft.to/lastmile_qr_scan"}, "is_reserved": 0, "fusion_lon": 0.0, "fusion_lat": 0.0, "lon": -77.00039483333333, "name": "e488447d81a4fe1a8fdebb926fd3107f"}, {"bike_id": "8ff46c2f50b3923b8f46c9d38bc3fd2f", "type": "electric_scooter", "is_disabled": 0, "lat": 38.900779, "rental_uris": {"ios": "https://dc.lft.to/lastmile_qr_scan", "android": "https://dc.lft.to/lastmile_qr_scan"}, "is_reserved": 0, "fusion_lon": 0.0, "fusion_lat": 0.0, "lon": -76.9273135, "name": "8ff46c2f50b3923b8f46c9d38bc3fd2f"}, {"bike_id": "6c56a056829d932a191653b740a44f21", "type": "electric_scooter", "is_disabled": 0, "lat": 38.904268, "rental_uris": {"ios": "https://dc.lft.to/lastmile_qr_scan", "android": "https://dc.lft.to/lastmile_qr_scan"}, "is_reserved": 0, "fusion_lon": 0.0, "fusion_lat": 0.0, "lon": -76.99068816666667, "name": "6c56a056829d932a191653b740a44f21"}, {"bike_id": "997afd2e53995c7531d62634c0276c4d", "type": "electric_scooter", "is_disabled": 0, "lat": 38.90402183333333, "rental_uris": {"ios": "https://dc.lft.to/lastmile_qr_scan", "android": "https://dc.lft.to/lastmile_qr_scan"}, "is_reserved": 0, "fusion_lon": 0.0, "fusion_lat": 0.0, "lon": -77.0677215, "name": "997afd2e53995c7531d62634c0276c4d"}, {"bike_id": "eef1bef1e7d5f062659c8d79a61d9dc9", "type": "electric_scooter", "is_disabled": 0, "lat": 38.920420666666665, "rental_uris": {"ios": "https://dc.lft.to/lastmile_qr_scan", "android": "https://dc.lft.to/lastmile_qr_scan"}, "is_reserved": 0, "fusion_lon": 0.0, "fusion_lat": 0.0, "lon": -77.02399716666666, "name": "eef1bef1e7d5f062659c8d79a61d9dc9"}, {"bike_id": "10be20ea8be2b819c1e89be32554fe0e", "type": "electric_scooter", "is_disabled": 0, "lat": 38.8899125, "rental_uris": {"ios": "https://dc.lft.to/lastmile_qr_scan", "android": "https://dc.lft.to/lastmile_qr_scan"}, "is_reserved": 0, "fusion_lon": 0.0, "fusion_lat": 0.0, "lon": -77.00118233333333, "name": "10be20ea8be2b819c1e89be32554fe0e"}, {"bike_id": "865e29111a488bf49c87c4f53cabefd7", "type": "electric_scooter", "is_disabled": 0, "lat": 38.917894, "rental_uris": {"ios": "https://dc.lft.to/lastmile_qr_scan", "android": "https://dc.lft.to/lastmile_qr_scan"}, "is_reserved": 0, "fusion_lon": 0.0, "fusion_lat": 0.0, "lon": -77.04059433333333, "name": "865e29111a488bf49c87c4f53cabefd7"}, {"bike_id": "3138b497a98278818865422f666d62ae", "type": "electric_scooter", "is_disabled": 0, "lat": 38.917833333333334, "rental_uris": {"ios": "https://dc.lft.to/lastmile_qr_scan", "android": "https://dc.lft.to/lastmile_qr_scan"}, "is_reserved": 0, "fusion_lon": 0.0, "fusion_lat": 0.0, "lon": -77.03656333333333, "name": "3138b497a98278818865422f666d62ae"}, {"bike_id": "db32048c7f09621abf5fb1a8a9b076a3", "type": "electric_scooter", "is_disabled": 0, "lat": 38.918600833333336, "rental_uris": {"ios": "https://dc.lft.to/lastmile_qr_scan", "android": "https://dc.lft.to/lastmile_qr_scan"}, "is_reserved": 0, "fusion_lon": 0.0, "fusion_lat": 0.0, "lon": -77.02515366666667, "name": "db32048c7f09621abf5fb1a8a9b076a3"}, {"bike_id": "b32cb73711a41abf39541448629b7f8d", "type": "electric_scooter", "is_disabled": 0, "lat": 38.90831383333333, "rental_uris": {"ios": "https://dc.lft.to/lastmile_qr_scan", "android": "https://dc.lft.to/lastmile_qr_scan"}, "is_reserved": 0, "fusion_lon": 0.0, "fusion_lat": 0.0, "lon": -77.02695633333333, "name": "b32cb73711a41abf39541448629b7f8d"}, {"bike_id": "cf5bda77c11ad51a7dce476d5cf50add", "type": "electric_scooter", "is_disabled": 0, "lat": 38.9109665, "rental_uris": {"ios": "https://dc.lft.to/lastmile_qr_scan", "android": "https://dc.lft.to/lastmile_qr_scan"}, "is_reserved": 0, "fusion_lon": 0.0, "fusion_lat": 0.0, "lon": -77.02813283333333, "name": "cf5bda77c11ad51a7dce476d5cf50add"}, {"bike_id": "7892144c60bb3ceb22455698320a5992", "type": "electric_scooter", "is_disabled": 0, "lat": 38.8975475, "rental_uris": {"ios": "https://dc.lft.to/lastmile_qr_scan", "android": "https://dc.lft.to/lastmile_qr_scan"}, "is_reserved": 0, "fusion_lon": 0.0, "fusion_lat": 0.0, "lon": -77.02693066666667, "name": "7892144c60bb3ceb22455698320a5992"}, {"bike_id": "b5006f8d4397def990b6ff27108cc215", "type": "electric_scooter", "is_disabled": 0, "lat": 38.9066865, "rental_uris": {"ios": "https://dc.lft.to/lastmile_qr_scan", "android": "https://dc.lft.to/lastmile_qr_scan"}, "is_reserved": 0, "fusion_lon": 0.0, "fusion_lat": 0.0, "lon": -77.06125633333333, "name": "b5006f8d4397def990b6ff27108cc215"}, {"bike_id": "0b074a0468c738d8b69d585aab1b405f", "type": "electric_scooter", "is_disabled": 0, "lat": 38.92180316666666, "rental_uris": {"ios": "https://dc.lft.to/lastmile_qr_scan", "android": "https://dc.lft.to/lastmile_qr_scan"}, "is_reserved": 0, "fusion_lon": 0.0, "fusion_lat": 0.0, "lon": -76.9979465, "name": "0b074a0468c738d8b69d585aab1b405f"}, {"bike_id": "2de625447f4ee686d46da418d6aa8cc0", "type": "electric_bike", "is_disabled": 0, "lat": 38.863716833333335, "rental_uris": {"ios": "https://dc.lft.to/lastmile_qr_scan", "android": "https://dc.lft.to/lastmile_qr_scan"}, "is_reserved": 0, "fusion_lon": 0.0, "fusion_lat": 0.0, "lon": -76.9700905, "name": "2de625447f4ee686d46da418d6aa8cc0"}, {"bike_id": "3cf86d71edbc09893f62560839cfe2cc", "type": "electric_scooter", "is_disabled": 0, "lat": 38.90964533333333, "rental_uris": {"ios": "https://dc.lft.to/lastmile_qr_scan", "android": "https://dc.lft.to/lastmile_qr_scan"}, "is_reserved": 0, "fusion_lon": 0.0, "fusion_lat": 0.0, "lon": -77.01427683333333, "name": "3cf86d71edbc09893f62560839cfe2cc"}, {"bike_id": "9a15852869cb2774cb58d243b2113d46", "type": "electric_scooter", "is_disabled": 0, "lat": 38.85892366666667, "rental_uris": {"ios": "https://dc.lft.to/lastmile_qr_scan", "android": "https://dc.lft.to/lastmile_qr_scan"}, "is_reserved": 0, "fusion_lon": 0.0, "fusion_lat": 0.0, "lon": -76.99725816666667, "name": "9a15852869cb2774cb58d243b2113d46"}, {"bike_id": "5506b76a959c4a74066da7d6ebf38c74", "type": "electric_scooter", "is_disabled": 0, "lat": 38.878187833333335, "rental_uris": {"ios": "https://dc.lft.to/lastmile_qr_scan", "android": "https://dc.lft.to/lastmile_qr_scan"}, "is_reserved": 0, "fusion_lon": 0.0, "fusion_lat": 0.0, "lon": -76.97171266666666, "name": "5506b76a959c4a74066da7d6ebf38c74"}, {"bike_id": "7719897303d5055f1f2e8b62b27713ac", "type": "electric_scooter", "is_disabled": 0, "lat": 38.88160283333333, "rental_uris": {"ios": "https://dc.lft.to/lastmile_qr_scan", "android": "https://dc.lft.to/lastmile_qr_scan"}, "is_reserved": 0, "fusion_lon": 0.0, "fusion_lat": 0.0, "lon": -77.027397, "name": "7719897303d5055f1f2e8b62b27713ac"}, {"bike_id": "34bd8a32a6f7bf796937f0a602f257e1", "type": "electric_scooter", "is_disabled": 0, "lat": 38.920594, "rental_uris": {"ios": "https://dc.lft.to/lastmile_qr_scan", "android": "https://dc.lft.to/lastmile_qr_scan"}, "is_reserved": 0, "fusion_lon": 0.0, "fusion_lat": 0.0, "lon": -77.02425066666666, "name": "34bd8a32a6f7bf796937f0a602f257e1"}, {"bike_id": "d368bc73fc1a6bf5c9ea5b137a19330c", "type": "electric_scooter", "is_disabled": 0, "lat": 38.937725, "rental_uris": {"ios": "https://dc.lft.to/lastmile_qr_scan", "android": "https://dc.lft.to/lastmile_qr_scan"}, "is_reserved": 0, "fusion_lon": 0.0, "fusion_lat": 0.0, "lon": -77.01970533333333, "name": "d368bc73fc1a6bf5c9ea5b137a19330c"}, {"bike_id": "1c846edf19058cd380f674f89020b7fd", "type": "electric_scooter", "is_disabled": 0, "lat": 38.901792666666665, "rental_uris": {"ios": "https://dc.lft.to/lastmile_qr_scan", "android": "https://dc.lft.to/lastmile_qr_scan"}, "is_reserved": 0, "fusion_lon": 0.0, "fusion_lat": 0.0, "lon": -77.02545883333333, "name": "1c846edf19058cd380f674f89020b7fd"}, {"bike_id": "556ac10d9d95b080e39ff2bf7a85df84", "type": "electric_scooter", "is_disabled": 0, "lat": 38.89989, "rental_uris": {"ios": "https://dc.lft.to/lastmile_qr_scan", "android": "https://dc.lft.to/lastmile_qr_scan"}, "is_reserved": 0, "fusion_lon": 0.0, "fusion_lat": 0.0, "lon": -76.94998116666666, "name": "556ac10d9d95b080e39ff2bf7a85df84"}, {"bike_id": "54f419a8f67a44405944fe7502334b00", "type": "electric_bike", "is_disabled": 0, "lat": 38.878862166666664, "rental_uris": {"ios": "https://dc.lft.to/lastmile_qr_scan", "android": "https://dc.lft.to/lastmile_qr_scan"}, "is_reserved": 0, "fusion_lon": 0.0, "fusion_lat": 0.0, "lon": -77.09612333333334, "name": "54f419a8f67a44405944fe7502334b00"}, {"bike_id": "cfb17b5821c5dfee350eaab4ec98f264", "type": "electric_scooter", "is_disabled": 0, "lat": 38.9116625, "rental_uris": {"ios": "https://dc.lft.to/lastmile_qr_scan", "android": "https://dc.lft.to/lastmile_qr_scan"}, "is_reserved": 0, "fusion_lon": 0.0, "fusion_lat": 0.0, "lon": -77.0161665, "name": "cfb17b5821c5dfee350eaab4ec98f264"}, {"bike_id": "06f83fa84c5a6d7781a1215e73acc0fa", "type": "electric_scooter", "is_disabled": 0, "lat": 38.91118266666667, "rental_uris": {"ios": "https://dc.lft.to/lastmile_qr_scan", "android": "https://dc.lft.to/lastmile_qr_scan"}, "is_reserved": 0, "fusion_lon": 0.0, "fusion_lat": 0.0, "lon": -77.0401625, "name": "06f83fa84c5a6d7781a1215e73acc0fa"}, {"bike_id": "ad4c589960aa62d76085fde52523628a", "type": "electric_scooter", "is_disabled": 0, "lat": 38.912716, "rental_uris": {"ios": "https://dc.lft.to/lastmile_qr_scan", "android": "https://dc.lft.to/lastmile_qr_scan"}, "is_reserved": 0, "fusion_lon": 0.0, "fusion_lat": 0.0, "lon": -77.04703283333333, "name": "ad4c589960aa62d76085fde52523628a"}, {"bike_id": "4d376470ac5189cbfee40bc1c9173aee", "type": "electric_scooter", "is_disabled": 0, "lat": 38.90509183333333, "rental_uris": {"ios": "https://dc.lft.to/lastmile_qr_scan", "android": "https://dc.lft.to/lastmile_qr_scan"}, "is_reserved": 0, "fusion_lon": 0.0, "fusion_lat": 0.0, "lon": -76.999586, "name": "4d376470ac5189cbfee40bc1c9173aee"}, {"bike_id": "a79cb090610d626d3d4a4b228b0edab2", "type": "electric_scooter", "is_disabled": 0, "lat": 38.929385833333335, "rental_uris": {"ios": "https://dc.lft.to/lastmile_qr_scan", "android": "https://dc.lft.to/lastmile_qr_scan"}, "is_reserved": 0, "fusion_lon": 0.0, "fusion_lat": 0.0, "lon": -77.0231855, "name": "a79cb090610d626d3d4a4b228b0edab2"}, {"bike_id": "3cc1e3571b7531eec307c2f5f7902fd1", "type": "electric_scooter", "is_disabled": 0, "lat": 38.9283815, "rental_uris": {"ios": "https://dc.lft.to/lastmile_qr_scan", "android": "https://dc.lft.to/lastmile_qr_scan"}, "is_reserved": 0, "fusion_lon": 0.0, "fusion_lat": 0.0, "lon": -77.02969766666666, "name": "3cc1e3571b7531eec307c2f5f7902fd1"}, {"bike_id": "b893f31d7ecceb3f9e82d8ec2358a5ef", "type": "electric_scooter", "is_disabled": 0, "lat": 38.967425166666665, "rental_uris": {"ios": "https://dc.lft.to/lastmile_qr_scan", "android": "https://dc.lft.to/lastmile_qr_scan"}, "is_reserved": 0, "fusion_lon": 0.0, "fusion_lat": 0.0, "lon": -77.055165, "name": "b893f31d7ecceb3f9e82d8ec2358a5ef"}, {"bike_id": "51c0223ffde6d835b75959ecf13460a9", "type": "electric_bike", "is_disabled": 0, "lat": 38.9650685, "rental_uris": {"ios": "https://dc.lft.to/lastmile_qr_scan", "android": "https://dc.lft.to/lastmile_qr_scan"}, "is_reserved": 0, "fusion_lon": 0.0, "fusion_lat": 0.0, "lon": -77.02827, "name": "51c0223ffde6d835b75959ecf13460a9"}, {"bike_id": "76172d74104ee34618a307bfe235a94f", "type": "electric_scooter", "is_disabled": 0, "lat": 38.919454333333334, "rental_uris": {"ios": "https://dc.lft.to/lastmile_qr_scan", "android": "https://dc.lft.to/lastmile_qr_scan"}, "is_reserved": 0, "fusion_lon": 0.0, "fusion_lat": 0.0, "lon": -77.04503433333333, "name": "76172d74104ee34618a307bfe235a94f"}, {"bike_id": "de05fb73c5263b9d4f1170455507277c", "type": "electric_scooter", "is_disabled": 0, "lat": 38.933274833333336, "rental_uris": {"ios": "https://dc.lft.to/lastmile_qr_scan", "android": "https://dc.lft.to/lastmile_qr_scan"}, "is_reserved": 0, "fusion_lon": 0.0, "fusion_lat": 0.0, "lon": -77.02395283333334, "name": "de05fb73c5263b9d4f1170455507277c"}, {"bike_id": "15611c8f7d52ae7037c87051710c80f5", "type": "electric_scooter", "is_disabled": 0, "lat": 38.877906833333334, "rental_uris": {"ios": "https://dc.lft.to/lastmile_qr_scan", "android": "https://dc.lft.to/lastmile_qr_scan"}, "is_reserved": 0, "fusion_lon": 0.0, "fusion_lat": 0.0, "lon": -77.00119466666666, "name": "15611c8f7d52ae7037c87051710c80f5"}, {"bike_id": "730433522105f2994bfc402305fba30b", "type": "electric_scooter", "is_disabled": 0, "lat": 38.90525266666667, "rental_uris": {"ios": "https://dc.lft.to/lastmile_qr_scan", "android": "https://dc.lft.to/lastmile_qr_scan"}, "is_reserved": 0, "fusion_lon": 0.0, "fusion_lat": 0.0, "lon": -77.04347233333333, "name": "730433522105f2994bfc402305fba30b"}, {"bike_id": "ae5a3d007b3abb17fdfd12431f585a2f", "type": "electric_scooter", "is_disabled": 0, "lat": 38.92332366666667, "rental_uris": {"ios": "https://dc.lft.to/lastmile_qr_scan", "android": "https://dc.lft.to/lastmile_qr_scan"}, "is_reserved": 0, "fusion_lon": 0.0, "fusion_lat": 0.0, "lon": -77.00884266666667, "name": "ae5a3d007b3abb17fdfd12431f585a2f"}, {"bike_id": "dba4aefe3c64e253844e07f323a7545e", "type": "electric_scooter", "is_disabled": 0, "lat": 38.93567266666667, "rental_uris": {"ios": "https://dc.lft.to/lastmile_qr_scan", "android": "https://dc.lft.to/lastmile_qr_scan"}, "is_reserved": 0, "fusion_lon": 0.0, "fusion_lat": 0.0, "lon": -77.03825083333334, "name": "dba4aefe3c64e253844e07f323a7545e"}, {"bike_id": "94e785c65aab2cabe51457d985835d5f", "type": "electric_bike", "is_disabled": 0, "lat": 38.9090125, "rental_uris": {"ios": "https://dc.lft.to/lastmile_qr_scan", "android": "https://dc.lft.to/lastmile_qr_scan"}, "is_reserved": 0, "fusion_lon": 0.0, "fusion_lat": 0.0, "lon": -77.05718783333333, "name": "94e785c65aab2cabe51457d985835d5f"}, {"bike_id": "a1deeca55db889d9ef3270e5b84920ac", "type": "electric_bike", "is_disabled": 0, "lat": 38.9877265, "rental_uris": {"ios": "https://dc.lft.to/lastmile_qr_scan", "android": "https://dc.lft.to/lastmile_qr_scan"}, "is_reserved": 0, "fusion_lon": 0.0, "fusion_lat": 0.0, "lon": -77.14053716666666, "name": "a1deeca55db889d9ef3270e5b84920ac"}, {"bike_id": "22b0c4af5dc9da8c04d0a1478f9fcc7c", "type": "electric_bike", "is_disabled": 0, "lat": 38.951787333333336, "rental_uris": {"ios": "https://dc.lft.to/lastmile_qr_scan", "android": "https://dc.lft.to/lastmile_qr_scan"}, "is_reserved": 0, "fusion_lon": 0.0, "fusion_lat": 0.0, "lon": -76.977307, "name": "22b0c4af5dc9da8c04d0a1478f9fcc7c"}, {"bike_id": "73a219aa30d40e2dde394dd2dcf6b337", "type": "electric_scooter", "is_disabled": 0, "lat": 38.916623333333334, "rental_uris": {"ios": "https://dc.lft.to/lastmile_qr_scan", "android": "https://dc.lft.to/lastmile_qr_scan"}, "is_reserved": 0, "fusion_lon": 0.0, "fusion_lat": 0.0, "lon": -76.97906466666667, "name": "73a219aa30d40e2dde394dd2dcf6b337"}, {"bike_id": "4d2a7421c7ec78cb7a0f67976ee0e2a4", "type": "electric_scooter", "is_disabled": 0, "lat": 38.924898666666664, "rental_uris": {"ios": "https://dc.lft.to/lastmile_qr_scan", "android": "https://dc.lft.to/lastmile_qr_scan"}, "is_reserved": 0, "fusion_lon": 0.0, "fusion_lat": 0.0, "lon": -77.03175066666667, "name": "4d2a7421c7ec78cb7a0f67976ee0e2a4"}, {"bike_id": "f6e11c8a58e2787b6d2352b3132be5a7", "type": "electric_scooter", "is_disabled": 0, "lat": 38.900660333333335, "rental_uris": {"ios": "https://dc.lft.to/lastmile_qr_scan", "android": "https://dc.lft.to/lastmile_qr_scan"}, "is_reserved": 0, "fusion_lon": 0.0, "fusion_lat": 0.0, "lon": -77.01719216666666, "name": "f6e11c8a58e2787b6d2352b3132be5a7"}, {"bike_id": "84a359299b627fb88c9594a777132d62", "type": "electric_scooter", "is_disabled": 0, "lat": 38.92377666666667, "rental_uris": {"ios": "https://dc.lft.to/lastmile_qr_scan", "android": "https://dc.lft.to/lastmile_qr_scan"}, "is_reserved": 0, "fusion_lon": 0.0, "fusion_lat": 0.0, "lon": -77.012178, "name": "84a359299b627fb88c9594a777132d62"}, {"bike_id": "4789d57a0bc16412c7ed6e67d1455120", "type": "electric_scooter", "is_disabled": 0, "lat": 38.949012, "rental_uris": {"ios": "https://dc.lft.to/lastmile_qr_scan", "android": "https://dc.lft.to/lastmile_qr_scan"}, "is_reserved": 0, "fusion_lon": 0.0, "fusion_lat": 0.0, "lon": -77.02072566666666, "name": "4789d57a0bc16412c7ed6e67d1455120"}, {"bike_id": "4149891cd72f6f0686856fcd0f4ff462", "type": "electric_bike", "is_disabled": 0, "lat": 38.86152966666667, "rental_uris": {"ios": "https://dc.lft.to/lastmile_qr_scan", "android": "https://dc.lft.to/lastmile_qr_scan"}, "is_reserved": 0, "fusion_lon": 0.0, "fusion_lat": 0.0, "lon": -77.09141916666667, "name": "4149891cd72f6f0686856fcd0f4ff462"}, {"bike_id": "10995c8c1a61a33ba54a72e1083302d0", "type": "electric_bike", "is_disabled": 0, "lat": 38.929658, "rental_uris": {"ios": "https://dc.lft.to/lastmile_qr_scan", "android": "https://dc.lft.to/lastmile_qr_scan"}, "is_reserved": 0, "fusion_lon": 0.0, "fusion_lat": 0.0, "lon": -77.185615, "name": "10995c8c1a61a33ba54a72e1083302d0"}, {"bike_id": "7ab6f0fcca22f5ff454c0a0ca1c8e57a", "type": "electric_bike", "is_disabled": 0, "lat": 38.971536666666665, "rental_uris": {"ios": "https://dc.lft.to/lastmile_qr_scan", "android": "https://dc.lft.to/lastmile_qr_scan"}, "is_reserved": 0, "fusion_lon": 0.0, "fusion_lat": 0.0, "lon": -77.027238, "name": "7ab6f0fcca22f5ff454c0a0ca1c8e57a"}, {"bike_id": "5c07812e698afc3e17157530f224921a", "type": "electric_scooter", "is_disabled": 0, "lat": 38.927929666666664, "rental_uris": {"ios": "https://dc.lft.to/lastmile_qr_scan", "android": "https://dc.lft.to/lastmile_qr_scan"}, "is_reserved": 0, "fusion_lon": 0.0, "fusion_lat": 0.0, "lon": -77.02129433333333, "name": "5c07812e698afc3e17157530f224921a"}, {"bike_id": "93d26a221c6567712e5a397b4ea2c4e7", "type": "electric_scooter", "is_disabled": 0, "lat": 38.93639483333333, "rental_uris": {"ios": "https://dc.lft.to/lastmile_qr_scan", "android": "https://dc.lft.to/lastmile_qr_scan"}, "is_reserved": 0, "fusion_lon": 0.0, "fusion_lat": 0.0, "lon": -77.05881983333333, "name": "93d26a221c6567712e5a397b4ea2c4e7"}, {"bike_id": "d5a5603c764bca2fd71816717d08d4b6", "type": "electric_scooter", "is_disabled": 0, "lat": 38.90279666666667, "rental_uris": {"ios": "https://dc.lft.to/lastmile_qr_scan", "android": "https://dc.lft.to/lastmile_qr_scan"}, "is_reserved": 0, "fusion_lon": 0.0, "fusion_lat": 0.0, "lon": -77.05786816666667, "name": "d5a5603c764bca2fd71816717d08d4b6"}, {"bike_id": "c82c54cd7e732b5bcdb22fc51c5e1a56", "type": "electric_scooter", "is_disabled": 0, "lat": 38.91113933333333, "rental_uris": {"ios": "https://dc.lft.to/lastmile_qr_scan", "android": "https://dc.lft.to/lastmile_qr_scan"}, "is_reserved": 0, "fusion_lon": 0.0, "fusion_lat": 0.0, "lon": -77.01154983333333, "name": "c82c54cd7e732b5bcdb22fc51c5e1a56"}, {"bike_id": "75b3a0d591cc26a1290867d5f141443b", "type": "electric_scooter", "is_disabled": 0, "lat": 38.870721, "rental_uris": {"ios": "https://dc.lft.to/lastmile_qr_scan", "android": "https://dc.lft.to/lastmile_qr_scan"}, "is_reserved": 0, "fusion_lon": 0.0, "fusion_lat": 0.0, "lon": -76.9813145, "name": "75b3a0d591cc26a1290867d5f141443b"}, {"bike_id": "4552d5b8a2d22a4e8e65fd95313fce69", "type": "electric_scooter", "is_disabled": 0, "lat": 38.898466, "rental_uris": {"ios": "https://dc.lft.to/lastmile_qr_scan", "android": "https://dc.lft.to/lastmile_qr_scan"}, "is_reserved": 0, "fusion_lon": 0.0, "fusion_lat": 0.0, "lon": -76.94628833333333, "name": "4552d5b8a2d22a4e8e65fd95313fce69"}, {"bike_id": "1bf8f449ccf114f0b10e0eb1571caac8", "type": "electric_scooter", "is_disabled": 0, "lat": 38.932520333333336, "rental_uris": {"ios": "https://dc.lft.to/lastmile_qr_scan", "android": "https://dc.lft.to/lastmile_qr_scan"}, "is_reserved": 0, "fusion_lon": 0.0, "fusion_lat": 0.0, "lon": -77.019996, "name": "1bf8f449ccf114f0b10e0eb1571caac8"}, {"bike_id": "782a7f46327012ff83e2ede6f3709065", "type": "electric_scooter", "is_disabled": 0, "lat": 38.91638716666667, "rental_uris": {"ios": "https://dc.lft.to/lastmile_qr_scan", "android": "https://dc.lft.to/lastmile_qr_scan"}, "is_reserved": 0, "fusion_lon": 0.0, "fusion_lat": 0.0, "lon": -77.01424366666667, "name": "782a7f46327012ff83e2ede6f3709065"}, {"bike_id": "75c9c0e4a0b6e2b1d90ea7090770e9ab", "type": "electric_scooter", "is_disabled": 0, "lat": 38.907020833333334, "rental_uris": {"ios": "https://dc.lft.to/lastmile_qr_scan", "android": "https://dc.lft.to/lastmile_qr_scan"}, "is_reserved": 0, "fusion_lon": 0.0, "fusion_lat": 0.0, "lon": -76.9872995, "name": "75c9c0e4a0b6e2b1d90ea7090770e9ab"}, {"bike_id": "518dda8b6720a5a50f2ee9ce4cd9e75d", "type": "electric_scooter", "is_disabled": 0, "lat": 38.916987666666664, "rental_uris": {"ios": "https://dc.lft.to/lastmile_qr_scan", "android": "https://dc.lft.to/lastmile_qr_scan"}, "is_reserved": 0, "fusion_lon": 0.0, "fusion_lat": 0.0, "lon": -77.04111133333333, "name": "518dda8b6720a5a50f2ee9ce4cd9e75d"}, {"bike_id": "7774c7016456f442a58774c5f63a652f", "type": "electric_scooter", "is_disabled": 0, "lat": 38.91817566666667, "rental_uris": {"ios": "https://dc.lft.to/lastmile_qr_scan", "android": "https://dc.lft.to/lastmile_qr_scan"}, "is_reserved": 0, "fusion_lon": 0.0, "fusion_lat": 0.0, "lon": -77.024744, "name": "7774c7016456f442a58774c5f63a652f"}, {"bike_id": "ff8417fe8809d461ee4a885ffea618eb", "type": "electric_scooter", "is_disabled": 0, "lat": 38.92369816666667, "rental_uris": {"ios": "https://dc.lft.to/lastmile_qr_scan", "android": "https://dc.lft.to/lastmile_qr_scan"}, "is_reserved": 0, "fusion_lon": 0.0, "fusion_lat": 0.0, "lon": -77.07638983333334, "name": "ff8417fe8809d461ee4a885ffea618eb"}, {"bike_id": "9dfa86dc5f50826d2856e2a16e31a81a", "type": "electric_scooter", "is_disabled": 0, "lat": 38.8546495, "rental_uris": {"ios": "https://dc.lft.to/lastmile_qr_scan", "android": "https://dc.lft.to/lastmile_qr_scan"}, "is_reserved": 0, "fusion_lon": 0.0, "fusion_lat": 0.0, "lon": -76.972287, "name": "9dfa86dc5f50826d2856e2a16e31a81a"}, {"bike_id": "4ed4a810de82bf9dde1b6faac4374fe9", "type": "electric_bike", "is_disabled": 0, "lat": 38.911911333333336, "rental_uris": {"ios": "https://dc.lft.to/lastmile_qr_scan", "android": "https://dc.lft.to/lastmile_qr_scan"}, "is_reserved": 0, "fusion_lon": 0.0, "fusion_lat": 0.0, "lon": -77.0594025, "name": "4ed4a810de82bf9dde1b6faac4374fe9"}, {"bike_id": "0b5c53841e89485cd1838240201246da", "type": "electric_scooter", "is_disabled": 0, "lat": 38.921987666666666, "rental_uris": {"ios": "https://dc.lft.to/lastmile_qr_scan", "android": "https://dc.lft.to/lastmile_qr_scan"}, "is_reserved": 0, "fusion_lon": 0.0, "fusion_lat": 0.0, "lon": -77.04700383333333, "name": "0b5c53841e89485cd1838240201246da"}, {"bike_id": "e176329365f3de53213ebba304ea3e3c", "type": "electric_bike", "is_disabled": 0, "lat": 38.96961066666667, "rental_uris": {"ios": "https://dc.lft.to/lastmile_qr_scan", "android": "https://dc.lft.to/lastmile_qr_scan"}, "is_reserved": 0, "fusion_lon": 0.0, "fusion_lat": 0.0, "lon": -76.95747133333333, "name": "e176329365f3de53213ebba304ea3e3c"}, {"bike_id": "90a72c5c2ddea05f8c75c2ec4b166e4a", "type": "electric_scooter", "is_disabled": 0, "lat": 38.92152466666667, "rental_uris": {"ios": "https://dc.lft.to/lastmile_qr_scan", "android": "https://dc.lft.to/lastmile_qr_scan"}, "is_reserved": 0, "fusion_lon": 0.0, "fusion_lat": 0.0, "lon": -77.042378, "name": "90a72c5c2ddea05f8c75c2ec4b166e4a"}, {"bike_id": "4ffe7f146bcac6908b712878a44f0733", "type": "electric_scooter", "is_disabled": 0, "lat": 38.883026, "rental_uris": {"ios": "https://dc.lft.to/lastmile_qr_scan", "android": "https://dc.lft.to/lastmile_qr_scan"}, "is_reserved": 0, "fusion_lon": 0.0, "fusion_lat": 0.0, "lon": -76.94856566666667, "name": "4ffe7f146bcac6908b712878a44f0733"}, {"bike_id": "40e54146f28bc3a7f8a5ebef28c32de3", "type": "electric_scooter", "is_disabled": 0, "lat": 38.922265833333334, "rental_uris": {"ios": "https://dc.lft.to/lastmile_qr_scan", "android": "https://dc.lft.to/lastmile_qr_scan"}, "is_reserved": 0, "fusion_lon": 0.0, "fusion_lat": 0.0, "lon": -77.0426875, "name": "40e54146f28bc3a7f8a5ebef28c32de3"}, {"bike_id": "21b6f6000efa5452730c934a21900235", "type": "electric_scooter", "is_disabled": 0, "lat": 38.92712383333333, "rental_uris": {"ios": "https://dc.lft.to/lastmile_qr_scan", "android": "https://dc.lft.to/lastmile_qr_scan"}, "is_reserved": 0, "fusion_lon": 0.0, "fusion_lat": 0.0, "lon": -77.02084883333333, "name": "21b6f6000efa5452730c934a21900235"}, {"bike_id": "6bc053238b5bc4635da159775fae6a2c", "type": "electric_scooter", "is_disabled": 0, "lat": 38.92477183333333, "rental_uris": {"ios": "https://dc.lft.to/lastmile_qr_scan", "android": "https://dc.lft.to/lastmile_qr_scan"}, "is_reserved": 0, "fusion_lon": 0.0, "fusion_lat": 0.0, "lon": -77.028329, "name": "6bc053238b5bc4635da159775fae6a2c"}, {"bike_id": "a3f4c6201afe55108f256d68cf3d997a", "type": "electric_scooter", "is_disabled": 0, "lat": 38.90791, "rental_uris": {"ios": "https://dc.lft.to/lastmile_qr_scan", "android": "https://dc.lft.to/lastmile_qr_scan"}, "is_reserved": 0, "fusion_lon": 0.0, "fusion_lat": 0.0, "lon": -76.99420566666667, "name": "a3f4c6201afe55108f256d68cf3d997a"}, {"bike_id": "b560d1f2262dcd56a5698a477a24cb1b", "type": "electric_bike", "is_disabled": 0, "lat": 38.807563, "rental_uris": {"ios": "https://dc.lft.to/lastmile_qr_scan", "android": "https://dc.lft.to/lastmile_qr_scan"}, "is_reserved": 0, "fusion_lon": 0.0, "fusion_lat": 0.0, "lon": -77.09451466666667, "name": "b560d1f2262dcd56a5698a477a24cb1b"}, {"bike_id": "d1c49e386ddb718e263006b6394c220b", "type": "electric_scooter", "is_disabled": 0, "lat": 38.894875166666665, "rental_uris": {"ios": "https://dc.lft.to/lastmile_qr_scan", "android": "https://dc.lft.to/lastmile_qr_scan"}, "is_reserved": 0, "fusion_lon": 0.0, "fusion_lat": 0.0, "lon": -76.98784516666667, "name": "d1c49e386ddb718e263006b6394c220b"}, {"bike_id": "783932400172db5614992a5baca5a236", "type": "electric_scooter", "is_disabled": 0, "lat": 38.93901866666667, "rental_uris": {"ios": "https://dc.lft.to/lastmile_qr_scan", "android": "https://dc.lft.to/lastmile_qr_scan"}, "is_reserved": 0, "fusion_lon": 0.0, "fusion_lat": 0.0, "lon": -77.0333945, "name": "783932400172db5614992a5baca5a236"}, {"bike_id": "1f82c47307b686fc39c9ef6d8de30917", "type": "electric_scooter", "is_disabled": 0, "lat": 38.87071683333333, "rental_uris": {"ios": "https://dc.lft.to/lastmile_qr_scan", "android": "https://dc.lft.to/lastmile_qr_scan"}, "is_reserved": 0, "fusion_lon": 0.0, "fusion_lat": 0.0, "lon": -76.981273, "name": "1f82c47307b686fc39c9ef6d8de30917"}, {"bike_id": "bdde61ccf28a86090769d12539198693", "type": "electric_bike", "is_disabled": 0, "lat": 38.864836333333336, "rental_uris": {"ios": "https://dc.lft.to/lastmile_qr_scan", "android": "https://dc.lft.to/lastmile_qr_scan"}, "is_reserved": 0, "fusion_lon": 0.0, "fusion_lat": 0.0, "lon": -76.97735983333334, "name": "bdde61ccf28a86090769d12539198693"}, {"bike_id": "3ab9aa8e4703b7354c0d63568cba1192", "type": "electric_scooter", "is_disabled": 0, "lat": 38.939839166666665, "rental_uris": {"ios": "https://dc.lft.to/lastmile_qr_scan", "android": "https://dc.lft.to/lastmile_qr_scan"}, "is_reserved": 0, "fusion_lon": 0.0, "fusion_lat": 0.0, "lon": -77.02872733333334, "name": "3ab9aa8e4703b7354c0d63568cba1192"}, {"bike_id": "d82d1d92d35648f685de730fe8f9556f", "type": "electric_scooter", "is_disabled": 0, "lat": 38.89297333333333, "rental_uris": {"ios": "https://dc.lft.to/lastmile_qr_scan", "android": "https://dc.lft.to/lastmile_qr_scan"}, "is_reserved": 0, "fusion_lon": 0.0, "fusion_lat": 0.0, "lon": -77.0202075, "name": "d82d1d92d35648f685de730fe8f9556f"}, {"bike_id": "e6d9244019001a3489eba33c39a81b21", "type": "electric_bike", "is_disabled": 0, "lat": 38.93505783333333, "rental_uris": {"ios": "https://dc.lft.to/lastmile_qr_scan", "android": "https://dc.lft.to/lastmile_qr_scan"}, "is_reserved": 0, "fusion_lon": 0.0, "fusion_lat": 0.0, "lon": -77.0363625, "name": "e6d9244019001a3489eba33c39a81b21"}, {"bike_id": "87f47887d77c3025198e8cf30b676947", "type": "electric_scooter", "is_disabled": 0, "lat": 38.92329866666667, "rental_uris": {"ios": "https://dc.lft.to/lastmile_qr_scan", "android": "https://dc.lft.to/lastmile_qr_scan"}, "is_reserved": 0, "fusion_lon": 0.0, "fusion_lat": 0.0, "lon": -77.00052633333334, "name": "87f47887d77c3025198e8cf30b676947"}, {"bike_id": "fb2f9a57a05db98fa4ae7b350bb616b3", "type": "electric_bike", "is_disabled": 0, "lat": 38.959673333333335, "rental_uris": {"ios": "https://dc.lft.to/lastmile_qr_scan", "android": "https://dc.lft.to/lastmile_qr_scan"}, "is_reserved": 0, "fusion_lon": 0.0, "fusion_lat": 0.0, "lon": -76.98157266666666, "name": "fb2f9a57a05db98fa4ae7b350bb616b3"}, {"bike_id": "eb229c19d10f1abc42d5dcb062335c31", "type": "electric_scooter", "is_disabled": 0, "lat": 38.91727183333333, "rental_uris": {"ios": "https://dc.lft.to/lastmile_qr_scan", "android": "https://dc.lft.to/lastmile_qr_scan"}, "is_reserved": 0, "fusion_lon": 0.0, "fusion_lat": 0.0, "lon": -77.00815, "name": "eb229c19d10f1abc42d5dcb062335c31"}, {"bike_id": "5b499d7ea61678ce2e69277ae16136a9", "type": "electric_scooter", "is_disabled": 0, "lat": 38.94203183333333, "rental_uris": {"ios": "https://dc.lft.to/lastmile_qr_scan", "android": "https://dc.lft.to/lastmile_qr_scan"}, "is_reserved": 0, "fusion_lon": 0.0, "fusion_lat": 0.0, "lon": -77.025435, "name": "5b499d7ea61678ce2e69277ae16136a9"}, {"bike_id": "42b351a7a2d5503190f34264d2d9b62b", "type": "electric_scooter", "is_disabled": 0, "lat": 38.92487033333333, "rental_uris": {"ios": "https://dc.lft.to/lastmile_qr_scan", "android": "https://dc.lft.to/lastmile_qr_scan"}, "is_reserved": 0, "fusion_lon": 0.0, "fusion_lat": 0.0, "lon": -77.02958816666667, "name": "42b351a7a2d5503190f34264d2d9b62b"}, {"bike_id": "bcd84035eee82d1c143ce8d4b5476b5e", "type": "electric_scooter", "is_disabled": 0, "lat": 38.85811983333333, "rental_uris": {"ios": "https://dc.lft.to/lastmile_qr_scan", "android": "https://dc.lft.to/lastmile_qr_scan"}, "is_reserved": 0, "fusion_lon": 0.0, "fusion_lat": 0.0, "lon": -76.98921983333334, "name": "bcd84035eee82d1c143ce8d4b5476b5e"}, {"bike_id": "ad08958f72ebc5298bb22c367ac4225a", "type": "electric_scooter", "is_disabled": 0, "lat": 38.916994833333334, "rental_uris": {"ios": "https://dc.lft.to/lastmile_qr_scan", "android": "https://dc.lft.to/lastmile_qr_scan"}, "is_reserved": 0, "fusion_lon": 0.0, "fusion_lat": 0.0, "lon": -77.0288475, "name": "ad08958f72ebc5298bb22c367ac4225a"}, {"bike_id": "9035e2442e8fe2283eef8e7f4abf6432", "type": "electric_scooter", "is_disabled": 0, "lat": 38.91417466666667, "rental_uris": {"ios": "https://dc.lft.to/lastmile_qr_scan", "android": "https://dc.lft.to/lastmile_qr_scan"}, "is_reserved": 0, "fusion_lon": 0.0, "fusion_lat": 0.0, "lon": -77.03955183333333, "name": "9035e2442e8fe2283eef8e7f4abf6432"}, {"bike_id": "ae0c42ec0dee2b3dc62a836448c693fa", "type": "electric_scooter", "is_disabled": 0, "lat": 38.899704666666665, "rental_uris": {"ios": "https://dc.lft.to/lastmile_qr_scan", "android": "https://dc.lft.to/lastmile_qr_scan"}, "is_reserved": 0, "fusion_lon": 0.0, "fusion_lat": 0.0, "lon": -76.98303033333333, "name": "ae0c42ec0dee2b3dc62a836448c693fa"}, {"bike_id": "194322c406aa0d62f44f397b240cccee", "type": "electric_scooter", "is_disabled": 0, "lat": 38.866302833333336, "rental_uris": {"ios": "https://dc.lft.to/lastmile_qr_scan", "android": "https://dc.lft.to/lastmile_qr_scan"}, "is_reserved": 0, "fusion_lon": 0.0, "fusion_lat": 0.0, "lon": -76.9871515, "name": "194322c406aa0d62f44f397b240cccee"}, {"bike_id": "d0c368595d4ccb1384326eb25a7e3990", "type": "electric_scooter", "is_disabled": 0, "lat": 38.901281833333336, "rental_uris": {"ios": "https://dc.lft.to/lastmile_qr_scan", "android": "https://dc.lft.to/lastmile_qr_scan"}, "is_reserved": 0, "fusion_lon": 0.0, "fusion_lat": 0.0, "lon": -77.038711, "name": "d0c368595d4ccb1384326eb25a7e3990"}, {"bike_id": "0f5fef5699a64487be25333426711dcf", "type": "electric_scooter", "is_disabled": 0, "lat": 38.862478833333334, "rental_uris": {"ios": "https://dc.lft.to/lastmile_qr_scan", "android": "https://dc.lft.to/lastmile_qr_scan"}, "is_reserved": 0, "fusion_lon": 0.0, "fusion_lat": 0.0, "lon": -76.9950095, "name": "0f5fef5699a64487be25333426711dcf"}, {"bike_id": "eb562e8392f979066a4a98aebe7e1d9b", "type": "electric_scooter", "is_disabled": 0, "lat": 38.956025333333336, "rental_uris": {"ios": "https://dc.lft.to/lastmile_qr_scan", "android": "https://dc.lft.to/lastmile_qr_scan"}, "is_reserved": 0, "fusion_lon": 0.0, "fusion_lat": 0.0, "lon": -77.000966, "name": "eb562e8392f979066a4a98aebe7e1d9b"}, {"bike_id": "a87270909d97dd0fdd7a2a15ff0f2406", "type": "electric_scooter", "is_disabled": 0, "lat": 38.923896, "rental_uris": {"ios": "https://dc.lft.to/lastmile_qr_scan", "android": "https://dc.lft.to/lastmile_qr_scan"}, "is_reserved": 0, "fusion_lon": 0.0, "fusion_lat": 0.0, "lon": -77.03082283333333, "name": "a87270909d97dd0fdd7a2a15ff0f2406"}, {"bike_id": "91995f9e347066a92f2a4b52405eab46", "type": "electric_scooter", "is_disabled": 0, "lat": 38.88051866666667, "rental_uris": {"ios": "https://dc.lft.to/lastmile_qr_scan", "android": "https://dc.lft.to/lastmile_qr_scan"}, "is_reserved": 0, "fusion_lon": 0.0, "fusion_lat": 0.0, "lon": -76.93214683333333, "name": "91995f9e347066a92f2a4b52405eab46"}, {"bike_id": "6e94d6f00a6c036a2d8ce32d54dcd881", "type": "electric_scooter", "is_disabled": 0, "lat": 38.91603116666667, "rental_uris": {"ios": "https://dc.lft.to/lastmile_qr_scan", "android": "https://dc.lft.to/lastmile_qr_scan"}, "is_reserved": 0, "fusion_lon": 0.0, "fusion_lat": 0.0, "lon": -77.0019435, "name": "6e94d6f00a6c036a2d8ce32d54dcd881"}, {"bike_id": "238a2b0a0db912a4ee4fdbddd0dfb110", "type": "electric_scooter", "is_disabled": 0, "lat": 38.93179716666667, "rental_uris": {"ios": "https://dc.lft.to/lastmile_qr_scan", "android": "https://dc.lft.to/lastmile_qr_scan"}, "is_reserved": 0, "fusion_lon": 0.0, "fusion_lat": 0.0, "lon": -77.02844716666667, "name": "238a2b0a0db912a4ee4fdbddd0dfb110"}, {"bike_id": "c2c6f5327e19e67ca4cc1fbad4542512", "type": "electric_scooter", "is_disabled": 0, "lat": 38.90077616666667, "rental_uris": {"ios": "https://dc.lft.to/lastmile_qr_scan", "android": "https://dc.lft.to/lastmile_qr_scan"}, "is_reserved": 0, "fusion_lon": 0.0, "fusion_lat": 0.0, "lon": -77.05306633333333, "name": "c2c6f5327e19e67ca4cc1fbad4542512"}, {"bike_id": "115a1f2bde5801fc1030a575e0d92fc4", "type": "electric_scooter", "is_disabled": 0, "lat": 38.922549833333335, "rental_uris": {"ios": "https://dc.lft.to/lastmile_qr_scan", "android": "https://dc.lft.to/lastmile_qr_scan"}, "is_reserved": 0, "fusion_lon": 0.0, "fusion_lat": 0.0, "lon": -77.01952466666667, "name": "115a1f2bde5801fc1030a575e0d92fc4"}, {"bike_id": "16acd4d0e5be2692e2c8405a0dc6e5ae", "type": "electric_bike", "is_disabled": 0, "lat": 39.057863833333336, "rental_uris": {"ios": "https://dc.lft.to/lastmile_qr_scan", "android": "https://dc.lft.to/lastmile_qr_scan"}, "is_reserved": 0, "fusion_lon": 0.0, "fusion_lat": 0.0, "lon": -77.15026833333333, "name": "16acd4d0e5be2692e2c8405a0dc6e5ae"}, {"bike_id": "8d38d89c088f487b80ff64aaa8c12319", "type": "electric_scooter", "is_disabled": 0, "lat": 38.907926333333336, "rental_uris": {"ios": "https://dc.lft.to/lastmile_qr_scan", "android": "https://dc.lft.to/lastmile_qr_scan"}, "is_reserved": 0, "fusion_lon": 0.0, "fusion_lat": 0.0, "lon": -77.01859, "name": "8d38d89c088f487b80ff64aaa8c12319"}, {"bike_id": "500805ae21e385a02b5811266cf984d5", "type": "electric_scooter", "is_disabled": 0, "lat": 38.8570375, "rental_uris": {"ios": "https://dc.lft.to/lastmile_qr_scan", "android": "https://dc.lft.to/lastmile_qr_scan"}, "is_reserved": 0, "fusion_lon": 0.0, "fusion_lat": 0.0, "lon": -76.98964733333334, "name": "500805ae21e385a02b5811266cf984d5"}, {"bike_id": "3694b32edf0e8c21c3e644f9c05469f9", "type": "electric_bike", "is_disabled": 0, "lat": 38.916334, "rental_uris": {"ios": "https://dc.lft.to/lastmile_qr_scan", "android": "https://dc.lft.to/lastmile_qr_scan"}, "is_reserved": 0, "fusion_lon": 0.0, "fusion_lat": 0.0, "lon": -76.971766, "name": "3694b32edf0e8c21c3e644f9c05469f9"}, {"bike_id": "a021826281d30ee20c51785f6744a091", "type": "electric_bike", "is_disabled": 0, "lat": 38.81994266666667, "rental_uris": {"ios": "https://dc.lft.to/lastmile_qr_scan", "android": "https://dc.lft.to/lastmile_qr_scan"}, "is_reserved": 0, "fusion_lon": 0.0, "fusion_lat": 0.0, "lon": -76.99812666666666, "name": "a021826281d30ee20c51785f6744a091"}, {"bike_id": "0d982f7e8eab79d5176c9c897d1d257a", "type": "electric_scooter", "is_disabled": 0, "lat": 38.90059083333333, "rental_uris": {"ios": "https://dc.lft.to/lastmile_qr_scan", "android": "https://dc.lft.to/lastmile_qr_scan"}, "is_reserved": 0, "fusion_lon": 0.0, "fusion_lat": 0.0, "lon": -76.9347255, "name": "0d982f7e8eab79d5176c9c897d1d257a"}, {"bike_id": "3b6b56d04b0a967480da299f6d1f47bb", "type": "electric_scooter", "is_disabled": 0, "lat": 38.8712395, "rental_uris": {"ios": "https://dc.lft.to/lastmile_qr_scan", "android": "https://dc.lft.to/lastmile_qr_scan"}, "is_reserved": 0, "fusion_lon": 0.0, "fusion_lat": 0.0, "lon": -76.98236833333333, "name": "3b6b56d04b0a967480da299f6d1f47bb"}, {"bike_id": "4d5d5b4ed8c81e716bd61f8f764bb8bb", "type": "electric_scooter", "is_disabled": 0, "lat": 38.90588483333333, "rental_uris": {"ios": "https://dc.lft.to/lastmile_qr_scan", "android": "https://dc.lft.to/lastmile_qr_scan"}, "is_reserved": 0, "fusion_lon": 0.0, "fusion_lat": 0.0, "lon": -77.04361616666667, "name": "4d5d5b4ed8c81e716bd61f8f764bb8bb"}, {"bike_id": "a3678bfb1c6ae4690597f2726ff5dbc7", "type": "electric_scooter", "is_disabled": 0, "lat": 38.905563, "rental_uris": {"ios": "https://dc.lft.to/lastmile_qr_scan", "android": "https://dc.lft.to/lastmile_qr_scan"}, "is_reserved": 0, "fusion_lon": 0.0, "fusion_lat": 0.0, "lon": -77.00579866666666, "name": "a3678bfb1c6ae4690597f2726ff5dbc7"}, {"bike_id": "93dfeed036071741b37df268e1dcee18", "type": "electric_scooter", "is_disabled": 0, "lat": 38.90421083333333, "rental_uris": {"ios": "https://dc.lft.to/lastmile_qr_scan", "android": "https://dc.lft.to/lastmile_qr_scan"}, "is_reserved": 0, "fusion_lon": 0.0, "fusion_lat": 0.0, "lon": -77.04866066666666, "name": "93dfeed036071741b37df268e1dcee18"}, {"bike_id": "486d5c7e6c0abfeb770cf60aecbef496", "type": "electric_scooter", "is_disabled": 0, "lat": 38.91115416666667, "rental_uris": {"ios": "https://dc.lft.to/lastmile_qr_scan", "android": "https://dc.lft.to/lastmile_qr_scan"}, "is_reserved": 0, "fusion_lon": 0.0, "fusion_lat": 0.0, "lon": -77.02416416666667, "name": "486d5c7e6c0abfeb770cf60aecbef496"}, {"bike_id": "9936a84335491294af8c80434a40e617", "type": "electric_scooter", "is_disabled": 0, "lat": 38.9321, "rental_uris": {"ios": "https://dc.lft.to/lastmile_qr_scan", "android": "https://dc.lft.to/lastmile_qr_scan"}, "is_reserved": 0, "fusion_lon": 0.0, "fusion_lat": 0.0, "lon": -77.03670433333333, "name": "9936a84335491294af8c80434a40e617"}, {"bike_id": "f7f6d9266aa1a13909c14a3432ea4cd0", "type": "electric_scooter", "is_disabled": 0, "lat": 38.89575383333333, "rental_uris": {"ios": "https://dc.lft.to/lastmile_qr_scan", "android": "https://dc.lft.to/lastmile_qr_scan"}, "is_reserved": 0, "fusion_lon": 0.0, "fusion_lat": 0.0, "lon": -76.93022816666667, "name": "f7f6d9266aa1a13909c14a3432ea4cd0"}, {"bike_id": "9d5e53e21f452082de9f62e68c44334b", "type": "electric_scooter", "is_disabled": 0, "lat": 38.90412533333333, "rental_uris": {"ios": "https://dc.lft.to/lastmile_qr_scan", "android": "https://dc.lft.to/lastmile_qr_scan"}, "is_reserved": 0, "fusion_lon": 0.0, "fusion_lat": 0.0, "lon": -76.9733125, "name": "9d5e53e21f452082de9f62e68c44334b"}, {"bike_id": "0ed9cbf514bb9663a2dff211cdf531c7", "type": "electric_scooter", "is_disabled": 0, "lat": 38.9036565, "rental_uris": {"ios": "https://dc.lft.to/lastmile_qr_scan", "android": "https://dc.lft.to/lastmile_qr_scan"}, "is_reserved": 0, "fusion_lon": 0.0, "fusion_lat": 0.0, "lon": -77.00739383333334, "name": "0ed9cbf514bb9663a2dff211cdf531c7"}, {"bike_id": "ce5f522c90eeafa99d3e2d2389e8e254", "type": "electric_scooter", "is_disabled": 0, "lat": 38.9308575, "rental_uris": {"ios": "https://dc.lft.to/lastmile_qr_scan", "android": "https://dc.lft.to/lastmile_qr_scan"}, "is_reserved": 0, "fusion_lon": 0.0, "fusion_lat": 0.0, "lon": -77.03649833333333, "name": "ce5f522c90eeafa99d3e2d2389e8e254"}, {"bike_id": "cc0fed94d8c92bd06da4326bee5b15e3", "type": "electric_scooter", "is_disabled": 0, "lat": 38.936421, "rental_uris": {"ios": "https://dc.lft.to/lastmile_qr_scan", "android": "https://dc.lft.to/lastmile_qr_scan"}, "is_reserved": 0, "fusion_lon": 0.0, "fusion_lat": 0.0, "lon": -77.03648966666667, "name": "cc0fed94d8c92bd06da4326bee5b15e3"}, {"bike_id": "63442a172c96af6e1f4e13021506f91e", "type": "electric_scooter", "is_disabled": 0, "lat": 38.87758066666667, "rental_uris": {"ios": "https://dc.lft.to/lastmile_qr_scan", "android": "https://dc.lft.to/lastmile_qr_scan"}, "is_reserved": 0, "fusion_lon": 0.0, "fusion_lat": 0.0, "lon": -76.98677616666667, "name": "63442a172c96af6e1f4e13021506f91e"}, {"bike_id": "5d539496f66a5e75b087d12765209ca7", "type": "electric_bike", "is_disabled": 0, "lat": 39.05058066666667, "rental_uris": {"ios": "https://dc.lft.to/lastmile_qr_scan", "android": "https://dc.lft.to/lastmile_qr_scan"}, "is_reserved": 0, "fusion_lon": 0.0, "fusion_lat": 0.0, "lon": -77.051475, "name": "5d539496f66a5e75b087d12765209ca7"}, {"bike_id": "145b59985a763ac75f6973e484e27396", "type": "electric_scooter", "is_disabled": 0, "lat": 38.91561033333333, "rental_uris": {"ios": "https://dc.lft.to/lastmile_qr_scan", "android": "https://dc.lft.to/lastmile_qr_scan"}, "is_reserved": 0, "fusion_lon": 0.0, "fusion_lat": 0.0, "lon": -77.00979233333334, "name": "145b59985a763ac75f6973e484e27396"}, {"bike_id": "6bb6be9eb5fbd0068508910f82aa138d", "type": "electric_scooter", "is_disabled": 0, "lat": 38.91678666666667, "rental_uris": {"ios": "https://dc.lft.to/lastmile_qr_scan", "android": "https://dc.lft.to/lastmile_qr_scan"}, "is_reserved": 0, "fusion_lon": 0.0, "fusion_lat": 0.0, "lon": -77.03679566666666, "name": "6bb6be9eb5fbd0068508910f82aa138d"}, {"bike_id": "7d8e53dc6e3fd70be8b7ae5af69ee55f", "type": "electric_scooter", "is_disabled": 0, "lat": 38.9025135, "rental_uris": {"ios": "https://dc.lft.to/lastmile_qr_scan", "android": "https://dc.lft.to/lastmile_qr_scan"}, "is_reserved": 0, "fusion_lon": 0.0, "fusion_lat": 0.0, "lon": -77.017489, "name": "7d8e53dc6e3fd70be8b7ae5af69ee55f"}, {"bike_id": "6b56107df103e2333580376b3060bf72", "type": "electric_bike", "is_disabled": 0, "lat": 38.83243483333333, "rental_uris": {"ios": "https://dc.lft.to/lastmile_qr_scan", "android": "https://dc.lft.to/lastmile_qr_scan"}, "is_reserved": 0, "fusion_lon": 0.0, "fusion_lat": 0.0, "lon": -76.946267, "name": "6b56107df103e2333580376b3060bf72"}, {"bike_id": "ecd0b28c22849e0945bf7ebc3a508d94", "type": "electric_scooter", "is_disabled": 0, "lat": 38.939957, "rental_uris": {"ios": "https://dc.lft.to/lastmile_qr_scan", "android": "https://dc.lft.to/lastmile_qr_scan"}, "is_reserved": 0, "fusion_lon": 0.0, "fusion_lat": 0.0, "lon": -77.01694533333334, "name": "ecd0b28c22849e0945bf7ebc3a508d94"}, {"bike_id": "44b96f0786ccd5cbbfbe027523597da8", "type": "electric_scooter", "is_disabled": 0, "lat": 38.905729666666666, "rental_uris": {"ios": "https://dc.lft.to/lastmile_qr_scan", "android": "https://dc.lft.to/lastmile_qr_scan"}, "is_reserved": 0, "fusion_lon": 0.0, "fusion_lat": 0.0, "lon": -76.97782816666667, "name": "44b96f0786ccd5cbbfbe027523597da8"}, {"bike_id": "2c96df7a62f34e6f40bfdefc766d854a", "type": "electric_scooter", "is_disabled": 0, "lat": 38.911095833333334, "rental_uris": {"ios": "https://dc.lft.to/lastmile_qr_scan", "android": "https://dc.lft.to/lastmile_qr_scan"}, "is_reserved": 0, "fusion_lon": 0.0, "fusion_lat": 0.0, "lon": -77.03252683333334, "name": "2c96df7a62f34e6f40bfdefc766d854a"}, {"bike_id": "49e96d7f813b444866ccf5e6ecbcb949", "type": "electric_scooter", "is_disabled": 0, "lat": 38.916084166666664, "rental_uris": {"ios": "https://dc.lft.to/lastmile_qr_scan", "android": "https://dc.lft.to/lastmile_qr_scan"}, "is_reserved": 0, "fusion_lon": 0.0, "fusion_lat": 0.0, "lon": -77.02397566666667, "name": "49e96d7f813b444866ccf5e6ecbcb949"}, {"bike_id": "e1df78ad94746c08c96cccbb68489177", "type": "electric_bike", "is_disabled": 0, "lat": 38.93177166666667, "rental_uris": {"ios": "https://dc.lft.to/lastmile_qr_scan", "android": "https://dc.lft.to/lastmile_qr_scan"}, "is_reserved": 0, "fusion_lon": 0.0, "fusion_lat": 0.0, "lon": -77.03551933333334, "name": "e1df78ad94746c08c96cccbb68489177"}, {"bike_id": "4303ecba3681509e9a791af3b84aff6b", "type": "electric_scooter", "is_disabled": 0, "lat": 38.92330616666667, "rental_uris": {"ios": "https://dc.lft.to/lastmile_qr_scan", "android": "https://dc.lft.to/lastmile_qr_scan"}, "is_reserved": 0, "fusion_lon": 0.0, "fusion_lat": 0.0, "lon": -77.0353895, "name": "4303ecba3681509e9a791af3b84aff6b"}, {"bike_id": "025b7fcc86980d096a51c4831ffabe19", "type": "electric_bike", "is_disabled": 0, "lat": 38.97405333333333, "rental_uris": {"ios": "https://dc.lft.to/lastmile_qr_scan", "android": "https://dc.lft.to/lastmile_qr_scan"}, "is_reserved": 0, "fusion_lon": 0.0, "fusion_lat": 0.0, "lon": -77.06450566666666, "name": "025b7fcc86980d096a51c4831ffabe19"}, {"bike_id": "c43f71d9d1c3f8aee4f77e2d3f425797", "type": "electric_scooter", "is_disabled": 0, "lat": 38.903039, "rental_uris": {"ios": "https://dc.lft.to/lastmile_qr_scan", "android": "https://dc.lft.to/lastmile_qr_scan"}, "is_reserved": 0, "fusion_lon": 0.0, "fusion_lat": 0.0, "lon": -77.06524883333333, "name": "c43f71d9d1c3f8aee4f77e2d3f425797"}, {"bike_id": "67c55cf3c8a874d6493e1dc7c7732b9a", "type": "electric_scooter", "is_disabled": 0, "lat": 38.885340166666666, "rental_uris": {"ios": "https://dc.lft.to/lastmile_qr_scan", "android": "https://dc.lft.to/lastmile_qr_scan"}, "is_reserved": 0, "fusion_lon": 0.0, "fusion_lat": 0.0, "lon": -76.99821066666667, "name": "67c55cf3c8a874d6493e1dc7c7732b9a"}, {"bike_id": "41d7d0e613b6ef272bc72765407e5a44", "type": "electric_scooter", "is_disabled": 0, "lat": 38.901227666666664, "rental_uris": {"ios": "https://dc.lft.to/lastmile_qr_scan", "android": "https://dc.lft.to/lastmile_qr_scan"}, "is_reserved": 0, "fusion_lon": 0.0, "fusion_lat": 0.0, "lon": -76.92953783333333, "name": "41d7d0e613b6ef272bc72765407e5a44"}, {"bike_id": "339c4bbf7814a23c1c720af71393b7f8", "type": "electric_scooter", "is_disabled": 0, "lat": 38.897767, "rental_uris": {"ios": "https://dc.lft.to/lastmile_qr_scan", "android": "https://dc.lft.to/lastmile_qr_scan"}, "is_reserved": 0, "fusion_lon": 0.0, "fusion_lat": 0.0, "lon": -77.05162833333333, "name": "339c4bbf7814a23c1c720af71393b7f8"}, {"bike_id": "7d2c5ca8e44eb2400df72c806af4ec09", "type": "electric_scooter", "is_disabled": 0, "lat": 38.95627833333333, "rental_uris": {"ios": "https://dc.lft.to/lastmile_qr_scan", "android": "https://dc.lft.to/lastmile_qr_scan"}, "is_reserved": 0, "fusion_lon": 0.0, "fusion_lat": 0.0, "lon": -77.03614183333333, "name": "7d2c5ca8e44eb2400df72c806af4ec09"}, {"bike_id": "37afb8781d1d462ea34dd7116c998922", "type": "electric_scooter", "is_disabled": 0, "lat": 38.90200883333333, "rental_uris": {"ios": "https://dc.lft.to/lastmile_qr_scan", "android": "https://dc.lft.to/lastmile_qr_scan"}, "is_reserved": 0, "fusion_lon": 0.0, "fusion_lat": 0.0, "lon": -77.02385066666666, "name": "37afb8781d1d462ea34dd7116c998922"}, {"bike_id": "6836d3d85d7876409a47e590e7755583", "type": "electric_scooter", "is_disabled": 0, "lat": 38.898971833333334, "rental_uris": {"ios": "https://dc.lft.to/lastmile_qr_scan", "android": "https://dc.lft.to/lastmile_qr_scan"}, "is_reserved": 0, "fusion_lon": 0.0, "fusion_lat": 0.0, "lon": -77.03947816666667, "name": "6836d3d85d7876409a47e590e7755583"}, {"bike_id": "1d95612b943d233327f2302ee9de9a93", "type": "electric_scooter", "is_disabled": 0, "lat": 38.92330616666667, "rental_uris": {"ios": "https://dc.lft.to/lastmile_qr_scan", "android": "https://dc.lft.to/lastmile_qr_scan"}, "is_reserved": 0, "fusion_lon": 0.0, "fusion_lat": 0.0, "lon": -77.03773583333333, "name": "1d95612b943d233327f2302ee9de9a93"}, {"bike_id": "a18ed2ca6f6e6b407784329e76cbbfac", "type": "electric_scooter", "is_disabled": 0, "lat": 38.91684866666667, "rental_uris": {"ios": "https://dc.lft.to/lastmile_qr_scan", "android": "https://dc.lft.to/lastmile_qr_scan"}, "is_reserved": 0, "fusion_lon": 0.0, "fusion_lat": 0.0, "lon": -77.03056566666666, "name": "a18ed2ca6f6e6b407784329e76cbbfac"}, {"bike_id": "33795696ae81a32e418206b636e59814", "type": "electric_scooter", "is_disabled": 0, "lat": 38.8763115, "rental_uris": {"ios": "https://dc.lft.to/lastmile_qr_scan", "android": "https://dc.lft.to/lastmile_qr_scan"}, "is_reserved": 0, "fusion_lon": 0.0, "fusion_lat": 0.0, "lon": -76.9652435, "name": "33795696ae81a32e418206b636e59814"}, {"bike_id": "efe814fff156709c4e759e193e88aa89", "type": "electric_scooter", "is_disabled": 0, "lat": 38.920565, "rental_uris": {"ios": "https://dc.lft.to/lastmile_qr_scan", "android": "https://dc.lft.to/lastmile_qr_scan"}, "is_reserved": 0, "fusion_lon": 0.0, "fusion_lat": 0.0, "lon": -76.99873566666666, "name": "efe814fff156709c4e759e193e88aa89"}, {"bike_id": "1bde416f8c6dc01dc6c00b7899e693b0", "type": "electric_scooter", "is_disabled": 0, "lat": 38.95622, "rental_uris": {"ios": "https://dc.lft.to/lastmile_qr_scan", "android": "https://dc.lft.to/lastmile_qr_scan"}, "is_reserved": 0, "fusion_lon": 0.0, "fusion_lat": 0.0, "lon": -77.01022916666666, "name": "1bde416f8c6dc01dc6c00b7899e693b0"}, {"bike_id": "5efbef2b271a1863a41ff84c0202df7b", "type": "electric_scooter", "is_disabled": 0, "lat": 38.90613066666667, "rental_uris": {"ios": "https://dc.lft.to/lastmile_qr_scan", "android": "https://dc.lft.to/lastmile_qr_scan"}, "is_reserved": 0, "fusion_lon": 0.0, "fusion_lat": 0.0, "lon": -77.04704533333333, "name": "5efbef2b271a1863a41ff84c0202df7b"}, {"bike_id": "0ef3c0b98247a2747a8e267aae7851d1", "type": "electric_scooter", "is_disabled": 0, "lat": 38.90240816666667, "rental_uris": {"ios": "https://dc.lft.to/lastmile_qr_scan", "android": "https://dc.lft.to/lastmile_qr_scan"}, "is_reserved": 0, "fusion_lon": 0.0, "fusion_lat": 0.0, "lon": -77.04331133333334, "name": "0ef3c0b98247a2747a8e267aae7851d1"}, {"bike_id": "1e1eef7e1c3aad81ab642f21b19e5bcc", "type": "electric_scooter", "is_disabled": 0, "lat": 38.93935966666667, "rental_uris": {"ios": "https://dc.lft.to/lastmile_qr_scan", "android": "https://dc.lft.to/lastmile_qr_scan"}, "is_reserved": 0, "fusion_lon": 0.0, "fusion_lat": 0.0, "lon": -77.0199885, "name": "1e1eef7e1c3aad81ab642f21b19e5bcc"}, {"bike_id": "ff00e2e2b7a79135b4a44559f1827ed1", "type": "electric_scooter", "is_disabled": 0, "lat": 38.90232266666667, "rental_uris": {"ios": "https://dc.lft.to/lastmile_qr_scan", "android": "https://dc.lft.to/lastmile_qr_scan"}, "is_reserved": 0, "fusion_lon": 0.0, "fusion_lat": 0.0, "lon": -77.04036766666667, "name": "ff00e2e2b7a79135b4a44559f1827ed1"}, {"bike_id": "ed012def74fd257fd9e285421b1fbc2e", "type": "electric_scooter", "is_disabled": 0, "lat": 38.9168665, "rental_uris": {"ios": "https://dc.lft.to/lastmile_qr_scan", "android": "https://dc.lft.to/lastmile_qr_scan"}, "is_reserved": 0, "fusion_lon": 0.0, "fusion_lat": 0.0, "lon": -77.015796, "name": "ed012def74fd257fd9e285421b1fbc2e"}, {"bike_id": "2546f27367bf6bfddb3d63a534ab3a44", "type": "electric_scooter", "is_disabled": 0, "lat": 38.90919433333333, "rental_uris": {"ios": "https://dc.lft.to/lastmile_qr_scan", "android": "https://dc.lft.to/lastmile_qr_scan"}, "is_reserved": 0, "fusion_lon": 0.0, "fusion_lat": 0.0, "lon": -77.04418033333333, "name": "2546f27367bf6bfddb3d63a534ab3a44"}, {"bike_id": "0c76b90707370186a117253b7aa65fed", "type": "electric_scooter", "is_disabled": 0, "lat": 38.9025565, "rental_uris": {"ios": "https://dc.lft.to/lastmile_qr_scan", "android": "https://dc.lft.to/lastmile_qr_scan"}, "is_reserved": 0, "fusion_lon": 0.0, "fusion_lat": 0.0, "lon": -77.02816683333333, "name": "0c76b90707370186a117253b7aa65fed"}, {"bike_id": "c8fd740952737dceaf52aafddbc72ad9", "type": "electric_scooter", "is_disabled": 0, "lat": 38.91770116666667, "rental_uris": {"ios": "https://dc.lft.to/lastmile_qr_scan", "android": "https://dc.lft.to/lastmile_qr_scan"}, "is_reserved": 0, "fusion_lon": 0.0, "fusion_lat": 0.0, "lon": -77.014717, "name": "c8fd740952737dceaf52aafddbc72ad9"}, {"bike_id": "ed6b8266598c1fb8ad9fcd70caef7307", "type": "electric_scooter", "is_disabled": 0, "lat": 38.8975335, "rental_uris": {"ios": "https://dc.lft.to/lastmile_qr_scan", "android": "https://dc.lft.to/lastmile_qr_scan"}, "is_reserved": 0, "fusion_lon": 0.0, "fusion_lat": 0.0, "lon": -77.02702266666667, "name": "ed6b8266598c1fb8ad9fcd70caef7307"}, {"bike_id": "f17d1358f146fa4a96ac55a3bd0b6587", "type": "electric_scooter", "is_disabled": 0, "lat": 38.8708465, "rental_uris": {"ios": "https://dc.lft.to/lastmile_qr_scan", "android": "https://dc.lft.to/lastmile_qr_scan"}, "is_reserved": 0, "fusion_lon": 0.0, "fusion_lat": 0.0, "lon": -77.01202766666667, "name": "f17d1358f146fa4a96ac55a3bd0b6587"}, {"bike_id": "4e13b3ddbc56c2cfafdd7e2d0a37c6a0", "type": "electric_scooter", "is_disabled": 0, "lat": 38.940699333333335, "rental_uris": {"ios": "https://dc.lft.to/lastmile_qr_scan", "android": "https://dc.lft.to/lastmile_qr_scan"}, "is_reserved": 0, "fusion_lon": 0.0, "fusion_lat": 0.0, "lon": -77.06103266666666, "name": "4e13b3ddbc56c2cfafdd7e2d0a37c6a0"}, {"bike_id": "3eac39d996c790581c2d9b3af3330fd9", "type": "electric_scooter", "is_disabled": 0, "lat": 38.93396116666667, "rental_uris": {"ios": "https://dc.lft.to/lastmile_qr_scan", "android": "https://dc.lft.to/lastmile_qr_scan"}, "is_reserved": 0, "fusion_lon": 0.0, "fusion_lat": 0.0, "lon": -77.02227983333333, "name": "3eac39d996c790581c2d9b3af3330fd9"}, {"bike_id": "a2e48eec0128f031a30511a288ca01f4", "type": "electric_bike", "is_disabled": 0, "lat": 38.948676, "rental_uris": {"ios": "https://dc.lft.to/lastmile_qr_scan", "android": "https://dc.lft.to/lastmile_qr_scan"}, "is_reserved": 0, "fusion_lon": 0.0, "fusion_lat": 0.0, "lon": -77.0220115, "name": "a2e48eec0128f031a30511a288ca01f4"}, {"bike_id": "c204e661d99f3b233d2f24453b33c4fe", "type": "electric_scooter", "is_disabled": 0, "lat": 38.91247283333333, "rental_uris": {"ios": "https://dc.lft.to/lastmile_qr_scan", "android": "https://dc.lft.to/lastmile_qr_scan"}, "is_reserved": 0, "fusion_lon": 0.0, "fusion_lat": 0.0, "lon": -77.02228283333334, "name": "c204e661d99f3b233d2f24453b33c4fe"}, {"bike_id": "0946f01710f88c96533c476b7bdd00bd", "type": "electric_scooter", "is_disabled": 0, "lat": 38.913802833333335, "rental_uris": {"ios": "https://dc.lft.to/lastmile_qr_scan", "android": "https://dc.lft.to/lastmile_qr_scan"}, "is_reserved": 0, "fusion_lon": 0.0, "fusion_lat": 0.0, "lon": -77.04134316666666, "name": "0946f01710f88c96533c476b7bdd00bd"}, {"bike_id": "642352b2b813aba27f4838fd425e027a", "type": "electric_scooter", "is_disabled": 0, "lat": 38.942949, "rental_uris": {"ios": "https://dc.lft.to/lastmile_qr_scan", "android": "https://dc.lft.to/lastmile_qr_scan"}, "is_reserved": 0, "fusion_lon": 0.0, "fusion_lat": 0.0, "lon": -77.02167983333334, "name": "642352b2b813aba27f4838fd425e027a"}, {"bike_id": "f25f8baf4d1521b38945c059913c0478", "type": "electric_scooter", "is_disabled": 0, "lat": 38.923350666666664, "rental_uris": {"ios": "https://dc.lft.to/lastmile_qr_scan", "android": "https://dc.lft.to/lastmile_qr_scan"}, "is_reserved": 0, "fusion_lon": 0.0, "fusion_lat": 0.0, "lon": -77.03615, "name": "f25f8baf4d1521b38945c059913c0478"}, {"bike_id": "bea2eab1c2378a7be903c9ebeb9075ab", "type": "electric_scooter", "is_disabled": 0, "lat": 38.894807166666666, "rental_uris": {"ios": "https://dc.lft.to/lastmile_qr_scan", "android": "https://dc.lft.to/lastmile_qr_scan"}, "is_reserved": 0, "fusion_lon": 0.0, "fusion_lat": 0.0, "lon": -77.010975, "name": "bea2eab1c2378a7be903c9ebeb9075ab"}, {"bike_id": "091719caad26105419f9974bf8e3c6ab", "type": "electric_scooter", "is_disabled": 0, "lat": 38.9125815, "rental_uris": {"ios": "https://dc.lft.to/lastmile_qr_scan", "android": "https://dc.lft.to/lastmile_qr_scan"}, "is_reserved": 0, "fusion_lon": 0.0, "fusion_lat": 0.0, "lon": -77.03267066666666, "name": "091719caad26105419f9974bf8e3c6ab"}, {"bike_id": "79577ed485c5521354da13d196267b2b", "type": "electric_scooter", "is_disabled": 0, "lat": 38.93750816666667, "rental_uris": {"ios": "https://dc.lft.to/lastmile_qr_scan", "android": "https://dc.lft.to/lastmile_qr_scan"}, "is_reserved": 0, "fusion_lon": 0.0, "fusion_lat": 0.0, "lon": -77.03576633333333, "name": "79577ed485c5521354da13d196267b2b"}, {"bike_id": "bf9f63e49df3801144a80296d0fdcece", "type": "electric_scooter", "is_disabled": 0, "lat": 38.9056935, "rental_uris": {"ios": "https://dc.lft.to/lastmile_qr_scan", "android": "https://dc.lft.to/lastmile_qr_scan"}, "is_reserved": 0, "fusion_lon": 0.0, "fusion_lat": 0.0, "lon": -77.00554916666667, "name": "bf9f63e49df3801144a80296d0fdcece"}, {"bike_id": "e87269935832b4f7ef15b7ee16fa999e", "type": "electric_scooter", "is_disabled": 0, "lat": 38.92584516666667, "rental_uris": {"ios": "https://dc.lft.to/lastmile_qr_scan", "android": "https://dc.lft.to/lastmile_qr_scan"}, "is_reserved": 0, "fusion_lon": 0.0, "fusion_lat": 0.0, "lon": -77.03022983333334, "name": "e87269935832b4f7ef15b7ee16fa999e"}, {"bike_id": "aff47c3c858a925de3806c4586860fc1", "type": "electric_scooter", "is_disabled": 0, "lat": 38.90578583333333, "rental_uris": {"ios": "https://dc.lft.to/lastmile_qr_scan", "android": "https://dc.lft.to/lastmile_qr_scan"}, "is_reserved": 0, "fusion_lon": 0.0, "fusion_lat": 0.0, "lon": -76.97624016666667, "name": "aff47c3c858a925de3806c4586860fc1"}, {"bike_id": "36c42cbf6c8b7a219ff0a723811d9577", "type": "electric_scooter", "is_disabled": 0, "lat": 38.870935833333334, "rental_uris": {"ios": "https://dc.lft.to/lastmile_qr_scan", "android": "https://dc.lft.to/lastmile_qr_scan"}, "is_reserved": 0, "fusion_lon": 0.0, "fusion_lat": 0.0, "lon": -77.0120915, "name": "36c42cbf6c8b7a219ff0a723811d9577"}, {"bike_id": "9f2e0359841f4417535de73afc3e09a3", "type": "electric_scooter", "is_disabled": 0, "lat": 38.900973, "rental_uris": {"ios": "https://dc.lft.to/lastmile_qr_scan", "android": "https://dc.lft.to/lastmile_qr_scan"}, "is_reserved": 0, "fusion_lon": 0.0, "fusion_lat": 0.0, "lon": -77.01843683333334, "name": "9f2e0359841f4417535de73afc3e09a3"}, {"bike_id": "baa2f70fb4a2ffe83818865dd4bf9fe0", "type": "electric_scooter", "is_disabled": 0, "lat": 38.922574166666664, "rental_uris": {"ios": "https://dc.lft.to/lastmile_qr_scan", "android": "https://dc.lft.to/lastmile_qr_scan"}, "is_reserved": 0, "fusion_lon": 0.0, "fusion_lat": 0.0, "lon": -77.04297733333334, "name": "baa2f70fb4a2ffe83818865dd4bf9fe0"}, {"bike_id": "6d51e1c3099b623b9baaea370f8eea86", "type": "electric_scooter", "is_disabled": 0, "lat": 38.88403, "rental_uris": {"ios": "https://dc.lft.to/lastmile_qr_scan", "android": "https://dc.lft.to/lastmile_qr_scan"}, "is_reserved": 0, "fusion_lon": 0.0, "fusion_lat": 0.0, "lon": -76.95389383333334, "name": "6d51e1c3099b623b9baaea370f8eea86"}, {"bike_id": "512a573880d6da0f82de6c8f0c0dcb28", "type": "electric_scooter", "is_disabled": 0, "lat": 38.89097616666667, "rental_uris": {"ios": "https://dc.lft.to/lastmile_qr_scan", "android": "https://dc.lft.to/lastmile_qr_scan"}, "is_reserved": 0, "fusion_lon": 0.0, "fusion_lat": 0.0, "lon": -76.93849916666667, "name": "512a573880d6da0f82de6c8f0c0dcb28"}, {"bike_id": "dd589b3a33206a165be0423368497954", "type": "electric_scooter", "is_disabled": 0, "lat": 38.915263833333334, "rental_uris": {"ios": "https://dc.lft.to/lastmile_qr_scan", "android": "https://dc.lft.to/lastmile_qr_scan"}, "is_reserved": 0, "fusion_lon": 0.0, "fusion_lat": 0.0, "lon": -77.0484865, "name": "dd589b3a33206a165be0423368497954"}, {"bike_id": "f0701c7d418ed7538214934120b04b7c", "type": "electric_scooter", "is_disabled": 0, "lat": 38.901192333333334, "rental_uris": {"ios": "https://dc.lft.to/lastmile_qr_scan", "android": "https://dc.lft.to/lastmile_qr_scan"}, "is_reserved": 0, "fusion_lon": 0.0, "fusion_lat": 0.0, "lon": -77.04869666666667, "name": "f0701c7d418ed7538214934120b04b7c"}, {"bike_id": "08e79f431f74e032a17911865622ff2b", "type": "electric_scooter", "is_disabled": 0, "lat": 38.92022866666667, "rental_uris": {"ios": "https://dc.lft.to/lastmile_qr_scan", "android": "https://dc.lft.to/lastmile_qr_scan"}, "is_reserved": 0, "fusion_lon": 0.0, "fusion_lat": 0.0, "lon": -77.03170433333334, "name": "08e79f431f74e032a17911865622ff2b"}, {"bike_id": "413260f4501f7163e7732c66b1ebb632", "type": "electric_bike", "is_disabled": 0, "lat": 38.9082225, "rental_uris": {"ios": "https://dc.lft.to/lastmile_qr_scan", "android": "https://dc.lft.to/lastmile_qr_scan"}, "is_reserved": 0, "fusion_lon": 0.0, "fusion_lat": 0.0, "lon": -76.94041983333334, "name": "413260f4501f7163e7732c66b1ebb632"}, {"bike_id": "88ae7708e418b0aa0fc793d8101014a7", "type": "electric_scooter", "is_disabled": 0, "lat": 38.92567483333333, "rental_uris": {"ios": "https://dc.lft.to/lastmile_qr_scan", "android": "https://dc.lft.to/lastmile_qr_scan"}, "is_reserved": 0, "fusion_lon": 0.0, "fusion_lat": 0.0, "lon": -77.03765283333334, "name": "88ae7708e418b0aa0fc793d8101014a7"}, {"bike_id": "5360086276418a33c0c221d2abf11699", "type": "electric_scooter", "is_disabled": 0, "lat": 38.910718, "rental_uris": {"ios": "https://dc.lft.to/lastmile_qr_scan", "android": "https://dc.lft.to/lastmile_qr_scan"}, "is_reserved": 0, "fusion_lon": 0.0, "fusion_lat": 0.0, "lon": -77.03720583333333, "name": "5360086276418a33c0c221d2abf11699"}, {"bike_id": "0ca47e14e48fe63914899ff979f4c638", "type": "electric_scooter", "is_disabled": 0, "lat": 38.915458666666666, "rental_uris": {"ios": "https://dc.lft.to/lastmile_qr_scan", "android": "https://dc.lft.to/lastmile_qr_scan"}, "is_reserved": 0, "fusion_lon": 0.0, "fusion_lat": 0.0, "lon": -77.012221, "name": "0ca47e14e48fe63914899ff979f4c638"}, {"bike_id": "590fcee753e060920e46663b4470948a", "type": "electric_scooter", "is_disabled": 0, "lat": 38.91745866666667, "rental_uris": {"ios": "https://dc.lft.to/lastmile_qr_scan", "android": "https://dc.lft.to/lastmile_qr_scan"}, "is_reserved": 0, "fusion_lon": 0.0, "fusion_lat": 0.0, "lon": -77.031823, "name": "590fcee753e060920e46663b4470948a"}, {"bike_id": "bd9fddde78f5a096a7c5b635273e0047", "type": "electric_scooter", "is_disabled": 0, "lat": 38.916965, "rental_uris": {"ios": "https://dc.lft.to/lastmile_qr_scan", "android": "https://dc.lft.to/lastmile_qr_scan"}, "is_reserved": 0, "fusion_lon": 0.0, "fusion_lat": 0.0, "lon": -77.01050033333334, "name": "bd9fddde78f5a096a7c5b635273e0047"}, {"bike_id": "ef8ad4a064368f42f4f6d10730fcc39a", "type": "electric_scooter", "is_disabled": 0, "lat": 38.9098545, "rental_uris": {"ios": "https://dc.lft.to/lastmile_qr_scan", "android": "https://dc.lft.to/lastmile_qr_scan"}, "is_reserved": 0, "fusion_lon": 0.0, "fusion_lat": 0.0, "lon": -77.04512183333334, "name": "ef8ad4a064368f42f4f6d10730fcc39a"}, {"bike_id": "bab67a107c4b3fb619111b5218e18937", "type": "electric_scooter", "is_disabled": 0, "lat": 38.936995, "rental_uris": {"ios": "https://dc.lft.to/lastmile_qr_scan", "android": "https://dc.lft.to/lastmile_qr_scan"}, "is_reserved": 0, "fusion_lon": 0.0, "fusion_lat": 0.0, "lon": -77.03261883333333, "name": "bab67a107c4b3fb619111b5218e18937"}, {"bike_id": "6cc81d5476e4cf528b490fe853e4f387", "type": "electric_scooter", "is_disabled": 0, "lat": 38.880975, "rental_uris": {"ios": "https://dc.lft.to/lastmile_qr_scan", "android": "https://dc.lft.to/lastmile_qr_scan"}, "is_reserved": 0, "fusion_lon": 0.0, "fusion_lat": 0.0, "lon": -77.01769716666666, "name": "6cc81d5476e4cf528b490fe853e4f387"}, {"bike_id": "2546ebb47322444646f667de6f9d4ced", "type": "electric_scooter", "is_disabled": 0, "lat": 38.930646333333335, "rental_uris": {"ios": "https://dc.lft.to/lastmile_qr_scan", "android": "https://dc.lft.to/lastmile_qr_scan"}, "is_reserved": 0, "fusion_lon": 0.0, "fusion_lat": 0.0, "lon": -77.03191666666666, "name": "2546ebb47322444646f667de6f9d4ced"},