{"data": {"bikes": [{"fusion_lat": 0.0, "name": "1776c7e9b337e6fd4e3fb839c1513fe6", "is_disabled": 0, "rental_uris": {"android": "https://dc.lft.to/lastmile_qr_scan", "ios": "https://dc.lft.to/lastmile_qr_scan"}, "fusion_lon": 0.0, "lat": 38.898528166666665, "bike_id": "1776c7e9b337e6fd4e3fb839c1513fe6", "type": "electric_scooter", "is_reserved": 0, "lon": -76.95038966666667}, {"fusion_lat": 0.0, "name": "0353125d52ada35204e6e9c70938f233", "is_disabled": 0, "rental_uris": {"android": "https://dc.lft.to/lastmile_qr_scan", "ios": "https://dc.lft.to/lastmile_qr_scan"}, "fusion_lon": 0.0, "lat": 38.8998415, "bike_id": "0353125d52ada35204e6e9c70938f233", "type": "electric_scooter", "is_reserved": 0, "lon": -77.02713316666667}, {"fusion_lat": 0.0, "name": "d45783ed9c29b9f8628caba761874f22", "is_disabled": 0, "rental_uris": {"android": "https://dc.lft.to/lastmile_qr_scan", "ios": "https://dc.lft.to/lastmile_qr_scan"}, "fusion_lon": 0.0, "lat": 38.920655833333335, "bike_id": "d45783ed9c29b9f8628caba761874f22", "type": "electric_bike", "is_reserved": 0, "lon": -77.23952283333334}, {"fusion_lat": 0.0, "name": "08efbc85ef2bafd5e1317600b7b63abe", "is_disabled": 0, "rental_uris": {"android": "https://dc.lft.to/lastmile_qr_scan", "ios": "https://dc.lft.to/lastmile_qr_scan"}, "fusion_lon": 0.0, "lat": 38.892233833333336, "bike_id": "08efbc85ef2bafd5e1317600b7b63abe", "type": "electric_scooter", "is_reserved": 0, "lon": -77.04806266666667}, {"fusion_lat": 0.0, "name": "c9b9095e41d5f435a3eb0d6ef592a776", "is_disabled": 0, "rental_uris": {"android": "https://dc.lft.to/lastmile_qr_scan", "ios": "https://dc.lft.to/lastmile_qr_scan"}, "fusion_lon": 0.0, "lat": 38.891689166666666, "bike_id": "c9b9095e41d5f435a3eb0d6ef592a776", "type": "electric_scooter", "is_reserved": 0, "lon": -76.99943416666666}, {"fusion_lat": 0.0, "name": "75bfa7c07cc01f11b867514698861a2c", "is_disabled": 0, "rental_uris": {"android": "https://dc.lft.to/lastmile_qr_scan", "ios": "https://dc.lft.to/lastmile_qr_scan"}, "fusion_lon": 0.0, "lat": 38.9418225, "bike_id": "75bfa7c07cc01f11b867514698861a2c", "type": "electric_scooter", "is_reserved": 0, "lon": -77.024913}, {"fusion_lat": 0.0, "name": "f6679de7cc6c2dfd9d7303f3b811093e", "is_disabled": 0, "rental_uris": {"android": "https://dc.lft.to/lastmile_qr_scan", "ios": "https://dc.lft.to/lastmile_qr_scan"}, "fusion_lon": 0.0, "lat": 38.905737333333335, "bike_id": "f6679de7cc6c2dfd9d7303f3b811093e", "type": "electric_scooter", "is_reserved": 0, "lon": -77.02402633333334}, {"fusion_lat": 0.0, "name": "c373aa4864bb669af5cf6cfbcc65b28b", "is_disabled": 0, "rental_uris": {"android": "https://dc.lft.to/lastmile_qr_scan", "ios": "https://dc.lft.to/lastmile_qr_scan"}, "fusion_lon": 0.0, "lat": 38.935713666666665, "bike_id": "c373aa4864bb669af5cf6cfbcc65b28b", "type": "electric_scooter", "is_reserved": 0, "lon": -77.03515416666667}, {"fusion_lat": 0.0, "name": "2b417de3aebcf2bd16935fe679c359eb", "is_disabled": 0, "rental_uris": {"android": "https://dc.lft.to/lastmile_qr_scan", "ios": "https://dc.lft.to/lastmile_qr_scan"}, "fusion_lon": 0.0, "lat": 38.92157233333333, "bike_id": "2b417de3aebcf2bd16935fe679c359eb", "type": "electric_scooter", "is_reserved": 0, "lon": -77.042373}, {"fusion_lat": 0.0, "name": "7eee866f6be28fe363ae961f55b23c11", "is_disabled": 0, "rental_uris": {"android": "https://dc.lft.to/lastmile_qr_scan", "ios": "https://dc.lft.to/lastmile_qr_scan"}, "fusion_lon": 0.0, "lat": 38.9117365, "bike_id": "7eee866f6be28fe363ae961f55b23c11", "type": "electric_scooter", "is_reserved": 0, "lon": -77.03183666666666}, {"fusion_lat": 0.0, "name": "00682439b90ab56d8a9da3a9d89edff0", "is_disabled": 0, "rental_uris": {"android": "https://dc.lft.to/lastmile_qr_scan", "ios": "https://dc.lft.to/lastmile_qr_scan"}, "fusion_lon": 0.0, "lat": 38.874683, "bike_id": "00682439b90ab56d8a9da3a9d89edff0", "type": "electric_scooter", "is_reserved": 0, "lon": -77.00557566666667}, {"fusion_lat": 0.0, "name": "1bfcd00ba90cf8684b9f0f9272ab9c4b", "is_disabled": 0, "rental_uris": {"android": "https://dc.lft.to/lastmile_qr_scan", "ios": "https://dc.lft.to/lastmile_qr_scan"}, "fusion_lon": 0.0, "lat": 38.933725333333335, "bike_id": "1bfcd00ba90cf8684b9f0f9272ab9c4b", "type": "electric_scooter", "is_reserved": 0, "lon": -77.03882183333333}, {"fusion_lat": 0.0, "name": "85a61dd1b46b7dcaf40b380a3879d55d", "is_disabled": 0, "rental_uris": {"android": "https://dc.lft.to/lastmile_qr_scan", "ios": "https://dc.lft.to/lastmile_qr_scan"}, "fusion_lon": 0.0, "lat": 38.912905, "bike_id": "85a61dd1b46b7dcaf40b380a3879d55d", "type": "electric_scooter", "is_reserved": 0, "lon": -77.04513166666666}, {"fusion_lat": 0.0, "name": "5c30fdb87a6a2f1058201f94518970c3", "is_disabled": 0, "rental_uris": {"android": "https://dc.lft.to/lastmile_qr_scan", "ios": "https://dc.lft.to/lastmile_qr_scan"}, "fusion_lon": 0.0, "lat": 38.926328833333336, "bike_id": "5c30fdb87a6a2f1058201f94518970c3", "type": "electric_scooter", "is_reserved": 0, "lon": -77.0349955}, {"fusion_lat": 0.0, "name": "5e339630f26698199ea0e4d54439ec3f", "is_disabled": 0, "rental_uris": {"android": "https://dc.lft.to/lastmile_qr_scan", "ios": "https://dc.lft.to/lastmile_qr_scan"}, "fusion_lon": 0.0, "lat": 38.89739083333333, "bike_id": "5e339630f26698199ea0e4d54439ec3f", "type": "electric_scooter", "is_reserved": 0, "lon": -77.02704133333333}, {"fusion_lat": 0.0, "name": "e9dccaffc3b4b8ac730290099d9e2c35", "is_disabled": 0, "rental_uris": {"android": "https://dc.lft.to/lastmile_qr_scan", "ios": "https://dc.lft.to/lastmile_qr_scan"}, "fusion_lon": 0.0, "lat": 38.90831416666666, "bike_id": "e9dccaffc3b4b8ac730290099d9e2c35", "type": "electric_scooter", "is_reserved": 0, "lon": -77.0363225}, {"fusion_lat": 0.0, "name": "4c6d157381a41cfee14274c8404026e2", "is_disabled": 0, "rental_uris": {"android": "https://dc.lft.to/lastmile_qr_scan", "ios": "https://dc.lft.to/lastmile_qr_scan"}, "fusion_lon": 0.0, "lat": 38.9245735, "bike_id": "4c6d157381a41cfee14274c8404026e2", "type": "electric_scooter", "is_reserved": 0, "lon": -76.99909466666666}, {"fusion_lat": 0.0, "name": "4e07eff99024357a45462f657de57157", "is_disabled": 0, "rental_uris": {"android": "https://dc.lft.to/lastmile_qr_scan", "ios": "https://dc.lft.to/lastmile_qr_scan"}, "fusion_lon": 0.0, "lat": 38.90976833333333, "bike_id": "4e07eff99024357a45462f657de57157", "type": "electric_scooter", "is_reserved": 0, "lon": -77.0325055}, {"fusion_lat": 0.0, "name": "859cd28192019eff1c26a2f82ae60e01", "is_disabled": 0, "rental_uris": {"android": "https://dc.lft.to/lastmile_qr_scan", "ios": "https://dc.lft.to/lastmile_qr_scan"}, "fusion_lon": 0.0, "lat": 38.892218166666666, "bike_id": "859cd28192019eff1c26a2f82ae60e01", "type": "electric_scooter", "is_reserved": 0, "lon": -77.02375633333334}, {"fusion_lat": 0.0, "name": "a8001bdfbf1e0c0aeb235b3143dac47b", "is_disabled": 0, "rental_uris": {"android": "https://dc.lft.to/lastmile_qr_scan", "ios": "https://dc.lft.to/lastmile_qr_scan"}, "fusion_lon": 0.0, "lat": 38.96591516666667, "bike_id": "a8001bdfbf1e0c0aeb235b3143dac47b", "type": "electric_scooter", "is_reserved": 0, "lon": -77.015961}, {"fusion_lat": 0.0, "name": "4757c3f757391b068a5aa1c478773a31", "is_disabled": 0, "rental_uris": {"android": "https://dc.lft.to/lastmile_qr_scan", "ios": "https://dc.lft.to/lastmile_qr_scan"}, "fusion_lon": 0.0, "lat": 38.897327833333335, "bike_id": "4757c3f757391b068a5aa1c478773a31", "type": "electric_scooter", "is_reserved": 0, "lon": -76.94701166666667}, {"fusion_lat": 0.0, "name": "278122961243f70f83c5303c95119f66", "is_disabled": 0, "rental_uris": {"android": "https://dc.lft.to/lastmile_qr_scan", "ios": "https://dc.lft.to/lastmile_qr_scan"}, "fusion_lon": 0.0, "lat": 38.932451666666665, "bike_id": "278122961243f70f83c5303c95119f66", "type": "electric_scooter", "is_reserved": 0, "lon": -77.03413683333333}, {"fusion_lat": 0.0, "name": "d86fe54bcaf46f407474e036c38c2ebd", "is_disabled": 0, "rental_uris": {"android": "https://dc.lft.to/lastmile_qr_scan", "ios": "https://dc.lft.to/lastmile_qr_scan"}, "fusion_lon": 0.0, "lat": 38.90773166666666, "bike_id": "d86fe54bcaf46f407474e036c38c2ebd", "type": "electric_scooter", "is_reserved": 0, "lon": -77.00238516666667}, {"fusion_lat": 0.0, "name": "4343309a70ee79f20891830bad28f6aa", "is_disabled": 0, "rental_uris": {"android": "https://dc.lft.to/lastmile_qr_scan", "ios": "https://dc.lft.to/lastmile_qr_scan"}, "fusion_lon": 0.0, "lat": 38.92287233333333, "bike_id": "4343309a70ee79f20891830bad28f6aa", "type": "electric_scooter", "is_reserved": 0, "lon": -77.04118016666666}, {"fusion_lat": 0.0, "name": "a6ae0c1b810753cdfbb6546f5d24c19c", "is_disabled": 0, "rental_uris": {"android": "https://dc.lft.to/lastmile_qr_scan", "ios": "https://dc.lft.to/lastmile_qr_scan"}, "fusion_lon": 0.0, "lat": 38.96068533333333, "bike_id": "a6ae0c1b810753cdfbb6546f5d24c19c", "type": "electric_scooter", "is_reserved": 0, "lon": -77.00096733333334}, {"fusion_lat": 0.0, "name": "4f2f84aff2494c412ab0f6549aae9fe0", "is_disabled": 0, "rental_uris": {"android": "https://dc.lft.to/lastmile_qr_scan", "ios": "https://dc.lft.to/lastmile_qr_scan"}, "fusion_lon": 0.0, "lat": 38.90588066666667, "bike_id": "4f2f84aff2494c412ab0f6549aae9fe0", "type": "electric_scooter", "is_reserved": 0, "lon": -77.041983}, {"fusion_lat": 0.0, "name": "f1be41997b05a49b71e6ed8c4f01f335", "is_disabled": 0, "rental_uris": {"android": "https://dc.lft.to/lastmile_qr_scan", "ios": "https://dc.lft.to/lastmile_qr_scan"}, "fusion_lon": 0.0, "lat": 38.9020145, "bike_id": "f1be41997b05a49b71e6ed8c4f01f335", "type": "electric_scooter", "is_reserved": 0, "lon": -77.0237455}, {"fusion_lat": 0.0, "name": "04f8e0663b4e2973e622e46b522ba6a0", "is_disabled": 0, "rental_uris": {"android": "https://dc.lft.to/lastmile_qr_scan", "ios": "https://dc.lft.to/lastmile_qr_scan"}, "fusion_lon": 0.0, "lat": 38.90437633333333, "bike_id": "04f8e0663b4e2973e622e46b522ba6a0", "type": "electric_scooter", "is_reserved": 0, "lon": -77.048463}, {"fusion_lat": 0.0, "name": "34c759673abfb6a9964d7e0ac02f1b75", "is_disabled": 0, "rental_uris": {"android": "https://dc.lft.to/lastmile_qr_scan", "ios": "https://dc.lft.to/lastmile_qr_scan"}, "fusion_lon": 0.0, "lat": 38.87086033333333, "bike_id": "34c759673abfb6a9964d7e0ac02f1b75", "type": "electric_bike", "is_reserved": 0, "lon": -77.133275}, {"fusion_lat": 0.0, "name": "60d53b78c2e917c930ebeab10a89c41d", "is_disabled": 0, "rental_uris": {"android": "https://dc.lft.to/lastmile_qr_scan", "ios": "https://dc.lft.to/lastmile_qr_scan"}, "fusion_lon": 0.0, "lat": 38.90109316666667, "bike_id": "60d53b78c2e917c930ebeab10a89c41d", "type": "electric_scooter", "is_reserved": 0, "lon": -77.05894483333333}, {"fusion_lat": 0.0, "name": "2582d249e661feccd38695f880300269", "is_disabled": 0, "rental_uris": {"android": "https://dc.lft.to/lastmile_qr_scan", "ios": "https://dc.lft.to/lastmile_qr_scan"}, "fusion_lon": 0.0, "lat": 38.898969666666666, "bike_id": "2582d249e661feccd38695f880300269", "type": "electric_scooter", "is_reserved": 0, "lon": -76.993824}, {"fusion_lat": 0.0, "name": "220406439c51a0c9e5529c4f2899bcc9", "is_disabled": 0, "rental_uris": {"android": "https://dc.lft.to/lastmile_qr_scan", "ios": "https://dc.lft.to/lastmile_qr_scan"}, "fusion_lon": 0.0, "lat": 38.907192333333334, "bike_id": "220406439c51a0c9e5529c4f2899bcc9", "type": "electric_scooter", "is_reserved": 0, "lon": -77.04079133333333}, {"fusion_lat": 0.0, "name": "a77f576977387da0ba0d74c8fd8e654b", "is_disabled": 0, "rental_uris": {"android": "https://dc.lft.to/lastmile_qr_scan", "ios": "https://dc.lft.to/lastmile_qr_scan"}, "fusion_lon": 0.0, "lat": 38.90052583333333, "bike_id": "a77f576977387da0ba0d74c8fd8e654b", "type": "electric_scooter", "is_reserved": 0, "lon": -77.039504}, {"fusion_lat": 0.0, "name": "73543443a546472d7a27c0efb6f2188d", "is_disabled": 0, "rental_uris": {"android": "https://dc.lft.to/lastmile_qr_scan", "ios": "https://dc.lft.to/lastmile_qr_scan"}, "fusion_lon": 0.0, "lat": 38.91697516666667, "bike_id": "73543443a546472d7a27c0efb6f2188d", "type": "electric_scooter", "is_reserved": 0, "lon": -77.037639}, {"fusion_lat": 0.0, "name": "9d69ba7f717acffe9b05010cd659944b", "is_disabled": 0, "rental_uris": {"android": "https://dc.lft.to/lastmile_qr_scan", "ios": "https://dc.lft.to/lastmile_qr_scan"}, "fusion_lon": 0.0, "lat": 38.895254, "bike_id": "9d69ba7f717acffe9b05010cd659944b", "type": "electric_scooter", "is_reserved": 0, "lon": -76.93413166666667}, {"fusion_lat": 0.0, "name": "959774dd7109b6078f6a3a417dca379e", "is_disabled": 0, "rental_uris": {"android": "https://dc.lft.to/lastmile_qr_scan", "ios": "https://dc.lft.to/lastmile_qr_scan"}, "fusion_lon": 0.0, "lat": 38.956357, "bike_id": "959774dd7109b6078f6a3a417dca379e", "type": "electric_bike", "is_reserved": 0, "lon": -76.938682}, {"fusion_lat": 0.0, "name": "ab3a3d90b231aeb1de8a0bfa4f49b55c", "is_disabled": 0, "rental_uris": {"android": "https://dc.lft.to/lastmile_qr_scan", "ios": "https://dc.lft.to/lastmile_qr_scan"}, "fusion_lon": 0.0, "lat": 38.90956966666667, "bike_id": "ab3a3d90b231aeb1de8a0bfa4f49b55c", "type": "electric_scooter", "is_reserved": 0, "lon": -77.02308483333333}, {"fusion_lat": 0.0, "name": "e2749f36ceb305b2db7d5dfec4c926b9", "is_disabled": 0, "rental_uris": {"android": "https://dc.lft.to/lastmile_qr_scan", "ios": "https://dc.lft.to/lastmile_qr_scan"}, "fusion_lon": 0.0, "lat": 38.888878, "bike_id": "e2749f36ceb305b2db7d5dfec4c926b9", "type": "electric_scooter", "is_reserved": 0, "lon": -77.03324316666667}, {"fusion_lat": 0.0, "name": "6f1f8b334177126b49d65c43cfb5a326", "is_disabled": 0, "rental_uris": {"android": "https://dc.lft.to/lastmile_qr_scan", "ios": "https://dc.lft.to/lastmile_qr_scan"}, "fusion_lon": 0.0, "lat": 38.912683666666666, "bike_id": "6f1f8b334177126b49d65c43cfb5a326", "type": "electric_scooter", "is_reserved": 0, "lon": -77.01930383333334}, {"fusion_lat": 0.0, "name": "f230443d5622886f43e865c86d711c87", "is_disabled": 0, "rental_uris": {"android": "https://dc.lft.to/lastmile_qr_scan", "ios": "https://dc.lft.to/lastmile_qr_scan"}, "fusion_lon": 0.0, "lat": 38.893026166666665, "bike_id": "f230443d5622886f43e865c86d711c87", "type": "electric_scooter", "is_reserved": 0, "lon": -77.02600733333334}, {"fusion_lat": 0.0, "name": "46b631fecba9c6f97125770d08744f71", "is_disabled": 0, "rental_uris": {"android": "https://dc.lft.to/lastmile_qr_scan", "ios": "https://dc.lft.to/lastmile_qr_scan"}, "fusion_lon": 0.0, "lat": 38.9312975, "bike_id": "46b631fecba9c6f97125770d08744f71", "type": "electric_scooter", "is_reserved": 0, "lon": -77.03851233333333}, {"fusion_lat": 0.0, "name": "b83d72362c265be4800c98ac1d94e5dc", "is_disabled": 0, "rental_uris": {"android": "https://dc.lft.to/lastmile_qr_scan", "ios": "https://dc.lft.to/lastmile_qr_scan"}, "fusion_lon": 0.0, "lat": 38.887477, "bike_id": "b83d72362c265be4800c98ac1d94e5dc", "type": "electric_scooter", "is_reserved": 0, "lon": -77.01782366666667}, {"fusion_lat": 0.0, "name": "5976d924f7d99f9008ae4603e4ea16e0", "is_disabled": 0, "rental_uris": {"android": "https://dc.lft.to/lastmile_qr_scan", "ios": "https://dc.lft.to/lastmile_qr_scan"}, "fusion_lon": 0.0, "lat": 38.917986666666664, "bike_id": "5976d924f7d99f9008ae4603e4ea16e0", "type": "electric_scooter", "is_reserved": 0, "lon": -77.03437166666667}, {"fusion_lat": 0.0, "name": "7cda14c2cc104bcbde13019979138c32", "is_disabled": 0, "rental_uris": {"android": "https://dc.lft.to/lastmile_qr_scan", "ios": "https://dc.lft.to/lastmile_qr_scan"}, "fusion_lon": 0.0, "lat": 38.925511, "bike_id": "7cda14c2cc104bcbde13019979138c32", "type": "electric_scooter", "is_reserved": 0, "lon": -77.04293616666666}, {"fusion_lat": 0.0, "name": "d549207886e43d0e8ec018cca58b7cc8", "is_disabled": 0, "rental_uris": {"android": "https://dc.lft.to/lastmile_qr_scan", "ios": "https://dc.lft.to/lastmile_qr_scan"}, "fusion_lon": 0.0, "lat": 38.922521333333336, "bike_id": "d549207886e43d0e8ec018cca58b7cc8", "type": "electric_scooter", "is_reserved": 0, "lon": -77.01947683333333}, {"fusion_lat": 0.0, "name": "b844fc587bc033a5fce11b18f4893007", "is_disabled": 0, "rental_uris": {"android": "https://dc.lft.to/lastmile_qr_scan", "ios": "https://dc.lft.to/lastmile_qr_scan"}, "fusion_lon": 0.0, "lat": 38.91398233333334, "bike_id": "b844fc587bc033a5fce11b18f4893007", "type": "electric_scooter", "is_reserved": 0, "lon": -77.031812}, {"fusion_lat": 0.0, "name": "f7e19622344932049aea99b060701e51", "is_disabled": 0, "rental_uris": {"android": "https://dc.lft.to/lastmile_qr_scan", "ios": "https://dc.lft.to/lastmile_qr_scan"}, "fusion_lon": 0.0, "lat": 38.919058666666665, "bike_id": "f7e19622344932049aea99b060701e51", "type": "electric_scooter", "is_reserved": 0, "lon": -77.01367133333333}, {"fusion_lat": 0.0, "name": "a0785fbc0aed6bc2d60c98d030548ae4", "is_disabled": 0, "rental_uris": {"android": "https://dc.lft.to/lastmile_qr_scan", "ios": "https://dc.lft.to/lastmile_qr_scan"}, "fusion_lon": 0.0, "lat": 38.91336366666667, "bike_id": "a0785fbc0aed6bc2d60c98d030548ae4", "type": "electric_scooter", "is_reserved": 0, "lon": -77.0478465}, {"fusion_lat": 0.0, "name": "abf3164e864f6ddc078bec05ced8220d", "is_disabled": 0, "rental_uris": {"android": "https://dc.lft.to/lastmile_qr_scan", "ios": "https://dc.lft.to/lastmile_qr_scan"}, "fusion_lon": 0.0, "lat": 38.892266166666666, "bike_id": "abf3164e864f6ddc078bec05ced8220d", "type": "electric_scooter", "is_reserved": 0, "lon": -77.02654316666667}, {"fusion_lat": 0.0, "name": "8a152f930000bf2c9e92aa8cbc4d5082", "is_disabled": 0, "rental_uris": {"android": "https://dc.lft.to/lastmile_qr_scan", "ios": "https://dc.lft.to/lastmile_qr_scan"}, "fusion_lon": 0.0, "lat": 38.876563, "bike_id": "8a152f930000bf2c9e92aa8cbc4d5082", "type": "electric_scooter", "is_reserved": 0, "lon": -77.00115966666667}, {"fusion_lat": 0.0, "name": "ea212b7afdea50d30f1b71ba3c1d9daa", "is_disabled": 0, "rental_uris": {"android": "https://dc.lft.to/lastmile_qr_scan", "ios": "https://dc.lft.to/lastmile_qr_scan"}, "fusion_lon": 0.0, "lat": 38.8842615, "bike_id": "ea212b7afdea50d30f1b71ba3c1d9daa", "type": "electric_scooter", "is_reserved": 0, "lon": -76.99610783333333}, {"fusion_lat": 0.0, "name": "3f06241ba58c26625dc30f009fd3c21a", "is_disabled": 0, "rental_uris": {"android": "https://dc.lft.to/lastmile_qr_scan", "ios": "https://dc.lft.to/lastmile_qr_scan"}, "fusion_lon": 0.0, "lat": 38.915584833333334, "bike_id": "3f06241ba58c26625dc30f009fd3c21a", "type": "electric_scooter", "is_reserved": 0, "lon": -77.032367}, {"fusion_lat": 0.0, "name": "15d33b59b2775ab9f878d5caf623d235", "is_disabled": 0, "rental_uris": {"android": "https://dc.lft.to/lastmile_qr_scan", "ios": "https://dc.lft.to/lastmile_qr_scan"}, "fusion_lon": 0.0, "lat": 38.91917183333333, "bike_id": "15d33b59b2775ab9f878d5caf623d235", "type": "electric_scooter", "is_reserved": 0, "lon": -77.02503966666667}, {"fusion_lat": 0.0, "name": "06d2904198b5f8394f28a04216523ad1", "is_disabled": 0, "rental_uris": {"android": "https://dc.lft.to/lastmile_qr_scan", "ios": "https://dc.lft.to/lastmile_qr_scan"}, "fusion_lon": 0.0, "lat": 38.92618733333333, "bike_id": "06d2904198b5f8394f28a04216523ad1", "type": "electric_scooter", "is_reserved": 0, "lon": -77.04328166666667}, {"fusion_lat": 0.0, "name": "cb5503542bfa3221a40689d2cbcc7b9b", "is_disabled": 0, "rental_uris": {"android": "https://dc.lft.to/lastmile_qr_scan", "ios": "https://dc.lft.to/lastmile_qr_scan"}, "fusion_lon": 0.0, "lat": 38.925738333333335, "bike_id": "cb5503542bfa3221a40689d2cbcc7b9b", "type": "electric_scooter", "is_reserved": 0, "lon": -77.026882}, {"fusion_lat": 0.0, "name": "52cee081c4025a88f42d55e5140d2f80", "is_disabled": 0, "rental_uris": {"android": "https://dc.lft.to/lastmile_qr_scan", "ios": "https://dc.lft.to/lastmile_qr_scan"}, "fusion_lon": 0.0, "lat": 38.9062425, "bike_id": "52cee081c4025a88f42d55e5140d2f80", "type": "electric_scooter", "is_reserved": 0, "lon": -77.02607066666667}, {"fusion_lat": 0.0, "name": "e2299f24ddf3ef4d8e86bece2e087760", "is_disabled": 0, "rental_uris": {"android": "https://dc.lft.to/lastmile_qr_scan", "ios": "https://dc.lft.to/lastmile_qr_scan"}, "fusion_lon": 0.0, "lat": 38.912553333333335, "bike_id": "e2299f24ddf3ef4d8e86bece2e087760", "type": "electric_scooter", "is_reserved": 0, "lon": -77.036312}, {"fusion_lat": 0.0, "name": "6288898286de71ccc3e3ec8063c7d1f2", "is_disabled": 0, "rental_uris": {"android": "https://dc.lft.to/lastmile_qr_scan", "ios": "https://dc.lft.to/lastmile_qr_scan"}, "fusion_lon": 0.0, "lat": 38.931141, "bike_id": "6288898286de71ccc3e3ec8063c7d1f2", "type": "electric_scooter", "is_reserved": 0, "lon": -76.99613016666666}, {"fusion_lat": 0.0, "name": "dac62e9453be92f4952316311098228b", "is_disabled": 0, "rental_uris": {"android": "https://dc.lft.to/lastmile_qr_scan", "ios": "https://dc.lft.to/lastmile_qr_scan"}, "fusion_lon": 0.0, "lat": 38.9043505, "bike_id": "dac62e9453be92f4952316311098228b", "type": "electric_scooter", "is_reserved": 0, "lon": -77.0259}, {"fusion_lat": 0.0, "name": "4a553d4fb3fd2f3abf5716f439a786c3", "is_disabled": 0, "rental_uris": {"android": "https://dc.lft.to/lastmile_qr_scan", "ios": "https://dc.lft.to/lastmile_qr_scan"}, "fusion_lon": 0.0, "lat": 38.928866166666666, "bike_id": "4a553d4fb3fd2f3abf5716f439a786c3", "type": "electric_scooter", "is_reserved": 0, "lon": -76.995652}, {"fusion_lat": 0.0, "name": "47b03d7403c42240b06a65ba9820354e", "is_disabled": 0, "rental_uris": {"android": "https://dc.lft.to/lastmile_qr_scan", "ios": "https://dc.lft.to/lastmile_qr_scan"}, "fusion_lon": 0.0, "lat": 38.8801845, "bike_id": "47b03d7403c42240b06a65ba9820354e", "type": "electric_scooter", "is_reserved": 0, "lon": -76.98071633333333}, {"fusion_lat": 0.0, "name": "5ddec6d1cd751b1f2e5595ad00c619b9", "is_disabled": 0, "rental_uris": {"android": "https://dc.lft.to/lastmile_qr_scan", "ios": "https://dc.lft.to/lastmile_qr_scan"}, "fusion_lon": 0.0, "lat": 38.910964666666665, "bike_id": "5ddec6d1cd751b1f2e5595ad00c619b9", "type": "electric_scooter", "is_reserved": 0, "lon": -77.044804}, {"fusion_lat": 0.0, "name": "cb66d00c481e38ef24dc8e707c4f1f83", "is_disabled": 0, "rental_uris": {"android": "https://dc.lft.to/lastmile_qr_scan", "ios": "https://dc.lft.to/lastmile_qr_scan"}, "fusion_lon": 0.0, "lat": 38.906621, "bike_id": "cb66d00c481e38ef24dc8e707c4f1f83", "type": "electric_scooter", "is_reserved": 0, "lon": -77.0226535}, {"fusion_lat": 0.0, "name": "ebbac9f7184aa465b3de2369b8ced7ea", "is_disabled": 0, "rental_uris": {"android": "https://dc.lft.to/lastmile_qr_scan", "ios": "https://dc.lft.to/lastmile_qr_scan"}, "fusion_lon": 0.0, "lat": 38.9111195, "bike_id": "ebbac9f7184aa465b3de2369b8ced7ea", "type": "electric_scooter", "is_reserved": 0, "lon": -77.01972033333334}, {"fusion_lat": 0.0, "name": "eb1bc19a2825b68a84b07061a4f1c20b", "is_disabled": 0, "rental_uris": {"android": "https://dc.lft.to/lastmile_qr_scan", "ios": "https://dc.lft.to/lastmile_qr_scan"}, "fusion_lon": 0.0, "lat": 38.902417, "bike_id": "eb1bc19a2825b68a84b07061a4f1c20b", "type": "electric_scooter", "is_reserved": 0, "lon": -77.00198083333333}, {"fusion_lat": 0.0, "name": "328d80b214f0b4a85cb732ea8c389b04", "is_disabled": 0, "rental_uris": {"android": "https://dc.lft.to/lastmile_qr_scan", "ios": "https://dc.lft.to/lastmile_qr_scan"}, "fusion_lon": 0.0, "lat": 38.92012883333334, "bike_id": "328d80b214f0b4a85cb732ea8c389b04", "type": "electric_scooter", "is_reserved": 0, "lon": -77.03878966666667}, {"fusion_lat": 0.0, "name": "0e5e090c2986621224d7f1dd850d4177", "is_disabled": 0, "rental_uris": {"android": "https://dc.lft.to/lastmile_qr_scan", "ios": "https://dc.lft.to/lastmile_qr_scan"}, "fusion_lon": 0.0, "lat": 38.92732866666667, "bike_id": "0e5e090c2986621224d7f1dd850d4177", "type": "electric_scooter", "is_reserved": 0, "lon": -77.05254516666666}, {"fusion_lat": 0.0, "name": "62c4215a5399b4b9be68b974f4571e70", "is_disabled": 0, "rental_uris": {"android": "https://dc.lft.to/lastmile_qr_scan", "ios": "https://dc.lft.to/lastmile_qr_scan"}, "fusion_lon": 0.0, "lat": 38.92379283333333, "bike_id": "62c4215a5399b4b9be68b974f4571e70", "type": "electric_scooter", "is_reserved": 0, "lon": -77.0446995}, {"fusion_lat": 0.0, "name": "36f9b2f63caf0911bfe4049f0e561118", "is_disabled": 0, "rental_uris": {"android": "https://dc.lft.to/lastmile_qr_scan", "ios": "https://dc.lft.to/lastmile_qr_scan"}, "fusion_lon": 0.0, "lat": 38.898269666666664, "bike_id": "36f9b2f63caf0911bfe4049f0e561118", "type": "electric_scooter", "is_reserved": 0, "lon": -77.0246785}, {"fusion_lat": 0.0, "name": "4191748e9b9678e643ca173ee9650773", "is_disabled": 0, "rental_uris": {"android": "https://dc.lft.to/lastmile_qr_scan", "ios": "https://dc.lft.to/lastmile_qr_scan"}, "fusion_lon": 0.0, "lat": 38.963916833333336, "bike_id": "4191748e9b9678e643ca173ee9650773", "type": "electric_scooter", "is_reserved": 0, "lon": -77.02593733333333}, {"fusion_lat": 0.0, "name": "9d4fe24e74b0978877d63da9cb3acf08", "is_disabled": 0, "rental_uris": {"android": "https://dc.lft.to/lastmile_qr_scan", "ios": "https://dc.lft.to/lastmile_qr_scan"}, "fusion_lon": 0.0, "lat": 38.903843333333334, "bike_id": "9d4fe24e74b0978877d63da9cb3acf08", "type": "electric_scooter", "is_reserved": 0, "lon": -76.97617216666667}, {"fusion_lat": 0.0, "name": "d4a9d6c94f7db437b9237a02fdc1bb79", "is_disabled": 0, "rental_uris": {"android": "https://dc.lft.to/lastmile_qr_scan", "ios": "https://dc.lft.to/lastmile_qr_scan"}, "fusion_lon": 0.0, "lat": 38.87980733333333, "bike_id": "d4a9d6c94f7db437b9237a02fdc1bb79", "type": "electric_scooter", "is_reserved": 0, "lon": -77.00595433333334}, {"fusion_lat": 0.0, "name": "a544ac6578f5121ca8909b4c76f1f431", "is_disabled": 0, "rental_uris": {"android": "https://dc.lft.to/lastmile_qr_scan", "ios": "https://dc.lft.to/lastmile_qr_scan"}, "fusion_lon": 0.0, "lat": 38.90735466666667, "bike_id": "a544ac6578f5121ca8909b4c76f1f431", "type": "electric_scooter", "is_reserved": 0, "lon": -77.0320515}, {"fusion_lat": 0.0, "name": "aa1531d305e5ce351baadff97e8c4f9a", "is_disabled": 0, "rental_uris": {"android": "https://dc.lft.to/lastmile_qr_scan", "ios": "https://dc.lft.to/lastmile_qr_scan"}, "fusion_lon": 0.0, "lat": 38.917288166666665, "bike_id": "aa1531d305e5ce351baadff97e8c4f9a", "type": "electric_scooter", "is_reserved": 0, "lon": -77.04175616666667}, {"fusion_lat": 0.0, "name": "25add9e1d10597ea3b2623da94880ab9", "is_disabled": 0, "rental_uris": {"android": "https://dc.lft.to/lastmile_qr_scan", "ios": "https://dc.lft.to/lastmile_qr_scan"}, "fusion_lon": 0.0, "lat": 38.9185245, "bike_id": "25add9e1d10597ea3b2623da94880ab9", "type": "electric_scooter", "is_reserved": 0, "lon": -77.03194533333334}, {"fusion_lat": 0.0, "name": "875c79d1e30d2f7d80832f0cb5f9b83d", "is_disabled": 0, "rental_uris": {"android": "https://dc.lft.to/lastmile_qr_scan", "ios": "https://dc.lft.to/lastmile_qr_scan"}, "fusion_lon": 0.0, "lat": 38.9002235, "bike_id": "875c79d1e30d2f7d80832f0cb5f9b83d", "type": "electric_scooter", "is_reserved": 0, "lon": -77.01171533333333}, {"fusion_lat": 0.0, "name": "930dee8fd436ee4a993dbd2e8b91bf5e", "is_disabled": 0, "rental_uris": {"android": "https://dc.lft.to/lastmile_qr_scan", "ios": "https://dc.lft.to/lastmile_qr_scan"}, "fusion_lon": 0.0, "lat": 38.80292, "bike_id": "930dee8fd436ee4a993dbd2e8b91bf5e", "type": "electric_bike", "is_reserved": 0, "lon": -77.05937183333333}, {"fusion_lat": 0.0, "name": "d68cb292939bc14dc3e333c5108af947", "is_disabled": 0, "rental_uris": {"android": "https://dc.lft.to/lastmile_qr_scan", "ios": "https://dc.lft.to/lastmile_qr_scan"}, "fusion_lon": 0.0, "lat": 38.922863, "bike_id": "d68cb292939bc14dc3e333c5108af947", "type": "electric_scooter", "is_reserved": 0, "lon": -77.036637}, {"fusion_lat": 0.0, "name": "cf2e032630e5c1319071ca67f6bdcfcb", "is_disabled": 0, "rental_uris": {"android": "https://dc.lft.to/lastmile_qr_scan", "ios": "https://dc.lft.to/lastmile_qr_scan"}, "fusion_lon": 0.0, "lat": 38.892413, "bike_id": "cf2e032630e5c1319071ca67f6bdcfcb", "type": "electric_scooter", "is_reserved": 0, "lon": -77.043557}, {"fusion_lat": 0.0, "name": "41c3ab104e4af56b7005c418de55d04c", "is_disabled": 0, "rental_uris": {"android": "https://dc.lft.to/lastmile_qr_scan", "ios": "https://dc.lft.to/lastmile_qr_scan"}, "fusion_lon": 0.0, "lat": 38.938633333333335, "bike_id": "41c3ab104e4af56b7005c418de55d04c", "type": "electric_scooter", "is_reserved": 0, "lon": -77.0316855}, {"fusion_lat": 0.0, "name": "8412cf749eb5d2ffc2e2427934963ed8", "is_disabled": 0, "rental_uris": {"android": "https://dc.lft.to/lastmile_qr_scan", "ios": "https://dc.lft.to/lastmile_qr_scan"}, "fusion_lon": 0.0, "lat": 38.881838333333334, "bike_id": "8412cf749eb5d2ffc2e2427934963ed8", "type": "electric_scooter", "is_reserved": 0, "lon": -77.00351566666667}, {"fusion_lat": 0.0, "name": "90b9302fcfd3d2d6e16ada0014b92b79", "is_disabled": 0, "rental_uris": {"android": "https://dc.lft.to/lastmile_qr_scan", "ios": "https://dc.lft.to/lastmile_qr_scan"}, "fusion_lon": 0.0, "lat": 38.904191, "bike_id": "90b9302fcfd3d2d6e16ada0014b92b79", "type": "electric_scooter", "is_reserved": 0, "lon": -77.05141316666666}, {"fusion_lat": 0.0, "name": "e63a6dd5da2fc3e76de300a1844a56fd", "is_disabled": 0, "rental_uris": {"android": "https://dc.lft.to/lastmile_qr_scan", "ios": "https://dc.lft.to/lastmile_qr_scan"}, "fusion_lon": 0.0, "lat": 38.90251633333333, "bike_id": "e63a6dd5da2fc3e76de300a1844a56fd", "type": "electric_scooter", "is_reserved": 0, "lon": -77.05320066666667}, {"fusion_lat": 0.0, "name": "3bc9ad1f5d9d43e62bfe524130673125", "is_disabled": 0, "rental_uris": {"android": "https://dc.lft.to/lastmile_qr_scan", "ios": "https://dc.lft.to/lastmile_qr_scan"}, "fusion_lon": 0.0, "lat": 38.89701683333333, "bike_id": "3bc9ad1f5d9d43e62bfe524130673125", "type": "electric_scooter", "is_reserved": 0, "lon": -77.013132}, {"fusion_lat": 0.0, "name": "591bdb4c88428295d74c1a81fc10b92a", "is_disabled": 0, "rental_uris": {"android": "https://dc.lft.to/lastmile_qr_scan", "ios": "https://dc.lft.to/lastmile_qr_scan"}, "fusion_lon": 0.0, "lat": 38.94193083333333, "bike_id": "591bdb4c88428295d74c1a81fc10b92a", "type": "electric_scooter", "is_reserved": 0, "lon": -77.02533716666667}, {"fusion_lat": 0.0, "name": "6397f753c1cd8d824930d3d97d22485f", "is_disabled": 0, "rental_uris": {"android": "https://dc.lft.to/lastmile_qr_scan", "ios": "https://dc.lft.to/lastmile_qr_scan"}, "fusion_lon": 0.0, "lat": 38.90784433333334, "bike_id": "6397f753c1cd8d824930d3d97d22485f", "type": "electric_scooter", "is_reserved": 0, "lon": -77.03860466666667}, {"fusion_lat": 0.0, "name": "082e43ef7b9e8cd1a826b5d0c8fa4d1c", "is_disabled": 0, "rental_uris": {"android": "https://dc.lft.to/lastmile_qr_scan", "ios": "https://dc.lft.to/lastmile_qr_scan"}, "fusion_lon": 0.0, "lat": 38.90022116666667, "bike_id": "082e43ef7b9e8cd1a826b5d0c8fa4d1c", "type": "electric_scooter", "is_reserved": 0, "lon": -77.01193533333333}, {"fusion_lat": 0.0, "name": "a65f548200ee9a6f9dabd0e1650103fb", "is_disabled": 0, "rental_uris": {"android": "https://dc.lft.to/lastmile_qr_scan", "ios": "https://dc.lft.to/lastmile_qr_scan"}, "fusion_lon": 0.0, "lat": 38.961853, "bike_id": "a65f548200ee9a6f9dabd0e1650103fb", "type": "electric_bike", "is_reserved": 0, "lon": -77.0526665}, {"fusion_lat": 0.0, "name": "3811ac5e890f668388607566175ab685", "is_disabled": 0, "rental_uris": {"android": "https://dc.lft.to/lastmile_qr_scan", "ios": "https://dc.lft.to/lastmile_qr_scan"}, "fusion_lon": 0.0, "lat": 38.9126725, "bike_id": "3811ac5e890f668388607566175ab685", "type": "electric_scooter", "is_reserved": 0, "lon": -77.03871366666667}, {"fusion_lat": 0.0, "name": "416593d2aaf873ac049b2d20a540ef2c", "is_disabled": 0, "rental_uris": {"android": "https://dc.lft.to/lastmile_qr_scan", "ios": "https://dc.lft.to/lastmile_qr_scan"}, "fusion_lon": 0.0, "lat": 38.926711166666664, "bike_id": "416593d2aaf873ac049b2d20a540ef2c", "type": "electric_scooter", "is_reserved": 0, "lon": -77.02786116666667}, {"fusion_lat": 0.0, "name": "9f4ca74dfb8bf46f05358523bebd7ffe", "is_disabled": 0, "rental_uris": {"android": "https://dc.lft.to/lastmile_qr_scan", "ios": "https://dc.lft.to/lastmile_qr_scan"}, "fusion_lon": 0.0, "lat": 38.920723333333335, "bike_id": "9f4ca74dfb8bf46f05358523bebd7ffe", "type": "electric_scooter", "is_reserved": 0, "lon": -77.01480666666667}, {"fusion_lat": 0.0, "name": "a4ddde3b1ffb4d841fb84a4bd1790868", "is_disabled": 0, "rental_uris": {"android": "https://dc.lft.to/lastmile_qr_scan", "ios": "https://dc.lft.to/lastmile_qr_scan"}, "fusion_lon": 0.0, "lat": 38.924301, "bike_id": "a4ddde3b1ffb4d841fb84a4bd1790868", "type": "electric_scooter", "is_reserved": 0, "lon": -77.0446835}, {"fusion_lat": 0.0, "name": "1788220d75d218104b942ae147fc5efb", "is_disabled": 0, "rental_uris": {"android": "https://dc.lft.to/lastmile_qr_scan", "ios": "https://dc.lft.to/lastmile_qr_scan"}, "fusion_lon": 0.0, "lat": 38.972864666666666, "bike_id": "1788220d75d218104b942ae147fc5efb", "type": "electric_scooter", "is_reserved": 0, "lon": -77.01160433333334}, {"fusion_lat": 0.0, "name": "0841aa444da60a60fbcb0c9ca8248ab5", "is_disabled": 0, "rental_uris": {"android": "https://dc.lft.to/lastmile_qr_scan", "ios": "https://dc.lft.to/lastmile_qr_scan"}, "fusion_lon": 0.0, "lat": 38.9017725, "bike_id": "0841aa444da60a60fbcb0c9ca8248ab5", "type": "electric_scooter", "is_reserved": 0, "lon": -77.02705233333333}, {"fusion_lat": 0.0, "name": "75a69fced56ce3d91aa8eedd3f0bafbe", "is_disabled": 0, "rental_uris": {"android": "https://dc.lft.to/lastmile_qr_scan", "ios": "https://dc.lft.to/lastmile_qr_scan"}, "fusion_lon": 0.0, "lat": 38.913176666666665, "bike_id": "75a69fced56ce3d91aa8eedd3f0bafbe", "type": "electric_scooter", "is_reserved": 0, "lon": -77.03198416666666}, {"fusion_lat": 0.0, "name": "bc3d755bf84a926f7bf43cd4cad92e78", "is_disabled": 0, "rental_uris": {"android": "https://dc.lft.to/lastmile_qr_scan", "ios": "https://dc.lft.to/lastmile_qr_scan"}, "fusion_lon": 0.0, "lat": 38.8621985, "bike_id": "bc3d755bf84a926f7bf43cd4cad92e78", "type": "electric_scooter", "is_reserved": 0, "lon": -76.9948985}, {"fusion_lat": 0.0, "name": "7e822877c283e3a0d480bc40653978a0", "is_disabled": 0, "rental_uris": {"android": "https://dc.lft.to/lastmile_qr_scan", "ios": "https://dc.lft.to/lastmile_qr_scan"}, "fusion_lon": 0.0, "lat": 38.91562116666667, "bike_id": "7e822877c283e3a0d480bc40653978a0", "type": "electric_scooter", "is_reserved": 0, "lon": -77.038511}, {"fusion_lat": 0.0, "name": "2b08d24fba581770bedea941eb09a838", "is_disabled": 0, "rental_uris": {"android": "https://dc.lft.to/lastmile_qr_scan", "ios": "https://dc.lft.to/lastmile_qr_scan"}, "fusion_lon": 0.0, "lat": 38.88652316666666, "bike_id": "2b08d24fba581770bedea941eb09a838", "type": "electric_scooter", "is_reserved": 0, "lon": -77.03380516666667}, {"fusion_lat": 0.0, "name": "9491c16a0391d92c399416833842d0ba", "is_disabled": 0, "rental_uris": {"android": "https://dc.lft.to/lastmile_qr_scan", "ios": "https://dc.lft.to/lastmile_qr_scan"}, "fusion_lon": 0.0, "lat": 38.87637683333333, "bike_id": "9491c16a0391d92c399416833842d0ba", "type": "electric_scooter", "is_reserved": 0, "lon": -77.01547783333334}, {"fusion_lat": 0.0, "name": "51fca79b06a9c53825090024bbc3c393", "is_disabled": 0, "rental_uris": {"android": "https://dc.lft.to/lastmile_qr_scan", "ios": "https://dc.lft.to/lastmile_qr_scan"}, "fusion_lon": 0.0, "lat": 38.90289933333333, "bike_id": "51fca79b06a9c53825090024bbc3c393", "type": "electric_scooter", "is_reserved": 0, "lon": -77.02775233333334}, {"fusion_lat": 0.0, "name": "67ac0d67c9a9846b74014da7369a3a73", "is_disabled": 0, "rental_uris": {"android": "https://dc.lft.to/lastmile_qr_scan", "ios": "https://dc.lft.to/lastmile_qr_scan"}, "fusion_lon": 0.0, "lat": 38.90803866666667, "bike_id": "67ac0d67c9a9846b74014da7369a3a73", "type": "electric_scooter", "is_reserved": 0, "lon": -77.03460983333333}, {"fusion_lat": 0.0, "name": "45c6a2fce771c9b74ad3b570e58f966e", "is_disabled": 0, "rental_uris": {"android": "https://dc.lft.to/lastmile_qr_scan", "ios": "https://dc.lft.to/lastmile_qr_scan"}, "fusion_lon": 0.0, "lat": 38.91918016666666, "bike_id": "45c6a2fce771c9b74ad3b570e58f966e", "type": "electric_scooter", "is_reserved": 0, "lon": -77.0121235}, {"fusion_lat": 0.0, "name": "35ed92951d83da136241241a329368e8", "is_disabled": 0, "rental_uris": {"android": "https://dc.lft.to/lastmile_qr_scan", "ios": "https://dc.lft.to/lastmile_qr_scan"}, "fusion_lon": 0.0, "lat": 38.94526883333333, "bike_id": "35ed92951d83da136241241a329368e8", "type": "electric_scooter", "is_reserved": 0, "lon": -77.0209435}, {"fusion_lat": 0.0, "name": "5ef082c62772235addf32676041bf871", "is_disabled": 0, "rental_uris": {"android": "https://dc.lft.to/lastmile_qr_scan", "ios": "https://dc.lft.to/lastmile_qr_scan"}, "fusion_lon": 0.0, "lat": 38.91009733333333, "bike_id": "5ef082c62772235addf32676041bf871", "type": "electric_scooter", "is_reserved": 0, "lon": -77.02087866666666}, {"fusion_lat": 0.0, "name": "735abd4c4a98550bcfbd8db06a477e99", "is_disabled": 0, "rental_uris": {"android": "https://dc.lft.to/lastmile_qr_scan", "ios": "https://dc.lft.to/lastmile_qr_scan"}, "fusion_lon": 0.0, "lat": 38.91545383333333, "bike_id": "735abd4c4a98550bcfbd8db06a477e99", "type": "electric_scooter", "is_reserved": 0, "lon": -77.03173333333334}, {"fusion_lat": 0.0, "name": "66a6b4ab7ead016698eccbad6e79f1f0", "is_disabled": 0, "rental_uris": {"android": "https://dc.lft.to/lastmile_qr_scan", "ios": "https://dc.lft.to/lastmile_qr_scan"}, "fusion_lon": 0.0, "lat": 38.90248916666667, "bike_id": "66a6b4ab7ead016698eccbad6e79f1f0", "type": "electric_scooter", "is_reserved": 0, "lon": -77.03976733333333}, {"fusion_lat": 0.0, "name": "28b87db227b5f3da47f18eebea9708b7", "is_disabled": 0, "rental_uris": {"android": "https://dc.lft.to/lastmile_qr_scan", "ios": "https://dc.lft.to/lastmile_qr_scan"}, "fusion_lon": 0.0, "lat": 38.9212105, "bike_id": "28b87db227b5f3da47f18eebea9708b7", "type": "electric_scooter", "is_reserved": 0, "lon": -77.01212416666667}, {"fusion_lat": 0.0, "name": "a03131c9659a2fd67cf5598e51f5028d", "is_disabled": 0, "rental_uris": {"android": "https://dc.lft.to/lastmile_qr_scan", "ios": "https://dc.lft.to/lastmile_qr_scan"}, "fusion_lon": 0.0, "lat": 39.0030485, "bike_id": "a03131c9659a2fd67cf5598e51f5028d", "type": "electric_bike", "is_reserved": 0, "lon": -76.903291}, {"fusion_lat": 0.0, "name": "146f6a0b3eb658974c47287f5ff546d3", "is_disabled": 0, "rental_uris": {"android": "https://dc.lft.to/lastmile_qr_scan", "ios": "https://dc.lft.to/lastmile_qr_scan"}, "fusion_lon": 0.0, "lat": 38.9056665, "bike_id": "146f6a0b3eb658974c47287f5ff546d3", "type": "electric_scooter", "is_reserved": 0, "lon": -77.04341266666667}, {"fusion_lat": 0.0, "name": "41dd0f7841b8e40ac2ee0816247ebf8f", "is_disabled": 0, "rental_uris": {"android": "https://dc.lft.to/lastmile_qr_scan", "ios": "https://dc.lft.to/lastmile_qr_scan"}, "fusion_lon": 0.0, "lat": 38.93703216666667, "bike_id": "41dd0f7841b8e40ac2ee0816247ebf8f", "type": "electric_scooter", "is_reserved": 0, "lon": -77.061068}, {"fusion_lat": 0.0, "name": "46cef17182b5ee66c60bd121281a0313", "is_disabled": 0, "rental_uris": {"android": "https://dc.lft.to/lastmile_qr_scan", "ios": "https://dc.lft.to/lastmile_qr_scan"}, "fusion_lon": 0.0, "lat": 38.90154966666667, "bike_id": "46cef17182b5ee66c60bd121281a0313", "type": "electric_scooter", "is_reserved": 0, "lon": -77.02300166666667}, {"fusion_lat": 0.0, "name": "2a88531562fb30a7ce07eb759103855c", "is_disabled": 0, "rental_uris": {"android": "https://dc.lft.to/lastmile_qr_scan", "ios": "https://dc.lft.to/lastmile_qr_scan"}, "fusion_lon": 0.0, "lat": 38.9170715, "bike_id": "2a88531562fb30a7ce07eb759103855c", "type": "electric_scooter", "is_reserved": 0, "lon": -77.02425266666667}, {"fusion_lat": 0.0, "name": "089f22445ec48c8d8606acc13933b356", "is_disabled": 0, "rental_uris": {"android": "https://dc.lft.to/lastmile_qr_scan", "ios": "https://dc.lft.to/lastmile_qr_scan"}, "fusion_lon": 0.0, "lat": 38.91915516666667, "bike_id": "089f22445ec48c8d8606acc13933b356", "type": "electric_scooter", "is_reserved": 0, "lon": -77.02409383333334}, {"fusion_lat": 0.0, "name": "2d7989b3ecb042659ad423a741e36c37", "is_disabled": 0, "rental_uris": {"android": "https://dc.lft.to/lastmile_qr_scan", "ios": "https://dc.lft.to/lastmile_qr_scan"}, "fusion_lon": 0.0, "lat": 38.93485066666667, "bike_id": "2d7989b3ecb042659ad423a741e36c37", "type": "electric_scooter", "is_reserved": 0, "lon": -77.0453475}, {"fusion_lat": 0.0, "name": "062343f5c3b64acbd0c6419e5c700bf3", "is_disabled": 0, "rental_uris": {"android": "https://dc.lft.to/lastmile_qr_scan", "ios": "https://dc.lft.to/lastmile_qr_scan"}, "fusion_lon": 0.0, "lat": 38.89827416666667, "bike_id": "062343f5c3b64acbd0c6419e5c700bf3", "type": "electric_scooter", "is_reserved": 0, "lon": -77.027993}, {"fusion_lat": 0.0, "name": "b88ac8364eebbf9c2e05b6a67e167ca0", "is_disabled": 0, "rental_uris": {"android": "https://dc.lft.to/lastmile_qr_scan", "ios": "https://dc.lft.to/lastmile_qr_scan"}, "fusion_lon": 0.0, "lat": 38.931721333333336, "bike_id": "b88ac8364eebbf9c2e05b6a67e167ca0", "type": "electric_scooter", "is_reserved": 0, "lon": -77.05646916666667}, {"fusion_lat": 0.0, "name": "812933b06df1693e01d1706afb9d973b", "is_disabled": 0, "rental_uris": {"android": "https://dc.lft.to/lastmile_qr_scan", "ios": "https://dc.lft.to/lastmile_qr_scan"}, "fusion_lon": 0.0, "lat": 38.91277983333333, "bike_id": "812933b06df1693e01d1706afb9d973b", "type": "electric_scooter", "is_reserved": 0, "lon": -77.03204933333333}, {"fusion_lat": 0.0, "name": "2ea6075273e48c510db9b8c19d3df148", "is_disabled": 0, "rental_uris": {"android": "https://dc.lft.to/lastmile_qr_scan", "ios": "https://dc.lft.to/lastmile_qr_scan"}, "fusion_lon": 0.0, "lat": 38.9054955, "bike_id": "2ea6075273e48c510db9b8c19d3df148", "type": "electric_scooter", "is_reserved": 0, "lon": -76.98327916666666}, {"fusion_lat": 0.0, "name": "8d4938fe555c1ec31d48fb1434c20479", "is_disabled": 0, "rental_uris": {"android": "https://dc.lft.to/lastmile_qr_scan", "ios": "https://dc.lft.to/lastmile_qr_scan"}, "fusion_lon": 0.0, "lat": 38.90112083333333, "bike_id": "8d4938fe555c1ec31d48fb1434c20479", "type": "electric_scooter", "is_reserved": 0, "lon": -77.04990483333333}, {"fusion_lat": 0.0, "name": "6e7cb21e17b23e82ade5351713747f18", "is_disabled": 0, "rental_uris": {"android": "https://dc.lft.to/lastmile_qr_scan", "ios": "https://dc.lft.to/lastmile_qr_scan"}, "fusion_lon": 0.0, "lat": 38.905845, "bike_id": "6e7cb21e17b23e82ade5351713747f18", "type": "electric_scooter", "is_reserved": 0, "lon": -77.041933}, {"fusion_lat": 0.0, "name": "ad9ea6b88afabc7ec22d2592f8a3a1d9", "is_disabled": 0, "rental_uris": {"android": "https://dc.lft.to/lastmile_qr_scan", "ios": "https://dc.lft.to/lastmile_qr_scan"}, "fusion_lon": 0.0, "lat": 38.92451033333333, "bike_id": "ad9ea6b88afabc7ec22d2592f8a3a1d9", "type": "electric_bike", "is_reserved": 0, "lon": -77.23343333333334}, {"fusion_lat": 0.0, "name": "69c4a4e0a29878db3483dda2afb18ebe", "is_disabled": 0, "rental_uris": {"android": "https://dc.lft.to/lastmile_qr_scan", "ios": "https://dc.lft.to/lastmile_qr_scan"}, "fusion_lon": 0.0, "lat": 38.896671166666664, "bike_id": "69c4a4e0a29878db3483dda2afb18ebe", "type": "electric_scooter", "is_reserved": 0, "lon": -76.93209166666666}, {"fusion_lat": 0.0, "name": "97fd8b5b038daec2ebb450970b98716a", "is_disabled": 0, "rental_uris": {"android": "https://dc.lft.to/lastmile_qr_scan", "ios": "https://dc.lft.to/lastmile_qr_scan"}, "fusion_lon": 0.0, "lat": 38.93237466666667, "bike_id": "97fd8b5b038daec2ebb450970b98716a", "type": "electric_bike", "is_reserved": 0, "lon": -76.97424283333334}, {"fusion_lat": 0.0, "name": "6b1f937a4d875ca7400fb444cb30a681", "is_disabled": 0, "rental_uris": {"android": "https://dc.lft.to/lastmile_qr_scan", "ios": "https://dc.lft.to/lastmile_qr_scan"}, "fusion_lon": 0.0, "lat": 38.905185333333336, "bike_id": "6b1f937a4d875ca7400fb444cb30a681", "type": "electric_scooter", "is_reserved": 0, "lon": -77.06793}, {"fusion_lat": 0.0, "name": "74f381633cc067064f9f63b09e3cf2e5", "is_disabled": 0, "rental_uris": {"android": "https://dc.lft.to/lastmile_qr_scan", "ios": "https://dc.lft.to/lastmile_qr_scan"}, "fusion_lon": 0.0, "lat": 38.90727366666667, "bike_id": "74f381633cc067064f9f63b09e3cf2e5", "type": "electric_scooter", "is_reserved": 0, "lon": -77.03174583333333}, {"fusion_lat": 0.0, "name": "ce47f5d0e9dce2346f51c727402bfdc5", "is_disabled": 0, "rental_uris": {"android": "https://dc.lft.to/lastmile_qr_scan", "ios": "https://dc.lft.to/lastmile_qr_scan"}, "fusion_lon": 0.0, "lat": 38.916876, "bike_id": "ce47f5d0e9dce2346f51c727402bfdc5", "type": "electric_scooter", "is_reserved": 0, "lon": -77.037578}, {"fusion_lat": 0.0, "name": "4d506a77837aa4089e937629bedcd1df", "is_disabled": 0, "rental_uris": {"android": "https://dc.lft.to/lastmile_qr_scan", "ios": "https://dc.lft.to/lastmile_qr_scan"}, "fusion_lon": 0.0, "lat": 38.93265566666667, "bike_id": "4d506a77837aa4089e937629bedcd1df", "type": "electric_scooter", "is_reserved": 0, "lon": -77.01919483333333}, {"fusion_lat": 0.0, "name": "97774ea4a6376ef0ef8da1914bc5caa4", "is_disabled": 0, "rental_uris": {"android": "https://dc.lft.to/lastmile_qr_scan", "ios": "https://dc.lft.to/lastmile_qr_scan"}, "fusion_lon": 0.0, "lat": 38.9938685, "bike_id": "97774ea4a6376ef0ef8da1914bc5caa4", "type": "electric_bike", "is_reserved": 0, "lon": -76.92882033333333}, {"fusion_lat": 0.0, "name": "13f364d40324b9ea5c589b40f07046cd", "is_disabled": 0, "rental_uris": {"android": "https://dc.lft.to/lastmile_qr_scan", "ios": "https://dc.lft.to/lastmile_qr_scan"}, "fusion_lon": 0.0, "lat": 38.930814, "bike_id": "13f364d40324b9ea5c589b40f07046cd", "type": "electric_scooter", "is_reserved": 0, "lon": -77.02006316666667}, {"fusion_lat": 0.0, "name": "1475a9f9d5dd03e637cf10a576fc88ac", "is_disabled": 0, "rental_uris": {"android": "https://dc.lft.to/lastmile_qr_scan", "ios": "https://dc.lft.to/lastmile_qr_scan"}, "fusion_lon": 0.0, "lat": 38.91756933333333, "bike_id": "1475a9f9d5dd03e637cf10a576fc88ac", "type": "electric_scooter", "is_reserved": 0, "lon": -77.01606666666666}, {"fusion_lat": 0.0, "name": "4f6795440a72043cc6d2db0b4501fde9", "is_disabled": 0, "rental_uris": {"android": "https://dc.lft.to/lastmile_qr_scan", "ios": "https://dc.lft.to/lastmile_qr_scan"}, "fusion_lon": 0.0, "lat": 38.9014375, "bike_id": "4f6795440a72043cc6d2db0b4501fde9", "type": "electric_scooter", "is_reserved": 0, "lon": -77.04497916666666}, {"fusion_lat": 0.0, "name": "28c5cbca681b45f3ed790394a0c108bd", "is_disabled": 0, "rental_uris": {"android": "https://dc.lft.to/lastmile_qr_scan", "ios": "https://dc.lft.to/lastmile_qr_scan"}, "fusion_lon": 0.0, "lat": 38.920475, "bike_id": "28c5cbca681b45f3ed790394a0c108bd", "type": "electric_scooter", "is_reserved": 0, "lon": -77.0341455}, {"fusion_lat": 0.0, "name": "bf2a2f679e8e8fe0813ed9592ca65303", "is_disabled": 0, "rental_uris": {"android": "https://dc.lft.to/lastmile_qr_scan", "ios": "https://dc.lft.to/lastmile_qr_scan"}, "fusion_lon": 0.0, "lat": 38.89221933333334, "bike_id": "bf2a2f679e8e8fe0813ed9592ca65303", "type": "electric_scooter", "is_reserved": 0, "lon": -77.0321585}, {"fusion_lat": 0.0, "name": "425a1a818ab18408abce23197ac2c1e4", "is_disabled": 0, "rental_uris": {"android": "https://dc.lft.to/lastmile_qr_scan", "ios": "https://dc.lft.to/lastmile_qr_scan"}, "fusion_lon": 0.0, "lat": 38.902752166666666, "bike_id": "425a1a818ab18408abce23197ac2c1e4", "type": "electric_bike", "is_reserved": 0, "lon": -77.017964}, {"fusion_lat": 0.0, "name": "181bd50208cecb33e8c01dc65c34f1c6", "is_disabled": 0, "rental_uris": {"android": "https://dc.lft.to/lastmile_qr_scan", "ios": "https://dc.lft.to/lastmile_qr_scan"}, "fusion_lon": 0.0, "lat": 38.91344766666667, "bike_id": "181bd50208cecb33e8c01dc65c34f1c6", "type": "electric_bike", "is_reserved": 0, "lon": -76.988992}, {"fusion_lat": 0.0, "name": "c13255a5dae449a297e02f1fef53315e", "is_disabled": 0, "rental_uris": {"android": "https://dc.lft.to/lastmile_qr_scan", "ios": "https://dc.lft.to/lastmile_qr_scan"}, "fusion_lon": 0.0, "lat": 38.89222433333333, "bike_id": "c13255a5dae449a297e02f1fef53315e", "type": "electric_scooter", "is_reserved": 0, "lon": -77.02220016666666}, {"fusion_lat": 0.0, "name": "5f4058d5f192aa791d410becfe1996ce", "is_disabled": 0, "rental_uris": {"android": "https://dc.lft.to/lastmile_qr_scan", "ios": "https://dc.lft.to/lastmile_qr_scan"}, "fusion_lon": 0.0, "lat": 38.9097645, "bike_id": "5f4058d5f192aa791d410becfe1996ce", "type": "electric_scooter", "is_reserved": 0, "lon": -77.034448}, {"fusion_lat": 0.0, "name": "3e989a9d4da90990a4a0a0e9b77242b7", "is_disabled": 0, "rental_uris": {"android": "https://dc.lft.to/lastmile_qr_scan", "ios": "https://dc.lft.to/lastmile_qr_scan"}, "fusion_lon": 0.0, "lat": 38.9268405, "bike_id": "3e989a9d4da90990a4a0a0e9b77242b7", "type": "electric_scooter", "is_reserved": 0, "lon": -77.0314205}, {"fusion_lat": 0.0, "name": "3651ebb1b6e16ca216771025ff607ac6", "is_disabled": 0, "rental_uris": {"android": "https://dc.lft.to/lastmile_qr_scan", "ios": "https://dc.lft.to/lastmile_qr_scan"}, "fusion_lon": 0.0, "lat": 38.90139583333333, "bike_id": "3651ebb1b6e16ca216771025ff607ac6", "type": "electric_scooter", "is_reserved": 0, "lon": -76.99119033333334}, {"fusion_lat": 0.0, "name": "c421aff75b536e5a8ac4d2125616d4e9", "is_disabled": 0, "rental_uris": {"android": "https://dc.lft.to/lastmile_qr_scan", "ios": "https://dc.lft.to/lastmile_qr_scan"}, "fusion_lon": 0.0, "lat": 38.91986983333334, "bike_id": "c421aff75b536e5a8ac4d2125616d4e9", "type": "electric_scooter", "is_reserved": 0, "lon": -77.04081683333334}, {"fusion_lat": 0.0, "name": "284694064391ac002f640aba0a37b7e3", "is_disabled": 0, "rental_uris": {"android": "https://dc.lft.to/lastmile_qr_scan", "ios": "https://dc.lft.to/lastmile_qr_scan"}, "fusion_lon": 0.0, "lat": 38.878176833333335, "bike_id": "284694064391ac002f640aba0a37b7e3", "type": "electric_scooter", "is_reserved": 0, "lon": -77.015252}, {"fusion_lat": 0.0, "name": "006c5ddb93eaf29bdaf03c6cdca485ce", "is_disabled": 0, "rental_uris": {"android": "https://dc.lft.to/lastmile_qr_scan", "ios": "https://dc.lft.to/lastmile_qr_scan"}, "fusion_lon": 0.0, "lat": 38.915615333333335, "bike_id": "006c5ddb93eaf29bdaf03c6cdca485ce", "type": "electric_scooter", "is_reserved": 0, "lon": -77.01178383333334}, {"fusion_lat": 0.0, "name": "57cdd23c44780bc31fe421501e6e48be", "is_disabled": 0, "rental_uris": {"android": "https://dc.lft.to/lastmile_qr_scan", "ios": "https://dc.lft.to/lastmile_qr_scan"}, "fusion_lon": 0.0, "lat": 38.94498683333333, "bike_id": "57cdd23c44780bc31fe421501e6e48be", "type": "electric_bike", "is_reserved": 0, "lon": -77.0358}, {"fusion_lat": 0.0, "name": "de4e6f7ed172336aa2c40e8d5ecba698", "is_disabled": 0, "rental_uris": {"android": "https://dc.lft.to/lastmile_qr_scan", "ios": "https://dc.lft.to/lastmile_qr_scan"}, "fusion_lon": 0.0, "lat": 38.8740105, "bike_id": "de4e6f7ed172336aa2c40e8d5ecba698", "type": "electric_scooter", "is_reserved": 0, "lon": -77.000572}, {"fusion_lat": 0.0, "name": "faacf490849c37da45dde09ffc1ea4bf", "is_disabled": 0, "rental_uris": {"android": "https://dc.lft.to/lastmile_qr_scan", "ios": "https://dc.lft.to/lastmile_qr_scan"}, "fusion_lon": 0.0, "lat": 38.886522666666664, "bike_id": "faacf490849c37da45dde09ffc1ea4bf", "type": "electric_scooter", "is_reserved": 0, "lon": -77.002047}, {"fusion_lat": 0.0, "name": "20e37f8d4d7300db49ac5ae594c52433", "is_disabled": 0, "rental_uris": {"android": "https://dc.lft.to/lastmile_qr_scan", "ios": "https://dc.lft.to/lastmile_qr_scan"}, "fusion_lon": 0.0, "lat": 38.96665333333333, "bike_id": "20e37f8d4d7300db49ac5ae594c52433", "type": "electric_scooter", "is_reserved": 0, "lon": -77.0255075}, {"fusion_lat": 0.0, "name": "0d7bb33c7f2feb96606a1ef3c97cabfc", "is_disabled": 0, "rental_uris": {"android": "https://dc.lft.to/lastmile_qr_scan", "ios": "https://dc.lft.to/lastmile_qr_scan"}, "fusion_lon": 0.0, "lat": 38.90531683333333, "bike_id": "0d7bb33c7f2feb96606a1ef3c97cabfc", "type": "electric_scooter", "is_reserved": 0, "lon": -77.04643583333333}, {"fusion_lat": 0.0, "name": "2bd6e3353a217e830e0a51a65a0da492", "is_disabled": 0, "rental_uris": {"android": "https://dc.lft.to/lastmile_qr_scan", "ios": "https://dc.lft.to/lastmile_qr_scan"}, "fusion_lon": 0.0, "lat": 38.891965166666665, "bike_id": "2bd6e3353a217e830e0a51a65a0da492", "type": "electric_scooter", "is_reserved": 0, "lon": -77.022579}, {"fusion_lat": 0.0, "name": "4c874459ec42da5ae36273ac84290204", "is_disabled": 0, "rental_uris": {"android": "https://dc.lft.to/lastmile_qr_scan", "ios": "https://dc.lft.to/lastmile_qr_scan"}, "fusion_lon": 0.0, "lat": 38.889895333333335, "bike_id": "4c874459ec42da5ae36273ac84290204", "type": "electric_scooter", "is_reserved": 0, "lon": -76.99248066666667}, {"fusion_lat": 0.0, "name": "7e46b1caa81adf4e3cbe194c7a6d9d5a", "is_disabled": 0, "rental_uris": {"android": "https://dc.lft.to/lastmile_qr_scan", "ios": "https://dc.lft.to/lastmile_qr_scan"}, "fusion_lon": 0.0, "lat": 38.8922385, "bike_id": "7e46b1caa81adf4e3cbe194c7a6d9d5a", "type": "electric_scooter", "is_reserved": 0, "lon": -77.03171016666667}, {"fusion_lat": 0.0, "name": "6ef89597aa4d40d88d1ab2386b2adc5d", "is_disabled": 0, "rental_uris": {"android": "https://dc.lft.to/lastmile_qr_scan", "ios": "https://dc.lft.to/lastmile_qr_scan"}, "fusion_lon": 0.0, "lat": 38.902468, "bike_id": "6ef89597aa4d40d88d1ab2386b2adc5d", "type": "electric_scooter", "is_reserved": 0, "lon": -77.06322866666666}, {"fusion_lat": 0.0, "name": "7e2d7423ee6687b0d4976cc50df284bb", "is_disabled": 0, "rental_uris": {"android": "https://dc.lft.to/lastmile_qr_scan", "ios": "https://dc.lft.to/lastmile_qr_scan"}, "fusion_lon": 0.0, "lat": 38.937839, "bike_id": "7e2d7423ee6687b0d4976cc50df284bb", "type": "electric_scooter", "is_reserved": 0, "lon": -77.0328975}, {"fusion_lat": 0.0, "name": "e3f7a1f4739c66f744605307b2391ddd", "is_disabled": 0, "rental_uris": {"android": "https://dc.lft.to/lastmile_qr_scan", "ios": "https://dc.lft.to/lastmile_qr_scan"}, "fusion_lon": 0.0, "lat": 38.91058316666667, "bike_id": "e3f7a1f4739c66f744605307b2391ddd", "type": "electric_scooter", "is_reserved": 0, "lon": -77.02655716666666}, {"fusion_lat": 0.0, "name": "a007e6e7e71f729ab20d1cfaa1c0b123", "is_disabled": 0, "rental_uris": {"android": "https://dc.lft.to/lastmile_qr_scan", "ios": "https://dc.lft.to/lastmile_qr_scan"}, "fusion_lon": 0.0, "lat": 38.90391066666667, "bike_id": "a007e6e7e71f729ab20d1cfaa1c0b123", "type": "electric_scooter", "is_reserved": 0, "lon": -77.03848616666667}, {"fusion_lat": 0.0, "name": "98c3c1f34fa2a052ae955451aa103050", "is_disabled": 0, "rental_uris": {"android": "https://dc.lft.to/lastmile_qr_scan", "ios": "https://dc.lft.to/lastmile_qr_scan"}, "fusion_lon": 0.0, "lat": 38.88360316666667, "bike_id": "98c3c1f34fa2a052ae955451aa103050", "type": "electric_scooter", "is_reserved": 0, "lon": -76.94154733333333}, {"fusion_lat": 0.0, "name": "712c4ffd2dd139caff73f0ef8f0830b8", "is_disabled": 0, "rental_uris": {"android": "https://dc.lft.to/lastmile_qr_scan", "ios": "https://dc.lft.to/lastmile_qr_scan"}, "fusion_lon": 0.0, "lat": 38.92341533333333, "bike_id": "712c4ffd2dd139caff73f0ef8f0830b8", "type": "electric_scooter", "is_reserved": 0, "lon": -77.05226483333334}, {"fusion_lat": 0.0, "name": "ac5c725f909d555b257fed02868a8f25", "is_disabled": 0, "rental_uris": {"android": "https://dc.lft.to/lastmile_qr_scan", "ios": "https://dc.lft.to/lastmile_qr_scan"}, "fusion_lon": 0.0, "lat": 38.90250066666667, "bike_id": "ac5c725f909d555b257fed02868a8f25", "type": "electric_scooter", "is_reserved": 0, "lon": -77.03977283333333}, {"fusion_lat": 0.0, "name": "3a2157c5f0dc2fe4d498576545cd32a4", "is_disabled": 0, "rental_uris": {"android": "https://dc.lft.to/lastmile_qr_scan", "ios": "https://dc.lft.to/lastmile_qr_scan"}, "fusion_lon": 0.0, "lat": 38.924290166666665, "bike_id": "3a2157c5f0dc2fe4d498576545cd32a4", "type": "electric_scooter", "is_reserved": 0, "lon": -77.02983283333333}, {"fusion_lat": 0.0, "name": "6fe13f78d8f43dcd145767aabe3560ec", "is_disabled": 0, "rental_uris": {"android": "https://dc.lft.to/lastmile_qr_scan", "ios": "https://dc.lft.to/lastmile_qr_scan"}, "fusion_lon": 0.0, "lat": 38.8434805, "bike_id": "6fe13f78d8f43dcd145767aabe3560ec", "type": "electric_bike", "is_reserved": 0, "lon": -76.97818916666667}, {"fusion_lat": 0.0, "name": "43fd5763cfdc5d89a3a76e4ac8892c91", "is_disabled": 0, "rental_uris": {"android": "https://dc.lft.to/lastmile_qr_scan", "ios": "https://dc.lft.to/lastmile_qr_scan"}, "fusion_lon": 0.0, "lat": 38.945006, "bike_id": "43fd5763cfdc5d89a3a76e4ac8892c91", "type": "electric_scooter", "is_reserved": 0, "lon": -77.0314755}, {"fusion_lat": 0.0, "name": "aedfb2f32687e6ce247c3c58987c5014", "is_disabled": 0, "rental_uris": {"android": "https://dc.lft.to/lastmile_qr_scan", "ios": "https://dc.lft.to/lastmile_qr_scan"}, "fusion_lon": 0.0, "lat": 38.918397, "bike_id": "aedfb2f32687e6ce247c3c58987c5014", "type": "electric_scooter", "is_reserved": 0, "lon": -77.016125}, {"fusion_lat": 0.0, "name": "198c11ed3bd032f7e8a09be55ad54ae3", "is_disabled": 0, "rental_uris": {"android": "https://dc.lft.to/lastmile_qr_scan", "ios": "https://dc.lft.to/lastmile_qr_scan"}, "fusion_lon": 0.0, "lat": 38.92019583333333, "bike_id": "198c11ed3bd032f7e8a09be55ad54ae3", "type": "electric_scooter", "is_reserved": 0, "lon": -77.08187033333333}, {"fusion_lat": 0.0, "name": "e21653bb81b1115cb1779736a12f959e", "is_disabled": 0, "rental_uris": {"android": "https://dc.lft.to/lastmile_qr_scan", "ios": "https://dc.lft.to/lastmile_qr_scan"}, "fusion_lon": 0.0, "lat": 38.9145795, "bike_id": "e21653bb81b1115cb1779736a12f959e", "type": "electric_scooter", "is_reserved": 0, "lon": -77.02186883333333}, {"fusion_lat": 0.0, "name": "33408e4379f945ae56f99bbec9024d17", "is_disabled": 0, "rental_uris": {"android": "https://dc.lft.to/lastmile_qr_scan", "ios": "https://dc.lft.to/lastmile_qr_scan"}, "fusion_lon": 0.0, "lat": 38.93099633333333, "bike_id": "33408e4379f945ae56f99bbec9024d17", "type": "electric_scooter", "is_reserved": 0, "lon": -77.038103}, {"fusion_lat": 0.0, "name": "8209af254505a429370dd084d97b7db1", "is_disabled": 0, "rental_uris": {"android": "https://dc.lft.to/lastmile_qr_scan", "ios": "https://dc.lft.to/lastmile_qr_scan"}, "fusion_lon": 0.0, "lat": 38.933659666666664, "bike_id": "8209af254505a429370dd084d97b7db1", "type": "electric_scooter", "is_reserved": 0, "lon": -77.05729183333334}, {"fusion_lat": 0.0, "name": "888bbffb5b5fb57b54b1bdf3c7d58b92", "is_disabled": 0, "rental_uris": {"android": "https://dc.lft.to/lastmile_qr_scan", "ios": "https://dc.lft.to/lastmile_qr_scan"}, "fusion_lon": 0.0, "lat": 38.90832483333333, "bike_id": "888bbffb5b5fb57b54b1bdf3c7d58b92", "type": "electric_scooter", "is_reserved": 0, "lon": -77.03639983333333}, {"fusion_lat": 0.0, "name": "1116911f136249b482d1f0f3aa7e122a", "is_disabled": 0, "rental_uris": {"android": "https://dc.lft.to/lastmile_qr_scan", "ios": "https://dc.lft.to/lastmile_qr_scan"}, "fusion_lon": 0.0, "lat": 38.8975095, "bike_id": "1116911f136249b482d1f0f3aa7e122a", "type": "electric_scooter", "is_reserved": 0, "lon": -77.04893983333334}, {"fusion_lat": 0.0, "name": "f20f82f9172f0f4aafa4f39887921b76", "is_disabled": 0, "rental_uris": {"android": "https://dc.lft.to/lastmile_qr_scan", "ios": "https://dc.lft.to/lastmile_qr_scan"}, "fusion_lon": 0.0, "lat": 38.9170815, "bike_id": "f20f82f9172f0f4aafa4f39887921b76", "type": "electric_scooter", "is_reserved": 0, "lon": -77.0241665}, {"fusion_lat": 0.0, "name": "5374a5f3ead51b90dd0479effc635569", "is_disabled": 0, "rental_uris": {"android": "https://dc.lft.to/lastmile_qr_scan", "ios": "https://dc.lft.to/lastmile_qr_scan"}, "fusion_lon": 0.0, "lat": 38.964405166666666, "bike_id": "5374a5f3ead51b90dd0479effc635569", "type": "electric_bike", "is_reserved": 0, "lon": -77.02063466666667}, {"fusion_lat": 0.0, "name": "8be1e1130bf09a42635537d75e398a6f", "is_disabled": 0, "rental_uris": {"android": "https://dc.lft.to/lastmile_qr_scan", "ios": "https://dc.lft.to/lastmile_qr_scan"}, "fusion_lon": 0.0, "lat": 38.90508716666667, "bike_id": "8be1e1130bf09a42635537d75e398a6f", "type": "electric_scooter", "is_reserved": 0, "lon": -77.00591533333333}, {"fusion_lat": 0.0, "name": "73fed46ff79f856faed07170e85ee986", "is_disabled": 0, "rental_uris": {"android": "https://dc.lft.to/lastmile_qr_scan", "ios": "https://dc.lft.to/lastmile_qr_scan"}, "fusion_lon": 0.0, "lat": 38.84837133333333, "bike_id": "73fed46ff79f856faed07170e85ee986", "type": "electric_bike", "is_reserved": 0, "lon": -77.07911683333333}, {"fusion_lat": 0.0, "name": "35bb2eaebf371869df695fb7986daf00", "is_disabled": 0, "rental_uris": {"android": "https://dc.lft.to/lastmile_qr_scan", "ios": "https://dc.lft.to/lastmile_qr_scan"}, "fusion_lon": 0.0, "lat": 38.929747166666665, "bike_id": "35bb2eaebf371869df695fb7986daf00", "type": "electric_scooter", "is_reserved": 0, "lon": -77.04189583333333}, {"fusion_lat": 0.0, "name": "41a17ef7fd47cc19b6326bb0ddae24f3", "is_disabled": 0, "rental_uris": {"android": "https://dc.lft.to/lastmile_qr_scan", "ios": "https://dc.lft.to/lastmile_qr_scan"}, "fusion_lon": 0.0, "lat": 38.8901425, "bike_id": "41a17ef7fd47cc19b6326bb0ddae24f3", "type": "electric_scooter", "is_reserved": 0, "lon": -76.93734616666667}, {"fusion_lat": 0.0, "name": "c6ec8c39ff210ba053dc5b9ba87d9ee0", "is_disabled": 0, "rental_uris": {"android": "https://dc.lft.to/lastmile_qr_scan", "ios": "https://dc.lft.to/lastmile_qr_scan"}, "fusion_lon": 0.0, "lat": 38.9307045, "bike_id": "c6ec8c39ff210ba053dc5b9ba87d9ee0", "type": "electric_scooter", "is_reserved": 0, "lon": -77.02266266666666}, {"fusion_lat": 0.0, "name": "bb56c077756cdef4704b1843bfcf8595", "is_disabled": 0, "rental_uris": {"android": "https://dc.lft.to/lastmile_qr_scan", "ios": "https://dc.lft.to/lastmile_qr_scan"}, "fusion_lon": 0.0, "lat": 38.92172983333333, "bike_id": "bb56c077756cdef4704b1843bfcf8595", "type": "electric_scooter", "is_reserved": 0, "lon": -77.042422}, {"fusion_lat": 0.0, "name": "0e310d3664bc899228262df4187d750d", "is_disabled": 0, "rental_uris": {"android": "https://dc.lft.to/lastmile_qr_scan", "ios": "https://dc.lft.to/lastmile_qr_scan"}, "fusion_lon": 0.0, "lat": 38.9191345, "bike_id": "0e310d3664bc899228262df4187d750d", "type": "electric_scooter", "is_reserved": 0, "lon": -77.03187666666666}, {"fusion_lat": 0.0, "name": "06eb793b382e4dca7c2ffaffa4639bc5", "is_disabled": 0, "rental_uris": {"android": "https://dc.lft.to/lastmile_qr_scan", "ios": "https://dc.lft.to/lastmile_qr_scan"}, "fusion_lon": 0.0, "lat": 38.931844166666664, "bike_id": "06eb793b382e4dca7c2ffaffa4639bc5", "type": "electric_scooter", "is_reserved": 0, "lon": -77.01960766666667}, {"fusion_lat": 0.0, "name": "19c42ff396e064f5509d4f8b946327a2", "is_disabled": 0, "rental_uris": {"android": "https://dc.lft.to/lastmile_qr_scan", "ios": "https://dc.lft.to/lastmile_qr_scan"}, "fusion_lon": 0.0, "lat": 38.87936066666666, "bike_id": "19c42ff396e064f5509d4f8b946327a2", "type": "electric_scooter", "is_reserved": 0, "lon": -77.00417783333333}, {"fusion_lat": 0.0, "name": "b6047d49b8aea2557342df9e3aded201", "is_disabled": 0, "rental_uris": {"android": "https://dc.lft.to/lastmile_qr_scan", "ios": "https://dc.lft.to/lastmile_qr_scan"}, "fusion_lon": 0.0, "lat": 38.899216333333335, "bike_id": "b6047d49b8aea2557342df9e3aded201", "type": "electric_scooter", "is_reserved": 0, "lon": -77.00362183333333}, {"fusion_lat": 0.0, "name": "231d2ee56d644dce666569e2fee01beb", "is_disabled": 0, "rental_uris": {"android": "https://dc.lft.to/lastmile_qr_scan", "ios": "https://dc.lft.to/lastmile_qr_scan"}, "fusion_lon": 0.0, "lat": 38.913816833333335, "bike_id": "231d2ee56d644dce666569e2fee01beb", "type": "electric_scooter", "is_reserved": 0, "lon": -77.01802216666667}, {"fusion_lat": 0.0, "name": "362d9916bc200a2336bd2f480f38159c", "is_disabled": 0, "rental_uris": {"android": "https://dc.lft.to/lastmile_qr_scan", "ios": "https://dc.lft.to/lastmile_qr_scan"}, "fusion_lon": 0.0, "lat": 38.9212785, "bike_id": "362d9916bc200a2336bd2f480f38159c", "type": "electric_scooter", "is_reserved": 0, "lon": -77.043833}, {"fusion_lat": 0.0, "name": "caa5c256fe46f115435a746abbc091e2", "is_disabled": 0, "rental_uris": {"android": "https://dc.lft.to/lastmile_qr_scan", "ios": "https://dc.lft.to/lastmile_qr_scan"}, "fusion_lon": 0.0, "lat": 38.926782333333335, "bike_id": "caa5c256fe46f115435a746abbc091e2", "type": "electric_scooter", "is_reserved": 0, "lon": -77.0310075}, {"fusion_lat": 0.0, "name": "f2caa6a350f338093ce4f4adb281a9b1", "is_disabled": 0, "rental_uris": {"android": "https://dc.lft.to/lastmile_qr_scan", "ios": "https://dc.lft.to/lastmile_qr_scan"}, "fusion_lon": 0.0, "lat": 38.95246916666667, "bike_id": "f2caa6a350f338093ce4f4adb281a9b1", "type": "electric_scooter", "is_reserved": 0, "lon": -77.02380316666667}, {"fusion_lat": 0.0, "name": "a08c260f1e413713d02302731bd277e0", "is_disabled": 0, "rental_uris": {"android": "https://dc.lft.to/lastmile_qr_scan", "ios": "https://dc.lft.to/lastmile_qr_scan"}, "fusion_lon": 0.0, "lat": 38.916732833333334, "bike_id": "a08c260f1e413713d02302731bd277e0", "type": "electric_scooter", "is_reserved": 0, "lon": -77.02609783333334}, {"fusion_lat": 0.0, "name": "9d280f328305875efc2773d270900b79", "is_disabled": 0, "rental_uris": {"android": "https://dc.lft.to/lastmile_qr_scan", "ios": "https://dc.lft.to/lastmile_qr_scan"}, "fusion_lon": 0.0, "lat": 38.897164833333335, "bike_id": "9d280f328305875efc2773d270900b79", "type": "electric_scooter", "is_reserved": 0, "lon": -77.0079615}, {"fusion_lat": 0.0, "name": "a5402ce7be4200f97d359c75ca64cab4", "is_disabled": 0, "rental_uris": {"android": "https://dc.lft.to/lastmile_qr_scan", "ios": "https://dc.lft.to/lastmile_qr_scan"}, "fusion_lon": 0.0, "lat": 38.90275416666667, "bike_id": "a5402ce7be4200f97d359c75ca64cab4", "type": "electric_scooter", "is_reserved": 0, "lon": -77.03652933333333}, {"fusion_lat": 0.0, "name": "16fd6e030a9c165b5b70d24698b2dc4b", "is_disabled": 0, "rental_uris": {"android": "https://dc.lft.to/lastmile_qr_scan", "ios": "https://dc.lft.to/lastmile_qr_scan"}, "fusion_lon": 0.0, "lat": 38.93624783333333, "bike_id": "16fd6e030a9c165b5b70d24698b2dc4b", "type": "electric_scooter", "is_reserved": 0, "lon": -77.0365605}, {"fusion_lat": 0.0, "name": "a57b51b4cdeb22a145feaa72d268a1d7", "is_disabled": 0, "rental_uris": {"android": "https://dc.lft.to/lastmile_qr_scan", "ios": "https://dc.lft.to/lastmile_qr_scan"}, "fusion_lon": 0.0, "lat": 38.9155075, "bike_id": "a57b51b4cdeb22a145feaa72d268a1d7", "type": "electric_scooter", "is_reserved": 0, "lon": -77.02095966666667}, {"fusion_lat": 0.0, "name": "da4cb290c39ea5cac2c25c9e83e8b09f", "is_disabled": 0, "rental_uris": {"android": "https://dc.lft.to/lastmile_qr_scan", "ios": "https://dc.lft.to/lastmile_qr_scan"}, "fusion_lon": 0.0, "lat": 38.893083, "bike_id": "da4cb290c39ea5cac2c25c9e83e8b09f", "type": "electric_scooter", "is_reserved": 0, "lon": -77.0558745}, {"fusion_lat": 0.0, "name": "faf2e57733341dcf39e865e6e7f2eb90", "is_disabled": 0, "rental_uris": {"android": "https://dc.lft.to/lastmile_qr_scan", "ios": "https://dc.lft.to/lastmile_qr_scan"}, "fusion_lon": 0.0, "lat": 38.892198, "bike_id": "faf2e57733341dcf39e865e6e7f2eb90", "type": "electric_scooter", "is_reserved": 0, "lon": -77.0237085}, {"fusion_lat": 0.0, "name": "15a8d6fdd7f9ec65cd46bfa4f1176be6", "is_disabled": 0, "rental_uris": {"android": "https://dc.lft.to/lastmile_qr_scan", "ios": "https://dc.lft.to/lastmile_qr_scan"}, "fusion_lon": 0.0, "lat": 38.861368166666665, "bike_id": "15a8d6fdd7f9ec65cd46bfa4f1176be6", "type": "electric_bike", "is_reserved": 0, "lon": -76.971676}, {"fusion_lat": 0.0, "name": "adadca0eb341f0daa08de77fc6e75557", "is_disabled": 0, "rental_uris": {"android": "https://dc.lft.to/lastmile_qr_scan", "ios": "https://dc.lft.to/lastmile_qr_scan"}, "fusion_lon": 0.0, "lat": 38.9158335, "bike_id": "adadca0eb341f0daa08de77fc6e75557", "type": "electric_scooter", "is_reserved": 0, "lon": -77.06787833333334}, {"fusion_lat": 0.0, "name": "d2445cdfc39c599a3366a2ac196d29d6", "is_disabled": 0, "rental_uris": {"android": "https://dc.lft.to/lastmile_qr_scan", "ios": "https://dc.lft.to/lastmile_qr_scan"}, "fusion_lon": 0.0, "lat": 38.8784915, "bike_id": "d2445cdfc39c599a3366a2ac196d29d6", "type": "electric_scooter", "is_reserved": 0, "lon": -77.0055955}, {"fusion_lat": 0.0, "name": "bc238ebf918f2ff13437ad9eb4ea29b6", "is_disabled": 0, "rental_uris": {"android": "https://dc.lft.to/lastmile_qr_scan", "ios": "https://dc.lft.to/lastmile_qr_scan"}, "fusion_lon": 0.0, "lat": 38.91734816666666, "bike_id": "bc238ebf918f2ff13437ad9eb4ea29b6", "type": "electric_scooter", "is_reserved": 0, "lon": -77.03197766666666}, {"fusion_lat": 0.0, "name": "77bfef12598ba13e344550b0c018fa16", "is_disabled": 0, "rental_uris": {"android": "https://dc.lft.to/lastmile_qr_scan", "ios": "https://dc.lft.to/lastmile_qr_scan"}, "fusion_lon": 0.0, "lat": 38.900217, "bike_id": "77bfef12598ba13e344550b0c018fa16", "type": "electric_bike", "is_reserved": 0, "lon": -76.98606166666667}, {"fusion_lat": 0.0, "name": "64b0960d0729476b8599be49425a143c", "is_disabled": 0, "rental_uris": {"android": "https://dc.lft.to/lastmile_qr_scan", "ios": "https://dc.lft.to/lastmile_qr_scan"}, "fusion_lon": 0.0, "lat": 38.9024465, "bike_id": "64b0960d0729476b8599be49425a143c", "type": "electric_scooter", "is_reserved": 0, "lon": -77.01091566666666}, {"fusion_lat": 0.0, "name": "f588aa312dd60509f0f86b62cfecb9ed", "is_disabled": 0, "rental_uris": {"android": "https://dc.lft.to/lastmile_qr_scan", "ios": "https://dc.lft.to/lastmile_qr_scan"}, "fusion_lon": 0.0, "lat": 38.92467166666667, "bike_id": "f588aa312dd60509f0f86b62cfecb9ed", "type": "electric_scooter", "is_reserved": 0, "lon": -77.0353665}, {"fusion_lat": 0.0, "name": "c0c15325515083fa4dfd8ecf6d017326", "is_disabled": 0, "rental_uris": {"android": "https://dc.lft.to/lastmile_qr_scan", "ios": "https://dc.lft.to/lastmile_qr_scan"}, "fusion_lon": 0.0, "lat": 38.90104933333333, "bike_id": "c0c15325515083fa4dfd8ecf6d017326", "type": "electric_scooter", "is_reserved": 0, "lon": -77.025297}, {"fusion_lat": 0.0, "name": "891dfd87d0f1266e884386511f0ab9a3", "is_disabled": 0, "rental_uris": {"android": "https://dc.lft.to/lastmile_qr_scan", "ios": "https://dc.lft.to/lastmile_qr_scan"}, "fusion_lon": 0.0, "lat": 38.91859266666667, "bike_id": "891dfd87d0f1266e884386511f0ab9a3", "type": "electric_scooter", "is_reserved": 0, "lon": -77.0459565}, {"fusion_lat": 0.0, "name": "d96dce558cb8450c0b5aa0eb1b0c6d5b", "is_disabled": 0, "rental_uris": {"android": "https://dc.lft.to/lastmile_qr_scan", "ios": "https://dc.lft.to/lastmile_qr_scan"}, "fusion_lon": 0.0, "lat": 38.90970633333333, "bike_id": "d96dce558cb8450c0b5aa0eb1b0c6d5b", "type": "electric_scooter", "is_reserved": 0, "lon": -77.038654}, {"fusion_lat": 0.0, "name": "45315cd42b57157228ef5c5a61c75258", "is_disabled": 0, "rental_uris": {"android": "https://dc.lft.to/lastmile_qr_scan", "ios": "https://dc.lft.to/lastmile_qr_scan"}, "fusion_lon": 0.0, "lat": 38.905772166666665, "bike_id": "45315cd42b57157228ef5c5a61c75258", "type": "electric_scooter", "is_reserved": 0, "lon": -77.02209216666667}, {"fusion_lat": 0.0, "name": "5ef806d4b21db784a0a09f7818dfcfc6", "is_disabled": 0, "rental_uris": {"android": "https://dc.lft.to/lastmile_qr_scan", "ios": "https://dc.lft.to/lastmile_qr_scan"}, "fusion_lon": 0.0, "lat": 38.912289, "bike_id": "5ef806d4b21db784a0a09f7818dfcfc6", "type": "electric_scooter", "is_reserved": 0, "lon": -77.03208066666667}, {"fusion_lat": 0.0, "name": "715d83b4d83ef4db6ce8e23633093059", "is_disabled": 0, "rental_uris": {"android": "https://dc.lft.to/lastmile_qr_scan", "ios": "https://dc.lft.to/lastmile_qr_scan"}, "fusion_lon": 0.0, "lat": 38.9110715, "bike_id": "715d83b4d83ef4db6ce8e23633093059", "type": "electric_scooter", "is_reserved": 0, "lon": -77.02198116666666}, {"fusion_lat": 0.0, "name": "39e7e1fdb50d16ad99c8aa0421da3992", "is_disabled": 0, "rental_uris": {"android": "https://dc.lft.to/lastmile_qr_scan", "ios": "https://dc.lft.to/lastmile_qr_scan"}, "fusion_lon": 0.0, "lat": 38.8784795, "bike_id": "39e7e1fdb50d16ad99c8aa0421da3992", "type": "electric_scooter", "is_reserved": 0, "lon": -77.00108016666667}, {"fusion_lat": 0.0, "name": "ba14842053d8343607e30b16d37900eb", "is_disabled": 0, "rental_uris": {"android": "https://dc.lft.to/lastmile_qr_scan", "ios": "https://dc.lft.to/lastmile_qr_scan"}, "fusion_lon": 0.0, "lat": 38.92876316666667, "bike_id": "ba14842053d8343607e30b16d37900eb", "type": "electric_scooter", "is_reserved": 0, "lon": -77.013568}, {"fusion_lat": 0.0, "name": "a9cc4134d8a81e5aafd8a482bce7eb8e", "is_disabled": 0, "rental_uris": {"android": "https://dc.lft.to/lastmile_qr_scan", "ios": "https://dc.lft.to/lastmile_qr_scan"}, "fusion_lon": 0.0, "lat": 38.91160416666666, "bike_id": "a9cc4134d8a81e5aafd8a482bce7eb8e", "type": "electric_scooter", "is_reserved": 0, "lon": -77.0109625}, {"fusion_lat": 0.0, "name": "6504f02a576fbad3228c3ec4550ba924", "is_disabled": 0, "rental_uris": {"android": "https://dc.lft.to/lastmile_qr_scan", "ios": "https://dc.lft.to/lastmile_qr_scan"}, "fusion_lon": 0.0, "lat": 38.92065083333333, "bike_id": "6504f02a576fbad3228c3ec4550ba924", "type": "electric_scooter", "is_reserved": 0, "lon": -77.02526266666666}, {"fusion_lat": 0.0, "name": "d1843a9a33b074abb700164d57150b08", "is_disabled": 0, "rental_uris": {"android": "https://dc.lft.to/lastmile_qr_scan", "ios": "https://dc.lft.to/lastmile_qr_scan"}, "fusion_lon": 0.0, "lat": 38.87722083333333, "bike_id": "d1843a9a33b074abb700164d57150b08", "type": "electric_scooter", "is_reserved": 0, "lon": -77.0176105}, {"fusion_lat": 0.0, "name": "85d8f4010612749a766dd40d9d6cb2c2", "is_disabled": 0, "rental_uris": {"android": "https://dc.lft.to/lastmile_qr_scan", "ios": "https://dc.lft.to/lastmile_qr_scan"}, "fusion_lon": 0.0, "lat": 38.907296, "bike_id": "85d8f4010612749a766dd40d9d6cb2c2", "type": "electric_scooter", "is_reserved": 0, "lon": -77.00501733333333}, {"fusion_lat": 0.0, "name": "5cb48ccaf15c5dbac55090b162b10a4b", "is_disabled": 0, "rental_uris": {"android": "https://dc.lft.to/lastmile_qr_scan", "ios": "https://dc.lft.to/lastmile_qr_scan"}, "fusion_lon": 0.0, "lat": 38.907216166666664, "bike_id": "5cb48ccaf15c5dbac55090b162b10a4b", "type": "electric_scooter", "is_reserved": 0, "lon": -77.04961116666666}, {"fusion_lat": 0.0, "name": "493445ada674adbfaa2c4f1b07f02ad0", "is_disabled": 0, "rental_uris": {"android": "https://dc.lft.to/lastmile_qr_scan", "ios": "https://dc.lft.to/lastmile_qr_scan"}, "fusion_lon": 0.0, "lat": 38.906821666666666, "bike_id": "493445ada674adbfaa2c4f1b07f02ad0", "type": "electric_scooter", "is_reserved": 0, "lon": -77.0269205}, {"fusion_lat": 0.0, "name": "f842e8a41ccd33080955df82371fcf5a", "is_disabled": 0, "rental_uris": {"android": "https://dc.lft.to/lastmile_qr_scan", "ios": "https://dc.lft.to/lastmile_qr_scan"}, "fusion_lon": 0.0, "lat": 38.91419483333333, "bike_id": "f842e8a41ccd33080955df82371fcf5a", "type": "electric_scooter", "is_reserved": 0, "lon": -77.03815033333333}, {"fusion_lat": 0.0, "name": "413b9c442dc6fb9706a43af42ef51272", "is_disabled": 0, "rental_uris": {"android": "https://dc.lft.to/lastmile_qr_scan", "ios": "https://dc.lft.to/lastmile_qr_scan"}, "fusion_lon": 0.0, "lat": 38.90374216666667, "bike_id": "413b9c442dc6fb9706a43af42ef51272", "type": "electric_scooter", "is_reserved": 0, "lon": -77.007039}, {"fusion_lat": 0.0, "name": "3b4c8407801e2585e7d13e9a6a2fa76f", "is_disabled": 0, "rental_uris": {"android": "https://dc.lft.to/lastmile_qr_scan", "ios": "https://dc.lft.to/lastmile_qr_scan"}, "fusion_lon": 0.0, "lat": 38.87107483333333, "bike_id": "3b4c8407801e2585e7d13e9a6a2fa76f", "type": "electric_scooter", "is_reserved": 0, "lon": -76.965792}, {"fusion_lat": 0.0, "name": "724f78107c7f493841a93f803d9585af", "is_disabled": 0, "rental_uris": {"android": "https://dc.lft.to/lastmile_qr_scan", "ios": "https://dc.lft.to/lastmile_qr_scan"}, "fusion_lon": 0.0, "lat": 38.9269995, "bike_id": "724f78107c7f493841a93f803d9585af", "type": "electric_scooter", "is_reserved": 0, "lon": -77.02059016666666}, {"fusion_lat": 0.0, "name": "d50075af3d7bb0016033cbf8ac1e8086", "is_disabled": 0, "rental_uris": {"android": "https://dc.lft.to/lastmile_qr_scan", "ios": "https://dc.lft.to/lastmile_qr_scan"}, "fusion_lon": 0.0, "lat": 38.87790716666667, "bike_id": "d50075af3d7bb0016033cbf8ac1e8086", "type": "electric_bike", "is_reserved": 0, "lon": -77.0082405}, {"fusion_lat": 0.0, "name": "36567c37e0a3037182d11de21c75764e", "is_disabled": 0, "rental_uris": {"android": "https://dc.lft.to/lastmile_qr_scan", "ios": "https://dc.lft.to/lastmile_qr_scan"}, "fusion_lon": 0.0, "lat": 38.90720916666667, "bike_id": "36567c37e0a3037182d11de21c75764e", "type": "electric_scooter", "is_reserved": 0, "lon": -77.04984866666666}, {"fusion_lat": 0.0, "name": "ad188fab3b4b4a5a365e9d44bcaecca2", "is_disabled": 0, "rental_uris": {"android": "https://dc.lft.to/lastmile_qr_scan", "ios": "https://dc.lft.to/lastmile_qr_scan"}, "fusion_lon": 0.0, "lat": 38.918147, "bike_id": "ad188fab3b4b4a5a365e9d44bcaecca2", "type": "electric_scooter", "is_reserved": 0, "lon": -77.0367565}, {"fusion_lat": 0.0, "name": "fd6f694bb1b0099ca68fc3c762e804a7", "is_disabled": 0, "rental_uris": {"android": "https://dc.lft.to/lastmile_qr_scan", "ios": "https://dc.lft.to/lastmile_qr_scan"}, "fusion_lon": 0.0, "lat": 38.89222816666667, "bike_id": "fd6f694bb1b0099ca68fc3c762e804a7", "type": "electric_scooter", "is_reserved": 0, "lon": -77.0465465}, {"fusion_lat": 0.0, "name": "b92cdd7a1157c42eef991d935a4669bb", "is_disabled": 0, "rental_uris": {"android": "https://dc.lft.to/lastmile_qr_scan", "ios": "https://dc.lft.to/lastmile_qr_scan"}, "fusion_lon": 0.0, "lat": 38.92566033333333, "bike_id": "b92cdd7a1157c42eef991d935a4669bb", "type": "electric_scooter", "is_reserved": 0, "lon": -77.04369766666667}, {"fusion_lat": 0.0, "name": "a4b1ac04495fd5aa783dfb495e7f752b", "is_disabled": 0, "rental_uris": {"android": "https://dc.lft.to/lastmile_qr_scan", "ios": "https://dc.lft.to/lastmile_qr_scan"}, "fusion_lon": 0.0, "lat": 38.91329366666667, "bike_id": "a4b1ac04495fd5aa783dfb495e7f752b", "type": "electric_scooter", "is_reserved": 0, "lon": -77.03169666666666}, {"fusion_lat": 0.0, "name": "67e3d1442c911060a46a80d52937e00b", "is_disabled": 0, "rental_uris": {"android": "https://dc.lft.to/lastmile_qr_scan", "ios": "https://dc.lft.to/lastmile_qr_scan"}, "fusion_lon": 0.0, "lat": 39.0361025, "bike_id": "67e3d1442c911060a46a80d52937e00b", "type": "electric_bike", "is_reserved": 0, "lon": -77.055358}, {"fusion_lat": 0.0, "name": "9f094c7025a4fcd8e571b43b31195387", "is_disabled": 0, "rental_uris": {"android": "https://dc.lft.to/lastmile_qr_scan", "ios": "https://dc.lft.to/lastmile_qr_scan"}, "fusion_lon": 0.0, "lat": 38.916361, "bike_id": "9f094c7025a4fcd8e571b43b31195387", "type": "electric_scooter", "is_reserved": 0, "lon": -77.050562}, {"fusion_lat": 0.0, "name": "fc6381be9571f723e3db2fb7bf64bdff", "is_disabled": 0, "rental_uris": {"android": "https://dc.lft.to/lastmile_qr_scan", "ios": "https://dc.lft.to/lastmile_qr_scan"}, "fusion_lon": 0.0, "lat": 38.9170805, "bike_id": "fc6381be9571f723e3db2fb7bf64bdff", "type": "electric_scooter", "is_reserved": 0, "lon": -77.0241345}, {"fusion_lat": 0.0, "name": "a2034a807f85e0525e8f5213e30fb3e9", "is_disabled": 0, "rental_uris": {"android": "https://dc.lft.to/lastmile_qr_scan", "ios": "https://dc.lft.to/lastmile_qr_scan"}, "fusion_lon": 0.0, "lat": 38.892178333333334, "bike_id": "a2034a807f85e0525e8f5213e30fb3e9", "type": "electric_scooter", "is_reserved": 0, "lon": -77.0277645}, {"fusion_lat": 0.0, "name": "31910951f93b39c868e94ac36510e523", "is_disabled": 0, "rental_uris": {"android": "https://dc.lft.to/lastmile_qr_scan", "ios": "https://dc.lft.to/lastmile_qr_scan"}, "fusion_lon": 0.0, "lat": 38.9075855, "bike_id": "31910951f93b39c868e94ac36510e523", "type": "electric_scooter", "is_reserved": 0, "lon": -77.03584516666666}, {"fusion_lat": 0.0, "name": "ace67982ade48ef80962ee5886349060", "is_disabled": 0, "rental_uris": {"android": "https://dc.lft.to/lastmile_qr_scan", "ios": "https://dc.lft.to/lastmile_qr_scan"}, "fusion_lon": 0.0, "lat": 38.904810166666664, "bike_id": "ace67982ade48ef80962ee5886349060", "type": "electric_scooter", "is_reserved": 0, "lon": -77.04847216666667}, {"fusion_lat": 0.0, "name": "eac0b4c492c505126b3cf508c277541e", "is_disabled": 0, "rental_uris": {"android": "https://dc.lft.to/lastmile_qr_scan", "ios": "https://dc.lft.to/lastmile_qr_scan"}, "fusion_lon": 0.0, "lat": 38.905114166666664, "bike_id": "eac0b4c492c505126b3cf508c277541e", "type": "electric_scooter", "is_reserved": 0, "lon": -77.06017483333333}, {"fusion_lat": 0.0, "name": "e5f88a35c41ec850a308d9d1867bdf12", "is_disabled": 0, "rental_uris": {"android": "https://dc.lft.to/lastmile_qr_scan", "ios": "https://dc.lft.to/lastmile_qr_scan"}, "fusion_lon": 0.0, "lat": 38.915638333333334, "bike_id": "e5f88a35c41ec850a308d9d1867bdf12", "type": "electric_scooter", "is_reserved": 0, "lon": -77.0314595}, {"fusion_lat": 0.0, "name": "3589a0da6c8ea34c1a6ddd7b655a0624", "is_disabled": 0, "rental_uris": {"android": "https://dc.lft.to/lastmile_qr_scan", "ios": "https://dc.lft.to/lastmile_qr_scan"}, "fusion_lon": 0.0, "lat": 38.9112875, "bike_id": "3589a0da6c8ea34c1a6ddd7b655a0624", "type": "electric_scooter", "is_reserved": 0, "lon": -77.0324665}, {"fusion_lat": 0.0, "name": "b360346b7301d55ecce6491067c10801", "is_disabled": 0, "rental_uris": {"android": "https://dc.lft.to/lastmile_qr_scan", "ios": "https://dc.lft.to/lastmile_qr_scan"}, "fusion_lon": 0.0, "lat": 38.886247, "bike_id": "b360346b7301d55ecce6491067c10801", "type": "electric_scooter", "is_reserved": 0, "lon": -77.02831233333333}, {"fusion_lat": 0.0, "name": "ad5ca94993d7ce91d26f15f746f0a618", "is_disabled": 0, "rental_uris": {"android": "https://dc.lft.to/lastmile_qr_scan", "ios": "https://dc.lft.to/lastmile_qr_scan"}, "fusion_lon": 0.0, "lat": 38.907290333333336, "bike_id": "ad5ca94993d7ce91d26f15f746f0a618", "type": "electric_scooter", "is_reserved": 0, "lon": -77.02812133333333}, {"fusion_lat": 0.0, "name": "ad2f8650fb3612ff7439fa48a72830fb", "is_disabled": 0, "rental_uris": {"android": "https://dc.lft.to/lastmile_qr_scan", "ios": "https://dc.lft.to/lastmile_qr_scan"}, "fusion_lon": 0.0, "lat": 38.88989016666667, "bike_id": "ad2f8650fb3612ff7439fa48a72830fb", "type": "electric_scooter", "is_reserved": 0, "lon": -77.00339716666667}, {"fusion_lat": 0.0, "name": "31599a5c13a77023c76072f4bea21a1c", "is_disabled": 0, "rental_uris": {"android": "https://dc.lft.to/lastmile_qr_scan", "ios": "https://dc.lft.to/lastmile_qr_scan"}, "fusion_lon": 0.0, "lat": 38.9224695, "bike_id": "31599a5c13a77023c76072f4bea21a1c", "type": "electric_scooter", "is_reserved": 0, "lon": -77.03085616666667}, {"fusion_lat": 0.0, "name": "7d180d4fd5da6e8d62a909a9ad6578ca", "is_disabled": 0, "rental_uris": {"android": "https://dc.lft.to/lastmile_qr_scan", "ios": "https://dc.lft.to/lastmile_qr_scan"}, "fusion_lon": 0.0, "lat": 38.90828483333333, "bike_id": "7d180d4fd5da6e8d62a909a9ad6578ca", "type": "electric_bike", "is_reserved": 0, "lon": -77.04348866666666}, {"fusion_lat": 0.0, "name": "843a0a289a44f128b3eab6cb9ce7141e", "is_disabled": 0, "rental_uris": {"android": "https://dc.lft.to/lastmile_qr_scan", "ios": "https://dc.lft.to/lastmile_qr_scan"}, "fusion_lon": 0.0, "lat": 38.88737033333334, "bike_id": "843a0a289a44f128b3eab6cb9ce7141e", "type": "electric_scooter", "is_reserved": 0, "lon": -77.0152905}, {"fusion_lat": 0.0, "name": "04d056c44b0b7d804f1e7a674dc3e59e", "is_disabled": 0, "rental_uris": {"android": "https://dc.lft.to/lastmile_qr_scan", "ios": "https://dc.lft.to/lastmile_qr_scan"}, "fusion_lon": 0.0, "lat": 38.93581116666667, "bike_id": "04d056c44b0b7d804f1e7a674dc3e59e", "type": "electric_scooter", "is_reserved": 0, "lon": -77.03340883333334}, {"fusion_lat": 0.0, "name": "71f0549b6896cd271b30f9a59c416a3b", "is_disabled": 0, "rental_uris": {"android": "https://dc.lft.to/lastmile_qr_scan", "ios": "https://dc.lft.to/lastmile_qr_scan"}, "fusion_lon": 0.0, "lat": 38.922870333333336, "bike_id": "71f0549b6896cd271b30f9a59c416a3b", "type": "electric_scooter", "is_reserved": 0, "lon": -77.023324}, {"fusion_lat": 0.0, "name": "db16d9bac75491bc7ca8139783632d21", "is_disabled": 0, "rental_uris": {"android": "https://dc.lft.to/lastmile_qr_scan", "ios": "https://dc.lft.to/lastmile_qr_scan"}, "fusion_lon": 0.0, "lat": 38.90627833333333, "bike_id": "db16d9bac75491bc7ca8139783632d21", "type": "electric_scooter", "is_reserved": 0, "lon": -77.02532616666667}, {"fusion_lat": 0.0, "name": "c94d7075b2a2ab425d051826b4ba0c28", "is_disabled": 0, "rental_uris": {"android": "https://dc.lft.to/lastmile_qr_scan", "ios": "https://dc.lft.to/lastmile_qr_scan"}, "fusion_lon": 0.0, "lat": 38.88321716666667, "bike_id": "c94d7075b2a2ab425d051826b4ba0c28", "type": "electric_scooter", "is_reserved": 0, "lon": -77.01365116666666}, {"fusion_lat": 0.0, "name": "1e3040b19797d89b562863427e45d15f", "is_disabled": 0, "rental_uris": {"android": "https://dc.lft.to/lastmile_qr_scan", "ios": "https://dc.lft.to/lastmile_qr_scan"}, "fusion_lon": 0.0, "lat": 38.892214333333335, "bike_id": "1e3040b19797d89b562863427e45d15f", "type": "electric_scooter", "is_reserved": 0, "lon": -77.0321955}, {"fusion_lat": 0.0, "name": "eaa727b4ec190ace06f1129f44b5fcf4", "is_disabled": 0, "rental_uris": {"android": "https://dc.lft.to/lastmile_qr_scan", "ios": "https://dc.lft.to/lastmile_qr_scan"}, "fusion_lon": 0.0, "lat": 38.921508, "bike_id": "eaa727b4ec190ace06f1129f44b5fcf4", "type": "electric_scooter", "is_reserved": 0, "lon": -77.04363666666667}, {"fusion_lat": 0.0, "name": "0b9050ebc09ef3c5dbf40798b0098c33", "is_disabled": 0, "rental_uris": {"android": "https://dc.lft.to/lastmile_qr_scan", "ios": "https://dc.lft.to/lastmile_qr_scan"}, "fusion_lon": 0.0, "lat": 38.9335055, "bike_id": "0b9050ebc09ef3c5dbf40798b0098c33", "type": "electric_scooter", "is_reserved": 0, "lon": -77.03858416666667}, {"fusion_lat": 0.0, "name": "aa7e2d45370bbb57d20131a6eff63ec8", "is_disabled": 0, "rental_uris": {"android": "https://dc.lft.to/lastmile_qr_scan", "ios": "https://dc.lft.to/lastmile_qr_scan"}, "fusion_lon": 0.0, "lat": 38.942549166666666, "bike_id": "aa7e2d45370bbb57d20131a6eff63ec8", "type": "electric_bike", "is_reserved": 0, "lon": -77.03265583333334}, {"fusion_lat": 0.0, "name": "da6f21fe0a71489e7e83a7b06552e5bc", "is_disabled": 0, "rental_uris": {"android": "https://dc.lft.to/lastmile_qr_scan", "ios": "https://dc.lft.to/lastmile_qr_scan"}, "fusion_lon": 0.0, "lat": 38.94134283333333, "bike_id": "da6f21fe0a71489e7e83a7b06552e5bc", "type": "electric_scooter", "is_reserved": 0, "lon": -77.00609133333333}, {"fusion_lat": 0.0, "name": "74e9f750af7664f7354b28da1c6905f5", "is_disabled": 0, "rental_uris": {"android": "https://dc.lft.to/lastmile_qr_scan", "ios": "https://dc.lft.to/lastmile_qr_scan"}, "fusion_lon": 0.0, "lat": 38.903501166666665, "bike_id": "74e9f750af7664f7354b28da1c6905f5", "type": "electric_scooter", "is_reserved": 0, "lon": -76.97250666666666}, {"fusion_lat": 0.0, "name": "892e67a2635fbf64ac37aad8269f4b2a", "is_disabled": 0, "rental_uris": {"android": "https://dc.lft.to/lastmile_qr_scan", "ios": "https://dc.lft.to/lastmile_qr_scan"}, "fusion_lon": 0.0, "lat": 38.903405166666666, "bike_id": "892e67a2635fbf64ac37aad8269f4b2a", "type": "electric_scooter", "is_reserved": 0, "lon": -77.03867316666667}, {"fusion_lat": 0.0, "name": "f671fa5a40014493ad57b922f1f15942", "is_disabled": 0, "rental_uris": {"android": "https://dc.lft.to/lastmile_qr_scan", "ios": "https://dc.lft.to/lastmile_qr_scan"}, "fusion_lon": 0.0, "lat": 38.9304375, "bike_id": "f671fa5a40014493ad57b922f1f15942", "type": "electric_scooter", "is_reserved": 0, "lon": -77.0323075}, {"fusion_lat": 0.0, "name": "4a00d46a3d18ed72b1accf4b28df7d96", "is_disabled": 0, "rental_uris": {"android": "https://dc.lft.to/lastmile_qr_scan", "ios": "https://dc.lft.to/lastmile_qr_scan"}, "fusion_lon": 0.0, "lat": 38.92603366666667, "bike_id": "4a00d46a3d18ed72b1accf4b28df7d96", "type": "electric_scooter", "is_reserved": 0, "lon": -77.02387233333333}, {"fusion_lat": 0.0, "name": "ba2efb6fa304dfdf319e78a3128398f0", "is_disabled": 0, "rental_uris": {"android": "https://dc.lft.to/lastmile_qr_scan", "ios": "https://dc.lft.to/lastmile_qr_scan"}, "fusion_lon": 0.0, "lat": 38.92626966666667, "bike_id": "ba2efb6fa304dfdf319e78a3128398f0", "type": "electric_scooter", "is_reserved": 0, "lon": -77.04192916666666}, {"fusion_lat": 0.0, "name": "4a9cc926dec833dafbc05ad6e7c8dbc5", "is_disabled": 0, "rental_uris": {"android": "https://dc.lft.to/lastmile_qr_scan", "ios": "https://dc.lft.to/lastmile_qr_scan"}, "fusion_lon": 0.0, "lat": 38.8393125, "bike_id": "4a9cc926dec833dafbc05ad6e7c8dbc5", "type": "electric_bike", "is_reserved": 0, "lon": -77.07893966666667}, {"fusion_lat": 0.0, "name": "4da9cf806b5f23713d9794a088225b48", "is_disabled": 0, "rental_uris": {"android": "https://dc.lft.to/lastmile_qr_scan", "ios": "https://dc.lft.to/lastmile_qr_scan"}, "fusion_lon": 0.0, "lat": 38.907439, "bike_id": "4da9cf806b5f23713d9794a088225b48", "type": "electric_scooter", "is_reserved": 0, "lon": -77.00391033333334}, {"fusion_lat": 0.0, "name": "d4e27664f3a246c92487421b97a2530e", "is_disabled": 0, "rental_uris": {"android": "https://dc.lft.to/lastmile_qr_scan", "ios": "https://dc.lft.to/lastmile_qr_scan"}, "fusion_lon": 0.0, "lat": 38.91414283333334, "bike_id": "d4e27664f3a246c92487421b97a2530e", "type": "electric_scooter", "is_reserved": 0, "lon": -77.04073416666667}, {"fusion_lat": 0.0, "name": "2ab6fc1c3be83af1f58818534ea5e2f6", "is_disabled": 0, "rental_uris": {"android": "https://dc.lft.to/lastmile_qr_scan", "ios": "https://dc.lft.to/lastmile_qr_scan"}, "fusion_lon": 0.0, "lat": 38.917525833333336, "bike_id": "2ab6fc1c3be83af1f58818534ea5e2f6", "type": "electric_scooter", "is_reserved": 0, "lon": -77.036465}, {"fusion_lat": 0.0, "name": "f97c4920ee58cb656c095a2587eb8bc1", "is_disabled": 0, "rental_uris": {"android": "https://dc.lft.to/lastmile_qr_scan", "ios": "https://dc.lft.to/lastmile_qr_scan"}, "fusion_lon": 0.0, "lat": 38.90645283333333, "bike_id": "f97c4920ee58cb656c095a2587eb8bc1", "type": "electric_scooter", "is_reserved": 0, "lon": -77.041531}, {"fusion_lat": 0.0, "name": "01da00761995bd1f2a038d8d4568a8d5", "is_disabled": 0, "rental_uris": {"android": "https://dc.lft.to/lastmile_qr_scan", "ios": "https://dc.lft.to/lastmile_qr_scan"}, "fusion_lon": 0.0, "lat": 38.91107983333333, "bike_id": "01da00761995bd1f2a038d8d4568a8d5", "type": "electric_scooter", "is_reserved": 0, "lon": -77.01392033333333}, {"fusion_lat": 0.0, "name": "557e895139bfc7b8755d045141ca0e1c", "is_disabled": 0, "rental_uris": {"android": "https://dc.lft.to/lastmile_qr_scan", "ios": "https://dc.lft.to/lastmile_qr_scan"}, "fusion_lon": 0.0, "lat": 38.90106983333333, "bike_id": "557e895139bfc7b8755d045141ca0e1c", "type": "electric_scooter", "is_reserved": 0, "lon": -77.02219266666667}, {"fusion_lat": 0.0, "name": "b5c5bc7e0f94dc1a41c26eb7110f509f", "is_disabled": 0, "rental_uris": {"android": "https://dc.lft.to/lastmile_qr_scan", "ios": "https://dc.lft.to/lastmile_qr_scan"}, "fusion_lon": 0.0, "lat": 38.907333333333334, "bike_id": "b5c5bc7e0f94dc1a41c26eb7110f509f", "type": "electric_scooter", "is_reserved": 0, "lon": -77.02803016666667}, {"fusion_lat": 0.0, "name": "77f6e1734c1738a32616b24e6546ab04", "is_disabled": 0, "rental_uris": {"android": "https://dc.lft.to/lastmile_qr_scan", "ios": "https://dc.lft.to/lastmile_qr_scan"}, "fusion_lon": 0.0, "lat": 38.941984166666664, "bike_id": "77f6e1734c1738a32616b24e6546ab04", "type": "electric_scooter", "is_reserved": 0, "lon": -77.02597816666666}, {"fusion_lat": 0.0, "name": "11f077767b333250610494ab81040868", "is_disabled": 0, "rental_uris": {"android": "https://dc.lft.to/lastmile_qr_scan", "ios": "https://dc.lft.to/lastmile_qr_scan"}, "fusion_lon": 0.0, "lat": 38.91994066666667, "bike_id": "11f077767b333250610494ab81040868", "type": "electric_scooter", "is_reserved": 0, "lon": -77.032836}, {"fusion_lat": 0.0, "name": "92c55b5aad3baf217d259adeaaf505b5", "is_disabled": 0, "rental_uris": {"android": "https://dc.lft.to/lastmile_qr_scan", "ios": "https://dc.lft.to/lastmile_qr_scan"}, "fusion_lon": 0.0, "lat": 38.845059666666664, "bike_id": "92c55b5aad3baf217d259adeaaf505b5", "type": "electric_bike", "is_reserved": 0, "lon": -76.9934945}, {"fusion_lat": 0.0, "name": "9e37a6132e859a98c3623b71a3b92422", "is_disabled": 0, "rental_uris": {"android": "https://dc.lft.to/lastmile_qr_scan", "ios": "https://dc.lft.to/lastmile_qr_scan"}, "fusion_lon": 0.0, "lat": 38.871393, "bike_id": "9e37a6132e859a98c3623b71a3b92422", "type": "electric_scooter", "is_reserved": 0, "lon": -77.00763766666667}, {"fusion_lat": 0.0, "name": "1a94f5641d49630e5d71703f41db7ff4", "is_disabled": 0, "rental_uris": {"android": "https://dc.lft.to/lastmile_qr_scan", "ios": "https://dc.lft.to/lastmile_qr_scan"}, "fusion_lon": 0.0, "lat": 38.91618883333334, "bike_id": "1a94f5641d49630e5d71703f41db7ff4", "type": "electric_scooter", "is_reserved": 0, "lon": -77.02159583333334}, {"fusion_lat": 0.0, "name": "ad0d8a2e196d481987356219e2ab8371", "is_disabled": 0, "rental_uris": {"android": "https://dc.lft.to/lastmile_qr_scan", "ios": "https://dc.lft.to/lastmile_qr_scan"}, "fusion_lon": 0.0, "lat": 38.94913066666667, "bike_id": "ad0d8a2e196d481987356219e2ab8371", "type": "electric_bike", "is_reserved": 0, "lon": -77.007952}, {"fusion_lat": 0.0, "name": "b7a1fcfe56b1d88a8ae741e2257888e7", "is_disabled": 0, "rental_uris": {"android": "https://dc.lft.to/lastmile_qr_scan", "ios": "https://dc.lft.to/lastmile_qr_scan"}, "fusion_lon": 0.0, "lat": 38.907162666666665, "bike_id": "b7a1fcfe56b1d88a8ae741e2257888e7", "type": "electric_scooter", "is_reserved": 0, "lon": -76.99832716666667}, {"fusion_lat": 0.0, "name": "b27166901dc0c1bf59b3cf9005d555c3", "is_disabled": 0, "rental_uris": {"android": "https://dc.lft.to/lastmile_qr_scan", "ios": "https://dc.lft.to/lastmile_qr_scan"}, "fusion_lon": 0.0, "lat": 38.91272283333333, "bike_id": "b27166901dc0c1bf59b3cf9005d555c3", "type": "electric_scooter", "is_reserved": 0, "lon": -77.02243166666666}, {"fusion_lat": 0.0, "name": "a9a1744bfacef08beaea1c5b17ed25b2", "is_disabled": 0, "rental_uris": {"android": "https://dc.lft.to/lastmile_qr_scan", "ios": "https://dc.lft.to/lastmile_qr_scan"}, "fusion_lon": 0.0, "lat": 38.91743666666667, "bike_id": "a9a1744bfacef08beaea1c5b17ed25b2", "type": "electric_scooter", "is_reserved": 0, "lon": -77.0457295}, {"fusion_lat": 0.0, "name": "4b71e61c3e85578ec98db0839b491d12", "is_disabled": 0, "rental_uris": {"android": "https://dc.lft.to/lastmile_qr_scan", "ios": "https://dc.lft.to/lastmile_qr_scan"}, "fusion_lon": 0.0, "lat": 38.92230333333333, "bike_id": "4b71e61c3e85578ec98db0839b491d12", "type": "electric_scooter", "is_reserved": 0, "lon": -77.03900916666667}, {"fusion_lat": 0.0, "name": "63de02728146842f1f8f59440aaf82ee", "is_disabled": 0, "rental_uris": {"android": "https://dc.lft.to/lastmile_qr_scan", "ios": "https://dc.lft.to/lastmile_qr_scan"}, "fusion_lon": 0.0, "lat": 38.941217333333334, "bike_id": "63de02728146842f1f8f59440aaf82ee", "type": "electric_bike", "is_reserved": 0, "lon": -76.99032583333333}, {"fusion_lat": 0.0, "name": "fc55606506b0ec8a6b6cb430f10df682", "is_disabled": 0, "rental_uris": {"android": "https://dc.lft.to/lastmile_qr_scan", "ios": "https://dc.lft.to/lastmile_qr_scan"}, "fusion_lon": 0.0, "lat": 38.90392766666667, "bike_id": "fc55606506b0ec8a6b6cb430f10df682", "type": "electric_scooter", "is_reserved": 0, "lon": -77.03828716666666}, {"fusion_lat": 0.0, "name": "80717ff248f3fa3d36ecd8d08cb161e5", "is_disabled": 0, "rental_uris": {"android": "https://dc.lft.to/lastmile_qr_scan", "ios": "https://dc.lft.to/lastmile_qr_scan"}, "fusion_lon": 0.0, "lat": 38.929188833333335, "bike_id": "80717ff248f3fa3d36ecd8d08cb161e5", "type": "electric_scooter", "is_reserved": 0, "lon": -77.03285316666667}, {"fusion_lat": 0.0, "name": "e29e35db24c63b44e92800bca102fb9e", "is_disabled": 0, "rental_uris": {"android": "https://dc.lft.to/lastmile_qr_scan", "ios": "https://dc.lft.to/lastmile_qr_scan"}, "fusion_lon": 0.0, "lat": 38.93868533333333, "bike_id": "e29e35db24c63b44e92800bca102fb9e", "type": "electric_scooter", "is_reserved": 0, "lon": -77.02944083333334}, {"fusion_lat": 0.0, "name": "c27a7e352e34f212f1ade49c78fecbd1", "is_disabled": 0, "rental_uris": {"android": "https://dc.lft.to/lastmile_qr_scan", "ios": "https://dc.lft.to/lastmile_qr_scan"}, "fusion_lon": 0.0, "lat": 38.892227, "bike_id": "c27a7e352e34f212f1ade49c78fecbd1", "type": "electric_scooter", "is_reserved": 0, "lon": -77.04322916666666}, {"fusion_lat": 0.0, "name": "85b48604bd7a2f6325662d85fc775430", "is_disabled": 0, "rental_uris": {"android": "https://dc.lft.to/lastmile_qr_scan", "ios": "https://dc.lft.to/lastmile_qr_scan"}, "fusion_lon": 0.0, "lat": 38.923622333333334, "bike_id": "85b48604bd7a2f6325662d85fc775430", "type": "electric_scooter", "is_reserved": 0, "lon": -77.0502765}, {"fusion_lat": 0.0, "name": "f50fff88cbff91eb16a137c88b45e8e3", "is_disabled": 0, "rental_uris": {"android": "https://dc.lft.to/lastmile_qr_scan", "ios": "https://dc.lft.to/lastmile_qr_scan"}, "fusion_lon": 0.0, "lat": 38.91179116666667, "bike_id": "f50fff88cbff91eb16a137c88b45e8e3", "type": "electric_scooter", "is_reserved": 0, "lon": -77.03865516666667}, {"fusion_lat": 0.0, "name": "003d173bd354c1ffc062a532be0b7232", "is_disabled": 0, "rental_uris": {"android": "https://dc.lft.to/lastmile_qr_scan", "ios": "https://dc.lft.to/lastmile_qr_scan"}, "fusion_lon": 0.0, "lat": 38.907714, "bike_id": "003d173bd354c1ffc062a532be0b7232", "type": "electric_scooter", "is_reserved": 0, "lon": -77.0357055}, {"fusion_lat": 0.0, "name": "ee1b0c8f70af137ffe344aed30023933", "is_disabled": 0, "rental_uris": {"android": "https://dc.lft.to/lastmile_qr_scan", "ios": "https://dc.lft.to/lastmile_qr_scan"}, "fusion_lon": 0.0, "lat": 38.995135, "bike_id": "ee1b0c8f70af137ffe344aed30023933", "type": "electric_bike", "is_reserved": 0, "lon": -77.02893916666666}, {"fusion_lat": 0.0, "name": "05d6a057c5ba590c3e26f625497e436a", "is_disabled": 0, "rental_uris": {"android": "https://dc.lft.to/lastmile_qr_scan", "ios": "https://dc.lft.to/lastmile_qr_scan"}, "fusion_lon": 0.0, "lat": 38.91672, "bike_id": "05d6a057c5ba590c3e26f625497e436a", "type": "electric_scooter", "is_reserved": 0, "lon": -77.03197616666667}, {"fusion_lat": 0.0, "name": "eb312b54c83047b4cd2392770cb1c647", "is_disabled": 0, "rental_uris": {"android": "https://dc.lft.to/lastmile_qr_scan", "ios": "https://dc.lft.to/lastmile_qr_scan"}, "fusion_lon": 0.0, "lat": 38.91411933333333, "bike_id": "eb312b54c83047b4cd2392770cb1c647", "type": "electric_scooter", "is_reserved": 0, "lon": -77.04008266666666}, {"fusion_lat": 0.0, "name": "663ddc3578e8f5aebf124ab55bb1c762", "is_disabled": 0, "rental_uris": {"android": "https://dc.lft.to/lastmile_qr_scan", "ios": "https://dc.lft.to/lastmile_qr_scan"}, "fusion_lon": 0.0, "lat": 38.906431833333336, "bike_id": "663ddc3578e8f5aebf124ab55bb1c762", "type": "electric_scooter", "is_reserved": 0, "lon": -77.04324183333334}, {"fusion_lat": 0.0, "name": "2ae2f8082161c6128d4171d1acfcbd18", "is_disabled": 0, "rental_uris": {"android": "https://dc.lft.to/lastmile_qr_scan", "ios": "https://dc.lft.to/lastmile_qr_scan"}, "fusion_lon": 0.0, "lat": 38.90225916666667, "bike_id": "2ae2f8082161c6128d4171d1acfcbd18", "type": "electric_scooter", "is_reserved": 0, "lon": -77.05474033333333}, {"fusion_lat": 0.0, "name": "3a161928851111ca7fb4d3252fc07339", "is_disabled": 0, "rental_uris": {"android": "https://dc.lft.to/lastmile_qr_scan", "ios": "https://dc.lft.to/lastmile_qr_scan"}, "fusion_lon": 0.0, "lat": 38.8922045, "bike_id": "3a161928851111ca7fb4d3252fc07339", "type": "electric_scooter", "is_reserved": 0, "lon": -77.04866583333333},