{"data": {"bikes": [{"lon": -77.1359735, "lat": 39.053464, "name": "1f48498873ffa9fd3bba0348c3a6afa3", "fusion_lat": 0.0, "fusion_lon": 0.0, "rental_uris": {"android": "https://dc.lft.to/lastmile_qr_scan", "ios": "https://dc.lft.to/lastmile_qr_scan"}, "is_reserved": 0, "is_disabled": 0, "type": "electric_bike", "bike_id": "1f48498873ffa9fd3bba0348c3a6afa3"}, {"lon": -77.03619216666667, "lat": 38.92914966666667, "name": "719347519b828c900724dcd0b78f5614", "fusion_lat": 0.0, "fusion_lon": 0.0, "rental_uris": {"android": "https://dc.lft.to/lastmile_qr_scan", "ios": "https://dc.lft.to/lastmile_qr_scan"}, "is_reserved": 0, "is_disabled": 0, "type": "electric_scooter", "bike_id": "719347519b828c900724dcd0b78f5614"}, {"lon": -76.98622633333333, "lat": 38.868199833333335, "name": "90276d16324b937039650480e66a0d61", "fusion_lat": 0.0, "fusion_lon": 0.0, "rental_uris": {"android": "https://dc.lft.to/lastmile_qr_scan", "ios": "https://dc.lft.to/lastmile_qr_scan"}, "is_reserved": 0, "is_disabled": 0, "type": "electric_scooter", "bike_id": "90276d16324b937039650480e66a0d61"}, {"lon": -77.032185, "lat": 38.91193416666667, "name": "ab409e83a22de349f412231e07b9e339", "fusion_lat": 0.0, "fusion_lon": 0.0, "rental_uris": {"android": "https://dc.lft.to/lastmile_qr_scan", "ios": "https://dc.lft.to/lastmile_qr_scan"}, "is_reserved": 0, "is_disabled": 0, "type": "electric_scooter", "bike_id": "ab409e83a22de349f412231e07b9e339"}, {"lon": -76.98754766666667, "lat": 38.84497566666667, "name": "a87dace70ad8097d7505d7949d64d638", "fusion_lat": 0.0, "fusion_lon": 0.0, "rental_uris": {"android": "https://dc.lft.to/lastmile_qr_scan", "ios": "https://dc.lft.to/lastmile_qr_scan"}, "is_reserved": 0, "is_disabled": 0, "type": "electric_scooter", "bike_id": "a87dace70ad8097d7505d7949d64d638"}, {"lon": -77.01442283333333, "lat": 38.877688166666665, "name": "112565687dd5bed8e9c66bc47dfe7b4f", "fusion_lat": 0.0, "fusion_lon": 0.0, "rental_uris": {"android": "https://dc.lft.to/lastmile_qr_scan", "ios": "https://dc.lft.to/lastmile_qr_scan"}, "is_reserved": 0, "is_disabled": 0, "type": "electric_scooter", "bike_id": "112565687dd5bed8e9c66bc47dfe7b4f"}, {"lon": -77.01251166666667, "lat": 38.89964483333333, "name": "108422548ecd607cd772fe8391c506bc", "fusion_lat": 0.0, "fusion_lon": 0.0, "rental_uris": {"android": "https://dc.lft.to/lastmile_qr_scan", "ios": "https://dc.lft.to/lastmile_qr_scan"}, "is_reserved": 0, "is_disabled": 0, "type": "electric_scooter", "bike_id": "108422548ecd607cd772fe8391c506bc"}, {"lon": -77.04299283333333, "lat": 38.92262216666666, "name": "3d3848b35cd7f0c8bc1953259a2b30f4", "fusion_lat": 0.0, "fusion_lon": 0.0, "rental_uris": {"android": "https://dc.lft.to/lastmile_qr_scan", "ios": "https://dc.lft.to/lastmile_qr_scan"}, "is_reserved": 0, "is_disabled": 0, "type": "electric_scooter", "bike_id": "3d3848b35cd7f0c8bc1953259a2b30f4"}, {"lon": -77.04900883333333, "lat": 38.8923305, "name": "62db272aa12b747585529ff2209dd146", "fusion_lat": 0.0, "fusion_lon": 0.0, "rental_uris": {"android": "https://dc.lft.to/lastmile_qr_scan", "ios": "https://dc.lft.to/lastmile_qr_scan"}, "is_reserved": 0, "is_disabled": 0, "type": "electric_scooter", "bike_id": "62db272aa12b747585529ff2209dd146"}, {"lon": -76.9488015, "lat": 38.89459733333333, "name": "5acb6dc5137d58f0c5718fc867df6818", "fusion_lat": 0.0, "fusion_lon": 0.0, "rental_uris": {"android": "https://dc.lft.to/lastmile_qr_scan", "ios": "https://dc.lft.to/lastmile_qr_scan"}, "is_reserved": 0, "is_disabled": 0, "type": "electric_scooter", "bike_id": "5acb6dc5137d58f0c5718fc867df6818"}, {"lon": -77.04125366666666, "lat": 38.92521283333333, "name": "33d9e658370338c9239d1422775b1d9d", "fusion_lat": 0.0, "fusion_lon": 0.0, "rental_uris": {"android": "https://dc.lft.to/lastmile_qr_scan", "ios": "https://dc.lft.to/lastmile_qr_scan"}, "is_reserved": 0, "is_disabled": 0, "type": "electric_scooter", "bike_id": "33d9e658370338c9239d1422775b1d9d"}, {"lon": -77.02390533333333, "lat": 38.90705583333333, "name": "0b5d87e83c0ad20da96ac087a9efdc27", "fusion_lat": 0.0, "fusion_lon": 0.0, "rental_uris": {"android": "https://dc.lft.to/lastmile_qr_scan", "ios": "https://dc.lft.to/lastmile_qr_scan"}, "is_reserved": 0, "is_disabled": 0, "type": "electric_scooter", "bike_id": "0b5d87e83c0ad20da96ac087a9efdc27"}, {"lon": -77.00835716666667, "lat": 38.915536, "name": "6986fbb1bf6c3eb60e711240b7753735", "fusion_lat": 0.0, "fusion_lon": 0.0, "rental_uris": {"android": "https://dc.lft.to/lastmile_qr_scan", "ios": "https://dc.lft.to/lastmile_qr_scan"}, "is_reserved": 0, "is_disabled": 0, "type": "electric_scooter", "bike_id": "6986fbb1bf6c3eb60e711240b7753735"}, {"lon": -77.03894316666667, "lat": 38.902543333333334, "name": "58c25058c2a20e823eb115f137ae3caa", "fusion_lat": 0.0, "fusion_lon": 0.0, "rental_uris": {"android": "https://dc.lft.to/lastmile_qr_scan", "ios": "https://dc.lft.to/lastmile_qr_scan"}, "is_reserved": 0, "is_disabled": 0, "type": "electric_scooter", "bike_id": "58c25058c2a20e823eb115f137ae3caa"}, {"lon": -77.030705, "lat": 38.909878, "name": "16ca0d20de1fa62a2fee576973ad283d", "fusion_lat": 0.0, "fusion_lon": 0.0, "rental_uris": {"android": "https://dc.lft.to/lastmile_qr_scan", "ios": "https://dc.lft.to/lastmile_qr_scan"}, "is_reserved": 0, "is_disabled": 0, "type": "electric_scooter", "bike_id": "16ca0d20de1fa62a2fee576973ad283d"}, {"lon": -77.015122, "lat": 38.887379833333334, "name": "f358fd998fbd6bcbcaf69f58bafd144f", "fusion_lat": 0.0, "fusion_lon": 0.0, "rental_uris": {"android": "https://dc.lft.to/lastmile_qr_scan", "ios": "https://dc.lft.to/lastmile_qr_scan"}, "is_reserved": 0, "is_disabled": 0, "type": "electric_scooter", "bike_id": "f358fd998fbd6bcbcaf69f58bafd144f"}, {"lon": -77.04877866666666, "lat": 38.91234566666667, "name": "008f0347e7e36cfb4f1c4013e52b3799", "fusion_lat": 0.0, "fusion_lon": 0.0, "rental_uris": {"android": "https://dc.lft.to/lastmile_qr_scan", "ios": "https://dc.lft.to/lastmile_qr_scan"}, "is_reserved": 0, "is_disabled": 0, "type": "electric_scooter", "bike_id": "008f0347e7e36cfb4f1c4013e52b3799"}, {"lon": -76.99759866666666, "lat": 38.921929666666664, "name": "f89390c26b2a92a66a92a9d65379984c", "fusion_lat": 0.0, "fusion_lon": 0.0, "rental_uris": {"android": "https://dc.lft.to/lastmile_qr_scan", "ios": "https://dc.lft.to/lastmile_qr_scan"}, "is_reserved": 0, "is_disabled": 0, "type": "electric_scooter", "bike_id": "f89390c26b2a92a66a92a9d65379984c"}, {"lon": -77.03769933333334, "lat": 38.925595333333334, "name": "712273e4d1f564ef89fa19213c04cf92", "fusion_lat": 0.0, "fusion_lon": 0.0, "rental_uris": {"android": "https://dc.lft.to/lastmile_qr_scan", "ios": "https://dc.lft.to/lastmile_qr_scan"}, "is_reserved": 0, "is_disabled": 0, "type": "electric_scooter", "bike_id": "712273e4d1f564ef89fa19213c04cf92"}, {"lon": -77.031821, "lat": 38.8976655, "name": "17f5481b21d7a3448684cf284d0c9e27", "fusion_lat": 0.0, "fusion_lon": 0.0, "rental_uris": {"android": "https://dc.lft.to/lastmile_qr_scan", "ios": "https://dc.lft.to/lastmile_qr_scan"}, "is_reserved": 0, "is_disabled": 0, "type": "electric_scooter", "bike_id": "17f5481b21d7a3448684cf284d0c9e27"}, {"lon": -77.04047716666666, "lat": 38.929780666666666, "name": "2234f03763a15bdfc52cbbbd0f5e68db", "fusion_lat": 0.0, "fusion_lon": 0.0, "rental_uris": {"android": "https://dc.lft.to/lastmile_qr_scan", "ios": "https://dc.lft.to/lastmile_qr_scan"}, "is_reserved": 0, "is_disabled": 0, "type": "electric_scooter", "bike_id": "2234f03763a15bdfc52cbbbd0f5e68db"}, {"lon": -77.01993233333333, "lat": 38.904761, "name": "d2ecafb0eaa9e0cd0727dc45ef9bc0a2", "fusion_lat": 0.0, "fusion_lon": 0.0, "rental_uris": {"android": "https://dc.lft.to/lastmile_qr_scan", "ios": "https://dc.lft.to/lastmile_qr_scan"}, "is_reserved": 0, "is_disabled": 0, "type": "electric_scooter", "bike_id": "d2ecafb0eaa9e0cd0727dc45ef9bc0a2"}, {"lon": -77.02322816666667, "lat": 38.929474666666664, "name": "d2908e76871a10f843ab3003a7672cc0", "fusion_lat": 0.0, "fusion_lon": 0.0, "rental_uris": {"android": "https://dc.lft.to/lastmile_qr_scan", "ios": "https://dc.lft.to/lastmile_qr_scan"}, "is_reserved": 0, "is_disabled": 0, "type": "electric_scooter", "bike_id": "d2908e76871a10f843ab3003a7672cc0"}, {"lon": -77.0073065, "lat": 38.88494983333333, "name": "6ac6d90ddd43784f3d4649c63ecd8dc6", "fusion_lat": 0.0, "fusion_lon": 0.0, "rental_uris": {"android": "https://dc.lft.to/lastmile_qr_scan", "ios": "https://dc.lft.to/lastmile_qr_scan"}, "is_reserved": 0, "is_disabled": 0, "type": "electric_scooter", "bike_id": "6ac6d90ddd43784f3d4649c63ecd8dc6"}, {"lon": -76.9053685, "lat": 38.897308, "name": "6969be65eab5f798e07f0c8cb3ca7753", "fusion_lat": 0.0, "fusion_lon": 0.0, "rental_uris": {"android": "https://dc.lft.to/lastmile_qr_scan", "ios": "https://dc.lft.to/lastmile_qr_scan"}, "is_reserved": 0, "is_disabled": 0, "type": "electric_bike", "bike_id": "6969be65eab5f798e07f0c8cb3ca7753"}, {"lon": -77.03439116666667, "lat": 38.90341516666667, "name": "6c973e38c011c02f2c14c579a890aa8e", "fusion_lat": 0.0, "fusion_lon": 0.0, "rental_uris": {"android": "https://dc.lft.to/lastmile_qr_scan", "ios": "https://dc.lft.to/lastmile_qr_scan"}, "is_reserved": 0, "is_disabled": 0, "type": "electric_scooter", "bike_id": "6c973e38c011c02f2c14c579a890aa8e"}, {"lon": -77.09653266666666, "lat": 38.91624366666667, "name": "e672dcdea2c8ccb831060d6b31b65394", "fusion_lat": 0.0, "fusion_lon": 0.0, "rental_uris": {"android": "https://dc.lft.to/lastmile_qr_scan", "ios": "https://dc.lft.to/lastmile_qr_scan"}, "is_reserved": 0, "is_disabled": 0, "type": "electric_bike", "bike_id": "e672dcdea2c8ccb831060d6b31b65394"}, {"lon": -76.90819183333333, "lat": 38.99451583333333, "name": "136f8dd8ad607f13fa1e24e2ecbe46a7", "fusion_lat": 0.0, "fusion_lon": 0.0, "rental_uris": {"android": "https://dc.lft.to/lastmile_qr_scan", "ios": "https://dc.lft.to/lastmile_qr_scan"}, "is_reserved": 0, "is_disabled": 0, "type": "electric_bike", "bike_id": "136f8dd8ad607f13fa1e24e2ecbe46a7"}, {"lon": -77.009219, "lat": 38.91063466666667, "name": "d9231ae4c4f6a2d12ef401f89423f2cd", "fusion_lat": 0.0, "fusion_lon": 0.0, "rental_uris": {"android": "https://dc.lft.to/lastmile_qr_scan", "ios": "https://dc.lft.to/lastmile_qr_scan"}, "is_reserved": 0, "is_disabled": 0, "type": "electric_scooter", "bike_id": "d9231ae4c4f6a2d12ef401f89423f2cd"}, {"lon": -76.98435983333333, "lat": 38.91423733333333, "name": "bf80e7d3dcb34f08adc6c03604be5a37", "fusion_lat": 0.0, "fusion_lon": 0.0, "rental_uris": {"android": "https://dc.lft.to/lastmile_qr_scan", "ios": "https://dc.lft.to/lastmile_qr_scan"}, "is_reserved": 0, "is_disabled": 0, "type": "electric_scooter", "bike_id": "bf80e7d3dcb34f08adc6c03604be5a37"}, {"lon": -77.02534683333333, "lat": 38.918190333333335, "name": "6023de8340beaaea41dd43a8852348d4", "fusion_lat": 0.0, "fusion_lon": 0.0, "rental_uris": {"android": "https://dc.lft.to/lastmile_qr_scan", "ios": "https://dc.lft.to/lastmile_qr_scan"}, "is_reserved": 0, "is_disabled": 0, "type": "electric_scooter", "bike_id": "6023de8340beaaea41dd43a8852348d4"}, {"lon": -77.03490133333334, "lat": 38.917091, "name": "36d75d6ba60826a1e833a2b1ca64132b", "fusion_lat": 0.0, "fusion_lon": 0.0, "rental_uris": {"android": "https://dc.lft.to/lastmile_qr_scan", "ios": "https://dc.lft.to/lastmile_qr_scan"}, "is_reserved": 0, "is_disabled": 0, "type": "electric_scooter", "bike_id": "36d75d6ba60826a1e833a2b1ca64132b"}, {"lon": -77.04868483333334, "lat": 38.89222566666667, "name": "1308f91e17ebc298c31a62d1ac9e13bc", "fusion_lat": 0.0, "fusion_lon": 0.0, "rental_uris": {"android": "https://dc.lft.to/lastmile_qr_scan", "ios": "https://dc.lft.to/lastmile_qr_scan"}, "is_reserved": 0, "is_disabled": 0, "type": "electric_scooter", "bike_id": "1308f91e17ebc298c31a62d1ac9e13bc"}, {"lon": -77.06531983333333, "lat": 38.934775333333334, "name": "da794a6c6991f601694bb12223720a25", "fusion_lat": 0.0, "fusion_lon": 0.0, "rental_uris": {"android": "https://dc.lft.to/lastmile_qr_scan", "ios": "https://dc.lft.to/lastmile_qr_scan"}, "is_reserved": 0, "is_disabled": 0, "type": "electric_scooter", "bike_id": "da794a6c6991f601694bb12223720a25"}, {"lon": -77.0481835, "lat": 38.91329233333333, "name": "1bb59072e8f715de2c4d13616bfbec19", "fusion_lat": 0.0, "fusion_lon": 0.0, "rental_uris": {"android": "https://dc.lft.to/lastmile_qr_scan", "ios": "https://dc.lft.to/lastmile_qr_scan"}, "is_reserved": 0, "is_disabled": 0, "type": "electric_scooter", "bike_id": "1bb59072e8f715de2c4d13616bfbec19"}, {"lon": -77.032067, "lat": 38.929894, "name": "d6720dbe0ba41dab373f808555425c31", "fusion_lat": 0.0, "fusion_lon": 0.0, "rental_uris": {"android": "https://dc.lft.to/lastmile_qr_scan", "ios": "https://dc.lft.to/lastmile_qr_scan"}, "is_reserved": 0, "is_disabled": 0, "type": "electric_scooter", "bike_id": "d6720dbe0ba41dab373f808555425c31"}, {"lon": -77.0346855, "lat": 38.907291, "name": "06da07462f0aa07a9447180ae0163609", "fusion_lat": 0.0, "fusion_lon": 0.0, "rental_uris": {"android": "https://dc.lft.to/lastmile_qr_scan", "ios": "https://dc.lft.to/lastmile_qr_scan"}, "is_reserved": 0, "is_disabled": 0, "type": "electric_scooter", "bike_id": "06da07462f0aa07a9447180ae0163609"}, {"lon": -76.99005883333334, "lat": 38.86505016666667, "name": "b5aea475148d1a1af712f8d246a9cb74", "fusion_lat": 0.0, "fusion_lon": 0.0, "rental_uris": {"android": "https://dc.lft.to/lastmile_qr_scan", "ios": "https://dc.lft.to/lastmile_qr_scan"}, "is_reserved": 0, "is_disabled": 0, "type": "electric_scooter", "bike_id": "b5aea475148d1a1af712f8d246a9cb74"}, {"lon": -76.98641983333333, "lat": 38.900147, "name": "e92b64af4eaec268be00471f7e0a857d", "fusion_lat": 0.0, "fusion_lon": 0.0, "rental_uris": {"android": "https://dc.lft.to/lastmile_qr_scan", "ios": "https://dc.lft.to/lastmile_qr_scan"}, "is_reserved": 0, "is_disabled": 0, "type": "electric_scooter", "bike_id": "e92b64af4eaec268be00471f7e0a857d"}, {"lon": -76.934354, "lat": 38.899667, "name": "03a61467d878a13063c446e9c02aec70", "fusion_lat": 0.0, "fusion_lon": 0.0, "rental_uris": {"android": "https://dc.lft.to/lastmile_qr_scan", "ios": "https://dc.lft.to/lastmile_qr_scan"}, "is_reserved": 0, "is_disabled": 0, "type": "electric_scooter", "bike_id": "03a61467d878a13063c446e9c02aec70"}, {"lon": -77.00152966666667, "lat": 38.9156355, "name": "d4fcb64d82e427c3e12cc0e7d50f39d0", "fusion_lat": 0.0, "fusion_lon": 0.0, "rental_uris": {"android": "https://dc.lft.to/lastmile_qr_scan", "ios": "https://dc.lft.to/lastmile_qr_scan"}, "is_reserved": 0, "is_disabled": 0, "type": "electric_scooter", "bike_id": "d4fcb64d82e427c3e12cc0e7d50f39d0"}, {"lon": -77.05320633333334, "lat": 38.90653366666667, "name": "152d15db34892c1d3ccc74a4600245cd", "fusion_lat": 0.0, "fusion_lon": 0.0, "rental_uris": {"android": "https://dc.lft.to/lastmile_qr_scan", "ios": "https://dc.lft.to/lastmile_qr_scan"}, "is_reserved": 0, "is_disabled": 0, "type": "electric_scooter", "bike_id": "152d15db34892c1d3ccc74a4600245cd"}, {"lon": -77.00509333333333, "lat": 38.875361, "name": "9b2cfbfb44689161ac73bd0cdffc336c", "fusion_lat": 0.0, "fusion_lon": 0.0, "rental_uris": {"android": "https://dc.lft.to/lastmile_qr_scan", "ios": "https://dc.lft.to/lastmile_qr_scan"}, "is_reserved": 0, "is_disabled": 0, "type": "electric_scooter", "bike_id": "9b2cfbfb44689161ac73bd0cdffc336c"}, {"lon": -77.02711433333333, "lat": 38.897233166666666, "name": "8ee5568ecf37006d685038dd9397c6af", "fusion_lat": 0.0, "fusion_lon": 0.0, "rental_uris": {"android": "https://dc.lft.to/lastmile_qr_scan", "ios": "https://dc.lft.to/lastmile_qr_scan"}, "is_reserved": 0, "is_disabled": 0, "type": "electric_scooter", "bike_id": "8ee5568ecf37006d685038dd9397c6af"}, {"lon": -77.00349033333333, "lat": 38.892618666666664, "name": "3ed86597efde8180769599cc30a8d7f3", "fusion_lat": 0.0, "fusion_lon": 0.0, "rental_uris": {"android": "https://dc.lft.to/lastmile_qr_scan", "ios": "https://dc.lft.to/lastmile_qr_scan"}, "is_reserved": 0, "is_disabled": 0, "type": "electric_scooter", "bike_id": "3ed86597efde8180769599cc30a8d7f3"}, {"lon": -76.983648, "lat": 38.915052333333335, "name": "b56fdd73bf86d797c1673319c43e5889", "fusion_lat": 0.0, "fusion_lon": 0.0, "rental_uris": {"android": "https://dc.lft.to/lastmile_qr_scan", "ios": "https://dc.lft.to/lastmile_qr_scan"}, "is_reserved": 0, "is_disabled": 0, "type": "electric_scooter", "bike_id": "b56fdd73bf86d797c1673319c43e5889"}, {"lon": -77.0227795, "lat": 38.92728116666667, "name": "a19cadeb26aad970c8495bb936de4cb4", "fusion_lat": 0.0, "fusion_lon": 0.0, "rental_uris": {"android": "https://dc.lft.to/lastmile_qr_scan", "ios": "https://dc.lft.to/lastmile_qr_scan"}, "is_reserved": 0, "is_disabled": 0, "type": "electric_scooter", "bike_id": "a19cadeb26aad970c8495bb936de4cb4"}, {"lon": -77.04085866666667, "lat": 38.9111235, "name": "44d872495344605ce0bd1a38af437acf", "fusion_lat": 0.0, "fusion_lon": 0.0, "rental_uris": {"android": "https://dc.lft.to/lastmile_qr_scan", "ios": "https://dc.lft.to/lastmile_qr_scan"}, "is_reserved": 0, "is_disabled": 0, "type": "electric_scooter", "bike_id": "44d872495344605ce0bd1a38af437acf"}, {"lon": -77.03897683333334, "lat": 38.9170795, "name": "44067098861eafd24143eb66066a9763", "fusion_lat": 0.0, "fusion_lon": 0.0, "rental_uris": {"android": "https://dc.lft.to/lastmile_qr_scan", "ios": "https://dc.lft.to/lastmile_qr_scan"}, "is_reserved": 0, "is_disabled": 0, "type": "electric_scooter", "bike_id": "44067098861eafd24143eb66066a9763"}, {"lon": -77.03430583333333, "lat": 38.93975583333334, "name": "ac7548d95d74cca1d7d6db334091d308", "fusion_lat": 0.0, "fusion_lon": 0.0, "rental_uris": {"android": "https://dc.lft.to/lastmile_qr_scan", "ios": "https://dc.lft.to/lastmile_qr_scan"}, "is_reserved": 0, "is_disabled": 0, "type": "electric_scooter", "bike_id": "ac7548d95d74cca1d7d6db334091d308"}, {"lon": -77.04682583333333, "lat": 38.9007455, "name": "f3ab3d1dc8ab96ea42eac529a2b90ad0", "fusion_lat": 0.0, "fusion_lon": 0.0, "rental_uris": {"android": "https://dc.lft.to/lastmile_qr_scan", "ios": "https://dc.lft.to/lastmile_qr_scan"}, "is_reserved": 0, "is_disabled": 0, "type": "electric_scooter", "bike_id": "f3ab3d1dc8ab96ea42eac529a2b90ad0"}, {"lon": -77.10030316666666, "lat": 38.99067483333333, "name": "ad932f89d01da26773b8143c94fb05f2", "fusion_lat": 0.0, "fusion_lon": 0.0, "rental_uris": {"android": "https://dc.lft.to/lastmile_qr_scan", "ios": "https://dc.lft.to/lastmile_qr_scan"}, "is_reserved": 0, "is_disabled": 0, "type": "electric_bike", "bike_id": "ad932f89d01da26773b8143c94fb05f2"}, {"lon": -76.990304, "lat": 38.89848716666667, "name": "f448d064070cc6d12ee9bd6ba32e975a", "fusion_lat": 0.0, "fusion_lon": 0.0, "rental_uris": {"android": "https://dc.lft.to/lastmile_qr_scan", "ios": "https://dc.lft.to/lastmile_qr_scan"}, "is_reserved": 0, "is_disabled": 0, "type": "electric_scooter", "bike_id": "f448d064070cc6d12ee9bd6ba32e975a"}, {"lon": -77.0213125, "lat": 38.90311666666667, "name": "f7524539918405b9f1beab2e16e74c22", "fusion_lat": 0.0, "fusion_lon": 0.0, "rental_uris": {"android": "https://dc.lft.to/lastmile_qr_scan", "ios": "https://dc.lft.to/lastmile_qr_scan"}, "is_reserved": 0, "is_disabled": 0, "type": "electric_scooter", "bike_id": "f7524539918405b9f1beab2e16e74c22"}, {"lon": -76.94653566666666, "lat": 38.89826133333333, "name": "f47530c2467af2fea37841335389ad1e", "fusion_lat": 0.0, "fusion_lon": 0.0, "rental_uris": {"android": "https://dc.lft.to/lastmile_qr_scan", "ios": "https://dc.lft.to/lastmile_qr_scan"}, "is_reserved": 0, "is_disabled": 0, "type": "electric_scooter", "bike_id": "f47530c2467af2fea37841335389ad1e"}, {"lon": -76.985709, "lat": 38.898886833333336, "name": "dcdb84b2bffd66abd51e7a6472bd5ed2", "fusion_lat": 0.0, "fusion_lon": 0.0, "rental_uris": {"android": "https://dc.lft.to/lastmile_qr_scan", "ios": "https://dc.lft.to/lastmile_qr_scan"}, "is_reserved": 0, "is_disabled": 0, "type": "electric_scooter", "bike_id": "dcdb84b2bffd66abd51e7a6472bd5ed2"}, {"lon": -77.04685966666666, "lat": 38.89224266666667, "name": "472171ae8fd50047ac4c946bcb9bbb75", "fusion_lat": 0.0, "fusion_lon": 0.0, "rental_uris": {"android": "https://dc.lft.to/lastmile_qr_scan", "ios": "https://dc.lft.to/lastmile_qr_scan"}, "is_reserved": 0, "is_disabled": 0, "type": "electric_scooter", "bike_id": "472171ae8fd50047ac4c946bcb9bbb75"}, {"lon": -77.01816116666667, "lat": 38.91197866666667, "name": "1569aca76e63ef4a429d4e669472352a", "fusion_lat": 0.0, "fusion_lon": 0.0, "rental_uris": {"android": "https://dc.lft.to/lastmile_qr_scan", "ios": "https://dc.lft.to/lastmile_qr_scan"}, "is_reserved": 0, "is_disabled": 0, "type": "electric_scooter", "bike_id": "1569aca76e63ef4a429d4e669472352a"}, {"lon": -77.00469566666666, "lat": 38.8775255, "name": "47c3b81067f7301fb26f332f2c11f103", "fusion_lat": 0.0, "fusion_lon": 0.0, "rental_uris": {"android": "https://dc.lft.to/lastmile_qr_scan", "ios": "https://dc.lft.to/lastmile_qr_scan"}, "is_reserved": 0, "is_disabled": 0, "type": "electric_scooter", "bike_id": "47c3b81067f7301fb26f332f2c11f103"}, {"lon": -77.04901733333334, "lat": 38.87494016666667, "name": "2271ce51886b5c9c8c38fb8580980a93", "fusion_lat": 0.0, "fusion_lon": 0.0, "rental_uris": {"android": "https://dc.lft.to/lastmile_qr_scan", "ios": "https://dc.lft.to/lastmile_qr_scan"}, "is_reserved": 0, "is_disabled": 0, "type": "electric_bike", "bike_id": "2271ce51886b5c9c8c38fb8580980a93"}, {"lon": -77.0415055, "lat": 38.9118465, "name": "6c5bf7198bce0faafdf68159edfd60fe", "fusion_lat": 0.0, "fusion_lon": 0.0, "rental_uris": {"android": "https://dc.lft.to/lastmile_qr_scan", "ios": "https://dc.lft.to/lastmile_qr_scan"}, "is_reserved": 0, "is_disabled": 0, "type": "electric_scooter", "bike_id": "6c5bf7198bce0faafdf68159edfd60fe"}, {"lon": -77.03343166666667, "lat": 38.92879333333333, "name": "89415aaa7763672f06985b2bf281bb76", "fusion_lat": 0.0, "fusion_lon": 0.0, "rental_uris": {"android": "https://dc.lft.to/lastmile_qr_scan", "ios": "https://dc.lft.to/lastmile_qr_scan"}, "is_reserved": 0, "is_disabled": 0, "type": "electric_scooter", "bike_id": "89415aaa7763672f06985b2bf281bb76"}, {"lon": -76.909749, "lat": 38.85433, "name": "db77040661ead3309d39303375a36093", "fusion_lat": 0.0, "fusion_lon": 0.0, "rental_uris": {"android": "https://dc.lft.to/lastmile_qr_scan", "ios": "https://dc.lft.to/lastmile_qr_scan"}, "is_reserved": 0, "is_disabled": 0, "type": "electric_bike", "bike_id": "db77040661ead3309d39303375a36093"}, {"lon": -77.00115233333334, "lat": 38.917074, "name": "826c11ba360e6d3669222dd3243f905c", "fusion_lat": 0.0, "fusion_lon": 0.0, "rental_uris": {"android": "https://dc.lft.to/lastmile_qr_scan", "ios": "https://dc.lft.to/lastmile_qr_scan"}, "is_reserved": 0, "is_disabled": 0, "type": "electric_scooter", "bike_id": "826c11ba360e6d3669222dd3243f905c"}, {"lon": -77.0367805, "lat": 38.93659616666667, "name": "c87772fba393a5e511954b850e3a22b3", "fusion_lat": 0.0, "fusion_lon": 0.0, "rental_uris": {"android": "https://dc.lft.to/lastmile_qr_scan", "ios": "https://dc.lft.to/lastmile_qr_scan"}, "is_reserved": 0, "is_disabled": 0, "type": "electric_scooter", "bike_id": "c87772fba393a5e511954b850e3a22b3"}, {"lon": -77.04171066666666, "lat": 38.914619, "name": "c6990f43b46f5a1573d897762753d204", "fusion_lat": 0.0, "fusion_lon": 0.0, "rental_uris": {"android": "https://dc.lft.to/lastmile_qr_scan", "ios": "https://dc.lft.to/lastmile_qr_scan"}, "is_reserved": 0, "is_disabled": 0, "type": "electric_scooter", "bike_id": "c6990f43b46f5a1573d897762753d204"}, {"lon": -77.0241155, "lat": 38.93689466666667, "name": "815468efee0de99e0796c662d29cd193", "fusion_lat": 0.0, "fusion_lon": 0.0, "rental_uris": {"android": "https://dc.lft.to/lastmile_qr_scan", "ios": "https://dc.lft.to/lastmile_qr_scan"}, "is_reserved": 0, "is_disabled": 0, "type": "electric_bike", "bike_id": "815468efee0de99e0796c662d29cd193"}, {"lon": -77.02883166666666, "lat": 38.91124833333333, "name": "915a1705d9096fb505f037c1674e4020", "fusion_lat": 0.0, "fusion_lon": 0.0, "rental_uris": {"android": "https://dc.lft.to/lastmile_qr_scan", "ios": "https://dc.lft.to/lastmile_qr_scan"}, "is_reserved": 0, "is_disabled": 0, "type": "electric_scooter", "bike_id": "915a1705d9096fb505f037c1674e4020"}, {"lon": -77.03193416666667, "lat": 38.913273, "name": "f87720c6136896898d4ed34f62a90142", "fusion_lat": 0.0, "fusion_lon": 0.0, "rental_uris": {"android": "https://dc.lft.to/lastmile_qr_scan", "ios": "https://dc.lft.to/lastmile_qr_scan"}, "is_reserved": 0, "is_disabled": 0, "type": "electric_scooter", "bike_id": "f87720c6136896898d4ed34f62a90142"}, {"lon": -77.043798, "lat": 38.8921945, "name": "0ecf8dfa97887d6d95d9638b7f8e0909", "fusion_lat": 0.0, "fusion_lon": 0.0, "rental_uris": {"android": "https://dc.lft.to/lastmile_qr_scan", "ios": "https://dc.lft.to/lastmile_qr_scan"}, "is_reserved": 0, "is_disabled": 0, "type": "electric_scooter", "bike_id": "0ecf8dfa97887d6d95d9638b7f8e0909"}, {"lon": -77.018731, "lat": 38.88750616666667, "name": "608a72dacd43bb9d303067f41f0e37be", "fusion_lat": 0.0, "fusion_lon": 0.0, "rental_uris": {"android": "https://dc.lft.to/lastmile_qr_scan", "ios": "https://dc.lft.to/lastmile_qr_scan"}, "is_reserved": 0, "is_disabled": 0, "type": "electric_scooter", "bike_id": "608a72dacd43bb9d303067f41f0e37be"}, {"lon": -77.04224416666666, "lat": 38.90928866666667, "name": "642180be2b8f18440e2a8cd8b3369016", "fusion_lat": 0.0, "fusion_lon": 0.0, "rental_uris": {"android": "https://dc.lft.to/lastmile_qr_scan", "ios": "https://dc.lft.to/lastmile_qr_scan"}, "is_reserved": 0, "is_disabled": 0, "type": "electric_bike", "bike_id": "642180be2b8f18440e2a8cd8b3369016"}, {"lon": -77.01938383333334, "lat": 38.90237166666667, "name": "e2cc962e2862e0ae87f7a65353d73638", "fusion_lat": 0.0, "fusion_lon": 0.0, "rental_uris": {"android": "https://dc.lft.to/lastmile_qr_scan", "ios": "https://dc.lft.to/lastmile_qr_scan"}, "is_reserved": 0, "is_disabled": 0, "type": "electric_scooter", "bike_id": "e2cc962e2862e0ae87f7a65353d73638"}, {"lon": -76.99703633333333, "lat": 38.90031966666667, "name": "6cc5807ec59d85dfdd108fd11410bfe6", "fusion_lat": 0.0, "fusion_lon": 0.0, "rental_uris": {"android": "https://dc.lft.to/lastmile_qr_scan", "ios": "https://dc.lft.to/lastmile_qr_scan"}, "is_reserved": 0, "is_disabled": 0, "type": "electric_scooter", "bike_id": "6cc5807ec59d85dfdd108fd11410bfe6"}, {"lon": -77.0260125, "lat": 38.90485016666667, "name": "150ba03927b82c608a92995c8bd73e4c", "fusion_lat": 0.0, "fusion_lon": 0.0, "rental_uris": {"android": "https://dc.lft.to/lastmile_qr_scan", "ios": "https://dc.lft.to/lastmile_qr_scan"}, "is_reserved": 0, "is_disabled": 0, "type": "electric_scooter", "bike_id": "150ba03927b82c608a92995c8bd73e4c"}, {"lon": -77.049078, "lat": 38.8883995, "name": "55b6d87b48bb23e8a5363c91274dfb2e", "fusion_lat": 0.0, "fusion_lon": 0.0, "rental_uris": {"android": "https://dc.lft.to/lastmile_qr_scan", "ios": "https://dc.lft.to/lastmile_qr_scan"}, "is_reserved": 0, "is_disabled": 0, "type": "electric_scooter", "bike_id": "55b6d87b48bb23e8a5363c91274dfb2e"}, {"lon": -77.05121583333333, "lat": 38.99967916666667, "name": "04ffd6f9badd2fc79573ff9c56fca016", "fusion_lat": 0.0, "fusion_lon": 0.0, "rental_uris": {"android": "https://dc.lft.to/lastmile_qr_scan", "ios": "https://dc.lft.to/lastmile_qr_scan"}, "is_reserved": 0, "is_disabled": 0, "type": "electric_bike", "bike_id": "04ffd6f9badd2fc79573ff9c56fca016"}, {"lon": -76.96878, "lat": 38.92441733333333, "name": "840d5aa8915c7a8baa7eb330aea49050", "fusion_lat": 0.0, "fusion_lon": 0.0, "rental_uris": {"android": "https://dc.lft.to/lastmile_qr_scan", "ios": "https://dc.lft.to/lastmile_qr_scan"}, "is_reserved": 0, "is_disabled": 0, "type": "electric_scooter", "bike_id": "840d5aa8915c7a8baa7eb330aea49050"}, {"lon": -77.02493033333333, "lat": 38.918063333333336, "name": "1dca4060717c258cc749e8a2b3b0cba2", "fusion_lat": 0.0, "fusion_lon": 0.0, "rental_uris": {"android": "https://dc.lft.to/lastmile_qr_scan", "ios": "https://dc.lft.to/lastmile_qr_scan"}, "is_reserved": 0, "is_disabled": 0, "type": "electric_scooter", "bike_id": "1dca4060717c258cc749e8a2b3b0cba2"}, {"lon": -77.01630716666666, "lat": 38.903373333333334, "name": "9273807b3d45aa4ffc76c3e28f23dd1a", "fusion_lat": 0.0, "fusion_lon": 0.0, "rental_uris": {"android": "https://dc.lft.to/lastmile_qr_scan", "ios": "https://dc.lft.to/lastmile_qr_scan"}, "is_reserved": 0, "is_disabled": 0, "type": "electric_scooter", "bike_id": "9273807b3d45aa4ffc76c3e28f23dd1a"}, {"lon": -77.03133683333333, "lat": 38.91564533333333, "name": "9cf7a9d468914959d93fcc672e8fd165", "fusion_lat": 0.0, "fusion_lon": 0.0, "rental_uris": {"android": "https://dc.lft.to/lastmile_qr_scan", "ios": "https://dc.lft.to/lastmile_qr_scan"}, "is_reserved": 0, "is_disabled": 0, "type": "electric_scooter", "bike_id": "9cf7a9d468914959d93fcc672e8fd165"}, {"lon": -77.0532965, "lat": 38.905134, "name": "d27d8f0c9bd4a2f70fc4320eb45f90f8", "fusion_lat": 0.0, "fusion_lon": 0.0, "rental_uris": {"android": "https://dc.lft.to/lastmile_qr_scan", "ios": "https://dc.lft.to/lastmile_qr_scan"}, "is_reserved": 0, "is_disabled": 0, "type": "electric_scooter", "bike_id": "d27d8f0c9bd4a2f70fc4320eb45f90f8"}, {"lon": -76.8749675, "lat": 38.9908925, "name": "df3235cc7275a5993825b10ddf123762", "fusion_lat": 0.0, "fusion_lon": 0.0, "rental_uris": {"android": "https://dc.lft.to/lastmile_qr_scan", "ios": "https://dc.lft.to/lastmile_qr_scan"}, "is_reserved": 0, "is_disabled": 0, "type": "electric_bike", "bike_id": "df3235cc7275a5993825b10ddf123762"}, {"lon": -76.9316045, "lat": 38.8987605, "name": "a01e9d8f3f7c1d57f4ee128be40992d7", "fusion_lat": 0.0, "fusion_lon": 0.0, "rental_uris": {"android": "https://dc.lft.to/lastmile_qr_scan", "ios": "https://dc.lft.to/lastmile_qr_scan"}, "is_reserved": 0, "is_disabled": 0, "type": "electric_scooter", "bike_id": "a01e9d8f3f7c1d57f4ee128be40992d7"}, {"lon": -77.032209, "lat": 38.9178475, "name": "f40b597b3c932172ccae64ee38b09e65", "fusion_lat": 0.0, "fusion_lon": 0.0, "rental_uris": {"android": "https://dc.lft.to/lastmile_qr_scan", "ios": "https://dc.lft.to/lastmile_qr_scan"}, "is_reserved": 0, "is_disabled": 0, "type": "electric_scooter", "bike_id": "f40b597b3c932172ccae64ee38b09e65"}, {"lon": -77.0269755, "lat": 38.91638233333333, "name": "f5ea4b9cbea6af5ecdc25005e72b1fcc", "fusion_lat": 0.0, "fusion_lon": 0.0, "rental_uris": {"android": "https://dc.lft.to/lastmile_qr_scan", "ios": "https://dc.lft.to/lastmile_qr_scan"}, "is_reserved": 0, "is_disabled": 0, "type": "electric_scooter", "bike_id": "f5ea4b9cbea6af5ecdc25005e72b1fcc"}, {"lon": -77.1122725, "lat": 38.82864133333333, "name": "4d18224fff1bb9e816d6d3bbc93ddaaa", "fusion_lat": 0.0, "fusion_lon": 0.0, "rental_uris": {"android": "https://dc.lft.to/lastmile_qr_scan", "ios": "https://dc.lft.to/lastmile_qr_scan"}, "is_reserved": 0, "is_disabled": 0, "type": "electric_bike", "bike_id": "4d18224fff1bb9e816d6d3bbc93ddaaa"}, {"lon": -76.9857235, "lat": 38.914330666666665, "name": "5f94629d57f5bde0031c00b966fa9448", "fusion_lat": 0.0, "fusion_lon": 0.0, "rental_uris": {"android": "https://dc.lft.to/lastmile_qr_scan", "ios": "https://dc.lft.to/lastmile_qr_scan"}, "is_reserved": 0, "is_disabled": 0, "type": "electric_scooter", "bike_id": "5f94629d57f5bde0031c00b966fa9448"}, {"lon": -77.00211533333334, "lat": 38.902162833333335, "name": "09974371b8a08bd9395accfa64bd6fa1", "fusion_lat": 0.0, "fusion_lon": 0.0, "rental_uris": {"android": "https://dc.lft.to/lastmile_qr_scan", "ios": "https://dc.lft.to/lastmile_qr_scan"}, "is_reserved": 0, "is_disabled": 0, "type": "electric_scooter", "bike_id": "09974371b8a08bd9395accfa64bd6fa1"}, {"lon": -77.03259166666666, "lat": 38.9355895, "name": "f3c7acc06a6081d6732c597b5e3d0a33", "fusion_lat": 0.0, "fusion_lon": 0.0, "rental_uris": {"android": "https://dc.lft.to/lastmile_qr_scan", "ios": "https://dc.lft.to/lastmile_qr_scan"}, "is_reserved": 0, "is_disabled": 0, "type": "electric_scooter", "bike_id": "f3c7acc06a6081d6732c597b5e3d0a33"}, {"lon": -77.00740916666666, "lat": 38.955208, "name": "aba4b655a17cc1a50adf83550724d1ef", "fusion_lat": 0.0, "fusion_lon": 0.0, "rental_uris": {"android": "https://dc.lft.to/lastmile_qr_scan", "ios": "https://dc.lft.to/lastmile_qr_scan"}, "is_reserved": 0, "is_disabled": 0, "type": "electric_scooter", "bike_id": "aba4b655a17cc1a50adf83550724d1ef"}, {"lon": -77.0248765, "lat": 38.9397575, "name": "dc4917db14726d08b688ca8484cf6603", "fusion_lat": 0.0, "fusion_lon": 0.0, "rental_uris": {"android": "https://dc.lft.to/lastmile_qr_scan", "ios": "https://dc.lft.to/lastmile_qr_scan"}, "is_reserved": 0, "is_disabled": 0, "type": "electric_scooter", "bike_id": "dc4917db14726d08b688ca8484cf6603"}, {"lon": -77.0261075, "lat": 38.905141, "name": "1ba479eaa1a5422a9b1b310b47b79a74", "fusion_lat": 0.0, "fusion_lon": 0.0, "rental_uris": {"android": "https://dc.lft.to/lastmile_qr_scan", "ios": "https://dc.lft.to/lastmile_qr_scan"}, "is_reserved": 0, "is_disabled": 0, "type": "electric_scooter", "bike_id": "1ba479eaa1a5422a9b1b310b47b79a74"}, {"lon": -77.03913733333333, "lat": 38.91756816666667, "name": "a58a187e11b84216b9d9952da5205583", "fusion_lat": 0.0, "fusion_lon": 0.0, "rental_uris": {"android": "https://dc.lft.to/lastmile_qr_scan", "ios": "https://dc.lft.to/lastmile_qr_scan"}, "is_reserved": 0, "is_disabled": 0, "type": "electric_scooter", "bike_id": "a58a187e11b84216b9d9952da5205583"}, {"lon": -77.03856416666666, "lat": 38.9320065, "name": "c3eeafe3652d6d6dcd120188e12de6ff", "fusion_lat": 0.0, "fusion_lon": 0.0, "rental_uris": {"android": "https://dc.lft.to/lastmile_qr_scan", "ios": "https://dc.lft.to/lastmile_qr_scan"}, "is_reserved": 0, "is_disabled": 0, "type": "electric_scooter", "bike_id": "c3eeafe3652d6d6dcd120188e12de6ff"}, {"lon": -77.02350016666666, "lat": 38.92276316666667, "name": "6abb3e2040e0d6d538eeea115ef3552b", "fusion_lat": 0.0, "fusion_lon": 0.0, "rental_uris": {"android": "https://dc.lft.to/lastmile_qr_scan", "ios": "https://dc.lft.to/lastmile_qr_scan"}, "is_reserved": 0, "is_disabled": 0, "type": "electric_scooter", "bike_id": "6abb3e2040e0d6d538eeea115ef3552b"}, {"lon": -77.06780266666667, "lat": 38.952092666666665, "name": "52706eae0f4e867f540d1b6050afca1a", "fusion_lat": 0.0, "fusion_lon": 0.0, "rental_uris": {"android": "https://dc.lft.to/lastmile_qr_scan", "ios": "https://dc.lft.to/lastmile_qr_scan"}, "is_reserved": 0, "is_disabled": 0, "type": "electric_scooter", "bike_id": "52706eae0f4e867f540d1b6050afca1a"}, {"lon": -77.0321665, "lat": 38.9199885, "name": "e3e11605bc546eaf37a27fd45397308f", "fusion_lat": 0.0, "fusion_lon": 0.0, "rental_uris": {"android": "https://dc.lft.to/lastmile_qr_scan", "ios": "https://dc.lft.to/lastmile_qr_scan"}, "is_reserved": 0, "is_disabled": 0, "type": "electric_scooter", "bike_id": "e3e11605bc546eaf37a27fd45397308f"}, {"lon": -77.03819866666667, "lat": 38.92056866666667, "name": "b0b50a1d691a0385816a9a3c9f387b76", "fusion_lat": 0.0, "fusion_lon": 0.0, "rental_uris": {"android": "https://dc.lft.to/lastmile_qr_scan", "ios": "https://dc.lft.to/lastmile_qr_scan"}, "is_reserved": 0, "is_disabled": 0, "type": "electric_scooter", "bike_id": "b0b50a1d691a0385816a9a3c9f387b76"}, {"lon": -77.03062716666666, "lat": 38.92250266666667, "name": "a0b7ca7c921f2c8dfffda4a7ef3659cd", "fusion_lat": 0.0, "fusion_lon": 0.0, "rental_uris": {"android": "https://dc.lft.to/lastmile_qr_scan", "ios": "https://dc.lft.to/lastmile_qr_scan"}, "is_reserved": 0, "is_disabled": 0, "type": "electric_scooter", "bike_id": "a0b7ca7c921f2c8dfffda4a7ef3659cd"}, {"lon": -77.0444665, "lat": 38.9187785, "name": "db4fa5910e94064b635337ad8617d39e", "fusion_lat": 0.0, "fusion_lon": 0.0, "rental_uris": {"android": "https://dc.lft.to/lastmile_qr_scan", "ios": "https://dc.lft.to/lastmile_qr_scan"}, "is_reserved": 0, "is_disabled": 0, "type": "electric_scooter", "bike_id": "db4fa5910e94064b635337ad8617d39e"}, {"lon": -77.095233, "lat": 38.83810733333333, "name": "998e1691ad9e8eb53bfa46354fc160f6", "fusion_lat": 0.0, "fusion_lon": 0.0, "rental_uris": {"android": "https://dc.lft.to/lastmile_qr_scan", "ios": "https://dc.lft.to/lastmile_qr_scan"}, "is_reserved": 0, "is_disabled": 0, "type": "electric_bike", "bike_id": "998e1691ad9e8eb53bfa46354fc160f6"}, {"lon": -77.05587833333334, "lat": 38.92777016666667, "name": "9321e0635bc2857e1d8e6d76a0b1ebc7", "fusion_lat": 0.0, "fusion_lon": 0.0, "rental_uris": {"android": "https://dc.lft.to/lastmile_qr_scan", "ios": "https://dc.lft.to/lastmile_qr_scan"}, "is_reserved": 0, "is_disabled": 0, "type": "electric_scooter", "bike_id": "9321e0635bc2857e1d8e6d76a0b1ebc7"}, {"lon": -77.04379116666667, "lat": 38.89219216666667, "name": "5e3b1e1368102ba7957db08955a9ce67", "fusion_lat": 0.0, "fusion_lon": 0.0, "rental_uris": {"android": "https://dc.lft.to/lastmile_qr_scan", "ios": "https://dc.lft.to/lastmile_qr_scan"}, "is_reserved": 0, "is_disabled": 0, "type": "electric_scooter", "bike_id": "5e3b1e1368102ba7957db08955a9ce67"}, {"lon": -77.07562883333334, "lat": 38.9208975, "name": "4cf3c2ca854a22b0860068291400d798", "fusion_lat": 0.0, "fusion_lon": 0.0, "rental_uris": {"android": "https://dc.lft.to/lastmile_qr_scan", "ios": "https://dc.lft.to/lastmile_qr_scan"}, "is_reserved": 0, "is_disabled": 0, "type": "electric_scooter", "bike_id": "4cf3c2ca854a22b0860068291400d798"}, {"lon": -77.02844516666667, "lat": 38.8934515, "name": "0112e47952aec4aca1933522f4dadc55", "fusion_lat": 0.0, "fusion_lon": 0.0, "rental_uris": {"android": "https://dc.lft.to/lastmile_qr_scan", "ios": "https://dc.lft.to/lastmile_qr_scan"}, "is_reserved": 0, "is_disabled": 0, "type": "electric_scooter", "bike_id": "0112e47952aec4aca1933522f4dadc55"}, {"lon": -77.03187666666666, "lat": 38.91903416666667, "name": "1083605602766717c541a005b0943939", "fusion_lat": 0.0, "fusion_lon": 0.0, "rental_uris": {"android": "https://dc.lft.to/lastmile_qr_scan", "ios": "https://dc.lft.to/lastmile_qr_scan"}, "is_reserved": 0, "is_disabled": 0, "type": "electric_scooter", "bike_id": "1083605602766717c541a005b0943939"}, {"lon": -76.958192, "lat": 38.890557333333334, "name": "dd4bb66976b390092ed3a601b4cd9b96", "fusion_lat": 0.0, "fusion_lon": 0.0, "rental_uris": {"android": "https://dc.lft.to/lastmile_qr_scan", "ios": "https://dc.lft.to/lastmile_qr_scan"}, "is_reserved": 0, "is_disabled": 0, "type": "electric_scooter", "bike_id": "dd4bb66976b390092ed3a601b4cd9b96"}, {"lon": -77.03351633333334, "lat": 38.88511833333333, "name": "5d0927c3623e3ffdf811b05750a7bd50", "fusion_lat": 0.0, "fusion_lon": 0.0, "rental_uris": {"android": "https://dc.lft.to/lastmile_qr_scan", "ios": "https://dc.lft.to/lastmile_qr_scan"}, "is_reserved": 0, "is_disabled": 0, "type": "electric_scooter", "bike_id": "5d0927c3623e3ffdf811b05750a7bd50"}, {"lon": -77.03847083333334, "lat": 38.9108655, "name": "0630e28a46629cb1841cf8f25ff7f785", "fusion_lat": 0.0, "fusion_lon": 0.0, "rental_uris": {"android": "https://dc.lft.to/lastmile_qr_scan", "ios": "https://dc.lft.to/lastmile_qr_scan"}, "is_reserved": 0, "is_disabled": 0, "type": "electric_scooter", "bike_id": "0630e28a46629cb1841cf8f25ff7f785"}, {"lon": -77.045231, "lat": 38.90972, "name": "66481e5dbb62cf74f1f0fc44ae0e0d90", "fusion_lat": 0.0, "fusion_lon": 0.0, "rental_uris": {"android": "https://dc.lft.to/lastmile_qr_scan", "ios": "https://dc.lft.to/lastmile_qr_scan"}, "is_reserved": 0, "is_disabled": 0, "type": "electric_scooter", "bike_id": "66481e5dbb62cf74f1f0fc44ae0e0d90"}, {"lon": -77.02388733333333, "lat": 38.933842, "name": "ddb9fbbd793f7115b51266748b99e667", "fusion_lat": 0.0, "fusion_lon": 0.0, "rental_uris": {"android": "https://dc.lft.to/lastmile_qr_scan", "ios": "https://dc.lft.to/lastmile_qr_scan"}, "is_reserved": 0, "is_disabled": 0, "type": "electric_bike", "bike_id": "ddb9fbbd793f7115b51266748b99e667"}, {"lon": -77.03190333333333, "lat": 38.90845933333333, "name": "94e01a2fa8d23259441179f22ed365d2", "fusion_lat": 0.0, "fusion_lon": 0.0, "rental_uris": {"android": "https://dc.lft.to/lastmile_qr_scan", "ios": "https://dc.lft.to/lastmile_qr_scan"}, "is_reserved": 0, "is_disabled": 0, "type": "electric_scooter", "bike_id": "94e01a2fa8d23259441179f22ed365d2"}, {"lon": -76.99336866666667, "lat": 38.96194933333334, "name": "151b7d943b30a4af9e6421966f415800", "fusion_lat": 0.0, "fusion_lon": 0.0, "rental_uris": {"android": "https://dc.lft.to/lastmile_qr_scan", "ios": "https://dc.lft.to/lastmile_qr_scan"}, "is_reserved": 0, "is_disabled": 0, "type": "electric_bike", "bike_id": "151b7d943b30a4af9e6421966f415800"}, {"lon": -77.0420945, "lat": 38.923176, "name": "c93a5177f7f6ca8a7af6e79b51f563fd", "fusion_lat": 0.0, "fusion_lon": 0.0, "rental_uris": {"android": "https://dc.lft.to/lastmile_qr_scan", "ios": "https://dc.lft.to/lastmile_qr_scan"}, "is_reserved": 0, "is_disabled": 0, "type": "electric_scooter", "bike_id": "c93a5177f7f6ca8a7af6e79b51f563fd"}, {"lon": -77.0271635, "lat": 38.89947166666666, "name": "77a44d94ffd0edb8fa6d382dd695c703", "fusion_lat": 0.0, "fusion_lon": 0.0, "rental_uris": {"android": "https://dc.lft.to/lastmile_qr_scan", "ios": "https://dc.lft.to/lastmile_qr_scan"}, "is_reserved": 0, "is_disabled": 0, "type": "electric_scooter", "bike_id": "77a44d94ffd0edb8fa6d382dd695c703"}, {"lon": -77.0664205, "lat": 38.913815166666666, "name": "b6472b58145ffcd3b7f0fde8d4c779d8", "fusion_lat": 0.0, "fusion_lon": 0.0, "rental_uris": {"android": "https://dc.lft.to/lastmile_qr_scan", "ios": "https://dc.lft.to/lastmile_qr_scan"}, "is_reserved": 0, "is_disabled": 0, "type": "electric_scooter", "bike_id": "b6472b58145ffcd3b7f0fde8d4c779d8"}, {"lon": -77.018689, "lat": 38.948937666666666, "name": "278d70ae73ff6b0efd00bd781632efcb", "fusion_lat": 0.0, "fusion_lon": 0.0, "rental_uris": {"android": "https://dc.lft.to/lastmile_qr_scan", "ios": "https://dc.lft.to/lastmile_qr_scan"}, "is_reserved": 0, "is_disabled": 0, "type": "electric_scooter", "bike_id": "278d70ae73ff6b0efd00bd781632efcb"}, {"lon": -77.02929133333333, "lat": 38.882208166666665, "name": "315c2ee2d579abec41b275c0ce38a7af", "fusion_lat": 0.0, "fusion_lon": 0.0, "rental_uris": {"android": "https://dc.lft.to/lastmile_qr_scan", "ios": "https://dc.lft.to/lastmile_qr_scan"}, "is_reserved": 0, "is_disabled": 0, "type": "electric_scooter", "bike_id": "315c2ee2d579abec41b275c0ce38a7af"}, {"lon": -77.055681, "lat": 38.899897833333334, "name": "9b29be265dc031f662cf230e11a58831", "fusion_lat": 0.0, "fusion_lon": 0.0, "rental_uris": {"android": "https://dc.lft.to/lastmile_qr_scan", "ios": "https://dc.lft.to/lastmile_qr_scan"}, "is_reserved": 0, "is_disabled": 0, "type": "electric_scooter", "bike_id": "9b29be265dc031f662cf230e11a58831"}, {"lon": -77.034958, "lat": 38.91711516666667, "name": "cf1a02184d198b3bca8a8e31c4a5b27c", "fusion_lat": 0.0, "fusion_lon": 0.0, "rental_uris": {"android": "https://dc.lft.to/lastmile_qr_scan", "ios": "https://dc.lft.to/lastmile_qr_scan"}, "is_reserved": 0, "is_disabled": 0, "type": "electric_scooter", "bike_id": "cf1a02184d198b3bca8a8e31c4a5b27c"}, {"lon": -77.0331935, "lat": 38.89883016666667, "name": "88c301a2e7fd543bdffb69ad2c46cee4", "fusion_lat": 0.0, "fusion_lon": 0.0, "rental_uris": {"android": "https://dc.lft.to/lastmile_qr_scan", "ios": "https://dc.lft.to/lastmile_qr_scan"}, "is_reserved": 0, "is_disabled": 0, "type": "electric_scooter", "bike_id": "88c301a2e7fd543bdffb69ad2c46cee4"}, {"lon": -76.9916405, "lat": 38.8921005, "name": "5158d7e2c75e2f71ff077873e18f8b0e", "fusion_lat": 0.0, "fusion_lon": 0.0, "rental_uris": {"android": "https://dc.lft.to/lastmile_qr_scan", "ios": "https://dc.lft.to/lastmile_qr_scan"}, "is_reserved": 0, "is_disabled": 0, "type": "electric_scooter", "bike_id": "5158d7e2c75e2f71ff077873e18f8b0e"}, {"lon": -77.04606766666667, "lat": 38.90271716666667, "name": "e7201c22151f21ebb71b12df7f55dd08", "fusion_lat": 0.0, "fusion_lon": 0.0, "rental_uris": {"android": "https://dc.lft.to/lastmile_qr_scan", "ios": "https://dc.lft.to/lastmile_qr_scan"}, "is_reserved": 0, "is_disabled": 0, "type": "electric_scooter", "bike_id": "e7201c22151f21ebb71b12df7f55dd08"}, {"lon": -77.026731, "lat": 38.997559833333334, "name": "8c312a802c61313c190a0d9f3fbaef9f", "fusion_lat": 0.0, "fusion_lon": 0.0, "rental_uris": {"android": "https://dc.lft.to/lastmile_qr_scan", "ios": "https://dc.lft.to/lastmile_qr_scan"}, "is_reserved": 0, "is_disabled": 0, "type": "electric_bike", "bike_id": "8c312a802c61313c190a0d9f3fbaef9f"}, {"lon": -77.0368975, "lat": 38.91677216666667, "name": "3907e941297f08ce9d313c4a36cbd845", "fusion_lat": 0.0, "fusion_lon": 0.0, "rental_uris": {"android": "https://dc.lft.to/lastmile_qr_scan", "ios": "https://dc.lft.to/lastmile_qr_scan"}, "is_reserved": 0, "is_disabled": 0, "type": "electric_scooter", "bike_id": "3907e941297f08ce9d313c4a36cbd845"}, {"lon": -77.020071, "lat": 38.902378666666664, "name": "2376f8b2eb21c5372d3bef6ab7968b56", "fusion_lat": 0.0, "fusion_lon": 0.0, "rental_uris": {"android": "https://dc.lft.to/lastmile_qr_scan", "ios": "https://dc.lft.to/lastmile_qr_scan"}, "is_reserved": 0, "is_disabled": 0, "type": "electric_scooter", "bike_id": "2376f8b2eb21c5372d3bef6ab7968b56"}, {"lon": -77.043955, "lat": 38.910819833333335, "name": "f7eefdb6d035af856bba49bece8626c9", "fusion_lat": 0.0, "fusion_lon": 0.0, "rental_uris": {"android": "https://dc.lft.to/lastmile_qr_scan", "ios": "https://dc.lft.to/lastmile_qr_scan"}, "is_reserved": 0, "is_disabled": 0, "type": "electric_scooter", "bike_id": "f7eefdb6d035af856bba49bece8626c9"}, {"lon": -77.069112, "lat": 38.90750533333333, "name": "62ddd74c98eb9ce4257d185f5dc412b4", "fusion_lat": 0.0, "fusion_lon": 0.0, "rental_uris": {"android": "https://dc.lft.to/lastmile_qr_scan", "ios": "https://dc.lft.to/lastmile_qr_scan"}, "is_reserved": 0, "is_disabled": 0, "type": "electric_scooter", "bike_id": "62ddd74c98eb9ce4257d185f5dc412b4"}, {"lon": -77.1072375, "lat": 38.855388, "name": "1fec23877b95efaf2167fdcfe602ac75", "fusion_lat": 0.0, "fusion_lon": 0.0, "rental_uris": {"android": "https://dc.lft.to/lastmile_qr_scan", "ios": "https://dc.lft.to/lastmile_qr_scan"}, "is_reserved": 0, "is_disabled": 0, "type": "electric_bike", "bike_id": "1fec23877b95efaf2167fdcfe602ac75"}, {"lon": -77.06606016666667, "lat": 38.90526166666667, "name": "bf2e6cf3be1c2491182fe318bfb30518", "fusion_lat": 0.0, "fusion_lon": 0.0, "rental_uris": {"android": "https://dc.lft.to/lastmile_qr_scan", "ios": "https://dc.lft.to/lastmile_qr_scan"}, "is_reserved": 0, "is_disabled": 0, "type": "electric_scooter", "bike_id": "bf2e6cf3be1c2491182fe318bfb30518"}, {"lon": -76.94875416666666, "lat": 38.889591833333334, "name": "0d0be70b98e84a3ecc1c9a6c7ec3011d", "fusion_lat": 0.0, "fusion_lon": 0.0, "rental_uris": {"android": "https://dc.lft.to/lastmile_qr_scan", "ios": "https://dc.lft.to/lastmile_qr_scan"}, "is_reserved": 0, "is_disabled": 0, "type": "electric_bike", "bike_id": "0d0be70b98e84a3ecc1c9a6c7ec3011d"}, {"lon": -76.98174266666666, "lat": 38.900409, "name": "936c1c727d3ec5a6c65c878b687da08d", "fusion_lat": 0.0, "fusion_lon": 0.0, "rental_uris": {"android": "https://dc.lft.to/lastmile_qr_scan", "ios": "https://dc.lft.to/lastmile_qr_scan"}, "is_reserved": 0, "is_disabled": 0, "type": "electric_scooter", "bike_id": "936c1c727d3ec5a6c65c878b687da08d"}, {"lon": -77.10719083333333, "lat": 38.8557345, "name": "dbb4ece891aa34b7afc14f284301ddb5", "fusion_lat": 0.0, "fusion_lon": 0.0, "rental_uris": {"android": "https://dc.lft.to/lastmile_qr_scan", "ios": "https://dc.lft.to/lastmile_qr_scan"}, "is_reserved": 0, "is_disabled": 0, "type": "electric_bike", "bike_id": "dbb4ece891aa34b7afc14f284301ddb5"}, {"lon": -77.0214115, "lat": 38.948084333333334, "name": "c766f18da115d709422945eac4104c20", "fusion_lat": 0.0, "fusion_lon": 0.0, "rental_uris": {"android": "https://dc.lft.to/lastmile_qr_scan", "ios": "https://dc.lft.to/lastmile_qr_scan"}, "is_reserved": 0, "is_disabled": 0, "type": "electric_bike", "bike_id": "c766f18da115d709422945eac4104c20"}, {"lon": -77.037852, "lat": 38.9262535, "name": "b2ed3489ae22fb24e2457e77d2c85acf", "fusion_lat": 0.0, "fusion_lon": 0.0, "rental_uris": {"android": "https://dc.lft.to/lastmile_qr_scan", "ios": "https://dc.lft.to/lastmile_qr_scan"}, "is_reserved": 0, "is_disabled": 0, "type": "electric_scooter", "bike_id": "b2ed3489ae22fb24e2457e77d2c85acf"}, {"lon": -76.87816183333334, "lat": 38.99249233333333, "name": "087b8bc4dfb5c22bce51a339c4508559", "fusion_lat": 0.0, "fusion_lon": 0.0, "rental_uris": {"android": "https://dc.lft.to/lastmile_qr_scan", "ios": "https://dc.lft.to/lastmile_qr_scan"}, "is_reserved": 0, "is_disabled": 0, "type": "electric_bike", "bike_id": "087b8bc4dfb5c22bce51a339c4508559"}, {"lon": -77.05532983333333, "lat": 38.89925016666667, "name": "2ce230db1828aa3e6beaf0ee266afdb9", "fusion_lat": 0.0, "fusion_lon": 0.0, "rental_uris": {"android": "https://dc.lft.to/lastmile_qr_scan", "ios": "https://dc.lft.to/lastmile_qr_scan"}, "is_reserved": 0, "is_disabled": 0, "type": "electric_scooter", "bike_id": "2ce230db1828aa3e6beaf0ee266afdb9"}, {"lon": -76.97744116666667, "lat": 38.90007966666667, "name": "5734c27ddab36e069fd210fea4bc9bd0", "fusion_lat": 0.0, "fusion_lon": 0.0, "rental_uris": {"android": "https://dc.lft.to/lastmile_qr_scan", "ios": "https://dc.lft.to/lastmile_qr_scan"}, "is_reserved": 0, "is_disabled": 0, "type": "electric_scooter", "bike_id": "5734c27ddab36e069fd210fea4bc9bd0"}, {"lon": -77.03320683333334, "lat": 38.9141645, "name": "436f284fa9026fca7fea35ebf5b799a6", "fusion_lat": 0.0, "fusion_lon": 0.0, "rental_uris": {"android": "https://dc.lft.to/lastmile_qr_scan", "ios": "https://dc.lft.to/lastmile_qr_scan"}, "is_reserved": 0, "is_disabled": 0, "type": "electric_scooter", "bike_id": "436f284fa9026fca7fea35ebf5b799a6"}, {"lon": -77.013896, "lat": 38.928479333333335, "name": "fdf4757203f8229d518a09ed92948691", "fusion_lat": 0.0, "fusion_lon": 0.0, "rental_uris": {"android": "https://dc.lft.to/lastmile_qr_scan", "ios": "https://dc.lft.to/lastmile_qr_scan"}, "is_reserved": 0, "is_disabled": 0, "type": "electric_scooter", "bike_id": "fdf4757203f8229d518a09ed92948691"}, {"lon": -76.96551866666667, "lat": 38.95098516666667, "name": "3bfd4a408bc3e86c0c75b7db190d2b61", "fusion_lat": 0.0, "fusion_lon": 0.0, "rental_uris": {"android": "https://dc.lft.to/lastmile_qr_scan", "ios": "https://dc.lft.to/lastmile_qr_scan"}, "is_reserved": 0, "is_disabled": 0, "type": "electric_bike", "bike_id": "3bfd4a408bc3e86c0c75b7db190d2b61"}, {"lon": -77.02187966666666, "lat": 38.90984133333333, "name": "33456ae40fecba517779aff42f667420", "fusion_lat": 0.0, "fusion_lon": 0.0, "rental_uris": {"android": "https://dc.lft.to/lastmile_qr_scan", "ios": "https://dc.lft.to/lastmile_qr_scan"}, "is_reserved": 0, "is_disabled": 0, "type": "electric_scooter", "bike_id": "33456ae40fecba517779aff42f667420"}, {"lon": -77.0026365, "lat": 38.8774985, "name": "72f1adc630726df62b5b7c4675553cd9", "fusion_lat": 0.0, "fusion_lon": 0.0, "rental_uris": {"android": "https://dc.lft.to/lastmile_qr_scan", "ios": "https://dc.lft.to/lastmile_qr_scan"}, "is_reserved": 0, "is_disabled": 0, "type": "electric_scooter", "bike_id": "72f1adc630726df62b5b7c4675553cd9"}, {"lon": -77.00213, "lat": 38.90475716666667, "name": "89adf3088d3c4b2b2b6cf85d72df6652", "fusion_lat": 0.0, "fusion_lon": 0.0, "rental_uris": {"android": "https://dc.lft.to/lastmile_qr_scan", "ios": "https://dc.lft.to/lastmile_qr_scan"}, "is_reserved": 0, "is_disabled": 0, "type": "electric_scooter", "bike_id": "89adf3088d3c4b2b2b6cf85d72df6652"}, {"lon": -77.03346516666667, "lat": 38.91102, "name": "e954a0ee15dce9afe10f692572b38fbf", "fusion_lat": 0.0, "fusion_lon": 0.0, "rental_uris": {"android": "https://dc.lft.to/lastmile_qr_scan", "ios": "https://dc.lft.to/lastmile_qr_scan"}, "is_reserved": 0, "is_disabled": 0, "type": "electric_scooter", "bike_id": "e954a0ee15dce9afe10f692572b38fbf"}, {"lon": -77.01232433333334, "lat": 38.9003295, "name": "5f4ef8243368df61f9e3c45e4152ee7e", "fusion_lat": 0.0, "fusion_lon": 0.0, "rental_uris": {"android": "https://dc.lft.to/lastmile_qr_scan", "ios": "https://dc.lft.to/lastmile_qr_scan"}, "is_reserved": 0, "is_disabled": 0, "type": "electric_scooter", "bike_id": "5f4ef8243368df61f9e3c45e4152ee7e"}, {"lon": -77.01520316666667, "lat": 38.918713333333336, "name": "1ed246de55ceb9a2689341c195488360", "fusion_lat": 0.0, "fusion_lon": 0.0, "rental_uris": {"android": "https://dc.lft.to/lastmile_qr_scan", "ios": "https://dc.lft.to/lastmile_qr_scan"}, "is_reserved": 0, "is_disabled": 0, "type": "electric_scooter", "bike_id": "1ed246de55ceb9a2689341c195488360"}, {"lon": -77.0222325, "lat": 38.88625183333333, "name": "fed3501a5206024b41c60e25d994d2d9", "fusion_lat": 0.0, "fusion_lon": 0.0, "rental_uris": {"android": "https://dc.lft.to/lastmile_qr_scan", "ios": "https://dc.lft.to/lastmile_qr_scan"}, "is_reserved": 0, "is_disabled": 0, "type": "electric_bike", "bike_id": "fed3501a5206024b41c60e25d994d2d9"}, {"lon": -77.00101816666667, "lat": 38.8737235, "name": "fb535a20c3a72cd21c5f6d8b472bd14d", "fusion_lat": 0.0, "fusion_lon": 0.0, "rental_uris": {"android": "https://dc.lft.to/lastmile_qr_scan", "ios": "https://dc.lft.to/lastmile_qr_scan"}, "is_reserved": 0, "is_disabled": 0, "type": "electric_scooter", "bike_id": "fb535a20c3a72cd21c5f6d8b472bd14d"}, {"lon": -76.97610283333333, "lat": 38.91306266666667, "name": "5e4a5ad5632227eb17d28d8d66d2568a", "fusion_lat": 0.0, "fusion_lon": 0.0, "rental_uris": {"android": "https://dc.lft.to/lastmile_qr_scan", "ios": "https://dc.lft.to/lastmile_qr_scan"}, "is_reserved": 0, "is_disabled": 0, "type": "electric_bike", "bike_id": "5e4a5ad5632227eb17d28d8d66d2568a"}, {"lon": -77.0438955, "lat": 38.92280566666667, "name": "93e5d6b3580c8ea4005a3925f262b51c", "fusion_lat": 0.0, "fusion_lon": 0.0, "rental_uris": {"android": "https://dc.lft.to/lastmile_qr_scan", "ios": "https://dc.lft.to/lastmile_qr_scan"}, "is_reserved": 0, "is_disabled": 0, "type": "electric_scooter", "bike_id": "93e5d6b3580c8ea4005a3925f262b51c"}, {"lon": -77.02403566666666, "lat": 38.88740416666667, "name": "6f948a550f772fb1c327a9f4dfc04508", "fusion_lat": 0.0, "fusion_lon": 0.0, "rental_uris": {"android": "https://dc.lft.to/lastmile_qr_scan", "ios": "https://dc.lft.to/lastmile_qr_scan"}, "is_reserved": 0, "is_disabled": 0, "type": "electric_scooter", "bike_id": "6f948a550f772fb1c327a9f4dfc04508"}, {"lon": -76.97190333333333, "lat": 38.91265966666667, "name": "c870b0c5ac8c3342f525375503e72b90", "fusion_lat": 0.0, "fusion_lon": 0.0, "rental_uris": {"android": "https://dc.lft.to/lastmile_qr_scan", "ios": "https://dc.lft.to/lastmile_qr_scan"}, "is_reserved": 0, "is_disabled": 0, "type": "electric_scooter", "bike_id": "c870b0c5ac8c3342f525375503e72b90"}, {"lon": -77.01072683333334, "lat": 38.87105, "name": "a41d81803b29cd74824edcafbf571049", "fusion_lat": 0.0, "fusion_lon": 0.0, "rental_uris": {"android": "https://dc.lft.to/lastmile_qr_scan", "ios": "https://dc.lft.to/lastmile_qr_scan"}, "is_reserved": 0, "is_disabled": 0, "type": "electric_scooter", "bike_id": "a41d81803b29cd74824edcafbf571049"}, {"lon": -77.01822066666666, "lat": 38.90811266666667, "name": "58d7b6c9b68ab3535c7b41708a22891d", "fusion_lat": 0.0, "fusion_lon": 0.0, "rental_uris": {"android": "https://dc.lft.to/lastmile_qr_scan", "ios": "https://dc.lft.to/lastmile_qr_scan"}, "is_reserved": 0, "is_disabled": 0, "type": "electric_scooter", "bike_id": "58d7b6c9b68ab3535c7b41708a22891d"}, {"lon": -76.99034133333333, "lat": 38.8587195, "name": "04f74de7a0185a55f5091cf21f780e67", "fusion_lat": 0.0, "fusion_lon": 0.0, "rental_uris": {"android": "https://dc.lft.to/lastmile_qr_scan", "ios": "https://dc.lft.to/lastmile_qr_scan"}, "is_reserved": 0, "is_disabled": 0, "type": "electric_scooter", "bike_id": "04f74de7a0185a55f5091cf21f780e67"}, {"lon": -77.02004666666667, "lat": 38.892467, "name": "a2689f565f4da0a5fcf7311ae0df6e1b", "fusion_lat": 0.0, "fusion_lon": 0.0, "rental_uris": {"android": "https://dc.lft.to/lastmile_qr_scan", "ios": "https://dc.lft.to/lastmile_qr_scan"}, "is_reserved": 0, "is_disabled": 0, "type": "electric_scooter", "bike_id": "a2689f565f4da0a5fcf7311ae0df6e1b"}, {"lon": -77.02319433333334, "lat": 38.887344666666664, "name": "a376f31f0fe22fce6ee4b6cee33de61d", "fusion_lat": 0.0, "fusion_lon": 0.0, "rental_uris": {"android": "https://dc.lft.to/lastmile_qr_scan", "ios": "https://dc.lft.to/lastmile_qr_scan"}, "is_reserved": 0, "is_disabled": 0, "type": "electric_scooter", "bike_id": "a376f31f0fe22fce6ee4b6cee33de61d"}, {"lon": -77.10923933333333, "lat": 39.052024, "name": "52aca64e153bba31d7c80cc5a1ef7d06", "fusion_lat": 0.0, "fusion_lon": 0.0, "rental_uris": {"android": "https://dc.lft.to/lastmile_qr_scan", "ios": "https://dc.lft.to/lastmile_qr_scan"}, "is_reserved": 0, "is_disabled": 0, "type": "electric_bike", "bike_id": "52aca64e153bba31d7c80cc5a1ef7d06"}, {"lon": -76.99504933333333, "lat": 38.88099283333333, "name": "362919279d62ffbb5ed00ef5db0f7fd4", "fusion_lat": 0.0, "fusion_lon": 0.0, "rental_uris": {"android": "https://dc.lft.to/lastmile_qr_scan", "ios": "https://dc.lft.to/lastmile_qr_scan"}, "is_reserved": 0, "is_disabled": 0, "type": "electric_scooter", "bike_id": "362919279d62ffbb5ed00ef5db0f7fd4"}, {"lon": -77.0191355, "lat": 38.902449, "name": "d1051cda015c6c6dc8d67dbc4a0d87eb", "fusion_lat": 0.0, "fusion_lon": 0.0, "rental_uris": {"android": "https://dc.lft.to/lastmile_qr_scan", "ios": "https://dc.lft.to/lastmile_qr_scan"}, "is_reserved": 0, "is_disabled": 0, "type": "electric_scooter", "bike_id": "d1051cda015c6c6dc8d67dbc4a0d87eb"}, {"lon": -77.05312683333334, "lat": 38.902919833333335, "name": "49e22bba4e006abcb33f62efda159b5f", "fusion_lat": 0.0, "fusion_lon": 0.0, "rental_uris": {"android": "https://dc.lft.to/lastmile_qr_scan", "ios": "https://dc.lft.to/lastmile_qr_scan"}, "is_reserved": 0, "is_disabled": 0, "type": "electric_scooter", "bike_id": "49e22bba4e006abcb33f62efda159b5f"}, {"lon": -77.0331735, "lat": 38.898914, "name": "4e7e153572470ce630d94688b6e67936", "fusion_lat": 0.0, "fusion_lon": 0.0, "rental_uris": {"android": "https://dc.lft.to/lastmile_qr_scan", "ios": "https://dc.lft.to/lastmile_qr_scan"}, "is_reserved": 0, "is_disabled": 0, "type": "electric_scooter", "bike_id": "4e7e153572470ce630d94688b6e67936"}, {"lon": -77.0021275, "lat": 38.902215, "name": "b4442c894b029c8ba25426e1c8d8fbc0", "fusion_lat": 0.0, "fusion_lon": 0.0, "rental_uris": {"android": "https://dc.lft.to/lastmile_qr_scan", "ios": "https://dc.lft.to/lastmile_qr_scan"}, "is_reserved": 0, "is_disabled": 0, "type": "electric_scooter", "bike_id": "b4442c894b029c8ba25426e1c8d8fbc0"}, {"lon": -77.04659866666667, "lat": 38.8933635, "name": "9974928d7489730cf5924fbb0ada1892", "fusion_lat": 0.0, "fusion_lon": 0.0, "rental_uris": {"android": "https://dc.lft.to/lastmile_qr_scan", "ios": "https://dc.lft.to/lastmile_qr_scan"}, "is_reserved": 0, "is_disabled": 0, "type": "electric_scooter", "bike_id": "9974928d7489730cf5924fbb0ada1892"}, {"lon": -77.0326055, "lat": 38.90406566666667, "name": "97263dfd171f9b6bc4d317fe424d5c77", "fusion_lat": 0.0, "fusion_lon": 0.0, "rental_uris": {"android": "https://dc.lft.to/lastmile_qr_scan", "ios": "https://dc.lft.to/lastmile_qr_scan"}, "is_reserved": 0, "is_disabled": 0, "type": "electric_scooter", "bike_id": "97263dfd171f9b6bc4d317fe424d5c77"}, {"lon": -76.93177883333334, "lat": 38.89877883333333, "name": "97c23db39b05d7674bd8abb3b0af7665", "fusion_lat": 0.0, "fusion_lon": 0.0, "rental_uris": {"android": "https://dc.lft.to/lastmile_qr_scan", "ios": "https://dc.lft.to/lastmile_qr_scan"}, "is_reserved": 0, "is_disabled": 0, "type": "electric_scooter", "bike_id": "97c23db39b05d7674bd8abb3b0af7665"}, {"lon": -77.03177483333333, "lat": 38.886249, "name": "a1705ad73d5eaa943e83b2e28b9cb881", "fusion_lat": 0.0, "fusion_lon": 0.0, "rental_uris": {"android": "https://dc.lft.to/lastmile_qr_scan", "ios": "https://dc.lft.to/lastmile_qr_scan"}, "is_reserved": 0, "is_disabled": 0, "type": "electric_scooter", "bike_id": "a1705ad73d5eaa943e83b2e28b9cb881"}, {"lon": -76.95531066666666, "lat": 38.88870633333333, "name": "38bb202886318ff992083cbd9886bc31", "fusion_lat": 0.0, "fusion_lon": 0.0, "rental_uris": {"android": "https://dc.lft.to/lastmile_qr_scan", "ios": "https://dc.lft.to/lastmile_qr_scan"}, "is_reserved": 0, "is_disabled": 0, "type": "electric_scooter", "bike_id": "38bb202886318ff992083cbd9886bc31"}, {"lon": -77.03171216666667, "lat": 38.89356316666667, "name": "33d7c05291d3973bbd3682a46ec64d36", "fusion_lat": 0.0, "fusion_lon": 0.0, "rental_uris": {"android": "https://dc.lft.to/lastmile_qr_scan", "ios": "https://dc.lft.to/lastmile_qr_scan"}, "is_reserved": 0, "is_disabled": 0, "type": "electric_scooter", "bike_id": "33d7c05291d3973bbd3682a46ec64d36"}, {"lon": -77.023824, "lat": 38.9115755, "name": "f84770685bbe6fa447e36139ed35e673", "fusion_lat": 0.0, "fusion_lon": 0.0, "rental_uris": {"android": "https://dc.lft.to/lastmile_qr_scan", "ios": "https://dc.lft.to/lastmile_qr_scan"}, "is_reserved": 0, "is_disabled": 0, "type": "electric_scooter", "bike_id": "f84770685bbe6fa447e36139ed35e673"}, {"lon": -77.02994383333333, "lat": 38.89980333333333, "name": "1e5f4be5302ad1e47fa27d42d0d213e8", "fusion_lat": 0.0, "fusion_lon": 0.0, "rental_uris": {"android": "https://dc.lft.to/lastmile_qr_scan", "ios": "https://dc.lft.to/lastmile_qr_scan"}, "is_reserved": 0, "is_disabled": 0, "type": "electric_scooter", "bike_id": "1e5f4be5302ad1e47fa27d42d0d213e8"}, {"lon": -77.034392, "lat": 38.90725883333333, "name": "5a69cd25f2dcf1c33308b076f2628aea", "fusion_lat": 0.0, "fusion_lon": 0.0, "rental_uris": {"android": "https://dc.lft.to/lastmile_qr_scan", "ios": "https://dc.lft.to/lastmile_qr_scan"}, "is_reserved": 0, "is_disabled": 0, "type": "electric_scooter", "bike_id": "5a69cd25f2dcf1c33308b076f2628aea"}, {"lon": -77.03015933333333, "lat": 38.93485183333333, "name": "ed5b6a8041be8bc55e490deb22b1e752", "fusion_lat": 0.0, "fusion_lon": 0.0, "rental_uris": {"android": "https://dc.lft.to/lastmile_qr_scan", "ios": "https://dc.lft.to/lastmile_qr_scan"}, "is_reserved": 0, "is_disabled": 0, "type": "electric_bike", "bike_id": "ed5b6a8041be8bc55e490deb22b1e752"}, {"lon": -77.033534, "lat": 38.88756683333333, "name": "65e0b17ad2f9032d458486dfbb05fdad", "fusion_lat": 0.0, "fusion_lon": 0.0, "rental_uris": {"android": "https://dc.lft.to/lastmile_qr_scan", "ios": "https://dc.lft.to/lastmile_qr_scan"}, "is_reserved": 0, "is_disabled": 0, "type": "electric_scooter", "bike_id": "65e0b17ad2f9032d458486dfbb05fdad"}, {"lon": -77.06402183333333, "lat": 38.84347483333333, "name": "f4cdf917642b48ac874b7baeaa8efad8", "fusion_lat": 0.0, "fusion_lon": 0.0, "rental_uris": {"android": "https://dc.lft.to/lastmile_qr_scan", "ios": "https://dc.lft.to/lastmile_qr_scan"}, "is_reserved": 0, "is_disabled": 0, "type": "electric_bike", "bike_id": "f4cdf917642b48ac874b7baeaa8efad8"}, {"lon": -77.03493366666666, "lat": 38.917113666666665, "name": "b5151ac9149eaa4e361f998920a7ce88", "fusion_lat": 0.0, "fusion_lon": 0.0, "rental_uris": {"android": "https://dc.lft.to/lastmile_qr_scan", "ios": "https://dc.lft.to/lastmile_qr_scan"}, "is_reserved": 0, "is_disabled": 0, "type": "electric_scooter", "bike_id": "b5151ac9149eaa4e361f998920a7ce88"}, {"lon": -77.043477, "lat": 38.9049395, "name": "44cdebef76a9c8a15779cc31a7385126", "fusion_lat": 0.0, "fusion_lon": 0.0, "rental_uris": {"android": "https://dc.lft.to/lastmile_qr_scan", "ios": "https://dc.lft.to/lastmile_qr_scan"}, "is_reserved": 0, "is_disabled": 0, "type": "electric_scooter", "bike_id": "44cdebef76a9c8a15779cc31a7385126"}, {"lon": -77.0282495, "lat": 38.91025966666667, "name": "27b86f6eaf18e196b4ddbda13556ad23", "fusion_lat": 0.0, "fusion_lon": 0.0, "rental_uris": {"android": "https://dc.lft.to/lastmile_qr_scan", "ios": "https://dc.lft.to/lastmile_qr_scan"}, "is_reserved": 0, "is_disabled": 0, "type": "electric_scooter", "bike_id": "27b86f6eaf18e196b4ddbda13556ad23"}, {"lon": -77.03220666666667, "lat": 38.90014816666667, "name": "8da0d343a5495d27ac07ef334633aced", "fusion_lat": 0.0, "fusion_lon": 0.0, "rental_uris": {"android": "https://dc.lft.to/lastmile_qr_scan", "ios": "https://dc.lft.to/lastmile_qr_scan"}, "is_reserved": 0, "is_disabled": 0, "type": "electric_scooter", "bike_id": "8da0d343a5495d27ac07ef334633aced"}, {"lon": -77.03836866666667, "lat": 38.907764666666665, "name": "427c8f202ad4066b0563e4e33b0b404b", "fusion_lat": 0.0, "fusion_lon": 0.0, "rental_uris": {"android": "https://dc.lft.to/lastmile_qr_scan", "ios": "https://dc.lft.to/lastmile_qr_scan"}, "is_reserved": 0, "is_disabled": 0, "type": "electric_scooter", "bike_id": "427c8f202ad4066b0563e4e33b0b404b"}, {"lon": -77.03336316666666, "lat": 38.898378, "name": "45efdebf611d51690f6b085a67a0c7bb", "fusion_lat": 0.0, "fusion_lon": 0.0, "rental_uris": {"android": "https://dc.lft.to/lastmile_qr_scan", "ios": "https://dc.lft.to/lastmile_qr_scan"}, "is_reserved": 0, "is_disabled": 0, "type": "electric_scooter", "bike_id": "45efdebf611d51690f6b085a67a0c7bb"}, {"lon": -77.02703233333334, "lat": 38.909440333333336, "name": "14ff663278f45526af6e507c32b98b11", "fusion_lat": 0.0, "fusion_lon": 0.0, "rental_uris": {"android": "https://dc.lft.to/lastmile_qr_scan", "ios": "https://dc.lft.to/lastmile_qr_scan"}, "is_reserved": 0, "is_disabled": 0, "type": "electric_scooter", "bike_id": "14ff663278f45526af6e507c32b98b11"}, {"lon": -77.0270635, "lat": 38.8997875, "name": "c73d0f772f67239860877df6acfb4d33", "fusion_lat": 0.0, "fusion_lon": 0.0, "rental_uris": {"android": "https://dc.lft.to/lastmile_qr_scan", "ios": "https://dc.lft.to/lastmile_qr_scan"}, "is_reserved": 0, "is_disabled": 0, "type": "electric_scooter", "bike_id": "c73d0f772f67239860877df6acfb4d33"}, {"lon": -77.0265495, "lat": 38.88119616666667, "name": "f4eb8e72f28b75b679d8532f9accc271", "fusion_lat": 0.0, "fusion_lon": 0.0, "rental_uris": {"android": "https://dc.lft.to/lastmile_qr_scan", "ios": "https://dc.lft.to/lastmile_qr_scan"}, "is_reserved": 0, "is_disabled": 0, "type": "electric_scooter", "bike_id": "f4eb8e72f28b75b679d8532f9accc271"}, {"lon": -76.98347766666667, "lat": 38.91541933333333, "name": "47237960da7ffd816badd442e19bf656", "fusion_lat": 0.0, "fusion_lon": 0.0, "rental_uris": {"android": "https://dc.lft.to/lastmile_qr_scan", "ios": "https://dc.lft.to/lastmile_qr_scan"}, "is_reserved": 0, "is_disabled": 0, "type": "electric_scooter", "bike_id": "47237960da7ffd816badd442e19bf656"}, {"lon": -76.94768183333333, "lat": 38.89626583333333, "name": "0f621ae4c26d3ff8929ffd95b5ddb030", "fusion_lat": 0.0, "fusion_lon": 0.0, "rental_uris": {"android": "https://dc.lft.to/lastmile_qr_scan", "ios": "https://dc.lft.to/lastmile_qr_scan"}, "is_reserved": 0, "is_disabled": 0, "type": "electric_bike", "bike_id": "0f621ae4c26d3ff8929ffd95b5ddb030"}, {"lon": -77.05938183333333, "lat": 38.9366675, "name": "db07f55891b80cdb2701178b2ad07fd5", "fusion_lat": 0.0, "fusion_lon": 0.0, "rental_uris": {"android": "https://dc.lft.to/lastmile_qr_scan", "ios": "https://dc.lft.to/lastmile_qr_scan"}, "is_reserved": 0, "is_disabled": 0, "type": "electric_scooter", "bike_id": "db07f55891b80cdb2701178b2ad07fd5"}, {"lon": -77.02717683333333, "lat": 38.940887000000004, "name": "abb11b0927c09af3a67ba107794f4366", "fusion_lat": 0.0, "fusion_lon": 0.0, "rental_uris": {"android": "https://dc.lft.to/lastmile_qr_scan", "ios": "https://dc.lft.to/lastmile_qr_scan"}, "is_reserved": 0, "is_disabled": 0, "type": "electric_scooter", "bike_id": "abb11b0927c09af3a67ba107794f4366"}, {"lon": -77.02928366666667, "lat": 38.898351, "name": "28be014aad8ed63e00422b7b3896765c", "fusion_lat": 0.0, "fusion_lon": 0.0, "rental_uris": {"android": "https://dc.lft.to/lastmile_qr_scan", "ios": "https://dc.lft.to/lastmile_qr_scan"}, "is_reserved": 0, "is_disabled": 0, "type": "electric_scooter", "bike_id": "28be014aad8ed63e00422b7b3896765c"}, {"lon": -77.04541616666667, "lat": 38.89478883333334, "name": "8f70cf02d10efda32aa024939341bfe3", "fusion_lat": 0.0, "fusion_lon": 0.0, "rental_uris": {"android": "https://dc.lft.to/lastmile_qr_scan", "ios": "https://dc.lft.to/lastmile_qr_scan"}, "is_reserved": 0, "is_disabled": 0, "type": "electric_scooter", "bike_id": "8f70cf02d10efda32aa024939341bfe3"}, {"lon": -77.00577, "lat": 38.876448333333336, "name": "12038d71aae9f25f93af62e03c921f59", "fusion_lat": 0.0, "fusion_lon": 0.0, "rental_uris": {"android": "https://dc.lft.to/lastmile_qr_scan", "ios": "https://dc.lft.to/lastmile_qr_scan"}, "is_reserved": 0, "is_disabled": 0, "type": "electric_scooter", "bike_id": "12038d71aae9f25f93af62e03c921f59"}, {"lon": -77.0420125, "lat": 38.90386616666667, "name": "5692f28a73bced44ae3a161dc74233b6", "fusion_lat": 0.0, "fusion_lon": 0.0, "rental_uris": {"android": "https://dc.lft.to/lastmile_qr_scan", "ios": "https://dc.lft.to/lastmile_qr_scan"}, "is_reserved": 0, "is_disabled": 0, "type": "electric_bike", "bike_id": "5692f28a73bced44ae3a161dc74233b6"}, {"lon": -76.99067166666667, "lat": 38.863569, "name": "0cb9bc836fcf473e4edd13b73baac6c3", "fusion_lat": 0.0, "fusion_lon": 0.0, "rental_uris": {"android": "https://dc.lft.to/lastmile_qr_scan", "ios": "https://dc.lft.to/lastmile_qr_scan"}, "is_reserved": 0, "is_disabled": 0, "type": "electric_scooter", "bike_id": "0cb9bc836fcf473e4edd13b73baac6c3"}, {"lon": -77.05005166666666, "lat": 38.892306833333336, "name": "0564b0dd1d7bb73f1d7f6722eaf590ba", "fusion_lat": 0.0, "fusion_lon": 0.0, "rental_uris": {"android": "https://dc.lft.to/lastmile_qr_scan", "ios": "https://dc.lft.to/lastmile_qr_scan"}, "is_reserved": 0, "is_disabled": 0, "type": "electric_scooter", "bike_id": "0564b0dd1d7bb73f1d7f6722eaf590ba"}, {"lon": -77.04157333333333, "lat": 38.9024955, "name": "e12df65cb4c067fdcb3d152bd018b07e", "fusion_lat": 0.0, "fusion_lon": 0.0, "rental_uris": {"android": "https://dc.lft.to/lastmile_qr_scan", "ios": "https://dc.lft.to/lastmile_qr_scan"}, "is_reserved": 0, "is_disabled": 0, "type": "electric_scooter", "bike_id": "e12df65cb4c067fdcb3d152bd018b07e"}, {"lon": -77.03848533333333, "lat": 38.91042566666667, "name": "414a8df715bfc6e09058318c0e10712a", "fusion_lat": 0.0, "fusion_lon": 0.0, "rental_uris": {"android": "https://dc.lft.to/lastmile_qr_scan", "ios": "https://dc.lft.to/lastmile_qr_scan"}, "is_reserved": 0, "is_disabled": 0, "type": "electric_scooter", "bike_id": "414a8df715bfc6e09058318c0e10712a"}, {"lon": -77.03358766666666, "lat": 38.902643833333336, "name": "e94a92ba0678d73c6a2c6a50b662dde3", "fusion_lat": 0.0, "fusion_lon": 0.0, "rental_uris": {"android": "https://dc.lft.to/lastmile_qr_scan", "ios": "https://dc.lft.to/lastmile_qr_scan"}, "is_reserved": 0, "is_disabled": 0, "type": "electric_scooter", "bike_id": "e94a92ba0678d73c6a2c6a50b662dde3"}, {"lon": -77.06432683333334, "lat": 38.910419833333336, "name": "90a6438d6af03080f61e861438c3cb21", "fusion_lat": 0.0, "fusion_lon": 0.0, "rental_uris": {"android": "https://dc.lft.to/lastmile_qr_scan", "ios": "https://dc.lft.to/lastmile_qr_scan"}, "is_reserved": 0, "is_disabled": 0, "type": "electric_scooter", "bike_id": "90a6438d6af03080f61e861438c3cb21"}, {"lon": -77.00336716666666, "lat": 38.893571, "name": "dc7f76802cbf9b402a0590517aa4555b", "fusion_lat": 0.0, "fusion_lon": 0.0, "rental_uris": {"android": "https://dc.lft.to/lastmile_qr_scan", "ios": "https://dc.lft.to/lastmile_qr_scan"}, "is_reserved": 0, "is_disabled": 0, "type": "electric_scooter", "bike_id": "dc7f76802cbf9b402a0590517aa4555b"}, {"lon": -77.03264316666667, "lat": 38.938983, "name": "f76648be4a8439c076de6094f3f68456", "fusion_lat": 0.0, "fusion_lon": 0.0, "rental_uris": {"android": "https://dc.lft.to/lastmile_qr_scan", "ios": "https://dc.lft.to/lastmile_qr_scan"}, "is_reserved": 0, "is_disabled": 0, "type": "electric_bike", "bike_id": "f76648be4a8439c076de6094f3f68456"}, {"lon": -76.97594166666667, "lat": 38.903288, "name": "3f0b73301cac35458264e9ab24a19a8c", "fusion_lat": 0.0, "fusion_lon": 0.0, "rental_uris": {"android": "https://dc.lft.to/lastmile_qr_scan", "ios": "https://dc.lft.to/lastmile_qr_scan"}, "is_reserved": 0, "is_disabled": 0, "type": "electric_scooter", "bike_id": "3f0b73301cac35458264e9ab24a19a8c"}, {"lon": -77.04991533333333, "lat": 38.901067166666664, "name": "121064217a776d9c62becc8089be7be3", "fusion_lat": 0.0, "fusion_lon": 0.0, "rental_uris": {"android": "https://dc.lft.to/lastmile_qr_scan", "ios": "https://dc.lft.to/lastmile_qr_scan"}, "is_reserved": 0, "is_disabled": 0, "type": "electric_scooter", "bike_id": "121064217a776d9c62becc8089be7be3"}, {"lon": -77.043694, "lat": 38.933377666666665, "name": "c9b4c328d7866ca26e817c48b3b42ac9", "fusion_lat": 0.0, "fusion_lon": 0.0, "rental_uris": {"android": "https://dc.lft.to/lastmile_qr_scan", "ios": "https://dc.lft.to/lastmile_qr_scan"}, "is_reserved": 0, "is_disabled": 0, "type": "electric_scooter", "bike_id": "c9b4c328d7866ca26e817c48b3b42ac9"}, {"lon": -77.03369066666667, "lat": 38.935875, "name": "52ff0d9ff4a2d3dcd18c19401ff8a2e1", "fusion_lat": 0.0, "fusion_lon": 0.0, "rental_uris": {"android": "https://dc.lft.to/lastmile_qr_scan", "ios": "https://dc.lft.to/lastmile_qr_scan"}, "is_reserved": 0, "is_disabled": 0, "type": "electric_scooter", "bike_id": "52ff0d9ff4a2d3dcd18c19401ff8a2e1"}, {"lon": -77.0259925, "lat": 38.887409166666664, "name": "f8c211f925a8033c0404cfa346621cfb", "fusion_lat": 0.0, "fusion_lon": 0.0, "rental_uris": {"android": "https://dc.lft.to/lastmile_qr_scan", "ios": "https://dc.lft.to/lastmile_qr_scan"}, "is_reserved": 0, "is_disabled": 0, "type": "electric_scooter", "bike_id": "f8c211f925a8033c0404cfa346621cfb"}, {"lon": -77.12815016666667, "lat": 38.865355666666666, "name": "199491998b25657e01d2b861743e6aac", "fusion_lat": 0.0, "fusion_lon": 0.0, "rental_uris": {"android": "https://dc.lft.to/lastmile_qr_scan", "ios": "https://dc.lft.to/lastmile_qr_scan"}, "is_reserved": 0, "is_disabled": 0, "type": "electric_bike", "bike_id": "199491998b25657e01d2b861743e6aac"}, {"lon": -76.947171, "lat": 38.8967875, "name": "7e70bc7bf74ba571b7191a9a42fa01d8", "fusion_lat": 0.0, "fusion_lon": 0.0, "rental_uris": {"android": "https://dc.lft.to/lastmile_qr_scan", "ios": "https://dc.lft.to/lastmile_qr_scan"}, "is_reserved": 0, "is_disabled": 0, "type": "electric_scooter", "bike_id": "7e70bc7bf74ba571b7191a9a42fa01d8"}, {"lon": -77.07046466666667, "lat": 38.824459833333336, "name": "b101053159bf4935caf41084c0e846de", "fusion_lat": 0.0, "fusion_lon": 0.0, "rental_uris": {"android": "https://dc.lft.to/lastmile_qr_scan", "ios": "https://dc.lft.to/lastmile_qr_scan"}, "is_reserved": 0, "is_disabled": 0, "type": "electric_bike", "bike_id": "b101053159bf4935caf41084c0e846de"}, {"lon": -77.01697383333334, "lat": 38.90519333333334, "name": "773c0a79b2efb5dbfbca4a1f8453bf42", "fusion_lat": 0.0, "fusion_lon": 0.0, "rental_uris": {"android": "https://dc.lft.to/lastmile_qr_scan", "ios": "https://dc.lft.to/lastmile_qr_scan"}, "is_reserved": 0, "is_disabled": 0, "type": "electric_scooter", "bike_id": "773c0a79b2efb5dbfbca4a1f8453bf42"}, {"lon": -77.06887566666667, "lat": 38.940303166666666, "name": "186bd1ff17abab60324ae2f7d04e5d8d", "fusion_lat": 0.0, "fusion_lon": 0.0, "rental_uris": {"android": "https://dc.lft.to/lastmile_qr_scan", "ios": "https://dc.lft.to/lastmile_qr_scan"}, "is_reserved": 0, "is_disabled": 0, "type": "electric_scooter", "bike_id": "186bd1ff17abab60324ae2f7d04e5d8d"}, {"lon": -77.12982466666666, "lat": 38.799926, "name": "5ba3df2c870a5897c73fc75147c59d12", "fusion_lat": 0.0, "fusion_lon": 0.0, "rental_uris": {"android": "https://dc.lft.to/lastmile_qr_scan", "ios": "https://dc.lft.to/lastmile_qr_scan"}, "is_reserved": 0, "is_disabled": 0, "type": "electric_bike", "bike_id": "5ba3df2c870a5897c73fc75147c59d12"}, {"lon": -77.06393916666667, "lat": 38.9290765, "name": "265be7deeebc53fa9c0ea0608f443cd6", "fusion_lat": 0.0, "fusion_lon": 0.0, "rental_uris": {"android": "https://dc.lft.to/lastmile_qr_scan", "ios": "https://dc.lft.to/lastmile_qr_scan"}, "is_reserved": 0, "is_disabled": 0, "type": "electric_scooter", "bike_id": "265be7deeebc53fa9c0ea0608f443cd6"}, {"lon": -77.04372966666666, "lat": 38.89220516666666, "name": "00e47f68d310a023c66ec3ae9d984735", "fusion_lat": 0.0, "fusion_lon": 0.0, "rental_uris": {"android": "https://dc.lft.to/lastmile_qr_scan", "ios": "https://dc.lft.to/lastmile_qr_scan"}, "is_reserved": 0, "is_disabled": 0, "type": "electric_scooter", "bike_id": "00e47f68d310a023c66ec3ae9d984735"}, {"lon": -77.03166466666667, "lat": 38.91569066666667, "name": "b4d92fe14abcd244bcae5e016e8030d2", "fusion_lat": 0.0, "fusion_lon": 0.0, "rental_uris": {"android": "https://dc.lft.to/lastmile_qr_scan", "ios": "https://dc.lft.to/lastmile_qr_scan"}, "is_reserved": 0, "is_disabled": 0, "type": "electric_scooter", "bike_id": "b4d92fe14abcd244bcae5e016e8030d2"}, {"lon": -77.02819033333333, "lat": 38.91597616666667, "name": "7e8037503a3ebbd276f16c7245c9508e", "fusion_lat": 0.0, "fusion_lon": 0.0, "rental_uris": {"android": "https://dc.lft.to/lastmile_qr_scan", "ios": "https://dc.lft.to/lastmile_qr_scan"}, "is_reserved": 0, "is_disabled": 0, "type": "electric_scooter", "bike_id": "7e8037503a3ebbd276f16c7245c9508e"}, {"lon": -77.01111516666667, "lat": 38.9036085, "name": "da66a4c0676f3bc4b95a02a3c9c76cd1", "fusion_lat": 0.0, "fusion_lon": 0.0, "rental_uris": {"android": "https://dc.lft.to/lastmile_qr_scan", "ios": "https://dc.lft.to/lastmile_qr_scan"}, "is_reserved": 0, "is_disabled": 0, "type": "electric_scooter", "bike_id": "da66a4c0676f3bc4b95a02a3c9c76cd1"}, {"lon": -76.96527833333333, "lat": 38.87626866666667, "name": "f06030c829903a49308ea2601a364583", "fusion_lat": 0.0, "fusion_lon": 0.0, "rental_uris": {"android": "https://dc.lft.to/lastmile_qr_scan", "ios": "https://dc.lft.to/lastmile_qr_scan"}, "is_reserved": 0, "is_disabled": 0, "type": "electric_scooter", "bike_id": "f06030c829903a49308ea2601a364583"}, {"lon": -77.02204533333334, "lat": 38.9141755, "name": "c4770069ff9979f20e9ae52c5c164e36", "fusion_lat": 0.0, "fusion_lon": 0.0, "rental_uris": {"android": "https://dc.lft.to/lastmile_qr_scan", "ios": "https://dc.lft.to/lastmile_qr_scan"}, "is_reserved": 0, "is_disabled": 0, "type": "electric_scooter", "bike_id": "c4770069ff9979f20e9ae52c5c164e36"}, {"lon": -77.04010333333333, "lat": 38.92187933333334, "name": "c49a9dafde636068a826599e67ee89c7", "fusion_lat": 0.0, "fusion_lon": 0.0, "rental_uris": {"android": "https://dc.lft.to/lastmile_qr_scan", "ios": "https://dc.lft.to/lastmile_qr_scan"}, "is_reserved": 0, "is_disabled": 0, "type": "electric_scooter", "bike_id": "c49a9dafde636068a826599e67ee89c7"}, {"lon": -77.0331015, "lat": 38.90554766666666, "name": "375e1363450c3c3959d3534f177f0f6b", "fusion_lat": 0.0, "fusion_lon": 0.0, "rental_uris": {"android": "https://dc.lft.to/lastmile_qr_scan", "ios": "https://dc.lft.to/lastmile_qr_scan"}, "is_reserved": 0, "is_disabled": 0, "type": "electric_scooter", "bike_id": "375e1363450c3c3959d3534f177f0f6b"}, {"lon": -77.02690433333333, "lat": 38.90948983333333, "name": "10af36c4a019874457066c6f3c4ba9b6", "fusion_lat": 0.0, "fusion_lon": 0.0, "rental_uris": {"android": "https://dc.lft.to/lastmile_qr_scan", "ios": "https://dc.lft.to/lastmile_qr_scan"}, "is_reserved": 0, "is_disabled": 0, "type": "electric_scooter", "bike_id": "10af36c4a019874457066c6f3c4ba9b6"}, {"lon": -77.03144666666667, "lat": 38.914060666666664, "name": "121addc157b2365f0e8eb54aae56dcc1", "fusion_lat": 0.0, "fusion_lon": 0.0, "rental_uris": {"android": "https://dc.lft.to/lastmile_qr_scan", "ios": "https://dc.lft.to/lastmile_qr_scan"}, "is_reserved": 0, "is_disabled": 0, "type": "electric_scooter", "bike_id": "121addc157b2365f0e8eb54aae56dcc1"}, {"lon": -76.99000716666667, "lat": 38.90388316666667, "name": "61dbbf40b38f17a783895ae70564dcb9", "fusion_lat": 0.0, "fusion_lon": 0.0, "rental_uris": {"android": "https://dc.lft.to/lastmile_qr_scan", "ios": "https://dc.lft.to/lastmile_qr_scan"}, "is_reserved": 0, "is_disabled": 0, "type": "electric_scooter", "bike_id": "61dbbf40b38f17a783895ae70564dcb9"}, {"lon": -77.0344035, "lat": 38.91810183333333, "name": "355e37d709eb1b7bd9df88926d6a7d4f", "fusion_lat": 0.0, "fusion_lon": 0.0, "rental_uris": {"android": "https://dc.lft.to/lastmile_qr_scan", "ios": "https://dc.lft.to/lastmile_qr_scan"}, "is_reserved": 0, "is_disabled": 0, "type": "electric_scooter", "bike_id": "355e37d709eb1b7bd9df88926d6a7d4f"}, {"lon": -77.0289035, "lat": 38.9003945, "name": "d0eeea3acd3afc03e8bcb0c379502926", "fusion_lat": 0.0, "fusion_lon": 0.0, "rental_uris": {"android": "https://dc.lft.to/lastmile_qr_scan", "ios": "https://dc.lft.to/lastmile_qr_scan"}, "is_reserved": 0, "is_disabled": 0, "type": "electric_scooter", "bike_id": "d0eeea3acd3afc03e8bcb0c379502926"}, {"lon": -77.04378, "lat": 38.9075005, "name": "faaec393adb32898432d49af123343b1", "fusion_lat": 0.0, "fusion_lon": 0.0, "rental_uris": {"android": "https://dc.lft.to/lastmile_qr_scan", "ios": "https://dc.lft.to/lastmile_qr_scan"}, "is_reserved": 0, "is_disabled": 0, "type": "electric_scooter", "bike_id": "faaec393adb32898432d49af123343b1"}, {"lon": -76.99554366666666, "lat": 38.86232616666667, "name": "65c790dc9a3114461f1ad658253cdad0", "fusion_lat": 0.0, "fusion_lon": 0.0, "rental_uris": {"android": "https://dc.lft.to/lastmile_qr_scan", "ios": "https://dc.lft.to/lastmile_qr_scan"}, "is_reserved": 0, "is_disabled": 0, "type": "electric_scooter", "bike_id": "65c790dc9a3114461f1ad658253cdad0"}, {"lon": -77.032854, "lat": 38.9289215, "name": "2408fe2a6592f9e199a485a99c07b839", "fusion_lat": 0.0, "fusion_lon": 0.0, "rental_uris": {"android": "https://dc.lft.to/lastmile_qr_scan", "ios": "https://dc.lft.to/lastmile_qr_scan"}, "is_reserved": 0, "is_disabled": 0, "type": "electric_scooter", "bike_id": "2408fe2a6592f9e199a485a99c07b839"}, {"lon": -77.03472466666666, "lat": 38.918155166666665, "name": "7abb9e0ac805dc9adb1a08f69973b453", "fusion_lat": 0.0, "fusion_lon": 0.0, "rental_uris": {"android": "https://dc.lft.to/lastmile_qr_scan", "ios": "https://dc.lft.to/lastmile_qr_scan"}, "is_reserved": 0, "is_disabled": 0, "type": "electric_scooter", "bike_id": "7abb9e0ac805dc9adb1a08f69973b453"}, {"lon": -77.01025066666666, "lat": 38.918143, "name": "1c9558a733f2dc629737b952ad1fea7b", "fusion_lat": 0.0, "fusion_lon": 0.0, "rental_uris": {"android": "https://dc.lft.to/lastmile_qr_scan", "ios": "https://dc.lft.to/lastmile_qr_scan"}, "is_reserved": 0, "is_disabled": 0, "type": "electric_scooter", "bike_id": "1c9558a733f2dc629737b952ad1fea7b"}, {"lon": -76.998348, "lat": 38.90043166666667, "name": "f681c84c827690ff543cad0f97967346", "fusion_lat": 0.0, "fusion_lon": 0.0, "rental_uris": {"android": "https://dc.lft.to/lastmile_qr_scan", "ios": "https://dc.lft.to/lastmile_qr_scan"}, "is_reserved": 0, "is_disabled": 0, "type": "electric_scooter", "bike_id": "f681c84c827690ff543cad0f97967346"}, {"lon": -77.0545195, "lat": 38.92822983333333, "name": "a368880626b8b9450178eb4ae03ba70a", "fusion_lat": 0.0, "fusion_lon": 0.0, "rental_uris": {"android": "https://dc.lft.to/lastmile_qr_scan", "ios": "https://dc.lft.to/lastmile_qr_scan"}, "is_reserved": 0, "is_disabled": 0, "type": "electric_scooter", "bike_id": "a368880626b8b9450178eb4ae03ba70a"}, {"lon": -76.9799495, "lat": 38.900969833333335, "name": "ca4022898fad53b13321db1f210cdd29", "fusion_lat": 0.0, "fusion_lon": 0.0, "rental_uris": {"android": "https://dc.lft.to/lastmile_qr_scan", "ios": "https://dc.lft.to/lastmile_qr_scan"}, "is_reserved": 0, "is_disabled": 0, "type": "electric_scooter", "bike_id": "ca4022898fad53b13321db1f210cdd29"}, {"lon": -77.06154933333333, "lat": 38.942245666666665, "name": "6025a2efe5687092db859ea68db8900f", "fusion_lat": 0.0, "fusion_lon": 0.0, "rental_uris": {"android": "https://dc.lft.to/lastmile_qr_scan", "ios": "https://dc.lft.to/lastmile_qr_scan"}, "is_reserved": 0, "is_disabled": 0, "type": "electric_scooter", "bike_id": "6025a2efe5687092db859ea68db8900f"}, {"lon": -77.02498283333334, "lat": 38.918069, "name": "46d2c4d7e273b6d0a6180af51988ebe9", "fusion_lat": 0.0, "fusion_lon": 0.0, "rental_uris": {"android": "https://dc.lft.to/lastmile_qr_scan", "ios": "https://dc.lft.to/lastmile_qr_scan"}, "is_reserved": 0, "is_disabled": 0, "type": "electric_scooter", "bike_id": "46d2c4d7e273b6d0a6180af51988ebe9"}, {"lon": -77.03167116666667, "lat": 38.89613266666667, "name": "5476a851fea6d48cc2a1c82a531a2fea", "fusion_lat": 0.0, "fusion_lon": 0.0, "rental_uris": {"android": "https://dc.lft.to/lastmile_qr_scan", "ios": "https://dc.lft.to/lastmile_qr_scan"}, "is_reserved": 0, "is_disabled": 0, "type": "electric_scooter", "bike_id": "5476a851fea6d48cc2a1c82a531a2fea"}, {"lon": -77.12742966666667, "lat": 38.888217833333336, "name": "ba014a6da6b0227628651d5c271699bf", "fusion_lat": 0.0, "fusion_lon": 0.0, "rental_uris": {"android": "https://dc.lft.to/lastmile_qr_scan", "ios": "https://dc.lft.to/lastmile_qr_scan"}, "is_reserved": 0, "is_disabled": 0, "type": "electric_bike", "bike_id": "ba014a6da6b0227628651d5c271699bf"}, {"lon": -77.02950416666667, "lat": 38.907869833333336, "name": "71996851435af4845bbf01ec3e86a489", "fusion_lat": 0.0, "fusion_lon": 0.0, "rental_uris": {"android": "https://dc.lft.to/lastmile_qr_scan", "ios": "https://dc.lft.to/lastmile_qr_scan"}, "is_reserved": 0, "is_disabled": 0, "type": "electric_scooter", "bike_id": "71996851435af4845bbf01ec3e86a489"}, {"lon": -76.98775916666666, "lat": 38.91172383333333, "name": "078bc1857974ca7962cbfee18e3923db", "fusion_lat": 0.0, "fusion_lon": 0.0, "rental_uris": {"android": "https://dc.lft.to/lastmile_qr_scan", "ios": "https://dc.lft.to/lastmile_qr_scan"}, "is_reserved": 0, "is_disabled": 0, "type": "electric_scooter", "bike_id": "078bc1857974ca7962cbfee18e3923db"}, {"lon": -76.93161683333334, "lat": 38.89878866666667, "name": "6dfbae0abf731ceaa442796f212442a3", "fusion_lat": 0.0, "fusion_lon": 0.0, "rental_uris": {"android": "https://dc.lft.to/lastmile_qr_scan", "ios": "https://dc.lft.to/lastmile_qr_scan"}, "is_reserved": 0, "is_disabled": 0, "type": "electric_scooter", "bike_id": "6dfbae0abf731ceaa442796f212442a3"}, {"lon": -77.03374616666666, "lat": 38.910416166666664, "name": "c7e91bb056c1ebeb821c1fdc2b6cfc35", "fusion_lat": 0.0, "fusion_lon": 0.0, "rental_uris": {"android": "https://dc.lft.to/lastmile_qr_scan", "ios": "https://dc.lft.to/lastmile_qr_scan"}, "is_reserved": 0, "is_disabled": 0, "type": "electric_scooter", "bike_id": "c7e91bb056c1ebeb821c1fdc2b6cfc35"}, {"lon": -77.04696316666667, "lat": 38.90210583333333, "name": "f431c496f37a853ace62bf8f5becc889", "fusion_lat": 0.0, "fusion_lon": 0.0, "rental_uris": {"android": "https://dc.lft.to/lastmile_qr_scan", "ios": "https://dc.lft.to/lastmile_qr_scan"}, "is_reserved": 0, "is_disabled": 0, "type": "electric_scooter", "bike_id": "f431c496f37a853ace62bf8f5becc889"}, {"lon": -76.93525166666667, "lat": 38.9087415, "name": "7de1ebac6dc51a087aee3de818f8a149", "fusion_lat": 0.0, "fusion_lon": 0.0, "rental_uris": {"android": "https://dc.lft.to/lastmile_qr_scan", "ios": "https://dc.lft.to/lastmile_qr_scan"}, "is_reserved": 0, "is_disabled": 0, "type": "electric_scooter", "bike_id": "7de1ebac6dc51a087aee3de818f8a149"}, {"lon": -76.99162766666667, "lat": 38.893442666666665, "name": "2b7242632f46cca9fd5086511505cc3b", "fusion_lat": 0.0, "fusion_lon": 0.0, "rental_uris": {"android": "https://dc.lft.to/lastmile_qr_scan", "ios": "https://dc.lft.to/lastmile_qr_scan"}, "is_reserved": 0, "is_disabled": 0, "type": "electric_scooter", "bike_id": "2b7242632f46cca9fd5086511505cc3b"}, {"lon": -76.938118, "lat": 38.913047666666664, "name": "68a171b416fa427a431e901928ef50aa", "fusion_lat": 0.0, "fusion_lon": 0.0, "rental_uris": {"android": "https://dc.lft.to/lastmile_qr_scan", "ios": "https://dc.lft.to/lastmile_qr_scan"}, "is_reserved": 0, "is_disabled": 0, "type": "electric_scooter", "bike_id": "68a171b416fa427a431e901928ef50aa"}, {"lon": -77.04989916666666, "lat": 38.90169183333333, "name": "175a73a8627c18ec725172997b83eb43", "fusion_lat": 0.0, "fusion_lon": 0.0, "rental_uris": {"android": "https://dc.lft.to/lastmile_qr_scan", "ios": "https://dc.lft.to/lastmile_qr_scan"}, "is_reserved": 0, "is_disabled": 0, "type": "electric_scooter", "bike_id": "175a73a8627c18ec725172997b83eb43"}, {"lon": -77.02397383333333, "lat": 38.8874055, "name": "82be3e8d3b93566e52ce51b057a62840", "fusion_lat": 0.0, "fusion_lon": 0.0, "rental_uris": {"android": "https://dc.lft.to/lastmile_qr_scan", "ios": "https://dc.lft.to/lastmile_qr_scan"}, "is_reserved": 0, "is_disabled": 0, "type": "electric_scooter", "bike_id": "82be3e8d3b93566e52ce51b057a62840"}, {"lon": -77.02587816666667, "lat": 38.89612016666667, "name": "d11368aafed732c351e8eee6218eb5d9", "fusion_lat": 0.0, "fusion_lon": 0.0, "rental_uris": {"android": "https://dc.lft.to/lastmile_qr_scan", "ios": "https://dc.lft.to/lastmile_qr_scan"}, "is_reserved": 0, "is_disabled": 0, "type": "electric_scooter", "bike_id": "d11368aafed732c351e8eee6218eb5d9"}, {"lon": -77.02857116666667, "lat": 38.9334555, "name": "cd25cc6e74c5c491e6e4ffb5e209c801", "fusion_lat": 0.0, "fusion_lon": 0.0, "rental_uris": {"android": "https://dc.lft.to/lastmile_qr_scan", "ios": "https://dc.lft.to/lastmile_qr_scan"}, "is_reserved": 0, "is_disabled": 0, "type": "electric_scooter", "bike_id": "cd25cc6e74c5c491e6e4ffb5e209c801"}, {"lon": -77.02651, "lat": 38.938644, "name": "1fca94aeaf95f44077165a7c9df6da82", "fusion_lat": 0.0, "fusion_lon": 0.0, "rental_uris": {"android": "https://dc.lft.to/lastmile_qr_scan", "ios": "https://dc.lft.to/lastmile_qr_scan"}, "is_reserved": 0, "is_disabled": 0, "type": "electric_scooter", "bike_id": "1fca94aeaf95f44077165a7c9df6da82"}, {"lon": -77.02039333333333, "lat": 38.87943, "name": "95f1e1465c5c4ed297d125c86deb8c09", "fusion_lat": 0.0, "fusion_lon": 0.0, "rental_uris": {"android": "https://dc.lft.to/lastmile_qr_scan", "ios": "https://dc.lft.to/lastmile_qr_scan"}, "is_reserved": 0, "is_disabled": 0, "type": "electric_scooter", "bike_id": "95f1e1465c5c4ed297d125c86deb8c09"}, {"lon": -77.0324045, "lat": 38.928920833333336, "name": "29009c3fcfddbf16302d8d1936ad89c9", "fusion_lat": 0.0, "fusion_lon": 0.0, "rental_uris": {"android": "https://dc.lft.to/lastmile_qr_scan", "ios": "https://dc.lft.to/lastmile_qr_scan"}, "is_reserved": 0, "is_disabled": 0, "type": "electric_scooter", "bike_id": "29009c3fcfddbf16302d8d1936ad89c9"}, {"lon": -77.02181766666666, "lat": 38.9041495, "name": "fc24555f915e2f3d89669015d395d23b", "fusion_lat": 0.0, "fusion_lon": 0.0, "rental_uris": {"android": "https://dc.lft.to/lastmile_qr_scan", "ios": "https://dc.lft.to/lastmile_qr_scan"}, "is_reserved": 0, "is_disabled": 0, "type": "electric_scooter", "bike_id": "fc24555f915e2f3d89669015d395d23b"}, {"lon": -77.03870983333333, "lat": 38.91700383333333, "name": "f250a5aaf668a7d17cd95c8a802c7b96", "fusion_lat": 0.0, "fusion_lon": 0.0, "rental_uris": {"android": "https://dc.lft.to/lastmile_qr_scan", "ios": "https://dc.lft.to/lastmile_qr_scan"}, "is_reserved": 0, "is_disabled": 0, "type": "electric_scooter", "bike_id": "f250a5aaf668a7d17cd95c8a802c7b96"}, {"lon": -77.06754816666667, "lat": 38.91564483333333, "name": "b39e715f94536d6c2606c7151e026b1d", "fusion_lat": 0.0, "fusion_lon": 0.0, "rental_uris": {"android": "https://dc.lft.to/lastmile_qr_scan", "ios": "https://dc.lft.to/lastmile_qr_scan"}, "is_reserved": 0, "is_disabled": 0, "type": "electric_scooter", "bike_id": "b39e715f94536d6c2606c7151e026b1d"}, {"lon": -76.96627833333334, "lat": 38.942036, "name": "8d70431a1f6dc799d43708613a28b1a6", "fusion_lat": 0.0, "fusion_lon": 0.0, "rental_uris": {"android": "https://dc.lft.to/lastmile_qr_scan", "ios": "https://dc.lft.to/lastmile_qr_scan"}, "is_reserved": 0, "is_disabled": 0, "type": "electric_bike", "bike_id": "8d70431a1f6dc799d43708613a28b1a6"}, {"lon": -77.02179783333334, "lat": 38.901811, "name": "f380f41224cbdcec1a241ceef6737c90", "fusion_lat": 0.0, "fusion_lon": 0.0, "rental_uris": {"android": "https://dc.lft.to/lastmile_qr_scan", "ios": "https://dc.lft.to/lastmile_qr_scan"}, "is_reserved": 0, "is_disabled": 0, "type": "electric_scooter", "bike_id": "f380f41224cbdcec1a241ceef6737c90"}, {"lon": -76.93756233333333, "lat": 38.89048283333333, "name": "f7ee1a47b680fe91c2a315e4b8cf82be", "fusion_lat": 0.0, "fusion_lon": 0.0, "rental_uris": {"android": "https://dc.lft.to/lastmile_qr_scan", "ios": "https://dc.lft.to/lastmile_qr_scan"}, "is_reserved": 0, "is_disabled": 0, "type": "electric_scooter", "bike_id": "f7ee1a47b680fe91c2a315e4b8cf82be"}, {"lon": -77.02991216666666, "lat": 38.9170285, "name": "4705df82b1efa9b2d292a753df925eb5", "fusion_lat": 0.0, "fusion_lon": 0.0, "rental_uris": {"android": "https://dc.lft.to/lastmile_qr_scan", "ios": "https://dc.lft.to/lastmile_qr_scan"}, "is_reserved": 0, "is_disabled": 0, "type": "electric_scooter", "bike_id": "4705df82b1efa9b2d292a753df925eb5"}, {"lon": -77.0470165, "lat": 38.92102233333333, "name": "2cf7100dffe15d4c7956a0569f5a114a", "fusion_lat": 0.0, "fusion_lon": 0.0, "rental_uris": {"android": "https://dc.lft.to/lastmile_qr_scan", "ios": "https://dc.lft.to/lastmile_qr_scan"}, "is_reserved": 0, "is_disabled": 0, "type": "electric_scooter", "bike_id": "2cf7100dffe15d4c7956a0569f5a114a"}, {"lon": -77.02405316666666, "lat": 38.9097535, "name": "bd2cb39463e99df21806720139dc9221", "fusion_lat": 0.0, "fusion_lon": 0.0, "rental_uris": {"android": "https://dc.lft.to/lastmile_qr_scan", "ios": "https://dc.lft.to/lastmile_qr_scan"}, "is_reserved": 0, "is_disabled": 0, "type": "electric_scooter", "bike_id": "bd2cb39463e99df21806720139dc9221"}, {"lon": -77.03202616666667, "lat": 38.9179445, "name": "0936fd5726c99b7bd3b946160e04af98", "fusion_lat": 0.0, "fusion_lon": 0.0, "rental_uris": {"android": "https://dc.lft.to/lastmile_qr_scan", "ios": "https://dc.lft.to/lastmile_qr_scan"}, "is_reserved": 0, "is_disabled": 0, "type": "electric_scooter", "bike_id": "0936fd5726c99b7bd3b946160e04af98"}, {"lon": -76.988537, "lat": 38.90346866666667, "name": "aa76c8b83fc8afeeb9772f8f55293f20", "fusion_lat": 0.0, "fusion_lon": 0.0, "rental_uris": {"android": "https://dc.lft.to/lastmile_qr_scan", "ios": "https://dc.lft.to/lastmile_qr_scan"}, "is_reserved": 0, "is_disabled": 0, "type": "electric_scooter", "bike_id": "aa76c8b83fc8afeeb9772f8f55293f20"}, {"lon": -77.02713433333334, "lat": 38.89981983333333, "name": "f4c207ffa460d7e98a99990e2480cb22", "fusion_lat": 0.0, "fusion_lon": 0.0, "rental_uris": {"android": "https://dc.lft.to/lastmile_qr_scan", "ios": "https://dc.lft.to/lastmile_qr_scan"}, "is_reserved": 0, "is_disabled": 0, "type": "electric_scooter", "bike_id": "f4c207ffa460d7e98a99990e2480cb22"}, {"lon": -77.02306566666667, "lat": 38.909029833333335, "name": "f9ff02a67ebbf0d848ab9eeb6d45afec", "fusion_lat": 0.0, "fusion_lon": 0.0, "rental_uris": {"android": "https://dc.lft.to/lastmile_qr_scan", "ios": "https://dc.lft.to/lastmile_qr_scan"}, "is_reserved": 0, "is_disabled": 0, "type": "electric_scooter", "bike_id": "f9ff02a67ebbf0d848ab9eeb6d45afec"}, {"lon": -77.04880766666666, "lat": 38.904753166666666, "name": "14f0f130ead243c55d9a0591a8cd4a57", "fusion_lat": 0.0, "fusion_lon": 0.0, "rental_uris": {"android": "https://dc.lft.to/lastmile_qr_scan", "ios": "https://dc.lft.to/lastmile_qr_scan"}, "is_reserved": 0, "is_disabled": 0, "type": "electric_scooter", "bike_id": "14f0f130ead243c55d9a0591a8cd4a57"}, {"lon": -77.03308866666667, "lat": 38.908256333333334, "name": "fcb35c7344fdd4bb2ac1d6340fbc808e", "fusion_lat": 0.0, "fusion_lon": 0.0, "rental_uris": {"android": "https://dc.lft.to/lastmile_qr_scan", "ios": "https://dc.lft.to/lastmile_qr_scan"}, "is_reserved": 0, "is_disabled": 0, "type": "electric_scooter", "bike_id": "fcb35c7344fdd4bb2ac1d6340fbc808e"}, {"lon": -77.02147466666666, "lat": 38.928202, "name": "8baeffbecab5a9e9a98fa94ac99c318c", "fusion_lat": 0.0, "fusion_lon": 0.0, "rental_uris": {"android": "https://dc.lft.to/lastmile_qr_scan", "ios": "https://dc.lft.to/lastmile_qr_scan"}, "is_reserved": 0, "is_disabled": 0, "type": "electric_scooter", "bike_id": "8baeffbecab5a9e9a98fa94ac99c318c"}, {"lon": -77.033044, "lat": 38.901558, "name": "359a99ae3c9f7a8070afb51ea4b2949c", "fusion_lat": 0.0, "fusion_lon": 0.0, "rental_uris": {"android": "https://dc.lft.to/lastmile_qr_scan", "ios": "https://dc.lft.to/lastmile_qr_scan"}, "is_reserved": 0, "is_disabled": 0, "type": "electric_scooter", "bike_id": "359a99ae3c9f7a8070afb51ea4b2949c"}, {"lon": -77.031822, "lat": 38.9217615, "name": "7b0372f0c194d8e0ba24b379c82449b8", "fusion_lat": 0.0, "fusion_lon": 0.0, "rental_uris": {"android": "https://dc.lft.to/lastmile_qr_scan", "ios": "https://dc.lft.to/lastmile_qr_scan"}, "is_reserved": 0, "is_disabled": 0, "type": "electric_scooter", "bike_id": "7b0372f0c194d8e0ba24b379c82449b8"}, {"lon": -77.02966183333334, "lat": 38.90494316666667, "name": "2b185d1c4abc54670f8d226290802dd5", "fusion_lat": 0.0, "fusion_lon": 0.0, "rental_uris": {"android": "https://dc.lft.to/lastmile_qr_scan", "ios": "https://dc.lft.to/lastmile_qr_scan"}, "is_reserved": 0, "is_disabled": 0, "type": "electric_scooter", "bike_id": "2b185d1c4abc54670f8d226290802dd5"}, {"lon": -76.99839116666666, "lat": 38.9004755, "name": "584b0eed2b9ed767f87a7121c78d3734", "fusion_lat": 0.0, "fusion_lon": 0.0, "rental_uris": {"android": "https://dc.lft.to/lastmile_qr_scan", "ios": "https://dc.lft.to/lastmile_qr_scan"}, "is_reserved": 0, "is_disabled": 0, "type": "electric_scooter", "bike_id": "584b0eed2b9ed767f87a7121c78d3734"}, {"lon": -76.99020866666666, "lat": 38.86104383333333, "name": "aa5b4c244f9c9dc33fe32a6f31d7a75f", "fusion_lat": 0.0, "fusion_lon": 0.0, "rental_uris": {"android": "https://dc.lft.to/lastmile_qr_scan", "ios": "https://dc.lft.to/lastmile_qr_scan"}, "is_reserved": 0, "is_disabled": 0, "type": "electric_scooter", "bike_id": "aa5b4c244f9c9dc33fe32a6f31d7a75f"}, {"lon": -77.024037, "lat": 38.907443, "name": "74d7c6c12c0a8c556620fedf78af62b6", "fusion_lat": 0.0, "fusion_lon": 0.0, "rental_uris": {"android": "https://dc.lft.to/lastmile_qr_scan", "ios": "https://dc.lft.to/lastmile_qr_scan"}, "is_reserved": 0, "is_disabled": 0, "type": "electric_scooter", "bike_id": "74d7c6c12c0a8c556620fedf78af62b6"}, {"lon": -77.02377866666667, "lat": 38.952413166666666, "name": "8a0bf9d2615091f4acb72e2863da8bbe", "fusion_lat": 0.0, "fusion_lon": 0.0, "rental_uris": {"android": "https://dc.lft.to/lastmile_qr_scan", "ios": "https://dc.lft.to/lastmile_qr_scan"}, "is_reserved": 0, "is_disabled": 0, "type": "electric_scooter", "bike_id": "8a0bf9d2615091f4acb72e2863da8bbe"}, {"lon": -76.9963245, "lat": 38.8462105, "name": "a59cd8db13d9e50bbd69b8daf01276f3", "fusion_lat": 0.0, "fusion_lon": 0.0, "rental_uris": {"android": "https://dc.lft.to/lastmile_qr_scan", "ios": "https://dc.lft.to/lastmile_qr_scan"}, "is_reserved": 0, "is_disabled": 0, "type": "electric_scooter", "bike_id": "a59cd8db13d9e50bbd69b8daf01276f3"}, {"lon": -77.021703, "lat": 38.887447333333334, "name": "a06f5aaa8640fef45080ca8cc09ab6c4", "fusion_lat": 0.0, "fusion_lon": 0.0, "rental_uris": {"android": "https://dc.lft.to/lastmile_qr_scan", "ios": "https://dc.lft.to/lastmile_qr_scan"}, "is_reserved": 0, "is_disabled": 0, "type": "electric_scooter", "bike_id": "a06f5aaa8640fef45080ca8cc09ab6c4"}, {"lon": -77.03075866666667, "lat": 38.92245716666667, "name": "78c9f08347d97b66209a598168f9e83e", "fusion_lat": 0.0, "fusion_lon": 0.0, "rental_uris": {"android": "https://dc.lft.to/lastmile_qr_scan", "ios": "https://dc.lft.to/lastmile_qr_scan"}, "is_reserved": 0, "is_disabled": 0, "type": "electric_scooter", "bike_id": "78c9f08347d97b66209a598168f9e83e"}, {"lon": -77.0213605, "lat": 38.93763583333333, "name": "af176ce72b036c76b189276a822fec8c", "fusion_lat": 0.0, "fusion_lon": 0.0, "rental_uris": {"android": "https://dc.lft.to/lastmile_qr_scan", "ios": "https://dc.lft.to/lastmile_qr_scan"}, "is_reserved": 0, "is_disabled": 0, "type": "electric_scooter", "bike_id": "af176ce72b036c76b189276a822fec8c"}, {"lon": -77.01968166666667, "lat": 38.90127366666667, "name": "78233eda19ae78d9876fdc5060b9c500", "fusion_lat": 0.0, "fusion_lon": 0.0, "rental_uris": {"android": "https://dc.lft.to/lastmile_qr_scan", "ios": "https://dc.lft.to/lastmile_qr_scan"}, "is_reserved": 0, "is_disabled": 0, "type": "electric_scooter", "bike_id": "78233eda19ae78d9876fdc5060b9c500"}, {"lon": -76.94754433333334, "lat": 38.900483666666666, "name": "3ce5c6395ab7dd70d633123588ae4c42", "fusion_lat": 0.0, "fusion_lon": 0.0, "rental_uris": {"android": "https://dc.lft.to/lastmile_qr_scan", "ios": "https://dc.lft.to/lastmile_qr_scan"},