{"data": {"bikes": [{"lat": 38.90067583333333, "lon": -77.02618083333333, "is_disabled": 0, "fusion_lon": 0.0, "is_reserved": 0, "name": "97bb6885f28499e1ad47476b6bd2910d", "type": "electric_bike", "bike_id": "97bb6885f28499e1ad47476b6bd2910d", "rental_uris": {"ios": "https://dc.lft.to/lastmile_qr_scan", "android": "https://dc.lft.to/lastmile_qr_scan"}, "fusion_lat": 0.0}, {"lat": 38.98098383333333, "lon": -77.09757616666667, "is_disabled": 0, "fusion_lon": 0.0, "is_reserved": 0, "name": "c2cd99ddb8b436858c17c3465c4d53f9", "type": "electric_bike", "bike_id": "c2cd99ddb8b436858c17c3465c4d53f9", "rental_uris": {"ios": "https://dc.lft.to/lastmile_qr_scan", "android": "https://dc.lft.to/lastmile_qr_scan"}, "fusion_lat": 0.0}, {"lat": 38.906174666666665, "lon": -77.03897983333333, "is_disabled": 0, "fusion_lon": 0.0, "is_reserved": 0, "name": "11860433b1eb43ff08a0424e515ffb4d", "type": "electric_scooter", "bike_id": "11860433b1eb43ff08a0424e515ffb4d", "rental_uris": {"ios": "https://dc.lft.to/lastmile_qr_scan", "android": "https://dc.lft.to/lastmile_qr_scan"}, "fusion_lat": 0.0}, {"lat": 38.8992, "lon": -77.00342316666666, "is_disabled": 0, "fusion_lon": 0.0, "is_reserved": 0, "name": "42efb542a4c6fcedd5d6b5e3ddec09ee", "type": "electric_scooter", "bike_id": "42efb542a4c6fcedd5d6b5e3ddec09ee", "rental_uris": {"ios": "https://dc.lft.to/lastmile_qr_scan", "android": "https://dc.lft.to/lastmile_qr_scan"}, "fusion_lat": 0.0}, {"lat": 38.873779, "lon": -77.00162216666666, "is_disabled": 0, "fusion_lon": 0.0, "is_reserved": 0, "name": "725c0b6242ddb08788c6c5478fc3f8df", "type": "electric_scooter", "bike_id": "725c0b6242ddb08788c6c5478fc3f8df", "rental_uris": {"ios": "https://dc.lft.to/lastmile_qr_scan", "android": "https://dc.lft.to/lastmile_qr_scan"}, "fusion_lat": 0.0}, {"lat": 38.912612333333335, "lon": -77.03056183333334, "is_disabled": 0, "fusion_lon": 0.0, "is_reserved": 0, "name": "12452df2861e28237190229272fa97e8", "type": "electric_scooter", "bike_id": "12452df2861e28237190229272fa97e8", "rental_uris": {"ios": "https://dc.lft.to/lastmile_qr_scan", "android": "https://dc.lft.to/lastmile_qr_scan"}, "fusion_lat": 0.0}, {"lat": 39.01419966666667, "lon": -77.044967, "is_disabled": 0, "fusion_lon": 0.0, "is_reserved": 0, "name": "60633d0770ade6901c1a270cac09d8b8", "type": "electric_bike", "bike_id": "60633d0770ade6901c1a270cac09d8b8", "rental_uris": {"ios": "https://dc.lft.to/lastmile_qr_scan", "android": "https://dc.lft.to/lastmile_qr_scan"}, "fusion_lat": 0.0}, {"lat": 38.909448, "lon": -77.02307733333333, "is_disabled": 0, "fusion_lon": 0.0, "is_reserved": 0, "name": "bcaf29e1293719e56dec67b96ed5f163", "type": "electric_scooter", "bike_id": "bcaf29e1293719e56dec67b96ed5f163", "rental_uris": {"ios": "https://dc.lft.to/lastmile_qr_scan", "android": "https://dc.lft.to/lastmile_qr_scan"}, "fusion_lat": 0.0}, {"lat": 38.9343005, "lon": -77.04005816666667, "is_disabled": 0, "fusion_lon": 0.0, "is_reserved": 0, "name": "c28000f938484d6c0937145c3302a02d", "type": "electric_scooter", "bike_id": "c28000f938484d6c0937145c3302a02d", "rental_uris": {"ios": "https://dc.lft.to/lastmile_qr_scan", "android": "https://dc.lft.to/lastmile_qr_scan"}, "fusion_lat": 0.0}, {"lat": 38.875477833333335, "lon": -77.00536533333333, "is_disabled": 0, "fusion_lon": 0.0, "is_reserved": 0, "name": "59b03036956b221cbeae1d23a225ca52", "type": "electric_scooter", "bike_id": "59b03036956b221cbeae1d23a225ca52", "rental_uris": {"ios": "https://dc.lft.to/lastmile_qr_scan", "android": "https://dc.lft.to/lastmile_qr_scan"}, "fusion_lat": 0.0}, {"lat": 38.8957, "lon": -77.127396, "is_disabled": 0, "fusion_lon": 0.0, "is_reserved": 0, "name": "4ec1da550ab46360e2ad93b228279a03", "type": "electric_bike", "bike_id": "4ec1da550ab46360e2ad93b228279a03", "rental_uris": {"ios": "https://dc.lft.to/lastmile_qr_scan", "android": "https://dc.lft.to/lastmile_qr_scan"}, "fusion_lat": 0.0}, {"lat": 38.885781333333334, "lon": -77.00593716666667, "is_disabled": 0, "fusion_lon": 0.0, "is_reserved": 0, "name": "56decccc3442245109e3232028a5aed6", "type": "electric_scooter", "bike_id": "56decccc3442245109e3232028a5aed6", "rental_uris": {"ios": "https://dc.lft.to/lastmile_qr_scan", "android": "https://dc.lft.to/lastmile_qr_scan"}, "fusion_lat": 0.0}, {"lat": 38.90512533333333, "lon": -77.06019016666667, "is_disabled": 0, "fusion_lon": 0.0, "is_reserved": 0, "name": "15baeb1205995a416a4d681c901200a3", "type": "electric_scooter", "bike_id": "15baeb1205995a416a4d681c901200a3", "rental_uris": {"ios": "https://dc.lft.to/lastmile_qr_scan", "android": "https://dc.lft.to/lastmile_qr_scan"}, "fusion_lat": 0.0}, {"lat": 38.930536833333335, "lon": -77.03172883333333, "is_disabled": 0, "fusion_lon": 0.0, "is_reserved": 0, "name": "238fec3eb6aeef459336c84dbd00ea69", "type": "electric_scooter", "bike_id": "238fec3eb6aeef459336c84dbd00ea69", "rental_uris": {"ios": "https://dc.lft.to/lastmile_qr_scan", "android": "https://dc.lft.to/lastmile_qr_scan"}, "fusion_lat": 0.0}, {"lat": 38.90788666666667, "lon": -77.035994, "is_disabled": 0, "fusion_lon": 0.0, "is_reserved": 0, "name": "9eec8d46e03e6a18b523cd67b159eb7b", "type": "electric_scooter", "bike_id": "9eec8d46e03e6a18b523cd67b159eb7b", "rental_uris": {"ios": "https://dc.lft.to/lastmile_qr_scan", "android": "https://dc.lft.to/lastmile_qr_scan"}, "fusion_lat": 0.0}, {"lat": 38.90149683333333, "lon": -76.97426183333333, "is_disabled": 0, "fusion_lon": 0.0, "is_reserved": 0, "name": "3850a5805073f094030aafcd6718356e", "type": "electric_scooter", "bike_id": "3850a5805073f094030aafcd6718356e", "rental_uris": {"ios": "https://dc.lft.to/lastmile_qr_scan", "android": "https://dc.lft.to/lastmile_qr_scan"}, "fusion_lat": 0.0}, {"lat": 38.90498133333333, "lon": -77.02820433333333, "is_disabled": 0, "fusion_lon": 0.0, "is_reserved": 0, "name": "7e3acd2b834fe9bacb5af95786e3681c", "type": "electric_scooter", "bike_id": "7e3acd2b834fe9bacb5af95786e3681c", "rental_uris": {"ios": "https://dc.lft.to/lastmile_qr_scan", "android": "https://dc.lft.to/lastmile_qr_scan"}, "fusion_lat": 0.0}, {"lat": 38.9141835, "lon": -77.02099766666667, "is_disabled": 0, "fusion_lon": 0.0, "is_reserved": 0, "name": "16661486b68f5819ea89d2547ca22fc4", "type": "electric_scooter", "bike_id": "16661486b68f5819ea89d2547ca22fc4", "rental_uris": {"ios": "https://dc.lft.to/lastmile_qr_scan", "android": "https://dc.lft.to/lastmile_qr_scan"}, "fusion_lat": 0.0}, {"lat": 38.8875045, "lon": -77.0177935, "is_disabled": 0, "fusion_lon": 0.0, "is_reserved": 0, "name": "217ee1dc83c7101ae2c64075c4a22930", "type": "electric_scooter", "bike_id": "217ee1dc83c7101ae2c64075c4a22930", "rental_uris": {"ios": "https://dc.lft.to/lastmile_qr_scan", "android": "https://dc.lft.to/lastmile_qr_scan"}, "fusion_lat": 0.0}, {"lat": 38.897416, "lon": -77.01279066666666, "is_disabled": 0, "fusion_lon": 0.0, "is_reserved": 0, "name": "7c77cccd2959cb1e1f455db3862151d1", "type": "electric_scooter", "bike_id": "7c77cccd2959cb1e1f455db3862151d1", "rental_uris": {"ios": "https://dc.lft.to/lastmile_qr_scan", "android": "https://dc.lft.to/lastmile_qr_scan"}, "fusion_lat": 0.0}, {"lat": 38.922184333333334, "lon": -77.03783766666666, "is_disabled": 0, "fusion_lon": 0.0, "is_reserved": 0, "name": "afdc05acc7529ec7ac424cb06cc5d546", "type": "electric_scooter", "bike_id": "afdc05acc7529ec7ac424cb06cc5d546", "rental_uris": {"ios": "https://dc.lft.to/lastmile_qr_scan", "android": "https://dc.lft.to/lastmile_qr_scan"}, "fusion_lat": 0.0}, {"lat": 38.887684666666665, "lon": -76.98297866666667, "is_disabled": 0, "fusion_lon": 0.0, "is_reserved": 0, "name": "b7c046f9e3be7fc5804a96b4d0b289bc", "type": "electric_scooter", "bike_id": "b7c046f9e3be7fc5804a96b4d0b289bc", "rental_uris": {"ios": "https://dc.lft.to/lastmile_qr_scan", "android": "https://dc.lft.to/lastmile_qr_scan"}, "fusion_lat": 0.0}, {"lat": 38.919887, "lon": -76.97304733333333, "is_disabled": 0, "fusion_lon": 0.0, "is_reserved": 0, "name": "23296e83e428de1286dc4e0f63b8e750", "type": "electric_scooter", "bike_id": "23296e83e428de1286dc4e0f63b8e750", "rental_uris": {"ios": "https://dc.lft.to/lastmile_qr_scan", "android": "https://dc.lft.to/lastmile_qr_scan"}, "fusion_lat": 0.0}, {"lat": 38.932151833333336, "lon": -77.03514616666666, "is_disabled": 0, "fusion_lon": 0.0, "is_reserved": 0, "name": "86520c0a2879bb9862f68d5dba408fd2", "type": "electric_scooter", "bike_id": "86520c0a2879bb9862f68d5dba408fd2", "rental_uris": {"ios": "https://dc.lft.to/lastmile_qr_scan", "android": "https://dc.lft.to/lastmile_qr_scan"}, "fusion_lat": 0.0}, {"lat": 38.91597816666667, "lon": -77.01485516666666, "is_disabled": 0, "fusion_lon": 0.0, "is_reserved": 0, "name": "46c1b9d20a659a123010d3ad969779fb", "type": "electric_scooter", "bike_id": "46c1b9d20a659a123010d3ad969779fb", "rental_uris": {"ios": "https://dc.lft.to/lastmile_qr_scan", "android": "https://dc.lft.to/lastmile_qr_scan"}, "fusion_lat": 0.0}, {"lat": 38.908087333333334, "lon": -77.042249, "is_disabled": 0, "fusion_lon": 0.0, "is_reserved": 0, "name": "cbb1a885c554273696e369a906cce126", "type": "electric_scooter", "bike_id": "cbb1a885c554273696e369a906cce126", "rental_uris": {"ios": "https://dc.lft.to/lastmile_qr_scan", "android": "https://dc.lft.to/lastmile_qr_scan"}, "fusion_lat": 0.0}, {"lat": 38.903945, "lon": -77.051642, "is_disabled": 0, "fusion_lon": 0.0, "is_reserved": 0, "name": "b324d2985f148a1d5cef5a866e5c9cc0", "type": "electric_scooter", "bike_id": "b324d2985f148a1d5cef5a866e5c9cc0", "rental_uris": {"ios": "https://dc.lft.to/lastmile_qr_scan", "android": "https://dc.lft.to/lastmile_qr_scan"}, "fusion_lat": 0.0}, {"lat": 38.917384, "lon": -77.0211635, "is_disabled": 0, "fusion_lon": 0.0, "is_reserved": 0, "name": "a51c0c971e0ce2e49ee7e6f203a0e520", "type": "electric_scooter", "bike_id": "a51c0c971e0ce2e49ee7e6f203a0e520", "rental_uris": {"ios": "https://dc.lft.to/lastmile_qr_scan", "android": "https://dc.lft.to/lastmile_qr_scan"}, "fusion_lat": 0.0}, {"lat": 38.920671666666664, "lon": -77.04225383333333, "is_disabled": 0, "fusion_lon": 0.0, "is_reserved": 0, "name": "c870d63d035047398b7faf5262b101e9", "type": "electric_scooter", "bike_id": "c870d63d035047398b7faf5262b101e9", "rental_uris": {"ios": "https://dc.lft.to/lastmile_qr_scan", "android": "https://dc.lft.to/lastmile_qr_scan"}, "fusion_lat": 0.0}, {"lat": 38.884090666666665, "lon": -77.01767816666667, "is_disabled": 0, "fusion_lon": 0.0, "is_reserved": 0, "name": "0ac25f779f0db462355c2c7c549374b1", "type": "electric_scooter", "bike_id": "0ac25f779f0db462355c2c7c549374b1", "rental_uris": {"ios": "https://dc.lft.to/lastmile_qr_scan", "android": "https://dc.lft.to/lastmile_qr_scan"}, "fusion_lat": 0.0}, {"lat": 38.905061, "lon": -77.049218, "is_disabled": 0, "fusion_lon": 0.0, "is_reserved": 0, "name": "57ac31b504baf9e0440b4e584863c2e9", "type": "electric_scooter", "bike_id": "57ac31b504baf9e0440b4e584863c2e9", "rental_uris": {"ios": "https://dc.lft.to/lastmile_qr_scan", "android": "https://dc.lft.to/lastmile_qr_scan"}, "fusion_lat": 0.0}, {"lat": 38.92395616666667, "lon": -77.02739, "is_disabled": 0, "fusion_lon": 0.0, "is_reserved": 0, "name": "6bfe50f81c0ba9dfc45c3b004299a3ca", "type": "electric_scooter", "bike_id": "6bfe50f81c0ba9dfc45c3b004299a3ca", "rental_uris": {"ios": "https://dc.lft.to/lastmile_qr_scan", "android": "https://dc.lft.to/lastmile_qr_scan"}, "fusion_lat": 0.0}, {"lat": 38.92288533333333, "lon": -77.03658966666667, "is_disabled": 0, "fusion_lon": 0.0, "is_reserved": 0, "name": "e5f1bf4e48997e61f3493fa988f35449", "type": "electric_scooter", "bike_id": "e5f1bf4e48997e61f3493fa988f35449", "rental_uris": {"ios": "https://dc.lft.to/lastmile_qr_scan", "android": "https://dc.lft.to/lastmile_qr_scan"}, "fusion_lat": 0.0}, {"lat": 39.03430316666667, "lon": -77.04309866666667, "is_disabled": 0, "fusion_lon": 0.0, "is_reserved": 0, "name": "27ad9cb0f991668f77ca6d5416a731cd", "type": "electric_bike", "bike_id": "27ad9cb0f991668f77ca6d5416a731cd", "rental_uris": {"ios": "https://dc.lft.to/lastmile_qr_scan", "android": "https://dc.lft.to/lastmile_qr_scan"}, "fusion_lat": 0.0}, {"lat": 38.90985833333333, "lon": -77.02201966666667, "is_disabled": 0, "fusion_lon": 0.0, "is_reserved": 0, "name": "687b1dbb7511cd5c21c725d6c3ab6a69", "type": "electric_scooter", "bike_id": "687b1dbb7511cd5c21c725d6c3ab6a69", "rental_uris": {"ios": "https://dc.lft.to/lastmile_qr_scan", "android": "https://dc.lft.to/lastmile_qr_scan"}, "fusion_lat": 0.0}, {"lat": 38.92333933333333, "lon": -77.0228725, "is_disabled": 0, "fusion_lon": 0.0, "is_reserved": 0, "name": "cfd8258ec4f12a851fff0c67acad71e4", "type": "electric_scooter", "bike_id": "cfd8258ec4f12a851fff0c67acad71e4", "rental_uris": {"ios": "https://dc.lft.to/lastmile_qr_scan", "android": "https://dc.lft.to/lastmile_qr_scan"}, "fusion_lat": 0.0}, {"lat": 38.92870416666667, "lon": -77.03663733333333, "is_disabled": 0, "fusion_lon": 0.0, "is_reserved": 0, "name": "f24b37770ed67c2371150213aa42cebc", "type": "electric_scooter", "bike_id": "f24b37770ed67c2371150213aa42cebc", "rental_uris": {"ios": "https://dc.lft.to/lastmile_qr_scan", "android": "https://dc.lft.to/lastmile_qr_scan"}, "fusion_lat": 0.0}, {"lat": 38.874820166666666, "lon": -77.0059565, "is_disabled": 0, "fusion_lon": 0.0, "is_reserved": 0, "name": "1c0acc392390e385ee203ab387b31814", "type": "electric_scooter", "bike_id": "1c0acc392390e385ee203ab387b31814", "rental_uris": {"ios": "https://dc.lft.to/lastmile_qr_scan", "android": "https://dc.lft.to/lastmile_qr_scan"}, "fusion_lat": 0.0}, {"lat": 38.860711333333334, "lon": -76.96715366666666, "is_disabled": 0, "fusion_lon": 0.0, "is_reserved": 0, "name": "bbab17e194c1c6305d53ef097ae5a582", "type": "electric_scooter", "bike_id": "bbab17e194c1c6305d53ef097ae5a582", "rental_uris": {"ios": "https://dc.lft.to/lastmile_qr_scan", "android": "https://dc.lft.to/lastmile_qr_scan"}, "fusion_lat": 0.0}, {"lat": 38.906789333333336, "lon": -77.05012183333334, "is_disabled": 0, "fusion_lon": 0.0, "is_reserved": 0, "name": "9a47e97fa1004f1030e655aa7d8788af", "type": "electric_scooter", "bike_id": "9a47e97fa1004f1030e655aa7d8788af", "rental_uris": {"ios": "https://dc.lft.to/lastmile_qr_scan", "android": "https://dc.lft.to/lastmile_qr_scan"}, "fusion_lat": 0.0}, {"lat": 38.9161345, "lon": -77.0115385, "is_disabled": 0, "fusion_lon": 0.0, "is_reserved": 0, "name": "31073a7786b0dbeb28175ca1109eeb4c", "type": "electric_scooter", "bike_id": "31073a7786b0dbeb28175ca1109eeb4c", "rental_uris": {"ios": "https://dc.lft.to/lastmile_qr_scan", "android": "https://dc.lft.to/lastmile_qr_scan"}, "fusion_lat": 0.0}, {"lat": 38.853373166666664, "lon": -77.11504583333334, "is_disabled": 0, "fusion_lon": 0.0, "is_reserved": 0, "name": "29161bf3963bb7e32127fe20c19020d6", "type": "electric_bike", "bike_id": "29161bf3963bb7e32127fe20c19020d6", "rental_uris": {"ios": "https://dc.lft.to/lastmile_qr_scan", "android": "https://dc.lft.to/lastmile_qr_scan"}, "fusion_lat": 0.0}, {"lat": 38.89993, "lon": -77.05537166666667, "is_disabled": 0, "fusion_lon": 0.0, "is_reserved": 0, "name": "1a2d9c1fee4055711dff5774527c3546", "type": "electric_scooter", "bike_id": "1a2d9c1fee4055711dff5774527c3546", "rental_uris": {"ios": "https://dc.lft.to/lastmile_qr_scan", "android": "https://dc.lft.to/lastmile_qr_scan"}, "fusion_lat": 0.0}, {"lat": 38.86890016666667, "lon": -76.9900355, "is_disabled": 0, "fusion_lon": 0.0, "is_reserved": 0, "name": "ddd762051f6adb9ccd09e200455360ec", "type": "electric_scooter", "bike_id": "ddd762051f6adb9ccd09e200455360ec", "rental_uris": {"ios": "https://dc.lft.to/lastmile_qr_scan", "android": "https://dc.lft.to/lastmile_qr_scan"}, "fusion_lat": 0.0}, {"lat": 38.91910416666666, "lon": -77.02727116666667, "is_disabled": 0, "fusion_lon": 0.0, "is_reserved": 0, "name": "0c630c5de8761cb54efb9ecd7e6c4c3a", "type": "electric_scooter", "bike_id": "0c630c5de8761cb54efb9ecd7e6c4c3a", "rental_uris": {"ios": "https://dc.lft.to/lastmile_qr_scan", "android": "https://dc.lft.to/lastmile_qr_scan"}, "fusion_lat": 0.0}, {"lat": 38.922738333333335, "lon": -77.04242266666667, "is_disabled": 0, "fusion_lon": 0.0, "is_reserved": 0, "name": "1ff6a3622a4da6cdf06eaa1420796e2a", "type": "electric_scooter", "bike_id": "1ff6a3622a4da6cdf06eaa1420796e2a", "rental_uris": {"ios": "https://dc.lft.to/lastmile_qr_scan", "android": "https://dc.lft.to/lastmile_qr_scan"}, "fusion_lat": 0.0}, {"lat": 38.89666666666667, "lon": -77.050279, "is_disabled": 0, "fusion_lon": 0.0, "is_reserved": 0, "name": "3bc3463733c6ef97a384690898a64881", "type": "electric_scooter", "bike_id": "3bc3463733c6ef97a384690898a64881", "rental_uris": {"ios": "https://dc.lft.to/lastmile_qr_scan", "android": "https://dc.lft.to/lastmile_qr_scan"}, "fusion_lat": 0.0}, {"lat": 38.87660183333333, "lon": -76.99463033333333, "is_disabled": 0, "fusion_lon": 0.0, "is_reserved": 0, "name": "6a3c47e7c8d0182f90ba970711f2785b", "type": "electric_scooter", "bike_id": "6a3c47e7c8d0182f90ba970711f2785b", "rental_uris": {"ios": "https://dc.lft.to/lastmile_qr_scan", "android": "https://dc.lft.to/lastmile_qr_scan"}, "fusion_lat": 0.0}, {"lat": 38.904262333333335, "lon": -77.027711, "is_disabled": 0, "fusion_lon": 0.0, "is_reserved": 0, "name": "2f01122371edf7356571f704d9baee22", "type": "electric_scooter", "bike_id": "2f01122371edf7356571f704d9baee22", "rental_uris": {"ios": "https://dc.lft.to/lastmile_qr_scan", "android": "https://dc.lft.to/lastmile_qr_scan"}, "fusion_lat": 0.0}, {"lat": 38.897770333333334, "lon": -76.98464083333333, "is_disabled": 0, "fusion_lon": 0.0, "is_reserved": 0, "name": "d7a952f1f9523f2c757e1203634e6b45", "type": "electric_scooter", "bike_id": "d7a952f1f9523f2c757e1203634e6b45", "rental_uris": {"ios": "https://dc.lft.to/lastmile_qr_scan", "android": "https://dc.lft.to/lastmile_qr_scan"}, "fusion_lat": 0.0}, {"lat": 38.902504, "lon": -77.06267133333333, "is_disabled": 0, "fusion_lon": 0.0, "is_reserved": 0, "name": "9195d66bc04d95fbb430369b86d77ba6", "type": "electric_scooter", "bike_id": "9195d66bc04d95fbb430369b86d77ba6", "rental_uris": {"ios": "https://dc.lft.to/lastmile_qr_scan", "android": "https://dc.lft.to/lastmile_qr_scan"}, "fusion_lat": 0.0}, {"lat": 38.920300833333336, "lon": -77.01033766666667, "is_disabled": 0, "fusion_lon": 0.0, "is_reserved": 0, "name": "08248c0ca6516dfdf8c1f10c544292a8", "type": "electric_scooter", "bike_id": "08248c0ca6516dfdf8c1f10c544292a8", "rental_uris": {"ios": "https://dc.lft.to/lastmile_qr_scan", "android": "https://dc.lft.to/lastmile_qr_scan"}, "fusion_lat": 0.0}, {"lat": 38.898952333333334, "lon": -77.00989566666667, "is_disabled": 0, "fusion_lon": 0.0, "is_reserved": 0, "name": "e302138d24b6a2b0eb8f945228f2d93e", "type": "electric_scooter", "bike_id": "e302138d24b6a2b0eb8f945228f2d93e", "rental_uris": {"ios": "https://dc.lft.to/lastmile_qr_scan", "android": "https://dc.lft.to/lastmile_qr_scan"}, "fusion_lat": 0.0}, {"lat": 38.95634283333333, "lon": -77.033033, "is_disabled": 0, "fusion_lon": 0.0, "is_reserved": 0, "name": "19566a6e99d0b9efa652f7b427b35732", "type": "electric_scooter", "bike_id": "19566a6e99d0b9efa652f7b427b35732", "rental_uris": {"ios": "https://dc.lft.to/lastmile_qr_scan", "android": "https://dc.lft.to/lastmile_qr_scan"}, "fusion_lat": 0.0}, {"lat": 38.905781833333336, "lon": -77.045269, "is_disabled": 0, "fusion_lon": 0.0, "is_reserved": 0, "name": "d7cb88c3d35e283971ef4bd1e6a47a2c", "type": "electric_scooter", "bike_id": "d7cb88c3d35e283971ef4bd1e6a47a2c", "rental_uris": {"ios": "https://dc.lft.to/lastmile_qr_scan", "android": "https://dc.lft.to/lastmile_qr_scan"}, "fusion_lat": 0.0}, {"lat": 38.921791166666665, "lon": -77.04035316666666, "is_disabled": 0, "fusion_lon": 0.0, "is_reserved": 0, "name": "0d8a559c36640b59b6769fba6becbf5a", "type": "electric_scooter", "bike_id": "0d8a559c36640b59b6769fba6becbf5a", "rental_uris": {"ios": "https://dc.lft.to/lastmile_qr_scan", "android": "https://dc.lft.to/lastmile_qr_scan"}, "fusion_lat": 0.0}, {"lat": 38.806833166666664, "lon": -77.06916383333333, "is_disabled": 0, "fusion_lon": 0.0, "is_reserved": 0, "name": "114233dc820e6ef261783f8f4462f7a4", "type": "electric_bike", "bike_id": "114233dc820e6ef261783f8f4462f7a4", "rental_uris": {"ios": "https://dc.lft.to/lastmile_qr_scan", "android": "https://dc.lft.to/lastmile_qr_scan"}, "fusion_lat": 0.0}, {"lat": 38.9308675, "lon": -77.034104, "is_disabled": 0, "fusion_lon": 0.0, "is_reserved": 0, "name": "a521407e7db72a8df43fd81654b35a0f", "type": "electric_scooter", "bike_id": "a521407e7db72a8df43fd81654b35a0f", "rental_uris": {"ios": "https://dc.lft.to/lastmile_qr_scan", "android": "https://dc.lft.to/lastmile_qr_scan"}, "fusion_lat": 0.0}, {"lat": 38.901173166666666, "lon": -77.03250766666666, "is_disabled": 0, "fusion_lon": 0.0, "is_reserved": 0, "name": "519e0530ab35736411e622eca90c4a60", "type": "electric_scooter", "bike_id": "519e0530ab35736411e622eca90c4a60", "rental_uris": {"ios": "https://dc.lft.to/lastmile_qr_scan", "android": "https://dc.lft.to/lastmile_qr_scan"}, "fusion_lat": 0.0}, {"lat": 38.901406333333334, "lon": -77.03854483333333, "is_disabled": 0, "fusion_lon": 0.0, "is_reserved": 0, "name": "ee431aed0d9f407d9d3457abeae72951", "type": "electric_scooter", "bike_id": "ee431aed0d9f407d9d3457abeae72951", "rental_uris": {"ios": "https://dc.lft.to/lastmile_qr_scan", "android": "https://dc.lft.to/lastmile_qr_scan"}, "fusion_lat": 0.0}, {"lat": 38.93950516666666, "lon": -77.02184866666667, "is_disabled": 0, "fusion_lon": 0.0, "is_reserved": 0, "name": "c27c4e888143e35547747f698ad9d615", "type": "electric_scooter", "bike_id": "c27c4e888143e35547747f698ad9d615", "rental_uris": {"ios": "https://dc.lft.to/lastmile_qr_scan", "android": "https://dc.lft.to/lastmile_qr_scan"}, "fusion_lat": 0.0}, {"lat": 38.9445145, "lon": -77.06355933333333, "is_disabled": 0, "fusion_lon": 0.0, "is_reserved": 0, "name": "037bdc2db75c3d9da40c4c16b177a256", "type": "electric_bike", "bike_id": "037bdc2db75c3d9da40c4c16b177a256", "rental_uris": {"ios": "https://dc.lft.to/lastmile_qr_scan", "android": "https://dc.lft.to/lastmile_qr_scan"}, "fusion_lat": 0.0}, {"lat": 38.928424166666666, "lon": -77.00602266666667, "is_disabled": 0, "fusion_lon": 0.0, "is_reserved": 0, "name": "e2cba4fe965a6cb8ec60319be82e6ed8", "type": "electric_scooter", "bike_id": "e2cba4fe965a6cb8ec60319be82e6ed8", "rental_uris": {"ios": "https://dc.lft.to/lastmile_qr_scan", "android": "https://dc.lft.to/lastmile_qr_scan"}, "fusion_lat": 0.0}, {"lat": 38.9279875, "lon": -77.0273605, "is_disabled": 0, "fusion_lon": 0.0, "is_reserved": 0, "name": "be7a564aaaa3eee432dad0ef01e24b51", "type": "electric_scooter", "bike_id": "be7a564aaaa3eee432dad0ef01e24b51", "rental_uris": {"ios": "https://dc.lft.to/lastmile_qr_scan", "android": "https://dc.lft.to/lastmile_qr_scan"}, "fusion_lat": 0.0}, {"lat": 38.918019666666666, "lon": -77.0401375, "is_disabled": 0, "fusion_lon": 0.0, "is_reserved": 0, "name": "76f9650b125d71d007f4de94baaab59b", "type": "electric_scooter", "bike_id": "76f9650b125d71d007f4de94baaab59b", "rental_uris": {"ios": "https://dc.lft.to/lastmile_qr_scan", "android": "https://dc.lft.to/lastmile_qr_scan"}, "fusion_lat": 0.0}, {"lat": 38.927567, "lon": -77.03282116666666, "is_disabled": 0, "fusion_lon": 0.0, "is_reserved": 0, "name": "135cde1234e2653735659f79890a61e1", "type": "electric_scooter", "bike_id": "135cde1234e2653735659f79890a61e1", "rental_uris": {"ios": "https://dc.lft.to/lastmile_qr_scan", "android": "https://dc.lft.to/lastmile_qr_scan"}, "fusion_lat": 0.0}, {"lat": 38.87671516666666, "lon": -77.00332683333333, "is_disabled": 0, "fusion_lon": 0.0, "is_reserved": 0, "name": "77b979f1dbd6f851d1a6ba2139b9f5f2", "type": "electric_scooter", "bike_id": "77b979f1dbd6f851d1a6ba2139b9f5f2", "rental_uris": {"ios": "https://dc.lft.to/lastmile_qr_scan", "android": "https://dc.lft.to/lastmile_qr_scan"}, "fusion_lat": 0.0}, {"lat": 38.9034095, "lon": -77.02935383333333, "is_disabled": 0, "fusion_lon": 0.0, "is_reserved": 0, "name": "0aa4a6d9ac82b4cb66b3c2ec466f10d7", "type": "electric_scooter", "bike_id": "0aa4a6d9ac82b4cb66b3c2ec466f10d7", "rental_uris": {"ios": "https://dc.lft.to/lastmile_qr_scan", "android": "https://dc.lft.to/lastmile_qr_scan"}, "fusion_lat": 0.0}, {"lat": 38.91272383333333, "lon": -77.044634, "is_disabled": 0, "fusion_lon": 0.0, "is_reserved": 0, "name": "d74a0fdafe28cc4946d4ad1505ccb0a6", "type": "electric_scooter", "bike_id": "d74a0fdafe28cc4946d4ad1505ccb0a6", "rental_uris": {"ios": "https://dc.lft.to/lastmile_qr_scan", "android": "https://dc.lft.to/lastmile_qr_scan"}, "fusion_lat": 0.0}, {"lat": 38.892314666666664, "lon": -77.04897, "is_disabled": 0, "fusion_lon": 0.0, "is_reserved": 0, "name": "a10113cf9c7d2808a04db3a3b757a352", "type": "electric_scooter", "bike_id": "a10113cf9c7d2808a04db3a3b757a352", "rental_uris": {"ios": "https://dc.lft.to/lastmile_qr_scan", "android": "https://dc.lft.to/lastmile_qr_scan"}, "fusion_lat": 0.0}, {"lat": 38.9397565, "lon": -77.03691583333334, "is_disabled": 0, "fusion_lon": 0.0, "is_reserved": 0, "name": "9514d047260b5ca246a4d52abf938a6e", "type": "electric_scooter", "bike_id": "9514d047260b5ca246a4d52abf938a6e", "rental_uris": {"ios": "https://dc.lft.to/lastmile_qr_scan", "android": "https://dc.lft.to/lastmile_qr_scan"}, "fusion_lat": 0.0}, {"lat": 38.896532, "lon": -77.050261, "is_disabled": 0, "fusion_lon": 0.0, "is_reserved": 0, "name": "a9155c8978bcc6e0fc2744724826f599", "type": "electric_scooter", "bike_id": "a9155c8978bcc6e0fc2744724826f599", "rental_uris": {"ios": "https://dc.lft.to/lastmile_qr_scan", "android": "https://dc.lft.to/lastmile_qr_scan"}, "fusion_lat": 0.0}, {"lat": 38.924855666666666, "lon": -77.02274966666667, "is_disabled": 0, "fusion_lon": 0.0, "is_reserved": 0, "name": "58e69c6a3e2157df074ad6a3bd3a8085", "type": "electric_scooter", "bike_id": "58e69c6a3e2157df074ad6a3bd3a8085", "rental_uris": {"ios": "https://dc.lft.to/lastmile_qr_scan", "android": "https://dc.lft.to/lastmile_qr_scan"}, "fusion_lat": 0.0}, {"lat": 38.8956915, "lon": -77.02554666666667, "is_disabled": 0, "fusion_lon": 0.0, "is_reserved": 0, "name": "3ce088a7cd3f6110a589ccc2bba0a198", "type": "electric_bike", "bike_id": "3ce088a7cd3f6110a589ccc2bba0a198", "rental_uris": {"ios": "https://dc.lft.to/lastmile_qr_scan", "android": "https://dc.lft.to/lastmile_qr_scan"}, "fusion_lat": 0.0}, {"lat": 38.89906116666667, "lon": -77.027234, "is_disabled": 0, "fusion_lon": 0.0, "is_reserved": 0, "name": "c329a23b313ebdcc6c429d97b60f8856", "type": "electric_scooter", "bike_id": "c329a23b313ebdcc6c429d97b60f8856", "rental_uris": {"ios": "https://dc.lft.to/lastmile_qr_scan", "android": "https://dc.lft.to/lastmile_qr_scan"}, "fusion_lat": 0.0}, {"lat": 38.9212535, "lon": -77.2367985, "is_disabled": 0, "fusion_lon": 0.0, "is_reserved": 0, "name": "61b40000554ec4f135e2f8e5fdfc7ae1", "type": "electric_bike", "bike_id": "61b40000554ec4f135e2f8e5fdfc7ae1", "rental_uris": {"ios": "https://dc.lft.to/lastmile_qr_scan", "android": "https://dc.lft.to/lastmile_qr_scan"}, "fusion_lat": 0.0}, {"lat": 38.938439833333334, "lon": -77.03380083333333, "is_disabled": 0, "fusion_lon": 0.0, "is_reserved": 0, "name": "3c3e8b73d7fff8012e815e936f0b5b37", "type": "electric_scooter", "bike_id": "3c3e8b73d7fff8012e815e936f0b5b37", "rental_uris": {"ios": "https://dc.lft.to/lastmile_qr_scan", "android": "https://dc.lft.to/lastmile_qr_scan"}, "fusion_lat": 0.0}, {"lat": 38.912448499999996, "lon": -77.048858, "is_disabled": 0, "fusion_lon": 0.0, "is_reserved": 0, "name": "3b23cba131ca52c9161fe22f39df23cd", "type": "electric_scooter", "bike_id": "3b23cba131ca52c9161fe22f39df23cd", "rental_uris": {"ios": "https://dc.lft.to/lastmile_qr_scan", "android": "https://dc.lft.to/lastmile_qr_scan"}, "fusion_lat": 0.0}, {"lat": 38.891879333333335, "lon": -77.00342333333333, "is_disabled": 0, "fusion_lon": 0.0, "is_reserved": 0, "name": "55e0bb7e5ba0f810cdf966d9e18c8965", "type": "electric_scooter", "bike_id": "55e0bb7e5ba0f810cdf966d9e18c8965", "rental_uris": {"ios": "https://dc.lft.to/lastmile_qr_scan", "android": "https://dc.lft.to/lastmile_qr_scan"}, "fusion_lat": 0.0}, {"lat": 38.911321666666666, "lon": -77.021985, "is_disabled": 0, "fusion_lon": 0.0, "is_reserved": 0, "name": "90511e4b73f8520c54ee778ba0055df3", "type": "electric_scooter", "bike_id": "90511e4b73f8520c54ee778ba0055df3", "rental_uris": {"ios": "https://dc.lft.to/lastmile_qr_scan", "android": "https://dc.lft.to/lastmile_qr_scan"}, "fusion_lat": 0.0}, {"lat": 38.9158, "lon": -77.01234283333334, "is_disabled": 0, "fusion_lon": 0.0, "is_reserved": 0, "name": "50c8e655243b092e5245f3c4d548d310", "type": "electric_scooter", "bike_id": "50c8e655243b092e5245f3c4d548d310", "rental_uris": {"ios": "https://dc.lft.to/lastmile_qr_scan", "android": "https://dc.lft.to/lastmile_qr_scan"}, "fusion_lat": 0.0}, {"lat": 38.944516, "lon": -77.0280395, "is_disabled": 0, "fusion_lon": 0.0, "is_reserved": 0, "name": "7266428a4ba4840dda00a78846f7943e", "type": "electric_scooter", "bike_id": "7266428a4ba4840dda00a78846f7943e", "rental_uris": {"ios": "https://dc.lft.to/lastmile_qr_scan", "android": "https://dc.lft.to/lastmile_qr_scan"}, "fusion_lat": 0.0}, {"lat": 38.917162166666664, "lon": -77.032519, "is_disabled": 0, "fusion_lon": 0.0, "is_reserved": 0, "name": "ee48fa8ef03a3a428c8566d7a6279f8c", "type": "electric_scooter", "bike_id": "ee48fa8ef03a3a428c8566d7a6279f8c", "rental_uris": {"ios": "https://dc.lft.to/lastmile_qr_scan", "android": "https://dc.lft.to/lastmile_qr_scan"}, "fusion_lat": 0.0}, {"lat": 38.89896916666667, "lon": -76.9808195, "is_disabled": 0, "fusion_lon": 0.0, "is_reserved": 0, "name": "24900bb74c119204b15b34e10ba2bde1", "type": "electric_scooter", "bike_id": "24900bb74c119204b15b34e10ba2bde1", "rental_uris": {"ios": "https://dc.lft.to/lastmile_qr_scan", "android": "https://dc.lft.to/lastmile_qr_scan"}, "fusion_lat": 0.0}, {"lat": 39.07057366666667, "lon": -77.11516083333333, "is_disabled": 0, "fusion_lon": 0.0, "is_reserved": 0, "name": "3b281982eb5ba8b134ccf7afbde3485b", "type": "electric_bike", "bike_id": "3b281982eb5ba8b134ccf7afbde3485b", "rental_uris": {"ios": "https://dc.lft.to/lastmile_qr_scan", "android": "https://dc.lft.to/lastmile_qr_scan"}, "fusion_lat": 0.0}, {"lat": 38.898872, "lon": -77.04881233333333, "is_disabled": 0, "fusion_lon": 0.0, "is_reserved": 0, "name": "6244c5a2f67f063c17e9bdee4db57145", "type": "electric_scooter", "bike_id": "6244c5a2f67f063c17e9bdee4db57145", "rental_uris": {"ios": "https://dc.lft.to/lastmile_qr_scan", "android": "https://dc.lft.to/lastmile_qr_scan"}, "fusion_lat": 0.0}, {"lat": 38.8923885, "lon": -77.02617283333333, "is_disabled": 0, "fusion_lon": 0.0, "is_reserved": 0, "name": "9e8a3da20a3513c0039df67ff1360833", "type": "electric_scooter", "bike_id": "9e8a3da20a3513c0039df67ff1360833", "rental_uris": {"ios": "https://dc.lft.to/lastmile_qr_scan", "android": "https://dc.lft.to/lastmile_qr_scan"}, "fusion_lat": 0.0}, {"lat": 38.90004916666667, "lon": -77.00662416666667, "is_disabled": 0, "fusion_lon": 0.0, "is_reserved": 0, "name": "db420c4fb7a776e25e74ba54c086948a", "type": "electric_scooter", "bike_id": "db420c4fb7a776e25e74ba54c086948a", "rental_uris": {"ios": "https://dc.lft.to/lastmile_qr_scan", "android": "https://dc.lft.to/lastmile_qr_scan"}, "fusion_lat": 0.0}, {"lat": 38.862731833333335, "lon": -76.99545683333334, "is_disabled": 0, "fusion_lon": 0.0, "is_reserved": 0, "name": "648d6789416e033b885e6658c820b679", "type": "electric_scooter", "bike_id": "648d6789416e033b885e6658c820b679", "rental_uris": {"ios": "https://dc.lft.to/lastmile_qr_scan", "android": "https://dc.lft.to/lastmile_qr_scan"}, "fusion_lat": 0.0}, {"lat": 38.91481, "lon": -77.04245666666667, "is_disabled": 0, "fusion_lon": 0.0, "is_reserved": 0, "name": "48c2dee67a89f63009c5ef3ab49067c9", "type": "electric_scooter", "bike_id": "48c2dee67a89f63009c5ef3ab49067c9", "rental_uris": {"ios": "https://dc.lft.to/lastmile_qr_scan", "android": "https://dc.lft.to/lastmile_qr_scan"}, "fusion_lat": 0.0}, {"lat": 38.920808, "lon": -77.04198133333334, "is_disabled": 0, "fusion_lon": 0.0, "is_reserved": 0, "name": "e9d06ff41ed432dbf560a87dff97432c", "type": "electric_scooter", "bike_id": "e9d06ff41ed432dbf560a87dff97432c", "rental_uris": {"ios": "https://dc.lft.to/lastmile_qr_scan", "android": "https://dc.lft.to/lastmile_qr_scan"}, "fusion_lat": 0.0}, {"lat": 38.90126266666667, "lon": -77.032094, "is_disabled": 0, "fusion_lon": 0.0, "is_reserved": 0, "name": "a73cec0fab5c42dbcd22ed17b3647538", "type": "electric_scooter", "bike_id": "a73cec0fab5c42dbcd22ed17b3647538", "rental_uris": {"ios": "https://dc.lft.to/lastmile_qr_scan", "android": "https://dc.lft.to/lastmile_qr_scan"}, "fusion_lat": 0.0}, {"lat": 38.899899833333336, "lon": -77.027081, "is_disabled": 0, "fusion_lon": 0.0, "is_reserved": 0, "name": "d8eba35049a23cacf60a615234bc09d8", "type": "electric_scooter", "bike_id": "d8eba35049a23cacf60a615234bc09d8", "rental_uris": {"ios": "https://dc.lft.to/lastmile_qr_scan", "android": "https://dc.lft.to/lastmile_qr_scan"}, "fusion_lat": 0.0}, {"lat": 38.91191333333333, "lon": -77.03503883333333, "is_disabled": 0, "fusion_lon": 0.0, "is_reserved": 0, "name": "4e22b2c1ac354a54da0663c46e8c918e", "type": "electric_scooter", "bike_id": "4e22b2c1ac354a54da0663c46e8c918e", "rental_uris": {"ios": "https://dc.lft.to/lastmile_qr_scan", "android": "https://dc.lft.to/lastmile_qr_scan"}, "fusion_lat": 0.0}, {"lat": 38.89908966666667, "lon": -76.99958266666667, "is_disabled": 0, "fusion_lon": 0.0, "is_reserved": 0, "name": "17c0d89e68c79898fff3b006059335c3", "type": "electric_scooter", "bike_id": "17c0d89e68c79898fff3b006059335c3", "rental_uris": {"ios": "https://dc.lft.to/lastmile_qr_scan", "android": "https://dc.lft.to/lastmile_qr_scan"}, "fusion_lat": 0.0}, {"lat": 38.89224683333333, "lon": -77.027779, "is_disabled": 0, "fusion_lon": 0.0, "is_reserved": 0, "name": "87c5bb3a1be9f1b1acf6198183d7433d", "type": "electric_scooter", "bike_id": "87c5bb3a1be9f1b1acf6198183d7433d", "rental_uris": {"ios": "https://dc.lft.to/lastmile_qr_scan", "android": "https://dc.lft.to/lastmile_qr_scan"}, "fusion_lat": 0.0}, {"lat": 38.91062683333333, "lon": -77.0343055, "is_disabled": 0, "fusion_lon": 0.0, "is_reserved": 0, "name": "0ece16d93ee28c720b8d475e3289b2e8", "type": "electric_scooter", "bike_id": "0ece16d93ee28c720b8d475e3289b2e8", "rental_uris": {"ios": "https://dc.lft.to/lastmile_qr_scan", "android": "https://dc.lft.to/lastmile_qr_scan"}, "fusion_lat": 0.0}, {"lat": 38.8994575, "lon": -77.04155716666666, "is_disabled": 0, "fusion_lon": 0.0, "is_reserved": 0, "name": "f5636da9a47ce40245e79b708f47e77b", "type": "electric_scooter", "bike_id": "f5636da9a47ce40245e79b708f47e77b", "rental_uris": {"ios": "https://dc.lft.to/lastmile_qr_scan", "android": "https://dc.lft.to/lastmile_qr_scan"}, "fusion_lat": 0.0}, {"lat": 38.91802966666667, "lon": -77.02490266666666, "is_disabled": 0, "fusion_lon": 0.0, "is_reserved": 0, "name": "101b18626c7557ed0509ee9fa9b89b76", "type": "electric_scooter", "bike_id": "101b18626c7557ed0509ee9fa9b89b76", "rental_uris": {"ios": "https://dc.lft.to/lastmile_qr_scan", "android": "https://dc.lft.to/lastmile_qr_scan"}, "fusion_lat": 0.0}, {"lat": 38.8991445, "lon": -76.94558683333334, "is_disabled": 0, "fusion_lon": 0.0, "is_reserved": 0, "name": "b3f465a90c319928af0b25411926d270", "type": "electric_scooter", "bike_id": "b3f465a90c319928af0b25411926d270", "rental_uris": {"ios": "https://dc.lft.to/lastmile_qr_scan", "android": "https://dc.lft.to/lastmile_qr_scan"}, "fusion_lat": 0.0}, {"lat": 38.8968645, "lon": -76.93712433333333, "is_disabled": 0, "fusion_lon": 0.0, "is_reserved": 0, "name": "8f46493e25e1abf1836e2188a6246505", "type": "electric_scooter", "bike_id": "8f46493e25e1abf1836e2188a6246505", "rental_uris": {"ios": "https://dc.lft.to/lastmile_qr_scan", "android": "https://dc.lft.to/lastmile_qr_scan"}, "fusion_lat": 0.0}, {"lat": 38.896543, "lon": -77.01868716666667, "is_disabled": 0, "fusion_lon": 0.0, "is_reserved": 0, "name": "4d36fe2b1254c616f634d8f7acf3ebc6", "type": "electric_scooter", "bike_id": "4d36fe2b1254c616f634d8f7acf3ebc6", "rental_uris": {"ios": "https://dc.lft.to/lastmile_qr_scan", "android": "https://dc.lft.to/lastmile_qr_scan"}, "fusion_lat": 0.0}, {"lat": 38.95059, "lon": -77.08027916666667, "is_disabled": 0, "fusion_lon": 0.0, "is_reserved": 0, "name": "a38d2e551ff6b35007acb15e37bff3a2", "type": "electric_scooter", "bike_id": "a38d2e551ff6b35007acb15e37bff3a2", "rental_uris": {"ios": "https://dc.lft.to/lastmile_qr_scan", "android": "https://dc.lft.to/lastmile_qr_scan"}, "fusion_lat": 0.0}, {"lat": 38.92588166666667, "lon": -77.097025, "is_disabled": 0, "fusion_lon": 0.0, "is_reserved": 0, "name": "daa9dceae1a95690d6da855d84f51d09", "type": "electric_scooter", "bike_id": "daa9dceae1a95690d6da855d84f51d09", "rental_uris": {"ios": "https://dc.lft.to/lastmile_qr_scan", "android": "https://dc.lft.to/lastmile_qr_scan"}, "fusion_lat": 0.0}, {"lat": 38.917328499999996, "lon": -77.02587616666666, "is_disabled": 0, "fusion_lon": 0.0, "is_reserved": 0, "name": "d56021dd7645e8dfeb7e6496c41e95d7", "type": "electric_scooter", "bike_id": "d56021dd7645e8dfeb7e6496c41e95d7", "rental_uris": {"ios": "https://dc.lft.to/lastmile_qr_scan", "android": "https://dc.lft.to/lastmile_qr_scan"}, "fusion_lat": 0.0}, {"lat": 38.91531583333333, "lon": -77.0486635, "is_disabled": 0, "fusion_lon": 0.0, "is_reserved": 0, "name": "f507395701f22f7347faef27078cdaa7", "type": "electric_scooter", "bike_id": "f507395701f22f7347faef27078cdaa7", "rental_uris": {"ios": "https://dc.lft.to/lastmile_qr_scan", "android": "https://dc.lft.to/lastmile_qr_scan"}, "fusion_lat": 0.0}, {"lat": 38.91411516666667, "lon": -77.00878233333333, "is_disabled": 0, "fusion_lon": 0.0, "is_reserved": 0, "name": "920378a2ef7b9ce251b570462b538db3", "type": "electric_scooter", "bike_id": "920378a2ef7b9ce251b570462b538db3", "rental_uris": {"ios": "https://dc.lft.to/lastmile_qr_scan", "android": "https://dc.lft.to/lastmile_qr_scan"}, "fusion_lat": 0.0}, {"lat": 38.93450633333333, "lon": -77.0905795, "is_disabled": 0, "fusion_lon": 0.0, "is_reserved": 0, "name": "71bd18268ad3c441523644e111ad6b9e", "type": "electric_scooter", "bike_id": "71bd18268ad3c441523644e111ad6b9e", "rental_uris": {"ios": "https://dc.lft.to/lastmile_qr_scan", "android": "https://dc.lft.to/lastmile_qr_scan"}, "fusion_lat": 0.0}, {"lat": 38.9176565, "lon": -77.03192866666667, "is_disabled": 0, "fusion_lon": 0.0, "is_reserved": 0, "name": "4b9936905ab05142611e8942da8ba823", "type": "electric_scooter", "bike_id": "4b9936905ab05142611e8942da8ba823", "rental_uris": {"ios": "https://dc.lft.to/lastmile_qr_scan", "android": "https://dc.lft.to/lastmile_qr_scan"}, "fusion_lat": 0.0}, {"lat": 38.92308766666667, "lon": -77.04164233333333, "is_disabled": 0, "fusion_lon": 0.0, "is_reserved": 0, "name": "82d3b5dca46a58bef3ca0bc64ccdf1e1", "type": "electric_scooter", "bike_id": "82d3b5dca46a58bef3ca0bc64ccdf1e1", "rental_uris": {"ios": "https://dc.lft.to/lastmile_qr_scan", "android": "https://dc.lft.to/lastmile_qr_scan"}, "fusion_lat": 0.0}, {"lat": 38.91121483333333, "lon": -76.99750616666667, "is_disabled": 0, "fusion_lon": 0.0, "is_reserved": 0, "name": "fb922395684c6ce352d9d7508141d42c", "type": "electric_scooter", "bike_id": "fb922395684c6ce352d9d7508141d42c", "rental_uris": {"ios": "https://dc.lft.to/lastmile_qr_scan", "android": "https://dc.lft.to/lastmile_qr_scan"}, "fusion_lat": 0.0}, {"lat": 38.927805, "lon": -77.01562966666667, "is_disabled": 0, "fusion_lon": 0.0, "is_reserved": 0, "name": "f95f382fc329b62f45154c19e5caaf08", "type": "electric_scooter", "bike_id": "f95f382fc329b62f45154c19e5caaf08", "rental_uris": {"ios": "https://dc.lft.to/lastmile_qr_scan", "android": "https://dc.lft.to/lastmile_qr_scan"}, "fusion_lat": 0.0}, {"lat": 38.921262, "lon": -77.01213983333334, "is_disabled": 0, "fusion_lon": 0.0, "is_reserved": 0, "name": "a97b6eff7e8125a1b5b5870d0a7f2fd0", "type": "electric_bike", "bike_id": "a97b6eff7e8125a1b5b5870d0a7f2fd0", "rental_uris": {"ios": "https://dc.lft.to/lastmile_qr_scan", "android": "https://dc.lft.to/lastmile_qr_scan"}, "fusion_lat": 0.0}, {"lat": 38.898269666666664, "lon": -77.02591633333333, "is_disabled": 0, "fusion_lon": 0.0, "is_reserved": 0, "name": "96a373a51d1537eb998ccb8bee5341f9", "type": "electric_scooter", "bike_id": "96a373a51d1537eb998ccb8bee5341f9", "rental_uris": {"ios": "https://dc.lft.to/lastmile_qr_scan", "android": "https://dc.lft.to/lastmile_qr_scan"}, "fusion_lat": 0.0}, {"lat": 38.9370665, "lon": -77.02403333333334, "is_disabled": 0, "fusion_lon": 0.0, "is_reserved": 0, "name": "a49fa47752042fc5c7605af613f5a6b2", "type": "electric_scooter", "bike_id": "a49fa47752042fc5c7605af613f5a6b2", "rental_uris": {"ios": "https://dc.lft.to/lastmile_qr_scan", "android": "https://dc.lft.to/lastmile_qr_scan"}, "fusion_lat": 0.0}, {"lat": 38.905116, "lon": -77.06466883333333, "is_disabled": 0, "fusion_lon": 0.0, "is_reserved": 0, "name": "6d1671a65fe8322b7bc23ded383fb7bc", "type": "electric_scooter", "bike_id": "6d1671a65fe8322b7bc23ded383fb7bc", "rental_uris": {"ios": "https://dc.lft.to/lastmile_qr_scan", "android": "https://dc.lft.to/lastmile_qr_scan"}, "fusion_lat": 0.0}, {"lat": 38.956368499999996, "lon": -76.93867783333333, "is_disabled": 0, "fusion_lon": 0.0, "is_reserved": 0, "name": "16fd7c22b776869d0dd4698b41e725ec", "type": "electric_bike", "bike_id": "16fd7c22b776869d0dd4698b41e725ec", "rental_uris": {"ios": "https://dc.lft.to/lastmile_qr_scan", "android": "https://dc.lft.to/lastmile_qr_scan"}, "fusion_lat": 0.0}, {"lat": 38.876577, "lon": -77.00307183333334, "is_disabled": 0, "fusion_lon": 0.0, "is_reserved": 0, "name": "13e23f08050059bf12445aa09536f61d", "type": "electric_scooter", "bike_id": "13e23f08050059bf12445aa09536f61d", "rental_uris": {"ios": "https://dc.lft.to/lastmile_qr_scan", "android": "https://dc.lft.to/lastmile_qr_scan"}, "fusion_lat": 0.0}, {"lat": 38.907136666666666, "lon": -77.03450416666666, "is_disabled": 0, "fusion_lon": 0.0, "is_reserved": 0, "name": "a26b50cc724440cbc12176dd774b9619", "type": "electric_scooter", "bike_id": "a26b50cc724440cbc12176dd774b9619", "rental_uris": {"ios": "https://dc.lft.to/lastmile_qr_scan", "android": "https://dc.lft.to/lastmile_qr_scan"}, "fusion_lat": 0.0}, {"lat": 38.90429, "lon": -77.04668516666666, "is_disabled": 0, "fusion_lon": 0.0, "is_reserved": 0, "name": "4a315cacb03b06563b2170ce57f49826", "type": "electric_scooter", "bike_id": "4a315cacb03b06563b2170ce57f49826", "rental_uris": {"ios": "https://dc.lft.to/lastmile_qr_scan", "android": "https://dc.lft.to/lastmile_qr_scan"}, "fusion_lat": 0.0}, {"lat": 38.88487683333334, "lon": -77.02958983333333, "is_disabled": 0, "fusion_lon": 0.0, "is_reserved": 0, "name": "3fc8b429670022cfe04b2a774e2b6a84", "type": "electric_scooter", "bike_id": "3fc8b429670022cfe04b2a774e2b6a84", "rental_uris": {"ios": "https://dc.lft.to/lastmile_qr_scan", "android": "https://dc.lft.to/lastmile_qr_scan"}, "fusion_lat": 0.0}, {"lat": 38.902783166666666, "lon": -77.035593, "is_disabled": 0, "fusion_lon": 0.0, "is_reserved": 0, "name": "4b335e50faf2a0e142cc70a645646306", "type": "electric_scooter", "bike_id": "4b335e50faf2a0e142cc70a645646306", "rental_uris": {"ios": "https://dc.lft.to/lastmile_qr_scan", "android": "https://dc.lft.to/lastmile_qr_scan"}, "fusion_lat": 0.0}, {"lat": 38.914357333333335, "lon": -77.04496583333334, "is_disabled": 0, "fusion_lon": 0.0, "is_reserved": 0, "name": "e002346655f0ed6a57d40990cef3c6e9", "type": "electric_scooter", "bike_id": "e002346655f0ed6a57d40990cef3c6e9", "rental_uris": {"ios": "https://dc.lft.to/lastmile_qr_scan", "android": "https://dc.lft.to/lastmile_qr_scan"}, "fusion_lat": 0.0}, {"lat": 38.97375683333333, "lon": -77.01271633333333, "is_disabled": 0, "fusion_lon": 0.0, "is_reserved": 0, "name": "9da32f779e0b344d9336fff92cc61dad", "type": "electric_scooter", "bike_id": "9da32f779e0b344d9336fff92cc61dad", "rental_uris": {"ios": "https://dc.lft.to/lastmile_qr_scan", "android": "https://dc.lft.to/lastmile_qr_scan"}, "fusion_lat": 0.0}, {"lat": 38.906726, "lon": -76.98945816666667, "is_disabled": 0, "fusion_lon": 0.0, "is_reserved": 0, "name": "f73726e933fef80921a9abc10e38cbb9", "type": "electric_scooter", "bike_id": "f73726e933fef80921a9abc10e38cbb9", "rental_uris": {"ios": "https://dc.lft.to/lastmile_qr_scan", "android": "https://dc.lft.to/lastmile_qr_scan"}, "fusion_lat": 0.0}, {"lat": 38.93537833333333, "lon": -77.0574435, "is_disabled": 0, "fusion_lon": 0.0, "is_reserved": 0, "name": "f65f5ae9454ac23072fe95400cdae72e", "type": "electric_scooter", "bike_id": "f65f5ae9454ac23072fe95400cdae72e", "rental_uris": {"ios": "https://dc.lft.to/lastmile_qr_scan", "android": "https://dc.lft.to/lastmile_qr_scan"}, "fusion_lat": 0.0}, {"lat": 38.901939166666665, "lon": -77.0217765, "is_disabled": 0, "fusion_lon": 0.0, "is_reserved": 0, "name": "40c51b2d853bfd564f8d6b81e497f94e", "type": "electric_scooter", "bike_id": "40c51b2d853bfd564f8d6b81e497f94e", "rental_uris": {"ios": "https://dc.lft.to/lastmile_qr_scan", "android": "https://dc.lft.to/lastmile_qr_scan"}, "fusion_lat": 0.0}, {"lat": 38.93850116666667, "lon": -77.072318, "is_disabled": 0, "fusion_lon": 0.0, "is_reserved": 0, "name": "0a1395aab5da49c19e707d2d6e7f8db5", "type": "electric_scooter", "bike_id": "0a1395aab5da49c19e707d2d6e7f8db5", "rental_uris": {"ios": "https://dc.lft.to/lastmile_qr_scan", "android": "https://dc.lft.to/lastmile_qr_scan"}, "fusion_lat": 0.0}, {"lat": 38.99215216666666, "lon": -77.03219866666667, "is_disabled": 0, "fusion_lon": 0.0, "is_reserved": 0, "name": "103581224ee0126f532ae89e0727222b", "type": "electric_bike", "bike_id": "103581224ee0126f532ae89e0727222b", "rental_uris": {"ios": "https://dc.lft.to/lastmile_qr_scan", "android": "https://dc.lft.to/lastmile_qr_scan"}, "fusion_lat": 0.0}, {"lat": 38.89312283333334, "lon": -77.01243583333333, "is_disabled": 0, "fusion_lon": 0.0, "is_reserved": 0, "name": "50ff90029fcf2a151a4606bcdd15c6c8", "type": "electric_scooter", "bike_id": "50ff90029fcf2a151a4606bcdd15c6c8", "rental_uris": {"ios": "https://dc.lft.to/lastmile_qr_scan", "android": "https://dc.lft.to/lastmile_qr_scan"}, "fusion_lat": 0.0}, {"lat": 38.862771333333335, "lon": -76.995426, "is_disabled": 0, "fusion_lon": 0.0, "is_reserved": 0, "name": "fcd35b49dd4e852d7d697b133f3ea5b5", "type": "electric_scooter", "bike_id": "fcd35b49dd4e852d7d697b133f3ea5b5", "rental_uris": {"ios": "https://dc.lft.to/lastmile_qr_scan", "android": "https://dc.lft.to/lastmile_qr_scan"}, "fusion_lat": 0.0}, {"lat": 38.91665916666667, "lon": -77.02477166666667, "is_disabled": 0, "fusion_lon": 0.0, "is_reserved": 0, "name": "a65b73262a76796199741626f319386a", "type": "electric_scooter", "bike_id": "a65b73262a76796199741626f319386a", "rental_uris": {"ios": "https://dc.lft.to/lastmile_qr_scan", "android": "https://dc.lft.to/lastmile_qr_scan"}, "fusion_lat": 0.0}, {"lat": 38.874837666666664, "lon": -77.006064, "is_disabled": 0, "fusion_lon": 0.0, "is_reserved": 0, "name": "40d5b5ba2c7b0e17772f4946c14a1e4b", "type": "electric_scooter", "bike_id": "40d5b5ba2c7b0e17772f4946c14a1e4b", "rental_uris": {"ios": "https://dc.lft.to/lastmile_qr_scan", "android": "https://dc.lft.to/lastmile_qr_scan"}, "fusion_lat": 0.0}, {"lat": 38.809832166666666, "lon": -77.07661266666666, "is_disabled": 0, "fusion_lon": 0.0, "is_reserved": 0, "name": "557147f17b0bd0ea87a7f8a3bba694da", "type": "electric_bike", "bike_id": "557147f17b0bd0ea87a7f8a3bba694da", "rental_uris": {"ios": "https://dc.lft.to/lastmile_qr_scan", "android": "https://dc.lft.to/lastmile_qr_scan"}, "fusion_lat": 0.0}, {"lat": 38.9064025, "lon": -77.04353083333334, "is_disabled": 0, "fusion_lon": 0.0, "is_reserved": 0, "name": "b73802f9f307fb866e024e1178c32bd1", "type": "electric_bike", "bike_id": "b73802f9f307fb866e024e1178c32bd1", "rental_uris": {"ios": "https://dc.lft.to/lastmile_qr_scan", "android": "https://dc.lft.to/lastmile_qr_scan"}, "fusion_lat": 0.0}, {"lat": 38.895872, "lon": -76.9832425, "is_disabled": 0, "fusion_lon": 0.0, "is_reserved": 0, "name": "9633ff79dd73e6728bda1710005b1d35", "type": "electric_scooter", "bike_id": "9633ff79dd73e6728bda1710005b1d35", "rental_uris": {"ios": "https://dc.lft.to/lastmile_qr_scan", "android": "https://dc.lft.to/lastmile_qr_scan"}, "fusion_lat": 0.0}, {"lat": 38.906740666666664, "lon": -77.02699133333333, "is_disabled": 0, "fusion_lon": 0.0, "is_reserved": 0, "name": "98a970fb06cbdbd166e539e17c4a8604", "type": "electric_scooter", "bike_id": "98a970fb06cbdbd166e539e17c4a8604", "rental_uris": {"ios": "https://dc.lft.to/lastmile_qr_scan", "android": "https://dc.lft.to/lastmile_qr_scan"}, "fusion_lat": 0.0}, {"lat": 38.932559833333336, "lon": -77.03282483333334, "is_disabled": 0, "fusion_lon": 0.0, "is_reserved": 0, "name": "5b7b2a6acacd88d89f043e4407a3bb8b", "type": "electric_scooter", "bike_id": "5b7b2a6acacd88d89f043e4407a3bb8b", "rental_uris": {"ios": "https://dc.lft.to/lastmile_qr_scan", "android": "https://dc.lft.to/lastmile_qr_scan"}, "fusion_lat": 0.0}, {"lat": 38.94964733333333, "lon": -77.06661516666667, "is_disabled": 0, "fusion_lon": 0.0, "is_reserved": 0, "name": "680d04b128774a0fb094dd9ec04ef83f", "type": "electric_scooter", "bike_id": "680d04b128774a0fb094dd9ec04ef83f", "rental_uris": {"ios": "https://dc.lft.to/lastmile_qr_scan", "android": "https://dc.lft.to/lastmile_qr_scan"}, "fusion_lat": 0.0}, {"lat": 38.892299333333334, "lon": -77.02205333333333, "is_disabled": 0, "fusion_lon": 0.0, "is_reserved": 0, "name": "714e0e1df6cc92558fffb65ccc446202", "type": "electric_scooter", "bike_id": "714e0e1df6cc92558fffb65ccc446202", "rental_uris": {"ios": "https://dc.lft.to/lastmile_qr_scan", "android": "https://dc.lft.to/lastmile_qr_scan"}, "fusion_lat": 0.0}, {"lat": 38.909575, "lon": -77.03568, "is_disabled": 0, "fusion_lon": 0.0, "is_reserved": 0, "name": "3dd2d4afeab2fad7f838e72f1deca6b8", "type": "electric_scooter", "bike_id": "3dd2d4afeab2fad7f838e72f1deca6b8", "rental_uris": {"ios": "https://dc.lft.to/lastmile_qr_scan", "android": "https://dc.lft.to/lastmile_qr_scan"}, "fusion_lat": 0.0}, {"lat": 38.89537766666667, "lon": -77.01109866666667, "is_disabled": 0, "fusion_lon": 0.0, "is_reserved": 0, "name": "a368e5496f06f6cace4de01003dce189", "type": "electric_scooter", "bike_id": "a368e5496f06f6cace4de01003dce189", "rental_uris": {"ios": "https://dc.lft.to/lastmile_qr_scan", "android": "https://dc.lft.to/lastmile_qr_scan"}, "fusion_lat": 0.0}, {"lat": 38.89274783333333, "lon": -77.003621, "is_disabled": 0, "fusion_lon": 0.0, "is_reserved": 0, "name": "cdfece09bc3748a6e077338f39039540", "type": "electric_scooter", "bike_id": "cdfece09bc3748a6e077338f39039540", "rental_uris": {"ios": "https://dc.lft.to/lastmile_qr_scan", "android": "https://dc.lft.to/lastmile_qr_scan"}, "fusion_lat": 0.0}, {"lat": 38.9618055, "lon": -77.01433583333333, "is_disabled": 0, "fusion_lon": 0.0, "is_reserved": 0, "name": "3c25f62a321773af37eaec96f9c01eeb", "type": "electric_scooter", "bike_id": "3c25f62a321773af37eaec96f9c01eeb", "rental_uris": {"ios": "https://dc.lft.to/lastmile_qr_scan", "android": "https://dc.lft.to/lastmile_qr_scan"}, "fusion_lat": 0.0}, {"lat": 38.9028735, "lon": -77.040844, "is_disabled": 0, "fusion_lon": 0.0, "is_reserved": 0, "name": "f911df074457f3fbd0bab9df4c582417", "type": "electric_scooter", "bike_id": "f911df074457f3fbd0bab9df4c582417", "rental_uris": {"ios": "https://dc.lft.to/lastmile_qr_scan", "android": "https://dc.lft.to/lastmile_qr_scan"}, "fusion_lat": 0.0}, {"lat": 38.8919, "lon": -77.00334316666667, "is_disabled": 0, "fusion_lon": 0.0, "is_reserved": 0, "name": "9187201e2ab84cfd600f4a45baf673b4", "type": "electric_scooter", "bike_id": "9187201e2ab84cfd600f4a45baf673b4", "rental_uris": {"ios": "https://dc.lft.to/lastmile_qr_scan", "android": "https://dc.lft.to/lastmile_qr_scan"}, "fusion_lat": 0.0}, {"lat": 38.905607, "lon": -77.0424275, "is_disabled": 0, "fusion_lon": 0.0, "is_reserved": 0, "name": "1b4bf46e40c7308faf6093d43d9cea5f", "type": "electric_scooter", "bike_id": "1b4bf46e40c7308faf6093d43d9cea5f", "rental_uris": {"ios": "https://dc.lft.to/lastmile_qr_scan", "android": "https://dc.lft.to/lastmile_qr_scan"}, "fusion_lat": 0.0}, {"lat": 38.934125333333334, "lon": -77.0431005, "is_disabled": 0, "fusion_lon": 0.0, "is_reserved": 0, "name": "3df3b9f772fd58260a0d008d259e2ca7", "type": "electric_bike", "bike_id": "3df3b9f772fd58260a0d008d259e2ca7", "rental_uris": {"ios": "https://dc.lft.to/lastmile_qr_scan", "android": "https://dc.lft.to/lastmile_qr_scan"}, "fusion_lat": 0.0}, {"lat": 38.906546166666665, "lon": -77.00672766666666, "is_disabled": 0, "fusion_lon": 0.0, "is_reserved": 0, "name": "fceef3a0e94aafd31f62ccf29ddd9c4d", "type": "electric_scooter", "bike_id": "fceef3a0e94aafd31f62ccf29ddd9c4d", "rental_uris": {"ios": "https://dc.lft.to/lastmile_qr_scan", "android": "https://dc.lft.to/lastmile_qr_scan"}, "fusion_lat": 0.0}, {"lat": 38.898337, "lon": -77.05006533333334, "is_disabled": 0, "fusion_lon": 0.0, "is_reserved": 0, "name": "a554c1b16eee35f711c14d2af7272f5a", "type": "electric_scooter", "bike_id": "a554c1b16eee35f711c14d2af7272f5a", "rental_uris": {"ios": "https://dc.lft.to/lastmile_qr_scan", "android": "https://dc.lft.to/lastmile_qr_scan"}, "fusion_lat": 0.0}, {"lat": 38.911067, "lon": -77.02418166666666, "is_disabled": 0, "fusion_lon": 0.0, "is_reserved": 0, "name": "1dc45e6feb403490c0c0fbf8bff02f69", "type": "electric_scooter", "bike_id": "1dc45e6feb403490c0c0fbf8bff02f69", "rental_uris": {"ios": "https://dc.lft.to/lastmile_qr_scan", "android": "https://dc.lft.to/lastmile_qr_scan"}, "fusion_lat": 0.0}, {"lat": 38.85726483333333, "lon": -76.97774, "is_disabled": 0, "fusion_lon": 0.0, "is_reserved": 0, "name": "c28b54ceaa9236da79cace3335e6a05f", "type": "electric_bike", "bike_id": "c28b54ceaa9236da79cace3335e6a05f", "rental_uris": {"ios": "https://dc.lft.to/lastmile_qr_scan", "android": "https://dc.lft.to/lastmile_qr_scan"}, "fusion_lat": 0.0}, {"lat": 38.90379516666667, "lon": -77.02981783333334, "is_disabled": 0, "fusion_lon": 0.0, "is_reserved": 0, "name": "b12548be0fc84f88123b423d158b323a", "type": "electric_scooter", "bike_id": "b12548be0fc84f88123b423d158b323a", "rental_uris": {"ios": "https://dc.lft.to/lastmile_qr_scan", "android": "https://dc.lft.to/lastmile_qr_scan"}, "fusion_lat": 0.0}, {"lat": 38.90270916666667, "lon": -77.04605566666666, "is_disabled": 0, "fusion_lon": 0.0, "is_reserved": 0, "name": "2c5d4f4e0515877a5a9a16d2081a7a9a", "type": "electric_scooter", "bike_id": "2c5d4f4e0515877a5a9a16d2081a7a9a", "rental_uris": {"ios": "https://dc.lft.to/lastmile_qr_scan", "android": "https://dc.lft.to/lastmile_qr_scan"}, "fusion_lat": 0.0}, {"lat": 38.8975205, "lon": -77.007534, "is_disabled": 0, "fusion_lon": 0.0, "is_reserved": 0, "name": "ce543a73ff38cc7481b3c061a5d073a7", "type": "electric_scooter", "bike_id": "ce543a73ff38cc7481b3c061a5d073a7", "rental_uris": {"ios": "https://dc.lft.to/lastmile_qr_scan", "android": "https://dc.lft.to/lastmile_qr_scan"}, "fusion_lat": 0.0}, {"lat": 38.88724583333333, "lon": -77.028257, "is_disabled": 0, "fusion_lon": 0.0, "is_reserved": 0, "name": "2dccee2e1dd2a602bda400b758a5e947", "type": "electric_scooter", "bike_id": "2dccee2e1dd2a602bda400b758a5e947", "rental_uris": {"ios": "https://dc.lft.to/lastmile_qr_scan", "android": "https://dc.lft.to/lastmile_qr_scan"}, "fusion_lat": 0.0}, {"lat": 38.90678366666667, "lon": -77.0207505, "is_disabled": 0, "fusion_lon": 0.0, "is_reserved": 0, "name": "3b33ef4ce99dc9e2d868e48f29996d65", "type": "electric_scooter", "bike_id": "3b33ef4ce99dc9e2d868e48f29996d65", "rental_uris": {"ios": "https://dc.lft.to/lastmile_qr_scan", "android": "https://dc.lft.to/lastmile_qr_scan"}, "fusion_lat": 0.0}, {"lat": 38.918787333333334, "lon": -77.04310533333333, "is_disabled": 0, "fusion_lon": 0.0, "is_reserved": 0, "name": "ee928b9e7d0ad2ff578171bf61c19207", "type": "electric_scooter", "bike_id": "ee928b9e7d0ad2ff578171bf61c19207", "rental_uris": {"ios": "https://dc.lft.to/lastmile_qr_scan", "android": "https://dc.lft.to/lastmile_qr_scan"}, "fusion_lat": 0.0}, {"lat": 38.919095166666665, "lon": -77.02485, "is_disabled": 0, "fusion_lon": 0.0, "is_reserved": 0, "name": "2debb63a222904b44da9ff4063254cc8", "type": "electric_scooter", "bike_id": "2debb63a222904b44da9ff4063254cc8", "rental_uris": {"ios": "https://dc.lft.to/lastmile_qr_scan", "android": "https://dc.lft.to/lastmile_qr_scan"}, "fusion_lat": 0.0}, {"lat": 38.877381, "lon": -77.1185075, "is_disabled": 0, "fusion_lon": 0.0, "is_reserved": 0, "name": "060d94acd32a1973d6c54aa2a6b1e436", "type": "electric_bike", "bike_id": "060d94acd32a1973d6c54aa2a6b1e436", "rental_uris": {"ios": "https://dc.lft.to/lastmile_qr_scan", "android": "https://dc.lft.to/lastmile_qr_scan"}, "fusion_lat": 0.0}, {"lat": 38.92835766666666, "lon": -76.99588766666666, "is_disabled": 0, "fusion_lon": 0.0, "is_reserved": 0, "name": "6d7d450585a69eecce3e975f500e62ce", "type": "electric_scooter", "bike_id": "6d7d450585a69eecce3e975f500e62ce", "rental_uris": {"ios": "https://dc.lft.to/lastmile_qr_scan", "android": "https://dc.lft.to/lastmile_qr_scan"}, "fusion_lat": 0.0}, {"lat": 38.90297983333333, "lon": -77.03441883333333, "is_disabled": 0, "fusion_lon": 0.0, "is_reserved": 0, "name": "78eb5920734888a7dd96a1da358505a9", "type": "electric_scooter", "bike_id": "78eb5920734888a7dd96a1da358505a9", "rental_uris": {"ios": "https://dc.lft.to/lastmile_qr_scan", "android": "https://dc.lft.to/lastmile_qr_scan"}, "fusion_lat": 0.0}, {"lat": 38.9038725, "lon": -77.06007466666667, "is_disabled": 0, "fusion_lon": 0.0, "is_reserved": 0, "name": "5c061488ab6f89daf5ffdfb3bfbb845d", "type": "electric_scooter", "bike_id": "5c061488ab6f89daf5ffdfb3bfbb845d", "rental_uris": {"ios": "https://dc.lft.to/lastmile_qr_scan", "android": "https://dc.lft.to/lastmile_qr_scan"}, "fusion_lat": 0.0}, {"lat": 38.903697333333334, "lon": -77.03893066666667, "is_disabled": 0, "fusion_lon": 0.0, "is_reserved": 0, "name": "5ddcc0292005aff9d8fe6cfbbfc28f70", "type": "electric_scooter", "bike_id": "5ddcc0292005aff9d8fe6cfbbfc28f70", "rental_uris": {"ios": "https://dc.lft.to/lastmile_qr_scan", "android": "https://dc.lft.to/lastmile_qr_scan"}, "fusion_lat": 0.0}, {"lat": 38.879205666666664, "lon": -77.00205666666666, "is_disabled": 0, "fusion_lon": 0.0, "is_reserved": 0, "name": "c2bc50d67af2689d6c4403c370b31772", "type": "electric_scooter", "bike_id": "c2bc50d67af2689d6c4403c370b31772", "rental_uris": {"ios": "https://dc.lft.to/lastmile_qr_scan", "android": "https://dc.lft.to/lastmile_qr_scan"}, "fusion_lat": 0.0}, {"lat": 38.91830433333333, "lon": -77.02418516666667, "is_disabled": 0, "fusion_lon": 0.0, "is_reserved": 0, "name": "3964442957cbc7b37a1b1a697e244818", "type": "electric_scooter", "bike_id": "3964442957cbc7b37a1b1a697e244818", "rental_uris": {"ios": "https://dc.lft.to/lastmile_qr_scan", "android": "https://dc.lft.to/lastmile_qr_scan"}, "fusion_lat": 0.0}, {"lat": 38.902781833333336, "lon": -76.9288895, "is_disabled": 0, "fusion_lon": 0.0, "is_reserved": 0, "name": "37817fe0476d410a0ff7a60fd387c0e2", "type": "electric_scooter", "bike_id": "37817fe0476d410a0ff7a60fd387c0e2", "rental_uris": {"ios": "https://dc.lft.to/lastmile_qr_scan", "android": "https://dc.lft.to/lastmile_qr_scan"}, "fusion_lat": 0.0}, {"lat": 38.92388283333333, "lon": -77.02164916666666, "is_disabled": 0, "fusion_lon": 0.0, "is_reserved": 0, "name": "8e7e7b0a589935d56644e2079a49209c", "type": "electric_scooter", "bike_id": "8e7e7b0a589935d56644e2079a49209c", "rental_uris": {"ios": "https://dc.lft.to/lastmile_qr_scan", "android": "https://dc.lft.to/lastmile_qr_scan"}, "fusion_lat": 0.0}, {"lat": 38.905582, "lon": -77.0416355, "is_disabled": 0, "fusion_lon": 0.0, "is_reserved": 0, "name": "e92e76c24c5c59e66ed300a13bbf91a0", "type": "electric_scooter", "bike_id": "e92e76c24c5c59e66ed300a13bbf91a0", "rental_uris": {"ios": "https://dc.lft.to/lastmile_qr_scan", "android": "https://dc.lft.to/lastmile_qr_scan"}, "fusion_lat": 0.0}, {"lat": 38.90040466666667, "lon": -77.00217583333334, "is_disabled": 0, "fusion_lon": 0.0, "is_reserved": 0, "name": "ad90ee1737601943edea6e7ade4eeffc", "type": "electric_scooter", "bike_id": "ad90ee1737601943edea6e7ade4eeffc", "rental_uris": {"ios": "https://dc.lft.to/lastmile_qr_scan", "android": "https://dc.lft.to/lastmile_qr_scan"}, "fusion_lat": 0.0}, {"lat": 38.87723866666666, "lon": -77.017466, "is_disabled": 0, "fusion_lon": 0.0, "is_reserved": 0, "name": "48f0282cc6e1627d282a9b9310d05014", "type": "electric_scooter", "bike_id": "48f0282cc6e1627d282a9b9310d05014", "rental_uris": {"ios": "https://dc.lft.to/lastmile_qr_scan", "android": "https://dc.lft.to/lastmile_qr_scan"}, "fusion_lat": 0.0}, {"lat": 38.906642166666664, "lon": -77.04648583333334, "is_disabled": 0, "fusion_lon": 0.0, "is_reserved": 0, "name": "bab72951f2fa2704c3bb9daec5891f21", "type": "electric_scooter", "bike_id": "bab72951f2fa2704c3bb9daec5891f21", "rental_uris": {"ios": "https://dc.lft.to/lastmile_qr_scan", "android": "https://dc.lft.to/lastmile_qr_scan"}, "fusion_lat": 0.0}, {"lat": 38.90213, "lon": -77.02343666666667, "is_disabled": 0, "fusion_lon": 0.0, "is_reserved": 0, "name": "ac00f526c5b26802dc5175d16ccf4c49", "type": "electric_scooter", "bike_id": "ac00f526c5b26802dc5175d16ccf4c49", "rental_uris": {"ios": "https://dc.lft.to/lastmile_qr_scan", "android": "https://dc.lft.to/lastmile_qr_scan"}, "fusion_lat": 0.0}, {"lat": 38.895088, "lon": -77.0107985, "is_disabled": 0, "fusion_lon": 0.0, "is_reserved": 0, "name": "2ef1ff17cc56376a175e3f504252dc38", "type": "electric_scooter", "bike_id": "2ef1ff17cc56376a175e3f504252dc38", "rental_uris": {"ios": "https://dc.lft.to/lastmile_qr_scan", "android": "https://dc.lft.to/lastmile_qr_scan"}, "fusion_lat": 0.0}, {"lat": 38.9171375, "lon": -76.97651383333333, "is_disabled": 0, "fusion_lon": 0.0, "is_reserved": 0, "name": "d2b76b0ee13e8b6b566044694abc4be3", "type": "electric_scooter", "bike_id": "d2b76b0ee13e8b6b566044694abc4be3", "rental_uris": {"ios": "https://dc.lft.to/lastmile_qr_scan", "android": "https://dc.lft.to/lastmile_qr_scan"}, "fusion_lat": 0.0}, {"lat": 38.88726966666667, "lon": -77.02827983333333, "is_disabled": 0, "fusion_lon": 0.0, "is_reserved": 0, "name": "bdf4194db503164f2aeb3f0624fe1f60", "type": "electric_scooter", "bike_id": "bdf4194db503164f2aeb3f0624fe1f60", "rental_uris": {"ios": "https://dc.lft.to/lastmile_qr_scan", "android": "https://dc.lft.to/lastmile_qr_scan"}, "fusion_lat": 0.0}, {"lat": 38.9026645, "lon": -77.0332885, "is_disabled": 0, "fusion_lon": 0.0, "is_reserved": 0, "name": "7c5dfa2fc0e87e248efe5b024a3a6685", "type": "electric_scooter", "bike_id": "7c5dfa2fc0e87e248efe5b024a3a6685", "rental_uris": {"ios": "https://dc.lft.to/lastmile_qr_scan", "android": "https://dc.lft.to/lastmile_qr_scan"}, "fusion_lat": 0.0}, {"lat": 38.871056333333335, "lon": -76.96579533333333, "is_disabled": 0, "fusion_lon": 0.0, "is_reserved": 0, "name": "3d6346c327060a3d729d13f6b4280b60", "type": "electric_scooter", "bike_id": "3d6346c327060a3d729d13f6b4280b60", "rental_uris": {"ios": "https://dc.lft.to/lastmile_qr_scan", "android": "https://dc.lft.to/lastmile_qr_scan"}, "fusion_lat": 0.0}, {"lat": 38.934241, "lon": -77.03288216666667, "is_disabled": 0, "fusion_lon": 0.0, "is_reserved": 0, "name": "fe8ab35635883a620da7626fe644b287", "type": "electric_scooter", "bike_id": "fe8ab35635883a620da7626fe644b287", "rental_uris": {"ios": "https://dc.lft.to/lastmile_qr_scan", "android": "https://dc.lft.to/lastmile_qr_scan"}, "fusion_lat": 0.0}, {"lat": 38.878698, "lon": -76.962621, "is_disabled": 0, "fusion_lon": 0.0, "is_reserved": 0, "name": "b4830817da6093dbd022ff913028788d", "type": "electric_scooter", "bike_id": "b4830817da6093dbd022ff913028788d", "rental_uris": {"ios": "https://dc.lft.to/lastmile_qr_scan", "android": "https://dc.lft.to/lastmile_qr_scan"}, "fusion_lat": 0.0}, {"lat": 38.90387066666667, "lon": -77.03643583333333, "is_disabled": 0, "fusion_lon": 0.0, "is_reserved": 0, "name": "fa9514bec4ed7e02b31d958a288f38fd", "type": "electric_scooter", "bike_id": "fa9514bec4ed7e02b31d958a288f38fd", "rental_uris": {"ios": "https://dc.lft.to/lastmile_qr_scan", "android": "https://dc.lft.to/lastmile_qr_scan"}, "fusion_lat": 0.0}, {"lat": 38.9127865, "lon": -77.04508066666666, "is_disabled": 0, "fusion_lon": 0.0, "is_reserved": 0, "name": "b4bd8379c96df405d76e1bfe4948d77d", "type": "electric_scooter", "bike_id": "b4bd8379c96df405d76e1bfe4948d77d", "rental_uris": {"ios": "https://dc.lft.to/lastmile_qr_scan", "android": "https://dc.lft.to/lastmile_qr_scan"}, "fusion_lat": 0.0}, {"lat": 38.90542933333333, "lon": -77.04161033333334, "is_disabled": 0, "fusion_lon": 0.0, "is_reserved": 0, "name": "754bb7c688b20726116e6aef0b37304e", "type": "electric_scooter", "bike_id": "754bb7c688b20726116e6aef0b37304e", "rental_uris": {"ios": "https://dc.lft.to/lastmile_qr_scan", "android": "https://dc.lft.to/lastmile_qr_scan"}, "fusion_lat": 0.0}, {"lat": 38.8982255, "lon": -77.01527516666667, "is_disabled": 0, "fusion_lon": 0.0, "is_reserved": 0, "name": "41da1941893679c4b7cf531d932db09c", "type": "electric_scooter", "bike_id": "41da1941893679c4b7cf531d932db09c", "rental_uris": {"ios": "https://dc.lft.to/lastmile_qr_scan", "android": "https://dc.lft.to/lastmile_qr_scan"}, "fusion_lat": 0.0}, {"lat": 38.88720266666667, "lon": -77.02834916666667, "is_disabled": 0, "fusion_lon": 0.0, "is_reserved": 0, "name": "135a9df4f041aaabe74fbdeb0d52e923", "type": "electric_scooter", "bike_id": "135a9df4f041aaabe74fbdeb0d52e923", "rental_uris": {"ios": "https://dc.lft.to/lastmile_qr_scan", "android": "https://dc.lft.to/lastmile_qr_scan"}, "fusion_lat": 0.0}, {"lat": 38.899298, "lon": -77.04999016666666, "is_disabled": 0, "fusion_lon": 0.0, "is_reserved": 0, "name": "7f9743f57386aba70f1937d0705ed24b", "type": "electric_scooter", "bike_id": "7f9743f57386aba70f1937d0705ed24b", "rental_uris": {"ios": "https://dc.lft.to/lastmile_qr_scan", "android": "https://dc.lft.to/lastmile_qr_scan"}, "fusion_lat": 0.0}, {"lat": 38.8862965, "lon": -76.92583416666666, "is_disabled": 0, "fusion_lon": 0.0, "is_reserved": 0, "name": "308ba03194e6a274686f0260edd15378", "type": "electric_scooter", "bike_id": "308ba03194e6a274686f0260edd15378", "rental_uris": {"ios": "https://dc.lft.to/lastmile_qr_scan", "android": "https://dc.lft.to/lastmile_qr_scan"}, "fusion_lat": 0.0}, {"lat": 38.92368333333334, "lon": -77.02919766666666, "is_disabled": 0, "fusion_lon": 0.0, "is_reserved": 0, "name": "f5d5c6310e25e2e73bd466acd679979e", "type": "electric_scooter", "bike_id": "f5d5c6310e25e2e73bd466acd679979e", "rental_uris": {"ios": "https://dc.lft.to/lastmile_qr_scan", "android": "https://dc.lft.to/lastmile_qr_scan"}, "fusion_lat": 0.0}, {"lat": 38.93144916666667, "lon": -77.04274383333333, "is_disabled": 0, "fusion_lon": 0.0, "is_reserved": 0, "name": "d0245101ea2d055a1426899b8b22d0b9", "type": "electric_scooter", "bike_id": "d0245101ea2d055a1426899b8b22d0b9", "rental_uris": {"ios": "https://dc.lft.to/lastmile_qr_scan", "android": "https://dc.lft.to/lastmile_qr_scan"}, "fusion_lat": 0.0}, {"lat": 38.927041, "lon": -76.99770833333334, "is_disabled": 0, "fusion_lon": 0.0, "is_reserved": 0, "name": "633259030eef4161bdf274b963dd44f8", "type": "electric_scooter", "bike_id": "633259030eef4161bdf274b963dd44f8", "rental_uris": {"ios": "https://dc.lft.to/lastmile_qr_scan", "android": "https://dc.lft.to/lastmile_qr_scan"}, "fusion_lat": 0.0}, {"lat": 38.90723766666667, "lon": -77.04325583333333, "is_disabled": 0, "fusion_lon": 0.0, "is_reserved": 0, "name": "198f7bc2d5c3f448e10bae71314e9af5", "type": "electric_scooter", "bike_id": "198f7bc2d5c3f448e10bae71314e9af5", "rental_uris": {"ios": "https://dc.lft.to/lastmile_qr_scan", "android": "https://dc.lft.to/lastmile_qr_scan"}, "fusion_lat": 0.0}, {"lat": 38.9231815, "lon": -77.02896716666666, "is_disabled": 0, "fusion_lon": 0.0, "is_reserved": 0, "name": "858f2a620f06c927a8d4125f8eda2520", "type": "electric_scooter", "bike_id": "858f2a620f06c927a8d4125f8eda2520", "rental_uris": {"ios": "https://dc.lft.to/lastmile_qr_scan", "android": "https://dc.lft.to/lastmile_qr_scan"}, "fusion_lat": 0.0}, {"lat": 38.92415866666666, "lon": -77.0200265, "is_disabled": 0, "fusion_lon": 0.0, "is_reserved": 0, "name": "7c8952a3737cd832c723c409f9c978b2", "type": "electric_scooter", "bike_id": "7c8952a3737cd832c723c409f9c978b2", "rental_uris": {"ios": "https://dc.lft.to/lastmile_qr_scan", "android": "https://dc.lft.to/lastmile_qr_scan"}, "fusion_lat": 0.0}, {"lat": 38.87739216666667, "lon": -76.97032566666667, "is_disabled": 0, "fusion_lon": 0.0, "is_reserved": 0, "name": "1b61a04a2ae26f32c356ff947529d11e", "type": "electric_scooter", "bike_id": "1b61a04a2ae26f32c356ff947529d11e", "rental_uris": {"ios": "https://dc.lft.to/lastmile_qr_scan", "android": "https://dc.lft.to/lastmile_qr_scan"}, "fusion_lat": 0.0}, {"lat": 38.92608233333333, "lon": -77.06416366666667, "is_disabled": 0, "fusion_lon": 0.0, "is_reserved": 0, "name": "d4866270c8aa8cdc21de98d6721ac8ff", "type": "electric_bike", "bike_id": "d4866270c8aa8cdc21de98d6721ac8ff", "rental_uris": {"ios": "https://dc.lft.to/lastmile_qr_scan", "android": "https://dc.lft.to/lastmile_qr_scan"}, "fusion_lat": 0.0}, {"lat": 38.9465495, "lon": -77.02961933333333, "is_disabled": 0, "fusion_lon": 0.0, "is_reserved": 0, "name": "62382c3226450a43ffcce122ab1e54ee", "type": "electric_scooter", "bike_id": "62382c3226450a43ffcce122ab1e54ee", "rental_uris": {"ios": "https://dc.lft.to/lastmile_qr_scan", "android": "https://dc.lft.to/lastmile_qr_scan"}, "fusion_lat": 0.0}, {"lat": 38.92755583333334, "lon": -77.03350166666667, "is_disabled": 0, "fusion_lon": 0.0, "is_reserved": 0, "name": "54e34cacc504e71aac553086f70ae369", "type": "electric_scooter", "bike_id": "54e34cacc504e71aac553086f70ae369", "rental_uris": {"ios": "https://dc.lft.to/lastmile_qr_scan", "android": "https://dc.lft.to/lastmile_qr_scan"}, "fusion_lat": 0.0}, {"lat": 38.901757, "lon": -76.97674066666667, "is_disabled": 0, "fusion_lon": 0.0, "is_reserved": 0, "name": "7b2302d5af13a784e765850fe98b8d10", "type": "electric_bike", "bike_id": "7b2302d5af13a784e765850fe98b8d10", "rental_uris": {"ios": "https://dc.lft.to/lastmile_qr_scan", "android": "https://dc.lft.to/lastmile_qr_scan"}, "fusion_lat": 0.0}, {"lat": 38.89239366666666, "lon": -77.04872883333333, "is_disabled": 0, "fusion_lon": 0.0, "is_reserved": 0, "name": "b28a338e0648d418c31283d0c1e5a000", "type": "electric_scooter", "bike_id": "b28a338e0648d418c31283d0c1e5a000", "rental_uris": {"ios": "https://dc.lft.to/lastmile_qr_scan", "android": "https://dc.lft.to/lastmile_qr_scan"}, "fusion_lat": 0.0}, {"lat": 38.91038416666667, "lon": -77.04258883333334, "is_disabled": 0, "fusion_lon": 0.0, "is_reserved": 0, "name": "4f311630d0526d90bf4641268c603373", "type": "electric_scooter", "bike_id": "4f311630d0526d90bf4641268c603373", "rental_uris": {"ios": "https://dc.lft.to/lastmile_qr_scan", "android": "https://dc.lft.to/lastmile_qr_scan"}, "fusion_lat": 0.0}, {"lat": 38.914786, "lon": -77.04535933333334, "is_disabled": 0, "fusion_lon": 0.0, "is_reserved": 0, "name": "0c0e755d39f37c06c17ced4c6eecce63", "type": "electric_scooter", "bike_id": "0c0e755d39f37c06c17ced4c6eecce63", "rental_uris": {"ios": "https://dc.lft.to/lastmile_qr_scan", "android": "https://dc.lft.to/lastmile_qr_scan"}, "fusion_lat": 0.0}, {"lat": 38.917122166666665, "lon": -77.02870283333333, "is_disabled": 0, "fusion_lon": 0.0, "is_reserved": 0, "name": "cbd2044a67a1619ad84a168b88fba713", "type": "electric_scooter", "bike_id": "cbd2044a67a1619ad84a168b88fba713", "rental_uris": {"ios": "https://dc.lft.to/lastmile_qr_scan", "android": "https://dc.lft.to/lastmile_qr_scan"}, "fusion_lat": 0.0}, {"lat": 38.907834333333334, "lon": -77.07168466666667, "is_disabled": 0, "fusion_lon": 0.0, "is_reserved": 0, "name": "7286d67699b09b3f63c5cca52fb8da56", "type": "electric_scooter", "bike_id": "7286d67699b09b3f63c5cca52fb8da56", "rental_uris": {"ios": "https://dc.lft.to/lastmile_qr_scan", "android": "https://dc.lft.to/lastmile_qr_scan"}, "fusion_lat": 0.0}, {"lat": 38.83758183333333, "lon": -77.09297133333334, "is_disabled": 0, "fusion_lon": 0.0, "is_reserved": 0, "name": "8b5344bd29e42972c70739f2f1d474d0", "type": "electric_bike", "bike_id": "8b5344bd29e42972c70739f2f1d474d0", "rental_uris": {"ios": "https://dc.lft.to/lastmile_qr_scan", "android": "https://dc.lft.to/lastmile_qr_scan"}, "fusion_lat": 0.0}, {"lat": 38.923866833333335, "lon": -77.02659816666667, "is_disabled": 0, "fusion_lon": 0.0, "is_reserved": 0, "name": "35fc71690587348146a16c4f0584135f", "type": "electric_scooter", "bike_id": "35fc71690587348146a16c4f0584135f", "rental_uris": {"ios": "https://dc.lft.to/lastmile_qr_scan", "android": "https://dc.lft.to/lastmile_qr_scan"}, "fusion_lat": 0.0}, {"lat": 38.880048, "lon": -76.985726, "is_disabled": 0, "fusion_lon": 0.0, "is_reserved": 0, "name": "58aac48a4985add408237bc4331a1461", "type": "electric_scooter", "bike_id": "58aac48a4985add408237bc4331a1461", "rental_uris": {"ios": "https://dc.lft.to/lastmile_qr_scan", "android": "https://dc.lft.to/lastmile_qr_scan"}, "fusion_lat": 0.0}, {"lat": 38.90010933333333, "lon": -77.0466555, "is_disabled": 0, "fusion_lon": 0.0, "is_reserved": 0, "name": "63972a4cdb3c039b775c35542ad5f400", "type": "electric_scooter", "bike_id": "63972a4cdb3c039b775c35542ad5f400", "rental_uris": {"ios": "https://dc.lft.to/lastmile_qr_scan", "android": "https://dc.lft.to/lastmile_qr_scan"}, "fusion_lat": 0.0}, {"lat": 38.906841666666665, "lon": -77.03681466666667, "is_disabled": 0, "fusion_lon": 0.0, "is_reserved": 0, "name": "3025e52caf292d701fcabd09b2a4e726", "type": "electric_scooter", "bike_id": "3025e52caf292d701fcabd09b2a4e726", "rental_uris": {"ios": "https://dc.lft.to/lastmile_qr_scan", "android": "https://dc.lft.to/lastmile_qr_scan"}, "fusion_lat": 0.0}, {"lat": 38.90471733333333, "lon": -77.01887016666667, "is_disabled": 0, "fusion_lon": 0.0, "is_reserved": 0, "name": "8ca9c586ab37ef57c2703c79d56ba7a9", "type": "electric_scooter", "bike_id": "8ca9c586ab37ef57c2703c79d56ba7a9", "rental_uris": {"ios": "https://dc.lft.to/lastmile_qr_scan", "android": "https://dc.lft.to/lastmile_qr_scan"}, "fusion_lat": 0.0}, {"lat": 38.92870966666667, "lon": -77.03250633333333, "is_disabled": 0, "fusion_lon": 0.0, "is_reserved": 0, "name": "11fcf706a9e76f8c30765b6b041af3cd", "type": "electric_scooter", "bike_id": "11fcf706a9e76f8c30765b6b041af3cd", "rental_uris": {"ios": "https://dc.lft.to/lastmile_qr_scan", "android": "https://dc.lft.to/lastmile_qr_scan"}, "fusion_lat": 0.0}, {"lat": 38.906850166666665, "lon": -77.03825383333333, "is_disabled": 0, "fusion_lon": 0.0, "is_reserved": 0, "name": "d4e34a06718941faeeb589c153a685fa", "type": "electric_scooter", "bike_id": "d4e34a06718941faeeb589c153a685fa", "rental_uris": {"ios": "https://dc.lft.to/lastmile_qr_scan", "android": "https://dc.lft.to/lastmile_qr_scan"}, "fusion_lat": 0.0}, {"lat": 38.89224216666667, "lon": -77.04472016666666, "is_disabled": 0, "fusion_lon": 0.0, "is_reserved": 0, "name": "fe12fdd77060e50508d37936c5b9d90d", "type": "electric_scooter", "bike_id": "fe12fdd77060e50508d37936c5b9d90d", "rental_uris": {"ios": "https://dc.lft.to/lastmile_qr_scan", "android": "https://dc.lft.to/lastmile_qr_scan"}, "fusion_lat": 0.0}, {"lat": 38.9111485, "lon": -77.0314035, "is_disabled": 0, "fusion_lon": 0.0, "is_reserved": 0, "name": "4b093214a38317f4a06dcc13bc16184a", "type": "electric_scooter", "bike_id": "4b093214a38317f4a06dcc13bc16184a", "rental_uris": {"ios": "https://dc.lft.to/lastmile_qr_scan", "android": "https://dc.lft.to/lastmile_qr_scan"}, "fusion_lat": 0.0}, {"lat": 38.919244666666664, "lon": -77.03424733333334, "is_disabled": 0, "fusion_lon": 0.0, "is_reserved": 0, "name": "226450e37a135d4083608ae1425edf58", "type": "electric_scooter", "bike_id": "226450e37a135d4083608ae1425edf58", "rental_uris": {"ios": "https://dc.lft.to/lastmile_qr_scan", "android": "https://dc.lft.to/lastmile_qr_scan"}, "fusion_lat": 0.0}, {"lat": 38.901757833333335, "lon": -77.05103633333333, "is_disabled": 0, "fusion_lon": 0.0, "is_reserved": 0, "name": "89e6308d998ab79c563af6417424a5d7", "type": "electric_scooter", "bike_id": "89e6308d998ab79c563af6417424a5d7", "rental_uris": {"ios": "https://dc.lft.to/lastmile_qr_scan", "android": "https://dc.lft.to/lastmile_qr_scan"}, "fusion_lat": 0.0}, {"lat": 38.978804333333336, "lon": -77.06036133333333, "is_disabled": 0, "fusion_lon": 0.0, "is_reserved": 0, "name": "a03a15bff2cb34795d9ec74ddb00a769", "type": "electric_bike", "bike_id": "a03a15bff2cb34795d9ec74ddb00a769", "rental_uris": {"ios": "https://dc.lft.to/lastmile_qr_scan", "android": "https://dc.lft.to/lastmile_qr_scan"}, "fusion_lat": 0.0}, {"lat": 38.923458833333335, "lon": -77.05169033333334, "is_disabled": 0, "fusion_lon": 0.0, "is_reserved": 0, "name": "9b144e8a2e606b041737ca697f19bf04", "type": "electric_scooter", "bike_id": "9b144e8a2e606b041737ca697f19bf04", "rental_uris": {"ios": "https://dc.lft.to/lastmile_qr_scan", "android": "https://dc.lft.to/lastmile_qr_scan"}, "fusion_lat": 0.0}, {"lat": 38.90442933333333, "lon": -77.04363833333333, "is_disabled": 0, "fusion_lon": 0.0, "is_reserved": 0, "name": "cfd942e55d4256b7e243bb0b837c3595", "type": "electric_scooter", "bike_id": "cfd942e55d4256b7e243bb0b837c3595", "rental_uris": {"ios": "https://dc.lft.to/lastmile_qr_scan", "android": "https://dc.lft.to/lastmile_qr_scan"}, "fusion_lat": 0.0}, {"lat": 38.948086333333336, "lon": -76.95973233333333, "is_disabled": 0, "fusion_lon": 0.0, "is_reserved": 0, "name": "7dbc117ff3f36ac8aff5eac216892f17", "type": "electric_bike", "bike_id": "7dbc117ff3f36ac8aff5eac216892f17", "rental_uris": {"ios": "https://dc.lft.to/lastmile_qr_scan", "android": "https://dc.lft.to/lastmile_qr_scan"}, "fusion_lat": 0.0}, {"lat": 38.89680933333333, "lon": -77.04329983333334, "is_disabled": 0, "fusion_lon": 0.0, "is_reserved": 0, "name": "c610c11e9636c3af0633a3d4428d4dee", "type": "electric_scooter", "bike_id": "c610c11e9636c3af0633a3d4428d4dee", "rental_uris": {"ios": "https://dc.lft.to/lastmile_qr_scan", "android": "https://dc.lft.to/lastmile_qr_scan"}, "fusion_lat": 0.0}, {"lat": 38.928802, "lon": -77.03292983333333, "is_disabled": 0, "fusion_lon": 0.0, "is_reserved": 0, "name": "c03d73328671bdf6d7979d3c7ecc5417", "type": "electric_scooter", "bike_id": "c03d73328671bdf6d7979d3c7ecc5417", "rental_uris": {"ios": "https://dc.lft.to/lastmile_qr_scan", "android": "https://dc.lft.to/lastmile_qr_scan"}, "fusion_lat": 0.0}, {"lat": 38.92904983333333, "lon": -77.03275533333333, "is_disabled": 0, "fusion_lon": 0.0, "is_reserved": 0, "name": "7ae6695e4f78363ff48cb647327c3ff9", "type": "electric_scooter", "bike_id": "7ae6695e4f78363ff48cb647327c3ff9", "rental_uris": {"ios": "https://dc.lft.to/lastmile_qr_scan", "android": "https://dc.lft.to/lastmile_qr_scan"}, "fusion_lat": 0.0}, {"lat": 38.896052833333336, "lon": -77.0219985, "is_disabled": 0, "fusion_lon": 0.0, "is_reserved": 0, "name": "d55d257b198fbc7375225210aaa495ec", "type": "electric_scooter", "bike_id": "d55d257b198fbc7375225210aaa495ec", "rental_uris": {"ios": "https://dc.lft.to/lastmile_qr_scan", "android": "https://dc.lft.to/lastmile_qr_scan"}, "fusion_lat": 0.0}, {"lat": 38.8995915, "lon": -76.98555966666666, "is_disabled": 0, "fusion_lon": 0.0, "is_reserved": 0, "name": "78a0d8e9aa1eb0a0b10ee0da55eac31f", "type": "electric_scooter", "bike_id": "78a0d8e9aa1eb0a0b10ee0da55eac31f", "rental_uris": {"ios": "https://dc.lft.to/lastmile_qr_scan", "android": "https://dc.lft.to/lastmile_qr_scan"}, "fusion_lat": 0.0}, {"lat": 38.889927, "lon": -76.914192, "is_disabled": 0, "fusion_lon": 0.0, "is_reserved": 0, "name": "8ee52908b21323df42985146c5358437", "type": "electric_scooter", "bike_id": "8ee52908b21323df42985146c5358437", "rental_uris": {"ios": "https://dc.lft.to/lastmile_qr_scan", "android": "https://dc.lft.to/lastmile_qr_scan"}, "fusion_lat": 0.0}, {"lat": 38.92974316666667, "lon": -77.0241065, "is_disabled": 0, "fusion_lon": 0.0, "is_reserved": 0, "name": "ecd9983b178d38239d240f3953eb3905", "type": "electric_bike", "bike_id": "ecd9983b178d38239d240f3953eb3905", "rental_uris": {"ios": "https://dc.lft.to/lastmile_qr_scan", "android": "https://dc.lft.to/lastmile_qr_scan"}, "fusion_lat": 0.0}, {"lat": 38.923942833333335, "lon": -77.050619, "is_disabled": 0, "fusion_lon": 0.0, "is_reserved": 0, "name": "34634d779f41e763f64490605fc12f8f", "type": "electric_scooter", "bike_id": "34634d779f41e763f64490605fc12f8f", "rental_uris": {"ios": "https://dc.lft.to/lastmile_qr_scan", "android": "https://dc.lft.to/lastmile_qr_scan"}, "fusion_lat": 0.0}, {"lat": 38.90754066666667, "lon": -77.03075166666666, "is_disabled": 0, "fusion_lon": 0.0, "is_reserved": 0, "name": "630438a7a19d236608b8c925f99ebf87", "type": "electric_scooter", "bike_id": "630438a7a19d236608b8c925f99ebf87", "rental_uris": {"ios": "https://dc.lft.to/lastmile_qr_scan", "android": "https://dc.lft.to/lastmile_qr_scan"}, "fusion_lat": 0.0}, {"lat": 38.93046966666667, "lon": -77.07302766666666, "is_disabled": 0, "fusion_lon": 0.0, "is_reserved": 0, "name": "9f16f47a86e4d7f47aca7270f4e49195", "type": "electric_scooter", "bike_id": "9f16f47a86e4d7f47aca7270f4e49195", "rental_uris": {"ios": "https://dc.lft.to/lastmile_qr_scan", "android": "https://dc.lft.to/lastmile_qr_scan"}, "fusion_lat": 0.0}, {"lat": 38.906295166666666, "lon": -77.0057715, "is_disabled": 0, "fusion_lon": 0.0, "is_reserved": 0, "name": "7d87050e71dfe00fdfbd638ef927c709", "type": "electric_scooter", "bike_id": "7d87050e71dfe00fdfbd638ef927c709", "rental_uris": {"ios": "https://dc.lft.to/lastmile_qr_scan", "android": "https://dc.lft.to/lastmile_qr_scan"}, "fusion_lat": 0.0}, {"lat": 38.88018133333333, "lon": -77.02477066666667, "is_disabled": 0, "fusion_lon": 0.0, "is_reserved": 0, "name": "c7a3629fc7c9afc66222df6705eb2197", "type": "electric_scooter", "bike_id": "c7a3629fc7c9afc66222df6705eb2197", "rental_uris": {"ios": "https://dc.lft.to/lastmile_qr_scan", "android": "https://dc.lft.to/lastmile_qr_scan"}, "fusion_lat": 0.0}, {"lat": 38.901416, "lon": -77.04487066666667, "is_disabled": 0, "fusion_lon": 0.0, "is_reserved": 0, "name": "f29200d3c1a28d64f2beb95f6ff88cf9", "type": "electric_scooter", "bike_id": "f29200d3c1a28d64f2beb95f6ff88cf9", "rental_uris": {"ios": "https://dc.lft.to/lastmile_qr_scan", "android": "https://dc.lft.to/lastmile_qr_scan"}, "fusion_lat": 0.0}, {"lat": 38.92265416666667, "lon": -77.01945366666666, "is_disabled": 0, "fusion_lon": 0.0, "is_reserved": 0, "name": "cfd7b167ca8af087ca32873cb75ba509", "type": "electric_scooter", "bike_id": "cfd7b167ca8af087ca32873cb75ba509", "rental_uris": {"ios": "https://dc.lft.to/lastmile_qr_scan", "android": "https://dc.lft.to/lastmile_qr_scan"}, "fusion_lat": 0.0}, {"lat": 38.902501, "lon": -77.03767583333334, "is_disabled": 0, "fusion_lon": 0.0, "is_reserved": 0, "name": "f2c5d2537cb89c744c53d16041119562", "type": "electric_scooter", "bike_id": "f2c5d2537cb89c744c53d16041119562", "rental_uris": {"ios": "https://dc.lft.to/lastmile_qr_scan", "android": "https://dc.lft.to/lastmile_qr_scan"}, "fusion_lat": 0.0}, {"lat": 38.894365, "lon": -76.94988366666666, "is_disabled": 0, "fusion_lon": 0.0, "is_reserved": 0, "name": "bf9a09a6e34e2caea133027c284d5fa2", "type": "electric_scooter", "bike_id": "bf9a09a6e34e2caea133027c284d5fa2", "rental_uris": {"ios": "https://dc.lft.to/lastmile_qr_scan", "android": "https://dc.lft.to/lastmile_qr_scan"}, "fusion_lat": 0.0}, {"lat": 38.91908733333333, "lon": -77.02137966666666, "is_disabled": 0, "fusion_lon": 0.0, "is_reserved": 0, "name": "5f646aec0598a5fe6ea5be1fe32849c7", "type": "electric_scooter", "bike_id": "5f646aec0598a5fe6ea5be1fe32849c7", "rental_uris": {"ios": "https://dc.lft.to/lastmile_qr_scan", "android": "https://dc.lft.to/lastmile_qr_scan"}, "fusion_lat": 0.0}, {"lat": 38.900093166666665, "lon": -77.041344, "is_disabled": 0, "fusion_lon": 0.0, "is_reserved": 0, "name": "6529221190652660396ab8d6dcbfb1d9", "type": "electric_scooter", "bike_id": "6529221190652660396ab8d6dcbfb1d9", "rental_uris": {"ios": "https://dc.lft.to/lastmile_qr_scan", "android": "https://dc.lft.to/lastmile_qr_scan"}, "fusion_lat": 0.0}, {"lat": 38.906294833333334, "lon": -77.03857233333333, "is_disabled": 0, "fusion_lon": 0.0, "is_reserved": 0, "name": "e5a56e75e722009bc176fce0ffe06d31", "type": "electric_scooter", "bike_id": "e5a56e75e722009bc176fce0ffe06d31", "rental_uris": {"ios": "https://dc.lft.to/lastmile_qr_scan", "android": "https://dc.lft.to/lastmile_qr_scan"}, "fusion_lat": 0.0}, {"lat": 38.918077, "lon": -77.03192733333333, "is_disabled": 0, "fusion_lon": 0.0, "is_reserved": 0, "name": "47693c92bf9333b5bb887f0132da877e", "type": "electric_scooter", "bike_id": "47693c92bf9333b5bb887f0132da877e", "rental_uris": {"ios": "https://dc.lft.to/lastmile_qr_scan", "android": "https://dc.lft.to/lastmile_qr_scan"}, "fusion_lat": 0.0}, {"lat": 38.900873, "lon": -77.0449015, "is_disabled": 0, "fusion_lon": 0.0, "is_reserved": 0, "name": "be83dbd286b7f86b1b83ecac7e8f6a71", "type": "electric_scooter", "bike_id": "be83dbd286b7f86b1b83ecac7e8f6a71", "rental_uris": {"ios": "https://dc.lft.to/lastmile_qr_scan", "android": "https://dc.lft.to/lastmile_qr_scan"}, "fusion_lat": 0.0}, {"lat": 38.916749, "lon": -77.02286816666667, "is_disabled": 0, "fusion_lon": 0.0, "is_reserved": 0, "name": "7a2b00539cbda5a181d70f9ae75d2465", "type": "electric_scooter", "bike_id": "7a2b00539cbda5a181d70f9ae75d2465", "rental_uris": {"ios": "https://dc.lft.to/lastmile_qr_scan", "android": "https://dc.lft.to/lastmile_qr_scan"}, "fusion_lat": 0.0}, {"lat": 38.923424833333335, "lon": -77.041848, "is_disabled": 0, "fusion_lon": 0.0, "is_reserved": 0, "name": "9a736988dc309e458080a954a647b948", "type": "electric_scooter", "bike_id": "9a736988dc309e458080a954a647b948", "rental_uris": {"ios": "https://dc.lft.to/lastmile_qr_scan", "android": "https://dc.lft.to/lastmile_qr_scan"}, "fusion_lat": 0.0}, {"lat": 38.892528666666664, "lon": -77.01969783333334, "is_disabled": 0, "fusion_lon": 0.0, "is_reserved": 0, "name": "5d7c2f3219e8d4977a35268156849fb9", "type": "electric_bike", "bike_id": "5d7c2f3219e8d4977a35268156849fb9", "rental_uris": {"ios": "https://dc.lft.to/lastmile_qr_scan", "android": "https://dc.lft.to/lastmile_qr_scan"}, "fusion_lat": 0.0}, {"lat": 38.90562366666666, "lon": -77.0019095, "is_disabled": 0, "fusion_lon": 0.0, "is_reserved": 0, "name": "fb9bf73cb62f68bbd6b568ca9086d038", "type": "electric_scooter", "bike_id": "fb9bf73cb62f68bbd6b568ca9086d038", "rental_uris": {"ios": "https://dc.lft.to/lastmile_qr_scan", "android": "https://dc.lft.to/lastmile_qr_scan"}, "fusion_lat": 0.0}, {"lat": 38.910010666666665, "lon": -77.03199666666667, "is_disabled": 0, "fusion_lon": 0.0, "is_reserved": 0, "name": "84943ab61f5af82dfe5f1a246cb8f871", "type": "electric_scooter", "bike_id": "84943ab61f5af82dfe5f1a246cb8f871", "rental_uris": {"ios": "https://dc.lft.to/lastmile_qr_scan", "android": "https://dc.lft.to/lastmile_qr_scan"}, "fusion_lat": 0.0}, {"lat": 38.90766383333333, "lon": -77.03588616666667, "is_disabled": 0, "fusion_lon": 0.0, "is_reserved": 0, "name": "fd16c4dcf53cb47bcaf85867eafd2586", "type": "electric_scooter", "bike_id": "fd16c4dcf53cb47bcaf85867eafd2586", "rental_uris": {"ios": "https://dc.lft.to/lastmile_qr_scan", "android": "https://dc.lft.to/lastmile_qr_scan"}, "fusion_lat": 0.0}, {"lat": 38.917354833333334, "lon": -77.02117783333334, "is_disabled": 0, "fusion_lon": 0.0, "is_reserved": 0, "name": "0864c6edfe973f64c8045fc963c0ec73", "type": "electric_scooter", "bike_id": "0864c6edfe973f64c8045fc963c0ec73", "rental_uris": {"ios": "https://dc.lft.to/lastmile_qr_scan", "android": "https://dc.lft.to/lastmile_qr_scan"}, "fusion_lat": 0.0}, {"lat": 38.91250383333333, "lon": -77.022234, "is_disabled": 0, "fusion_lon": 0.0, "is_reserved": 0, "name": "b059beded10d4920f28a2eebee27e7bc", "type": "electric_scooter", "bike_id": "b059beded10d4920f28a2eebee27e7bc", "rental_uris": {"ios": "https://dc.lft.to/lastmile_qr_scan", "android": "https://dc.lft.to/lastmile_qr_scan"}, "fusion_lat": 0.0}, {"lat": 38.896195, "lon": -76.98564883333333, "is_disabled": 0, "fusion_lon": 0.0, "is_reserved": 0, "name": "f94330b42aa3b1d5ec24e5f53b315751", "type": "electric_scooter", "bike_id": "f94330b42aa3b1d5ec24e5f53b315751", "rental_uris": {"ios": "https://dc.lft.to/lastmile_qr_scan", "android": "https://dc.lft.to/lastmile_qr_scan"}, "fusion_lat": 0.0}, {"lat": 38.95651083333333, "lon": -77.0098645, "is_disabled": 0, "fusion_lon": 0.0, "is_reserved": 0, "name": "70106a0f58ccd30705074aa4ac5216e9", "type": "electric_scooter", "bike_id": "70106a0f58ccd30705074aa4ac5216e9", "rental_uris": {"ios": "https://dc.lft.to/lastmile_qr_scan", "android": "https://dc.lft.to/lastmile_qr_scan"}, "fusion_lat": 0.0}, {"lat": 38.92602083333333, "lon": -77.02388783333333, "is_disabled": 0, "fusion_lon": 0.0, "is_reserved": 0, "name": "465a58569fd74a40a43562be97d42883", "type": "electric_scooter", "bike_id": "465a58569fd74a40a43562be97d42883", "rental_uris": {"ios": "https://dc.lft.to/lastmile_qr_scan", "android": "https://dc.lft.to/lastmile_qr_scan"}, "fusion_lat": 0.0}, {"lat": 38.89957016666666, "lon": -77.04496233333333, "is_disabled": 0, "fusion_lon": 0.0, "is_reserved": 0, "name": "c2c3ec7f1f34db5a10a364f8ed14b538", "type": "electric_scooter", "bike_id": "c2c3ec7f1f34db5a10a364f8ed14b538", "rental_uris": {"ios": "https://dc.lft.to/lastmile_qr_scan", "android": "https://dc.lft.to/lastmile_qr_scan"}, "fusion_lat": 0.0}, {"lat": 38.9001295, "lon": -77.042932, "is_disabled": 0, "fusion_lon": 0.0, "is_reserved": 0, "name": "f6e8ae1db07f1bc41f164090ba95a204", "type": "electric_bike", "bike_id": "f6e8ae1db07f1bc41f164090ba95a204", "rental_uris": {"ios": "https://dc.lft.to/lastmile_qr_scan", "android": "https://dc.lft.to/lastmile_qr_scan"}, "fusion_lat": 0.0}, {"lat": 38.90681083333333, "lon": -77.03477733333334, "is_disabled": 0, "fusion_lon": 0.0, "is_reserved": 0, "name": "4ba4da6b1bf7419095286e323b7fbb6d", "type": "electric_scooter", "bike_id": "4ba4da6b1bf7419095286e323b7fbb6d", "rental_uris": {"ios": "https://dc.lft.to/lastmile_qr_scan", "android": "https://dc.lft.to/lastmile_qr_scan"}, "fusion_lat": 0.0}, {"lat": 38.920661833333334, "lon": -77.04625616666667, "is_disabled": 0, "fusion_lon": 0.0, "is_reserved": 0, "name": "c530a27d52d95fd7a27501cee3bdaf01", "type": "electric_scooter", "bike_id": "c530a27d52d95fd7a27501cee3bdaf01", "rental_uris": {"ios": "https://dc.lft.to/lastmile_qr_scan", "android": "https://dc.lft.to/lastmile_qr_scan"}, "fusion_lat": 0.0}, {"lat": 38.904986, "lon": -77.0433385, "is_disabled": 0, "fusion_lon": 0.0, "is_reserved": 0, "name": "41e50821611d5a1a4b84bb2f9fd2f81a", "type": "electric_scooter", "bike_id": "41e50821611d5a1a4b84bb2f9fd2f81a", "rental_uris": {"ios": "https://dc.lft.to/lastmile_qr_scan", "android": "https://dc.lft.to/lastmile_qr_scan"}, "fusion_lat": 0.0}, {"lat": 38.90548916666667, "lon": -77.0500725, "is_disabled": 0, "fusion_lon": 0.0, "is_reserved": 0, "name": "d9c86cd5cfa63d50c45b0164c924ae27", "type": "electric_scooter", "bike_id": "d9c86cd5cfa63d50c45b0164c924ae27", "rental_uris": {"ios": "https://dc.lft.to/lastmile_qr_scan", "android": "https://dc.lft.to/lastmile_qr_scan"}, "fusion_lat": 0.0}, {"lat": 38.899417166666666, "lon": -77.04984666666667, "is_disabled": 0, "fusion_lon": 0.0, "is_reserved": 0, "name": "ae09027680839504a6d6bddacaff39dd", "type": "electric_scooter", "bike_id": "ae09027680839504a6d6bddacaff39dd", "rental_uris": {"ios": "https://dc.lft.to/lastmile_qr_scan", "android": "https://dc.lft.to/lastmile_qr_scan"}, "fusion_lat": 0.0}, {"lat": 38.90003, "lon": -77.0307085, "is_disabled": 0, "fusion_lon": 0.0, "is_reserved": 0, "name": "658ab36705b42a00a8828887f7c0eaa7", "type": "electric_scooter", "bike_id": "658ab36705b42a00a8828887f7c0eaa7", "rental_uris": {"ios": "https://dc.lft.to/lastmile_qr_scan", "android": "https://dc.lft.to/lastmile_qr_scan"}, "fusion_lat": 0.0}, {"lat": 38.86397316666667, "lon": -77.2010885, "is_disabled": 0, "fusion_lon": 0.0, "is_reserved": 0, "name": "3d52b199a1355a236a2fa849827cc754", "type": "electric_bike", "bike_id": "3d52b199a1355a236a2fa849827cc754", "rental_uris": {"ios": "https://dc.lft.to/lastmile_qr_scan", "android": "https://dc.lft.to/lastmile_qr_scan"}, "fusion_lat": 0.0}, {"lat": 38.893570833333335, "lon": -77.003389, "is_disabled": 0, "fusion_lon": 0.0, "is_reserved": 0, "name": "55d6f060868b7d5da79d896f1a54547a", "type": "electric_scooter", "bike_id": "55d6f060868b7d5da79d896f1a54547a", "rental_uris": {"ios": "https://dc.lft.to/lastmile_qr_scan", "android": "https://dc.lft.to/lastmile_qr_scan"}, "fusion_lat": 0.0}, {"lat": 38.8982715, "lon": -76.94654933333334, "is_disabled": 0, "fusion_lon": 0.0, "is_reserved": 0, "name": "e94100fab0ffb33adec5ac57ab9ec062", "type": "electric_scooter", "bike_id": "e94100fab0ffb33adec5ac57ab9ec062", "rental_uris": {"ios": "https://dc.lft.to/lastmile_qr_scan", "android": "https://dc.lft.to/lastmile_qr_scan"}, "fusion_lat": 0.0}, {"lat": 38.90741933333334, "lon": -77.05714466666667, "is_disabled": 0, "fusion_lon": 0.0, "is_reserved": 0, "name": "e18ea9d88d746dc50703b18875d3c850", "type": "electric_scooter", "bike_id": "e18ea9d88d746dc50703b18875d3c850", "rental_uris": {"ios": "https://dc.lft.to/lastmile_qr_scan", "android": "https://dc.lft.to/lastmile_qr_scan"}, "fusion_lat": 0.0}, {"lat": 38.84197283333334, "lon": -77.067572, "is_disabled": 0, "fusion_lon": 0.0, "is_reserved": 0, "name": "977da6c11b60726a4610dccb4d485406", "type": "electric_bike", "bike_id": "977da6c11b60726a4610dccb4d485406", "rental_uris": {"ios": "https://dc.lft.to/lastmile_qr_scan", "android": "https://dc.lft.to/lastmile_qr_scan"}, "fusion_lat": 0.0}, {"lat": 38.9180115, "lon": -77.02486116666667, "is_disabled": 0, "fusion_lon": 0.0, "is_reserved": 0, "name": "5c92836d6a0dab1916cf7625d08feef4", "type": "electric_scooter", "bike_id": "5c92836d6a0dab1916cf7625d08feef4", "rental_uris": {"ios": "https://dc.lft.to/lastmile_qr_scan", "android": "https://dc.lft.to/lastmile_qr_scan"}, "fusion_lat": 0.0}, {"lat": 38.90534366666667, "lon": -77.048599, "is_disabled": 0, "fusion_lon": 0.0, "is_reserved": 0, "name": "9843824849806a02ae7e9a000953b10d", "type": "electric_scooter", "bike_id": "9843824849806a02ae7e9a000953b10d", "rental_uris": {"ios": "https://dc.lft.to/lastmile_qr_scan", "android": "https://dc.lft.to/lastmile_qr_scan"}, "fusion_lat": 0.0}, {"lat": 38.923862, "lon": -77.03098266666667, "is_disabled": 0, "fusion_lon": 0.0, "is_reserved": 0, "name": "9fc6f4f1111fef3f2c642e0fc3263566", "type": "electric_scooter", "bike_id": "9fc6f4f1111fef3f2c642e0fc3263566", "rental_uris": {"ios": "https://dc.lft.to/lastmile_qr_scan", "android": "https://dc.lft.to/lastmile_qr_scan"}, "fusion_lat": 0.0}, {"lat": 38.89830516666667, "lon": -77.0240205, "is_disabled": 0, "fusion_lon": 0.0, "is_reserved": 0, "name": "3ce4a305575cde5e4d9a33f12fa0c55a", "type": "electric_scooter", "bike_id": "3ce4a305575cde5e4d9a33f12fa0c55a", "rental_uris": {"ios": "https://dc.lft.to/lastmile_qr_scan", "android": "https://dc.lft.to/lastmile_qr_scan"}, "fusion_lat": 0.0}, {"lat": 38.924316166666664, "lon": -76.9972445, "is_disabled": 0, "fusion_lon": 0.0, "is_reserved": 0, "name": "14bdf6f5fb17325486b7f8ecc758b5aa", "type": "electric_scooter", "bike_id": "14bdf6f5fb17325486b7f8ecc758b5aa", "rental_uris": {"ios": "https://dc.lft.to/lastmile_qr_scan", "android": "https://dc.lft.to/lastmile_qr_scan"}, "fusion_lat": 0.0}, {"lat": 38.887471166666664, "lon": -77.02128383333333, "is_disabled": 0, "fusion_lon": 0.0, "is_reserved": 0, "name": "7c7e06c352b9b6ad59fe59200b5c7832", "type": "electric_scooter", "bike_id": "7c7e06c352b9b6ad59fe59200b5c7832", "rental_uris": {"ios": "https://dc.lft.to/lastmile_qr_scan", "android": "https://dc.lft.to/lastmile_qr_scan"}, "fusion_lat": 0.0}, {"lat": 38.90970816666667, "lon": -77.05194416666667, "is_disabled": 0, "fusion_lon": 0.0, "is_reserved": 0, "name": "28e3b21fb743cb7a2a34667824795342", "type": "electric_scooter", "bike_id": "28e3b21fb743cb7a2a34667824795342", "rental_uris": {"ios": "https://dc.lft.to/lastmile_qr_scan", "android": "https://dc.lft.to/lastmile_qr_scan"}, "fusion_lat": 0.0}, {"lat": 38.973578333333336, "lon": -77.02788483333333, "is_disabled": 0, "fusion_lon": 0.0, "is_reserved": 0, "name": "ebc4f6e798eb9268242b27ebdd8bd5e7", "type": "electric_scooter", "bike_id": "ebc4f6e798eb9268242b27ebdd8bd5e7", "rental_uris": {"ios": "https://dc.lft.to/lastmile_qr_scan", "android": "https://dc.lft.to/lastmile_qr_scan"}, "fusion_lat": 0.0}, {"lat": 38.907001, "lon": -77.0359235, "is_disabled": 0, "fusion_lon": 0.0, "is_reserved": 0, "name": "2b8f453c2895788d8a8fd64e23924dd2", "type": "electric_scooter", "bike_id": "2b8f453c2895788d8a8fd64e23924dd2", "rental_uris": {"ios": "https://dc.lft.to/lastmile_qr_scan", "android": "https://dc.lft.to/lastmile_qr_scan"}, "fusion_lat": 0.0}, {"lat": 38.9160545, "lon": -77.0339285, "is_disabled": 0, "fusion_lon": 0.0, "is_reserved": 0, "name": "0d6c93414280540fe2580dc4a3c0e8a9", "type": "electric_scooter", "bike_id": "0d6c93414280540fe2580dc4a3c0e8a9", "rental_uris": {"ios": "https://dc.lft.to/lastmile_qr_scan", "android": "https://dc.lft.to/lastmile_qr_scan"}, "fusion_lat": 0.0}, {"lat": 38.90984483333333, "lon": -77.03194266666667, "is_disabled": 0, "fusion_lon": 0.0, "is_reserved": 0, "name": "34ca4e2145c328db9e04d0215505ff0d", "type": "electric_scooter", "bike_id": "34ca4e2145c328db9e04d0215505ff0d", "rental_uris": {"ios": "https://dc.lft.to/lastmile_qr_scan", "android": "https://dc.lft.to/lastmile_qr_scan"}, "fusion_lat": 0.0}, {"lat": 38.915469333333334, "lon": -77.01199883333334, "is_disabled": 0, "fusion_lon": 0.0, "is_reserved": 0, "name": "e1f5793f860f28ed4e2754d5f75d3664", "type": "electric_scooter", "bike_id": "e1f5793f860f28ed4e2754d5f75d3664", "rental_uris": {"ios": "https://dc.lft.to/lastmile_qr_scan", "android": "https://dc.lft.to/lastmile_qr_scan"}, "fusion_lat": 0.0}, {"lat": 38.92603483333333, "lon": -77.021561, "is_disabled": 0, "fusion_lon": 0.0, "is_reserved": 0, "name": "8b63c634a3ed32921e58c3f541f4aa70", "type": "electric_scooter", "bike_id": "8b63c634a3ed32921e58c3f541f4aa70", "rental_uris": {"ios": "https://dc.lft.to/lastmile_qr_scan", "android": "https://dc.lft.to/lastmile_qr_scan"}, "fusion_lat": 0.0}, {"lat": 38.924845, "lon": -77.052178, "is_disabled": 0, "fusion_lon": 0.0, "is_reserved": 0, "name": "9d318b85a704ad66dc48a8e3e98809f8", "type": "electric_scooter", "bike_id": "9d318b85a704ad66dc48a8e3e98809f8", "rental_uris": {"ios": "https://dc.lft.to/lastmile_qr_scan", "android": "https://dc.lft.to/lastmile_qr_scan"}, "fusion_lat": 0.0}, {"lat": 38.89489666666667, "lon": -77.00306216666667, "is_disabled": 0, "fusion_lon": 0.0, "is_reserved": 0, "name": "ae0f8e39b75ff514213bf457a754ca4a", "type": "electric_scooter", "bike_id": "ae0f8e39b75ff514213bf457a754ca4a", "rental_uris": {"ios": "https://dc.lft.to/lastmile_qr_scan", "android": "https://dc.lft.to/lastmile_qr_scan"}, "fusion_lat": 0.0}, {"lat": 38.908622666666666, "lon": -77.04495266666666, "is_disabled": 0, "fusion_lon": 0.0, "is_reserved": 0, "name": "22aa1fc37ca2f3ba7cf3d07ed75be7c1", "type": "electric_scooter", "bike_id": "22aa1fc37ca2f3ba7cf3d07ed75be7c1", "rental_uris": {"ios": "https://dc.lft.to/lastmile_qr_scan", "android": "https://dc.lft.to/lastmile_qr_scan"}, "fusion_lat": 0.0}, {"lat": 38.933713, "lon": -77.05732483333334, "is_disabled": 0, "fusion_lon": 0.0, "is_reserved": 0, "name": "7d78613d920700d0bcefa7a85b33ee59", "type": "electric_scooter", "bike_id": "7d78613d920700d0bcefa7a85b33ee59", "rental_uris": {"ios": "https://dc.lft.to/lastmile_qr_scan", "android": "https://dc.lft.to/lastmile_qr_scan"}, "fusion_lat": 0.0}, {"lat": 38.90033533333333, "lon": -77.01195816666667, "is_disabled": 0, "fusion_lon": 0.0, "is_reserved": 0, "name": "0bf888de39cb539f58412314e97a92ed", "type": "electric_scooter", "bike_id": "0bf888de39cb539f58412314e97a92ed", "rental_uris": {"ios": "https://dc.lft.to/lastmile_qr_scan", "android": "https://dc.lft.to/lastmile_qr_scan"}, "fusion_lat": 0.0},