{"data": {"bikes": [{"lon": -77.00548383333333, "bike_id": "9be4c768e485e129eebce2f948202050", "lat": 38.90565016666667, "fusion_lon": 0.0, "fusion_lat": 0.0, "type": "electric_scooter", "name": "9be4c768e485e129eebce2f948202050", "is_disabled": 0, "rental_uris": {"ios": "https://dc.lft.to/lastmile_qr_scan", "android": "https://dc.lft.to/lastmile_qr_scan"}, "is_reserved": 0}, {"lon": -77.03193033333334, "bike_id": "dc1d70e8dcd321c8b35ea3b9547513ec", "lat": 38.92116033333333, "fusion_lon": 0.0, "fusion_lat": 0.0, "type": "electric_scooter", "name": "dc1d70e8dcd321c8b35ea3b9547513ec", "is_disabled": 0, "rental_uris": {"ios": "https://dc.lft.to/lastmile_qr_scan", "android": "https://dc.lft.to/lastmile_qr_scan"}, "is_reserved": 0}, {"lon": -77.03473133333334, "bike_id": "807f6857eafe388bd89ec3b32bbbc98e", "lat": 38.92639966666667, "fusion_lon": 0.0, "fusion_lat": 0.0, "type": "electric_scooter", "name": "807f6857eafe388bd89ec3b32bbbc98e", "is_disabled": 0, "rental_uris": {"ios": "https://dc.lft.to/lastmile_qr_scan", "android": "https://dc.lft.to/lastmile_qr_scan"}, "is_reserved": 0}, {"lon": -77.04283333333333, "bike_id": "4d2865a7af65b0833ec8a2c9d0d3c96f", "lat": 38.934105333333335, "fusion_lon": 0.0, "fusion_lat": 0.0, "type": "electric_scooter", "name": "4d2865a7af65b0833ec8a2c9d0d3c96f", "is_disabled": 0, "rental_uris": {"ios": "https://dc.lft.to/lastmile_qr_scan", "android": "https://dc.lft.to/lastmile_qr_scan"}, "is_reserved": 0}, {"lon": -77.02362083333334, "bike_id": "20491be92e3563dd7795a43c1d19be4e", "lat": 38.89621116666667, "fusion_lon": 0.0, "fusion_lat": 0.0, "type": "electric_scooter", "name": "20491be92e3563dd7795a43c1d19be4e", "is_disabled": 0, "rental_uris": {"ios": "https://dc.lft.to/lastmile_qr_scan", "android": "https://dc.lft.to/lastmile_qr_scan"}, "is_reserved": 0}, {"lon": -77.02736166666666, "bike_id": "0d0faf978358a3a897555e7e3cc257c3", "lat": 38.897741, "fusion_lon": 0.0, "fusion_lat": 0.0, "type": "electric_scooter", "name": "0d0faf978358a3a897555e7e3cc257c3", "is_disabled": 0, "rental_uris": {"ios": "https://dc.lft.to/lastmile_qr_scan", "android": "https://dc.lft.to/lastmile_qr_scan"}, "is_reserved": 0}, {"lon": -77.03078666666667, "bike_id": "11f9aba61ef1ad0cbd664890f5e59e97", "lat": 38.880367666666665, "fusion_lon": 0.0, "fusion_lat": 0.0, "type": "electric_scooter", "name": "11f9aba61ef1ad0cbd664890f5e59e97", "is_disabled": 0, "rental_uris": {"ios": "https://dc.lft.to/lastmile_qr_scan", "android": "https://dc.lft.to/lastmile_qr_scan"}, "is_reserved": 0}, {"lon": -77.02214433333333, "bike_id": "e20f5d0e66f2359ff6db071f5992891b", "lat": 38.940902666666666, "fusion_lon": 0.0, "fusion_lat": 0.0, "type": "electric_scooter", "name": "e20f5d0e66f2359ff6db071f5992891b", "is_disabled": 0, "rental_uris": {"ios": "https://dc.lft.to/lastmile_qr_scan", "android": "https://dc.lft.to/lastmile_qr_scan"}, "is_reserved": 0}, {"lon": -76.99464283333333, "bike_id": "b899ad0097da6dc293a9bc74c66a4b02", "lat": 38.940626, "fusion_lon": 0.0, "fusion_lat": 0.0, "type": "electric_bike", "name": "b899ad0097da6dc293a9bc74c66a4b02", "is_disabled": 0, "rental_uris": {"ios": "https://dc.lft.to/lastmile_qr_scan", "android": "https://dc.lft.to/lastmile_qr_scan"}, "is_reserved": 0}, {"lon": -77.04902283333334, "bike_id": "913c42979c536715fdcd680d804acba6", "lat": 38.88999916666667, "fusion_lon": 0.0, "fusion_lat": 0.0, "type": "electric_scooter", "name": "913c42979c536715fdcd680d804acba6", "is_disabled": 0, "rental_uris": {"ios": "https://dc.lft.to/lastmile_qr_scan", "android": "https://dc.lft.to/lastmile_qr_scan"}, "is_reserved": 0}, {"lon": -76.98881416666667, "bike_id": "c4cd8b88ec946b66795685fbc4b1f880", "lat": 38.86663316666667, "fusion_lon": 0.0, "fusion_lat": 0.0, "type": "electric_scooter", "name": "c4cd8b88ec946b66795685fbc4b1f880", "is_disabled": 0, "rental_uris": {"ios": "https://dc.lft.to/lastmile_qr_scan", "android": "https://dc.lft.to/lastmile_qr_scan"}, "is_reserved": 0}, {"lon": -77.03592283333333, "bike_id": "afc32e4ad840d85b82844606cab9d7fb", "lat": 38.93671766666667, "fusion_lon": 0.0, "fusion_lat": 0.0, "type": "electric_scooter", "name": "afc32e4ad840d85b82844606cab9d7fb", "is_disabled": 0, "rental_uris": {"ios": "https://dc.lft.to/lastmile_qr_scan", "android": "https://dc.lft.to/lastmile_qr_scan"}, "is_reserved": 0}, {"lon": -77.025802, "bike_id": "f093950e8ffbb9a23dac129784f761a0", "lat": 38.88739016666667, "fusion_lon": 0.0, "fusion_lat": 0.0, "type": "electric_scooter", "name": "f093950e8ffbb9a23dac129784f761a0", "is_disabled": 0, "rental_uris": {"ios": "https://dc.lft.to/lastmile_qr_scan", "android": "https://dc.lft.to/lastmile_qr_scan"}, "is_reserved": 0}, {"lon": -77.029544, "bike_id": "b474b545014ae9e748d2ae3d28572aca", "lat": 38.905022333333335, "fusion_lon": 0.0, "fusion_lat": 0.0, "type": "electric_scooter", "name": "b474b545014ae9e748d2ae3d28572aca", "is_disabled": 0, "rental_uris": {"ios": "https://dc.lft.to/lastmile_qr_scan", "android": "https://dc.lft.to/lastmile_qr_scan"}, "is_reserved": 0}, {"lon": -77.02992666666667, "bike_id": "677b8fc351ec10e8e6cc749e984cfdfb", "lat": 38.9236995, "fusion_lon": 0.0, "fusion_lat": 0.0, "type": "electric_bike", "name": "677b8fc351ec10e8e6cc749e984cfdfb", "is_disabled": 0, "rental_uris": {"ios": "https://dc.lft.to/lastmile_qr_scan", "android": "https://dc.lft.to/lastmile_qr_scan"}, "is_reserved": 0}, {"lon": -77.0070235, "bike_id": "84ac73e83cc17108b9dc81ab3d105550", "lat": 38.87836866666667, "fusion_lon": 0.0, "fusion_lat": 0.0, "type": "electric_scooter", "name": "84ac73e83cc17108b9dc81ab3d105550", "is_disabled": 0, "rental_uris": {"ios": "https://dc.lft.to/lastmile_qr_scan", "android": "https://dc.lft.to/lastmile_qr_scan"}, "is_reserved": 0}, {"lon": -77.01831866666667, "bike_id": "9042ab038aceffc736edbf289a1ae7eb", "lat": 38.90146933333333, "fusion_lon": 0.0, "fusion_lat": 0.0, "type": "electric_scooter", "name": "9042ab038aceffc736edbf289a1ae7eb", "is_disabled": 0, "rental_uris": {"ios": "https://dc.lft.to/lastmile_qr_scan", "android": "https://dc.lft.to/lastmile_qr_scan"}, "is_reserved": 0}, {"lon": -77.08824416666667, "bike_id": "82c8da9ba3f097568237a87dbaeecad1", "lat": 38.90979, "fusion_lon": 0.0, "fusion_lat": 0.0, "type": "electric_scooter", "name": "82c8da9ba3f097568237a87dbaeecad1", "is_disabled": 0, "rental_uris": {"ios": "https://dc.lft.to/lastmile_qr_scan", "android": "https://dc.lft.to/lastmile_qr_scan"}, "is_reserved": 0}, {"lon": -77.00727916666666, "bike_id": "70dcf1de203ef06f8a3de2c70501766c", "lat": 38.95061033333333, "fusion_lon": 0.0, "fusion_lat": 0.0, "type": "electric_bike", "name": "70dcf1de203ef06f8a3de2c70501766c", "is_disabled": 0, "rental_uris": {"ios": "https://dc.lft.to/lastmile_qr_scan", "android": "https://dc.lft.to/lastmile_qr_scan"}, "is_reserved": 0}, {"lon": -77.0021225, "bike_id": "70fe78f97c30fa7481b38654749afc77", "lat": 38.9004635, "fusion_lon": 0.0, "fusion_lat": 0.0, "type": "electric_scooter", "name": "70fe78f97c30fa7481b38654749afc77", "is_disabled": 0, "rental_uris": {"ios": "https://dc.lft.to/lastmile_qr_scan", "android": "https://dc.lft.to/lastmile_qr_scan"}, "is_reserved": 0}, {"lon": -77.02408633333333, "bike_id": "ffed8857b8984bbd02b99aa2827a2d03", "lat": 38.90978233333333, "fusion_lon": 0.0, "fusion_lat": 0.0, "type": "electric_scooter", "name": "ffed8857b8984bbd02b99aa2827a2d03", "is_disabled": 0, "rental_uris": {"ios": "https://dc.lft.to/lastmile_qr_scan", "android": "https://dc.lft.to/lastmile_qr_scan"}, "is_reserved": 0}, {"lon": -76.98334083333333, "bike_id": "3435dc6ee65d89e2959096817f20faf9", "lat": 38.90090333333333, "fusion_lon": 0.0, "fusion_lat": 0.0, "type": "electric_scooter", "name": "3435dc6ee65d89e2959096817f20faf9", "is_disabled": 0, "rental_uris": {"ios": "https://dc.lft.to/lastmile_qr_scan", "android": "https://dc.lft.to/lastmile_qr_scan"}, "is_reserved": 0}, {"lon": -77.03190166666667, "bike_id": "c6bfffa1b80d943fb03b3683b56826d7", "lat": 38.918946166666665, "fusion_lon": 0.0, "fusion_lat": 0.0, "type": "electric_scooter", "name": "c6bfffa1b80d943fb03b3683b56826d7", "is_disabled": 0, "rental_uris": {"ios": "https://dc.lft.to/lastmile_qr_scan", "android": "https://dc.lft.to/lastmile_qr_scan"}, "is_reserved": 0}, {"lon": -76.992726, "bike_id": "06af7365f249d364dfe0ff97b94aabaf", "lat": 38.89766916666667, "fusion_lon": 0.0, "fusion_lat": 0.0, "type": "electric_scooter", "name": "06af7365f249d364dfe0ff97b94aabaf", "is_disabled": 0, "rental_uris": {"ios": "https://dc.lft.to/lastmile_qr_scan", "android": "https://dc.lft.to/lastmile_qr_scan"}, "is_reserved": 0}, {"lon": -76.94892316666666, "bike_id": "857b58467ef86bdb8e1757b13e29fa31", "lat": 38.895301, "fusion_lon": 0.0, "fusion_lat": 0.0, "type": "electric_scooter", "name": "857b58467ef86bdb8e1757b13e29fa31", "is_disabled": 0, "rental_uris": {"ios": "https://dc.lft.to/lastmile_qr_scan", "android": "https://dc.lft.to/lastmile_qr_scan"}, "is_reserved": 0}, {"lon": -77.03186933333333, "bike_id": "4498257651a508847a90d3bd9f7d048e", "lat": 38.90521616666667, "fusion_lon": 0.0, "fusion_lat": 0.0, "type": "electric_scooter", "name": "4498257651a508847a90d3bd9f7d048e", "is_disabled": 0, "rental_uris": {"ios": "https://dc.lft.to/lastmile_qr_scan", "android": "https://dc.lft.to/lastmile_qr_scan"}, "is_reserved": 0}, {"lon": -76.9761655, "bike_id": "d9bc6e65c7b066cecd6b0092c53f1a1b", "lat": 38.9265005, "fusion_lon": 0.0, "fusion_lat": 0.0, "type": "electric_scooter", "name": "d9bc6e65c7b066cecd6b0092c53f1a1b", "is_disabled": 0, "rental_uris": {"ios": "https://dc.lft.to/lastmile_qr_scan", "android": "https://dc.lft.to/lastmile_qr_scan"}, "is_reserved": 0}, {"lon": -77.0881185, "bike_id": "4561b76e2e3926ba8cef614cd97f4b08", "lat": 38.911766666666665, "fusion_lon": 0.0, "fusion_lat": 0.0, "type": "electric_bike", "name": "4561b76e2e3926ba8cef614cd97f4b08", "is_disabled": 0, "rental_uris": {"ios": "https://dc.lft.to/lastmile_qr_scan", "android": "https://dc.lft.to/lastmile_qr_scan"}, "is_reserved": 0}, {"lon": -77.01865066666667, "bike_id": "0b6d30ad06dbc7f2cbe5d47c48610909", "lat": 38.95148666666667, "fusion_lon": 0.0, "fusion_lat": 0.0, "type": "electric_scooter", "name": "0b6d30ad06dbc7f2cbe5d47c48610909", "is_disabled": 0, "rental_uris": {"ios": "https://dc.lft.to/lastmile_qr_scan", "android": "https://dc.lft.to/lastmile_qr_scan"}, "is_reserved": 0}, {"lon": -76.990998, "bike_id": "457900e48cd93a46467248f6e095d450", "lat": 38.90315833333333, "fusion_lon": 0.0, "fusion_lat": 0.0, "type": "electric_scooter", "name": "457900e48cd93a46467248f6e095d450", "is_disabled": 0, "rental_uris": {"ios": "https://dc.lft.to/lastmile_qr_scan", "android": "https://dc.lft.to/lastmile_qr_scan"}, "is_reserved": 0}, {"lon": -77.04194283333334, "bike_id": "d67f60cefa9c6de376bfeb6594822a31", "lat": 38.926192, "fusion_lon": 0.0, "fusion_lat": 0.0, "type": "electric_scooter", "name": "d67f60cefa9c6de376bfeb6594822a31", "is_disabled": 0, "rental_uris": {"ios": "https://dc.lft.to/lastmile_qr_scan", "android": "https://dc.lft.to/lastmile_qr_scan"}, "is_reserved": 0}, {"lon": -77.03923533333334, "bike_id": "39a1fe49440b187a60687ab7c3d084d5", "lat": 38.927978833333334, "fusion_lon": 0.0, "fusion_lat": 0.0, "type": "electric_scooter", "name": "39a1fe49440b187a60687ab7c3d084d5", "is_disabled": 0, "rental_uris": {"ios": "https://dc.lft.to/lastmile_qr_scan", "android": "https://dc.lft.to/lastmile_qr_scan"}, "is_reserved": 0}, {"lon": -77.006973, "bike_id": "3cb6782b59d06ed7b16bc8fbab42abc8", "lat": 38.90026983333333, "fusion_lon": 0.0, "fusion_lat": 0.0, "type": "electric_scooter", "name": "3cb6782b59d06ed7b16bc8fbab42abc8", "is_disabled": 0, "rental_uris": {"ios": "https://dc.lft.to/lastmile_qr_scan", "android": "https://dc.lft.to/lastmile_qr_scan"}, "is_reserved": 0}, {"lon": -77.03630616666666, "bike_id": "eea384c56c4dc592d70600c2f030eca7", "lat": 38.92459266666667, "fusion_lon": 0.0, "fusion_lat": 0.0, "type": "electric_scooter", "name": "eea384c56c4dc592d70600c2f030eca7", "is_disabled": 0, "rental_uris": {"ios": "https://dc.lft.to/lastmile_qr_scan", "android": "https://dc.lft.to/lastmile_qr_scan"}, "is_reserved": 0}, {"lon": -76.99777466666667, "bike_id": "7c6902d5afe62aef2be9777ec01f5d78", "lat": 38.9104955, "fusion_lon": 0.0, "fusion_lat": 0.0, "type": "electric_scooter", "name": "7c6902d5afe62aef2be9777ec01f5d78", "is_disabled": 0, "rental_uris": {"ios": "https://dc.lft.to/lastmile_qr_scan", "android": "https://dc.lft.to/lastmile_qr_scan"}, "is_reserved": 0}, {"lon": -77.05994416666667, "bike_id": "5c3dd711c3d09b8d2f5381b667a4689b", "lat": 38.807197333333335, "fusion_lon": 0.0, "fusion_lat": 0.0, "type": "electric_bike", "name": "5c3dd711c3d09b8d2f5381b667a4689b", "is_disabled": 0, "rental_uris": {"ios": "https://dc.lft.to/lastmile_qr_scan", "android": "https://dc.lft.to/lastmile_qr_scan"}, "is_reserved": 0}, {"lon": -77.080706, "bike_id": "9398f8e0f69f92f2a2519729d2dc6e8b", "lat": 39.05279516666667, "fusion_lon": 0.0, "fusion_lat": 0.0, "type": "electric_bike", "name": "9398f8e0f69f92f2a2519729d2dc6e8b", "is_disabled": 0, "rental_uris": {"ios": "https://dc.lft.to/lastmile_qr_scan", "android": "https://dc.lft.to/lastmile_qr_scan"}, "is_reserved": 0}, {"lon": -77.026224, "bike_id": "c7b4b0c1e45d254d7a4aa86d1af08107", "lat": 38.9290815, "fusion_lon": 0.0, "fusion_lat": 0.0, "type": "electric_scooter", "name": "c7b4b0c1e45d254d7a4aa86d1af08107", "is_disabled": 0, "rental_uris": {"ios": "https://dc.lft.to/lastmile_qr_scan", "android": "https://dc.lft.to/lastmile_qr_scan"}, "is_reserved": 0}, {"lon": -76.9901685, "bike_id": "c3356f731dbdbab113b8f7c8d176998a", "lat": 38.866406166666664, "fusion_lon": 0.0, "fusion_lat": 0.0, "type": "electric_scooter", "name": "c3356f731dbdbab113b8f7c8d176998a", "is_disabled": 0, "rental_uris": {"ios": "https://dc.lft.to/lastmile_qr_scan", "android": "https://dc.lft.to/lastmile_qr_scan"}, "is_reserved": 0}, {"lon": -77.03222466666666, "bike_id": "606045bf66636db980f533495b8d17c1", "lat": 38.905256333333334, "fusion_lon": 0.0, "fusion_lat": 0.0, "type": "electric_scooter", "name": "606045bf66636db980f533495b8d17c1", "is_disabled": 0, "rental_uris": {"ios": "https://dc.lft.to/lastmile_qr_scan", "android": "https://dc.lft.to/lastmile_qr_scan"}, "is_reserved": 0}, {"lon": -77.01937766666667, "bike_id": "d6976cbc4edb2cc9f7711e04c7392d8f", "lat": 38.93524083333333, "fusion_lon": 0.0, "fusion_lat": 0.0, "type": "electric_scooter", "name": "d6976cbc4edb2cc9f7711e04c7392d8f", "is_disabled": 0, "rental_uris": {"ios": "https://dc.lft.to/lastmile_qr_scan", "android": "https://dc.lft.to/lastmile_qr_scan"}, "is_reserved": 0}, {"lon": -76.99537133333334, "bike_id": "3f84ce1c9889f4f5e4c36d71c9d33cf9", "lat": 38.88369566666667, "fusion_lon": 0.0, "fusion_lat": 0.0, "type": "electric_scooter", "name": "3f84ce1c9889f4f5e4c36d71c9d33cf9", "is_disabled": 0, "rental_uris": {"ios": "https://dc.lft.to/lastmile_qr_scan", "android": "https://dc.lft.to/lastmile_qr_scan"}, "is_reserved": 0}, {"lon": -77.04870583333333, "bike_id": "70f6b36ebc161f160d294151afa8bdf9", "lat": 38.892226, "fusion_lon": 0.0, "fusion_lat": 0.0, "type": "electric_scooter", "name": "70f6b36ebc161f160d294151afa8bdf9", "is_disabled": 0, "rental_uris": {"ios": "https://dc.lft.to/lastmile_qr_scan", "android": "https://dc.lft.to/lastmile_qr_scan"}, "is_reserved": 0}, {"lon": -76.97480166666666, "bike_id": "9ad2ca492a807b0ddc7fc304ff83453a", "lat": 38.90351366666667, "fusion_lon": 0.0, "fusion_lat": 0.0, "type": "electric_scooter", "name": "9ad2ca492a807b0ddc7fc304ff83453a", "is_disabled": 0, "rental_uris": {"ios": "https://dc.lft.to/lastmile_qr_scan", "android": "https://dc.lft.to/lastmile_qr_scan"}, "is_reserved": 0}, {"lon": -77.03643166666667, "bike_id": "cdeb05519a140bce1c971979d37a6e97", "lat": 38.904276833333334, "fusion_lon": 0.0, "fusion_lat": 0.0, "type": "electric_scooter", "name": "cdeb05519a140bce1c971979d37a6e97", "is_disabled": 0, "rental_uris": {"ios": "https://dc.lft.to/lastmile_qr_scan", "android": "https://dc.lft.to/lastmile_qr_scan"}, "is_reserved": 0}, {"lon": -77.06517116666667, "bike_id": "9d2aa06c4d1093d03fb12f2d0fef08c4", "lat": 38.903987666666666, "fusion_lon": 0.0, "fusion_lat": 0.0, "type": "electric_scooter", "name": "9d2aa06c4d1093d03fb12f2d0fef08c4", "is_disabled": 0, "rental_uris": {"ios": "https://dc.lft.to/lastmile_qr_scan", "android": "https://dc.lft.to/lastmile_qr_scan"}, "is_reserved": 0}, {"lon": -76.99087333333334, "bike_id": "b260d31f0d6539ae91bde0c1da339aae", "lat": 38.862364, "fusion_lon": 0.0, "fusion_lat": 0.0, "type": "electric_bike", "name": "b260d31f0d6539ae91bde0c1da339aae", "is_disabled": 0, "rental_uris": {"ios": "https://dc.lft.to/lastmile_qr_scan", "android": "https://dc.lft.to/lastmile_qr_scan"}, "is_reserved": 0}, {"lon": -77.01290366666667, "bike_id": "6d3d9c9403ba7502e8e31cf11b51b5a3", "lat": 38.9201895, "fusion_lon": 0.0, "fusion_lat": 0.0, "type": "electric_scooter", "name": "6d3d9c9403ba7502e8e31cf11b51b5a3", "is_disabled": 0, "rental_uris": {"ios": "https://dc.lft.to/lastmile_qr_scan", "android": "https://dc.lft.to/lastmile_qr_scan"}, "is_reserved": 0}, {"lon": -77.00151033333333, "bike_id": "7417eca8759929d9b1f3c9512850cbaa", "lat": 38.9107955, "fusion_lon": 0.0, "fusion_lat": 0.0, "type": "electric_scooter", "name": "7417eca8759929d9b1f3c9512850cbaa", "is_disabled": 0, "rental_uris": {"ios": "https://dc.lft.to/lastmile_qr_scan", "android": "https://dc.lft.to/lastmile_qr_scan"}, "is_reserved": 0}, {"lon": -77.01198583333333, "bike_id": "eb225b094265f1e93ad9fcd52057a246", "lat": 38.82407366666666, "fusion_lon": 0.0, "fusion_lat": 0.0, "type": "electric_bike", "name": "eb225b094265f1e93ad9fcd52057a246", "is_disabled": 0, "rental_uris": {"ios": "https://dc.lft.to/lastmile_qr_scan", "android": "https://dc.lft.to/lastmile_qr_scan"}, "is_reserved": 0}, {"lon": -77.023623, "bike_id": "5bd2a0ca390160f071dd35b3f99eeee3", "lat": 38.92225083333334, "fusion_lon": 0.0, "fusion_lat": 0.0, "type": "electric_scooter", "name": "5bd2a0ca390160f071dd35b3f99eeee3", "is_disabled": 0, "rental_uris": {"ios": "https://dc.lft.to/lastmile_qr_scan", "android": "https://dc.lft.to/lastmile_qr_scan"}, "is_reserved": 0}, {"lon": -77.003367, "bike_id": "0f27b0a019f354340cad44e20c1fe192", "lat": 38.89186383333333, "fusion_lon": 0.0, "fusion_lat": 0.0, "type": "electric_scooter", "name": "0f27b0a019f354340cad44e20c1fe192", "is_disabled": 0, "rental_uris": {"ios": "https://dc.lft.to/lastmile_qr_scan", "android": "https://dc.lft.to/lastmile_qr_scan"}, "is_reserved": 0}, {"lon": -77.04047966666667, "bike_id": "fc0c5162de377a886a52373053e0b7ab", "lat": 38.928800833333334, "fusion_lon": 0.0, "fusion_lat": 0.0, "type": "electric_scooter", "name": "fc0c5162de377a886a52373053e0b7ab", "is_disabled": 0, "rental_uris": {"ios": "https://dc.lft.to/lastmile_qr_scan", "android": "https://dc.lft.to/lastmile_qr_scan"}, "is_reserved": 0}, {"lon": -77.03215116666667, "bike_id": "558f355119d298cd802bcfdee312fab0", "lat": 38.9073245, "fusion_lon": 0.0, "fusion_lat": 0.0, "type": "electric_scooter", "name": "558f355119d298cd802bcfdee312fab0", "is_disabled": 0, "rental_uris": {"ios": "https://dc.lft.to/lastmile_qr_scan", "android": "https://dc.lft.to/lastmile_qr_scan"}, "is_reserved": 0}, {"lon": -77.02653083333334, "bike_id": "0c8d4d773718fe168ee130f4603a207b", "lat": 38.88108283333333, "fusion_lon": 0.0, "fusion_lat": 0.0, "type": "electric_scooter", "name": "0c8d4d773718fe168ee130f4603a207b", "is_disabled": 0, "rental_uris": {"ios": "https://dc.lft.to/lastmile_qr_scan", "android": "https://dc.lft.to/lastmile_qr_scan"}, "is_reserved": 0}, {"lon": -77.02322866666667, "bike_id": "2a86927025b66aba5af7a456ea9fd7ba", "lat": 38.89481683333333, "fusion_lon": 0.0, "fusion_lat": 0.0, "type": "electric_scooter", "name": "2a86927025b66aba5af7a456ea9fd7ba", "is_disabled": 0, "rental_uris": {"ios": "https://dc.lft.to/lastmile_qr_scan", "android": "https://dc.lft.to/lastmile_qr_scan"}, "is_reserved": 0}, {"lon": -77.03180483333334, "bike_id": "629aec0a2f4b96dddaf6054ad17c461b", "lat": 38.8976825, "fusion_lon": 0.0, "fusion_lat": 0.0, "type": "electric_scooter", "name": "629aec0a2f4b96dddaf6054ad17c461b", "is_disabled": 0, "rental_uris": {"ios": "https://dc.lft.to/lastmile_qr_scan", "android": "https://dc.lft.to/lastmile_qr_scan"}, "is_reserved": 0}, {"lon": -77.04765066666667, "bike_id": "1b919b0dd912751f46cd0d0f184a2d20", "lat": 38.91764533333333, "fusion_lon": 0.0, "fusion_lat": 0.0, "type": "electric_scooter", "name": "1b919b0dd912751f46cd0d0f184a2d20", "is_disabled": 0, "rental_uris": {"ios": "https://dc.lft.to/lastmile_qr_scan", "android": "https://dc.lft.to/lastmile_qr_scan"}, "is_reserved": 0}, {"lon": -77.1171015, "bike_id": "97ce612df2c90a901f696c9cd25dd9ab", "lat": 38.867443333333334, "fusion_lon": 0.0, "fusion_lat": 0.0, "type": "electric_bike", "name": "97ce612df2c90a901f696c9cd25dd9ab", "is_disabled": 0, "rental_uris": {"ios": "https://dc.lft.to/lastmile_qr_scan", "android": "https://dc.lft.to/lastmile_qr_scan"}, "is_reserved": 0}, {"lon": -77.00049333333334, "bike_id": "82a00673a2586cc4886f3cbba331d2f8", "lat": 38.92394016666667, "fusion_lon": 0.0, "fusion_lat": 0.0, "type": "electric_scooter", "name": "82a00673a2586cc4886f3cbba331d2f8", "is_disabled": 0, "rental_uris": {"ios": "https://dc.lft.to/lastmile_qr_scan", "android": "https://dc.lft.to/lastmile_qr_scan"}, "is_reserved": 0}, {"lon": -77.036425, "bike_id": "0accc1f3cbe68b465a68ac02c24970d5", "lat": 38.93284466666667, "fusion_lon": 0.0, "fusion_lat": 0.0, "type": "electric_bike", "name": "0accc1f3cbe68b465a68ac02c24970d5", "is_disabled": 0, "rental_uris": {"ios": "https://dc.lft.to/lastmile_qr_scan", "android": "https://dc.lft.to/lastmile_qr_scan"}, "is_reserved": 0}, {"lon": -77.034497, "bike_id": "95f33ed04e0871bfddc1ce2950a2bab6", "lat": 38.92733333333334, "fusion_lon": 0.0, "fusion_lat": 0.0, "type": "electric_scooter", "name": "95f33ed04e0871bfddc1ce2950a2bab6", "is_disabled": 0, "rental_uris": {"ios": "https://dc.lft.to/lastmile_qr_scan", "android": "https://dc.lft.to/lastmile_qr_scan"}, "is_reserved": 0}, {"lon": -76.98532633333333, "bike_id": "cc855b406acd9c16978e356aadabbb67", "lat": 38.9045335, "fusion_lon": 0.0, "fusion_lat": 0.0, "type": "electric_scooter", "name": "cc855b406acd9c16978e356aadabbb67", "is_disabled": 0, "rental_uris": {"ios": "https://dc.lft.to/lastmile_qr_scan", "android": "https://dc.lft.to/lastmile_qr_scan"}, "is_reserved": 0}, {"lon": -77.03208483333333, "bike_id": "2255e2eb3f924bc6fad055fd3c8b3994", "lat": 38.9192385, "fusion_lon": 0.0, "fusion_lat": 0.0, "type": "electric_scooter", "name": "2255e2eb3f924bc6fad055fd3c8b3994", "is_disabled": 0, "rental_uris": {"ios": "https://dc.lft.to/lastmile_qr_scan", "android": "https://dc.lft.to/lastmile_qr_scan"}, "is_reserved": 0}, {"lon": -76.957495, "bike_id": "24410c4084a4df0681eca521d3eec46b", "lat": 38.88425633333333, "fusion_lon": 0.0, "fusion_lat": 0.0, "type": "electric_scooter", "name": "24410c4084a4df0681eca521d3eec46b", "is_disabled": 0, "rental_uris": {"ios": "https://dc.lft.to/lastmile_qr_scan", "android": "https://dc.lft.to/lastmile_qr_scan"}, "is_reserved": 0}, {"lon": -77.04580366666667, "bike_id": "58dc7852378d519a9114fcda2fd3a330", "lat": 38.913579666666664, "fusion_lon": 0.0, "fusion_lat": 0.0, "type": "electric_scooter", "name": "58dc7852378d519a9114fcda2fd3a330", "is_disabled": 0, "rental_uris": {"ios": "https://dc.lft.to/lastmile_qr_scan", "android": "https://dc.lft.to/lastmile_qr_scan"}, "is_reserved": 0}, {"lon": -77.03330316666667, "bike_id": "a1703e7eb46672a310d4218a514c9bd6", "lat": 38.915662166666664, "fusion_lon": 0.0, "fusion_lat": 0.0, "type": "electric_scooter", "name": "a1703e7eb46672a310d4218a514c9bd6", "is_disabled": 0, "rental_uris": {"ios": "https://dc.lft.to/lastmile_qr_scan", "android": "https://dc.lft.to/lastmile_qr_scan"}, "is_reserved": 0}, {"lon": -76.9846065, "bike_id": "b939c5a87ee9508d436ddf43fbf269db", "lat": 38.90550666666667, "fusion_lon": 0.0, "fusion_lat": 0.0, "type": "electric_scooter", "name": "b939c5a87ee9508d436ddf43fbf269db", "is_disabled": 0, "rental_uris": {"ios": "https://dc.lft.to/lastmile_qr_scan", "android": "https://dc.lft.to/lastmile_qr_scan"}, "is_reserved": 0}, {"lon": -77.0326255, "bike_id": "fa6daa9ad975b1893caa0dd013263ca9", "lat": 38.941531, "fusion_lon": 0.0, "fusion_lat": 0.0, "type": "electric_scooter", "name": "fa6daa9ad975b1893caa0dd013263ca9", "is_disabled": 0, "rental_uris": {"ios": "https://dc.lft.to/lastmile_qr_scan", "android": "https://dc.lft.to/lastmile_qr_scan"}, "is_reserved": 0}, {"lon": -76.99174766666667, "bike_id": "f01e6992d243a965961cf5aab1792ce6", "lat": 38.88986833333333, "fusion_lon": 0.0, "fusion_lat": 0.0, "type": "electric_scooter", "name": "f01e6992d243a965961cf5aab1792ce6", "is_disabled": 0, "rental_uris": {"ios": "https://dc.lft.to/lastmile_qr_scan", "android": "https://dc.lft.to/lastmile_qr_scan"}, "is_reserved": 0}, {"lon": -77.003499, "bike_id": "cfc91691875f8f8085d2df58c3715321", "lat": 38.9162805, "fusion_lon": 0.0, "fusion_lat": 0.0, "type": "electric_scooter", "name": "cfc91691875f8f8085d2df58c3715321", "is_disabled": 0, "rental_uris": {"ios": "https://dc.lft.to/lastmile_qr_scan", "android": "https://dc.lft.to/lastmile_qr_scan"}, "is_reserved": 0}, {"lon": -77.0244505, "bike_id": "c1945ce05ada22c44fb56812a423f686", "lat": 38.92349266666667, "fusion_lon": 0.0, "fusion_lat": 0.0, "type": "electric_scooter", "name": "c1945ce05ada22c44fb56812a423f686", "is_disabled": 0, "rental_uris": {"ios": "https://dc.lft.to/lastmile_qr_scan", "android": "https://dc.lft.to/lastmile_qr_scan"}, "is_reserved": 0}, {"lon": -77.0409115, "bike_id": "55cbaaa48222125f1e03ce4231797c35", "lat": 38.909597833333336, "fusion_lon": 0.0, "fusion_lat": 0.0, "type": "electric_scooter", "name": "55cbaaa48222125f1e03ce4231797c35", "is_disabled": 0, "rental_uris": {"ios": "https://dc.lft.to/lastmile_qr_scan", "android": "https://dc.lft.to/lastmile_qr_scan"}, "is_reserved": 0}, {"lon": -77.0505965, "bike_id": "19316a5c77bc1c9fea979f66629d7577", "lat": 38.925839, "fusion_lon": 0.0, "fusion_lat": 0.0, "type": "electric_scooter", "name": "19316a5c77bc1c9fea979f66629d7577", "is_disabled": 0, "rental_uris": {"ios": "https://dc.lft.to/lastmile_qr_scan", "android": "https://dc.lft.to/lastmile_qr_scan"}, "is_reserved": 0}, {"lon": -77.02694883333334, "bike_id": "391b90b3ac7e6ca2e151adb7b2698df5", "lat": 38.9163265, "fusion_lon": 0.0, "fusion_lat": 0.0, "type": "electric_scooter", "name": "391b90b3ac7e6ca2e151adb7b2698df5", "is_disabled": 0, "rental_uris": {"ios": "https://dc.lft.to/lastmile_qr_scan", "android": "https://dc.lft.to/lastmile_qr_scan"}, "is_reserved": 0}, {"lon": -77.03651683333334, "bike_id": "a57ed3d463c27672a100df5301a07ffe", "lat": 38.91689266666667, "fusion_lon": 0.0, "fusion_lat": 0.0, "type": "electric_scooter", "name": "a57ed3d463c27672a100df5301a07ffe", "is_disabled": 0, "rental_uris": {"ios": "https://dc.lft.to/lastmile_qr_scan", "android": "https://dc.lft.to/lastmile_qr_scan"}, "is_reserved": 0}, {"lon": -77.03762116666667, "bike_id": "969652964debe10121deaa489a95c55c", "lat": 38.92880366666667, "fusion_lon": 0.0, "fusion_lat": 0.0, "type": "electric_scooter", "name": "969652964debe10121deaa489a95c55c", "is_disabled": 0, "rental_uris": {"ios": "https://dc.lft.to/lastmile_qr_scan", "android": "https://dc.lft.to/lastmile_qr_scan"}, "is_reserved": 0}, {"lon": -77.055776, "bike_id": "45c2dd87b7bddac2baba009176d714bc", "lat": 38.916010666666665, "fusion_lon": 0.0, "fusion_lat": 0.0, "type": "electric_scooter", "name": "45c2dd87b7bddac2baba009176d714bc", "is_disabled": 0, "rental_uris": {"ios": "https://dc.lft.to/lastmile_qr_scan", "android": "https://dc.lft.to/lastmile_qr_scan"}, "is_reserved": 0}, {"lon": -77.05134, "bike_id": "dc14e1b8d132499dd1b66b2d6f845717", "lat": 38.923625333333334, "fusion_lon": 0.0, "fusion_lat": 0.0, "type": "electric_scooter", "name": "dc14e1b8d132499dd1b66b2d6f845717", "is_disabled": 0, "rental_uris": {"ios": "https://dc.lft.to/lastmile_qr_scan", "android": "https://dc.lft.to/lastmile_qr_scan"}, "is_reserved": 0}, {"lon": -77.02676216666667, "bike_id": "2d2dcbf1505a4b6f343ea60fad4611e3", "lat": 38.900538166666664, "fusion_lon": 0.0, "fusion_lat": 0.0, "type": "electric_scooter", "name": "2d2dcbf1505a4b6f343ea60fad4611e3", "is_disabled": 0, "rental_uris": {"ios": "https://dc.lft.to/lastmile_qr_scan", "android": "https://dc.lft.to/lastmile_qr_scan"}, "is_reserved": 0}, {"lon": -77.05863283333333, "bike_id": "d8363fd4c17eb940ed0c8d0466438bf5", "lat": 38.9360495, "fusion_lon": 0.0, "fusion_lat": 0.0, "type": "electric_scooter", "name": "d8363fd4c17eb940ed0c8d0466438bf5", "is_disabled": 0, "rental_uris": {"ios": "https://dc.lft.to/lastmile_qr_scan", "android": "https://dc.lft.to/lastmile_qr_scan"}, "is_reserved": 0}, {"lon": -76.9159725, "bike_id": "2e9ba0bf58a92499f832744ed0c9a68b", "lat": 38.879836166666664, "fusion_lon": 0.0, "fusion_lat": 0.0, "type": "electric_bike", "name": "2e9ba0bf58a92499f832744ed0c9a68b", "is_disabled": 0, "rental_uris": {"ios": "https://dc.lft.to/lastmile_qr_scan", "android": "https://dc.lft.to/lastmile_qr_scan"}, "is_reserved": 0}, {"lon": -77.02175583333333, "bike_id": "9295e9ada7c9a74cfb377bfe1c2891de", "lat": 38.89744066666667, "fusion_lon": 0.0, "fusion_lat": 0.0, "type": "electric_scooter", "name": "9295e9ada7c9a74cfb377bfe1c2891de", "is_disabled": 0, "rental_uris": {"ios": "https://dc.lft.to/lastmile_qr_scan", "android": "https://dc.lft.to/lastmile_qr_scan"}, "is_reserved": 0}, {"lon": -77.073439, "bike_id": "0cec135f234f03b6f88a3ae9ba1b713f", "lat": 38.91101716666667, "fusion_lon": 0.0, "fusion_lat": 0.0, "type": "electric_scooter", "name": "0cec135f234f03b6f88a3ae9ba1b713f", "is_disabled": 0, "rental_uris": {"ios": "https://dc.lft.to/lastmile_qr_scan", "android": "https://dc.lft.to/lastmile_qr_scan"}, "is_reserved": 0}, {"lon": -76.99051383333334, "bike_id": "7e1a0b7c6fff57575e2879c513d9b12a", "lat": 38.88414733333333, "fusion_lon": 0.0, "fusion_lat": 0.0, "type": "electric_scooter", "name": "7e1a0b7c6fff57575e2879c513d9b12a", "is_disabled": 0, "rental_uris": {"ios": "https://dc.lft.to/lastmile_qr_scan", "android": "https://dc.lft.to/lastmile_qr_scan"}, "is_reserved": 0}, {"lon": -77.04246633333334, "bike_id": "149ad38d0a8052d32854542c0e8e2bcb", "lat": 38.92433966666667, "fusion_lon": 0.0, "fusion_lat": 0.0, "type": "electric_scooter", "name": "149ad38d0a8052d32854542c0e8e2bcb", "is_disabled": 0, "rental_uris": {"ios": "https://dc.lft.to/lastmile_qr_scan", "android": "https://dc.lft.to/lastmile_qr_scan"}, "is_reserved": 0}, {"lon": -76.97333383333333, "bike_id": "62bc6336a3eccb7102a3464007a49794", "lat": 38.90478516666667, "fusion_lon": 0.0, "fusion_lat": 0.0, "type": "electric_bike", "name": "62bc6336a3eccb7102a3464007a49794", "is_disabled": 0, "rental_uris": {"ios": "https://dc.lft.to/lastmile_qr_scan", "android": "https://dc.lft.to/lastmile_qr_scan"}, "is_reserved": 0}, {"lon": -77.00265733333333, "bike_id": "e1dce085f8dcf7ea0f00aa9563f0d395", "lat": 38.91112366666667, "fusion_lon": 0.0, "fusion_lat": 0.0, "type": "electric_scooter", "name": "e1dce085f8dcf7ea0f00aa9563f0d395", "is_disabled": 0, "rental_uris": {"ios": "https://dc.lft.to/lastmile_qr_scan", "android": "https://dc.lft.to/lastmile_qr_scan"}, "is_reserved": 0}, {"lon": -77.02100883333334, "bike_id": "4cd446f1e75ee02c66f5a1bfb88d1d59", "lat": 38.899741, "fusion_lon": 0.0, "fusion_lat": 0.0, "type": "electric_scooter", "name": "4cd446f1e75ee02c66f5a1bfb88d1d59", "is_disabled": 0, "rental_uris": {"ios": "https://dc.lft.to/lastmile_qr_scan", "android": "https://dc.lft.to/lastmile_qr_scan"}, "is_reserved": 0}, {"lon": -76.98212066666666, "bike_id": "c2dd7269f17e3cf4539e2a106126d577", "lat": 38.86612133333333, "fusion_lon": 0.0, "fusion_lat": 0.0, "type": "electric_scooter", "name": "c2dd7269f17e3cf4539e2a106126d577", "is_disabled": 0, "rental_uris": {"ios": "https://dc.lft.to/lastmile_qr_scan", "android": "https://dc.lft.to/lastmile_qr_scan"}, "is_reserved": 0}, {"lon": -77.0037455, "bike_id": "9ab01e8e2d5e19fb8adf03e4c5a07bd4", "lat": 38.89732883333333, "fusion_lon": 0.0, "fusion_lat": 0.0, "type": "electric_scooter", "name": "9ab01e8e2d5e19fb8adf03e4c5a07bd4", "is_disabled": 0, "rental_uris": {"ios": "https://dc.lft.to/lastmile_qr_scan", "android": "https://dc.lft.to/lastmile_qr_scan"}, "is_reserved": 0}, {"lon": -77.02369033333333, "bike_id": "dff4b29e28e0f1042655f133c1f49e41", "lat": 38.892146, "fusion_lon": 0.0, "fusion_lat": 0.0, "type": "electric_scooter", "name": "dff4b29e28e0f1042655f133c1f49e41", "is_disabled": 0, "rental_uris": {"ios": "https://dc.lft.to/lastmile_qr_scan", "android": "https://dc.lft.to/lastmile_qr_scan"}, "is_reserved": 0}, {"lon": -77.02612766666667, "bike_id": "ffb4aca9ffb6d8226a8fe06143874109", "lat": 38.928762166666665, "fusion_lon": 0.0, "fusion_lat": 0.0, "type": "electric_scooter", "name": "ffb4aca9ffb6d8226a8fe06143874109", "is_disabled": 0, "rental_uris": {"ios": "https://dc.lft.to/lastmile_qr_scan", "android": "https://dc.lft.to/lastmile_qr_scan"}, "is_reserved": 0}, {"lon": -77.032604, "bike_id": "d12bb817d17783829a270dc25f2a67d5", "lat": 38.9199155, "fusion_lon": 0.0, "fusion_lat": 0.0, "type": "electric_scooter", "name": "d12bb817d17783829a270dc25f2a67d5", "is_disabled": 0, "rental_uris": {"ios": "https://dc.lft.to/lastmile_qr_scan", "android": "https://dc.lft.to/lastmile_qr_scan"}, "is_reserved": 0}, {"lon": -77.03411683333333, "bike_id": "79346528c29afabf1cac95adb80796aa", "lat": 38.934202166666665, "fusion_lon": 0.0, "fusion_lat": 0.0, "type": "electric_scooter", "name": "79346528c29afabf1cac95adb80796aa", "is_disabled": 0, "rental_uris": {"ios": "https://dc.lft.to/lastmile_qr_scan", "android": "https://dc.lft.to/lastmile_qr_scan"}, "is_reserved": 0}, {"lon": -77.03480966666666, "bike_id": "41be3d1b91e6940786606b127c23a378", "lat": 38.91707066666667, "fusion_lon": 0.0, "fusion_lat": 0.0, "type": "electric_scooter", "name": "41be3d1b91e6940786606b127c23a378", "is_disabled": 0, "rental_uris": {"ios": "https://dc.lft.to/lastmile_qr_scan", "android": "https://dc.lft.to/lastmile_qr_scan"}, "is_reserved": 0}, {"lon": -77.05009866666667, "bike_id": "5e2dd73ec75833a434fa3e5f4f67c30c", "lat": 38.899908333333336, "fusion_lon": 0.0, "fusion_lat": 0.0, "type": "electric_scooter", "name": "5e2dd73ec75833a434fa3e5f4f67c30c", "is_disabled": 0, "rental_uris": {"ios": "https://dc.lft.to/lastmile_qr_scan", "android": "https://dc.lft.to/lastmile_qr_scan"}, "is_reserved": 0}, {"lon": -76.98533833333333, "bike_id": "102a9a321b43d46613f3cebe9096c852", "lat": 38.910245333333336, "fusion_lon": 0.0, "fusion_lat": 0.0, "type": "electric_scooter", "name": "102a9a321b43d46613f3cebe9096c852", "is_disabled": 0, "rental_uris": {"ios": "https://dc.lft.to/lastmile_qr_scan", "android": "https://dc.lft.to/lastmile_qr_scan"}, "is_reserved": 0}, {"lon": -77.04645283333333, "bike_id": "7e64004d741f34c77e75e72c21a2cf1d", "lat": 38.92123183333333, "fusion_lon": 0.0, "fusion_lat": 0.0, "type": "electric_scooter", "name": "7e64004d741f34c77e75e72c21a2cf1d", "is_disabled": 0, "rental_uris": {"ios": "https://dc.lft.to/lastmile_qr_scan", "android": "https://dc.lft.to/lastmile_qr_scan"}, "is_reserved": 0}, {"lon": -77.02711633333334, "bike_id": "43418c2c7b7c8fc0dc9cf7b02e037337", "lat": 38.9276965, "fusion_lon": 0.0, "fusion_lat": 0.0, "type": "electric_scooter", "name": "43418c2c7b7c8fc0dc9cf7b02e037337", "is_disabled": 0, "rental_uris": {"ios": "https://dc.lft.to/lastmile_qr_scan", "android": "https://dc.lft.to/lastmile_qr_scan"}, "is_reserved": 0}, {"lon": -77.04249833333333, "bike_id": "c722f2a8489f7852f9c06a198a592054", "lat": 38.922243333333334, "fusion_lon": 0.0, "fusion_lat": 0.0, "type": "electric_scooter", "name": "c722f2a8489f7852f9c06a198a592054", "is_disabled": 0, "rental_uris": {"ios": "https://dc.lft.to/lastmile_qr_scan", "android": "https://dc.lft.to/lastmile_qr_scan"}, "is_reserved": 0}, {"lon": -77.02568016666666, "bike_id": "b4616eb2e81a8b7e5081b365a8f04185", "lat": 38.92403266666667, "fusion_lon": 0.0, "fusion_lat": 0.0, "type": "electric_scooter", "name": "b4616eb2e81a8b7e5081b365a8f04185", "is_disabled": 0, "rental_uris": {"ios": "https://dc.lft.to/lastmile_qr_scan", "android": "https://dc.lft.to/lastmile_qr_scan"}, "is_reserved": 0}, {"lon": -77.06103783333333, "bike_id": "d8a635b783b5ae42246fcd3f01b8de01", "lat": 38.937017833333336, "fusion_lon": 0.0, "fusion_lat": 0.0, "type": "electric_scooter", "name": "d8a635b783b5ae42246fcd3f01b8de01", "is_disabled": 0, "rental_uris": {"ios": "https://dc.lft.to/lastmile_qr_scan", "android": "https://dc.lft.to/lastmile_qr_scan"}, "is_reserved": 0}, {"lon": -76.990392, "bike_id": "288debb22273486810cc62826af1fc89", "lat": 38.88755166666667, "fusion_lon": 0.0, "fusion_lat": 0.0, "type": "electric_scooter", "name": "288debb22273486810cc62826af1fc89", "is_disabled": 0, "rental_uris": {"ios": "https://dc.lft.to/lastmile_qr_scan", "android": "https://dc.lft.to/lastmile_qr_scan"}, "is_reserved": 0}, {"lon": -77.06494083333334, "bike_id": "3cfe0b6bc2561e6ecc3292a85b2f0e8a", "lat": 38.929052166666665, "fusion_lon": 0.0, "fusion_lat": 0.0, "type": "electric_scooter", "name": "3cfe0b6bc2561e6ecc3292a85b2f0e8a", "is_disabled": 0, "rental_uris": {"ios": "https://dc.lft.to/lastmile_qr_scan", "android": "https://dc.lft.to/lastmile_qr_scan"}, "is_reserved": 0}, {"lon": -77.02183833333333, "bike_id": "7f302ff391500046b983a136af7ba7a7", "lat": 38.909526666666665, "fusion_lon": 0.0, "fusion_lat": 0.0, "type": "electric_scooter", "name": "7f302ff391500046b983a136af7ba7a7", "is_disabled": 0, "rental_uris": {"ios": "https://dc.lft.to/lastmile_qr_scan", "android": "https://dc.lft.to/lastmile_qr_scan"}, "is_reserved": 0}, {"lon": -76.990312, "bike_id": "eb28efbb3943cd706d51acc43d922107", "lat": 38.89849566666667, "fusion_lon": 0.0, "fusion_lat": 0.0, "type": "electric_scooter", "name": "eb28efbb3943cd706d51acc43d922107", "is_disabled": 0, "rental_uris": {"ios": "https://dc.lft.to/lastmile_qr_scan", "android": "https://dc.lft.to/lastmile_qr_scan"}, "is_reserved": 0}, {"lon": -77.03553033333333, "bike_id": "56b5049b40f342d017659309f4438f86", "lat": 38.927489666666666, "fusion_lon": 0.0, "fusion_lat": 0.0, "type": "electric_scooter", "name": "56b5049b40f342d017659309f4438f86", "is_disabled": 0, "rental_uris": {"ios": "https://dc.lft.to/lastmile_qr_scan", "android": "https://dc.lft.to/lastmile_qr_scan"}, "is_reserved": 0}, {"lon": -77.0340645, "bike_id": "3cc55f3f949a99c202f5537ebb2b8449", "lat": 38.931232333333334, "fusion_lon": 0.0, "fusion_lat": 0.0, "type": "electric_scooter", "name": "3cc55f3f949a99c202f5537ebb2b8449", "is_disabled": 0, "rental_uris": {"ios": "https://dc.lft.to/lastmile_qr_scan", "android": "https://dc.lft.to/lastmile_qr_scan"}, "is_reserved": 0}, {"lon": -77.03355083333334, "bike_id": "8b812d06e5e40cc43444b1db3c23b4a5", "lat": 38.923442333333334, "fusion_lon": 0.0, "fusion_lat": 0.0, "type": "electric_scooter", "name": "8b812d06e5e40cc43444b1db3c23b4a5", "is_disabled": 0, "rental_uris": {"ios": "https://dc.lft.to/lastmile_qr_scan", "android": "https://dc.lft.to/lastmile_qr_scan"}, "is_reserved": 0}, {"lon": -77.0307005, "bike_id": "91617599260f76ca62714b5fd272fca0", "lat": 38.9081835, "fusion_lon": 0.0, "fusion_lat": 0.0, "type": "electric_scooter", "name": "91617599260f76ca62714b5fd272fca0", "is_disabled": 0, "rental_uris": {"ios": "https://dc.lft.to/lastmile_qr_scan", "android": "https://dc.lft.to/lastmile_qr_scan"}, "is_reserved": 0}, {"lon": -77.03867466666667, "bike_id": "5405f7203bed05d7ebf0607e3cfe5863", "lat": 38.91555566666667, "fusion_lon": 0.0, "fusion_lat": 0.0, "type": "electric_scooter", "name": "5405f7203bed05d7ebf0607e3cfe5863", "is_disabled": 0, "rental_uris": {"ios": "https://dc.lft.to/lastmile_qr_scan", "android": "https://dc.lft.to/lastmile_qr_scan"}, "is_reserved": 0}, {"lon": -77.00885883333333, "bike_id": "1dff3237ac979a5fbe3ce769bd643baf", "lat": 38.9171355, "fusion_lon": 0.0, "fusion_lat": 0.0, "type": "electric_scooter", "name": "1dff3237ac979a5fbe3ce769bd643baf", "is_disabled": 0, "rental_uris": {"ios": "https://dc.lft.to/lastmile_qr_scan", "android": "https://dc.lft.to/lastmile_qr_scan"}, "is_reserved": 0}, {"lon": -77.01928783333334, "bike_id": "5186ee3b7d25d28af17e2c7c5dce0724", "lat": 38.877465, "fusion_lon": 0.0, "fusion_lat": 0.0, "type": "electric_scooter", "name": "5186ee3b7d25d28af17e2c7c5dce0724", "is_disabled": 0, "rental_uris": {"ios": "https://dc.lft.to/lastmile_qr_scan", "android": "https://dc.lft.to/lastmile_qr_scan"}, "is_reserved": 0}, {"lon": -77.00567333333333, "bike_id": "c6616c46d6f60ac5bf6e9cebe4b6d307", "lat": 38.905585, "fusion_lon": 0.0, "fusion_lat": 0.0, "type": "electric_scooter", "name": "c6616c46d6f60ac5bf6e9cebe4b6d307", "is_disabled": 0, "rental_uris": {"ios": "https://dc.lft.to/lastmile_qr_scan", "android": "https://dc.lft.to/lastmile_qr_scan"}, "is_reserved": 0}, {"lon": -77.00455483333333, "bike_id": "6b5b0ba1a2a405c7a295b2f6363ae53c", "lat": 38.9176375, "fusion_lon": 0.0, "fusion_lat": 0.0, "type": "electric_scooter", "name": "6b5b0ba1a2a405c7a295b2f6363ae53c", "is_disabled": 0, "rental_uris": {"ios": "https://dc.lft.to/lastmile_qr_scan", "android": "https://dc.lft.to/lastmile_qr_scan"}, "is_reserved": 0}, {"lon": -77.0266985, "bike_id": "9b851e5284681fb29771c37215fee95b", "lat": 38.97185783333333, "fusion_lon": 0.0, "fusion_lat": 0.0, "type": "electric_scooter", "name": "9b851e5284681fb29771c37215fee95b", "is_disabled": 0, "rental_uris": {"ios": "https://dc.lft.to/lastmile_qr_scan", "android": "https://dc.lft.to/lastmile_qr_scan"}, "is_reserved": 0}, {"lon": -76.98243666666667, "bike_id": "0a5e719e59d48d717a38adbc279254a6", "lat": 38.88863716666667, "fusion_lon": 0.0, "fusion_lat": 0.0, "type": "electric_scooter", "name": "0a5e719e59d48d717a38adbc279254a6", "is_disabled": 0, "rental_uris": {"ios": "https://dc.lft.to/lastmile_qr_scan", "android": "https://dc.lft.to/lastmile_qr_scan"}, "is_reserved": 0}, {"lon": -76.98660333333333, "bike_id": "05c954858d437b1c4ddf9f7662f3ba1e", "lat": 38.91252083333333, "fusion_lon": 0.0, "fusion_lat": 0.0, "type": "electric_scooter", "name": "05c954858d437b1c4ddf9f7662f3ba1e", "is_disabled": 0, "rental_uris": {"ios": "https://dc.lft.to/lastmile_qr_scan", "android": "https://dc.lft.to/lastmile_qr_scan"}, "is_reserved": 0}, {"lon": -77.03649466666667, "bike_id": "bf9a651cea78f27ca626bce18536ec4d", "lat": 38.903597166666664, "fusion_lon": 0.0, "fusion_lat": 0.0, "type": "electric_scooter", "name": "bf9a651cea78f27ca626bce18536ec4d", "is_disabled": 0, "rental_uris": {"ios": "https://dc.lft.to/lastmile_qr_scan", "android": "https://dc.lft.to/lastmile_qr_scan"}, "is_reserved": 0}, {"lon": -77.0322855, "bike_id": "74568c369737f5bc113b8ef54bf68257", "lat": 38.90526083333334, "fusion_lon": 0.0, "fusion_lat": 0.0, "type": "electric_scooter", "name": "74568c369737f5bc113b8ef54bf68257", "is_disabled": 0, "rental_uris": {"ios": "https://dc.lft.to/lastmile_qr_scan", "android": "https://dc.lft.to/lastmile_qr_scan"}, "is_reserved": 0}, {"lon": -77.048774, "bike_id": "c6ee800528c6ac99374e637eefcbe7d5", "lat": 38.89233083333333, "fusion_lon": 0.0, "fusion_lat": 0.0, "type": "electric_scooter", "name": "c6ee800528c6ac99374e637eefcbe7d5", "is_disabled": 0, "rental_uris": {"ios": "https://dc.lft.to/lastmile_qr_scan", "android": "https://dc.lft.to/lastmile_qr_scan"}, "is_reserved": 0}, {"lon": -77.0320515, "bike_id": "1b88a1172cd4a34754bc7fec3b3671ff", "lat": 38.93050383333333, "fusion_lon": 0.0, "fusion_lat": 0.0, "type": "electric_scooter", "name": "1b88a1172cd4a34754bc7fec3b3671ff", "is_disabled": 0, "rental_uris": {"ios": "https://dc.lft.to/lastmile_qr_scan", "android": "https://dc.lft.to/lastmile_qr_scan"}, "is_reserved": 0}, {"lon": -77.05515866666667, "bike_id": "e65223144ef78c1dd476a52e68159ea6", "lat": 38.8996465, "fusion_lon": 0.0, "fusion_lat": 0.0, "type": "electric_scooter", "name": "e65223144ef78c1dd476a52e68159ea6", "is_disabled": 0, "rental_uris": {"ios": "https://dc.lft.to/lastmile_qr_scan", "android": "https://dc.lft.to/lastmile_qr_scan"}, "is_reserved": 0}, {"lon": -77.04483933333333, "bike_id": "0cd4a656eea6c5251b455c9840fc5b76", "lat": 38.919336333333334, "fusion_lon": 0.0, "fusion_lat": 0.0, "type": "electric_scooter", "name": "0cd4a656eea6c5251b455c9840fc5b76", "is_disabled": 0, "rental_uris": {"ios": "https://dc.lft.to/lastmile_qr_scan", "android": "https://dc.lft.to/lastmile_qr_scan"}, "is_reserved": 0}, {"lon": -76.98843066666667, "bike_id": "8b35a18f16010814b137d288eea416b5", "lat": 38.90131483333333, "fusion_lon": 0.0, "fusion_lat": 0.0, "type": "electric_scooter", "name": "8b35a18f16010814b137d288eea416b5", "is_disabled": 0, "rental_uris": {"ios": "https://dc.lft.to/lastmile_qr_scan", "android": "https://dc.lft.to/lastmile_qr_scan"}, "is_reserved": 0}, {"lon": -77.01489566666666, "bike_id": "a8e42122f4937563386a5f00e6fca930", "lat": 38.917625, "fusion_lon": 0.0, "fusion_lat": 0.0, "type": "electric_scooter", "name": "a8e42122f4937563386a5f00e6fca930", "is_disabled": 0, "rental_uris": {"ios": "https://dc.lft.to/lastmile_qr_scan", "android": "https://dc.lft.to/lastmile_qr_scan"}, "is_reserved": 0}, {"lon": -77.0277575, "bike_id": "76b6153f6e91965df97709aa3f87db57", "lat": 38.92767716666667, "fusion_lon": 0.0, "fusion_lat": 0.0, "type": "electric_scooter", "name": "76b6153f6e91965df97709aa3f87db57", "is_disabled": 0, "rental_uris": {"ios": "https://dc.lft.to/lastmile_qr_scan", "android": "https://dc.lft.to/lastmile_qr_scan"}, "is_reserved": 0}, {"lon": -76.99290833333333, "bike_id": "abdb03a55c1dd54ece89a2a618beeadc", "lat": 38.89883866666667, "fusion_lon": 0.0, "fusion_lat": 0.0, "type": "electric_scooter", "name": "abdb03a55c1dd54ece89a2a618beeadc", "is_disabled": 0, "rental_uris": {"ios": "https://dc.lft.to/lastmile_qr_scan", "android": "https://dc.lft.to/lastmile_qr_scan"}, "is_reserved": 0}, {"lon": -77.0320015, "bike_id": "4546068f365e54f7ba11cdea8d3c4187", "lat": 38.927822166666665, "fusion_lon": 0.0, "fusion_lat": 0.0, "type": "electric_scooter", "name": "4546068f365e54f7ba11cdea8d3c4187", "is_disabled": 0, "rental_uris": {"ios": "https://dc.lft.to/lastmile_qr_scan", "android": "https://dc.lft.to/lastmile_qr_scan"}, "is_reserved": 0}, {"lon": -77.04183283333333, "bike_id": "cd0598e6339277ff7f3b4bf315ca3cc3", "lat": 38.905523, "fusion_lon": 0.0, "fusion_lat": 0.0, "type": "electric_scooter", "name": "cd0598e6339277ff7f3b4bf315ca3cc3", "is_disabled": 0, "rental_uris": {"ios": "https://dc.lft.to/lastmile_qr_scan", "android": "https://dc.lft.to/lastmile_qr_scan"}, "is_reserved": 0}, {"lon": -77.03767166666667, "bike_id": "c642c6927439bb4dd5f11769983b4b98", "lat": 38.9200615, "fusion_lon": 0.0, "fusion_lat": 0.0, "type": "electric_scooter", "name": "c642c6927439bb4dd5f11769983b4b98", "is_disabled": 0, "rental_uris": {"ios": "https://dc.lft.to/lastmile_qr_scan", "android": "https://dc.lft.to/lastmile_qr_scan"}, "is_reserved": 0}, {"lon": -76.983834, "bike_id": "dc566a6a0a3e08a33600b06a3e36c403", "lat": 38.89607316666667, "fusion_lon": 0.0, "fusion_lat": 0.0, "type": "electric_scooter", "name": "dc566a6a0a3e08a33600b06a3e36c403", "is_disabled": 0, "rental_uris": {"ios": "https://dc.lft.to/lastmile_qr_scan", "android": "https://dc.lft.to/lastmile_qr_scan"}, "is_reserved": 0}, {"lon": -77.01798016666666, "bike_id": "80b3ed8e637fc0929b334c853c197e66", "lat": 38.90499066666667, "fusion_lon": 0.0, "fusion_lat": 0.0, "type": "electric_scooter", "name": "80b3ed8e637fc0929b334c853c197e66", "is_disabled": 0, "rental_uris": {"ios": "https://dc.lft.to/lastmile_qr_scan", "android": "https://dc.lft.to/lastmile_qr_scan"}, "is_reserved": 0}, {"lon": -77.02170233333334, "bike_id": "dbde6511d90de1f8de9cf268e443c4c2", "lat": 38.929975, "fusion_lon": 0.0, "fusion_lat": 0.0, "type": "electric_scooter", "name": "dbde6511d90de1f8de9cf268e443c4c2", "is_disabled": 0, "rental_uris": {"ios": "https://dc.lft.to/lastmile_qr_scan", "android": "https://dc.lft.to/lastmile_qr_scan"}, "is_reserved": 0}, {"lon": -77.03547533333334, "bike_id": "4158d2f10ba688138916b7fe7e238d98", "lat": 38.92571083333333, "fusion_lon": 0.0, "fusion_lat": 0.0, "type": "electric_scooter", "name": "4158d2f10ba688138916b7fe7e238d98", "is_disabled": 0, "rental_uris": {"ios": "https://dc.lft.to/lastmile_qr_scan", "android": "https://dc.lft.to/lastmile_qr_scan"}, "is_reserved": 0}, {"lon": -77.02751916666666, "bike_id": "d773ead67d81d7152bce1bbf8ed84117", "lat": 38.933285, "fusion_lon": 0.0, "fusion_lat": 0.0, "type": "electric_scooter", "name": "d773ead67d81d7152bce1bbf8ed84117", "is_disabled": 0, "rental_uris": {"ios": "https://dc.lft.to/lastmile_qr_scan", "android": "https://dc.lft.to/lastmile_qr_scan"}, "is_reserved": 0}, {"lon": -77.03261266666667, "bike_id": "29ab543afe5a4b108b0234c88bf3aa07", "lat": 38.932387166666665, "fusion_lon": 0.0, "fusion_lat": 0.0, "type": "electric_scooter", "name": "29ab543afe5a4b108b0234c88bf3aa07", "is_disabled": 0, "rental_uris": {"ios": "https://dc.lft.to/lastmile_qr_scan", "android": "https://dc.lft.to/lastmile_qr_scan"}, "is_reserved": 0}, {"lon": -77.0326445, "bike_id": "36634725d597f8796e3b5c015cab04c7", "lat": 38.937761, "fusion_lon": 0.0, "fusion_lat": 0.0, "type": "electric_scooter", "name": "36634725d597f8796e3b5c015cab04c7", "is_disabled": 0, "rental_uris": {"ios": "https://dc.lft.to/lastmile_qr_scan", "android": "https://dc.lft.to/lastmile_qr_scan"}, "is_reserved": 0}, {"lon": -77.04679616666667, "bike_id": "bf91fd60db0b4dcbc15e825a3fc4c699", "lat": 38.9071735, "fusion_lon": 0.0, "fusion_lat": 0.0, "type": "electric_scooter", "name": "bf91fd60db0b4dcbc15e825a3fc4c699", "is_disabled": 0, "rental_uris": {"ios": "https://dc.lft.to/lastmile_qr_scan", "android": "https://dc.lft.to/lastmile_qr_scan"}, "is_reserved": 0}, {"lon": -77.04232016666667, "bike_id": "c6509cfc63b0802f32246ee370cfdf3e", "lat": 38.913472666666664, "fusion_lon": 0.0, "fusion_lat": 0.0, "type": "electric_scooter", "name": "c6509cfc63b0802f32246ee370cfdf3e", "is_disabled": 0, "rental_uris": {"ios": "https://dc.lft.to/lastmile_qr_scan", "android": "https://dc.lft.to/lastmile_qr_scan"}, "is_reserved": 0}, {"lon": -77.03581383333334, "bike_id": "e5e51a07f90f0cd08f2616ce4bdc00f8", "lat": 38.910430833333336, "fusion_lon": 0.0, "fusion_lat": 0.0, "type": "electric_scooter", "name": "e5e51a07f90f0cd08f2616ce4bdc00f8", "is_disabled": 0, "rental_uris": {"ios": "https://dc.lft.to/lastmile_qr_scan", "android": "https://dc.lft.to/lastmile_qr_scan"}, "is_reserved": 0}, {"lon": -77.0333075, "bike_id": "f9985e7a0cb4eb9eb63e9f93d5e4f177", "lat": 38.9471475, "fusion_lon": 0.0, "fusion_lat": 0.0, "type": "electric_scooter", "name": "f9985e7a0cb4eb9eb63e9f93d5e4f177", "is_disabled": 0, "rental_uris": {"ios": "https://dc.lft.to/lastmile_qr_scan", "android": "https://dc.lft.to/lastmile_qr_scan"}, "is_reserved": 0}, {"lon": -77.05437433333333, "bike_id": "7e616e4730f1994eacae6bc575a0f9e4", "lat": 38.928488, "fusion_lon": 0.0, "fusion_lat": 0.0, "type": "electric_bike", "name": "7e616e4730f1994eacae6bc575a0f9e4", "is_disabled": 0, "rental_uris": {"ios": "https://dc.lft.to/lastmile_qr_scan", "android": "https://dc.lft.to/lastmile_qr_scan"}, "is_reserved": 0}, {"lon": -76.97429466666667, "bike_id": "fef1930b623d5e50c7c7fedf6b42e623", "lat": 38.90398116666667, "fusion_lon": 0.0, "fusion_lat": 0.0, "type": "electric_scooter", "name": "fef1930b623d5e50c7c7fedf6b42e623", "is_disabled": 0, "rental_uris": {"ios": "https://dc.lft.to/lastmile_qr_scan", "android": "https://dc.lft.to/lastmile_qr_scan"}, "is_reserved": 0}, {"lon": -77.04183083333334, "bike_id": "659b058ecb5995279da11e69f9575d01", "lat": 38.905469333333336, "fusion_lon": 0.0, "fusion_lat": 0.0, "type": "electric_scooter", "name": "659b058ecb5995279da11e69f9575d01", "is_disabled": 0, "rental_uris": {"ios": "https://dc.lft.to/lastmile_qr_scan", "android": "https://dc.lft.to/lastmile_qr_scan"}, "is_reserved": 0}, {"lon": -77.00006883333333, "bike_id": "7cae7cb28e3db28bec7b770a63a05529", "lat": 38.89739816666667, "fusion_lon": 0.0, "fusion_lat": 0.0, "type": "electric_scooter", "name": "7cae7cb28e3db28bec7b770a63a05529", "is_disabled": 0, "rental_uris": {"ios": "https://dc.lft.to/lastmile_qr_scan", "android": "https://dc.lft.to/lastmile_qr_scan"}, "is_reserved": 0}, {"lon": -77.0333955, "bike_id": "3a72b273ab117c72f48046225e6da123", "lat": 38.9070755, "fusion_lon": 0.0, "fusion_lat": 0.0, "type": "electric_scooter", "name": "3a72b273ab117c72f48046225e6da123", "is_disabled": 0, "rental_uris": {"ios": "https://dc.lft.to/lastmile_qr_scan", "android": "https://dc.lft.to/lastmile_qr_scan"}, "is_reserved": 0}, {"lon": -77.03986383333333, "bike_id": "b1d71ada2fd350eac175ba7268a5f276", "lat": 38.93395983333333, "fusion_lon": 0.0, "fusion_lat": 0.0, "type": "electric_bike", "name": "b1d71ada2fd350eac175ba7268a5f276", "is_disabled": 0, "rental_uris": {"ios": "https://dc.lft.to/lastmile_qr_scan", "android": "https://dc.lft.to/lastmile_qr_scan"}, "is_reserved": 0}, {"lon": -77.02514416666666, "bike_id": "9293988061acb18ca5847fb538495218", "lat": 38.9207485, "fusion_lon": 0.0, "fusion_lat": 0.0, "type": "electric_scooter", "name": "9293988061acb18ca5847fb538495218", "is_disabled": 0, "rental_uris": {"ios": "https://dc.lft.to/lastmile_qr_scan", "android": "https://dc.lft.to/lastmile_qr_scan"}, "is_reserved": 0}, {"lon": -77.03219833333333, "bike_id": "4402612518e4613d227d159fc68c02a6", "lat": 38.89218416666667, "fusion_lon": 0.0, "fusion_lat": 0.0, "type": "electric_scooter", "name": "4402612518e4613d227d159fc68c02a6", "is_disabled": 0, "rental_uris": {"ios": "https://dc.lft.to/lastmile_qr_scan", "android": "https://dc.lft.to/lastmile_qr_scan"}, "is_reserved": 0}, {"lon": -77.01529216666667, "bike_id": "fb9ecbe4cee1a4428c51d921d7d69124", "lat": 38.88495233333333, "fusion_lon": 0.0, "fusion_lat": 0.0, "type": "electric_scooter", "name": "fb9ecbe4cee1a4428c51d921d7d69124", "is_disabled": 0, "rental_uris": {"ios": "https://dc.lft.to/lastmile_qr_scan", "android": "https://dc.lft.to/lastmile_qr_scan"}, "is_reserved": 0}, {"lon": -77.03177383333333, "bike_id": "868c8a4b61ecf7dd8986ee9466624a3c", "lat": 38.9028475, "fusion_lon": 0.0, "fusion_lat": 0.0, "type": "electric_scooter", "name": "868c8a4b61ecf7dd8986ee9466624a3c", "is_disabled": 0, "rental_uris": {"ios": "https://dc.lft.to/lastmile_qr_scan", "android": "https://dc.lft.to/lastmile_qr_scan"}, "is_reserved": 0}, {"lon": -77.03511733333333, "bike_id": "2925d3175edc295bf12ae0f748e8ad01", "lat": 38.92147816666667, "fusion_lon": 0.0, "fusion_lat": 0.0, "type": "electric_scooter", "name": "2925d3175edc295bf12ae0f748e8ad01", "is_disabled": 0, "rental_uris": {"ios": "https://dc.lft.to/lastmile_qr_scan", "android": "https://dc.lft.to/lastmile_qr_scan"}, "is_reserved": 0}, {"lon": -77.06486066666666, "bike_id": "c8f61c3176a09ba967be4ae57429fe08", "lat": 38.909696, "fusion_lon": 0.0, "fusion_lat": 0.0, "type": "electric_scooter", "name": "c8f61c3176a09ba967be4ae57429fe08", "is_disabled": 0, "rental_uris": {"ios": "https://dc.lft.to/lastmile_qr_scan", "android": "https://dc.lft.to/lastmile_qr_scan"}, "is_reserved": 0}, {"lon": -77.045923, "bike_id": "898b7b20735c509dbf78aa2ae4b6ebea", "lat": 38.913556666666665, "fusion_lon": 0.0, "fusion_lat": 0.0, "type": "electric_scooter", "name": "898b7b20735c509dbf78aa2ae4b6ebea", "is_disabled": 0, "rental_uris": {"ios": "https://dc.lft.to/lastmile_qr_scan", "android": "https://dc.lft.to/lastmile_qr_scan"}, "is_reserved": 0}, {"lon": -77.00565666666667, "bike_id": "e86dfe6d9140e5d5a881a5d1dcf44eff", "lat": 38.905610833333334, "fusion_lon": 0.0, "fusion_lat": 0.0, "type": "electric_scooter", "name": "e86dfe6d9140e5d5a881a5d1dcf44eff", "is_disabled": 0, "rental_uris": {"ios": "https://dc.lft.to/lastmile_qr_scan", "android": "https://dc.lft.to/lastmile_qr_scan"}, "is_reserved": 0}, {"lon": -77.02180783333333, "bike_id": "ddeab2b29e48366e5f77d9ca93339ee9", "lat": 38.89352216666666, "fusion_lon": 0.0, "fusion_lat": 0.0, "type": "electric_scooter", "name": "ddeab2b29e48366e5f77d9ca93339ee9", "is_disabled": 0, "rental_uris": {"ios": "https://dc.lft.to/lastmile_qr_scan", "android": "https://dc.lft.to/lastmile_qr_scan"}, "is_reserved": 0}, {"lon": -77.1080905, "bike_id": "20a7a773f63e6c175a89d5a01790df89", "lat": 38.812056, "fusion_lon": 0.0, "fusion_lat": 0.0, "type": "electric_bike", "name": "20a7a773f63e6c175a89d5a01790df89", "is_disabled": 0, "rental_uris": {"ios": "https://dc.lft.to/lastmile_qr_scan", "android": "https://dc.lft.to/lastmile_qr_scan"}, "is_reserved": 0}, {"lon": -77.01620866666667, "bike_id": "80241dd377ff05c07d53340458357ec6", "lat": 38.906875166666666, "fusion_lon": 0.0, "fusion_lat": 0.0, "type": "electric_scooter", "name": "80241dd377ff05c07d53340458357ec6", "is_disabled": 0, "rental_uris": {"ios": "https://dc.lft.to/lastmile_qr_scan", "android": "https://dc.lft.to/lastmile_qr_scan"}, "is_reserved": 0}, {"lon": -77.02268383333333, "bike_id": "2420aaec01c42a8328d2c9069e3ff8ac", "lat": 38.912704833333336, "fusion_lon": 0.0, "fusion_lat": 0.0, "type": "electric_scooter", "name": "2420aaec01c42a8328d2c9069e3ff8ac", "is_disabled": 0, "rental_uris": {"ios": "https://dc.lft.to/lastmile_qr_scan", "android": "https://dc.lft.to/lastmile_qr_scan"}, "is_reserved": 0}, {"lon": -77.02656733333333, "bike_id": "4afe14de631f49a32355c9dc89acf408", "lat": 38.925839833333335, "fusion_lon": 0.0, "fusion_lat": 0.0, "type": "electric_scooter", "name": "4afe14de631f49a32355c9dc89acf408", "is_disabled": 0, "rental_uris": {"ios": "https://dc.lft.to/lastmile_qr_scan", "android": "https://dc.lft.to/lastmile_qr_scan"}, "is_reserved": 0}, {"lon": -77.03661966666667, "bike_id": "075e1d5e5acc0ad4ba8dc010a3829203", "lat": 38.91246866666667, "fusion_lon": 0.0, "fusion_lat": 0.0, "type": "electric_scooter", "name": "075e1d5e5acc0ad4ba8dc010a3829203", "is_disabled": 0, "rental_uris": {"ios": "https://dc.lft.to/lastmile_qr_scan", "android": "https://dc.lft.to/lastmile_qr_scan"}, "is_reserved": 0}, {"lon": -77.03202383333333, "bike_id": "1157fe88df9313eee5c7c1dad7b41a10", "lat": 38.907871166666666, "fusion_lon": 0.0, "fusion_lat": 0.0, "type": "electric_scooter", "name": "1157fe88df9313eee5c7c1dad7b41a10", "is_disabled": 0, "rental_uris": {"ios": "https://dc.lft.to/lastmile_qr_scan", "android": "https://dc.lft.to/lastmile_qr_scan"}, "is_reserved": 0}, {"lon": -77.11590216666667, "bike_id": "58eaa24811dd889b4d0c12ee76a67e81", "lat": 39.07494, "fusion_lon": 0.0, "fusion_lat": 0.0, "type": "electric_bike", "name": "58eaa24811dd889b4d0c12ee76a67e81", "is_disabled": 0, "rental_uris": {"ios": "https://dc.lft.to/lastmile_qr_scan", "android": "https://dc.lft.to/lastmile_qr_scan"}, "is_reserved": 0}, {"lon": -76.99070783333333, "bike_id": "11d3ce474a1058da3d2fdc71aa95b319", "lat": 38.927415833333335, "fusion_lon": 0.0, "fusion_lat": 0.0, "type": "electric_scooter", "name": "11d3ce474a1058da3d2fdc71aa95b319", "is_disabled": 0, "rental_uris": {"ios": "https://dc.lft.to/lastmile_qr_scan", "android": "https://dc.lft.to/lastmile_qr_scan"}, "is_reserved": 0}, {"lon": -76.999286, "bike_id": "b5e11d330e2f1a4e89b1802d2b348e39", "lat": 38.843142666666665, "fusion_lon": 0.0, "fusion_lat": 0.0, "type": "electric_scooter", "name": "b5e11d330e2f1a4e89b1802d2b348e39", "is_disabled": 0, "rental_uris": {"ios": "https://dc.lft.to/lastmile_qr_scan", "android": "https://dc.lft.to/lastmile_qr_scan"}, "is_reserved": 0}, {"lon": -77.03645983333334, "bike_id": "55ccaf17981f64b1f998966a2bf0d53d", "lat": 38.9027785, "fusion_lon": 0.0, "fusion_lat": 0.0, "type": "electric_scooter", "name": "55ccaf17981f64b1f998966a2bf0d53d", "is_disabled": 0, "rental_uris": {"ios": "https://dc.lft.to/lastmile_qr_scan", "android": "https://dc.lft.to/lastmile_qr_scan"}, "is_reserved": 0}, {"lon": -76.99053, "bike_id": "c5b0c35ea11f321862c88ea199a8b973", "lat": 38.86377233333333, "fusion_lon": 0.0, "fusion_lat": 0.0, "type": "electric_scooter", "name": "c5b0c35ea11f321862c88ea199a8b973", "is_disabled": 0, "rental_uris": {"ios": "https://dc.lft.to/lastmile_qr_scan", "android": "https://dc.lft.to/lastmile_qr_scan"}, "is_reserved": 0}, {"lon": -76.96914216666667, "bike_id": "17293bd12d2f2bbe7aefdddf926f8095", "lat": 38.84609183333333, "fusion_lon": 0.0, "fusion_lat": 0.0, "type": "electric_bike", "name": "17293bd12d2f2bbe7aefdddf926f8095", "is_disabled": 0, "rental_uris": {"ios": "https://dc.lft.to/lastmile_qr_scan", "android": "https://dc.lft.to/lastmile_qr_scan"}, "is_reserved": 0}, {"lon": -77.03265866666666, "bike_id": "dd2d39b027726bf3fffadf68e8645587", "lat": 38.932019, "fusion_lon": 0.0, "fusion_lat": 0.0, "type": "electric_scooter", "name": "dd2d39b027726bf3fffadf68e8645587", "is_disabled": 0, "rental_uris": {"ios": "https://dc.lft.to/lastmile_qr_scan", "android": "https://dc.lft.to/lastmile_qr_scan"}, "is_reserved": 0}, {"lon": -77.0426495, "bike_id": "0ce50776a72b799f8a45566e1c084795", "lat": 38.907505666666665, "fusion_lon": 0.0, "fusion_lat": 0.0, "type": "electric_scooter", "name": "0ce50776a72b799f8a45566e1c084795", "is_disabled": 0, "rental_uris": {"ios": "https://dc.lft.to/lastmile_qr_scan", "android": "https://dc.lft.to/lastmile_qr_scan"}, "is_reserved": 0}, {"lon": -77.04786133333333, "bike_id": "22b7e5642d8b5ecfabb2b326f089a354", "lat": 38.829404, "fusion_lon": 0.0, "fusion_lat": 0.0, "type": "electric_bike", "name": "22b7e5642d8b5ecfabb2b326f089a354", "is_disabled": 0, "rental_uris": {"ios": "https://dc.lft.to/lastmile_qr_scan", "android": "https://dc.lft.to/lastmile_qr_scan"}, "is_reserved": 0}, {"lon": -77.02371116666667, "bike_id": "f64f9c20f983585f359497323c46e500", "lat": 38.89220666666667, "fusion_lon": 0.0, "fusion_lat": 0.0, "type": "electric_scooter", "name": "f64f9c20f983585f359497323c46e500", "is_disabled": 0, "rental_uris": {"ios": "https://dc.lft.to/lastmile_qr_scan", "android": "https://dc.lft.to/lastmile_qr_scan"}, "is_reserved": 0}, {"lon": -76.9967885, "bike_id": "2160d9515b2079710de39489afc9e67d", "lat": 38.860204833333334, "fusion_lon": 0.0, "fusion_lat": 0.0, "type": "electric_scooter", "name": "2160d9515b2079710de39489afc9e67d", "is_disabled": 0, "rental_uris": {"ios": "https://dc.lft.to/lastmile_qr_scan", "android": "https://dc.lft.to/lastmile_qr_scan"}, "is_reserved": 0}, {"lon": -77.05046116666666, "bike_id": "a123aab9447e48b3e41a614faa7d169b", "lat": 38.9073295, "fusion_lon": 0.0, "fusion_lat": 0.0, "type": "electric_scooter", "name": "a123aab9447e48b3e41a614faa7d169b", "is_disabled": 0, "rental_uris": {"ios": "https://dc.lft.to/lastmile_qr_scan", "android": "https://dc.lft.to/lastmile_qr_scan"}, "is_reserved": 0}, {"lon": -76.99650966666667, "bike_id": "4e604b330162e83fcc36d53c65b6bcb7", "lat": 38.98821933333333, "fusion_lon": 0.0, "fusion_lat": 0.0, "type": "electric_bike", "name": "4e604b330162e83fcc36d53c65b6bcb7", "is_disabled": 0, "rental_uris": {"ios": "https://dc.lft.to/lastmile_qr_scan", "android": "https://dc.lft.to/lastmile_qr_scan"}, "is_reserved": 0}, {"lon": -77.0711435, "bike_id": "645bd3fe9fa83d16f42ec52d112a7e35", "lat": 38.91969266666667, "fusion_lon": 0.0, "fusion_lat": 0.0, "type": "electric_scooter", "name": "645bd3fe9fa83d16f42ec52d112a7e35", "is_disabled": 0, "rental_uris": {"ios": "https://dc.lft.to/lastmile_qr_scan", "android": "https://dc.lft.to/lastmile_qr_scan"}, "is_reserved": 0}, {"lon": -76.97522733333334, "bike_id": "7a85e42343bcc444b4f7fa204553677e", "lat": 38.96693033333333, "fusion_lon": 0.0, "fusion_lat": 0.0, "type": "electric_bike", "name": "7a85e42343bcc444b4f7fa204553677e", "is_disabled": 0, "rental_uris": {"ios": "https://dc.lft.to/lastmile_qr_scan", "android": "https://dc.lft.to/lastmile_qr_scan"}, "is_reserved": 0}, {"lon": -77.04889666666666, "bike_id": "9bd67e802a48709cb91af4ea98bd0591", "lat": 38.90402483333333, "fusion_lon": 0.0, "fusion_lat": 0.0, "type": "electric_scooter", "name": "9bd67e802a48709cb91af4ea98bd0591", "is_disabled": 0, "rental_uris": {"ios": "https://dc.lft.to/lastmile_qr_scan", "android": "https://dc.lft.to/lastmile_qr_scan"}, "is_reserved": 0}, {"lon": -77.02085933333333, "bike_id": "17b9bed8698553ba4469158a9013427c", "lat": 38.957479, "fusion_lon": 0.0, "fusion_lat": 0.0, "type": "electric_scooter", "name": "17b9bed8698553ba4469158a9013427c", "is_disabled": 0, "rental_uris": {"ios": "https://dc.lft.to/lastmile_qr_scan", "android": "https://dc.lft.to/lastmile_qr_scan"}, "is_reserved": 0}, {"lon": -77.04153933333333, "bike_id": "a6a0efd69b678bc0173d71de9fe99b07", "lat": 38.907419, "fusion_lon": 0.0, "fusion_lat": 0.0, "type": "electric_scooter", "name": "a6a0efd69b678bc0173d71de9fe99b07", "is_disabled": 0, "rental_uris": {"ios": "https://dc.lft.to/lastmile_qr_scan", "android": "https://dc.lft.to/lastmile_qr_scan"}, "is_reserved": 0}, {"lon": -77.053091, "bike_id": "1b0df4d25c9c66e579c3fb1f12d6d98a", "lat": 38.90071433333333, "fusion_lon": 0.0, "fusion_lat": 0.0, "type": "electric_scooter", "name": "1b0df4d25c9c66e579c3fb1f12d6d98a", "is_disabled": 0, "rental_uris": {"ios": "https://dc.lft.to/lastmile_qr_scan", "android": "https://dc.lft.to/lastmile_qr_scan"}, "is_reserved": 0}, {"lon": -77.02616116666667, "bike_id": "fcb582a18f10aee007ac1c7f28a43664", "lat": 38.905604, "fusion_lon": 0.0, "fusion_lat": 0.0, "type": "electric_scooter", "name": "fcb582a18f10aee007ac1c7f28a43664", "is_disabled": 0, "rental_uris": {"ios": "https://dc.lft.to/lastmile_qr_scan", "android": "https://dc.lft.to/lastmile_qr_scan"}, "is_reserved": 0}, {"lon": -77.034894, "bike_id": "26f2db9daed3e258b81f0d2770e2bbc8", "lat": 38.93274233333333, "fusion_lon": 0.0, "fusion_lat": 0.0, "type": "electric_scooter", "name": "26f2db9daed3e258b81f0d2770e2bbc8", "is_disabled": 0, "rental_uris": {"ios": "https://dc.lft.to/lastmile_qr_scan", "android": "https://dc.lft.to/lastmile_qr_scan"}, "is_reserved": 0}, {"lon": -77.03662683333333, "bike_id": "3d67ea20693db34c079578cac1d3a3e8", "lat": 38.91267766666667, "fusion_lon": 0.0, "fusion_lat": 0.0, "type": "electric_scooter", "name": "3d67ea20693db34c079578cac1d3a3e8", "is_disabled": 0, "rental_uris": {"ios": "https://dc.lft.to/lastmile_qr_scan", "android": "https://dc.lft.to/lastmile_qr_scan"}, "is_reserved": 0}, {"lon": -77.01624833333334, "bike_id": "bee54d2febbaca3e3d4d1f87a53e68bd", "lat": 38.908686, "fusion_lon": 0.0, "fusion_lat": 0.0, "type": "electric_scooter", "name": "bee54d2febbaca3e3d4d1f87a53e68bd", "is_disabled": 0, "rental_uris": {"ios": "https://dc.lft.to/lastmile_qr_scan", "android": "https://dc.lft.to/lastmile_qr_scan"}, "is_reserved": 0}, {"lon": -77.04863516666667, "bike_id": "3411daa1bb5036315a50271ebe8f2254", "lat": 38.909595, "fusion_lon": 0.0, "fusion_lat": 0.0, "type": "electric_scooter", "name": "3411daa1bb5036315a50271ebe8f2254", "is_disabled": 0, "rental_uris": {"ios": "https://dc.lft.to/lastmile_qr_scan", "android": "https://dc.lft.to/lastmile_qr_scan"}, "is_reserved": 0}, {"lon": -76.99862166666666, "bike_id": "78daed3da237c07bed2edcef855c0fcf", "lat": 38.900249, "fusion_lon": 0.0, "fusion_lat": 0.0, "type": "electric_scooter", "name": "78daed3da237c07bed2edcef855c0fcf", "is_disabled": 0, "rental_uris": {"ios": "https://dc.lft.to/lastmile_qr_scan", "android": "https://dc.lft.to/lastmile_qr_scan"}, "is_reserved": 0}, {"lon": -77.00203316666666, "bike_id": "c3f3e69dcc62019f025ffd225c238441", "lat": 38.9145835, "fusion_lon": 0.0, "fusion_lat": 0.0, "type": "electric_scooter", "name": "c3f3e69dcc62019f025ffd225c238441", "is_disabled": 0, "rental_uris": {"ios": "https://dc.lft.to/lastmile_qr_scan", "android": "https://dc.lft.to/lastmile_qr_scan"}, "is_reserved": 0}, {"lon": -77.02805483333333, "bike_id": "6f2b816b742529af5900cf8fa1067dba", "lat": 38.956442, "fusion_lon": 0.0, "fusion_lat": 0.0, "type": "electric_bike", "name": "6f2b816b742529af5900cf8fa1067dba", "is_disabled": 0, "rental_uris": {"ios": "https://dc.lft.to/lastmile_qr_scan", "android": "https://dc.lft.to/lastmile_qr_scan"}, "is_reserved": 0}, {"lon": -77.04487933333333, "bike_id": "14800067ac8e45449d0ea1a126aa382e", "lat": 38.91357216666667, "fusion_lon": 0.0, "fusion_lat": 0.0, "type": "electric_scooter", "name": "14800067ac8e45449d0ea1a126aa382e", "is_disabled": 0, "rental_uris": {"ios": "https://dc.lft.to/lastmile_qr_scan", "android": "https://dc.lft.to/lastmile_qr_scan"}, "is_reserved": 0}, {"lon": -76.94208183333333, "bike_id": "bcb7dbd57d48a47f8b0c22a12647840b", "lat": 38.893156166666664, "fusion_lon": 0.0, "fusion_lat": 0.0, "type": "electric_bike", "name": "bcb7dbd57d48a47f8b0c22a12647840b", "is_disabled": 0, "rental_uris": {"ios": "https://dc.lft.to/lastmile_qr_scan", "android": "https://dc.lft.to/lastmile_qr_scan"}, "is_reserved": 0}, {"lon": -76.99034716666667, "bike_id": "288913b3248b1b0e57f910e4c1e3408b", "lat": 38.89851516666667, "fusion_lon": 0.0, "fusion_lat": 0.0, "type": "electric_scooter", "name": "288913b3248b1b0e57f910e4c1e3408b", "is_disabled": 0, "rental_uris": {"ios": "https://dc.lft.to/lastmile_qr_scan", "android": "https://dc.lft.to/lastmile_qr_scan"}, "is_reserved": 0}, {"lon": -77.0378785, "bike_id": "c461d5f999a8a9ac45ceb40d93017d87", "lat": 38.9257305, "fusion_lon": 0.0, "fusion_lat": 0.0, "type": "electric_scooter", "name": "c461d5f999a8a9ac45ceb40d93017d87", "is_disabled": 0, "rental_uris": {"ios": "https://dc.lft.to/lastmile_qr_scan", "android": "https://dc.lft.to/lastmile_qr_scan"}, "is_reserved": 0}, {"lon": -76.97923133333333, "bike_id": "f427ee0fcf6ac538e3973d1118df4bdf", "lat": 38.90496683333333, "fusion_lon": 0.0, "fusion_lat": 0.0, "type": "electric_scooter", "name": "f427ee0fcf6ac538e3973d1118df4bdf", "is_disabled": 0, "rental_uris": {"ios": "https://dc.lft.to/lastmile_qr_scan", "android": "https://dc.lft.to/lastmile_qr_scan"}, "is_reserved": 0}, {"lon": -77.09871516666666, "bike_id": "d2e8f0124e18f712a62358a9ca1fbba1", "lat": 38.94964016666667, "fusion_lon": 0.0, "fusion_lat": 0.0, "type": "electric_scooter", "name": "d2e8f0124e18f712a62358a9ca1fbba1", "is_disabled": 0, "rental_uris": {"ios": "https://dc.lft.to/lastmile_qr_scan", "android": "https://dc.lft.to/lastmile_qr_scan"}, "is_reserved": 0}, {"lon": -76.9900315, "bike_id": "1b44910718e0282ac73fdd292458c8ce", "lat": 38.86508666666667, "fusion_lon": 0.0, "fusion_lat": 0.0, "type": "electric_scooter", "name": "1b44910718e0282ac73fdd292458c8ce", "is_disabled": 0, "rental_uris": {"ios": "https://dc.lft.to/lastmile_qr_scan", "android": "https://dc.lft.to/lastmile_qr_scan"}, "is_reserved": 0}, {"lon": -76.99373716666666, "bike_id": "f47eea454739aaf77507fd4d4236eade", "lat": 38.8797345, "fusion_lon": 0.0, "fusion_lat": 0.0, "type": "electric_scooter", "name": "f47eea454739aaf77507fd4d4236eade", "is_disabled": 0, "rental_uris": {"ios": "https://dc.lft.to/lastmile_qr_scan", "android": "https://dc.lft.to/lastmile_qr_scan"}, "is_reserved": 0}, {"lon": -77.02724366666666, "bike_id": "61d344063c8a5a4bae58c93d6bd33c58", "lat": 38.8972555, "fusion_lon": 0.0, "fusion_lat": 0.0, "type": "electric_scooter", "name": "61d344063c8a5a4bae58c93d6bd33c58", "is_disabled": 0, "rental_uris": {"ios": "https://dc.lft.to/lastmile_qr_scan", "android": "https://dc.lft.to/lastmile_qr_scan"}, "is_reserved": 0}, {"lon": -76.9945725, "bike_id": "2bcf6ff3a75323308a06270e3112bbbc", "lat": 38.966195166666665, "fusion_lon": 0.0, "fusion_lat": 0.0, "type": "electric_bike", "name": "2bcf6ff3a75323308a06270e3112bbbc", "is_disabled": 0, "rental_uris": {"ios": "https://dc.lft.to/lastmile_qr_scan", "android": "https://dc.lft.to/lastmile_qr_scan"}, "is_reserved": 0}, {"lon": -77.0374305, "bike_id": "022ee80b588a3fd1740fcf3b48ce8b8c", "lat": 38.91806316666667, "fusion_lon": 0.0, "fusion_lat": 0.0, "type": "electric_scooter", "name": "022ee80b588a3fd1740fcf3b48ce8b8c", "is_disabled": 0, "rental_uris": {"ios": "https://dc.lft.to/lastmile_qr_scan", "android": "https://dc.lft.to/lastmile_qr_scan"}, "is_reserved": 0}, {"lon": -77.01314683333334, "bike_id": "076edf1ce14e60af9d94cad8340e19d5", "lat": 38.871466166666664, "fusion_lon": 0.0, "fusion_lat": 0.0, "type": "electric_scooter", "name": "076edf1ce14e60af9d94cad8340e19d5", "is_disabled": 0, "rental_uris": {"ios": "https://dc.lft.to/lastmile_qr_scan", "android": "https://dc.lft.to/lastmile_qr_scan"}, "is_reserved": 0}, {"lon": -77.01130166666667, "bike_id": "ba543a9d1c4d4451314a400df88d6970", "lat": 38.9003145, "fusion_lon": 0.0, "fusion_lat": 0.0, "type": "electric_scooter", "name": "ba543a9d1c4d4451314a400df88d6970", "is_disabled": 0, "rental_uris": {"ios": "https://dc.lft.to/lastmile_qr_scan", "android": "https://dc.lft.to/lastmile_qr_scan"}, "is_reserved": 0}, {"lon": -77.038547, "bike_id": "b1944ef4706c5de66863f3e613219e66", "lat": 38.917996333333335, "fusion_lon": 0.0, "fusion_lat": 0.0, "type": "electric_scooter", "name": "b1944ef4706c5de66863f3e613219e66", "is_disabled": 0, "rental_uris": {"ios": "https://dc.lft.to/lastmile_qr_scan", "android": "https://dc.lft.to/lastmile_qr_scan"}, "is_reserved": 0}, {"lon": -77.02088966666666, "bike_id": "cf92f7417d29fd71e6eae7d5704fd620", "lat": 38.92917033333333, "fusion_lon": 0.0, "fusion_lat": 0.0, "type": "electric_scooter", "name": "cf92f7417d29fd71e6eae7d5704fd620", "is_disabled": 0, "rental_uris": {"ios": "https://dc.lft.to/lastmile_qr_scan", "android": "https://dc.lft.to/lastmile_qr_scan"}, "is_reserved": 0}, {"lon": -77.01021216666666, "bike_id": "fa03d5c12b39eb7c6ab8391467cc2a7b", "lat": 38.90855916666667, "fusion_lon": 0.0, "fusion_lat": 0.0, "type": "electric_scooter", "name": "fa03d5c12b39eb7c6ab8391467cc2a7b", "is_disabled": 0, "rental_uris": {"ios": "https://dc.lft.to/lastmile_qr_scan", "android": "https://dc.lft.to/lastmile_qr_scan"}, "is_reserved": 0}, {"lon": -77.00088016666666, "bike_id": "8f2d2b580f000c11ff6271ac2ce5dcc8", "lat": 38.9083065, "fusion_lon": 0.0, "fusion_lat": 0.0, "type": "electric_scooter", "name": "8f2d2b580f000c11ff6271ac2ce5dcc8", "is_disabled": 0, "rental_uris": {"ios": "https://dc.lft.to/lastmile_qr_scan", "android": "https://dc.lft.to/lastmile_qr_scan"}, "is_reserved": 0}, {"lon": -77.033306, "bike_id": "a62457063d417e379d36bd66d68cf2a2", "lat": 38.96049266666667, "fusion_lon": 0.0, "fusion_lat": 0.0, "type": "electric_scooter", "name": "a62457063d417e379d36bd66d68cf2a2", "is_disabled": 0, "rental_uris": {"ios": "https://dc.lft.to/lastmile_qr_scan", "android": "https://dc.lft.to/lastmile_qr_scan"}, "is_reserved": 0}, {"lon": -77.00741833333333, "bike_id": "515a0e080615c893ab3f7e1e8a716f50", "lat": 38.925294, "fusion_lon": 0.0, "fusion_lat": 0.0, "type": "electric_scooter", "name": "515a0e080615c893ab3f7e1e8a716f50", "is_disabled": 0, "rental_uris": {"ios": "https://dc.lft.to/lastmile_qr_scan", "android": "https://dc.lft.to/lastmile_qr_scan"}, "is_reserved": 0}, {"lon": -77.03693083333333, "bike_id": "c94a146194c726db27e004dc7d9163f6", "lat": 38.9125665, "fusion_lon": 0.0, "fusion_lat": 0.0, "type": "electric_scooter", "name": "c94a146194c726db27e004dc7d9163f6", "is_disabled": 0, "rental_uris": {"ios": "https://dc.lft.to/lastmile_qr_scan", "android": "https://dc.lft.to/lastmile_qr_scan"}, "is_reserved": 0}, {"lon": -77.02793866666667, "bike_id": "8059957004019d503946c0f03df7dea0", "lat": 38.9540245, "fusion_lon": 0.0, "fusion_lat": 0.0, "type": "electric_scooter", "name": "8059957004019d503946c0f03df7dea0", "is_disabled": 0, "rental_uris": {"ios": "https://dc.lft.to/lastmile_qr_scan", "android": "https://dc.lft.to/lastmile_qr_scan"}, "is_reserved": 0}, {"lon": -77.04605166666667, "bike_id": "9a0c49168c56f33ceef5edbe645ec665", "lat": 38.8838205, "fusion_lon": 0.0, "fusion_lat": 0.0, "type": "electric_scooter", "name": "9a0c49168c56f33ceef5edbe645ec665", "is_disabled": 0, "rental_uris": {"ios": "https://dc.lft.to/lastmile_qr_scan", "android": "https://dc.lft.to/lastmile_qr_scan"}, "is_reserved": 0}, {"lon": -76.96382383333334, "bike_id": "0fb69f47ced7942d9504bae3fc71697e", "lat": 38.951771666666666, "fusion_lon": 0.0, "fusion_lat": 0.0, "type": "electric_bike", "name": "0fb69f47ced7942d9504bae3fc71697e", "is_disabled": 0, "rental_uris": {"ios": "https://dc.lft.to/lastmile_qr_scan", "android": "https://dc.lft.to/lastmile_qr_scan"}, "is_reserved": 0}, {"lon": -77.022606, "bike_id": "92474171d3da3496c394a08a7e6e1107", "lat": 38.92821466666667, "fusion_lon": 0.0, "fusion_lat": 0.0, "type": "electric_scooter", "name": "92474171d3da3496c394a08a7e6e1107", "is_disabled": 0, "rental_uris": {"ios": "https://dc.lft.to/lastmile_qr_scan", "android": "https://dc.lft.to/lastmile_qr_scan"}, "is_reserved": 0}, {"lon": -77.02974966666666, "bike_id": "743bf7df03c03474f5e132a3eee1a3da", "lat": 38.91720016666667, "fusion_lon": 0.0, "fusion_lat": 0.0, "type": "electric_scooter", "name": "743bf7df03c03474f5e132a3eee1a3da", "is_disabled": 0, "rental_uris": {"ios": "https://dc.lft.to/lastmile_qr_scan", "android": "https://dc.lft.to/lastmile_qr_scan"}, "is_reserved": 0}, {"lon": -76.9912525, "bike_id": "086fc1462fd20d185a1d62e5da3b8533", "lat": 38.9226785, "fusion_lon": 0.0, "fusion_lat": 0.0, "type": "electric_scooter", "name": "086fc1462fd20d185a1d62e5da3b8533", "is_disabled": 0, "rental_uris": {"ios": "https://dc.lft.to/lastmile_qr_scan", "android": "https://dc.lft.to/lastmile_qr_scan"}, "is_reserved": 0}, {"lon": -77.22798316666666, "bike_id": "7da8c62f897b4e2cf6e048b8d7ff13b0", "lat": 38.91020566666667, "fusion_lon": 0.0, "fusion_lat": 0.0, "type": "electric_bike", "name": "7da8c62f897b4e2cf6e048b8d7ff13b0", "is_disabled": 0, "rental_uris": {"ios": "https://dc.lft.to/lastmile_qr_scan", "android": "https://dc.lft.to/lastmile_qr_scan"}, "is_reserved": 0}, {"lon": -77.0071565, "bike_id": "cf2605f8d6428c4e56c5d30b06f77415", "lat": 38.9053955, "fusion_lon": 0.0, "fusion_lat": 0.0, "type": "electric_scooter", "name": "cf2605f8d6428c4e56c5d30b06f77415", "is_disabled": 0, "rental_uris": {"ios": "https://dc.lft.to/lastmile_qr_scan", "android": "https://dc.lft.to/lastmile_qr_scan"}, "is_reserved": 0}, {"lon": -77.05738283333334, "bike_id": "75861dc68ef2fb817ff447878f22470e", "lat": 38.924333, "fusion_lon": 0.0, "fusion_lat": 0.0, "type": "electric_scooter", "name": "75861dc68ef2fb817ff447878f22470e", "is_disabled": 0, "rental_uris": {"ios": "https://dc.lft.to/lastmile_qr_scan", "android": "https://dc.lft.to/lastmile_qr_scan"}, "is_reserved": 0}, {"lon": -77.03128216666667, "bike_id": "2b086487e8a7e11ee211de1e9c4d728b", "lat": 38.9882705, "fusion_lon": 0.0, "fusion_lat": 0.0, "type": "electric_scooter", "name": "2b086487e8a7e11ee211de1e9c4d728b", "is_disabled": 0, "rental_uris": {"ios": "https://dc.lft.to/lastmile_qr_scan", "android": "https://dc.lft.to/lastmile_qr_scan"}, "is_reserved": 0}, {"lon": -77.02233616666666, "bike_id": "057ecb8b442585bc17af31d573f969d4", "lat": 38.908665666666664, "fusion_lon": 0.0, "fusion_lat": 0.0, "type": "electric_scooter", "name": "057ecb8b442585bc17af31d573f969d4", "is_disabled": 0, "rental_uris": {"ios": "https://dc.lft.to/lastmile_qr_scan", "android": "https://dc.lft.to/lastmile_qr_scan"}, "is_reserved": 0}, {"lon": -77.01981616666667, "bike_id": "29e39a8d2e7b5047c2cf632e375916e1", "lat": 38.9109635, "fusion_lon": 0.0, "fusion_lat": 0.0, "type": "electric_scooter", "name": "29e39a8d2e7b5047c2cf632e375916e1", "is_disabled": 0, "rental_uris": {"ios": "https://dc.lft.to/lastmile_qr_scan", "android": "https://dc.lft.to/lastmile_qr_scan"}, "is_reserved": 0}, {"lon": -76.9920295, "bike_id": "c588eb6ce30f65071f2d6b9680c04367", "lat": 38.898258166666665, "fusion_lon": 0.0, "fusion_lat": 0.0, "type": "electric_scooter", "name": "c588eb6ce30f65071f2d6b9680c04367", "is_disabled": 0, "rental_uris": {"ios": "https://dc.lft.to/lastmile_qr_scan", "android": "https://dc.lft.to/lastmile_qr_scan"}, "is_reserved": 0}, {"lon": -77.02242633333333, "bike_id": "fbec9d5ad1ffcfe5f8cce13c914ac9c3", "lat": 38.928974, "fusion_lon": 0.0, "fusion_lat": 0.0, "type": "electric_scooter", "name": "fbec9d5ad1ffcfe5f8cce13c914ac9c3", "is_disabled": 0, "rental_uris": {"ios": "https://dc.lft.to/lastmile_qr_scan", "android": "https://dc.lft.to/lastmile_qr_scan"}, "is_reserved": 0}, {"lon": -76.97616266666667, "bike_id": "bee4f3ed172aada59e2c8d08776020ff", "lat": 38.92655216666667, "fusion_lon": 0.0, "fusion_lat": 0.0, "type": "electric_scooter", "name": "bee4f3ed172aada59e2c8d08776020ff", "is_disabled": 0, "rental_uris": {"ios": "https://dc.lft.to/lastmile_qr_scan", "android": "https://dc.lft.to/lastmile_qr_scan"}, "is_reserved": 0}, {"lon": -77.02141, "bike_id": "cf6a1408a4db740356312d1ec3428f35", "lat": 38.894932833333336, "fusion_lon": 0.0, "fusion_lat": 0.0, "type": "electric_scooter", "name": "cf6a1408a4db740356312d1ec3428f35", "is_disabled": 0, "rental_uris": {"ios": "https://dc.lft.to/lastmile_qr_scan", "android": "https://dc.lft.to/lastmile_qr_scan"}, "is_reserved": 0}, {"lon": -77.02051783333333, "bike_id": "2be04fa7cb1e2e1e96463705a606deda", "lat": 38.9238835, "fusion_lon": 0.0, "fusion_lat": 0.0, "type": "electric_scooter", "name": "2be04fa7cb1e2e1e96463705a606deda", "is_disabled": 0, "rental_uris": {"ios": "https://dc.lft.to/lastmile_qr_scan", "android": "https://dc.lft.to/lastmile_qr_scan"}, "is_reserved": 0}, {"lon": -77.00969716666667, "bike_id": "f39c2964e5e918a5315a5b1c31d64f86", "lat": 38.907901, "fusion_lon": 0.0, "fusion_lat": 0.0, "type": "electric_scooter", "name": "f39c2964e5e918a5315a5b1c31d64f86", "is_disabled": 0, "rental_uris": {"ios": "https://dc.lft.to/lastmile_qr_scan", "android": "https://dc.lft.to/lastmile_qr_scan"}, "is_reserved": 0}, {"lon": -77.07302266666666, "bike_id": "836c511d8bc913da1bfe9c7b12051b9e", "lat": 38.9305565, "fusion_lon": 0.0, "fusion_lat": 0.0, "type": "electric_scooter", "name": "836c511d8bc913da1bfe9c7b12051b9e", "is_disabled": 0, "rental_uris": {"ios": "https://dc.lft.to/lastmile_qr_scan", "android": "https://dc.lft.to/lastmile_qr_scan"}, "is_reserved": 0}, {"lon": -77.00079483333333, "bike_id": "1a566321897dd81d9322c39cc1790e6f", "lat": 38.87395516666667, "fusion_lon": 0.0, "fusion_lat": 0.0, "type": "electric_scooter", "name": "1a566321897dd81d9322c39cc1790e6f", "is_disabled": 0, "rental_uris": {"ios": "https://dc.lft.to/lastmile_qr_scan", "android": "https://dc.lft.to/lastmile_qr_scan"}, "is_reserved": 0}, {"lon": -76.96528516666666, "bike_id": "c79ad32afbeaec415e6e3ea4ee434374", "lat": 38.87479416666667, "fusion_lon": 0.0, "fusion_lat": 0.0, "type": "electric_scooter", "name": "c79ad32afbeaec415e6e3ea4ee434374", "is_disabled": 0, "rental_uris": {"ios": "https://dc.lft.to/lastmile_qr_scan", "android": "https://dc.lft.to/lastmile_qr_scan"}, "is_reserved": 0}, {"lon": -77.021184, "bike_id": "9b01dde92c853d35873fdb952fc4cdad", "lat": 38.937015, "fusion_lon": 0.0, "fusion_lat": 0.0, "type": "electric_scooter", "name": "9b01dde92c853d35873fdb952fc4cdad", "is_disabled": 0, "rental_uris": {"ios": "https://dc.lft.to/lastmile_qr_scan", "android": "https://dc.lft.to/lastmile_qr_scan"}, "is_reserved": 0}, {"lon": -77.02561316666667, "bike_id": "da08ebcf07a6d6bd76600e4011c2718a", "lat": 38.9335415, "fusion_lon": 0.0, "fusion_lat": 0.0, "type": "electric_scooter", "name": "da08ebcf07a6d6bd76600e4011c2718a", "is_disabled": 0, "rental_uris": {"ios": "https://dc.lft.to/lastmile_qr_scan", "android": "https://dc.lft.to/lastmile_qr_scan"}, "is_reserved": 0}, {"lon": -77.0402905, "bike_id": "2c668ad10824189d77d7760ddbd3b8f0", "lat": 38.9238265, "fusion_lon": 0.0, "fusion_lat": 0.0, "type": "electric_scooter", "name": "2c668ad10824189d77d7760ddbd3b8f0", "is_disabled": 0, "rental_uris": {"ios": "https://dc.lft.to/lastmile_qr_scan", "android": "https://dc.lft.to/lastmile_qr_scan"}, "is_reserved": 0}, {"lon": -77.021723, "bike_id": "84000cf0abd4ce3ddd6cf27cb696dbaf", "lat": 38.94288683333333, "fusion_lon": 0.0, "fusion_lat": 0.0, "type": "electric_scooter", "name": "84000cf0abd4ce3ddd6cf27cb696dbaf", "is_disabled": 0, "rental_uris": {"ios": "https://dc.lft.to/lastmile_qr_scan", "android": "https://dc.lft.to/lastmile_qr_scan"}, "is_reserved": 0}, {"lon": -76.94632633333333, "bike_id": "205bbd32eb1cf08afd1c6f2da5998d85", "lat": 38.89832633333333, "fusion_lon": 0.0, "fusion_lat": 0.0, "type": "electric_scooter", "name": "205bbd32eb1cf08afd1c6f2da5998d85", "is_disabled": 0, "rental_uris": {"ios": "https://dc.lft.to/lastmile_qr_scan", "android": "https://dc.lft.to/lastmile_qr_scan"}, "is_reserved": 0}, {"lon": -76.94790616666667, "bike_id": "734ba8437eab152ca528ecc92f846254", "lat": 38.86184, "fusion_lon": 0.0, "fusion_lat": 0.0, "type": "electric_bike", "name": "734ba8437eab152ca528ecc92f846254", "is_disabled": 0, "rental_uris": {"ios": "https://dc.lft.to/lastmile_qr_scan", "android": "https://dc.lft.to/lastmile_qr_scan"}, "is_reserved": 0}, {"lon": -77.017699, "bike_id": "27ab6c60b1ce7e7e86b82c3dfc3bf4be", "lat": 38.887393833333334, "fusion_lon": 0.0, "fusion_lat": 0.0, "type": "electric_scooter", "name": "27ab6c60b1ce7e7e86b82c3dfc3bf4be", "is_disabled": 0, "rental_uris": {"ios": "https://dc.lft.to/lastmile_qr_scan", "android": "https://dc.lft.to/lastmile_qr_scan"}, "is_reserved": 0}, {"lon": -77.02234883333334, "bike_id": "e93e53b990ecbde7478d129de6865bbc", "lat": 38.95526733333333, "fusion_lon": 0.0, "fusion_lat": 0.0, "type": "electric_scooter", "name": "e93e53b990ecbde7478d129de6865bbc", "is_disabled": 0, "rental_uris": {"ios": "https://dc.lft.to/lastmile_qr_scan", "android": "https://dc.lft.to/lastmile_qr_scan"}, "is_reserved": 0}, {"lon": -76.94878033333333, "bike_id": "2e65e1aeeb13ab2fb7006d857982d801", "lat": 38.89424416666667, "fusion_lon": 0.0, "fusion_lat": 0.0, "type": "electric_scooter", "name": "2e65e1aeeb13ab2fb7006d857982d801", "is_disabled": 0, "rental_uris": {"ios": "https://dc.lft.to/lastmile_qr_scan", "android": "https://dc.lft.to/lastmile_qr_scan"}, "is_reserved": 0}, {"lon": -76.9962575, "bike_id": "13497b694ad9c7f1488337e092a48838", "lat": 38.88800716666667, "fusion_lon": 0.0, "fusion_lat": 0.0, "type": "electric_scooter", "name": "13497b694ad9c7f1488337e092a48838", "is_disabled": 0, "rental_uris": {"ios": "https://dc.lft.to/lastmile_qr_scan", "android": "https://dc.lft.to/lastmile_qr_scan"}, "is_reserved": 0}, {"lon": -77.01819966666666, "bike_id": "5de476886aa61ced56087c753da2e77a", "lat": 38.901232, "fusion_lon": 0.0, "fusion_lat": 0.0, "type": "electric_scooter", "name": "5de476886aa61ced56087c753da2e77a", "is_disabled": 0, "rental_uris": {"ios": "https://dc.lft.to/lastmile_qr_scan", "android": "https://dc.lft.to/lastmile_qr_scan"}, "is_reserved": 0}, {"lon": -76.9412215, "bike_id": "6fb4d2656d073b5e828c0e90d2d99d52", "lat": 38.90819316666666, "fusion_lon": 0.0, "fusion_lat": 0.0, "type": "electric_scooter", "name": "6fb4d2656d073b5e828c0e90d2d99d52", "is_disabled": 0, "rental_uris": {"ios": "https://dc.lft.to/lastmile_qr_scan", "android": "https://dc.lft.to/lastmile_qr_scan"}, "is_reserved": 0}, {"lon": -76.9905575, "bike_id": "46aafaed3353c39ff54b383c7fdcf89b", "lat": 38.86379066666667, "fusion_lon": 0.0, "fusion_lat": 0.0, "type": "electric_scooter", "name": "46aafaed3353c39ff54b383c7fdcf89b", "is_disabled": 0, "rental_uris": {"ios": "https://dc.lft.to/lastmile_qr_scan", "android": "https://dc.lft.to/lastmile_qr_scan"}, "is_reserved": 0}, {"lon": -77.052914, "bike_id": "1306dc23547381a18171543a4a5b9f95", "lat": 38.903378833333335, "fusion_lon": 0.0, "fusion_lat": 0.0, "type": "electric_scooter", "name": "1306dc23547381a18171543a4a5b9f95", "is_disabled": 0, "rental_uris": {"ios": "https://dc.lft.to/lastmile_qr_scan", "android": "https://dc.lft.to/lastmile_qr_scan"}, "is_reserved": 0}, {"lon": -77.044851, "bike_id": "6c0c8be2523c62e980e4d73eab49f531", "lat": 38.919268, "fusion_lon": 0.0, "fusion_lat": 0.0, "type": "electric_scooter", "name": "6c0c8be2523c62e980e4d73eab49f531", "is_disabled": 0, "rental_uris": {"ios": "https://dc.lft.to/lastmile_qr_scan", "android": "https://dc.lft.to/lastmile_qr_scan"}, "is_reserved": 0}, {"lon": -77.033783, "bike_id": "cd0ceaab22445fe9353cb9c11f1971d0", "lat": 38.93871583333333, "fusion_lon": 0.0, "fusion_lat": 0.0, "type": "electric_scooter", "name": "cd0ceaab22445fe9353cb9c11f1971d0", "is_disabled": 0, "rental_uris": {"ios": "https://dc.lft.to/lastmile_qr_scan", "android": "https://dc.lft.to/lastmile_qr_scan"}, "is_reserved": 0}, {"lon": -77.00067, "bike_id": "02881ae197f91fd87163b5c699fd1e52", "lat": 38.900788, "fusion_lon": 0.0, "fusion_lat": 0.0, "type": "electric_scooter", "name": "02881ae197f91fd87163b5c699fd1e52", "is_disabled": 0, "rental_uris": {"ios": "https://dc.lft.to/lastmile_qr_scan", "android": "https://dc.lft.to/lastmile_qr_scan"}, "is_reserved": 0}, {"lon": -77.03865166666667, "bike_id": "e4702bcc5e31c535de32dcfe48c112c5", "lat": 38.9125215, "fusion_lon": 0.0, "fusion_lat": 0.0, "type": "electric_scooter", "name": "e4702bcc5e31c535de32dcfe48c112c5", "is_disabled": 0, "rental_uris": {"ios": "https://dc.lft.to/lastmile_qr_scan", "android": "https://dc.lft.to/lastmile_qr_scan"}, "is_reserved": 0}, {"lon": -76.99370116666667, "bike_id": "abd39a388a5481b870d639b8f3de757b", "lat": 38.89370366666667, "fusion_lon": 0.0, "fusion_lat": 0.0, "type": "electric_scooter", "name": "abd39a388a5481b870d639b8f3de757b", "is_disabled": 0, "rental_uris": {"ios": "https://dc.lft.to/lastmile_qr_scan", "android": "https://dc.lft.to/lastmile_qr_scan"}, "is_reserved": 0}, {"lon": -77.0258145, "bike_id": "0010b61ce98107d1330f0dc96e14d38f", "lat": 38.887372166666665, "fusion_lon": 0.0, "fusion_lat": 0.0, "type": "electric_scooter", "name": "0010b61ce98107d1330f0dc96e14d38f", "is_disabled": 0, "rental_uris": {"ios": "https://dc.lft.to/lastmile_qr_scan", "android": "https://dc.lft.to/lastmile_qr_scan"}, "is_reserved": 0}, {"lon": -77.00680983333334, "bike_id": "270d6f5f763c7896e104b863f796c19c", "lat": 38.834921, "fusion_lon": 0.0, "fusion_lat": 0.0, "type": "electric_scooter", "name": "270d6f5f763c7896e104b863f796c19c", "is_disabled": 0, "rental_uris": {"ios": "https://dc.lft.to/lastmile_qr_scan", "android": "https://dc.lft.to/lastmile_qr_scan"}, "is_reserved": 0}, {"lon": -77.03511916666666, "bike_id": "016fc6051412fa90e0f283603b60300f", "lat": 38.96504516666667, "fusion_lon": 0.0, "fusion_lat": 0.0, "type": "electric_bike", "name": "016fc6051412fa90e0f283603b60300f", "is_disabled": 0, "rental_uris": {"ios": "https://dc.lft.to/lastmile_qr_scan", "android": "https://dc.lft.to/lastmile_qr_scan"}, "is_reserved": 0}, {"lon": -76.988382, "bike_id": "7d38042af736dda1536435ddbe3d8714", "lat": 38.8966615, "fusion_lon": 0.0, "fusion_lat": 0.0, "type": "electric_scooter", "name": "7d38042af736dda1536435ddbe3d8714", "is_disabled": 0, "rental_uris": {"ios": "https://dc.lft.to/lastmile_qr_scan", "android": "https://dc.lft.to/lastmile_qr_scan"}, "is_reserved": 0}, {"lon": -77.024722, "bike_id": "ca0f4d34e1b40570ea0188571d0c32df", "lat": 38.9034205, "fusion_lon": 0.0, "fusion_lat": 0.0, "type": "electric_scooter", "name": "ca0f4d34e1b40570ea0188571d0c32df", "is_disabled": 0, "rental_uris": {"ios": "https://dc.lft.to/lastmile_qr_scan", "android": "https://dc.lft.to/lastmile_qr_scan"}, "is_reserved": 0}, {"lon": -77.0221075, "bike_id": "2c8c6ad50718d800442d4d3344a1d546", "lat": 38.893537, "fusion_lon": 0.0, "fusion_lat": 0.0, "type": "electric_scooter", "name": "2c8c6ad50718d800442d4d3344a1d546", "is_disabled": 0, "rental_uris": {"ios": "https://dc.lft.to/lastmile_qr_scan", "android": "https://dc.lft.to/lastmile_qr_scan"}, "is_reserved": 0}, {"lon": -76.977205, "bike_id": "1eb464d27dbae4a474303f3b62ab5b8b", "lat": 38.872459166666665, "fusion_lon": 0.0, "fusion_lat": 0.0, "type": "electric_scooter", "name": "1eb464d27dbae4a474303f3b62ab5b8b", "is_disabled": 0, "rental_uris": {"ios": "https://dc.lft.to/lastmile_qr_scan", "android": "https://dc.lft.to/lastmile_qr_scan"}, "is_reserved": 0}, {"lon": -77.05418, "bike_id": "d2136006ab842b88923a11111b363f93", "lat": 38.92833816666667, "fusion_lon": 0.0, "fusion_lat": 0.0, "type": "electric_scooter", "name": "d2136006ab842b88923a11111b363f93", "is_disabled": 0, "rental_uris": {"ios": "https://dc.lft.to/lastmile_qr_scan", "android": "https://dc.lft.to/lastmile_qr_scan"}, "is_reserved": 0}, {"lon": -77.04859466666667, "bike_id": "5588bbf8c99e711bf562502b0bf0d2e0", "lat": 38.9095685, "fusion_lon": 0.0, "fusion_lat": 0.0, "type": "electric_scooter", "name": "5588bbf8c99e711bf562502b0bf0d2e0", "is_disabled": 0, "rental_uris": {"ios": "https://dc.lft.to/lastmile_qr_scan", "android": "https://dc.lft.to/lastmile_qr_scan"}, "is_reserved": 0}, {"lon": -76.9210975, "bike_id": "4cf588c6042b89a695b33d22b0b673fe", "lat": 38.8910785, "fusion_lon": 0.0, "fusion_lat": 0.0, "type": "electric_scooter", "name": "4cf588c6042b89a695b33d22b0b673fe", "is_disabled": 0, "rental_uris": {"ios": "https://dc.lft.to/lastmile_qr_scan", "android": "https://dc.lft.to/lastmile_qr_scan"}, "is_reserved": 0}, {"lon": -77.074789, "bike_id": "3114f5eb78780a846ce682cdc05e6c24", "lat": 38.96312983333333, "fusion_lon": 0.0, "fusion_lat": 0.0, "type": "electric_scooter", "name": "3114f5eb78780a846ce682cdc05e6c24", "is_disabled": 0, "rental_uris": {"ios": "https://dc.lft.to/lastmile_qr_scan", "android": "https://dc.lft.to/lastmile_qr_scan"}, "is_reserved": 0}, {"lon": -77.13935133333334, "bike_id": "40956dc42c2d4b3746b24c498fd692e1", "lat": 38.872926666666665, "fusion_lon": 0.0, "fusion_lat": 0.0, "type": "electric_bike", "name": "40956dc42c2d4b3746b24c498fd692e1", "is_disabled": 0, "rental_uris": {"ios": "https://dc.lft.to/lastmile_qr_scan", "android": "https://dc.lft.to/lastmile_qr_scan"}, "is_reserved": 0}, {"lon": -77.0561655, "bike_id": "fd38d2f3ef648b52c560b0dc14bb8d39", "lat": 38.92328666666667, "fusion_lon": 0.0, "fusion_lat": 0.0, "type": "electric_scooter", "name": "fd38d2f3ef648b52c560b0dc14bb8d39", "is_disabled": 0, "rental_uris": {"ios": "https://dc.lft.to/lastmile_qr_scan", "android": "https://dc.lft.to/lastmile_qr_scan"}, "is_reserved": 0}, {"lon": -77.0097635, "bike_id": "b99cbd6e30eb4a38ac881375797866ec", "lat": 38.870708, "fusion_lon": 0.0, "fusion_lat": 0.0, "type": "electric_scooter", "name": "b99cbd6e30eb4a38ac881375797866ec", "is_disabled": 0, "rental_uris": {"ios": "https://dc.lft.to/lastmile_qr_scan", "android": "https://dc.lft.to/lastmile_qr_scan"}, "is_reserved": 0}, {"lon": -76.97207066666667, "bike_id": "ac8e8f8f4b9686f465f966efccfdf9a3", "lat": 38.89289733333333, "fusion_lon": 0.0, "fusion_lat": 0.0, "type": "electric_bike", "name": "ac8e8f8f4b9686f465f966efccfdf9a3", "is_disabled": 0, "rental_uris": {"ios": "https://dc.lft.to/lastmile_qr_scan", "android": "https://dc.lft.to/lastmile_qr_scan"}, "is_reserved": 0}, {"lon": -76.9375555, "bike_id": "cc2bd8366ae4595fb7d260330cad9b2c", "lat": 38.89041066666667, "fusion_lon": 0.0, "fusion_lat": 0.0, "type": "electric_scooter", "name": "cc2bd8366ae4595fb7d260330cad9b2c", "is_disabled": 0, "rental_uris": {"ios": "https://dc.lft.to/lastmile_qr_scan", "android": "https://dc.lft.to/lastmile_qr_scan"}, "is_reserved": 0}, {"lon": -77.029844, "bike_id": "681662e3754aca6c22b1eab0ae4842cf", "lat": 38.90723783333333, "fusion_lon": 0.0, "fusion_lat": 0.0, "type": "electric_scooter", "name": "681662e3754aca6c22b1eab0ae4842cf", "is_disabled": 0, "rental_uris": {"ios": "https://dc.lft.to/lastmile_qr_scan", "android": "https://dc.lft.to/lastmile_qr_scan"}, "is_reserved": 0}, {"lon": -76.93736533333333, "bike_id": "ca9036c1c94116203cb67b364a184e95", "lat": 38.89012116666667, "fusion_lon": 0.0, "fusion_lat": 0.0, "type": "electric_scooter", "name": "ca9036c1c94116203cb67b364a184e95", "is_disabled": 0, "rental_uris": {"ios": "https://dc.lft.to/lastmile_qr_scan", "android": "https://dc.lft.to/lastmile_qr_scan"}, "is_reserved": 0}, {"lon": -77.00498216666666, "bike_id": "47c48ec884a5c5d5b08441ef6d5f3fc8", "lat": 38.905652833333335, "fusion_lon": 0.0, "fusion_lat": 0.0, "type": "electric_scooter", "name": "47c48ec884a5c5d5b08441ef6d5f3fc8", "is_disabled": 0, "rental_uris": {"ios": "https://dc.lft.to/lastmile_qr_scan", "android": "https://dc.lft.to/lastmile_qr_scan"}, "is_reserved": 0}, {"lon": -77.044987, "bike_id": "f244ee3f4601a93203dae3dcce36061b", "lat": 38.91389816666667, "fusion_lon": 0.0, "fusion_lat": 0.0, "type": "electric_scooter", "name": "f244ee3f4601a93203dae3dcce36061b", "is_disabled": 0, "rental_uris": {"ios": "https://dc.lft.to/lastmile_qr_scan", "android": "https://dc.lft.to/lastmile_qr_scan"}, "is_reserved": 0}, {"lon": -77.01651133333333, "bike_id": "f1bab0e5cc570ce50b964143247be7da", "lat": 38.928987666666664, "fusion_lon": 0.0, "fusion_lat": 0.0, "type": "electric_scooter", "name": "f1bab0e5cc570ce50b964143247be7da", "is_disabled": 0, "rental_uris": {"ios": "https://dc.lft.to/lastmile_qr_scan", "android": "https://dc.lft.to/lastmile_qr_scan"}, "is_reserved": 0}, {"lon": -77.0733415, "bike_id": "0cc3135aa2aef872f7328ee07c3c36fc", "lat": 38.9355665, "fusion_lon": 0.0, "fusion_lat": 0.0, "type": "electric_scooter", "name": "0cc3135aa2aef872f7328ee07c3c36fc", "is_disabled": 0, "rental_uris": {"ios": "https://dc.lft.to/lastmile_qr_scan", "android": "https://dc.lft.to/lastmile_qr_scan"}, "is_reserved": 0}, {"lon": -77.027958, "bike_id": "9dd3d89ae1f9fdfa0ca0fefb57fdc2fd", "lat": 38.9302, "fusion_lon": 0.0, "fusion_lat": 0.0, "type": "electric_scooter", "name": "9dd3d89ae1f9fdfa0ca0fefb57fdc2fd", "is_disabled": 0, "rental_uris": {"ios": "https://dc.lft.to/lastmile_qr_scan", "android": "https://dc.lft.to/lastmile_qr_scan"}, "is_reserved": 0}, {"lon": -77.07762166666667, "bike_id": "c98a6a912b540cbd53a35c7b0705c526", "lat": 38.925624, "fusion_lon": 0.0, "fusion_lat": 0.0, "type": "electric_scooter", "name": "c98a6a912b540cbd53a35c7b0705c526", "is_disabled": 0, "rental_uris": {"ios": "https://dc.lft.to/lastmile_qr_scan", "android": "https://dc.lft.to/lastmile_qr_scan"}, "is_reserved": 0}, {"lon": -77.02503333333334, "bike_id": "50945189c886f0bdc4edf982772d59d1", "lat": 38.930949166666664, "fusion_lon": 0.0, "fusion_lat": 0.0, "type": "electric_scooter", "name": "50945189c886f0bdc4edf982772d59d1", "is_disabled": 0, "rental_uris": {"ios": "https://dc.lft.to/lastmile_qr_scan", "android": "https://dc.lft.to/lastmile_qr_scan"}, "is_reserved": 0}, {"lon": -77.03679416666667, "bike_id": "eb4640769183579e332f6871ba24af0f", "lat": 38.920969166666666, "fusion_lon": 0.0, "fusion_lat": 0.0, "type": "electric_scooter", "name": "eb4640769183579e332f6871ba24af0f", "is_disabled": 0, "rental_uris": {"ios": "https://dc.lft.to/lastmile_qr_scan", "android": "https://dc.lft.to/lastmile_qr_scan"}, "is_reserved": 0}, {"lon": -77.04730233333333, "bike_id": "6a807daabd2e9b2fab744715d87df9a2", "lat": 38.90726933333333, "fusion_lon": 0.0, "fusion_lat": 0.0, "type": "electric_scooter", "name": "6a807daabd2e9b2fab744715d87df9a2", "is_disabled": 0, "rental_uris": {"ios": "https://dc.lft.to/lastmile_qr_scan", "android": "https://dc.lft.to/lastmile_qr_scan"}, "is_reserved": 0}, {"lon": -76.94116283333334, "bike_id": "2f4d372c18b21cd29e0b22f341ce738a", "lat": 38.88652616666667, "fusion_lon": 0.0, "fusion_lat": 0.0, "type": "electric_scooter", "name": "2f4d372c18b21cd29e0b22f341ce738a", "is_disabled": 0, "rental_uris": {"ios": "https://dc.lft.to/lastmile_qr_scan", "android": "https://dc.lft.to/lastmile_qr_scan"}, "is_reserved": 0}, {"lon": -76.94633083333333, "bike_id": "cc77571151126e810b7829144128de10", "lat": 38.8983325, "fusion_lon": 0.0, "fusion_lat": 0.0, "type": "electric_scooter", "name": "cc77571151126e810b7829144128de10", "is_disabled": 0, "rental_uris": {"ios": "https://dc.lft.to/lastmile_qr_scan", "android": "https://dc.lft.to/lastmile_qr_scan"}, "is_reserved": 0}, {"lon": -77.027967, "bike_id": "3357555c2056a619769f1994593ba5e0", "lat": 38.93081133333333, "fusion_lon": 0.0, "fusion_lat": 0.0, "type": "electric_scooter", "name": "3357555c2056a619769f1994593ba5e0", "is_disabled": 0, "rental_uris": {"ios": "https://dc.lft.to/lastmile_qr_scan", "android": "https://dc.lft.to/lastmile_qr_scan"}, "is_reserved": 0}, {"lon": -77.0485445, "bike_id": "174b7b89bf0d061a5f8cc0068f216f8d", "lat": 38.90426433333333, "fusion_lon": 0.0, "fusion_lat": 0.0, "type": "electric_scooter", "name": "174b7b89bf0d061a5f8cc0068f216f8d", "is_disabled": 0, "rental_uris": {"ios": "https://dc.lft.to/lastmile_qr_scan", "android": "https://dc.lft.to/lastmile_qr_scan"}, "is_reserved": 0},