{"data": {"bikes": [{"rental_uris": {"ios": "https://dc.lft.to/lastmile_qr_scan", "android": "https://dc.lft.to/lastmile_qr_scan"}, "type": "electric_scooter", "name": "7a01c4ccc6fd09fb14333293e74f4b7f", "is_reserved": 0, "lon": -77.0745295, "is_disabled": 0, "fusion_lat": 0.0, "lat": 38.937811833333335, "bike_id": "7a01c4ccc6fd09fb14333293e74f4b7f", "fusion_lon": 0.0}, {"rental_uris": {"ios": "https://dc.lft.to/lastmile_qr_scan", "android": "https://dc.lft.to/lastmile_qr_scan"}, "type": "electric_scooter", "name": "094146e505fb7f5fb82ca4409b2cdc89", "is_reserved": 0, "lon": -77.02907683333333, "is_disabled": 0, "fusion_lat": 0.0, "lat": 38.952994833333335, "bike_id": "094146e505fb7f5fb82ca4409b2cdc89", "fusion_lon": 0.0}, {"rental_uris": {"ios": "https://dc.lft.to/lastmile_qr_scan", "android": "https://dc.lft.to/lastmile_qr_scan"}, "type": "electric_scooter", "name": "b643dd5c9e5a0c304038795a1a500f24", "is_reserved": 0, "lon": -77.02108533333333, "is_disabled": 0, "fusion_lat": 0.0, "lat": 38.914183666666666, "bike_id": "b643dd5c9e5a0c304038795a1a500f24", "fusion_lon": 0.0}, {"rental_uris": {"ios": "https://dc.lft.to/lastmile_qr_scan", "android": "https://dc.lft.to/lastmile_qr_scan"}, "type": "electric_scooter", "name": "8dd7266a673c70b9f846797d3fb6092a", "is_reserved": 0, "lon": -77.03354366666667, "is_disabled": 0, "fusion_lat": 0.0, "lat": 38.9172425, "bike_id": "8dd7266a673c70b9f846797d3fb6092a", "fusion_lon": 0.0}, {"rental_uris": {"ios": "https://dc.lft.to/lastmile_qr_scan", "android": "https://dc.lft.to/lastmile_qr_scan"}, "type": "electric_scooter", "name": "d050c418559b2894c0822201c80a57f6", "is_reserved": 0, "lon": -76.997081, "is_disabled": 0, "fusion_lat": 0.0, "lat": 38.887626166666664, "bike_id": "d050c418559b2894c0822201c80a57f6", "fusion_lon": 0.0}, {"rental_uris": {"ios": "https://dc.lft.to/lastmile_qr_scan", "android": "https://dc.lft.to/lastmile_qr_scan"}, "type": "electric_scooter", "name": "6b9d0a63e9ca54b1e6cdcece640a8faa", "is_reserved": 0, "lon": -77.01967466666666, "is_disabled": 0, "fusion_lat": 0.0, "lat": 38.8995755, "bike_id": "6b9d0a63e9ca54b1e6cdcece640a8faa", "fusion_lon": 0.0}, {"rental_uris": {"ios": "https://dc.lft.to/lastmile_qr_scan", "android": "https://dc.lft.to/lastmile_qr_scan"}, "type": "electric_scooter", "name": "471b990c74bfcbdb94234ad52e9a4e13", "is_reserved": 0, "lon": -77.03634033333333, "is_disabled": 0, "fusion_lat": 0.0, "lat": 38.903844, "bike_id": "471b990c74bfcbdb94234ad52e9a4e13", "fusion_lon": 0.0}, {"rental_uris": {"ios": "https://dc.lft.to/lastmile_qr_scan", "android": "https://dc.lft.to/lastmile_qr_scan"}, "type": "electric_bike", "name": "a264fe8f15f81f2db5d6d9c90ad5baec", "is_reserved": 0, "lon": -77.00493533333334, "is_disabled": 0, "fusion_lat": 0.0, "lat": 38.87924783333333, "bike_id": "a264fe8f15f81f2db5d6d9c90ad5baec", "fusion_lon": 0.0}, {"rental_uris": {"ios": "https://dc.lft.to/lastmile_qr_scan", "android": "https://dc.lft.to/lastmile_qr_scan"}, "type": "electric_scooter", "name": "f5be156312804fda65466fc5bdbce356", "is_reserved": 0, "lon": -77.03448866666666, "is_disabled": 0, "fusion_lat": 0.0, "lat": 38.908328833333336, "bike_id": "f5be156312804fda65466fc5bdbce356", "fusion_lon": 0.0}, {"rental_uris": {"ios": "https://dc.lft.to/lastmile_qr_scan", "android": "https://dc.lft.to/lastmile_qr_scan"}, "type": "electric_scooter", "name": "aa5fc84948010ab67d482d0e00a64d36", "is_reserved": 0, "lon": -77.02605433333333, "is_disabled": 0, "fusion_lat": 0.0, "lat": 38.9080605, "bike_id": "aa5fc84948010ab67d482d0e00a64d36", "fusion_lon": 0.0}, {"rental_uris": {"ios": "https://dc.lft.to/lastmile_qr_scan", "android": "https://dc.lft.to/lastmile_qr_scan"}, "type": "electric_scooter", "name": "3c172279ba0958a56a708bdab2d9f0ff", "is_reserved": 0, "lon": -76.99857983333334, "is_disabled": 0, "fusion_lat": 0.0, "lat": 38.900231, "bike_id": "3c172279ba0958a56a708bdab2d9f0ff", "fusion_lon": 0.0}, {"rental_uris": {"ios": "https://dc.lft.to/lastmile_qr_scan", "android": "https://dc.lft.to/lastmile_qr_scan"}, "type": "electric_scooter", "name": "070b5cf98516212cec5d8779740abf55", "is_reserved": 0, "lon": -77.03264466666667, "is_disabled": 0, "fusion_lat": 0.0, "lat": 38.910485, "bike_id": "070b5cf98516212cec5d8779740abf55", "fusion_lon": 0.0}, {"rental_uris": {"ios": "https://dc.lft.to/lastmile_qr_scan", "android": "https://dc.lft.to/lastmile_qr_scan"}, "type": "electric_scooter", "name": "f450e25550ea985786bec2463caa5dfc", "is_reserved": 0, "lon": -77.057883, "is_disabled": 0, "fusion_lat": 0.0, "lat": 38.901034, "bike_id": "f450e25550ea985786bec2463caa5dfc", "fusion_lon": 0.0}, {"rental_uris": {"ios": "https://dc.lft.to/lastmile_qr_scan", "android": "https://dc.lft.to/lastmile_qr_scan"}, "type": "electric_scooter", "name": "0d47b203b71a6ed73336471188c7f6c2", "is_reserved": 0, "lon": -77.04190816666667, "is_disabled": 0, "fusion_lat": 0.0, "lat": 38.90376116666667, "bike_id": "0d47b203b71a6ed73336471188c7f6c2", "fusion_lon": 0.0}, {"rental_uris": {"ios": "https://dc.lft.to/lastmile_qr_scan", "android": "https://dc.lft.to/lastmile_qr_scan"}, "type": "electric_scooter", "name": "060535a880c3e601b561f3c53a57c815", "is_reserved": 0, "lon": -77.014746, "is_disabled": 0, "fusion_lat": 0.0, "lat": 38.926655833333335, "bike_id": "060535a880c3e601b561f3c53a57c815", "fusion_lon": 0.0}, {"rental_uris": {"ios": "https://dc.lft.to/lastmile_qr_scan", "android": "https://dc.lft.to/lastmile_qr_scan"}, "type": "electric_scooter", "name": "5cf31c31ec3144e7934c87ee3d20235b", "is_reserved": 0, "lon": -77.0033445, "is_disabled": 0, "fusion_lat": 0.0, "lat": 38.913373666666665, "bike_id": "5cf31c31ec3144e7934c87ee3d20235b", "fusion_lon": 0.0}, {"rental_uris": {"ios": "https://dc.lft.to/lastmile_qr_scan", "android": "https://dc.lft.to/lastmile_qr_scan"}, "type": "electric_scooter", "name": "2a80d126522726d28f86e0a780b80e7c", "is_reserved": 0, "lon": -77.03866716666667, "is_disabled": 0, "fusion_lat": 0.0, "lat": 38.911111, "bike_id": "2a80d126522726d28f86e0a780b80e7c", "fusion_lon": 0.0}, {"rental_uris": {"ios": "https://dc.lft.to/lastmile_qr_scan", "android": "https://dc.lft.to/lastmile_qr_scan"}, "type": "electric_scooter", "name": "e46b07f2370d16b486ab55e24cf83d2a", "is_reserved": 0, "lon": -77.04486416666667, "is_disabled": 0, "fusion_lat": 0.0, "lat": 38.9191595, "bike_id": "e46b07f2370d16b486ab55e24cf83d2a", "fusion_lon": 0.0}, {"rental_uris": {"ios": "https://dc.lft.to/lastmile_qr_scan", "android": "https://dc.lft.to/lastmile_qr_scan"}, "type": "electric_scooter", "name": "8baefae3724288fbdcbaf578ef03febf", "is_reserved": 0, "lon": -77.038472, "is_disabled": 0, "fusion_lat": 0.0, "lat": 38.90989066666667, "bike_id": "8baefae3724288fbdcbaf578ef03febf", "fusion_lon": 0.0}, {"rental_uris": {"ios": "https://dc.lft.to/lastmile_qr_scan", "android": "https://dc.lft.to/lastmile_qr_scan"}, "type": "electric_scooter", "name": "5841c812a9ccdd301e3e0689e0c70f3f", "is_reserved": 0, "lon": -77.03457116666667, "is_disabled": 0, "fusion_lat": 0.0, "lat": 38.90566666666667, "bike_id": "5841c812a9ccdd301e3e0689e0c70f3f", "fusion_lon": 0.0}, {"rental_uris": {"ios": "https://dc.lft.to/lastmile_qr_scan", "android": "https://dc.lft.to/lastmile_qr_scan"}, "type": "electric_scooter", "name": "330985a0eedc9dd44f981c6e97f99d95", "is_reserved": 0, "lon": -77.0020905, "is_disabled": 0, "fusion_lat": 0.0, "lat": 38.89816016666666, "bike_id": "330985a0eedc9dd44f981c6e97f99d95", "fusion_lon": 0.0}, {"rental_uris": {"ios": "https://dc.lft.to/lastmile_qr_scan", "android": "https://dc.lft.to/lastmile_qr_scan"}, "type": "electric_scooter", "name": "5dd70a1a6a33208bff5d5f5894c79d5c", "is_reserved": 0, "lon": -77.03174466666667, "is_disabled": 0, "fusion_lat": 0.0, "lat": 38.90602283333333, "bike_id": "5dd70a1a6a33208bff5d5f5894c79d5c", "fusion_lon": 0.0}, {"rental_uris": {"ios": "https://dc.lft.to/lastmile_qr_scan", "android": "https://dc.lft.to/lastmile_qr_scan"}, "type": "electric_bike", "name": "bf34d00c0abf47721c69ee7f40a1a741", "is_reserved": 0, "lon": -77.22190483333333, "is_disabled": 0, "fusion_lat": 0.0, "lat": 38.87176633333333, "bike_id": "bf34d00c0abf47721c69ee7f40a1a741", "fusion_lon": 0.0}, {"rental_uris": {"ios": "https://dc.lft.to/lastmile_qr_scan", "android": "https://dc.lft.to/lastmile_qr_scan"}, "type": "electric_scooter", "name": "a8b0a80dabaf4c4861441eef11f1462d", "is_reserved": 0, "lon": -77.0004145, "is_disabled": 0, "fusion_lat": 0.0, "lat": 38.907586333333334, "bike_id": "a8b0a80dabaf4c4861441eef11f1462d", "fusion_lon": 0.0}, {"rental_uris": {"ios": "https://dc.lft.to/lastmile_qr_scan", "android": "https://dc.lft.to/lastmile_qr_scan"}, "type": "electric_scooter", "name": "a9a0bf75cefc99488c39685486321fce", "is_reserved": 0, "lon": -77.0006495, "is_disabled": 0, "fusion_lat": 0.0, "lat": 38.88117, "bike_id": "a9a0bf75cefc99488c39685486321fce", "fusion_lon": 0.0}, {"rental_uris": {"ios": "https://dc.lft.to/lastmile_qr_scan", "android": "https://dc.lft.to/lastmile_qr_scan"}, "type": "electric_scooter", "name": "c18dd84d8315bccb00ac2d4275377712", "is_reserved": 0, "lon": -77.04602083333333, "is_disabled": 0, "fusion_lat": 0.0, "lat": 38.92330883333333, "bike_id": "c18dd84d8315bccb00ac2d4275377712", "fusion_lon": 0.0}, {"rental_uris": {"ios": "https://dc.lft.to/lastmile_qr_scan", "android": "https://dc.lft.to/lastmile_qr_scan"}, "type": "electric_scooter", "name": "3f48af88846d25812b3dcdaf388a59c6", "is_reserved": 0, "lon": -77.0326875, "is_disabled": 0, "fusion_lat": 0.0, "lat": 38.904648, "bike_id": "3f48af88846d25812b3dcdaf388a59c6", "fusion_lon": 0.0}, {"rental_uris": {"ios": "https://dc.lft.to/lastmile_qr_scan", "android": "https://dc.lft.to/lastmile_qr_scan"}, "type": "electric_bike", "name": "1a87e9500bab199ccec44c57557d4d49", "is_reserved": 0, "lon": -76.99914366666667, "is_disabled": 0, "fusion_lat": 0.0, "lat": 38.994740166666666, "bike_id": "1a87e9500bab199ccec44c57557d4d49", "fusion_lon": 0.0}, {"rental_uris": {"ios": "https://dc.lft.to/lastmile_qr_scan", "android": "https://dc.lft.to/lastmile_qr_scan"}, "type": "electric_scooter", "name": "fc420f1ddb0ca8f02c3026a2f586bd01", "is_reserved": 0, "lon": -77.06839266666667, "is_disabled": 0, "fusion_lat": 0.0, "lat": 38.952708333333334, "bike_id": "fc420f1ddb0ca8f02c3026a2f586bd01", "fusion_lon": 0.0}, {"rental_uris": {"ios": "https://dc.lft.to/lastmile_qr_scan", "android": "https://dc.lft.to/lastmile_qr_scan"}, "type": "electric_scooter", "name": "4b801a640e5066eca865bc5dc5ceb721", "is_reserved": 0, "lon": -77.04753433333333, "is_disabled": 0, "fusion_lat": 0.0, "lat": 38.896002333333335, "bike_id": "4b801a640e5066eca865bc5dc5ceb721", "fusion_lon": 0.0}, {"rental_uris": {"ios": "https://dc.lft.to/lastmile_qr_scan", "android": "https://dc.lft.to/lastmile_qr_scan"}, "type": "electric_bike", "name": "0cba0cea4d0110a567f796dbc7f5fd2f", "is_reserved": 0, "lon": -77.04080033333334, "is_disabled": 0, "fusion_lat": 0.0, "lat": 38.895426666666665, "bike_id": "0cba0cea4d0110a567f796dbc7f5fd2f", "fusion_lon": 0.0}, {"rental_uris": {"ios": "https://dc.lft.to/lastmile_qr_scan", "android": "https://dc.lft.to/lastmile_qr_scan"}, "type": "electric_scooter", "name": "e2e57231a5086b67c859d771a14fdf59", "is_reserved": 0, "lon": -77.036584, "is_disabled": 0, "fusion_lat": 0.0, "lat": 38.92105016666667, "bike_id": "e2e57231a5086b67c859d771a14fdf59", "fusion_lon": 0.0}, {"rental_uris": {"ios": "https://dc.lft.to/lastmile_qr_scan", "android": "https://dc.lft.to/lastmile_qr_scan"}, "type": "electric_scooter", "name": "c1e473817ab6c700e58dbf1de8dc59c2", "is_reserved": 0, "lon": -77.06608016666667, "is_disabled": 0, "fusion_lat": 0.0, "lat": 38.91109816666667, "bike_id": "c1e473817ab6c700e58dbf1de8dc59c2", "fusion_lon": 0.0}, {"rental_uris": {"ios": "https://dc.lft.to/lastmile_qr_scan", "android": "https://dc.lft.to/lastmile_qr_scan"}, "type": "electric_scooter", "name": "5803e4a21e9b791642f45b66d4c884ec", "is_reserved": 0, "lon": -77.023808, "is_disabled": 0, "fusion_lat": 0.0, "lat": 38.89848083333333, "bike_id": "5803e4a21e9b791642f45b66d4c884ec", "fusion_lon": 0.0}, {"rental_uris": {"ios": "https://dc.lft.to/lastmile_qr_scan", "android": "https://dc.lft.to/lastmile_qr_scan"}, "type": "electric_scooter", "name": "1ae8cf3cc59f177701f29ae8b434d800", "is_reserved": 0, "lon": -76.98278116666667, "is_disabled": 0, "fusion_lat": 0.0, "lat": 38.90357816666667, "bike_id": "1ae8cf3cc59f177701f29ae8b434d800", "fusion_lon": 0.0}, {"rental_uris": {"ios": "https://dc.lft.to/lastmile_qr_scan", "android": "https://dc.lft.to/lastmile_qr_scan"}, "type": "electric_scooter", "name": "0b85f253c0490c253a662ed2fbb6123b", "is_reserved": 0, "lon": -77.038536, "is_disabled": 0, "fusion_lat": 0.0, "lat": 38.911940666666666, "bike_id": "0b85f253c0490c253a662ed2fbb6123b", "fusion_lon": 0.0}, {"rental_uris": {"ios": "https://dc.lft.to/lastmile_qr_scan", "android": "https://dc.lft.to/lastmile_qr_scan"}, "type": "electric_scooter", "name": "83c39c091c293044453aced17f28296b", "is_reserved": 0, "lon": -77.00725916666667, "is_disabled": 0, "fusion_lat": 0.0, "lat": 38.911866333333336, "bike_id": "83c39c091c293044453aced17f28296b", "fusion_lon": 0.0}, {"rental_uris": {"ios": "https://dc.lft.to/lastmile_qr_scan", "android": "https://dc.lft.to/lastmile_qr_scan"}, "type": "electric_scooter", "name": "9f810615a20d06f128d65648dcd5f294", "is_reserved": 0, "lon": -77.03055333333333, "is_disabled": 0, "fusion_lat": 0.0, "lat": 38.897708333333334, "bike_id": "9f810615a20d06f128d65648dcd5f294", "fusion_lon": 0.0}, {"rental_uris": {"ios": "https://dc.lft.to/lastmile_qr_scan", "android": "https://dc.lft.to/lastmile_qr_scan"}, "type": "electric_scooter", "name": "478f9fe125f94dd0b21e623876d92d95", "is_reserved": 0, "lon": -77.07390966666667, "is_disabled": 0, "fusion_lat": 0.0, "lat": 38.93764483333333, "bike_id": "478f9fe125f94dd0b21e623876d92d95", "fusion_lon": 0.0}, {"rental_uris": {"ios": "https://dc.lft.to/lastmile_qr_scan", "android": "https://dc.lft.to/lastmile_qr_scan"}, "type": "electric_scooter", "name": "0cec8961a244358c31cc33e65476cd33", "is_reserved": 0, "lon": -77.021814, "is_disabled": 0, "fusion_lat": 0.0, "lat": 38.90967233333333, "bike_id": "0cec8961a244358c31cc33e65476cd33", "fusion_lon": 0.0}, {"rental_uris": {"ios": "https://dc.lft.to/lastmile_qr_scan", "android": "https://dc.lft.to/lastmile_qr_scan"}, "type": "electric_scooter", "name": "580c83199f0442dda416f0c0a8d1d9c3", "is_reserved": 0, "lon": -77.03244033333333, "is_disabled": 0, "fusion_lat": 0.0, "lat": 38.9288545, "bike_id": "580c83199f0442dda416f0c0a8d1d9c3", "fusion_lon": 0.0}, {"rental_uris": {"ios": "https://dc.lft.to/lastmile_qr_scan", "android": "https://dc.lft.to/lastmile_qr_scan"}, "type": "electric_scooter", "name": "49fac6a3f26df5625e05d2d646acd2fc", "is_reserved": 0, "lon": -77.02941733333333, "is_disabled": 0, "fusion_lat": 0.0, "lat": 38.89743633333333, "bike_id": "49fac6a3f26df5625e05d2d646acd2fc", "fusion_lon": 0.0}, {"rental_uris": {"ios": "https://dc.lft.to/lastmile_qr_scan", "android": "https://dc.lft.to/lastmile_qr_scan"}, "type": "electric_scooter", "name": "115a5036a224bae326f3dab23ea41d19", "is_reserved": 0, "lon": -77.04445866666667, "is_disabled": 0, "fusion_lat": 0.0, "lat": 38.912639, "bike_id": "115a5036a224bae326f3dab23ea41d19", "fusion_lon": 0.0}, {"rental_uris": {"ios": "https://dc.lft.to/lastmile_qr_scan", "android": "https://dc.lft.to/lastmile_qr_scan"}, "type": "electric_scooter", "name": "59b510312c5cafe43c0a720b4b1b0e91", "is_reserved": 0, "lon": -77.02943466666666, "is_disabled": 0, "fusion_lat": 0.0, "lat": 38.902563666666666, "bike_id": "59b510312c5cafe43c0a720b4b1b0e91", "fusion_lon": 0.0}, {"rental_uris": {"ios": "https://dc.lft.to/lastmile_qr_scan", "android": "https://dc.lft.to/lastmile_qr_scan"}, "type": "electric_scooter", "name": "b289c7c9cb6e14616e9ed1cbb5ae03b6", "is_reserved": 0, "lon": -76.99130616666666, "is_disabled": 0, "fusion_lat": 0.0, "lat": 38.90909466666667, "bike_id": "b289c7c9cb6e14616e9ed1cbb5ae03b6", "fusion_lon": 0.0}, {"rental_uris": {"ios": "https://dc.lft.to/lastmile_qr_scan", "android": "https://dc.lft.to/lastmile_qr_scan"}, "type": "electric_scooter", "name": "f775d6e2f3392f35bffb4418290c8e37", "is_reserved": 0, "lon": -77.00583816666666, "is_disabled": 0, "fusion_lat": 0.0, "lat": 38.90918116666667, "bike_id": "f775d6e2f3392f35bffb4418290c8e37", "fusion_lon": 0.0}, {"rental_uris": {"ios": "https://dc.lft.to/lastmile_qr_scan", "android": "https://dc.lft.to/lastmile_qr_scan"}, "type": "electric_scooter", "name": "678197ee2a28c86c09fec049b4c6755c", "is_reserved": 0, "lon": -77.02734666666667, "is_disabled": 0, "fusion_lat": 0.0, "lat": 38.93464133333333, "bike_id": "678197ee2a28c86c09fec049b4c6755c", "fusion_lon": 0.0}, {"rental_uris": {"ios": "https://dc.lft.to/lastmile_qr_scan", "android": "https://dc.lft.to/lastmile_qr_scan"}, "type": "electric_scooter", "name": "945aa7deda6b6c903fe290a6507de6bd", "is_reserved": 0, "lon": -77.03203733333334, "is_disabled": 0, "fusion_lat": 0.0, "lat": 38.8984625, "bike_id": "945aa7deda6b6c903fe290a6507de6bd", "fusion_lon": 0.0}, {"rental_uris": {"ios": "https://dc.lft.to/lastmile_qr_scan", "android": "https://dc.lft.to/lastmile_qr_scan"}, "type": "electric_scooter", "name": "d9dd155968e37172e5f13b5e213b6e0f", "is_reserved": 0, "lon": -77.03958616666667, "is_disabled": 0, "fusion_lat": 0.0, "lat": 38.89313833333333, "bike_id": "d9dd155968e37172e5f13b5e213b6e0f", "fusion_lon": 0.0}, {"rental_uris": {"ios": "https://dc.lft.to/lastmile_qr_scan", "android": "https://dc.lft.to/lastmile_qr_scan"}, "type": "electric_scooter", "name": "e09a1aaf4d5e55dfdbb972488cba2a52", "is_reserved": 0, "lon": -77.0238865, "is_disabled": 0, "fusion_lat": 0.0, "lat": 38.920824833333334, "bike_id": "e09a1aaf4d5e55dfdbb972488cba2a52", "fusion_lon": 0.0}, {"rental_uris": {"ios": "https://dc.lft.to/lastmile_qr_scan", "android": "https://dc.lft.to/lastmile_qr_scan"}, "type": "electric_scooter", "name": "7fd08f7e6f9bc3ee92995c64af39f8c3", "is_reserved": 0, "lon": -77.01980433333334, "is_disabled": 0, "fusion_lat": 0.0, "lat": 38.876114, "bike_id": "7fd08f7e6f9bc3ee92995c64af39f8c3", "fusion_lon": 0.0}, {"rental_uris": {"ios": "https://dc.lft.to/lastmile_qr_scan", "android": "https://dc.lft.to/lastmile_qr_scan"}, "type": "electric_bike", "name": "14325f90ef3ecb50313c0a39ccde61a9", "is_reserved": 0, "lon": -77.12840033333333, "is_disabled": 0, "fusion_lat": 0.0, "lat": 38.8005485, "bike_id": "14325f90ef3ecb50313c0a39ccde61a9", "fusion_lon": 0.0}, {"rental_uris": {"ios": "https://dc.lft.to/lastmile_qr_scan", "android": "https://dc.lft.to/lastmile_qr_scan"}, "type": "electric_scooter", "name": "b2a08c68fcf114ba130a1053ca0d5b76", "is_reserved": 0, "lon": -77.0037855, "is_disabled": 0, "fusion_lat": 0.0, "lat": 38.87681933333333, "bike_id": "b2a08c68fcf114ba130a1053ca0d5b76", "fusion_lon": 0.0}, {"rental_uris": {"ios": "https://dc.lft.to/lastmile_qr_scan", "android": "https://dc.lft.to/lastmile_qr_scan"}, "type": "electric_scooter", "name": "c16c1b383bdd0dd9213adeca05e4b126", "is_reserved": 0, "lon": -77.00014566666667, "is_disabled": 0, "fusion_lat": 0.0, "lat": 38.9069505, "bike_id": "c16c1b383bdd0dd9213adeca05e4b126", "fusion_lon": 0.0}, {"rental_uris": {"ios": "https://dc.lft.to/lastmile_qr_scan", "android": "https://dc.lft.to/lastmile_qr_scan"}, "type": "electric_scooter", "name": "338950c3b2185cf7831cf515968c88c9", "is_reserved": 0, "lon": -76.98261266666667, "is_disabled": 0, "fusion_lat": 0.0, "lat": 38.8663725, "bike_id": "338950c3b2185cf7831cf515968c88c9", "fusion_lon": 0.0}, {"rental_uris": {"ios": "https://dc.lft.to/lastmile_qr_scan", "android": "https://dc.lft.to/lastmile_qr_scan"}, "type": "electric_scooter", "name": "06c5b7654dbf70144dc5333b64a4103d", "is_reserved": 0, "lon": -77.02667816666667, "is_disabled": 0, "fusion_lat": 0.0, "lat": 38.92219683333333, "bike_id": "06c5b7654dbf70144dc5333b64a4103d", "fusion_lon": 0.0}, {"rental_uris": {"ios": "https://dc.lft.to/lastmile_qr_scan", "android": "https://dc.lft.to/lastmile_qr_scan"}, "type": "electric_scooter", "name": "180b8e5ad673e9e0beee8e8bf7b47375", "is_reserved": 0, "lon": -77.06554166666666, "is_disabled": 0, "fusion_lat": 0.0, "lat": 38.911718, "bike_id": "180b8e5ad673e9e0beee8e8bf7b47375", "fusion_lon": 0.0}, {"rental_uris": {"ios": "https://dc.lft.to/lastmile_qr_scan", "android": "https://dc.lft.to/lastmile_qr_scan"}, "type": "electric_scooter", "name": "b159eff7366fa6e04f3b86c90643bc04", "is_reserved": 0, "lon": -77.04719716666666, "is_disabled": 0, "fusion_lat": 0.0, "lat": 38.917911333333336, "bike_id": "b159eff7366fa6e04f3b86c90643bc04", "fusion_lon": 0.0}, {"rental_uris": {"ios": "https://dc.lft.to/lastmile_qr_scan", "android": "https://dc.lft.to/lastmile_qr_scan"}, "type": "electric_scooter", "name": "3df6f603347e2f33485db0b00c1ca38a", "is_reserved": 0, "lon": -77.0214385, "is_disabled": 0, "fusion_lat": 0.0, "lat": 38.89747416666667, "bike_id": "3df6f603347e2f33485db0b00c1ca38a", "fusion_lon": 0.0}, {"rental_uris": {"ios": "https://dc.lft.to/lastmile_qr_scan", "android": "https://dc.lft.to/lastmile_qr_scan"}, "type": "electric_scooter", "name": "2b3fd507f80e9881baeaddfe2c31e8b7", "is_reserved": 0, "lon": -77.02129266666667, "is_disabled": 0, "fusion_lat": 0.0, "lat": 38.92697783333333, "bike_id": "2b3fd507f80e9881baeaddfe2c31e8b7", "fusion_lon": 0.0}, {"rental_uris": {"ios": "https://dc.lft.to/lastmile_qr_scan", "android": "https://dc.lft.to/lastmile_qr_scan"}, "type": "electric_scooter", "name": "69dd5a819d8114ef9789099be28f5c74", "is_reserved": 0, "lon": -76.97891066666666, "is_disabled": 0, "fusion_lat": 0.0, "lat": 38.885407, "bike_id": "69dd5a819d8114ef9789099be28f5c74", "fusion_lon": 0.0}, {"rental_uris": {"ios": "https://dc.lft.to/lastmile_qr_scan", "android": "https://dc.lft.to/lastmile_qr_scan"}, "type": "electric_scooter", "name": "64a1664fea583b95b863f1479580b1a9", "is_reserved": 0, "lon": -77.04350583333333, "is_disabled": 0, "fusion_lat": 0.0, "lat": 38.923536166666665, "bike_id": "64a1664fea583b95b863f1479580b1a9", "fusion_lon": 0.0}, {"rental_uris": {"ios": "https://dc.lft.to/lastmile_qr_scan", "android": "https://dc.lft.to/lastmile_qr_scan"}, "type": "electric_bike", "name": "e48ae7dd6149a2f967463f836611db80", "is_reserved": 0, "lon": -77.02015383333334, "is_disabled": 0, "fusion_lat": 0.0, "lat": 38.96445383333333, "bike_id": "e48ae7dd6149a2f967463f836611db80", "fusion_lon": 0.0}, {"rental_uris": {"ios": "https://dc.lft.to/lastmile_qr_scan", "android": "https://dc.lft.to/lastmile_qr_scan"}, "type": "electric_scooter", "name": "4e32d35b7d297b17afdf5b23f0a16b73", "is_reserved": 0, "lon": -77.02612816666667, "is_disabled": 0, "fusion_lat": 0.0, "lat": 38.916916666666665, "bike_id": "4e32d35b7d297b17afdf5b23f0a16b73", "fusion_lon": 0.0}, {"rental_uris": {"ios": "https://dc.lft.to/lastmile_qr_scan", "android": "https://dc.lft.to/lastmile_qr_scan"}, "type": "electric_scooter", "name": "47a006022789ba72acecd640c0603eb8", "is_reserved": 0, "lon": -77.0233545, "is_disabled": 0, "fusion_lat": 0.0, "lat": 38.92299416666667, "bike_id": "47a006022789ba72acecd640c0603eb8", "fusion_lon": 0.0}, {"rental_uris": {"ios": "https://dc.lft.to/lastmile_qr_scan", "android": "https://dc.lft.to/lastmile_qr_scan"}, "type": "electric_bike", "name": "56a2dd53ea8d343541ce1f35e0b38ef7", "is_reserved": 0, "lon": -77.065698, "is_disabled": 0, "fusion_lat": 0.0, "lat": 38.9325915, "bike_id": "56a2dd53ea8d343541ce1f35e0b38ef7", "fusion_lon": 0.0}, {"rental_uris": {"ios": "https://dc.lft.to/lastmile_qr_scan", "android": "https://dc.lft.to/lastmile_qr_scan"}, "type": "electric_scooter", "name": "32329f3bb3906706be9e9c4a1f71d342", "is_reserved": 0, "lon": -77.0530355, "is_disabled": 0, "fusion_lat": 0.0, "lat": 38.90260966666666, "bike_id": "32329f3bb3906706be9e9c4a1f71d342", "fusion_lon": 0.0}, {"rental_uris": {"ios": "https://dc.lft.to/lastmile_qr_scan", "android": "https://dc.lft.to/lastmile_qr_scan"}, "type": "electric_scooter", "name": "9f26de813f476c512747e211c9a84648", "is_reserved": 0, "lon": -77.07086216666667, "is_disabled": 0, "fusion_lat": 0.0, "lat": 38.9532595, "bike_id": "9f26de813f476c512747e211c9a84648", "fusion_lon": 0.0}, {"rental_uris": {"ios": "https://dc.lft.to/lastmile_qr_scan", "android": "https://dc.lft.to/lastmile_qr_scan"}, "type": "electric_scooter", "name": "be9a016baf651f25f447d62eeaf1cbab", "is_reserved": 0, "lon": -77.05520316666667, "is_disabled": 0, "fusion_lat": 0.0, "lat": 38.907759, "bike_id": "be9a016baf651f25f447d62eeaf1cbab", "fusion_lon": 0.0}, {"rental_uris": {"ios": "https://dc.lft.to/lastmile_qr_scan", "android": "https://dc.lft.to/lastmile_qr_scan"}, "type": "electric_scooter", "name": "6abd9eda3e8ef8579d053a9131e9b240", "is_reserved": 0, "lon": -77.02710266666666, "is_disabled": 0, "fusion_lat": 0.0, "lat": 38.91732616666667, "bike_id": "6abd9eda3e8ef8579d053a9131e9b240", "fusion_lon": 0.0}, {"rental_uris": {"ios": "https://dc.lft.to/lastmile_qr_scan", "android": "https://dc.lft.to/lastmile_qr_scan"}, "type": "electric_scooter", "name": "4752fd8dc423b7f21dac4c0288876272", "is_reserved": 0, "lon": -77.0198315, "is_disabled": 0, "fusion_lat": 0.0, "lat": 38.8760255, "bike_id": "4752fd8dc423b7f21dac4c0288876272", "fusion_lon": 0.0}, {"rental_uris": {"ios": "https://dc.lft.to/lastmile_qr_scan", "android": "https://dc.lft.to/lastmile_qr_scan"}, "type": "electric_scooter", "name": "5c23fe4ea4788513af82154d18138429", "is_reserved": 0, "lon": -76.9873315, "is_disabled": 0, "fusion_lat": 0.0, "lat": 38.84221, "bike_id": "5c23fe4ea4788513af82154d18138429", "fusion_lon": 0.0}, {"rental_uris": {"ios": "https://dc.lft.to/lastmile_qr_scan", "android": "https://dc.lft.to/lastmile_qr_scan"}, "type": "electric_scooter", "name": "e64bd26b5edf104ae394d110a592f48d", "is_reserved": 0, "lon": -77.03376016666667, "is_disabled": 0, "fusion_lat": 0.0, "lat": 38.92860833333334, "bike_id": "e64bd26b5edf104ae394d110a592f48d", "fusion_lon": 0.0}, {"rental_uris": {"ios": "https://dc.lft.to/lastmile_qr_scan", "android": "https://dc.lft.to/lastmile_qr_scan"}, "type": "electric_scooter", "name": "9a57f91af2c46c38c934422aca7850d0", "is_reserved": 0, "lon": -77.03653966666667, "is_disabled": 0, "fusion_lat": 0.0, "lat": 38.95460533333333, "bike_id": "9a57f91af2c46c38c934422aca7850d0", "fusion_lon": 0.0}, {"rental_uris": {"ios": "https://dc.lft.to/lastmile_qr_scan", "android": "https://dc.lft.to/lastmile_qr_scan"}, "type": "electric_scooter", "name": "0badaf5c812bcb3ee1c252d7b9b6c762", "is_reserved": 0, "lon": -77.03211683333333, "is_disabled": 0, "fusion_lat": 0.0, "lat": 38.91599816666667, "bike_id": "0badaf5c812bcb3ee1c252d7b9b6c762", "fusion_lon": 0.0}, {"rental_uris": {"ios": "https://dc.lft.to/lastmile_qr_scan", "android": "https://dc.lft.to/lastmile_qr_scan"}, "type": "electric_scooter", "name": "d7ba3155960c03756bcf5bba7904617d", "is_reserved": 0, "lon": -76.97132716666667, "is_disabled": 0, "fusion_lat": 0.0, "lat": 38.87863433333333, "bike_id": "d7ba3155960c03756bcf5bba7904617d", "fusion_lon": 0.0}, {"rental_uris": {"ios": "https://dc.lft.to/lastmile_qr_scan", "android": "https://dc.lft.to/lastmile_qr_scan"}, "type": "electric_scooter", "name": "30aa4ce13fd2e6d7e5d0f084558e69c5", "is_reserved": 0, "lon": -76.99155116666667, "is_disabled": 0, "fusion_lat": 0.0, "lat": 38.90124816666667, "bike_id": "30aa4ce13fd2e6d7e5d0f084558e69c5", "fusion_lon": 0.0}, {"rental_uris": {"ios": "https://dc.lft.to/lastmile_qr_scan", "android": "https://dc.lft.to/lastmile_qr_scan"}, "type": "electric_scooter", "name": "6a67af1a1c3643b9054b181b0274c3ec", "is_reserved": 0, "lon": -77.02441483333334, "is_disabled": 0, "fusion_lat": 0.0, "lat": 38.956428, "bike_id": "6a67af1a1c3643b9054b181b0274c3ec", "fusion_lon": 0.0}, {"rental_uris": {"ios": "https://dc.lft.to/lastmile_qr_scan", "android": "https://dc.lft.to/lastmile_qr_scan"}, "type": "electric_scooter", "name": "ff5df311ff3e45c16d578d1d3f490de5", "is_reserved": 0, "lon": -77.00914466666667, "is_disabled": 0, "fusion_lat": 0.0, "lat": 38.89879966666667, "bike_id": "ff5df311ff3e45c16d578d1d3f490de5", "fusion_lon": 0.0}, {"rental_uris": {"ios": "https://dc.lft.to/lastmile_qr_scan", "android": "https://dc.lft.to/lastmile_qr_scan"}, "type": "electric_scooter", "name": "e292bc02131532d647a3e3a48292e76d", "is_reserved": 0, "lon": -76.97940283333334, "is_disabled": 0, "fusion_lat": 0.0, "lat": 38.90659483333334, "bike_id": "e292bc02131532d647a3e3a48292e76d", "fusion_lon": 0.0}, {"rental_uris": {"ios": "https://dc.lft.to/lastmile_qr_scan", "android": "https://dc.lft.to/lastmile_qr_scan"}, "type": "electric_scooter", "name": "956911db84075a00c60a961f41d7fbff", "is_reserved": 0, "lon": -77.013582, "is_disabled": 0, "fusion_lat": 0.0, "lat": 38.893232, "bike_id": "956911db84075a00c60a961f41d7fbff", "fusion_lon": 0.0}, {"rental_uris": {"ios": "https://dc.lft.to/lastmile_qr_scan", "android": "https://dc.lft.to/lastmile_qr_scan"}, "type": "electric_scooter", "name": "ddf9c612cb1119a2c6b4a4a3873fdba9", "is_reserved": 0, "lon": -77.0332885, "is_disabled": 0, "fusion_lat": 0.0, "lat": 38.919123, "bike_id": "ddf9c612cb1119a2c6b4a4a3873fdba9", "fusion_lon": 0.0}, {"rental_uris": {"ios": "https://dc.lft.to/lastmile_qr_scan", "android": "https://dc.lft.to/lastmile_qr_scan"}, "type": "electric_scooter", "name": "bf8a8ee29a090c1f64c26b98dfa31867", "is_reserved": 0, "lon": -76.99624383333334, "is_disabled": 0, "fusion_lat": 0.0, "lat": 38.931644166666665, "bike_id": "bf8a8ee29a090c1f64c26b98dfa31867", "fusion_lon": 0.0}, {"rental_uris": {"ios": "https://dc.lft.to/lastmile_qr_scan", "android": "https://dc.lft.to/lastmile_qr_scan"}, "type": "electric_scooter", "name": "aeb0f69adb33a7370f16d5ce0232d93f", "is_reserved": 0, "lon": -77.0469525, "is_disabled": 0, "fusion_lat": 0.0, "lat": 38.89744983333333, "bike_id": "aeb0f69adb33a7370f16d5ce0232d93f", "fusion_lon": 0.0}, {"rental_uris": {"ios": "https://dc.lft.to/lastmile_qr_scan", "android": "https://dc.lft.to/lastmile_qr_scan"}, "type": "electric_scooter", "name": "e0f1d22240c802668f67e6f93a475b51", "is_reserved": 0, "lon": -76.99635633333334, "is_disabled": 0, "fusion_lat": 0.0, "lat": 38.8876625, "bike_id": "e0f1d22240c802668f67e6f93a475b51", "fusion_lon": 0.0}, {"rental_uris": {"ios": "https://dc.lft.to/lastmile_qr_scan", "android": "https://dc.lft.to/lastmile_qr_scan"}, "type": "electric_scooter", "name": "24dbaacac10aab81ccfe69d6f8198a6e", "is_reserved": 0, "lon": -77.0465805, "is_disabled": 0, "fusion_lat": 0.0, "lat": 38.893411666666665, "bike_id": "24dbaacac10aab81ccfe69d6f8198a6e", "fusion_lon": 0.0}, {"rental_uris": {"ios": "https://dc.lft.to/lastmile_qr_scan", "android": "https://dc.lft.to/lastmile_qr_scan"}, "type": "electric_bike", "name": "d5bf9ed3e1cda8015ef4c49653762ae9", "is_reserved": 0, "lon": -76.98090233333333, "is_disabled": 0, "fusion_lat": 0.0, "lat": 38.9535865, "bike_id": "d5bf9ed3e1cda8015ef4c49653762ae9", "fusion_lon": 0.0}, {"rental_uris": {"ios": "https://dc.lft.to/lastmile_qr_scan", "android": "https://dc.lft.to/lastmile_qr_scan"}, "type": "electric_scooter", "name": "652504853df61a6d28538061ae322943", "is_reserved": 0, "lon": -77.04662916666666, "is_disabled": 0, "fusion_lat": 0.0, "lat": 38.90540633333333, "bike_id": "652504853df61a6d28538061ae322943", "fusion_lon": 0.0}, {"rental_uris": {"ios": "https://dc.lft.to/lastmile_qr_scan", "android": "https://dc.lft.to/lastmile_qr_scan"}, "type": "electric_scooter", "name": "933a6313d875eaa39c27383d162d6a0e", "is_reserved": 0, "lon": -77.02153283333334, "is_disabled": 0, "fusion_lat": 0.0, "lat": 38.887418833333335, "bike_id": "933a6313d875eaa39c27383d162d6a0e", "fusion_lon": 0.0}, {"rental_uris": {"ios": "https://dc.lft.to/lastmile_qr_scan", "android": "https://dc.lft.to/lastmile_qr_scan"}, "type": "electric_scooter", "name": "19e02836a03184700938d3473e33142b", "is_reserved": 0, "lon": -76.996307, "is_disabled": 0, "fusion_lat": 0.0, "lat": 38.9000055, "bike_id": "19e02836a03184700938d3473e33142b", "fusion_lon": 0.0}, {"rental_uris": {"ios": "https://dc.lft.to/lastmile_qr_scan", "android": "https://dc.lft.to/lastmile_qr_scan"}, "type": "electric_bike", "name": "af9b17c4d2506e6e92a9b75fdec93781", "is_reserved": 0, "lon": -77.002222, "is_disabled": 0, "fusion_lat": 0.0, "lat": 38.819358666666666, "bike_id": "af9b17c4d2506e6e92a9b75fdec93781", "fusion_lon": 0.0}, {"rental_uris": {"ios": "https://dc.lft.to/lastmile_qr_scan", "android": "https://dc.lft.to/lastmile_qr_scan"}, "type": "electric_scooter", "name": "797a2d7bab5ca01ba59755a68ff84390", "is_reserved": 0, "lon": -77.04402266666666, "is_disabled": 0, "fusion_lat": 0.0, "lat": 38.929531, "bike_id": "797a2d7bab5ca01ba59755a68ff84390", "fusion_lon": 0.0}, {"rental_uris": {"ios": "https://dc.lft.to/lastmile_qr_scan", "android": "https://dc.lft.to/lastmile_qr_scan"}, "type": "electric_scooter", "name": "480fe628c89ccfe2b774545cb415814e", "is_reserved": 0, "lon": -77.0386665, "is_disabled": 0, "fusion_lat": 0.0, "lat": 38.9111285, "bike_id": "480fe628c89ccfe2b774545cb415814e", "fusion_lon": 0.0}, {"rental_uris": {"ios": "https://dc.lft.to/lastmile_qr_scan", "android": "https://dc.lft.to/lastmile_qr_scan"}, "type": "electric_scooter", "name": "344f262924835ef8f92d012747bf1e26", "is_reserved": 0, "lon": -77.01338033333333, "is_disabled": 0, "fusion_lat": 0.0, "lat": 38.896253, "bike_id": "344f262924835ef8f92d012747bf1e26", "fusion_lon": 0.0}, {"rental_uris": {"ios": "https://dc.lft.to/lastmile_qr_scan", "android": "https://dc.lft.to/lastmile_qr_scan"}, "type": "electric_scooter", "name": "0fda897b4a66845ed29f82c224a83c7c", "is_reserved": 0, "lon": -77.04250916666666, "is_disabled": 0, "fusion_lat": 0.0, "lat": 38.904424, "bike_id": "0fda897b4a66845ed29f82c224a83c7c", "fusion_lon": 0.0}, {"rental_uris": {"ios": "https://dc.lft.to/lastmile_qr_scan", "android": "https://dc.lft.to/lastmile_qr_scan"}, "type": "electric_scooter", "name": "f466dda53a65da7590194e4bf3943139", "is_reserved": 0, "lon": -77.02131683333333, "is_disabled": 0, "fusion_lat": 0.0, "lat": 38.89749883333333, "bike_id": "f466dda53a65da7590194e4bf3943139", "fusion_lon": 0.0}, {"rental_uris": {"ios": "https://dc.lft.to/lastmile_qr_scan", "android": "https://dc.lft.to/lastmile_qr_scan"}, "type": "electric_bike", "name": "87f99683ed9ebfdd7ccea54ae4c0343b", "is_reserved": 0, "lon": -77.00396966666666, "is_disabled": 0, "fusion_lat": 0.0, "lat": 38.98541066666667, "bike_id": "87f99683ed9ebfdd7ccea54ae4c0343b", "fusion_lon": 0.0}, {"rental_uris": {"ios": "https://dc.lft.to/lastmile_qr_scan", "android": "https://dc.lft.to/lastmile_qr_scan"}, "type": "electric_bike", "name": "5c645741a8564a8bbd92b584cf8070e6", "is_reserved": 0, "lon": -76.971398, "is_disabled": 0, "fusion_lat": 0.0, "lat": 38.92356916666667, "bike_id": "5c645741a8564a8bbd92b584cf8070e6", "fusion_lon": 0.0}, {"rental_uris": {"ios": "https://dc.lft.to/lastmile_qr_scan", "android": "https://dc.lft.to/lastmile_qr_scan"}, "type": "electric_scooter", "name": "daf551fb586708309694ccdcaa3a1856", "is_reserved": 0, "lon": -76.99943016666667, "is_disabled": 0, "fusion_lat": 0.0, "lat": 38.891677333333334, "bike_id": "daf551fb586708309694ccdcaa3a1856", "fusion_lon": 0.0}, {"rental_uris": {"ios": "https://dc.lft.to/lastmile_qr_scan", "android": "https://dc.lft.to/lastmile_qr_scan"}, "type": "electric_bike", "name": "2dc6e53cbfb3f3dd32693b27788cb000", "is_reserved": 0, "lon": -77.09819, "is_disabled": 0, "fusion_lat": 0.0, "lat": 38.850181, "bike_id": "2dc6e53cbfb3f3dd32693b27788cb000", "fusion_lon": 0.0}, {"rental_uris": {"ios": "https://dc.lft.to/lastmile_qr_scan", "android": "https://dc.lft.to/lastmile_qr_scan"}, "type": "electric_scooter", "name": "beb9a9c2b9d7dea55c9de6ac8ce25aed", "is_reserved": 0, "lon": -76.93814483333334, "is_disabled": 0, "fusion_lat": 0.0, "lat": 38.898435166666665, "bike_id": "beb9a9c2b9d7dea55c9de6ac8ce25aed", "fusion_lon": 0.0}, {"rental_uris": {"ios": "https://dc.lft.to/lastmile_qr_scan", "android": "https://dc.lft.to/lastmile_qr_scan"}, "type": "electric_scooter", "name": "2d17ce51ed1298c056ccf39288204ca0", "is_reserved": 0, "lon": -77.04630783333333, "is_disabled": 0, "fusion_lat": 0.0, "lat": 38.90632083333333, "bike_id": "2d17ce51ed1298c056ccf39288204ca0", "fusion_lon": 0.0}, {"rental_uris": {"ios": "https://dc.lft.to/lastmile_qr_scan", "android": "https://dc.lft.to/lastmile_qr_scan"}, "type": "electric_scooter", "name": "f4fb60704815d7d1dd292c53a6f94479", "is_reserved": 0, "lon": -77.04344833333333, "is_disabled": 0, "fusion_lat": 0.0, "lat": 38.907113333333335, "bike_id": "f4fb60704815d7d1dd292c53a6f94479", "fusion_lon": 0.0}, {"rental_uris": {"ios": "https://dc.lft.to/lastmile_qr_scan", "android": "https://dc.lft.to/lastmile_qr_scan"}, "type": "electric_scooter", "name": "5def824c8b76b7d01ed7c7450ccddba0", "is_reserved": 0, "lon": -76.9975575, "is_disabled": 0, "fusion_lat": 0.0, "lat": 38.885078, "bike_id": "5def824c8b76b7d01ed7c7450ccddba0", "fusion_lon": 0.0}, {"rental_uris": {"ios": "https://dc.lft.to/lastmile_qr_scan", "android": "https://dc.lft.to/lastmile_qr_scan"}, "type": "electric_scooter", "name": "f8c98ec38680bee851a6f8bb124b7a77", "is_reserved": 0, "lon": -77.0280615, "is_disabled": 0, "fusion_lat": 0.0, "lat": 38.930832, "bike_id": "f8c98ec38680bee851a6f8bb124b7a77", "fusion_lon": 0.0}, {"rental_uris": {"ios": "https://dc.lft.to/lastmile_qr_scan", "android": "https://dc.lft.to/lastmile_qr_scan"}, "type": "electric_scooter", "name": "0260f65f680399ab7713d38d1bfc0f53", "is_reserved": 0, "lon": -77.03894433333333, "is_disabled": 0, "fusion_lat": 0.0, "lat": 38.923228, "bike_id": "0260f65f680399ab7713d38d1bfc0f53", "fusion_lon": 0.0}, {"rental_uris": {"ios": "https://dc.lft.to/lastmile_qr_scan", "android": "https://dc.lft.to/lastmile_qr_scan"}, "type": "electric_scooter", "name": "cfa3efd4e2f9e18415d88c030d5b5198", "is_reserved": 0, "lon": -77.04099166666667, "is_disabled": 0, "fusion_lat": 0.0, "lat": 38.91725666666667, "bike_id": "cfa3efd4e2f9e18415d88c030d5b5198", "fusion_lon": 0.0}, {"rental_uris": {"ios": "https://dc.lft.to/lastmile_qr_scan", "android": "https://dc.lft.to/lastmile_qr_scan"}, "type": "electric_scooter", "name": "715f55bea3a69d6d9186a5b05b249ce9", "is_reserved": 0, "lon": -77.0199725, "is_disabled": 0, "fusion_lat": 0.0, "lat": 38.96628616666667, "bike_id": "715f55bea3a69d6d9186a5b05b249ce9", "fusion_lon": 0.0}, {"rental_uris": {"ios": "https://dc.lft.to/lastmile_qr_scan", "android": "https://dc.lft.to/lastmile_qr_scan"}, "type": "electric_scooter", "name": "7af0c828ea91e89bb01c1695b74ae63b", "is_reserved": 0, "lon": -77.04061333333334, "is_disabled": 0, "fusion_lat": 0.0, "lat": 38.9177305, "bike_id": "7af0c828ea91e89bb01c1695b74ae63b", "fusion_lon": 0.0}, {"rental_uris": {"ios": "https://dc.lft.to/lastmile_qr_scan", "android": "https://dc.lft.to/lastmile_qr_scan"}, "type": "electric_scooter", "name": "a8c06fa0c3f86ab830128b8b3bb238bb", "is_reserved": 0, "lon": -77.0271285, "is_disabled": 0, "fusion_lat": 0.0, "lat": 38.92286216666667, "bike_id": "a8c06fa0c3f86ab830128b8b3bb238bb", "fusion_lon": 0.0}, {"rental_uris": {"ios": "https://dc.lft.to/lastmile_qr_scan", "android": "https://dc.lft.to/lastmile_qr_scan"}, "type": "electric_bike", "name": "f783f737949174986a977c1efcd4a881", "is_reserved": 0, "lon": -76.96155566666667, "is_disabled": 0, "fusion_lat": 0.0, "lat": 38.856239333333335, "bike_id": "f783f737949174986a977c1efcd4a881", "fusion_lon": 0.0}, {"rental_uris": {"ios": "https://dc.lft.to/lastmile_qr_scan", "android": "https://dc.lft.to/lastmile_qr_scan"}, "type": "electric_scooter", "name": "37aa6782a0f4708cb89e913cf92c45bf", "is_reserved": 0, "lon": -77.0452265, "is_disabled": 0, "fusion_lat": 0.0, "lat": 38.907642833333334, "bike_id": "37aa6782a0f4708cb89e913cf92c45bf", "fusion_lon": 0.0}, {"rental_uris": {"ios": "https://dc.lft.to/lastmile_qr_scan", "android": "https://dc.lft.to/lastmile_qr_scan"}, "type": "electric_scooter", "name": "1016d97b9622f70aaa3297faffaa9bb2", "is_reserved": 0, "lon": -77.06140516666666, "is_disabled": 0, "fusion_lat": 0.0, "lat": 38.902612500000004, "bike_id": "1016d97b9622f70aaa3297faffaa9bb2", "fusion_lon": 0.0}, {"rental_uris": {"ios": "https://dc.lft.to/lastmile_qr_scan", "android": "https://dc.lft.to/lastmile_qr_scan"}, "type": "electric_scooter", "name": "761bf5a4ef86577c766f176002e02db5", "is_reserved": 0, "lon": -77.02812033333333, "is_disabled": 0, "fusion_lat": 0.0, "lat": 38.909151333333334, "bike_id": "761bf5a4ef86577c766f176002e02db5", "fusion_lon": 0.0}, {"rental_uris": {"ios": "https://dc.lft.to/lastmile_qr_scan", "android": "https://dc.lft.to/lastmile_qr_scan"}, "type": "electric_scooter", "name": "70e2470e54e6ba4d08231096d6617d9d", "is_reserved": 0, "lon": -77.042087, "is_disabled": 0, "fusion_lat": 0.0, "lat": 38.91706816666667, "bike_id": "70e2470e54e6ba4d08231096d6617d9d", "fusion_lon": 0.0}, {"rental_uris": {"ios": "https://dc.lft.to/lastmile_qr_scan", "android": "https://dc.lft.to/lastmile_qr_scan"}, "type": "electric_scooter", "name": "1298f5b9e198ae71f5464db1c7067d9f", "is_reserved": 0, "lon": -77.03195316666667, "is_disabled": 0, "fusion_lat": 0.0, "lat": 38.916276833333335, "bike_id": "1298f5b9e198ae71f5464db1c7067d9f", "fusion_lon": 0.0}, {"rental_uris": {"ios": "https://dc.lft.to/lastmile_qr_scan", "android": "https://dc.lft.to/lastmile_qr_scan"}, "type": "electric_scooter", "name": "4441724a345cbb68c4a91645f51c5891", "is_reserved": 0, "lon": -77.03893616666667, "is_disabled": 0, "fusion_lat": 0.0, "lat": 38.93140833333333, "bike_id": "4441724a345cbb68c4a91645f51c5891", "fusion_lon": 0.0}, {"rental_uris": {"ios": "https://dc.lft.to/lastmile_qr_scan", "android": "https://dc.lft.to/lastmile_qr_scan"}, "type": "electric_scooter", "name": "18fd69ec7a650b90142af6cdf250b763", "is_reserved": 0, "lon": -77.00944666666666, "is_disabled": 0, "fusion_lat": 0.0, "lat": 38.91266266666667, "bike_id": "18fd69ec7a650b90142af6cdf250b763", "fusion_lon": 0.0}, {"rental_uris": {"ios": "https://dc.lft.to/lastmile_qr_scan", "android": "https://dc.lft.to/lastmile_qr_scan"}, "type": "electric_bike", "name": "0a809956fb2d88c87f8016fe62b03016", "is_reserved": 0, "lon": -76.97857416666666, "is_disabled": 0, "fusion_lat": 0.0, "lat": 38.98382483333334, "bike_id": "0a809956fb2d88c87f8016fe62b03016", "fusion_lon": 0.0}, {"rental_uris": {"ios": "https://dc.lft.to/lastmile_qr_scan", "android": "https://dc.lft.to/lastmile_qr_scan"}, "type": "electric_scooter", "name": "43908ce6b729d25860a21af164f91c54", "is_reserved": 0, "lon": -77.02637516666667, "is_disabled": 0, "fusion_lat": 0.0, "lat": 38.895936166666665, "bike_id": "43908ce6b729d25860a21af164f91c54", "fusion_lon": 0.0}, {"rental_uris": {"ios": "https://dc.lft.to/lastmile_qr_scan", "android": "https://dc.lft.to/lastmile_qr_scan"}, "type": "electric_scooter", "name": "94e16856035b17e109a105fb544df132", "is_reserved": 0, "lon": -77.0634505, "is_disabled": 0, "fusion_lat": 0.0, "lat": 38.94370333333333, "bike_id": "94e16856035b17e109a105fb544df132", "fusion_lon": 0.0}, {"rental_uris": {"ios": "https://dc.lft.to/lastmile_qr_scan", "android": "https://dc.lft.to/lastmile_qr_scan"}, "type": "electric_scooter", "name": "74f59034bf634e0aa3544b86787a8656", "is_reserved": 0, "lon": -77.0327855, "is_disabled": 0, "fusion_lat": 0.0, "lat": 38.919951166666664, "bike_id": "74f59034bf634e0aa3544b86787a8656", "fusion_lon": 0.0}, {"rental_uris": {"ios": "https://dc.lft.to/lastmile_qr_scan", "android": "https://dc.lft.to/lastmile_qr_scan"}, "type": "electric_scooter", "name": "c5fefb5e1113c41c2f24fb909ed7048b", "is_reserved": 0, "lon": -76.97940583333333, "is_disabled": 0, "fusion_lat": 0.0, "lat": 38.916046, "bike_id": "c5fefb5e1113c41c2f24fb909ed7048b", "fusion_lon": 0.0}, {"rental_uris": {"ios": "https://dc.lft.to/lastmile_qr_scan", "android": "https://dc.lft.to/lastmile_qr_scan"}, "type": "electric_bike", "name": "7de69720e9fb136ac366408d09e21eca", "is_reserved": 0, "lon": -77.099606, "is_disabled": 0, "fusion_lat": 0.0, "lat": 38.857965, "bike_id": "7de69720e9fb136ac366408d09e21eca", "fusion_lon": 0.0}, {"rental_uris": {"ios": "https://dc.lft.to/lastmile_qr_scan", "android": "https://dc.lft.to/lastmile_qr_scan"}, "type": "electric_scooter", "name": "e45d5d789ccd4108cc01b41304d2b544", "is_reserved": 0, "lon": -77.00575733333334, "is_disabled": 0, "fusion_lat": 0.0, "lat": 38.874552333333334, "bike_id": "e45d5d789ccd4108cc01b41304d2b544", "fusion_lon": 0.0}, {"rental_uris": {"ios": "https://dc.lft.to/lastmile_qr_scan", "android": "https://dc.lft.to/lastmile_qr_scan"}, "type": "electric_scooter", "name": "19995a901fc34aa900924e874a969f73", "is_reserved": 0, "lon": -76.98699483333333, "is_disabled": 0, "fusion_lat": 0.0, "lat": 38.888379, "bike_id": "19995a901fc34aa900924e874a969f73", "fusion_lon": 0.0}, {"rental_uris": {"ios": "https://dc.lft.to/lastmile_qr_scan", "android": "https://dc.lft.to/lastmile_qr_scan"}, "type": "electric_scooter", "name": "37a471fbeb64aa950e1c1e114b29c99c", "is_reserved": 0, "lon": -77.01348216666666, "is_disabled": 0, "fusion_lat": 0.0, "lat": 38.9192055, "bike_id": "37a471fbeb64aa950e1c1e114b29c99c", "fusion_lon": 0.0}, {"rental_uris": {"ios": "https://dc.lft.to/lastmile_qr_scan", "android": "https://dc.lft.to/lastmile_qr_scan"}, "type": "electric_scooter", "name": "e1aacaa73aa6472abce1c8de9b47ebce", "is_reserved": 0, "lon": -77.0047235, "is_disabled": 0, "fusion_lat": 0.0, "lat": 38.88519816666667, "bike_id": "e1aacaa73aa6472abce1c8de9b47ebce", "fusion_lon": 0.0}, {"rental_uris": {"ios": "https://dc.lft.to/lastmile_qr_scan", "android": "https://dc.lft.to/lastmile_qr_scan"}, "type": "electric_scooter", "name": "cf6dab1de693502db25680bfe854e992", "is_reserved": 0, "lon": -77.04385633333334, "is_disabled": 0, "fusion_lat": 0.0, "lat": 38.92114483333334, "bike_id": "cf6dab1de693502db25680bfe854e992", "fusion_lon": 0.0}, {"rental_uris": {"ios": "https://dc.lft.to/lastmile_qr_scan", "android": "https://dc.lft.to/lastmile_qr_scan"}, "type": "electric_scooter", "name": "d6f50e21d58df6a997f38c235d45de59", "is_reserved": 0, "lon": -76.94062116666667, "is_disabled": 0, "fusion_lat": 0.0, "lat": 38.88581516666667, "bike_id": "d6f50e21d58df6a997f38c235d45de59", "fusion_lon": 0.0}, {"rental_uris": {"ios": "https://dc.lft.to/lastmile_qr_scan", "android": "https://dc.lft.to/lastmile_qr_scan"}, "type": "electric_scooter", "name": "e73636c651c4b152445a6ad1621b956c", "is_reserved": 0, "lon": -76.93393616666667, "is_disabled": 0, "fusion_lat": 0.0, "lat": 38.8991185, "bike_id": "e73636c651c4b152445a6ad1621b956c", "fusion_lon": 0.0}, {"rental_uris": {"ios": "https://dc.lft.to/lastmile_qr_scan", "android": "https://dc.lft.to/lastmile_qr_scan"}, "type": "electric_scooter", "name": "560c136cc5ca5bd52d79e928db95df53", "is_reserved": 0, "lon": -76.9951215, "is_disabled": 0, "fusion_lat": 0.0, "lat": 38.90979266666667, "bike_id": "560c136cc5ca5bd52d79e928db95df53", "fusion_lon": 0.0}, {"rental_uris": {"ios": "https://dc.lft.to/lastmile_qr_scan", "android": "https://dc.lft.to/lastmile_qr_scan"}, "type": "electric_scooter", "name": "bf5c05284ecb565bcc92128aab150abc", "is_reserved": 0, "lon": -77.02529166666666, "is_disabled": 0, "fusion_lat": 0.0, "lat": 38.93969166666667, "bike_id": "bf5c05284ecb565bcc92128aab150abc", "fusion_lon": 0.0}, {"rental_uris": {"ios": "https://dc.lft.to/lastmile_qr_scan", "android": "https://dc.lft.to/lastmile_qr_scan"}, "type": "electric_scooter", "name": "53d31a6c1fda54ced1fae2b85222771e", "is_reserved": 0, "lon": -77.0149855, "is_disabled": 0, "fusion_lat": 0.0, "lat": 38.89261333333334, "bike_id": "53d31a6c1fda54ced1fae2b85222771e", "fusion_lon": 0.0}, {"rental_uris": {"ios": "https://dc.lft.to/lastmile_qr_scan", "android": "https://dc.lft.to/lastmile_qr_scan"}, "type": "electric_scooter", "name": "4cfa0f59530864a18cacf44cb0035834", "is_reserved": 0, "lon": -77.03799183333334, "is_disabled": 0, "fusion_lat": 0.0, "lat": 38.92679, "bike_id": "4cfa0f59530864a18cacf44cb0035834", "fusion_lon": 0.0}, {"rental_uris": {"ios": "https://dc.lft.to/lastmile_qr_scan", "android": "https://dc.lft.to/lastmile_qr_scan"}, "type": "electric_scooter", "name": "f6db44d893cdbebc3e1b68a68ed266dd", "is_reserved": 0, "lon": -77.03733333333334, "is_disabled": 0, "fusion_lat": 0.0, "lat": 38.92028166666667, "bike_id": "f6db44d893cdbebc3e1b68a68ed266dd", "fusion_lon": 0.0}, {"rental_uris": {"ios": "https://dc.lft.to/lastmile_qr_scan", "android": "https://dc.lft.to/lastmile_qr_scan"}, "type": "electric_scooter", "name": "bf7110ac6e784575e348453ac5fd537d", "is_reserved": 0, "lon": -77.028102, "is_disabled": 0, "fusion_lat": 0.0, "lat": 38.93087633333333, "bike_id": "bf7110ac6e784575e348453ac5fd537d", "fusion_lon": 0.0}, {"rental_uris": {"ios": "https://dc.lft.to/lastmile_qr_scan", "android": "https://dc.lft.to/lastmile_qr_scan"}, "type": "electric_scooter", "name": "484a30fdf5ba207626037b6dacff1a71", "is_reserved": 0, "lon": -77.0228945, "is_disabled": 0, "fusion_lat": 0.0, "lat": 38.897077833333334, "bike_id": "484a30fdf5ba207626037b6dacff1a71", "fusion_lon": 0.0}, {"rental_uris": {"ios": "https://dc.lft.to/lastmile_qr_scan", "android": "https://dc.lft.to/lastmile_qr_scan"}, "type": "electric_bike", "name": "6920e50f06a75daf29338c58d6906861", "is_reserved": 0, "lon": -77.0328035, "is_disabled": 0, "fusion_lat": 0.0, "lat": 38.88097366666667, "bike_id": "6920e50f06a75daf29338c58d6906861", "fusion_lon": 0.0}, {"rental_uris": {"ios": "https://dc.lft.to/lastmile_qr_scan", "android": "https://dc.lft.to/lastmile_qr_scan"}, "type": "electric_scooter", "name": "76cb60fb79d8ecdb88b6fe388d5110df", "is_reserved": 0, "lon": -77.01655416666667, "is_disabled": 0, "fusion_lat": 0.0, "lat": 38.9421015, "bike_id": "76cb60fb79d8ecdb88b6fe388d5110df", "fusion_lon": 0.0}, {"rental_uris": {"ios": "https://dc.lft.to/lastmile_qr_scan", "android": "https://dc.lft.to/lastmile_qr_scan"}, "type": "electric_scooter", "name": "3c1d98e024059c5b5adca7667808ca42", "is_reserved": 0, "lon": -77.03976466666667, "is_disabled": 0, "fusion_lat": 0.0, "lat": 38.91627316666667, "bike_id": "3c1d98e024059c5b5adca7667808ca42", "fusion_lon": 0.0}, {"rental_uris": {"ios": "https://dc.lft.to/lastmile_qr_scan", "android": "https://dc.lft.to/lastmile_qr_scan"}, "type": "electric_scooter", "name": "19dec26e4b53053d01b0bfff84ecb3ef", "is_reserved": 0, "lon": -77.02969216666666, "is_disabled": 0, "fusion_lat": 0.0, "lat": 38.91680133333333, "bike_id": "19dec26e4b53053d01b0bfff84ecb3ef", "fusion_lon": 0.0}, {"rental_uris": {"ios": "https://dc.lft.to/lastmile_qr_scan", "android": "https://dc.lft.to/lastmile_qr_scan"}, "type": "electric_scooter", "name": "20736cf339fb94fdfdffb9e7bdca83cd", "is_reserved": 0, "lon": -76.9466645, "is_disabled": 0, "fusion_lat": 0.0, "lat": 38.89870716666667, "bike_id": "20736cf339fb94fdfdffb9e7bdca83cd", "fusion_lon": 0.0}, {"rental_uris": {"ios": "https://dc.lft.to/lastmile_qr_scan", "android": "https://dc.lft.to/lastmile_qr_scan"}, "type": "electric_scooter", "name": "0f7a8ee4de3cfdc404318e31eeb70af0", "is_reserved": 0, "lon": -77.0254685, "is_disabled": 0, "fusion_lat": 0.0, "lat": 38.901153666666666, "bike_id": "0f7a8ee4de3cfdc404318e31eeb70af0", "fusion_lon": 0.0}, {"rental_uris": {"ios": "https://dc.lft.to/lastmile_qr_scan", "android": "https://dc.lft.to/lastmile_qr_scan"}, "type": "electric_scooter", "name": "e8a29f6d7fcd7df220b5f19a59b16ba3", "is_reserved": 0, "lon": -76.99492033333334, "is_disabled": 0, "fusion_lat": 0.0, "lat": 38.89989583333333, "bike_id": "e8a29f6d7fcd7df220b5f19a59b16ba3", "fusion_lon": 0.0}, {"rental_uris": {"ios": "https://dc.lft.to/lastmile_qr_scan", "android": "https://dc.lft.to/lastmile_qr_scan"}, "type": "electric_scooter", "name": "517254e90c31e954d2b10ce68429d93f", "is_reserved": 0, "lon": -77.04162733333334, "is_disabled": 0, "fusion_lat": 0.0, "lat": 38.920662, "bike_id": "517254e90c31e954d2b10ce68429d93f", "fusion_lon": 0.0}, {"rental_uris": {"ios": "https://dc.lft.to/lastmile_qr_scan", "android": "https://dc.lft.to/lastmile_qr_scan"}, "type": "electric_scooter", "name": "19f727cc328c19dbfaaf0d78abe9521b", "is_reserved": 0, "lon": -77.046064, "is_disabled": 0, "fusion_lat": 0.0, "lat": 38.909701166666665, "bike_id": "19f727cc328c19dbfaaf0d78abe9521b", "fusion_lon": 0.0}, {"rental_uris": {"ios": "https://dc.lft.to/lastmile_qr_scan", "android": "https://dc.lft.to/lastmile_qr_scan"}, "type": "electric_scooter", "name": "c5da485634e0d865a1b936e9deee7f63", "is_reserved": 0, "lon": -76.99884516666667, "is_disabled": 0, "fusion_lat": 0.0, "lat": 38.95294833333333, "bike_id": "c5da485634e0d865a1b936e9deee7f63", "fusion_lon": 0.0}, {"rental_uris": {"ios": "https://dc.lft.to/lastmile_qr_scan", "android": "https://dc.lft.to/lastmile_qr_scan"}, "type": "electric_scooter", "name": "70a3327ea214f1d99ec8bee5b2bf8219", "is_reserved": 0, "lon": -77.04879533333333, "is_disabled": 0, "fusion_lat": 0.0, "lat": 38.90907933333333, "bike_id": "70a3327ea214f1d99ec8bee5b2bf8219", "fusion_lon": 0.0}, {"rental_uris": {"ios": "https://dc.lft.to/lastmile_qr_scan", "android": "https://dc.lft.to/lastmile_qr_scan"}, "type": "electric_bike", "name": "8ed1de795587b17c26a07c892e1f4f4c", "is_reserved": 0, "lon": -77.10079016666667, "is_disabled": 0, "fusion_lat": 0.0, "lat": 38.85735416666667, "bike_id": "8ed1de795587b17c26a07c892e1f4f4c", "fusion_lon": 0.0}, {"rental_uris": {"ios": "https://dc.lft.to/lastmile_qr_scan", "android": "https://dc.lft.to/lastmile_qr_scan"}, "type": "electric_scooter", "name": "a20733e22e9adf36dc906f49eb0e3727", "is_reserved": 0, "lon": -77.04961566666667, "is_disabled": 0, "fusion_lat": 0.0, "lat": 38.91591183333333, "bike_id": "a20733e22e9adf36dc906f49eb0e3727", "fusion_lon": 0.0}, {"rental_uris": {"ios": "https://dc.lft.to/lastmile_qr_scan", "android": "https://dc.lft.to/lastmile_qr_scan"}, "type": "electric_scooter", "name": "750c73e6eb76f231ee24dd130b6f5155", "is_reserved": 0, "lon": -77.00276833333334, "is_disabled": 0, "fusion_lat": 0.0, "lat": 38.887707666666664, "bike_id": "750c73e6eb76f231ee24dd130b6f5155", "fusion_lon": 0.0}, {"rental_uris": {"ios": "https://dc.lft.to/lastmile_qr_scan", "android": "https://dc.lft.to/lastmile_qr_scan"}, "type": "electric_bike", "name": "2305887521820a1e8ba379c4070d0157", "is_reserved": 0, "lon": -76.97331, "is_disabled": 0, "fusion_lat": 0.0, "lat": 38.865168833333335, "bike_id": "2305887521820a1e8ba379c4070d0157", "fusion_lon": 0.0}, {"rental_uris": {"ios": "https://dc.lft.to/lastmile_qr_scan", "android": "https://dc.lft.to/lastmile_qr_scan"}, "type": "electric_scooter", "name": "58c9937c4d8df3f7f422088b96857dfd", "is_reserved": 0, "lon": -77.04502933333333, "is_disabled": 0, "fusion_lat": 0.0, "lat": 38.915781833333334, "bike_id": "58c9937c4d8df3f7f422088b96857dfd", "fusion_lon": 0.0}, {"rental_uris": {"ios": "https://dc.lft.to/lastmile_qr_scan", "android": "https://dc.lft.to/lastmile_qr_scan"}, "type": "electric_scooter", "name": "196a16b4bebbff2c9bdf0565092fd146", "is_reserved": 0, "lon": -77.02288633333333, "is_disabled": 0, "fusion_lat": 0.0, "lat": 38.898435, "bike_id": "196a16b4bebbff2c9bdf0565092fd146", "fusion_lon": 0.0}, {"rental_uris": {"ios": "https://dc.lft.to/lastmile_qr_scan", "android": "https://dc.lft.to/lastmile_qr_scan"}, "type": "electric_scooter", "name": "99a5a63b976deb25913cd636741a84de", "is_reserved": 0, "lon": -77.03169083333333, "is_disabled": 0, "fusion_lat": 0.0, "lat": 38.929078833333335, "bike_id": "99a5a63b976deb25913cd636741a84de", "fusion_lon": 0.0}, {"rental_uris": {"ios": "https://dc.lft.to/lastmile_qr_scan", "android": "https://dc.lft.to/lastmile_qr_scan"}, "type": "electric_scooter", "name": "3db6365b4f9402360654ea02068ef416", "is_reserved": 0, "lon": -77.00422583333334, "is_disabled": 0, "fusion_lat": 0.0, "lat": 38.877695833333334, "bike_id": "3db6365b4f9402360654ea02068ef416", "fusion_lon": 0.0}, {"rental_uris": {"ios": "https://dc.lft.to/lastmile_qr_scan", "android": "https://dc.lft.to/lastmile_qr_scan"}, "type": "electric_scooter", "name": "1751b2a314db8541c0381d39faa5c67f", "is_reserved": 0, "lon": -76.98536183333333, "is_disabled": 0, "fusion_lat": 0.0, "lat": 38.858486166666665, "bike_id": "1751b2a314db8541c0381d39faa5c67f", "fusion_lon": 0.0}, {"rental_uris": {"ios": "https://dc.lft.to/lastmile_qr_scan", "android": "https://dc.lft.to/lastmile_qr_scan"}, "type": "electric_scooter", "name": "af2070a689899cb6cfe7949cf0aa8883", "is_reserved": 0, "lon": -77.04521516666667, "is_disabled": 0, "fusion_lat": 0.0, "lat": 38.9111915, "bike_id": "af2070a689899cb6cfe7949cf0aa8883", "fusion_lon": 0.0}, {"rental_uris": {"ios": "https://dc.lft.to/lastmile_qr_scan", "android": "https://dc.lft.to/lastmile_qr_scan"}, "type": "electric_scooter", "name": "21b0a30acfed34b80208e885be910f3e", "is_reserved": 0, "lon": -77.00221466666666, "is_disabled": 0, "fusion_lat": 0.0, "lat": 38.89452933333333, "bike_id": "21b0a30acfed34b80208e885be910f3e", "fusion_lon": 0.0}, {"rental_uris": {"ios": "https://dc.lft.to/lastmile_qr_scan", "android": "https://dc.lft.to/lastmile_qr_scan"}, "type": "electric_scooter", "name": "17ecdd83bc9465204594759af08a76bb", "is_reserved": 0, "lon": -77.0315055, "is_disabled": 0, "fusion_lat": 0.0, "lat": 38.905954, "bike_id": "17ecdd83bc9465204594759af08a76bb", "fusion_lon": 0.0}, {"rental_uris": {"ios": "https://dc.lft.to/lastmile_qr_scan", "android": "https://dc.lft.to/lastmile_qr_scan"}, "type": "electric_scooter", "name": "50f91fd05a9c64a8c65067e557b8b5ff", "is_reserved": 0, "lon": -77.033737, "is_disabled": 0, "fusion_lat": 0.0, "lat": 38.938815166666664, "bike_id": "50f91fd05a9c64a8c65067e557b8b5ff", "fusion_lon": 0.0}, {"rental_uris": {"ios": "https://dc.lft.to/lastmile_qr_scan", "android": "https://dc.lft.to/lastmile_qr_scan"}, "type": "electric_bike", "name": "208b1498db1f4a362e97400aaa940f0d", "is_reserved": 0, "lon": -77.01297266666667, "is_disabled": 0, "fusion_lat": 0.0, "lat": 38.930187, "bike_id": "208b1498db1f4a362e97400aaa940f0d", "fusion_lon": 0.0}, {"rental_uris": {"ios": "https://dc.lft.to/lastmile_qr_scan", "android": "https://dc.lft.to/lastmile_qr_scan"}, "type": "electric_scooter", "name": "d2df17840d3ac69a7cba2a0324b67c6a", "is_reserved": 0, "lon": -77.05336916666667, "is_disabled": 0, "fusion_lat": 0.0, "lat": 38.90231333333333, "bike_id": "d2df17840d3ac69a7cba2a0324b67c6a", "fusion_lon": 0.0}, {"rental_uris": {"ios": "https://dc.lft.to/lastmile_qr_scan", "android": "https://dc.lft.to/lastmile_qr_scan"}, "type": "electric_scooter", "name": "0f72c30f49a989c0c70661c32763801f", "is_reserved": 0, "lon": -77.03963133333333, "is_disabled": 0, "fusion_lat": 0.0, "lat": 38.900206, "bike_id": "0f72c30f49a989c0c70661c32763801f", "fusion_lon": 0.0}, {"rental_uris": {"ios": "https://dc.lft.to/lastmile_qr_scan", "android": "https://dc.lft.to/lastmile_qr_scan"}, "type": "electric_scooter", "name": "633b7f2c0add1cdf2c26daf68f712b0d", "is_reserved": 0, "lon": -77.02408316666667, "is_disabled": 0, "fusion_lat": 0.0, "lat": 38.909721166666664, "bike_id": "633b7f2c0add1cdf2c26daf68f712b0d", "fusion_lon": 0.0}, {"rental_uris": {"ios": "https://dc.lft.to/lastmile_qr_scan", "android": "https://dc.lft.to/lastmile_qr_scan"}, "type": "electric_scooter", "name": "ac3a19cdacba6026dbdf7ce2d5f560fa", "is_reserved": 0, "lon": -77.02300483333333, "is_disabled": 0, "fusion_lat": 0.0, "lat": 38.961331333333334, "bike_id": "ac3a19cdacba6026dbdf7ce2d5f560fa", "fusion_lon": 0.0}, {"rental_uris": {"ios": "https://dc.lft.to/lastmile_qr_scan", "android": "https://dc.lft.to/lastmile_qr_scan"}, "type": "electric_bike", "name": "d66d9ec71f64fe5a73014038da009048", "is_reserved": 0, "lon": -77.01332916666667, "is_disabled": 0, "fusion_lat": 0.0, "lat": 38.900493, "bike_id": "d66d9ec71f64fe5a73014038da009048", "fusion_lon": 0.0}, {"rental_uris": {"ios": "https://dc.lft.to/lastmile_qr_scan", "android": "https://dc.lft.to/lastmile_qr_scan"}, "type": "electric_scooter", "name": "97bb30e070958882b953968e023c17ea", "is_reserved": 0, "lon": -77.06231833333334, "is_disabled": 0, "fusion_lat": 0.0, "lat": 38.905277833333336, "bike_id": "97bb30e070958882b953968e023c17ea", "fusion_lon": 0.0}, {"rental_uris": {"ios": "https://dc.lft.to/lastmile_qr_scan", "android": "https://dc.lft.to/lastmile_qr_scan"}, "type": "electric_scooter", "name": "16a30cacb28f658601422c402221e2a0", "is_reserved": 0, "lon": -77.03386333333333, "is_disabled": 0, "fusion_lat": 0.0, "lat": 38.910425000000004, "bike_id": "16a30cacb28f658601422c402221e2a0", "fusion_lon": 0.0}, {"rental_uris": {"ios": "https://dc.lft.to/lastmile_qr_scan", "android": "https://dc.lft.to/lastmile_qr_scan"}, "type": "electric_bike", "name": "bd2e40c23ddcb754d4d46a521e05e243", "is_reserved": 0, "lon": -77.0020975, "is_disabled": 0, "fusion_lat": 0.0, "lat": 38.988527, "bike_id": "bd2e40c23ddcb754d4d46a521e05e243", "fusion_lon": 0.0}, {"rental_uris": {"ios": "https://dc.lft.to/lastmile_qr_scan", "android": "https://dc.lft.to/lastmile_qr_scan"}, "type": "electric_scooter", "name": "32c391f9051e9549feb15c1479e93d3e", "is_reserved": 0, "lon": -77.01808916666667, "is_disabled": 0, "fusion_lat": 0.0, "lat": 38.902790833333334, "bike_id": "32c391f9051e9549feb15c1479e93d3e", "fusion_lon": 0.0}, {"rental_uris": {"ios": "https://dc.lft.to/lastmile_qr_scan", "android": "https://dc.lft.to/lastmile_qr_scan"}, "type": "electric_scooter", "name": "2cd933d76dd9093d8100410a17a8d293", "is_reserved": 0, "lon": -77.00595133333333, "is_disabled": 0, "fusion_lat": 0.0, "lat": 38.87570783333334, "bike_id": "2cd933d76dd9093d8100410a17a8d293", "fusion_lon": 0.0}, {"rental_uris": {"ios": "https://dc.lft.to/lastmile_qr_scan", "android": "https://dc.lft.to/lastmile_qr_scan"}, "type": "electric_scooter", "name": "7ca8e7b40e286cb3945751e8998019bd", "is_reserved": 0, "lon": -77.038711, "is_disabled": 0, "fusion_lat": 0.0, "lat": 38.91113333333333, "bike_id": "7ca8e7b40e286cb3945751e8998019bd", "fusion_lon": 0.0}, {"rental_uris": {"ios": "https://dc.lft.to/lastmile_qr_scan", "android": "https://dc.lft.to/lastmile_qr_scan"}, "type": "electric_scooter", "name": "0f15f64c1663ba7dc72fb12df12adf03", "is_reserved": 0, "lon": -77.02815416666667, "is_disabled": 0, "fusion_lat": 0.0, "lat": 38.956456333333335, "bike_id": "0f15f64c1663ba7dc72fb12df12adf03", "fusion_lon": 0.0}, {"rental_uris": {"ios": "https://dc.lft.to/lastmile_qr_scan", "android": "https://dc.lft.to/lastmile_qr_scan"}, "type": "electric_scooter", "name": "9c85c49f998e2d2e2629382346d8211a", "is_reserved": 0, "lon": -77.0312035, "is_disabled": 0, "fusion_lat": 0.0, "lat": 38.92034366666667, "bike_id": "9c85c49f998e2d2e2629382346d8211a", "fusion_lon": 0.0}, {"rental_uris": {"ios": "https://dc.lft.to/lastmile_qr_scan", "android": "https://dc.lft.to/lastmile_qr_scan"}, "type": "electric_scooter", "name": "21dc771701a2180205889d2cb423285b", "is_reserved": 0, "lon": -77.039658, "is_disabled": 0, "fusion_lat": 0.0, "lat": 38.93155266666667, "bike_id": "21dc771701a2180205889d2cb423285b", "fusion_lon": 0.0}, {"rental_uris": {"ios": "https://dc.lft.to/lastmile_qr_scan", "android": "https://dc.lft.to/lastmile_qr_scan"}, "type": "electric_scooter", "name": "357ef92e2cfc016939ab5e41c49fa917", "is_reserved": 0, "lon": -77.021656, "is_disabled": 0, "fusion_lat": 0.0, "lat": 38.9250445, "bike_id": "357ef92e2cfc016939ab5e41c49fa917", "fusion_lon": 0.0}, {"rental_uris": {"ios": "https://dc.lft.to/lastmile_qr_scan", "android": "https://dc.lft.to/lastmile_qr_scan"}, "type": "electric_scooter", "name": "8cd7254a1f6aaa313ee83240510501fe", "is_reserved": 0, "lon": -77.045683, "is_disabled": 0, "fusion_lat": 0.0, "lat": 38.900816166666665, "bike_id": "8cd7254a1f6aaa313ee83240510501fe", "fusion_lon": 0.0}, {"rental_uris": {"ios": "https://dc.lft.to/lastmile_qr_scan", "android": "https://dc.lft.to/lastmile_qr_scan"}, "type": "electric_scooter", "name": "98ee5a7528a8fa40fd8115c168036a18", "is_reserved": 0, "lon": -77.0347715, "is_disabled": 0, "fusion_lat": 0.0, "lat": 38.930359833333334, "bike_id": "98ee5a7528a8fa40fd8115c168036a18", "fusion_lon": 0.0}, {"rental_uris": {"ios": "https://dc.lft.to/lastmile_qr_scan", "android": "https://dc.lft.to/lastmile_qr_scan"}, "type": "electric_scooter", "name": "43d39c1d378a0109f432e1630a4bcef9", "is_reserved": 0, "lon": -77.00716466666667, "is_disabled": 0, "fusion_lat": 0.0, "lat": 38.878493, "bike_id": "43d39c1d378a0109f432e1630a4bcef9", "fusion_lon": 0.0}, {"rental_uris": {"ios": "https://dc.lft.to/lastmile_qr_scan", "android": "https://dc.lft.to/lastmile_qr_scan"}, "type": "electric_scooter", "name": "f50e4dbf24c16b08407b93c62d6ed548", "is_reserved": 0, "lon": -77.03888183333333, "is_disabled": 0, "fusion_lat": 0.0, "lat": 38.922161333333335, "bike_id": "f50e4dbf24c16b08407b93c62d6ed548", "fusion_lon": 0.0}, {"rental_uris": {"ios": "https://dc.lft.to/lastmile_qr_scan", "android": "https://dc.lft.to/lastmile_qr_scan"}, "type": "electric_scooter", "name": "0a0e5283d2c1fa5756db152381ac578c", "is_reserved": 0, "lon": -77.03132716666667, "is_disabled": 0, "fusion_lat": 0.0, "lat": 38.920382833333335, "bike_id": "0a0e5283d2c1fa5756db152381ac578c", "fusion_lon": 0.0}, {"rental_uris": {"ios": "https://dc.lft.to/lastmile_qr_scan", "android": "https://dc.lft.to/lastmile_qr_scan"}, "type": "electric_scooter", "name": "2cf0a9a1e8e2bb008926bbfb2e9a1fd1", "is_reserved": 0, "lon": -76.9807585, "is_disabled": 0, "fusion_lat": 0.0, "lat": 38.904089666666664, "bike_id": "2cf0a9a1e8e2bb008926bbfb2e9a1fd1", "fusion_lon": 0.0}, {"rental_uris": {"ios": "https://dc.lft.to/lastmile_qr_scan", "android": "https://dc.lft.to/lastmile_qr_scan"}, "type": "electric_scooter", "name": "f7ee11725aedb87cbc79f29008660364", "is_reserved": 0, "lon": -77.02269916666667, "is_disabled": 0, "fusion_lat": 0.0, "lat": 38.92672816666666, "bike_id": "f7ee11725aedb87cbc79f29008660364", "fusion_lon": 0.0}, {"rental_uris": {"ios": "https://dc.lft.to/lastmile_qr_scan", "android": "https://dc.lft.to/lastmile_qr_scan"}, "type": "electric_scooter", "name": "2004d80dca71b42e9d9d7d53a169a9a7", "is_reserved": 0, "lon": -77.02155283333333, "is_disabled": 0, "fusion_lat": 0.0, "lat": 38.8792395, "bike_id": "2004d80dca71b42e9d9d7d53a169a9a7", "fusion_lon": 0.0}, {"rental_uris": {"ios": "https://dc.lft.to/lastmile_qr_scan", "android": "https://dc.lft.to/lastmile_qr_scan"}, "type": "electric_scooter", "name": "8deb04467cb670e1c21dd1e699f3a99b", "is_reserved": 0, "lon": -77.028253, "is_disabled": 0, "fusion_lat": 0.0, "lat": 38.89341816666666, "bike_id": "8deb04467cb670e1c21dd1e699f3a99b", "fusion_lon": 0.0}, {"rental_uris": {"ios": "https://dc.lft.to/lastmile_qr_scan", "android": "https://dc.lft.to/lastmile_qr_scan"}, "type": "electric_scooter", "name": "a0a47a6e5689f273992e43cfd719e78a", "is_reserved": 0, "lon": -76.94383866666666, "is_disabled": 0, "fusion_lat": 0.0, "lat": 38.8912085, "bike_id": "a0a47a6e5689f273992e43cfd719e78a", "fusion_lon": 0.0}, {"rental_uris": {"ios": "https://dc.lft.to/lastmile_qr_scan", "android": "https://dc.lft.to/lastmile_qr_scan"}, "type": "electric_scooter", "name": "614aa3c93cc9286bcc52f829eee88e2a", "is_reserved": 0, "lon": -77.03619583333334, "is_disabled": 0, "fusion_lat": 0.0, "lat": 38.92333166666667, "bike_id": "614aa3c93cc9286bcc52f829eee88e2a", "fusion_lon": 0.0}, {"rental_uris": {"ios": "https://dc.lft.to/lastmile_qr_scan", "android": "https://dc.lft.to/lastmile_qr_scan"}, "type": "electric_scooter", "name": "c25adb114832f2ecb5d3db1899a81e63", "is_reserved": 0, "lon": -76.95258083333333, "is_disabled": 0, "fusion_lat": 0.0, "lat": 38.892757333333336, "bike_id": "c25adb114832f2ecb5d3db1899a81e63", "fusion_lon": 0.0}, {"rental_uris": {"ios": "https://dc.lft.to/lastmile_qr_scan", "android": "https://dc.lft.to/lastmile_qr_scan"}, "type": "electric_scooter", "name": "25ca0017f7303539500b713bd8565ca6", "is_reserved": 0, "lon": -76.94652733333334, "is_disabled": 0, "fusion_lat": 0.0, "lat": 38.89832883333333, "bike_id": "25ca0017f7303539500b713bd8565ca6", "fusion_lon": 0.0}, {"rental_uris": {"ios": "https://dc.lft.to/lastmile_qr_scan", "android": "https://dc.lft.to/lastmile_qr_scan"}, "type": "electric_scooter", "name": "2afc6739972ea74ff96a307597da92d6", "is_reserved": 0, "lon": -77.03853466666666, "is_disabled": 0, "fusion_lat": 0.0, "lat": 38.910898833333334, "bike_id": "2afc6739972ea74ff96a307597da92d6", "fusion_lon": 0.0}, {"rental_uris": {"ios": "https://dc.lft.to/lastmile_qr_scan", "android": "https://dc.lft.to/lastmile_qr_scan"}, "type": "electric_scooter", "name": "98ff2da88955323766bbd6489dbdd388", "is_reserved": 0, "lon": -76.97549216666667, "is_disabled": 0, "fusion_lat": 0.0, "lat": 38.875781, "bike_id": "98ff2da88955323766bbd6489dbdd388", "fusion_lon": 0.0}, {"rental_uris": {"ios": "https://dc.lft.to/lastmile_qr_scan", "android": "https://dc.lft.to/lastmile_qr_scan"}, "type": "electric_bike", "name": "9ac738056d81f0d2a1560c662bffe8e2", "is_reserved": 0, "lon": -77.09529383333333, "is_disabled": 0, "fusion_lat": 0.0, "lat": 38.838136, "bike_id": "9ac738056d81f0d2a1560c662bffe8e2", "fusion_lon": 0.0}, {"rental_uris": {"ios": "https://dc.lft.to/lastmile_qr_scan", "android": "https://dc.lft.to/lastmile_qr_scan"}, "type": "electric_scooter", "name": "ea7593fdab155614c2cb21b8f6d45be4", "is_reserved": 0, "lon": -77.0651575, "is_disabled": 0, "fusion_lat": 0.0, "lat": 38.905104333333334, "bike_id": "ea7593fdab155614c2cb21b8f6d45be4", "fusion_lon": 0.0}, {"rental_uris": {"ios": "https://dc.lft.to/lastmile_qr_scan", "android": "https://dc.lft.to/lastmile_qr_scan"}, "type": "electric_scooter", "name": "da0d7d00d68a30b18c82b67cfcd13ed0", "is_reserved": 0, "lon": -77.03203116666667, "is_disabled": 0, "fusion_lat": 0.0, "lat": 38.8990365, "bike_id": "da0d7d00d68a30b18c82b67cfcd13ed0", "fusion_lon": 0.0}, {"rental_uris": {"ios": "https://dc.lft.to/lastmile_qr_scan", "android": "https://dc.lft.to/lastmile_qr_scan"}, "type": "electric_scooter", "name": "1f5837caa2cfd4bedf4b739f44e9e07e", "is_reserved": 0, "lon": -77.03377983333333, "is_disabled": 0, "fusion_lat": 0.0, "lat": 38.8995425, "bike_id": "1f5837caa2cfd4bedf4b739f44e9e07e", "fusion_lon": 0.0}, {"rental_uris": {"ios": "https://dc.lft.to/lastmile_qr_scan", "android": "https://dc.lft.to/lastmile_qr_scan"}, "type": "electric_scooter", "name": "dc43e702caea7f8e185b1261a92ea58c", "is_reserved": 0, "lon": -77.02393916666666, "is_disabled": 0, "fusion_lat": 0.0, "lat": 38.89726316666667, "bike_id": "dc43e702caea7f8e185b1261a92ea58c", "fusion_lon": 0.0}, {"rental_uris": {"ios": "https://dc.lft.to/lastmile_qr_scan", "android": "https://dc.lft.to/lastmile_qr_scan"}, "type": "electric_scooter", "name": "6396265d3f9036f371c01f1933bac318", "is_reserved": 0, "lon": -77.04059983333333, "is_disabled": 0, "fusion_lat": 0.0, "lat": 38.9176995, "bike_id": "6396265d3f9036f371c01f1933bac318", "fusion_lon": 0.0}, {"rental_uris": {"ios": "https://dc.lft.to/lastmile_qr_scan", "android": "https://dc.lft.to/lastmile_qr_scan"}, "type": "electric_scooter", "name": "f02dd060f68dff338b0f69f3a7b8d5ee", "is_reserved": 0, "lon": -77.03303383333333, "is_disabled": 0, "fusion_lat": 0.0, "lat": 38.917331833333336, "bike_id": "f02dd060f68dff338b0f69f3a7b8d5ee", "fusion_lon": 0.0}, {"rental_uris": {"ios": "https://dc.lft.to/lastmile_qr_scan", "android": "https://dc.lft.to/lastmile_qr_scan"}, "type": "electric_scooter", "name": "c4803abe45ea9e373dc59bd8607811c4", "is_reserved": 0, "lon": -77.01925316666667, "is_disabled": 0, "fusion_lat": 0.0, "lat": 38.928734666666664, "bike_id": "c4803abe45ea9e373dc59bd8607811c4", "fusion_lon": 0.0}, {"rental_uris": {"ios": "https://dc.lft.to/lastmile_qr_scan", "android": "https://dc.lft.to/lastmile_qr_scan"}, "type": "electric_scooter", "name": "8a448aba9c88b8bd1ce6be53d0882b30", "is_reserved": 0, "lon": -77.05816966666667, "is_disabled": 0, "fusion_lat": 0.0, "lat": 38.93517883333333, "bike_id": "8a448aba9c88b8bd1ce6be53d0882b30", "fusion_lon": 0.0}, {"rental_uris": {"ios": "https://dc.lft.to/lastmile_qr_scan", "android": "https://dc.lft.to/lastmile_qr_scan"}, "type": "electric_scooter", "name": "e4bf51fed4ffddbea6273ff0383e2a1b", "is_reserved": 0, "lon": -77.03054783333333, "is_disabled": 0, "fusion_lat": 0.0, "lat": 38.9073015, "bike_id": "e4bf51fed4ffddbea6273ff0383e2a1b", "fusion_lon": 0.0}, {"rental_uris": {"ios": "https://dc.lft.to/lastmile_qr_scan", "android": "https://dc.lft.to/lastmile_qr_scan"}, "type": "electric_scooter", "name": "0e4ca9832d06cb43a5653cf2f161e1ad", "is_reserved": 0, "lon": -77.0435745, "is_disabled": 0, "fusion_lat": 0.0, "lat": 38.89223116666667, "bike_id": "0e4ca9832d06cb43a5653cf2f161e1ad", "fusion_lon": 0.0}, {"rental_uris": {"ios": "https://dc.lft.to/lastmile_qr_scan", "android": "https://dc.lft.to/lastmile_qr_scan"}, "type": "electric_scooter", "name": "ad9d119567692561d422b0edbbb48839", "is_reserved": 0, "lon": -77.03279266666667, "is_disabled": 0, "fusion_lat": 0.0, "lat": 38.919957833333335, "bike_id": "ad9d119567692561d422b0edbbb48839", "fusion_lon": 0.0}, {"rental_uris": {"ios": "https://dc.lft.to/lastmile_qr_scan", "android": "https://dc.lft.to/lastmile_qr_scan"}, "type": "electric_scooter", "name": "130ee5d8a395bfa00d89c11e1563dc5f", "is_reserved": 0, "lon": -77.03465783333333, "is_disabled": 0, "fusion_lat": 0.0, "lat": 38.911947166666664, "bike_id": "130ee5d8a395bfa00d89c11e1563dc5f", "fusion_lon": 0.0}, {"rental_uris": {"ios": "https://dc.lft.to/lastmile_qr_scan", "android": "https://dc.lft.to/lastmile_qr_scan"}, "type": "electric_scooter", "name": "90654884bbd075a6828c039cd44023a7", "is_reserved": 0, "lon": -77.04803966666667, "is_disabled": 0, "fusion_lat": 0.0, "lat": 38.89960383333333, "bike_id": "90654884bbd075a6828c039cd44023a7", "fusion_lon": 0.0}, {"rental_uris": {"ios": "https://dc.lft.to/lastmile_qr_scan", "android": "https://dc.lft.to/lastmile_qr_scan"}, "type": "electric_scooter", "name": "542fc07399fba18423a8aabf0fdc748c", "is_reserved": 0, "lon": -77.04814566666667, "is_disabled": 0, "fusion_lat": 0.0, "lat": 38.92035116666667, "bike_id": "542fc07399fba18423a8aabf0fdc748c", "fusion_lon": 0.0}, {"rental_uris": {"ios": "https://dc.lft.to/lastmile_qr_scan", "android": "https://dc.lft.to/lastmile_qr_scan"}, "type": "electric_bike", "name": "2fe2973a0139e38867cd0777242cdecd", "is_reserved": 0, "lon": -77.0015305, "is_disabled": 0, "fusion_lat": 0.0, "lat": 38.941646, "bike_id": "2fe2973a0139e38867cd0777242cdecd", "fusion_lon": 0.0}, {"rental_uris": {"ios": "https://dc.lft.to/lastmile_qr_scan", "android": "https://dc.lft.to/lastmile_qr_scan"}, "type": "electric_scooter", "name": "14673096a764cb1ac73bbcfeef2e9ce2", "is_reserved": 0, "lon": -77.0315785, "is_disabled": 0, "fusion_lat": 0.0, "lat": 38.95937466666667, "bike_id": "14673096a764cb1ac73bbcfeef2e9ce2", "fusion_lon": 0.0}, {"rental_uris": {"ios": "https://dc.lft.to/lastmile_qr_scan", "android": "https://dc.lft.to/lastmile_qr_scan"}, "type": "electric_scooter", "name": "d9f19ea1103536f7729f4449942073ba", "is_reserved": 0, "lon": -77.02187716666667, "is_disabled": 0, "fusion_lat": 0.0, "lat": 38.914858, "bike_id": "d9f19ea1103536f7729f4449942073ba", "fusion_lon": 0.0}, {"rental_uris": {"ios": "https://dc.lft.to/lastmile_qr_scan", "android": "https://dc.lft.to/lastmile_qr_scan"}, "type": "electric_scooter", "name": "8ee4a1df6ac08051bb9632b2eb8b18d0", "is_reserved": 0, "lon": -77.04383716666666, "is_disabled": 0, "fusion_lat": 0.0, "lat": 38.934293333333336, "bike_id": "8ee4a1df6ac08051bb9632b2eb8b18d0", "fusion_lon": 0.0}, {"rental_uris": {"ios": "https://dc.lft.to/lastmile_qr_scan", "android": "https://dc.lft.to/lastmile_qr_scan"}, "type": "electric_scooter", "name": "e8ff80c52cb141bd03585120fd763cf5", "is_reserved": 0, "lon": -76.99073566666667, "is_disabled": 0, "fusion_lat": 0.0, "lat": 38.90415316666667, "bike_id": "e8ff80c52cb141bd03585120fd763cf5", "fusion_lon": 0.0}, {"rental_uris": {"ios": "https://dc.lft.to/lastmile_qr_scan", "android": "https://dc.lft.to/lastmile_qr_scan"}, "type": "electric_scooter", "name": "6192426024ef3a1eba76c4c5150ec1f8", "is_reserved": 0, "lon": -76.98339, "is_disabled": 0, "fusion_lat": 0.0, "lat": 38.90085883333333, "bike_id": "6192426024ef3a1eba76c4c5150ec1f8", "fusion_lon": 0.0}, {"rental_uris": {"ios": "https://dc.lft.to/lastmile_qr_scan", "android": "https://dc.lft.to/lastmile_qr_scan"}, "type": "electric_scooter", "name": "f1a02d9aa082730267bc0be08307dcfc", "is_reserved": 0, "lon": -77.0202195, "is_disabled": 0, "fusion_lat": 0.0, "lat": 38.898968833333335, "bike_id": "f1a02d9aa082730267bc0be08307dcfc", "fusion_lon": 0.0}, {"rental_uris": {"ios": "https://dc.lft.to/lastmile_qr_scan", "android": "https://dc.lft.to/lastmile_qr_scan"}, "type": "electric_scooter", "name": "1ef64c6ad1ffc8db7e678192e6830f39", "is_reserved": 0, "lon": -77.03853683333334, "is_disabled": 0, "fusion_lat": 0.0, "lat": 38.91664733333333, "bike_id": "1ef64c6ad1ffc8db7e678192e6830f39", "fusion_lon": 0.0}, {"rental_uris": {"ios": "https://dc.lft.to/lastmile_qr_scan", "android": "https://dc.lft.to/lastmile_qr_scan"}, "type": "electric_scooter", "name": "69ce407e24c2b8099d8fc681536ddfca", "is_reserved": 0, "lon": -77.03635466666667, "is_disabled": 0, "fusion_lat": 0.0, "lat": 38.9259845, "bike_id": "69ce407e24c2b8099d8fc681536ddfca", "fusion_lon": 0.0}, {"rental_uris": {"ios": "https://dc.lft.to/lastmile_qr_scan", "android": "https://dc.lft.to/lastmile_qr_scan"}, "type": "electric_scooter", "name": "8f1e8fafe67f537a4cafb169589202b3", "is_reserved": 0, "lon": -77.07870216666667, "is_disabled": 0, "fusion_lat": 0.0, "lat": 38.9247195, "bike_id": "8f1e8fafe67f537a4cafb169589202b3", "fusion_lon": 0.0}, {"rental_uris": {"ios": "https://dc.lft.to/lastmile_qr_scan", "android": "https://dc.lft.to/lastmile_qr_scan"}, "type": "electric_scooter", "name": "b706e296c52ff4fe38bc986b5bb282fa", "is_reserved": 0, "lon": -77.05636183333333, "is_disabled": 0, "fusion_lat": 0.0, "lat": 38.936074166666664, "bike_id": "b706e296c52ff4fe38bc986b5bb282fa", "fusion_lon": 0.0}, {"rental_uris": {"ios": "https://dc.lft.to/lastmile_qr_scan", "android": "https://dc.lft.to/lastmile_qr_scan"}, "type": "electric_scooter", "name": "22584cd07af50cbac5456e45546285c6", "is_reserved": 0, "lon": -77.04689, "is_disabled": 0, "fusion_lat": 0.0, "lat": 38.897457833333334, "bike_id": "22584cd07af50cbac5456e45546285c6", "fusion_lon": 0.0}, {"rental_uris": {"ios": "https://dc.lft.to/lastmile_qr_scan", "android": "https://dc.lft.to/lastmile_qr_scan"}, "type": "electric_scooter", "name": "1cbf1e57134822e46bbceb854447f1be", "is_reserved": 0, "lon": -77.039569, "is_disabled": 0, "fusion_lat": 0.0, "lat": 38.892492833333336, "bike_id": "1cbf1e57134822e46bbceb854447f1be", "fusion_lon": 0.0}, {"rental_uris": {"ios": "https://dc.lft.to/lastmile_qr_scan", "android": "https://dc.lft.to/lastmile_qr_scan"}, "type": "electric_scooter", "name": "6543989ba740d9c43597dcc443cd0eaf", "is_reserved": 0, "lon": -77.032815, "is_disabled": 0, "fusion_lat": 0.0, "lat": 38.919986, "bike_id": "6543989ba740d9c43597dcc443cd0eaf", "fusion_lon": 0.0}, {"rental_uris": {"ios": "https://dc.lft.to/lastmile_qr_scan", "android": "https://dc.lft.to/lastmile_qr_scan"}, "type": "electric_scooter", "name": "0a77cdf6795ef2777375690ed47ea58b", "is_reserved": 0, "lon": -77.01012266666666, "is_disabled": 0, "fusion_lat": 0.0, "lat": 38.912684666666664, "bike_id": "0a77cdf6795ef2777375690ed47ea58b", "fusion_lon": 0.0}, {"rental_uris": {"ios": "https://dc.lft.to/lastmile_qr_scan", "android": "https://dc.lft.to/lastmile_qr_scan"}, "type": "electric_scooter", "name": "277ba2415854ca4afce2ccba59169ad3", "is_reserved": 0, "lon": -77.000404, "is_disabled": 0, "fusion_lat": 0.0, "lat": 38.9076125, "bike_id": "277ba2415854ca4afce2ccba59169ad3", "fusion_lon": 0.0}, {"rental_uris": {"ios": "https://dc.lft.to/lastmile_qr_scan", "android": "https://dc.lft.to/lastmile_qr_scan"}, "type": "electric_scooter", "name": "a197a32d29fded3a52cd7f9d0a61da8d", "is_reserved": 0, "lon": -77.02303416666666, "is_disabled": 0, "fusion_lat": 0.0, "lat": 38.9009265, "bike_id": "a197a32d29fded3a52cd7f9d0a61da8d", "fusion_lon": 0.0}, {"rental_uris": {"ios": "https://dc.lft.to/lastmile_qr_scan", "android": "https://dc.lft.to/lastmile_qr_scan"}, "type": "electric_bike", "name": "2a7fad0df30d7ebbb7abd0ee33f49dc6", "is_reserved": 0, "lon": -76.95064633333334, "is_disabled": 0, "fusion_lat": 0.0, "lat": 39.0851465, "bike_id": "2a7fad0df30d7ebbb7abd0ee33f49dc6", "fusion_lon": 0.0}, {"rental_uris": {"ios": "https://dc.lft.to/lastmile_qr_scan", "android": "https://dc.lft.to/lastmile_qr_scan"}, "type": "electric_scooter", "name": "9deb711a69815626ead50a5b52f7e752", "is_reserved": 0, "lon": -77.01996166666666, "is_disabled": 0, "fusion_lat": 0.0, "lat": 38.930507666666664, "bike_id": "9deb711a69815626ead50a5b52f7e752", "fusion_lon": 0.0}, {"rental_uris": {"ios": "https://dc.lft.to/lastmile_qr_scan", "android": "https://dc.lft.to/lastmile_qr_scan"}, "type": "electric_scooter", "name": "b3e8d44f66bfc0126482dbb662cbc755", "is_reserved": 0, "lon": -77.03998883333334, "is_disabled": 0, "fusion_lat": 0.0, "lat": 38.914091666666664, "bike_id": "b3e8d44f66bfc0126482dbb662cbc755", "fusion_lon": 0.0}, {"rental_uris": {"ios": "https://dc.lft.to/lastmile_qr_scan", "android": "https://dc.lft.to/lastmile_qr_scan"}, "type": "electric_scooter", "name": "983ab20bef9688a7571b2f7f9353eda5", "is_reserved": 0, "lon": -77.03265666666667, "is_disabled": 0, "fusion_lat": 0.0, "lat": 38.93879966666667, "bike_id": "983ab20bef9688a7571b2f7f9353eda5", "fusion_lon": 0.0}, {"rental_uris": {"ios": "https://dc.lft.to/lastmile_qr_scan", "android": "https://dc.lft.to/lastmile_qr_scan"}, "type": "electric_scooter", "name": "d2bedbbc40c709e5e0d79082bf220974", "is_reserved": 0, "lon": -76.9818365, "is_disabled": 0, "fusion_lat": 0.0, "lat": 38.90582283333333, "bike_id": "d2bedbbc40c709e5e0d79082bf220974", "fusion_lon": 0.0}, {"rental_uris": {"ios": "https://dc.lft.to/lastmile_qr_scan", "android": "https://dc.lft.to/lastmile_qr_scan"}, "type": "electric_scooter", "name": "4ce7bb02687535ea7ea50b89cd9d972a", "is_reserved": 0, "lon": -77.0380585, "is_disabled": 0, "fusion_lat": 0.0, "lat": 38.930735166666665, "bike_id": "4ce7bb02687535ea7ea50b89cd9d972a", "fusion_lon": 0.0}, {"rental_uris": {"ios": "https://dc.lft.to/lastmile_qr_scan", "android": "https://dc.lft.to/lastmile_qr_scan"}, "type": "electric_scooter", "name": "386af8b8fe12cb1e4c40025f6529a5ab", "is_reserved": 0, "lon": -77.07406366666666, "is_disabled": 0, "fusion_lat": 0.0, "lat": 38.937489166666666, "bike_id": "386af8b8fe12cb1e4c40025f6529a5ab", "fusion_lon": 0.0}, {"rental_uris": {"ios": "https://dc.lft.to/lastmile_qr_scan", "android": "https://dc.lft.to/lastmile_qr_scan"}, "type": "electric_scooter", "name": "c81afad6723e70425e7c7a59298219c3", "is_reserved": 0, "lon": -77.02355066666667, "is_disabled": 0, "fusion_lat": 0.0, "lat": 38.94521433333333, "bike_id": "c81afad6723e70425e7c7a59298219c3", "fusion_lon": 0.0}, {"rental_uris": {"ios": "https://dc.lft.to/lastmile_qr_scan", "android": "https://dc.lft.to/lastmile_qr_scan"}, "type": "electric_scooter", "name": "75c18266cbcb9d3d637322dbb9ba702a", "is_reserved": 0, "lon": -77.031335, "is_disabled": 0, "fusion_lat": 0.0, "lat": 38.923902166666664, "bike_id": "75c18266cbcb9d3d637322dbb9ba702a", "fusion_lon": 0.0}, {"rental_uris": {"ios": "https://dc.lft.to/lastmile_qr_scan", "android": "https://dc.lft.to/lastmile_qr_scan"}, "type": "electric_scooter", "name": "da6cecf4c9fc823fcff567f9a3c99e35", "is_reserved": 0, "lon": -77.023971, "is_disabled": 0, "fusion_lat": 0.0, "lat": 38.91712116666667, "bike_id": "da6cecf4c9fc823fcff567f9a3c99e35", "fusion_lon": 0.0}, {"rental_uris": {"ios": "https://dc.lft.to/lastmile_qr_scan", "android": "https://dc.lft.to/lastmile_qr_scan"}, "type": "electric_scooter", "name": "fb9bf6a428a664ef57f6d614fafc0430", "is_reserved": 0, "lon": -77.0447465, "is_disabled": 0, "fusion_lat": 0.0, "lat": 38.909378833333335, "bike_id": "fb9bf6a428a664ef57f6d614fafc0430", "fusion_lon": 0.0}, {"rental_uris": {"ios": "https://dc.lft.to/lastmile_qr_scan", "android": "https://dc.lft.to/lastmile_qr_scan"}, "type": "electric_scooter", "name": "2986601db399c79ff834d5dfc01f7cf1", "is_reserved": 0, "lon": -77.01641916666667, "is_disabled": 0, "fusion_lat": 0.0, "lat": 38.92935933333333, "bike_id": "2986601db399c79ff834d5dfc01f7cf1", "fusion_lon": 0.0}, {"rental_uris": {"ios": "https://dc.lft.to/lastmile_qr_scan", "android": "https://dc.lft.to/lastmile_qr_scan"}, "type": "electric_scooter", "name": "7ca1f1380781f91f922030f235dea912", "is_reserved": 0, "lon": -76.98697816666666, "is_disabled": 0, "fusion_lat": 0.0, "lat": 38.913058, "bike_id": "7ca1f1380781f91f922030f235dea912", "fusion_lon": 0.0}, {"rental_uris": {"ios": "https://dc.lft.to/lastmile_qr_scan", "android": "https://dc.lft.to/lastmile_qr_scan"}, "type": "electric_scooter", "name": "cae54a593869a7d4564f1e140fcfa31b", "is_reserved": 0, "lon": -77.03630316666667, "is_disabled": 0, "fusion_lat": 0.0, "lat": 38.9062155, "bike_id": "cae54a593869a7d4564f1e140fcfa31b", "fusion_lon": 0.0}, {"rental_uris": {"ios": "https://dc.lft.to/lastmile_qr_scan", "android": "https://dc.lft.to/lastmile_qr_scan"}, "type": "electric_scooter", "name": "009e3b6ec858d94ba60fb186ec012254", "is_reserved": 0, "lon": -77.06696166666667, "is_disabled": 0, "fusion_lat": 0.0, "lat": 38.909806, "bike_id": "009e3b6ec858d94ba60fb186ec012254", "fusion_lon": 0.0}, {"rental_uris": {"ios": "https://dc.lft.to/lastmile_qr_scan", "android": "https://dc.lft.to/lastmile_qr_scan"}, "type": "electric_scooter", "name": "a65254b9905d0bde79e33fd97d30f34c", "is_reserved": 0, "lon": -77.0291865, "is_disabled": 0, "fusion_lat": 0.0, "lat": 38.93331466666667, "bike_id": "a65254b9905d0bde79e33fd97d30f34c", "fusion_lon": 0.0}, {"rental_uris": {"ios": "https://dc.lft.to/lastmile_qr_scan", "android": "https://dc.lft.to/lastmile_qr_scan"}, "type": "electric_scooter", "name": "06d6ffb3a611426c565a961f1847e0bd", "is_reserved": 0, "lon": -77.03201683333333, "is_disabled": 0, "fusion_lat": 0.0, "lat": 38.91152483333333, "bike_id": "06d6ffb3a611426c565a961f1847e0bd", "fusion_lon": 0.0}, {"rental_uris": {"ios": "https://dc.lft.to/lastmile_qr_scan", "android": "https://dc.lft.to/lastmile_qr_scan"}, "type": "electric_scooter", "name": "a5c360057c4df650d5b96685244eb750", "is_reserved": 0, "lon": -77.0151135, "is_disabled": 0, "fusion_lat": 0.0, "lat": 38.91048166666667, "bike_id": "a5c360057c4df650d5b96685244eb750", "fusion_lon": 0.0}, {"rental_uris": {"ios": "https://dc.lft.to/lastmile_qr_scan", "android": "https://dc.lft.to/lastmile_qr_scan"}, "type": "electric_scooter", "name": "876a4f2ace5b94398ee330123f675b0a", "is_reserved": 0, "lon": -77.02368383333334, "is_disabled": 0, "fusion_lat": 0.0, "lat": 38.90642033333334, "bike_id": "876a4f2ace5b94398ee330123f675b0a", "fusion_lon": 0.0}, {"rental_uris": {"ios": "https://dc.lft.to/lastmile_qr_scan", "android": "https://dc.lft.to/lastmile_qr_scan"}, "type": "electric_bike", "name": "ddd47d846f7079cd5dda706a223c993d", "is_reserved": 0, "lon": -76.96303633333333, "is_disabled": 0, "fusion_lat": 0.0, "lat": 38.89702616666667, "bike_id": "ddd47d846f7079cd5dda706a223c993d", "fusion_lon": 0.0}, {"rental_uris": {"ios": "https://dc.lft.to/lastmile_qr_scan", "android": "https://dc.lft.to/lastmile_qr_scan"}, "type": "electric_scooter", "name": "1f40b8d5004be2d6455a6be2e7f9be7c", "is_reserved": 0, "lon": -77.04007183333333, "is_disabled": 0, "fusion_lat": 0.0, "lat": 38.92248816666667, "bike_id": "1f40b8d5004be2d6455a6be2e7f9be7c", "fusion_lon": 0.0}, {"rental_uris": {"ios": "https://dc.lft.to/lastmile_qr_scan", "android": "https://dc.lft.to/lastmile_qr_scan"}, "type": "electric_scooter", "name": "98e4bf4791a8394cf4651a6504a6878c", "is_reserved": 0, "lon": -77.04024566666666, "is_disabled": 0, "fusion_lat": 0.0, "lat": 38.899248, "bike_id": "98e4bf4791a8394cf4651a6504a6878c", "fusion_lon": 0.0}, {"rental_uris": {"ios": "https://dc.lft.to/lastmile_qr_scan", "android": "https://dc.lft.to/lastmile_qr_scan"}, "type": "electric_scooter", "name": "615ebc4d77ae14640c8468e32c4e6cc2", "is_reserved": 0, "lon": -77.006474, "is_disabled": 0, "fusion_lat": 0.0, "lat": 38.878586166666665, "bike_id": "615ebc4d77ae14640c8468e32c4e6cc2", "fusion_lon": 0.0}, {"rental_uris": {"ios": "https://dc.lft.to/lastmile_qr_scan", "android": "https://dc.lft.to/lastmile_qr_scan"}, "type": "electric_scooter", "name": "0c7ab24c7c9fb8826fe7ad8f1f2b2695", "is_reserved": 0, "lon": -77.05079583333334, "is_disabled": 0, "fusion_lat": 0.0, "lat": 38.90368566666667, "bike_id": "0c7ab24c7c9fb8826fe7ad8f1f2b2695", "fusion_lon": 0.0}, {"rental_uris": {"ios": "https://dc.lft.to/lastmile_qr_scan", "android": "https://dc.lft.to/lastmile_qr_scan"}, "type": "electric_scooter", "name": "e08047bd52e11637f31d41397e226331", "is_reserved": 0, "lon": -77.02960316666666, "is_disabled": 0, "fusion_lat": 0.0, "lat": 38.9167695, "bike_id": "e08047bd52e11637f31d41397e226331", "fusion_lon": 0.0}, {"rental_uris": {"ios": "https://dc.lft.to/lastmile_qr_scan", "android": "https://dc.lft.to/lastmile_qr_scan"}, "type": "electric_scooter", "name": "78ad6ce710789cf3ea9fc1789445d623", "is_reserved": 0, "lon": -77.04564966666666, "is_disabled": 0, "fusion_lat": 0.0, "lat": 38.9006925, "bike_id": "78ad6ce710789cf3ea9fc1789445d623", "fusion_lon": 0.0}, {"rental_uris": {"ios": "https://dc.lft.to/lastmile_qr_scan", "android": "https://dc.lft.to/lastmile_qr_scan"}, "type": "electric_scooter", "name": "4878c0295674795601cbe374dfbe452a", "is_reserved": 0, "lon": -77.0280835, "is_disabled": 0, "fusion_lat": 0.0, "lat": 38.892292166666664, "bike_id": "4878c0295674795601cbe374dfbe452a", "fusion_lon": 0.0}, {"rental_uris": {"ios": "https://dc.lft.to/lastmile_qr_scan", "android": "https://dc.lft.to/lastmile_qr_scan"}, "type": "electric_scooter", "name": "a6773420d9cab653f6f5975464696869", "is_reserved": 0, "lon": -77.03807433333333, "is_disabled": 0, "fusion_lat": 0.0, "lat": 38.931198333333334, "bike_id": "a6773420d9cab653f6f5975464696869", "fusion_lon": 0.0}, {"rental_uris": {"ios": "https://dc.lft.to/lastmile_qr_scan", "android": "https://dc.lft.to/lastmile_qr_scan"}, "type": "electric_bike", "name": "e82faff8a04ecd004c013c3449afbffc", "is_reserved": 0, "lon": -77.02233183333334, "is_disabled": 0, "fusion_lat": 0.0, "lat": 38.91274266666667, "bike_id": "e82faff8a04ecd004c013c3449afbffc", "fusion_lon": 0.0}, {"rental_uris": {"ios": "https://dc.lft.to/lastmile_qr_scan", "android": "https://dc.lft.to/lastmile_qr_scan"}, "type": "electric_scooter", "name": "deafbed4e3879a78a4c21843bb8b7ccf", "is_reserved": 0, "lon": -77.07165833333333, "is_disabled": 0, "fusion_lat": 0.0, "lat": 38.907620333333334, "bike_id": "deafbed4e3879a78a4c21843bb8b7ccf", "fusion_lon": 0.0}, {"rental_uris": {"ios": "https://dc.lft.to/lastmile_qr_scan", "android": "https://dc.lft.to/lastmile_qr_scan"}, "type": "electric_scooter", "name": "9c3c61a016579fa80f817fb7a378e977", "is_reserved": 0, "lon": -77.06350633333334, "is_disabled": 0, "fusion_lat": 0.0, "lat": 38.943670833333336, "bike_id": "9c3c61a016579fa80f817fb7a378e977", "fusion_lon": 0.0}, {"rental_uris": {"ios": "https://dc.lft.to/lastmile_qr_scan", "android": "https://dc.lft.to/lastmile_qr_scan"}, "type": "electric_scooter", "name": "a1970392ec4a6f205a3a792d816de00c", "is_reserved": 0, "lon": -76.92946283333333, "is_disabled": 0, "fusion_lat": 0.0, "lat": 38.903408666666664, "bike_id": "a1970392ec4a6f205a3a792d816de00c", "fusion_lon": 0.0}, {"rental_uris": {"ios": "https://dc.lft.to/lastmile_qr_scan", "android": "https://dc.lft.to/lastmile_qr_scan"}, "type": "electric_scooter", "name": "8642269463d18ac04d9c660633144b58", "is_reserved": 0, "lon": -77.01258, "is_disabled": 0, "fusion_lat": 0.0, "lat": 38.897274, "bike_id": "8642269463d18ac04d9c660633144b58", "fusion_lon": 0.0}, {"rental_uris": {"ios": "https://dc.lft.to/lastmile_qr_scan", "android": "https://dc.lft.to/lastmile_qr_scan"}, "type": "electric_scooter", "name": "2e1a3063db921f5f00f4ffc47fb7d9e8", "is_reserved": 0, "lon": -77.04459433333334, "is_disabled": 0, "fusion_lat": 0.0, "lat": 38.911121, "bike_id": "2e1a3063db921f5f00f4ffc47fb7d9e8", "fusion_lon": 0.0}, {"rental_uris": {"ios": "https://dc.lft.to/lastmile_qr_scan", "android": "https://dc.lft.to/lastmile_qr_scan"}, "type": "electric_scooter", "name": "4389a37e34b041df79ea41a5de44567e", "is_reserved": 0, "lon": -77.0727905, "is_disabled": 0, "fusion_lat": 0.0, "lat": 38.915886666666665, "bike_id": "4389a37e34b041df79ea41a5de44567e", "fusion_lon": 0.0}, {"rental_uris": {"ios": "https://dc.lft.to/lastmile_qr_scan", "android": "https://dc.lft.to/lastmile_qr_scan"}, "type": "electric_scooter", "name": "40bc81368b2d96a7d8f07c8000e7d82b", "is_reserved": 0, "lon": -77.02710216666667, "is_disabled": 0, "fusion_lat": 0.0, "lat": 38.89989516666667, "bike_id": "40bc81368b2d96a7d8f07c8000e7d82b", "fusion_lon": 0.0}, {"rental_uris": {"ios": "https://dc.lft.to/lastmile_qr_scan", "android": "https://dc.lft.to/lastmile_qr_scan"}, "type": "electric_scooter", "name": "9693f36af73a7a3fc183a557aad0ed51", "is_reserved": 0, "lon": -77.0318705, "is_disabled": 0, "fusion_lat": 0.0, "lat": 38.91129383333333, "bike_id": "9693f36af73a7a3fc183a557aad0ed51", "fusion_lon": 0.0}, {"rental_uris": {"ios": "https://dc.lft.to/lastmile_qr_scan", "android": "https://dc.lft.to/lastmile_qr_scan"}, "type": "electric_bike", "name": "81dad6a9be94b7d0bc92c0d69e02c9b8", "is_reserved": 0, "lon": -77.04332933333333, "is_disabled": 0, "fusion_lat": 0.0, "lat": 38.922400333333336, "bike_id": "81dad6a9be94b7d0bc92c0d69e02c9b8", "fusion_lon": 0.0}, {"rental_uris": {"ios": "https://dc.lft.to/lastmile_qr_scan", "android": "https://dc.lft.to/lastmile_qr_scan"}, "type": "electric_scooter", "name": "c9d23928d548d20420a984457b705f9c", "is_reserved": 0, "lon": -77.03450933333333, "is_disabled": 0, "fusion_lat": 0.0, "lat": 38.908254, "bike_id": "c9d23928d548d20420a984457b705f9c", "fusion_lon": 0.0}, {"rental_uris": {"ios": "https://dc.lft.to/lastmile_qr_scan", "android": "https://dc.lft.to/lastmile_qr_scan"}, "type": "electric_scooter", "name": "09af52eb63946bc6ffc25e6a2d0c051d", "is_reserved": 0, "lon": -77.04226283333334, "is_disabled": 0, "fusion_lat": 0.0, "lat": 38.92169283333333, "bike_id": "09af52eb63946bc6ffc25e6a2d0c051d", "fusion_lon": 0.0}, {"rental_uris": {"ios": "https://dc.lft.to/lastmile_qr_scan", "android": "https://dc.lft.to/lastmile_qr_scan"}, "type": "electric_scooter", "name": "124c47356fe12703a20d5cb3e4c5f447", "is_reserved": 0, "lon": -77.02277783333334, "is_disabled": 0, "fusion_lat": 0.0, "lat": 38.892232166666666, "bike_id": "124c47356fe12703a20d5cb3e4c5f447", "fusion_lon": 0.0}, {"rental_uris": {"ios": "https://dc.lft.to/lastmile_qr_scan", "android": "https://dc.lft.to/lastmile_qr_scan"}, "type": "electric_scooter", "name": "e4d2779c3ee7adf7342016aa26e767a4", "is_reserved": 0, "lon": -77.04250883333333, "is_disabled": 0, "fusion_lat": 0.0, "lat": 38.922353333333334, "bike_id": "e4d2779c3ee7adf7342016aa26e767a4", "fusion_lon": 0.0}, {"rental_uris": {"ios": "https://dc.lft.to/lastmile_qr_scan", "android": "https://dc.lft.to/lastmile_qr_scan"}, "type": "electric_scooter", "name": "cc00f9583bfe46263432832ce467f7ac", "is_reserved": 0, "lon": -77.04759883333334, "is_disabled": 0, "fusion_lat": 0.0, "lat": 38.912502333333336, "bike_id": "cc00f9583bfe46263432832ce467f7ac", "fusion_lon": 0.0}, {"rental_uris": {"ios": "https://dc.lft.to/lastmile_qr_scan", "android": "https://dc.lft.to/lastmile_qr_scan"}, "type": "electric_bike", "name": "8a8e3b07b148e3d1a5ecba17244920f1", "is_reserved": 0, "lon": -76.95161116666667, "is_disabled": 0, "fusion_lat": 0.0, "lat": 39.08442216666667, "bike_id": "8a8e3b07b148e3d1a5ecba17244920f1", "fusion_lon": 0.0}, {"rental_uris": {"ios": "https://dc.lft.to/lastmile_qr_scan", "android": "https://dc.lft.to/lastmile_qr_scan"}, "type": "electric_scooter", "name": "86beff418ebda06db2f31b34ec2e596b", "is_reserved": 0, "lon": -77.0138975, "is_disabled": 0, "fusion_lat": 0.0, "lat": 38.91953516666667, "bike_id": "86beff418ebda06db2f31b34ec2e596b", "fusion_lon": 0.0}, {"rental_uris": {"ios": "https://dc.lft.to/lastmile_qr_scan", "android": "https://dc.lft.to/lastmile_qr_scan"}, "type": "electric_scooter", "name": "d261b08ce089aa96930f579164e61b94", "is_reserved": 0, "lon": -77.0195205, "is_disabled": 0, "fusion_lat": 0.0, "lat": 38.950455166666664, "bike_id": "d261b08ce089aa96930f579164e61b94", "fusion_lon": 0.0}, {"rental_uris": {"ios": "https://dc.lft.to/lastmile_qr_scan", "android": "https://dc.lft.to/lastmile_qr_scan"}, "type": "electric_scooter", "name": "27c1b60f2fbaa3953c49b21391bcb435", "is_reserved": 0, "lon": -77.02653766666667, "is_disabled": 0, "fusion_lat": 0.0, "lat": 38.896188, "bike_id": "27c1b60f2fbaa3953c49b21391bcb435", "fusion_lon": 0.0}, {"rental_uris": {"ios": "https://dc.lft.to/lastmile_qr_scan", "android": "https://dc.lft.to/lastmile_qr_scan"}, "type": "electric_scooter", "name": "da3016aad8df4ee862457770780512d2", "is_reserved": 0, "lon": -77.00157066666667, "is_disabled": 0, "fusion_lat": 0.0, "lat": 38.82135233333333, "bike_id": "da3016aad8df4ee862457770780512d2", "fusion_lon": 0.0}, {"rental_uris": {"ios": "https://dc.lft.to/lastmile_qr_scan", "android": "https://dc.lft.to/lastmile_qr_scan"}, "type": "electric_scooter", "name": "33b8aac3766a50038381742bc0183ec3", "is_reserved": 0, "lon": -76.9994335, "is_disabled": 0, "fusion_lat": 0.0, "lat": 38.891091833333334, "bike_id": "33b8aac3766a50038381742bc0183ec3", "fusion_lon": 0.0}, {"rental_uris": {"ios": "https://dc.lft.to/lastmile_qr_scan", "android": "https://dc.lft.to/lastmile_qr_scan"}, "type": "electric_scooter", "name": "bc6d2c8456a9a5784067a38f8be1715c", "is_reserved": 0, "lon": -77.0755715, "is_disabled": 0, "fusion_lat": 0.0, "lat": 38.90616716666667, "bike_id": "bc6d2c8456a9a5784067a38f8be1715c", "fusion_lon": 0.0}, {"rental_uris": {"ios": "https://dc.lft.to/lastmile_qr_scan", "android": "https://dc.lft.to/lastmile_qr_scan"}, "type": "electric_scooter", "name": "f486266e2ccb73c0c9963f48cfb58171", "is_reserved": 0, "lon": -77.0172485, "is_disabled": 0, "fusion_lat": 0.0, "lat": 38.89228266666667, "bike_id": "f486266e2ccb73c0c9963f48cfb58171", "fusion_lon": 0.0}, {"rental_uris": {"ios": "https://dc.lft.to/lastmile_qr_scan", "android": "https://dc.lft.to/lastmile_qr_scan"}, "type": "electric_scooter", "name": "2e90c81f16015bca88e46f2c4adca1e9", "is_reserved": 0, "lon": -77.0294975, "is_disabled": 0, "fusion_lat": 0.0, "lat": 38.898677166666666, "bike_id": "2e90c81f16015bca88e46f2c4adca1e9", "fusion_lon": 0.0}, {"rental_uris": {"ios": "https://dc.lft.to/lastmile_qr_scan", "android": "https://dc.lft.to/lastmile_qr_scan"}, "type": "electric_scooter", "name": "95cf4d0100d0d420902b61b91e55b626", "is_reserved": 0, "lon": -77.07232066666667, "is_disabled": 0, "fusion_lat": 0.0, "lat": 38.93433016666667, "bike_id": "95cf4d0100d0d420902b61b91e55b626", "fusion_lon": 0.0}, {"rental_uris": {"ios": "https://dc.lft.to/lastmile_qr_scan", "android": "https://dc.lft.to/lastmile_qr_scan"}, "type": "electric_scooter", "name": "c2282c6ed42ebf9f33dc057c5c338847", "is_reserved": 0, "lon": -77.03070633333333, "is_disabled": 0, "fusion_lat": 0.0, "lat": 38.8984135, "bike_id": "c2282c6ed42ebf9f33dc057c5c338847", "fusion_lon": 0.0}, {"rental_uris": {"ios": "https://dc.lft.to/lastmile_qr_scan", "android": "https://dc.lft.to/lastmile_qr_scan"}, "type": "electric_bike", "name": "99d6ffb573ee4b8023f59c85119fe59b", "is_reserved": 0, "lon": -76.9754865, "is_disabled": 0, "fusion_lat": 0.0, "lat": 38.904276833333334, "bike_id": "99d6ffb573ee4b8023f59c85119fe59b", "fusion_lon": 0.0}, {"rental_uris": {"ios": "https://dc.lft.to/lastmile_qr_scan", "android": "https://dc.lft.to/lastmile_qr_scan"}, "type": "electric_scooter", "name": "ab80d2f256e37347c4a1a24b83de4172", "is_reserved": 0, "lon": -77.051275, "is_disabled": 0, "fusion_lat": 0.0, "lat": 38.902299666666664, "bike_id": "ab80d2f256e37347c4a1a24b83de4172", "fusion_lon": 0.0}, {"rental_uris": {"ios": "https://dc.lft.to/lastmile_qr_scan", "android": "https://dc.lft.to/lastmile_qr_scan"}, "type": "electric_scooter", "name": "12092db473b5f5871e38e4556c949b86", "is_reserved": 0, "lon": -76.94653366666667, "is_disabled": 0, "fusion_lat": 0.0, "lat": 38.89830083333333, "bike_id": "12092db473b5f5871e38e4556c949b86", "fusion_lon": 0.0},