{"data": {"bikes": [{"bike_id": "3f4f6f44c0aea8d30340f033cfcfc3f4", "type": "electric_scooter", "is_disabled": 0, "lat": 38.902662666666664, "rental_uris": {"ios": "https://dc.lft.to/lastmile_qr_scan", "android": "https://dc.lft.to/lastmile_qr_scan"}, "is_reserved": 0, "fusion_lon": 0.0, "fusion_lat": 0.0, "lon": -77.0032235, "name": "3f4f6f44c0aea8d30340f033cfcfc3f4"}, {"bike_id": "254ca5305794115c84e0b60c0bb3c64b", "type": "electric_scooter", "is_disabled": 0, "lat": 38.918859, "rental_uris": {"ios": "https://dc.lft.to/lastmile_qr_scan", "android": "https://dc.lft.to/lastmile_qr_scan"}, "is_reserved": 0, "fusion_lon": 0.0, "fusion_lat": 0.0, "lon": -77.03486283333334, "name": "254ca5305794115c84e0b60c0bb3c64b"}, {"bike_id": "82a2c13714e036cc25d10865e27bdaa9", "type": "electric_scooter", "is_disabled": 0, "lat": 38.865154, "rental_uris": {"ios": "https://dc.lft.to/lastmile_qr_scan", "android": "https://dc.lft.to/lastmile_qr_scan"}, "is_reserved": 0, "fusion_lon": 0.0, "fusion_lat": 0.0, "lon": -76.99016383333333, "name": "82a2c13714e036cc25d10865e27bdaa9"}, {"bike_id": "bd18a46c53e23a853df9283c37f78458", "type": "electric_scooter", "is_disabled": 0, "lat": 38.92231433333333, "rental_uris": {"ios": "https://dc.lft.to/lastmile_qr_scan", "android": "https://dc.lft.to/lastmile_qr_scan"}, "is_reserved": 0, "fusion_lon": 0.0, "fusion_lat": 0.0, "lon": -77.0441895, "name": "bd18a46c53e23a853df9283c37f78458"}, {"bike_id": "1b1b1e6e69d9fb9d1756fe247b140e87", "type": "electric_scooter", "is_disabled": 0, "lat": 38.89966283333333, "rental_uris": {"ios": "https://dc.lft.to/lastmile_qr_scan", "android": "https://dc.lft.to/lastmile_qr_scan"}, "is_reserved": 0, "fusion_lon": 0.0, "fusion_lat": 0.0, "lon": -77.0238235, "name": "1b1b1e6e69d9fb9d1756fe247b140e87"}, {"bike_id": "d00fc2cbb24b8c3c359fcc3050a56525", "type": "electric_scooter", "is_disabled": 0, "lat": 38.90797366666666, "rental_uris": {"ios": "https://dc.lft.to/lastmile_qr_scan", "android": "https://dc.lft.to/lastmile_qr_scan"}, "is_reserved": 0, "fusion_lon": 0.0, "fusion_lat": 0.0, "lon": -77.01015083333333, "name": "d00fc2cbb24b8c3c359fcc3050a56525"}, {"bike_id": "8802c0769924b40ac05c85898c688a26", "type": "electric_scooter", "is_disabled": 0, "lat": 38.923646, "rental_uris": {"ios": "https://dc.lft.to/lastmile_qr_scan", "android": "https://dc.lft.to/lastmile_qr_scan"}, "is_reserved": 0, "fusion_lon": 0.0, "fusion_lat": 0.0, "lon": -77.0512645, "name": "8802c0769924b40ac05c85898c688a26"}, {"bike_id": "ed4c326ed7ecad2a07d4fdfc2881e580", "type": "electric_scooter", "is_disabled": 0, "lat": 38.917012666666665, "rental_uris": {"ios": "https://dc.lft.to/lastmile_qr_scan", "android": "https://dc.lft.to/lastmile_qr_scan"}, "is_reserved": 0, "fusion_lon": 0.0, "fusion_lat": 0.0, "lon": -77.01052616666666, "name": "ed4c326ed7ecad2a07d4fdfc2881e580"}, {"bike_id": "66f582044070961dd803c9190d927e7f", "type": "electric_scooter", "is_disabled": 0, "lat": 38.902044, "rental_uris": {"ios": "https://dc.lft.to/lastmile_qr_scan", "android": "https://dc.lft.to/lastmile_qr_scan"}, "is_reserved": 0, "fusion_lon": 0.0, "fusion_lat": 0.0, "lon": -77.05115133333334, "name": "66f582044070961dd803c9190d927e7f"}, {"bike_id": "9fa7a054eecde3a2c2046a3b5b5b2231", "type": "electric_scooter", "is_disabled": 0, "lat": 38.928616, "rental_uris": {"ios": "https://dc.lft.to/lastmile_qr_scan", "android": "https://dc.lft.to/lastmile_qr_scan"}, "is_reserved": 0, "fusion_lon": 0.0, "fusion_lat": 0.0, "lon": -77.037125, "name": "9fa7a054eecde3a2c2046a3b5b5b2231"}, {"bike_id": "fb975289e5315a7643ac006ee68097bb", "type": "electric_scooter", "is_disabled": 0, "lat": 38.940587666666666, "rental_uris": {"ios": "https://dc.lft.to/lastmile_qr_scan", "android": "https://dc.lft.to/lastmile_qr_scan"}, "is_reserved": 0, "fusion_lon": 0.0, "fusion_lat": 0.0, "lon": -77.02979466666666, "name": "fb975289e5315a7643ac006ee68097bb"}, {"bike_id": "a9f77579fa803590e0b44f9e36cc2d9e", "type": "electric_scooter", "is_disabled": 0, "lat": 38.922219, "rental_uris": {"ios": "https://dc.lft.to/lastmile_qr_scan", "android": "https://dc.lft.to/lastmile_qr_scan"}, "is_reserved": 0, "fusion_lon": 0.0, "fusion_lat": 0.0, "lon": -77.02662716666667, "name": "a9f77579fa803590e0b44f9e36cc2d9e"}, {"bike_id": "8bb9cc462bd36f769a15f89872bb0cb1", "type": "electric_scooter", "is_disabled": 0, "lat": 38.918975333333336, "rental_uris": {"ios": "https://dc.lft.to/lastmile_qr_scan", "android": "https://dc.lft.to/lastmile_qr_scan"}, "is_reserved": 0, "fusion_lon": 0.0, "fusion_lat": 0.0, "lon": -77.00312183333334, "name": "8bb9cc462bd36f769a15f89872bb0cb1"}, {"bike_id": "6ca79366042aae41ce280366c49ea65f", "type": "electric_scooter", "is_disabled": 0, "lat": 38.9168615, "rental_uris": {"ios": "https://dc.lft.to/lastmile_qr_scan", "android": "https://dc.lft.to/lastmile_qr_scan"}, "is_reserved": 0, "fusion_lon": 0.0, "fusion_lat": 0.0, "lon": -77.022822, "name": "6ca79366042aae41ce280366c49ea65f"}, {"bike_id": "7cd9e9e9b3fe976d18de14f7af32162f", "type": "electric_scooter", "is_disabled": 0, "lat": 38.9000655, "rental_uris": {"ios": "https://dc.lft.to/lastmile_qr_scan", "android": "https://dc.lft.to/lastmile_qr_scan"}, "is_reserved": 0, "fusion_lon": 0.0, "fusion_lat": 0.0, "lon": -77.053366, "name": "7cd9e9e9b3fe976d18de14f7af32162f"}, {"bike_id": "adedacd909dd5aa823ea5a68774d3063", "type": "electric_scooter", "is_disabled": 0, "lat": 38.942095, "rental_uris": {"ios": "https://dc.lft.to/lastmile_qr_scan", "android": "https://dc.lft.to/lastmile_qr_scan"}, "is_reserved": 0, "fusion_lon": 0.0, "fusion_lat": 0.0, "lon": -77.0258495, "name": "adedacd909dd5aa823ea5a68774d3063"}, {"bike_id": "3c9cf1726e978f6da836557ba7b35ca3", "type": "electric_scooter", "is_disabled": 0, "lat": 38.90641433333333, "rental_uris": {"ios": "https://dc.lft.to/lastmile_qr_scan", "android": "https://dc.lft.to/lastmile_qr_scan"}, "is_reserved": 0, "fusion_lon": 0.0, "fusion_lat": 0.0, "lon": -77.01433016666667, "name": "3c9cf1726e978f6da836557ba7b35ca3"}, {"bike_id": "66803713da205adf1ccbc08fed77a6ff", "type": "electric_scooter", "is_disabled": 0, "lat": 38.905044, "rental_uris": {"ios": "https://dc.lft.to/lastmile_qr_scan", "android": "https://dc.lft.to/lastmile_qr_scan"}, "is_reserved": 0, "fusion_lon": 0.0, "fusion_lat": 0.0, "lon": -77.03854, "name": "66803713da205adf1ccbc08fed77a6ff"}, {"bike_id": "30c66aaa4d058232a7be507891baa3da", "type": "electric_scooter", "is_disabled": 0, "lat": 38.902238, "rental_uris": {"ios": "https://dc.lft.to/lastmile_qr_scan", "android": "https://dc.lft.to/lastmile_qr_scan"}, "is_reserved": 0, "fusion_lon": 0.0, "fusion_lat": 0.0, "lon": -77.02214616666667, "name": "30c66aaa4d058232a7be507891baa3da"}, {"bike_id": "cd05951c0b5d9d24d229bb5788f68f89", "type": "electric_scooter", "is_disabled": 0, "lat": 38.91063883333333, "rental_uris": {"ios": "https://dc.lft.to/lastmile_qr_scan", "android": "https://dc.lft.to/lastmile_qr_scan"}, "is_reserved": 0, "fusion_lon": 0.0, "fusion_lat": 0.0, "lon": -77.03712816666666, "name": "cd05951c0b5d9d24d229bb5788f68f89"}, {"bike_id": "347b181c883f0da218637d7fd50a7916", "type": "electric_scooter", "is_disabled": 0, "lat": 38.936393333333335, "rental_uris": {"ios": "https://dc.lft.to/lastmile_qr_scan", "android": "https://dc.lft.to/lastmile_qr_scan"}, "is_reserved": 0, "fusion_lon": 0.0, "fusion_lat": 0.0, "lon": -77.058793, "name": "347b181c883f0da218637d7fd50a7916"}, {"bike_id": "76c50bd718a3ad67aaeccf1df5b33917", "type": "electric_scooter", "is_disabled": 0, "lat": 38.885190333333334, "rental_uris": {"ios": "https://dc.lft.to/lastmile_qr_scan", "android": "https://dc.lft.to/lastmile_qr_scan"}, "is_reserved": 0, "fusion_lon": 0.0, "fusion_lat": 0.0, "lon": -77.02821333333333, "name": "76c50bd718a3ad67aaeccf1df5b33917"}, {"bike_id": "1bc51a00baadd2b06f16ec4c16a85dec", "type": "electric_scooter", "is_disabled": 0, "lat": 38.914564, "rental_uris": {"ios": "https://dc.lft.to/lastmile_qr_scan", "android": "https://dc.lft.to/lastmile_qr_scan"}, "is_reserved": 0, "fusion_lon": 0.0, "fusion_lat": 0.0, "lon": -77.07267233333333, "name": "1bc51a00baadd2b06f16ec4c16a85dec"}, {"bike_id": "c915f0b7e64b7e880af4e8d9b27fc371", "type": "electric_scooter", "is_disabled": 0, "lat": 38.923399833333335, "rental_uris": {"ios": "https://dc.lft.to/lastmile_qr_scan", "android": "https://dc.lft.to/lastmile_qr_scan"}, "is_reserved": 0, "fusion_lon": 0.0, "fusion_lat": 0.0, "lon": -77.05046866666666, "name": "c915f0b7e64b7e880af4e8d9b27fc371"}, {"bike_id": "8759b26e1ec021673d223ebf2e564e02", "type": "electric_scooter", "is_disabled": 0, "lat": 38.86514733333333, "rental_uris": {"ios": "https://dc.lft.to/lastmile_qr_scan", "android": "https://dc.lft.to/lastmile_qr_scan"}, "is_reserved": 0, "fusion_lon": 0.0, "fusion_lat": 0.0, "lon": -76.97427666666667, "name": "8759b26e1ec021673d223ebf2e564e02"}, {"bike_id": "98dc1efc68f766e18a4603ebe56cfe3b", "type": "electric_scooter", "is_disabled": 0, "lat": 38.9000585, "rental_uris": {"ios": "https://dc.lft.to/lastmile_qr_scan", "android": "https://dc.lft.to/lastmile_qr_scan"}, "is_reserved": 0, "fusion_lon": 0.0, "fusion_lat": 0.0, "lon": -77.00674766666667, "name": "98dc1efc68f766e18a4603ebe56cfe3b"}, {"bike_id": "618e1be014be89972b8ff56ac4f318ef", "type": "electric_bike", "is_disabled": 0, "lat": 38.95615866666667, "rental_uris": {"ios": "https://dc.lft.to/lastmile_qr_scan", "android": "https://dc.lft.to/lastmile_qr_scan"}, "is_reserved": 0, "fusion_lon": 0.0, "fusion_lat": 0.0, "lon": -77.02592016666667, "name": "618e1be014be89972b8ff56ac4f318ef"}, {"bike_id": "4c02adce6671d26a581e7f2b64ab105e", "type": "electric_scooter", "is_disabled": 0, "lat": 38.87096916666667, "rental_uris": {"ios": "https://dc.lft.to/lastmile_qr_scan", "android": "https://dc.lft.to/lastmile_qr_scan"}, "is_reserved": 0, "fusion_lon": 0.0, "fusion_lat": 0.0, "lon": -77.00805333333334, "name": "4c02adce6671d26a581e7f2b64ab105e"}, {"bike_id": "bcef46fd302ded0c09862443bb0a6038", "type": "electric_scooter", "is_disabled": 0, "lat": 38.92121383333333, "rental_uris": {"ios": "https://dc.lft.to/lastmile_qr_scan", "android": "https://dc.lft.to/lastmile_qr_scan"}, "is_reserved": 0, "fusion_lon": 0.0, "fusion_lat": 0.0, "lon": -77.04424666666667, "name": "bcef46fd302ded0c09862443bb0a6038"}, {"bike_id": "aa4211162caeeeaa57a8b9042ad45f50", "type": "electric_scooter", "is_disabled": 0, "lat": 38.91370333333333, "rental_uris": {"ios": "https://dc.lft.to/lastmile_qr_scan", "android": "https://dc.lft.to/lastmile_qr_scan"}, "is_reserved": 0, "fusion_lon": 0.0, "fusion_lat": 0.0, "lon": -77.03016283333334, "name": "aa4211162caeeeaa57a8b9042ad45f50"}, {"bike_id": "6dd6ab29afbf58310facb3fdcc00af90", "type": "electric_scooter", "is_disabled": 0, "lat": 38.91473383333334, "rental_uris": {"ios": "https://dc.lft.to/lastmile_qr_scan", "android": "https://dc.lft.to/lastmile_qr_scan"}, "is_reserved": 0, "fusion_lon": 0.0, "fusion_lat": 0.0, "lon": -77.00919333333333, "name": "6dd6ab29afbf58310facb3fdcc00af90"}, {"bike_id": "e8e95a98556393abebd0b26ae7d5233e", "type": "electric_scooter", "is_disabled": 0, "lat": 38.902653, "rental_uris": {"ios": "https://dc.lft.to/lastmile_qr_scan", "android": "https://dc.lft.to/lastmile_qr_scan"}, "is_reserved": 0, "fusion_lon": 0.0, "fusion_lat": 0.0, "lon": -77.00321016666666, "name": "e8e95a98556393abebd0b26ae7d5233e"}, {"bike_id": "f60a4c0c1179d0b32af7fcb4920c5c5c", "type": "electric_scooter", "is_disabled": 0, "lat": 38.916146833333336, "rental_uris": {"ios": "https://dc.lft.to/lastmile_qr_scan", "android": "https://dc.lft.to/lastmile_qr_scan"}, "is_reserved": 0, "fusion_lon": 0.0, "fusion_lat": 0.0, "lon": -77.04491766666666, "name": "f60a4c0c1179d0b32af7fcb4920c5c5c"}, {"bike_id": "e5e7bdfa86a6fc9c1e1e96891273f50d", "type": "electric_scooter", "is_disabled": 0, "lat": 38.9449545, "rental_uris": {"ios": "https://dc.lft.to/lastmile_qr_scan", "android": "https://dc.lft.to/lastmile_qr_scan"}, "is_reserved": 0, "fusion_lon": 0.0, "fusion_lat": 0.0, "lon": -77.02617983333333, "name": "e5e7bdfa86a6fc9c1e1e96891273f50d"}, {"bike_id": "6e527acd68a3c77764b5a88870544f98", "type": "electric_scooter", "is_disabled": 0, "lat": 38.905038, "rental_uris": {"ios": "https://dc.lft.to/lastmile_qr_scan", "android": "https://dc.lft.to/lastmile_qr_scan"}, "is_reserved": 0, "fusion_lon": 0.0, "fusion_lat": 0.0, "lon": -77.0611255, "name": "6e527acd68a3c77764b5a88870544f98"}, {"bike_id": "16919baae6c9d8b2536df353265f68ba", "type": "electric_scooter", "is_disabled": 0, "lat": 38.916358833333334, "rental_uris": {"ios": "https://dc.lft.to/lastmile_qr_scan", "android": "https://dc.lft.to/lastmile_qr_scan"}, "is_reserved": 0, "fusion_lon": 0.0, "fusion_lat": 0.0, "lon": -77.03724366666667, "name": "16919baae6c9d8b2536df353265f68ba"}, {"bike_id": "f328de98247de528a567140cf8f01948", "type": "electric_scooter", "is_disabled": 0, "lat": 38.923876666666665, "rental_uris": {"ios": "https://dc.lft.to/lastmile_qr_scan", "android": "https://dc.lft.to/lastmile_qr_scan"}, "is_reserved": 0, "fusion_lon": 0.0, "fusion_lat": 0.0, "lon": -77.0268645, "name": "f328de98247de528a567140cf8f01948"}, {"bike_id": "8d3b2c9aaf62ab126fa39c57b7a6582c", "type": "electric_scooter", "is_disabled": 0, "lat": 38.924881, "rental_uris": {"ios": "https://dc.lft.to/lastmile_qr_scan", "android": "https://dc.lft.to/lastmile_qr_scan"}, "is_reserved": 0, "fusion_lon": 0.0, "fusion_lat": 0.0, "lon": -77.02193533333333, "name": "8d3b2c9aaf62ab126fa39c57b7a6582c"}, {"bike_id": "bd6256e0c99053ca689e83990e899fb8", "type": "electric_bike", "is_disabled": 0, "lat": 38.978831666666665, "rental_uris": {"ios": "https://dc.lft.to/lastmile_qr_scan", "android": "https://dc.lft.to/lastmile_qr_scan"}, "is_reserved": 0, "fusion_lon": 0.0, "fusion_lat": 0.0, "lon": -77.0602845, "name": "bd6256e0c99053ca689e83990e899fb8"}, {"bike_id": "b10ad164a0184c559af1f3746f113acb", "type": "electric_scooter", "is_disabled": 0, "lat": 38.93534966666667, "rental_uris": {"ios": "https://dc.lft.to/lastmile_qr_scan", "android": "https://dc.lft.to/lastmile_qr_scan"}, "is_reserved": 0, "fusion_lon": 0.0, "fusion_lat": 0.0, "lon": -77.02347983333334, "name": "b10ad164a0184c559af1f3746f113acb"}, {"bike_id": "f452a39316dea5e573b12baf37d87411", "type": "electric_scooter", "is_disabled": 0, "lat": 38.9509915, "rental_uris": {"ios": "https://dc.lft.to/lastmile_qr_scan", "android": "https://dc.lft.to/lastmile_qr_scan"}, "is_reserved": 0, "fusion_lon": 0.0, "fusion_lat": 0.0, "lon": -77.02965266666666, "name": "f452a39316dea5e573b12baf37d87411"}, {"bike_id": "71e650dfd4430a3cbcd3df1db9304b3c", "type": "electric_scooter", "is_disabled": 0, "lat": 38.91802466666667, "rental_uris": {"ios": "https://dc.lft.to/lastmile_qr_scan", "android": "https://dc.lft.to/lastmile_qr_scan"}, "is_reserved": 0, "fusion_lon": 0.0, "fusion_lat": 0.0, "lon": -77.03440033333334, "name": "71e650dfd4430a3cbcd3df1db9304b3c"}, {"bike_id": "2b33a225b605245a646008990533d708", "type": "electric_scooter", "is_disabled": 0, "lat": 38.90514533333333, "rental_uris": {"ios": "https://dc.lft.to/lastmile_qr_scan", "android": "https://dc.lft.to/lastmile_qr_scan"}, "is_reserved": 0, "fusion_lon": 0.0, "fusion_lat": 0.0, "lon": -77.06205116666666, "name": "2b33a225b605245a646008990533d708"}, {"bike_id": "db9bd40d23a7ccf15aa21ff3e3e32fb2", "type": "electric_scooter", "is_disabled": 0, "lat": 38.89624883333333, "rental_uris": {"ios": "https://dc.lft.to/lastmile_qr_scan", "android": "https://dc.lft.to/lastmile_qr_scan"}, "is_reserved": 0, "fusion_lon": 0.0, "fusion_lat": 0.0, "lon": -76.985672, "name": "db9bd40d23a7ccf15aa21ff3e3e32fb2"}, {"bike_id": "f6afb8205d7344da1e8996cf47a461fa", "type": "electric_scooter", "is_disabled": 0, "lat": 38.901365, "rental_uris": {"ios": "https://dc.lft.to/lastmile_qr_scan", "android": "https://dc.lft.to/lastmile_qr_scan"}, "is_reserved": 0, "fusion_lon": 0.0, "fusion_lat": 0.0, "lon": -77.00855583333333, "name": "f6afb8205d7344da1e8996cf47a461fa"}, {"bike_id": "19916193b391bae927c85fc021befe9c", "type": "electric_scooter", "is_disabled": 0, "lat": 38.905368, "rental_uris": {"ios": "https://dc.lft.to/lastmile_qr_scan", "android": "https://dc.lft.to/lastmile_qr_scan"}, "is_reserved": 0, "fusion_lon": 0.0, "fusion_lat": 0.0, "lon": -77.02943866666666, "name": "19916193b391bae927c85fc021befe9c"}, {"bike_id": "6475a4633cc1b7fca6e6b196f623f91e", "type": "electric_scooter", "is_disabled": 0, "lat": 38.9119125, "rental_uris": {"ios": "https://dc.lft.to/lastmile_qr_scan", "android": "https://dc.lft.to/lastmile_qr_scan"}, "is_reserved": 0, "fusion_lon": 0.0, "fusion_lat": 0.0, "lon": -77.04566833333334, "name": "6475a4633cc1b7fca6e6b196f623f91e"}, {"bike_id": "ec43e182fdc3e844ba2bf17bba48af73", "type": "electric_scooter", "is_disabled": 0, "lat": 38.9168975, "rental_uris": {"ios": "https://dc.lft.to/lastmile_qr_scan", "android": "https://dc.lft.to/lastmile_qr_scan"}, "is_reserved": 0, "fusion_lon": 0.0, "fusion_lat": 0.0, "lon": -77.02516266666666, "name": "ec43e182fdc3e844ba2bf17bba48af73"}, {"bike_id": "151b7a9dbb2a4795a2d91ac8c428b181", "type": "electric_scooter", "is_disabled": 0, "lat": 38.946242166666664, "rental_uris": {"ios": "https://dc.lft.to/lastmile_qr_scan", "android": "https://dc.lft.to/lastmile_qr_scan"}, "is_reserved": 0, "fusion_lon": 0.0, "fusion_lat": 0.0, "lon": -77.02655383333334, "name": "151b7a9dbb2a4795a2d91ac8c428b181"}, {"bike_id": "5b83adec4146602b0f4aeb14d9e540bf", "type": "electric_scooter", "is_disabled": 0, "lat": 38.90532066666667, "rental_uris": {"ios": "https://dc.lft.to/lastmile_qr_scan", "android": "https://dc.lft.to/lastmile_qr_scan"}, "is_reserved": 0, "fusion_lon": 0.0, "fusion_lat": 0.0, "lon": -77.04159616666666, "name": "5b83adec4146602b0f4aeb14d9e540bf"}, {"bike_id": "f4540b42d48b77052b4234204c10ff49", "type": "electric_scooter", "is_disabled": 0, "lat": 38.92356183333333, "rental_uris": {"ios": "https://dc.lft.to/lastmile_qr_scan", "android": "https://dc.lft.to/lastmile_qr_scan"}, "is_reserved": 0, "fusion_lon": 0.0, "fusion_lat": 0.0, "lon": -77.04150483333333, "name": "f4540b42d48b77052b4234204c10ff49"}, {"bike_id": "9d1754b6285dcebf9f9384471b3e1a0a", "type": "electric_bike", "is_disabled": 0, "lat": 38.861967, "rental_uris": {"ios": "https://dc.lft.to/lastmile_qr_scan", "android": "https://dc.lft.to/lastmile_qr_scan"}, "is_reserved": 0, "fusion_lon": 0.0, "fusion_lat": 0.0, "lon": -76.948001, "name": "9d1754b6285dcebf9f9384471b3e1a0a"}, {"bike_id": "e4f0578c59b14cb2ce36691709396914", "type": "electric_scooter", "is_disabled": 0, "lat": 38.90408933333333, "rental_uris": {"ios": "https://dc.lft.to/lastmile_qr_scan", "android": "https://dc.lft.to/lastmile_qr_scan"}, "is_reserved": 0, "fusion_lon": 0.0, "fusion_lat": 0.0, "lon": -77.005744, "name": "e4f0578c59b14cb2ce36691709396914"}, {"bike_id": "a7efa67e635e660c2018f1b393df3084", "type": "electric_scooter", "is_disabled": 0, "lat": 38.92013466666667, "rental_uris": {"ios": "https://dc.lft.to/lastmile_qr_scan", "android": "https://dc.lft.to/lastmile_qr_scan"}, "is_reserved": 0, "fusion_lon": 0.0, "fusion_lat": 0.0, "lon": -77.0316275, "name": "a7efa67e635e660c2018f1b393df3084"}, {"bike_id": "0e0cf639127f1886917b43cd2a63ec12", "type": "electric_scooter", "is_disabled": 0, "lat": 38.9310315, "rental_uris": {"ios": "https://dc.lft.to/lastmile_qr_scan", "android": "https://dc.lft.to/lastmile_qr_scan"}, "is_reserved": 0, "fusion_lon": 0.0, "fusion_lat": 0.0, "lon": -77.026673, "name": "0e0cf639127f1886917b43cd2a63ec12"}, {"bike_id": "5624db7146bc765fbba5c6c4e46c9176", "type": "electric_bike", "is_disabled": 0, "lat": 38.8549265, "rental_uris": {"ios": "https://dc.lft.to/lastmile_qr_scan", "android": "https://dc.lft.to/lastmile_qr_scan"}, "is_reserved": 0, "fusion_lon": 0.0, "fusion_lat": 0.0, "lon": -77.116148, "name": "5624db7146bc765fbba5c6c4e46c9176"}, {"bike_id": "c280d48d6e20637dd43af803340d5bea", "type": "electric_scooter", "is_disabled": 0, "lat": 38.92568716666667, "rental_uris": {"ios": "https://dc.lft.to/lastmile_qr_scan", "android": "https://dc.lft.to/lastmile_qr_scan"}, "is_reserved": 0, "fusion_lon": 0.0, "fusion_lat": 0.0, "lon": -77.05249883333333, "name": "c280d48d6e20637dd43af803340d5bea"}, {"bike_id": "a23fb9bbe888b27cb82b4abd70cf8d0e", "type": "electric_scooter", "is_disabled": 0, "lat": 38.90955016666667, "rental_uris": {"ios": "https://dc.lft.to/lastmile_qr_scan", "android": "https://dc.lft.to/lastmile_qr_scan"}, "is_reserved": 0, "fusion_lon": 0.0, "fusion_lat": 0.0, "lon": -77.04867066666667, "name": "a23fb9bbe888b27cb82b4abd70cf8d0e"}, {"bike_id": "127c549d07f45af8e5fac2ec2c1a6aea", "type": "electric_scooter", "is_disabled": 0, "lat": 38.9201255, "rental_uris": {"ios": "https://dc.lft.to/lastmile_qr_scan", "android": "https://dc.lft.to/lastmile_qr_scan"}, "is_reserved": 0, "fusion_lon": 0.0, "fusion_lat": 0.0, "lon": -77.0238685, "name": "127c549d07f45af8e5fac2ec2c1a6aea"}, {"bike_id": "e9741ef9597ac88917ac6923480945d4", "type": "electric_scooter", "is_disabled": 0, "lat": 38.89536, "rental_uris": {"ios": "https://dc.lft.to/lastmile_qr_scan", "android": "https://dc.lft.to/lastmile_qr_scan"}, "is_reserved": 0, "fusion_lon": 0.0, "fusion_lat": 0.0, "lon": -76.9947175, "name": "e9741ef9597ac88917ac6923480945d4"}, {"bike_id": "ac62fe70681cd9254814087ccb3c4c86", "type": "electric_scooter", "is_disabled": 0, "lat": 38.918769, "rental_uris": {"ios": "https://dc.lft.to/lastmile_qr_scan", "android": "https://dc.lft.to/lastmile_qr_scan"}, "is_reserved": 0, "fusion_lon": 0.0, "fusion_lat": 0.0, "lon": -77.07034883333333, "name": "ac62fe70681cd9254814087ccb3c4c86"}, {"bike_id": "e68cd2d1ff37b4aedb5b5194373b98d5", "type": "electric_bike", "is_disabled": 0, "lat": 38.85541083333333, "rental_uris": {"ios": "https://dc.lft.to/lastmile_qr_scan", "android": "https://dc.lft.to/lastmile_qr_scan"}, "is_reserved": 0, "fusion_lon": 0.0, "fusion_lat": 0.0, "lon": -77.1201675, "name": "e68cd2d1ff37b4aedb5b5194373b98d5"}, {"bike_id": "681c76817c4b2fa99e4ad35949e85ee3", "type": "electric_scooter", "is_disabled": 0, "lat": 38.900413666666665, "rental_uris": {"ios": "https://dc.lft.to/lastmile_qr_scan", "android": "https://dc.lft.to/lastmile_qr_scan"}, "is_reserved": 0, "fusion_lon": 0.0, "fusion_lat": 0.0, "lon": -77.03415616666666, "name": "681c76817c4b2fa99e4ad35949e85ee3"}, {"bike_id": "03f7478099754c5273f71cb4031db269", "type": "electric_bike", "is_disabled": 0, "lat": 38.99329183333333, "rental_uris": {"ios": "https://dc.lft.to/lastmile_qr_scan", "android": "https://dc.lft.to/lastmile_qr_scan"}, "is_reserved": 0, "fusion_lon": 0.0, "fusion_lat": 0.0, "lon": -76.94613166666667, "name": "03f7478099754c5273f71cb4031db269"}, {"bike_id": "076d84d5201dc9eb3ce8e57cd923f254", "type": "electric_scooter", "is_disabled": 0, "lat": 38.913994333333335, "rental_uris": {"ios": "https://dc.lft.to/lastmile_qr_scan", "android": "https://dc.lft.to/lastmile_qr_scan"}, "is_reserved": 0, "fusion_lon": 0.0, "fusion_lat": 0.0, "lon": -76.98194833333334, "name": "076d84d5201dc9eb3ce8e57cd923f254"}, {"bike_id": "34f49860bb4a063ab76384d97b9629d2", "type": "electric_scooter", "is_disabled": 0, "lat": 38.9068565, "rental_uris": {"ios": "https://dc.lft.to/lastmile_qr_scan", "android": "https://dc.lft.to/lastmile_qr_scan"}, "is_reserved": 0, "fusion_lon": 0.0, "fusion_lat": 0.0, "lon": -77.0269285, "name": "34f49860bb4a063ab76384d97b9629d2"}, {"bike_id": "4d233a0c29d89e84cb390d9aad6474e3", "type": "electric_scooter", "is_disabled": 0, "lat": 38.9096345, "rental_uris": {"ios": "https://dc.lft.to/lastmile_qr_scan", "android": "https://dc.lft.to/lastmile_qr_scan"}, "is_reserved": 0, "fusion_lon": 0.0, "fusion_lat": 0.0, "lon": -77.03947716666667, "name": "4d233a0c29d89e84cb390d9aad6474e3"}, {"bike_id": "e62d9c06ff421cb1e6525ad07f767719", "type": "electric_scooter", "is_disabled": 0, "lat": 38.92863666666667, "rental_uris": {"ios": "https://dc.lft.to/lastmile_qr_scan", "android": "https://dc.lft.to/lastmile_qr_scan"}, "is_reserved": 0, "fusion_lon": 0.0, "fusion_lat": 0.0, "lon": -77.0325085, "name": "e62d9c06ff421cb1e6525ad07f767719"}, {"bike_id": "4837e8fc8078a678a245fc1b7f4c123c", "type": "electric_scooter", "is_disabled": 0, "lat": 38.900281, "rental_uris": {"ios": "https://dc.lft.to/lastmile_qr_scan", "android": "https://dc.lft.to/lastmile_qr_scan"}, "is_reserved": 0, "fusion_lon": 0.0, "fusion_lat": 0.0, "lon": -77.0350435, "name": "4837e8fc8078a678a245fc1b7f4c123c"}, {"bike_id": "4e11cbc5b869090810705fd2702ec542", "type": "electric_scooter", "is_disabled": 0, "lat": 38.9297215, "rental_uris": {"ios": "https://dc.lft.to/lastmile_qr_scan", "android": "https://dc.lft.to/lastmile_qr_scan"}, "is_reserved": 0, "fusion_lon": 0.0, "fusion_lat": 0.0, "lon": -77.01688866666667, "name": "4e11cbc5b869090810705fd2702ec542"}, {"bike_id": "edb985591580dd57c3a43910f537ca9f", "type": "electric_scooter", "is_disabled": 0, "lat": 38.90577483333333, "rental_uris": {"ios": "https://dc.lft.to/lastmile_qr_scan", "android": "https://dc.lft.to/lastmile_qr_scan"}, "is_reserved": 0, "fusion_lon": 0.0, "fusion_lat": 0.0, "lon": -77.03033766666667, "name": "edb985591580dd57c3a43910f537ca9f"}, {"bike_id": "793c7ce9c8083154849cd33dcb161fbc", "type": "electric_scooter", "is_disabled": 0, "lat": 38.922066666666666, "rental_uris": {"ios": "https://dc.lft.to/lastmile_qr_scan", "android": "https://dc.lft.to/lastmile_qr_scan"}, "is_reserved": 0, "fusion_lon": 0.0, "fusion_lat": 0.0, "lon": -77.03896433333334, "name": "793c7ce9c8083154849cd33dcb161fbc"}, {"bike_id": "6c345596ff2dc46cf8aec70c6d2e77eb", "type": "electric_scooter", "is_disabled": 0, "lat": 38.902567, "rental_uris": {"ios": "https://dc.lft.to/lastmile_qr_scan", "android": "https://dc.lft.to/lastmile_qr_scan"}, "is_reserved": 0, "fusion_lon": 0.0, "fusion_lat": 0.0, "lon": -77.03838216666666, "name": "6c345596ff2dc46cf8aec70c6d2e77eb"}, {"bike_id": "105bfe3bc33eb65cca8008fd3c78b2ca", "type": "electric_scooter", "is_disabled": 0, "lat": 38.90611916666667, "rental_uris": {"ios": "https://dc.lft.to/lastmile_qr_scan", "android": "https://dc.lft.to/lastmile_qr_scan"}, "is_reserved": 0, "fusion_lon": 0.0, "fusion_lat": 0.0, "lon": -77.04105033333333, "name": "105bfe3bc33eb65cca8008fd3c78b2ca"}, {"bike_id": "ef5a3fbe19728ee669cade912229e1c0", "type": "electric_scooter", "is_disabled": 0, "lat": 38.934688666666666, "rental_uris": {"ios": "https://dc.lft.to/lastmile_qr_scan", "android": "https://dc.lft.to/lastmile_qr_scan"}, "is_reserved": 0, "fusion_lon": 0.0, "fusion_lat": 0.0, "lon": -77.028002, "name": "ef5a3fbe19728ee669cade912229e1c0"}, {"bike_id": "97d048c9b7e5ddddebe51e368f1aab42", "type": "electric_scooter", "is_disabled": 0, "lat": 38.874557, "rental_uris": {"ios": "https://dc.lft.to/lastmile_qr_scan", "android": "https://dc.lft.to/lastmile_qr_scan"}, "is_reserved": 0, "fusion_lon": 0.0, "fusion_lat": 0.0, "lon": -77.002985, "name": "97d048c9b7e5ddddebe51e368f1aab42"}, {"bike_id": "4045ce29486fdffd782ffd9b67d90934", "type": "electric_scooter", "is_disabled": 0, "lat": 38.862469, "rental_uris": {"ios": "https://dc.lft.to/lastmile_qr_scan", "android": "https://dc.lft.to/lastmile_qr_scan"}, "is_reserved": 0, "fusion_lon": 0.0, "fusion_lat": 0.0, "lon": -76.99499333333333, "name": "4045ce29486fdffd782ffd9b67d90934"}, {"bike_id": "b9d2b4e8101762563a49962e7784fe77", "type": "electric_scooter", "is_disabled": 0, "lat": 38.903128333333335, "rental_uris": {"ios": "https://dc.lft.to/lastmile_qr_scan", "android": "https://dc.lft.to/lastmile_qr_scan"}, "is_reserved": 0, "fusion_lon": 0.0, "fusion_lat": 0.0, "lon": -76.9835715, "name": "b9d2b4e8101762563a49962e7784fe77"}, {"bike_id": "68f6004dcf21e6ea69dd6970272221ae", "type": "electric_scooter", "is_disabled": 0, "lat": 38.948398833333336, "rental_uris": {"ios": "https://dc.lft.to/lastmile_qr_scan", "android": "https://dc.lft.to/lastmile_qr_scan"}, "is_reserved": 0, "fusion_lon": 0.0, "fusion_lat": 0.0, "lon": -77.02545666666667, "name": "68f6004dcf21e6ea69dd6970272221ae"}, {"bike_id": "58b69b6fc96af78a795f390497387e09", "type": "electric_scooter", "is_disabled": 0, "lat": 38.8544715, "rental_uris": {"ios": "https://dc.lft.to/lastmile_qr_scan", "android": "https://dc.lft.to/lastmile_qr_scan"}, "is_reserved": 0, "fusion_lon": 0.0, "fusion_lat": 0.0, "lon": -76.98608616666667, "name": "58b69b6fc96af78a795f390497387e09"}, {"bike_id": "0c84ebc6ac86284f10d7b08b4066d47f", "type": "electric_scooter", "is_disabled": 0, "lat": 38.92089766666667, "rental_uris": {"ios": "https://dc.lft.to/lastmile_qr_scan", "android": "https://dc.lft.to/lastmile_qr_scan"}, "is_reserved": 0, "fusion_lon": 0.0, "fusion_lat": 0.0, "lon": -77.02398966666667, "name": "0c84ebc6ac86284f10d7b08b4066d47f"}, {"bike_id": "92e1a46130b105b33d92ba202e941718", "type": "electric_scooter", "is_disabled": 0, "lat": 38.93416233333333, "rental_uris": {"ios": "https://dc.lft.to/lastmile_qr_scan", "android": "https://dc.lft.to/lastmile_qr_scan"}, "is_reserved": 0, "fusion_lon": 0.0, "fusion_lat": 0.0, "lon": -77.0391275, "name": "92e1a46130b105b33d92ba202e941718"}, {"bike_id": "d3190427604f149d6b06790bc01f9eab", "type": "electric_scooter", "is_disabled": 0, "lat": 38.9181435, "rental_uris": {"ios": "https://dc.lft.to/lastmile_qr_scan", "android": "https://dc.lft.to/lastmile_qr_scan"}, "is_reserved": 0, "fusion_lon": 0.0, "fusion_lat": 0.0, "lon": -77.03664983333333, "name": "d3190427604f149d6b06790bc01f9eab"}, {"bike_id": "92c2e0d0de1c532baf641a68c7c625ea", "type": "electric_scooter", "is_disabled": 0, "lat": 38.942959, "rental_uris": {"ios": "https://dc.lft.to/lastmile_qr_scan", "android": "https://dc.lft.to/lastmile_qr_scan"}, "is_reserved": 0, "fusion_lon": 0.0, "fusion_lat": 0.0, "lon": -77.021631, "name": "92c2e0d0de1c532baf641a68c7c625ea"}, {"bike_id": "12711dd3b4e427524442be6d351e60f2", "type": "electric_scooter", "is_disabled": 0, "lat": 38.90730383333333, "rental_uris": {"ios": "https://dc.lft.to/lastmile_qr_scan", "android": "https://dc.lft.to/lastmile_qr_scan"}, "is_reserved": 0, "fusion_lon": 0.0, "fusion_lat": 0.0, "lon": -77.0449605, "name": "12711dd3b4e427524442be6d351e60f2"}, {"bike_id": "23c7d18b06e3b6cbb7888bdbda45bfe7", "type": "electric_bike", "is_disabled": 0, "lat": 38.854244666666666, "rental_uris": {"ios": "https://dc.lft.to/lastmile_qr_scan", "android": "https://dc.lft.to/lastmile_qr_scan"}, "is_reserved": 0, "fusion_lon": 0.0, "fusion_lat": 0.0, "lon": -77.120768, "name": "23c7d18b06e3b6cbb7888bdbda45bfe7"}, {"bike_id": "f74f5e3da5d4bfd61d873cd126de1785", "type": "electric_scooter", "is_disabled": 0, "lat": 38.91166283333333, "rental_uris": {"ios": "https://dc.lft.to/lastmile_qr_scan", "android": "https://dc.lft.to/lastmile_qr_scan"}, "is_reserved": 0, "fusion_lon": 0.0, "fusion_lat": 0.0, "lon": -77.016216, "name": "f74f5e3da5d4bfd61d873cd126de1785"}, {"bike_id": "2ec1868f153670861b9efa56741d1184", "type": "electric_scooter", "is_disabled": 0, "lat": 38.93322216666667, "rental_uris": {"ios": "https://dc.lft.to/lastmile_qr_scan", "android": "https://dc.lft.to/lastmile_qr_scan"}, "is_reserved": 0, "fusion_lon": 0.0, "fusion_lat": 0.0, "lon": -77.029292, "name": "2ec1868f153670861b9efa56741d1184"}, {"bike_id": "ecd294e5f44f3a864c38686becfbdd9d", "type": "electric_scooter", "is_disabled": 0, "lat": 38.908201166666665, "rental_uris": {"ios": "https://dc.lft.to/lastmile_qr_scan", "android": "https://dc.lft.to/lastmile_qr_scan"}, "is_reserved": 0, "fusion_lon": 0.0, "fusion_lat": 0.0, "lon": -77.04339083333333, "name": "ecd294e5f44f3a864c38686becfbdd9d"}, {"bike_id": "8014b951cb758987b38f160dbb1c0cd5", "type": "electric_scooter", "is_disabled": 0, "lat": 38.90336883333333, "rental_uris": {"ios": "https://dc.lft.to/lastmile_qr_scan", "android": "https://dc.lft.to/lastmile_qr_scan"}, "is_reserved": 0, "fusion_lon": 0.0, "fusion_lat": 0.0, "lon": -76.975815, "name": "8014b951cb758987b38f160dbb1c0cd5"}, {"bike_id": "460751d08d811229a307b6670155773b", "type": "electric_scooter", "is_disabled": 0, "lat": 38.92448616666667, "rental_uris": {"ios": "https://dc.lft.to/lastmile_qr_scan", "android": "https://dc.lft.to/lastmile_qr_scan"}, "is_reserved": 0, "fusion_lon": 0.0, "fusion_lat": 0.0, "lon": -77.024039, "name": "460751d08d811229a307b6670155773b"}, {"bike_id": "900f06bf0cb08004003ffac154c1f3dc", "type": "electric_scooter", "is_disabled": 0, "lat": 38.88071083333333, "rental_uris": {"ios": "https://dc.lft.to/lastmile_qr_scan", "android": "https://dc.lft.to/lastmile_qr_scan"}, "is_reserved": 0, "fusion_lon": 0.0, "fusion_lat": 0.0, "lon": -76.99509683333333, "name": "900f06bf0cb08004003ffac154c1f3dc"}, {"bike_id": "a862f6d3e14415a4c306aca1e831780e", "type": "electric_scooter", "is_disabled": 0, "lat": 38.921285833333336, "rental_uris": {"ios": "https://dc.lft.to/lastmile_qr_scan", "android": "https://dc.lft.to/lastmile_qr_scan"}, "is_reserved": 0, "fusion_lon": 0.0, "fusion_lat": 0.0, "lon": -76.99244816666666, "name": "a862f6d3e14415a4c306aca1e831780e"}, {"bike_id": "82679a0b383c896ed7372b1d745a6cf5", "type": "electric_scooter", "is_disabled": 0, "lat": 38.90644833333333, "rental_uris": {"ios": "https://dc.lft.to/lastmile_qr_scan", "android": "https://dc.lft.to/lastmile_qr_scan"}, "is_reserved": 0, "fusion_lon": 0.0, "fusion_lat": 0.0, "lon": -77.05317366666667, "name": "82679a0b383c896ed7372b1d745a6cf5"}, {"bike_id": "268f512203bbe3d970c02b9d01b18803", "type": "electric_scooter", "is_disabled": 0, "lat": 38.9278325, "rental_uris": {"ios": "https://dc.lft.to/lastmile_qr_scan", "android": "https://dc.lft.to/lastmile_qr_scan"}, "is_reserved": 0, "fusion_lon": 0.0, "fusion_lat": 0.0, "lon": -77.0231145, "name": "268f512203bbe3d970c02b9d01b18803"}, {"bike_id": "7622bf01d06b5e4c5db130e060038023", "type": "electric_scooter", "is_disabled": 0, "lat": 38.93215716666667, "rental_uris": {"ios": "https://dc.lft.to/lastmile_qr_scan", "android": "https://dc.lft.to/lastmile_qr_scan"}, "is_reserved": 0, "fusion_lon": 0.0, "fusion_lat": 0.0, "lon": -77.0334965, "name": "7622bf01d06b5e4c5db130e060038023"}, {"bike_id": "101e35f5f0e50175244fb2beff7f05dd", "type": "electric_scooter", "is_disabled": 0, "lat": 38.878093666666665, "rental_uris": {"ios": "https://dc.lft.to/lastmile_qr_scan", "android": "https://dc.lft.to/lastmile_qr_scan"}, "is_reserved": 0, "fusion_lon": 0.0, "fusion_lat": 0.0, "lon": -76.93084833333333, "name": "101e35f5f0e50175244fb2beff7f05dd"}, {"bike_id": "918fe8eb83d17ec786632f3b68ab14ed", "type": "electric_scooter", "is_disabled": 0, "lat": 38.9073155, "rental_uris": {"ios": "https://dc.lft.to/lastmile_qr_scan", "android": "https://dc.lft.to/lastmile_qr_scan"}, "is_reserved": 0, "fusion_lon": 0.0, "fusion_lat": 0.0, "lon": -77.01134366666666, "name": "918fe8eb83d17ec786632f3b68ab14ed"}, {"bike_id": "72d5dd2ecf487704fcfd0de46a6f3fd6", "type": "electric_scooter", "is_disabled": 0, "lat": 38.92537683333333, "rental_uris": {"ios": "https://dc.lft.to/lastmile_qr_scan", "android": "https://dc.lft.to/lastmile_qr_scan"}, "is_reserved": 0, "fusion_lon": 0.0, "fusion_lat": 0.0, "lon": -77.04271883333334, "name": "72d5dd2ecf487704fcfd0de46a6f3fd6"}, {"bike_id": "3be82e41c5d43149ff27ad7f7612b024", "type": "electric_bike", "is_disabled": 0, "lat": 38.8755755, "rental_uris": {"ios": "https://dc.lft.to/lastmile_qr_scan", "android": "https://dc.lft.to/lastmile_qr_scan"}, "is_reserved": 0, "fusion_lon": 0.0, "fusion_lat": 0.0, "lon": -76.9650065, "name": "3be82e41c5d43149ff27ad7f7612b024"}, {"bike_id": "adcd3b47329826730edea4fe2e7193e0", "type": "electric_scooter", "is_disabled": 0, "lat": 38.87944016666667, "rental_uris": {"ios": "https://dc.lft.to/lastmile_qr_scan", "android": "https://dc.lft.to/lastmile_qr_scan"}, "is_reserved": 0, "fusion_lon": 0.0, "fusion_lat": 0.0, "lon": -77.00423583333334, "name": "adcd3b47329826730edea4fe2e7193e0"}, {"bike_id": "d67e35c4b6fe4167b5962f7a686b7c0c", "type": "electric_scooter", "is_disabled": 0, "lat": 38.97239883333334, "rental_uris": {"ios": "https://dc.lft.to/lastmile_qr_scan", "android": "https://dc.lft.to/lastmile_qr_scan"}, "is_reserved": 0, "fusion_lon": 0.0, "fusion_lat": 0.0, "lon": -77.02716766666667, "name": "d67e35c4b6fe4167b5962f7a686b7c0c"}, {"bike_id": "739ca82359dce4d5920c5f05ce50873c", "type": "electric_scooter", "is_disabled": 0, "lat": 38.90616716666667, "rental_uris": {"ios": "https://dc.lft.to/lastmile_qr_scan", "android": "https://dc.lft.to/lastmile_qr_scan"}, "is_reserved": 0, "fusion_lon": 0.0, "fusion_lat": 0.0, "lon": -77.004135, "name": "739ca82359dce4d5920c5f05ce50873c"}, {"bike_id": "3df9869c9ef8cdac8867229ad8f0e1d2", "type": "electric_scooter", "is_disabled": 0, "lat": 38.917739, "rental_uris": {"ios": "https://dc.lft.to/lastmile_qr_scan", "android": "https://dc.lft.to/lastmile_qr_scan"}, "is_reserved": 0, "fusion_lon": 0.0, "fusion_lat": 0.0, "lon": -77.03451433333333, "name": "3df9869c9ef8cdac8867229ad8f0e1d2"}, {"bike_id": "098e6bbdbb00cc8bd8b7e5a74129d4ac", "type": "electric_scooter", "is_disabled": 0, "lat": 38.897317, "rental_uris": {"ios": "https://dc.lft.to/lastmile_qr_scan", "android": "https://dc.lft.to/lastmile_qr_scan"}, "is_reserved": 0, "fusion_lon": 0.0, "fusion_lat": 0.0, "lon": -77.02111416666666, "name": "098e6bbdbb00cc8bd8b7e5a74129d4ac"}, {"bike_id": "95feb180ee807865a31c43dab78456f5", "type": "electric_scooter", "is_disabled": 0, "lat": 38.9253265, "rental_uris": {"ios": "https://dc.lft.to/lastmile_qr_scan", "android": "https://dc.lft.to/lastmile_qr_scan"}, "is_reserved": 0, "fusion_lon": 0.0, "fusion_lat": 0.0, "lon": -77.02255916666667, "name": "95feb180ee807865a31c43dab78456f5"}, {"bike_id": "08a537f3cec23b9e4ea4dd43722ec488", "type": "electric_scooter", "is_disabled": 0, "lat": 38.91931816666666, "rental_uris": {"ios": "https://dc.lft.to/lastmile_qr_scan", "android": "https://dc.lft.to/lastmile_qr_scan"}, "is_reserved": 0, "fusion_lon": 0.0, "fusion_lat": 0.0, "lon": -77.045619, "name": "08a537f3cec23b9e4ea4dd43722ec488"}, {"bike_id": "6edaeb4f4297da544fbe95a17f927cfc", "type": "electric_scooter", "is_disabled": 0, "lat": 38.88884933333333, "rental_uris": {"ios": "https://dc.lft.to/lastmile_qr_scan", "android": "https://dc.lft.to/lastmile_qr_scan"}, "is_reserved": 0, "fusion_lon": 0.0, "fusion_lat": 0.0, "lon": -76.990321, "name": "6edaeb4f4297da544fbe95a17f927cfc"}, {"bike_id": "61943f2160bd21a23414876e77d326dc", "type": "electric_scooter", "is_disabled": 0, "lat": 38.90503983333333, "rental_uris": {"ios": "https://dc.lft.to/lastmile_qr_scan", "android": "https://dc.lft.to/lastmile_qr_scan"}, "is_reserved": 0, "fusion_lon": 0.0, "fusion_lat": 0.0, "lon": -77.06016383333333, "name": "61943f2160bd21a23414876e77d326dc"}, {"bike_id": "ec955c6466ffe7690a98c126cba47659", "type": "electric_scooter", "is_disabled": 0, "lat": 38.895019, "rental_uris": {"ios": "https://dc.lft.to/lastmile_qr_scan", "android": "https://dc.lft.to/lastmile_qr_scan"}, "is_reserved": 0, "fusion_lon": 0.0, "fusion_lat": 0.0, "lon": -76.98834266666667, "name": "ec955c6466ffe7690a98c126cba47659"}, {"bike_id": "b81edfacb47d4ca890514f284ed1908a", "type": "electric_scooter", "is_disabled": 0, "lat": 38.843181666666666, "rental_uris": {"ios": "https://dc.lft.to/lastmile_qr_scan", "android": "https://dc.lft.to/lastmile_qr_scan"}, "is_reserved": 0, "fusion_lon": 0.0, "fusion_lat": 0.0, "lon": -76.99928583333333, "name": "b81edfacb47d4ca890514f284ed1908a"}, {"bike_id": "677afffd25324590a7a8e2080ed735ec", "type": "electric_scooter", "is_disabled": 0, "lat": 38.89609683333333, "rental_uris": {"ios": "https://dc.lft.to/lastmile_qr_scan", "android": "https://dc.lft.to/lastmile_qr_scan"}, "is_reserved": 0, "fusion_lon": 0.0, "fusion_lat": 0.0, "lon": -77.02687383333334, "name": "677afffd25324590a7a8e2080ed735ec"}, {"bike_id": "0674e36abc444d85e6cdec40fcf70e7c", "type": "electric_scooter", "is_disabled": 0, "lat": 38.920133, "rental_uris": {"ios": "https://dc.lft.to/lastmile_qr_scan", "android": "https://dc.lft.to/lastmile_qr_scan"}, "is_reserved": 0, "fusion_lon": 0.0, "fusion_lat": 0.0, "lon": -77.02384466666666, "name": "0674e36abc444d85e6cdec40fcf70e7c"}, {"bike_id": "cd168fcc31e664bce4627564b878a786", "type": "electric_scooter", "is_disabled": 0, "lat": 38.925332833333336, "rental_uris": {"ios": "https://dc.lft.to/lastmile_qr_scan", "android": "https://dc.lft.to/lastmile_qr_scan"}, "is_reserved": 0, "fusion_lon": 0.0, "fusion_lat": 0.0, "lon": -77.07716433333333, "name": "cd168fcc31e664bce4627564b878a786"}, {"bike_id": "8c56e728c945ae7fec3a8da518aba687", "type": "electric_scooter", "is_disabled": 0, "lat": 38.899688833333336, "rental_uris": {"ios": "https://dc.lft.to/lastmile_qr_scan", "android": "https://dc.lft.to/lastmile_qr_scan"}, "is_reserved": 0, "fusion_lon": 0.0, "fusion_lat": 0.0, "lon": -76.9829965, "name": "8c56e728c945ae7fec3a8da518aba687"}, {"bike_id": "8011e48498f99b5d095a7d576e85e0de", "type": "electric_scooter", "is_disabled": 0, "lat": 38.917085666666665, "rental_uris": {"ios": "https://dc.lft.to/lastmile_qr_scan", "android": "https://dc.lft.to/lastmile_qr_scan"}, "is_reserved": 0, "fusion_lon": 0.0, "fusion_lat": 0.0, "lon": -77.03106566666666, "name": "8011e48498f99b5d095a7d576e85e0de"}, {"bike_id": "f4c18ac14f6c0a724617046dbfa33673", "type": "electric_scooter", "is_disabled": 0, "lat": 38.909580166666665, "rental_uris": {"ios": "https://dc.lft.to/lastmile_qr_scan", "android": "https://dc.lft.to/lastmile_qr_scan"}, "is_reserved": 0, "fusion_lon": 0.0, "fusion_lat": 0.0, "lon": -77.02299666666667, "name": "f4c18ac14f6c0a724617046dbfa33673"}, {"bike_id": "42577bdd5c2ece8d0d166847083eb4dd", "type": "electric_scooter", "is_disabled": 0, "lat": 38.920729, "rental_uris": {"ios": "https://dc.lft.to/lastmile_qr_scan", "android": "https://dc.lft.to/lastmile_qr_scan"}, "is_reserved": 0, "fusion_lon": 0.0, "fusion_lat": 0.0, "lon": -77.02507033333333, "name": "42577bdd5c2ece8d0d166847083eb4dd"}, {"bike_id": "6dfb7cfdb6cc095e39e666466adccfc7", "type": "electric_bike", "is_disabled": 0, "lat": 38.99091883333333, "rental_uris": {"ios": "https://dc.lft.to/lastmile_qr_scan", "android": "https://dc.lft.to/lastmile_qr_scan"}, "is_reserved": 0, "fusion_lon": 0.0, "fusion_lat": 0.0, "lon": -76.87494083333333, "name": "6dfb7cfdb6cc095e39e666466adccfc7"}, {"bike_id": "7e6a88cbd77f413f4a7c4df4fffdf764", "type": "electric_scooter", "is_disabled": 0, "lat": 38.892302, "rental_uris": {"ios": "https://dc.lft.to/lastmile_qr_scan", "android": "https://dc.lft.to/lastmile_qr_scan"}, "is_reserved": 0, "fusion_lon": 0.0, "fusion_lat": 0.0, "lon": -77.0499825, "name": "7e6a88cbd77f413f4a7c4df4fffdf764"}, {"bike_id": "e41af62ba0f69407d18032cb0102edbf", "type": "electric_scooter", "is_disabled": 0, "lat": 38.900455, "rental_uris": {"ios": "https://dc.lft.to/lastmile_qr_scan", "android": "https://dc.lft.to/lastmile_qr_scan"}, "is_reserved": 0, "fusion_lon": 0.0, "fusion_lat": 0.0, "lon": -76.91920533333334, "name": "e41af62ba0f69407d18032cb0102edbf"}, {"bike_id": "8da1e3832f94f0f89ad0f38c6501d884", "type": "electric_bike", "is_disabled": 0, "lat": 38.8651615, "rental_uris": {"ios": "https://dc.lft.to/lastmile_qr_scan", "android": "https://dc.lft.to/lastmile_qr_scan"}, "is_reserved": 0, "fusion_lon": 0.0, "fusion_lat": 0.0, "lon": -76.9734035, "name": "8da1e3832f94f0f89ad0f38c6501d884"}, {"bike_id": "8ddbfbb06d27226b78074ab95b850041", "type": "electric_scooter", "is_disabled": 0, "lat": 38.93938516666667, "rental_uris": {"ios": "https://dc.lft.to/lastmile_qr_scan", "android": "https://dc.lft.to/lastmile_qr_scan"}, "is_reserved": 0, "fusion_lon": 0.0, "fusion_lat": 0.0, "lon": -77.0368395, "name": "8ddbfbb06d27226b78074ab95b850041"}, {"bike_id": "5102d9ab5d5d9be3b12d8dabcf12e75d", "type": "electric_scooter", "is_disabled": 0, "lat": 38.91829666666667, "rental_uris": {"ios": "https://dc.lft.to/lastmile_qr_scan", "android": "https://dc.lft.to/lastmile_qr_scan"}, "is_reserved": 0, "fusion_lon": 0.0, "fusion_lat": 0.0, "lon": -77.0456125, "name": "5102d9ab5d5d9be3b12d8dabcf12e75d"}, {"bike_id": "ec27190ff82aa26f4e83d3ef86edc593", "type": "electric_scooter", "is_disabled": 0, "lat": 38.9277615, "rental_uris": {"ios": "https://dc.lft.to/lastmile_qr_scan", "android": "https://dc.lft.to/lastmile_qr_scan"}, "is_reserved": 0, "fusion_lon": 0.0, "fusion_lat": 0.0, "lon": -77.054152, "name": "ec27190ff82aa26f4e83d3ef86edc593"}, {"bike_id": "dc7f07a1b3cfe03f0f31799128e5db64", "type": "electric_scooter", "is_disabled": 0, "lat": 38.920238166666664, "rental_uris": {"ios": "https://dc.lft.to/lastmile_qr_scan", "android": "https://dc.lft.to/lastmile_qr_scan"}, "is_reserved": 0, "fusion_lon": 0.0, "fusion_lat": 0.0, "lon": -77.03124816666667, "name": "dc7f07a1b3cfe03f0f31799128e5db64"}, {"bike_id": "76bab978197753f9491fff6ee1822e00", "type": "electric_bike", "is_disabled": 0, "lat": 38.829532, "rental_uris": {"ios": "https://dc.lft.to/lastmile_qr_scan", "android": "https://dc.lft.to/lastmile_qr_scan"}, "is_reserved": 0, "fusion_lon": 0.0, "fusion_lat": 0.0, "lon": -77.123529, "name": "76bab978197753f9491fff6ee1822e00"}, {"bike_id": "b5bcb2488c43d009e4d461e0cd39beff", "type": "electric_scooter", "is_disabled": 0, "lat": 38.94362666666667, "rental_uris": {"ios": "https://dc.lft.to/lastmile_qr_scan", "android": "https://dc.lft.to/lastmile_qr_scan"}, "is_reserved": 0, "fusion_lon": 0.0, "fusion_lat": 0.0, "lon": -77.06139583333334, "name": "b5bcb2488c43d009e4d461e0cd39beff"}, {"bike_id": "60eaf06ddb4bbc4a59c3bf133582ad18", "type": "electric_scooter", "is_disabled": 0, "lat": 38.862049, "rental_uris": {"ios": "https://dc.lft.to/lastmile_qr_scan", "android": "https://dc.lft.to/lastmile_qr_scan"}, "is_reserved": 0, "fusion_lon": 0.0, "fusion_lat": 0.0, "lon": -76.9946635, "name": "60eaf06ddb4bbc4a59c3bf133582ad18"}, {"bike_id": "5bdeed30b3549b1fb107b8d305bd658f", "type": "electric_scooter", "is_disabled": 0, "lat": 38.92634266666666, "rental_uris": {"ios": "https://dc.lft.to/lastmile_qr_scan", "android": "https://dc.lft.to/lastmile_qr_scan"}, "is_reserved": 0, "fusion_lon": 0.0, "fusion_lat": 0.0, "lon": -77.02174133333334, "name": "5bdeed30b3549b1fb107b8d305bd658f"}, {"bike_id": "5c013bb5474408358f665b50820d3a62", "type": "electric_scooter", "is_disabled": 0, "lat": 38.907332, "rental_uris": {"ios": "https://dc.lft.to/lastmile_qr_scan", "android": "https://dc.lft.to/lastmile_qr_scan"}, "is_reserved": 0, "fusion_lon": 0.0, "fusion_lat": 0.0, "lon": -77.00971383333334, "name": "5c013bb5474408358f665b50820d3a62"}, {"bike_id": "79ef99d0f6fee48fb5f3c4f2eb86a255", "type": "electric_scooter", "is_disabled": 0, "lat": 38.94716416666667, "rental_uris": {"ios": "https://dc.lft.to/lastmile_qr_scan", "android": "https://dc.lft.to/lastmile_qr_scan"}, "is_reserved": 0, "fusion_lon": 0.0, "fusion_lat": 0.0, "lon": -77.02774116666667, "name": "79ef99d0f6fee48fb5f3c4f2eb86a255"}, {"bike_id": "83ab885f6433a9b613dde48b99dd6fd2", "type": "electric_scooter", "is_disabled": 0, "lat": 38.927860833333334, "rental_uris": {"ios": "https://dc.lft.to/lastmile_qr_scan", "android": "https://dc.lft.to/lastmile_qr_scan"}, "is_reserved": 0, "fusion_lon": 0.0, "fusion_lat": 0.0, "lon": -77.05262583333334, "name": "83ab885f6433a9b613dde48b99dd6fd2"}, {"bike_id": "26e7244374a0ab68fa7829127b11078d", "type": "electric_scooter", "is_disabled": 0, "lat": 38.882686166666666, "rental_uris": {"ios": "https://dc.lft.to/lastmile_qr_scan", "android": "https://dc.lft.to/lastmile_qr_scan"}, "is_reserved": 0, "fusion_lon": 0.0, "fusion_lat": 0.0, "lon": -76.9950445, "name": "26e7244374a0ab68fa7829127b11078d"}, {"bike_id": "d387bfe2da084ded058afad4cd916efc", "type": "electric_scooter", "is_disabled": 0, "lat": 38.907991833333334, "rental_uris": {"ios": "https://dc.lft.to/lastmile_qr_scan", "android": "https://dc.lft.to/lastmile_qr_scan"}, "is_reserved": 0, "fusion_lon": 0.0, "fusion_lat": 0.0, "lon": -77.03476733333333, "name": "d387bfe2da084ded058afad4cd916efc"}, {"bike_id": "eef9b13bcae81443b9356b1e189af66c", "type": "electric_bike", "is_disabled": 0, "lat": 38.89291083333333, "rental_uris": {"ios": "https://dc.lft.to/lastmile_qr_scan", "android": "https://dc.lft.to/lastmile_qr_scan"}, "is_reserved": 0, "fusion_lon": 0.0, "fusion_lat": 0.0, "lon": -76.97618083333333, "name": "eef9b13bcae81443b9356b1e189af66c"}, {"bike_id": "f607c08c2e5d8beb435d801e1b17bad5", "type": "electric_scooter", "is_disabled": 0, "lat": 38.866795833333335, "rental_uris": {"ios": "https://dc.lft.to/lastmile_qr_scan", "android": "https://dc.lft.to/lastmile_qr_scan"}, "is_reserved": 0, "fusion_lon": 0.0, "fusion_lat": 0.0, "lon": -76.985294, "name": "f607c08c2e5d8beb435d801e1b17bad5"}, {"bike_id": "d4915a35a9c4e44e662d48e6413514dd", "type": "electric_scooter", "is_disabled": 0, "lat": 38.941872333333336, "rental_uris": {"ios": "https://dc.lft.to/lastmile_qr_scan", "android": "https://dc.lft.to/lastmile_qr_scan"}, "is_reserved": 0, "fusion_lon": 0.0, "fusion_lat": 0.0, "lon": -77.024907, "name": "d4915a35a9c4e44e662d48e6413514dd"}, {"bike_id": "388114d3d518d4086d27774ec7a21f3e", "type": "electric_scooter", "is_disabled": 0, "lat": 38.939052, "rental_uris": {"ios": "https://dc.lft.to/lastmile_qr_scan", "android": "https://dc.lft.to/lastmile_qr_scan"}, "is_reserved": 0, "fusion_lon": 0.0, "fusion_lat": 0.0, "lon": -77.03330266666667, "name": "388114d3d518d4086d27774ec7a21f3e"}, {"bike_id": "756a98d8a5c40f92ba824421808fcef2", "type": "electric_bike", "is_disabled": 0, "lat": 38.80897933333333, "rental_uris": {"ios": "https://dc.lft.to/lastmile_qr_scan", "android": "https://dc.lft.to/lastmile_qr_scan"}, "is_reserved": 0, "fusion_lon": 0.0, "fusion_lat": 0.0, "lon": -77.08644883333334, "name": "756a98d8a5c40f92ba824421808fcef2"}, {"bike_id": "d4ed17d9f2faab56dc36b8d0fa757529", "type": "electric_scooter", "is_disabled": 0, "lat": 38.899590333333336, "rental_uris": {"ios": "https://dc.lft.to/lastmile_qr_scan", "android": "https://dc.lft.to/lastmile_qr_scan"}, "is_reserved": 0, "fusion_lon": 0.0, "fusion_lat": 0.0, "lon": -77.04768116666666, "name": "d4ed17d9f2faab56dc36b8d0fa757529"}, {"bike_id": "72ffd9ca0e1e4182d31f543ead401939", "type": "electric_scooter", "is_disabled": 0, "lat": 38.92219166666667, "rental_uris": {"ios": "https://dc.lft.to/lastmile_qr_scan", "android": "https://dc.lft.to/lastmile_qr_scan"}, "is_reserved": 0, "fusion_lon": 0.0, "fusion_lat": 0.0, "lon": -77.03455966666667, "name": "72ffd9ca0e1e4182d31f543ead401939"}, {"bike_id": "9d80dc76fafae345cdda1aa31aa34268", "type": "electric_bike", "is_disabled": 0, "lat": 38.86486883333333, "rental_uris": {"ios": "https://dc.lft.to/lastmile_qr_scan", "android": "https://dc.lft.to/lastmile_qr_scan"}, "is_reserved": 0, "fusion_lon": 0.0, "fusion_lat": 0.0, "lon": -76.977488, "name": "9d80dc76fafae345cdda1aa31aa34268"}, {"bike_id": "2d711fe2f110a000ae57103aacd66e85", "type": "electric_scooter", "is_disabled": 0, "lat": 38.870728, "rental_uris": {"ios": "https://dc.lft.to/lastmile_qr_scan", "android": "https://dc.lft.to/lastmile_qr_scan"}, "is_reserved": 0, "fusion_lon": 0.0, "fusion_lat": 0.0, "lon": -76.981285, "name": "2d711fe2f110a000ae57103aacd66e85"}, {"bike_id": "c824e00c0a2418857ab371f6f2757bd2", "type": "electric_scooter", "is_disabled": 0, "lat": 38.918076166666665, "rental_uris": {"ios": "https://dc.lft.to/lastmile_qr_scan", "android": "https://dc.lft.to/lastmile_qr_scan"}, "is_reserved": 0, "fusion_lon": 0.0, "fusion_lat": 0.0, "lon": -77.03166333333333, "name": "c824e00c0a2418857ab371f6f2757bd2"}, {"bike_id": "557491f219807d649800e1b356af8f87", "type": "electric_scooter", "is_disabled": 0, "lat": 38.928134166666666, "rental_uris": {"ios": "https://dc.lft.to/lastmile_qr_scan", "android": "https://dc.lft.to/lastmile_qr_scan"}, "is_reserved": 0, "fusion_lon": 0.0, "fusion_lat": 0.0, "lon": -77.01422683333334, "name": "557491f219807d649800e1b356af8f87"}, {"bike_id": "f38361f628206e0414849dbf6012b0c7", "type": "electric_scooter", "is_disabled": 0, "lat": 38.92618233333334, "rental_uris": {"ios": "https://dc.lft.to/lastmile_qr_scan", "android": "https://dc.lft.to/lastmile_qr_scan"}, "is_reserved": 0, "fusion_lon": 0.0, "fusion_lat": 0.0, "lon": -77.041913, "name": "f38361f628206e0414849dbf6012b0c7"}, {"bike_id": "8aebb36d7b8fd42583747997b0c798b2", "type": "electric_scooter", "is_disabled": 0, "lat": 38.858144, "rental_uris": {"ios": "https://dc.lft.to/lastmile_qr_scan", "android": "https://dc.lft.to/lastmile_qr_scan"}, "is_reserved": 0, "fusion_lon": 0.0, "fusion_lat": 0.0, "lon": -76.98922316666666, "name": "8aebb36d7b8fd42583747997b0c798b2"}, {"bike_id": "946a90310167e77428ef8bc5950462e3", "type": "electric_bike", "is_disabled": 0, "lat": 38.803954833333336, "rental_uris": {"ios": "https://dc.lft.to/lastmile_qr_scan", "android": "https://dc.lft.to/lastmile_qr_scan"}, "is_reserved": 0, "fusion_lon": 0.0, "fusion_lat": 0.0, "lon": -77.05555816666667, "name": "946a90310167e77428ef8bc5950462e3"}, {"bike_id": "3595df5eefb1c5eda74f12f1ec1ab754", "type": "electric_scooter", "is_disabled": 0, "lat": 38.934271, "rental_uris": {"ios": "https://dc.lft.to/lastmile_qr_scan", "android": "https://dc.lft.to/lastmile_qr_scan"}, "is_reserved": 0, "fusion_lon": 0.0, "fusion_lat": 0.0, "lon": -77.03998083333333, "name": "3595df5eefb1c5eda74f12f1ec1ab754"}, {"bike_id": "7cda5d21ec77117edcb235bde1fca34f", "type": "electric_scooter", "is_disabled": 0, "lat": 38.92975716666667, "rental_uris": {"ios": "https://dc.lft.to/lastmile_qr_scan", "android": "https://dc.lft.to/lastmile_qr_scan"}, "is_reserved": 0, "fusion_lon": 0.0, "fusion_lat": 0.0, "lon": -77.02814533333333, "name": "7cda5d21ec77117edcb235bde1fca34f"}, {"bike_id": "1396ec87c38fa8a30140806e63c5f7cb", "type": "electric_scooter", "is_disabled": 0, "lat": 38.932533666666664, "rental_uris": {"ios": "https://dc.lft.to/lastmile_qr_scan", "android": "https://dc.lft.to/lastmile_qr_scan"}, "is_reserved": 0, "fusion_lon": 0.0, "fusion_lat": 0.0, "lon": -77.03275733333334, "name": "1396ec87c38fa8a30140806e63c5f7cb"}, {"bike_id": "48305948d39b2f702cee4e0e98f44027", "type": "electric_scooter", "is_disabled": 0, "lat": 38.8952445, "rental_uris": {"ios": "https://dc.lft.to/lastmile_qr_scan", "android": "https://dc.lft.to/lastmile_qr_scan"}, "is_reserved": 0, "fusion_lon": 0.0, "fusion_lat": 0.0, "lon": -77.0111395, "name": "48305948d39b2f702cee4e0e98f44027"}, {"bike_id": "7b9e7d1dfc8698585b8ae714d1897d17", "type": "electric_scooter", "is_disabled": 0, "lat": 38.88011983333333, "rental_uris": {"ios": "https://dc.lft.to/lastmile_qr_scan", "android": "https://dc.lft.to/lastmile_qr_scan"}, "is_reserved": 0, "fusion_lon": 0.0, "fusion_lat": 0.0, "lon": -77.024864, "name": "7b9e7d1dfc8698585b8ae714d1897d17"}, {"bike_id": "60b050dbf25779f3ef3196888713a32a", "type": "electric_scooter", "is_disabled": 0, "lat": 38.900269333333334, "rental_uris": {"ios": "https://dc.lft.to/lastmile_qr_scan", "android": "https://dc.lft.to/lastmile_qr_scan"}, "is_reserved": 0, "fusion_lon": 0.0, "fusion_lat": 0.0, "lon": -76.99416966666666, "name": "60b050dbf25779f3ef3196888713a32a"}, {"bike_id": "bd45a81929f06075bfde796a593a52ea", "type": "electric_scooter", "is_disabled": 0, "lat": 38.9032435, "rental_uris": {"ios": "https://dc.lft.to/lastmile_qr_scan", "android": "https://dc.lft.to/lastmile_qr_scan"}, "is_reserved": 0, "fusion_lon": 0.0, "fusion_lat": 0.0, "lon": -76.97547416666667, "name": "bd45a81929f06075bfde796a593a52ea"}, {"bike_id": "90bdc69502552456eea8b524e9007d1e", "type": "electric_scooter", "is_disabled": 0, "lat": 38.887516166666664, "rental_uris": {"ios": "https://dc.lft.to/lastmile_qr_scan", "android": "https://dc.lft.to/lastmile_qr_scan"}, "is_reserved": 0, "fusion_lon": 0.0, "fusion_lat": 0.0, "lon": -77.02719366666666, "name": "90bdc69502552456eea8b524e9007d1e"}, {"bike_id": "31750dcf2005d0d26f45e9dd356c8bec", "type": "electric_scooter", "is_disabled": 0, "lat": 38.90031466666667, "rental_uris": {"ios": "https://dc.lft.to/lastmile_qr_scan", "android": "https://dc.lft.to/lastmile_qr_scan"}, "is_reserved": 0, "fusion_lon": 0.0, "fusion_lat": 0.0, "lon": -76.99860033333333, "name": "31750dcf2005d0d26f45e9dd356c8bec"}, {"bike_id": "29588940eb21e94c101ed91a93575f82", "type": "electric_scooter", "is_disabled": 0, "lat": 38.914119, "rental_uris": {"ios": "https://dc.lft.to/lastmile_qr_scan", "android": "https://dc.lft.to/lastmile_qr_scan"}, "is_reserved": 0, "fusion_lon": 0.0, "fusion_lat": 0.0, "lon": -77.02422533333333, "name": "29588940eb21e94c101ed91a93575f82"}, {"bike_id": "08c6a1c712cdbb4d6601f2be8530952f", "type": "electric_scooter", "is_disabled": 0, "lat": 38.892628, "rental_uris": {"ios": "https://dc.lft.to/lastmile_qr_scan", "android": "https://dc.lft.to/lastmile_qr_scan"}, "is_reserved": 0, "fusion_lon": 0.0, "fusion_lat": 0.0, "lon": -77.00343666666667, "name": "08c6a1c712cdbb4d6601f2be8530952f"}, {"bike_id": "65023e7b394b79b199ac2e123cf5df07", "type": "electric_scooter", "is_disabled": 0, "lat": 38.90727533333333, "rental_uris": {"ios": "https://dc.lft.to/lastmile_qr_scan", "android": "https://dc.lft.to/lastmile_qr_scan"}, "is_reserved": 0, "fusion_lon": 0.0, "fusion_lat": 0.0, "lon": -77.04809866666666, "name": "65023e7b394b79b199ac2e123cf5df07"}, {"bike_id": "acd2be606eadede7f28cf5e34e69b248", "type": "electric_scooter", "is_disabled": 0, "lat": 38.862424833333336, "rental_uris": {"ios": "https://dc.lft.to/lastmile_qr_scan", "android": "https://dc.lft.to/lastmile_qr_scan"}, "is_reserved": 0, "fusion_lon": 0.0, "fusion_lat": 0.0, "lon": -76.99496583333334, "name": "acd2be606eadede7f28cf5e34e69b248"}, {"bike_id": "261b9ecaff38ec7257e534812dd4f1ee", "type": "electric_scooter", "is_disabled": 0, "lat": 38.9013, "rental_uris": {"ios": "https://dc.lft.to/lastmile_qr_scan", "android": "https://dc.lft.to/lastmile_qr_scan"}, "is_reserved": 0, "fusion_lon": 0.0, "fusion_lat": 0.0, "lon": -77.01835483333333, "name": "261b9ecaff38ec7257e534812dd4f1ee"}, {"bike_id": "8fdad43d903ef1565f9568f25ac54b83", "type": "electric_scooter", "is_disabled": 0, "lat": 38.927305, "rental_uris": {"ios": "https://dc.lft.to/lastmile_qr_scan", "android": "https://dc.lft.to/lastmile_qr_scan"}, "is_reserved": 0, "fusion_lon": 0.0, "fusion_lat": 0.0, "lon": -77.03497583333333, "name": "8fdad43d903ef1565f9568f25ac54b83"}, {"bike_id": "5bf824a16de570bf0391dce4db3f344d", "type": "electric_scooter", "is_disabled": 0, "lat": 38.87642316666667, "rental_uris": {"ios": "https://dc.lft.to/lastmile_qr_scan", "android": "https://dc.lft.to/lastmile_qr_scan"}, "is_reserved": 0, "fusion_lon": 0.0, "fusion_lat": 0.0, "lon": -77.00454666666667, "name": "5bf824a16de570bf0391dce4db3f344d"}, {"bike_id": "0748408145a24672cf38ed277636b503", "type": "electric_scooter", "is_disabled": 0, "lat": 38.89608483333333, "rental_uris": {"ios": "https://dc.lft.to/lastmile_qr_scan", "android": "https://dc.lft.to/lastmile_qr_scan"}, "is_reserved": 0, "fusion_lon": 0.0, "fusion_lat": 0.0, "lon": -77.03124866666667, "name": "0748408145a24672cf38ed277636b503"}, {"bike_id": "1bcacd10dc7ceafd0d67d1ffa82dc4db", "type": "electric_scooter", "is_disabled": 0, "lat": 38.9044245, "rental_uris": {"ios": "https://dc.lft.to/lastmile_qr_scan", "android": "https://dc.lft.to/lastmile_qr_scan"}, "is_reserved": 0, "fusion_lon": 0.0, "fusion_lat": 0.0, "lon": -77.03456133333333, "name": "1bcacd10dc7ceafd0d67d1ffa82dc4db"}, {"bike_id": "8018360f3d51181507c53ef295785f5c", "type": "electric_scooter", "is_disabled": 0, "lat": 38.8320595, "rental_uris": {"ios": "https://dc.lft.to/lastmile_qr_scan", "android": "https://dc.lft.to/lastmile_qr_scan"}, "is_reserved": 0, "fusion_lon": 0.0, "fusion_lat": 0.0, "lon": -77.007957, "name": "8018360f3d51181507c53ef295785f5c"}, {"bike_id": "ac518fef65b31af2924263bc5c3341cf", "type": "electric_scooter", "is_disabled": 0, "lat": 38.9231985, "rental_uris": {"ios": "https://dc.lft.to/lastmile_qr_scan", "android": "https://dc.lft.to/lastmile_qr_scan"}, "is_reserved": 0, "fusion_lon": 0.0, "fusion_lat": 0.0, "lon": -77.03915066666667, "name": "ac518fef65b31af2924263bc5c3341cf"}, {"bike_id": "f0abfe6006e69339e852940492e86a56", "type": "electric_scooter", "is_disabled": 0, "lat": 38.91112366666667, "rental_uris": {"ios": "https://dc.lft.to/lastmile_qr_scan", "android": "https://dc.lft.to/lastmile_qr_scan"}, "is_reserved": 0, "fusion_lon": 0.0, "fusion_lat": 0.0, "lon": -77.02135166666666, "name": "f0abfe6006e69339e852940492e86a56"}, {"bike_id": "e5af76d89f4503d56d64476a906355ec", "type": "electric_scooter", "is_disabled": 0, "lat": 38.8862415, "rental_uris": {"ios": "https://dc.lft.to/lastmile_qr_scan", "android": "https://dc.lft.to/lastmile_qr_scan"}, "is_reserved": 0, "fusion_lon": 0.0, "fusion_lat": 0.0, "lon": -76.99603083333334, "name": "e5af76d89f4503d56d64476a906355ec"}, {"bike_id": "2f3e2367b1b3131e4e5969d555e4ad21", "type": "electric_scooter", "is_disabled": 0, "lat": 38.8788335, "rental_uris": {"ios": "https://dc.lft.to/lastmile_qr_scan", "android": "https://dc.lft.to/lastmile_qr_scan"}, "is_reserved": 0, "fusion_lon": 0.0, "fusion_lat": 0.0, "lon": -77.0231275, "name": "2f3e2367b1b3131e4e5969d555e4ad21"}, {"bike_id": "e03654ff20a32dfce44509ea89b09a2a", "type": "electric_scooter", "is_disabled": 0, "lat": 38.95667016666667, "rental_uris": {"ios": "https://dc.lft.to/lastmile_qr_scan", "android": "https://dc.lft.to/lastmile_qr_scan"}, "is_reserved": 0, "fusion_lon": 0.0, "fusion_lat": 0.0, "lon": -77.0240015, "name": "e03654ff20a32dfce44509ea89b09a2a"}, {"bike_id": "b49603e3a181172a84402229713288cf", "type": "electric_scooter", "is_disabled": 0, "lat": 38.897643, "rental_uris": {"ios": "https://dc.lft.to/lastmile_qr_scan", "android": "https://dc.lft.to/lastmile_qr_scan"}, "is_reserved": 0, "fusion_lon": 0.0, "fusion_lat": 0.0, "lon": -76.92573566666667, "name": "b49603e3a181172a84402229713288cf"}, {"bike_id": "fe471dc353bb8ffacdfdffeecde2407e", "type": "electric_scooter", "is_disabled": 0, "lat": 38.90544533333333, "rental_uris": {"ios": "https://dc.lft.to/lastmile_qr_scan", "android": "https://dc.lft.to/lastmile_qr_scan"}, "is_reserved": 0, "fusion_lon": 0.0, "fusion_lat": 0.0, "lon": -76.98113283333333, "name": "fe471dc353bb8ffacdfdffeecde2407e"}, {"bike_id": "f0f38d43e571554564c3a2f2f1f1fbaa", "type": "electric_scooter", "is_disabled": 0, "lat": 38.924829, "rental_uris": {"ios": "https://dc.lft.to/lastmile_qr_scan", "android": "https://dc.lft.to/lastmile_qr_scan"}, "is_reserved": 0, "fusion_lon": 0.0, "fusion_lat": 0.0, "lon": -77.02716483333333, "name": "f0f38d43e571554564c3a2f2f1f1fbaa"}, {"bike_id": "5ff8aae8ab943034a5bce2135fe9a01f", "type": "electric_scooter", "is_disabled": 0, "lat": 38.90005766666667, "rental_uris": {"ios": "https://dc.lft.to/lastmile_qr_scan", "android": "https://dc.lft.to/lastmile_qr_scan"}, "is_reserved": 0, "fusion_lon": 0.0, "fusion_lat": 0.0, "lon": -77.0465275, "name": "5ff8aae8ab943034a5bce2135fe9a01f"}, {"bike_id": "690ba4103e9fc56cd22e570592dda125", "type": "electric_scooter", "is_disabled": 0, "lat": 38.9239385, "rental_uris": {"ios": "https://dc.lft.to/lastmile_qr_scan", "android": "https://dc.lft.to/lastmile_qr_scan"}, "is_reserved": 0, "fusion_lon": 0.0, "fusion_lat": 0.0, "lon": -77.0260215, "name": "690ba4103e9fc56cd22e570592dda125"}, {"bike_id": "a8eabd8b6f9e02da9b405fbec38c065c", "type": "electric_scooter", "is_disabled": 0, "lat": 38.905051666666665, "rental_uris": {"ios": "https://dc.lft.to/lastmile_qr_scan", "android": "https://dc.lft.to/lastmile_qr_scan"}, "is_reserved": 0, "fusion_lon": 0.0, "fusion_lat": 0.0, "lon": -77.061091, "name": "a8eabd8b6f9e02da9b405fbec38c065c"}, {"bike_id": "bbb529f28abca3dc21e96217da752bc0", "type": "electric_scooter", "is_disabled": 0, "lat": 38.89533683333333, "rental_uris": {"ios": "https://dc.lft.to/lastmile_qr_scan", "android": "https://dc.lft.to/lastmile_qr_scan"}, "is_reserved": 0, "fusion_lon": 0.0, "fusion_lat": 0.0, "lon": -77.01123766666667, "name": "bbb529f28abca3dc21e96217da752bc0"}, {"bike_id": "d01e22828a33b1e3c2c7788c72d6f086", "type": "electric_scooter", "is_disabled": 0, "lat": 38.917668666666664, "rental_uris": {"ios": "https://dc.lft.to/lastmile_qr_scan", "android": "https://dc.lft.to/lastmile_qr_scan"}, "is_reserved": 0, "fusion_lon": 0.0, "fusion_lat": 0.0, "lon": -77.04763366666667, "name": "d01e22828a33b1e3c2c7788c72d6f086"}, {"bike_id": "12d7e6000234249133c9d43a74d4f87d", "type": "electric_scooter", "is_disabled": 0, "lat": 38.91353333333333, "rental_uris": {"ios": "https://dc.lft.to/lastmile_qr_scan", "android": "https://dc.lft.to/lastmile_qr_scan"}, "is_reserved": 0, "fusion_lon": 0.0, "fusion_lat": 0.0, "lon": -77.02563233333333, "name": "12d7e6000234249133c9d43a74d4f87d"}, {"bike_id": "a992211b5d8f05953a94c1bbf9fbfa3f", "type": "electric_scooter", "is_disabled": 0, "lat": 38.90685166666667, "rental_uris": {"ios": "https://dc.lft.to/lastmile_qr_scan", "android": "https://dc.lft.to/lastmile_qr_scan"}, "is_reserved": 0, "fusion_lon": 0.0, "fusion_lat": 0.0, "lon": -77.026936, "name": "a992211b5d8f05953a94c1bbf9fbfa3f"}, {"bike_id": "f242592c2ae5ec4a6fe2523677739181", "type": "electric_scooter", "is_disabled": 0, "lat": 38.905309, "rental_uris": {"ios": "https://dc.lft.to/lastmile_qr_scan", "android": "https://dc.lft.to/lastmile_qr_scan"}, "is_reserved": 0, "fusion_lon": 0.0, "fusion_lat": 0.0, "lon": -77.00582616666667, "name": "f242592c2ae5ec4a6fe2523677739181"}, {"bike_id": "0f8f2594efbddf426485343c1f6133e2", "type": "electric_scooter", "is_disabled": 0, "lat": 38.8961945, "rental_uris": {"ios": "https://dc.lft.to/lastmile_qr_scan", "android": "https://dc.lft.to/lastmile_qr_scan"}, "is_reserved": 0, "fusion_lon": 0.0, "fusion_lat": 0.0, "lon": -76.98166466666666, "name": "0f8f2594efbddf426485343c1f6133e2"}, {"bike_id": "c12917e099d68e300a1caa589f7d95a5", "type": "electric_bike", "is_disabled": 0, "lat": 39.062947333333334, "rental_uris": {"ios": "https://dc.lft.to/lastmile_qr_scan", "android": "https://dc.lft.to/lastmile_qr_scan"}, "is_reserved": 0, "fusion_lon": 0.0, "fusion_lat": 0.0, "lon": -77.04977683333334, "name": "c12917e099d68e300a1caa589f7d95a5"}, {"bike_id": "f3a8fd3efb32326badf9bccb9ee6cc8f", "type": "electric_scooter", "is_disabled": 0, "lat": 38.90271583333333, "rental_uris": {"ios": "https://dc.lft.to/lastmile_qr_scan", "android": "https://dc.lft.to/lastmile_qr_scan"}, "is_reserved": 0, "fusion_lon": 0.0, "fusion_lat": 0.0, "lon": -77.038252, "name": "f3a8fd3efb32326badf9bccb9ee6cc8f"}, {"bike_id": "45c37d8ea766f461db32a3245079c5db", "type": "electric_scooter", "is_disabled": 0, "lat": 38.901532, "rental_uris": {"ios": "https://dc.lft.to/lastmile_qr_scan", "android": "https://dc.lft.to/lastmile_qr_scan"}, "is_reserved": 0, "fusion_lon": 0.0, "fusion_lat": 0.0, "lon": -76.9306115, "name": "45c37d8ea766f461db32a3245079c5db"}, {"bike_id": "63df11398ecfd6e04a06171dab97be1e", "type": "electric_scooter", "is_disabled": 0, "lat": 38.876567, "rental_uris": {"ios": "https://dc.lft.to/lastmile_qr_scan", "android": "https://dc.lft.to/lastmile_qr_scan"}, "is_reserved": 0, "fusion_lon": 0.0, "fusion_lat": 0.0, "lon": -77.00571666666667, "name": "63df11398ecfd6e04a06171dab97be1e"}, {"bike_id": "245c0e82f4b092fb6d11370c5cebf229", "type": "electric_scooter", "is_disabled": 0, "lat": 38.938875333333336, "rental_uris": {"ios": "https://dc.lft.to/lastmile_qr_scan", "android": "https://dc.lft.to/lastmile_qr_scan"}, "is_reserved": 0, "fusion_lon": 0.0, "fusion_lat": 0.0, "lon": -77.02494366666667, "name": "245c0e82f4b092fb6d11370c5cebf229"}, {"bike_id": "d85b86dc56450b533ed9ad4d1780ec09", "type": "electric_scooter", "is_disabled": 0, "lat": 38.911226, "rental_uris": {"ios": "https://dc.lft.to/lastmile_qr_scan", "android": "https://dc.lft.to/lastmile_qr_scan"}, "is_reserved": 0, "fusion_lon": 0.0, "fusion_lat": 0.0, "lon": -77.0423765, "name": "d85b86dc56450b533ed9ad4d1780ec09"}, {"bike_id": "e8cbe0fdcc9f74ca763af5f20767cd01", "type": "electric_scooter", "is_disabled": 0, "lat": 38.892215, "rental_uris": {"ios": "https://dc.lft.to/lastmile_qr_scan", "android": "https://dc.lft.to/lastmile_qr_scan"}, "is_reserved": 0, "fusion_lon": 0.0, "fusion_lat": 0.0, "lon": -77.02576383333333, "name": "e8cbe0fdcc9f74ca763af5f20767cd01"}, {"bike_id": "3124b9e411683b9dbd879a2ba030e366", "type": "electric_scooter", "is_disabled": 0, "lat": 38.9135985, "rental_uris": {"ios": "https://dc.lft.to/lastmile_qr_scan", "android": "https://dc.lft.to/lastmile_qr_scan"}, "is_reserved": 0, "fusion_lon": 0.0, "fusion_lat": 0.0, "lon": -77.04491333333333, "name": "3124b9e411683b9dbd879a2ba030e366"}, {"bike_id": "2f8e9ef48c69c568122a2995b4e17200", "type": "electric_scooter", "is_disabled": 0, "lat": 38.909621, "rental_uris": {"ios": "https://dc.lft.to/lastmile_qr_scan", "android": "https://dc.lft.to/lastmile_qr_scan"}, "is_reserved": 0, "fusion_lon": 0.0, "fusion_lat": 0.0, "lon": -77.02380366666667, "name": "2f8e9ef48c69c568122a2995b4e17200"}, {"bike_id": "13e1f2902341ec8b8438b40f5091075d", "type": "electric_scooter", "is_disabled": 0, "lat": 38.916234333333335, "rental_uris": {"ios": "https://dc.lft.to/lastmile_qr_scan", "android": "https://dc.lft.to/lastmile_qr_scan"}, "is_reserved": 0, "fusion_lon": 0.0, "fusion_lat": 0.0, "lon": -77.04867066666667, "name": "13e1f2902341ec8b8438b40f5091075d"}, {"bike_id": "6a9f036d5d1a3aa0a386e5bc3459a3a9", "type": "electric_scooter", "is_disabled": 0, "lat": 38.918635333333334, "rental_uris": {"ios": "https://dc.lft.to/lastmile_qr_scan", "android": "https://dc.lft.to/lastmile_qr_scan"}, "is_reserved": 0, "fusion_lon": 0.0, "fusion_lat": 0.0, "lon": -77.02800616666667, "name": "6a9f036d5d1a3aa0a386e5bc3459a3a9"}, {"bike_id": "8a81c0462c2d2053c93fc6e27cc77dc2", "type": "electric_scooter", "is_disabled": 0, "lat": 38.896291166666664, "rental_uris": {"ios": "https://dc.lft.to/lastmile_qr_scan", "android": "https://dc.lft.to/lastmile_qr_scan"}, "is_reserved": 0, "fusion_lon": 0.0, "fusion_lat": 0.0, "lon": -77.00028166666667, "name": "8a81c0462c2d2053c93fc6e27cc77dc2"}, {"bike_id": "2617d27a0b0367396f45dd67479fc95e", "type": "electric_scooter", "is_disabled": 0, "lat": 38.89252966666667, "rental_uris": {"ios": "https://dc.lft.to/lastmile_qr_scan", "android": "https://dc.lft.to/lastmile_qr_scan"}, "is_reserved": 0, "fusion_lon": 0.0, "fusion_lat": 0.0, "lon": -77.03338983333333, "name": "2617d27a0b0367396f45dd67479fc95e"}, {"bike_id": "8c0d265b2ac0d96b50c432b9cec738a7", "type": "electric_scooter", "is_disabled": 0, "lat": 38.91568683333333, "rental_uris": {"ios": "https://dc.lft.to/lastmile_qr_scan", "android": "https://dc.lft.to/lastmile_qr_scan"}, "is_reserved": 0, "fusion_lon": 0.0, "fusion_lat": 0.0, "lon": -77.02384283333333, "name": "8c0d265b2ac0d96b50c432b9cec738a7"}, {"bike_id": "2e96eda3113e39dafc7c8093451938b7", "type": "electric_bike", "is_disabled": 0, "lat": 38.836075666666666, "rental_uris": {"ios": "https://dc.lft.to/lastmile_qr_scan", "android": "https://dc.lft.to/lastmile_qr_scan"}, "is_reserved": 0, "fusion_lon": 0.0, "fusion_lat": 0.0, "lon": -77.003807, "name": "2e96eda3113e39dafc7c8093451938b7"}, {"bike_id": "7f218868c1d10bc482a265196c5d44df", "type": "electric_bike", "is_disabled": 0, "lat": 38.871362833333336, "rental_uris": {"ios": "https://dc.lft.to/lastmile_qr_scan", "android": "https://dc.lft.to/lastmile_qr_scan"}, "is_reserved": 0, "fusion_lon": 0.0, "fusion_lat": 0.0, "lon": -77.10029016666667, "name": "7f218868c1d10bc482a265196c5d44df"}, {"bike_id": "501cc16c026629dab98435ef25a80873", "type": "electric_scooter", "is_disabled": 0, "lat": 38.9178315, "rental_uris": {"ios": "https://dc.lft.to/lastmile_qr_scan", "android": "https://dc.lft.to/lastmile_qr_scan"}, "is_reserved": 0, "fusion_lon": 0.0, "fusion_lat": 0.0, "lon": -77.02308566666666, "name": "501cc16c026629dab98435ef25a80873"}, {"bike_id": "a8daa4cd93bb5168b0276ef3550effc3", "type": "electric_scooter", "is_disabled": 0, "lat": 38.90258683333333, "rental_uris": {"ios": "https://dc.lft.to/lastmile_qr_scan", "android": "https://dc.lft.to/lastmile_qr_scan"}, "is_reserved": 0, "fusion_lon": 0.0, "fusion_lat": 0.0, "lon": -77.01841133333333, "name": "a8daa4cd93bb5168b0276ef3550effc3"}, {"bike_id": "690aa01e7c20ee14df16feaf2be07c58", "type": "electric_scooter", "is_disabled": 0, "lat": 38.93635283333333, "rental_uris": {"ios": "https://dc.lft.to/lastmile_qr_scan", "android": "https://dc.lft.to/lastmile_qr_scan"}, "is_reserved": 0, "fusion_lon": 0.0, "fusion_lat": 0.0, "lon": -77.036521, "name": "690aa01e7c20ee14df16feaf2be07c58"}, {"bike_id": "a5453d497dfcb85096a15b2669c3f088", "type": "electric_scooter", "is_disabled": 0, "lat": 38.95280783333333, "rental_uris": {"ios": "https://dc.lft.to/lastmile_qr_scan", "android": "https://dc.lft.to/lastmile_qr_scan"}, "is_reserved": 0, "fusion_lon": 0.0, "fusion_lat": 0.0, "lon": -77.06865116666667, "name": "a5453d497dfcb85096a15b2669c3f088"}, {"bike_id": "9e28747940fb053c4a6268d1b54b83fc", "type": "electric_scooter", "is_disabled": 0, "lat": 38.92345483333333, "rental_uris": {"ios": "https://dc.lft.to/lastmile_qr_scan", "android": "https://dc.lft.to/lastmile_qr_scan"}, "is_reserved": 0, "fusion_lon": 0.0, "fusion_lat": 0.0, "lon": -77.0504415, "name": "9e28747940fb053c4a6268d1b54b83fc"}, {"bike_id": "7b0ee73b966ba4ced5990b49ae5b123c", "type": "electric_bike", "is_disabled": 0, "lat": 38.93561066666667, "rental_uris": {"ios": "https://dc.lft.to/lastmile_qr_scan", "android": "https://dc.lft.to/lastmile_qr_scan"}, "is_reserved": 0, "fusion_lon": 0.0, "fusion_lat": 0.0, "lon": -77.03697966666667, "name": "7b0ee73b966ba4ced5990b49ae5b123c"}, {"bike_id": "a2d320074fce2b6260d5f40f0b9a06c8", "type": "electric_scooter", "is_disabled": 0, "lat": 38.9248955, "rental_uris": {"ios": "https://dc.lft.to/lastmile_qr_scan", "android": "https://dc.lft.to/lastmile_qr_scan"}, "is_reserved": 0, "fusion_lon": 0.0, "fusion_lat": 0.0, "lon": -77.02715033333334, "name": "a2d320074fce2b6260d5f40f0b9a06c8"}, {"bike_id": "e217b31cc30fcface83151ae50c67dee", "type": "electric_scooter", "is_disabled": 0, "lat": 38.928677666666665, "rental_uris": {"ios": "https://dc.lft.to/lastmile_qr_scan", "android": "https://dc.lft.to/lastmile_qr_scan"}, "is_reserved": 0, "fusion_lon": 0.0, "fusion_lat": 0.0, "lon": -77.02175016666666, "name": "e217b31cc30fcface83151ae50c67dee"}, {"bike_id": "15e97a52b231b69fba0ea347f1ef9207", "type": "electric_scooter", "is_disabled": 0, "lat": 38.8767175, "rental_uris": {"ios": "https://dc.lft.to/lastmile_qr_scan", "android": "https://dc.lft.to/lastmile_qr_scan"}, "is_reserved": 0, "fusion_lon": 0.0, "fusion_lat": 0.0, "lon": -77.01981033333334, "name": "15e97a52b231b69fba0ea347f1ef9207"}, {"bike_id": "47a1c19083566423ec1867bc68b37491", "type": "electric_scooter", "is_disabled": 0, "lat": 38.92326216666667, "rental_uris": {"ios": "https://dc.lft.to/lastmile_qr_scan", "android": "https://dc.lft.to/lastmile_qr_scan"}, "is_reserved": 0, "fusion_lon": 0.0, "fusion_lat": 0.0, "lon": -77.0088935, "name": "47a1c19083566423ec1867bc68b37491"}, {"bike_id": "d32dbde9bebd6b5608fd96c25df433b6", "type": "electric_bike", "is_disabled": 0, "lat": 38.854387333333335, "rental_uris": {"ios": "https://dc.lft.to/lastmile_qr_scan", "android": "https://dc.lft.to/lastmile_qr_scan"}, "is_reserved": 0, "fusion_lon": 0.0, "fusion_lat": 0.0, "lon": -77.08307633333334, "name": "d32dbde9bebd6b5608fd96c25df433b6"}, {"bike_id": "667fae261a8358fc896d8ea201a7d3c9", "type": "electric_scooter", "is_disabled": 0, "lat": 38.904977, "rental_uris": {"ios": "https://dc.lft.to/lastmile_qr_scan", "android": "https://dc.lft.to/lastmile_qr_scan"}, "is_reserved": 0, "fusion_lon": 0.0, "fusion_lat": 0.0, "lon": -77.06016983333333, "name": "667fae261a8358fc896d8ea201a7d3c9"}, {"bike_id": "d702c6786a7eefec805cdcef3113dcae", "type": "electric_scooter", "is_disabled": 0, "lat": 38.901854, "rental_uris": {"ios": "https://dc.lft.to/lastmile_qr_scan", "android": "https://dc.lft.to/lastmile_qr_scan"}, "is_reserved": 0, "fusion_lon": 0.0, "fusion_lat": 0.0, "lon": -77.03944066666666, "name": "d702c6786a7eefec805cdcef3113dcae"}, {"bike_id": "8e16a57b2e05ba3a3fc192f788b937ea", "type": "electric_scooter", "is_disabled": 0, "lat": 38.92157916666667, "rental_uris": {"ios": "https://dc.lft.to/lastmile_qr_scan", "android": "https://dc.lft.to/lastmile_qr_scan"}, "is_reserved": 0, "fusion_lon": 0.0, "fusion_lat": 0.0, "lon": -77.0344095, "name": "8e16a57b2e05ba3a3fc192f788b937ea"}, {"bike_id": "71db1063b4bcd26b1de3e79ea51165e6", "type": "electric_scooter", "is_disabled": 0, "lat": 38.878503, "rental_uris": {"ios": "https://dc.lft.to/lastmile_qr_scan", "android": "https://dc.lft.to/lastmile_qr_scan"}, "is_reserved": 0, "fusion_lon": 0.0, "fusion_lat": 0.0, "lon": -77.0059405, "name": "71db1063b4bcd26b1de3e79ea51165e6"}, {"bike_id": "72c5b8d81d43fb640af2447d10ba467e", "type": "electric_scooter", "is_disabled": 0, "lat": 38.890906333333334, "rental_uris": {"ios": "https://dc.lft.to/lastmile_qr_scan", "android": "https://dc.lft.to/lastmile_qr_scan"}, "is_reserved": 0, "fusion_lon": 0.0, "fusion_lat": 0.0, "lon": -77.00258866666667, "name": "72c5b8d81d43fb640af2447d10ba467e"}, {"bike_id": "f0f8c64f1d1ef005c9f623aaf5e5f5d3", "type": "electric_scooter", "is_disabled": 0, "lat": 38.942143333333334, "rental_uris": {"ios": "https://dc.lft.to/lastmile_qr_scan", "android": "https://dc.lft.to/lastmile_qr_scan"}, "is_reserved": 0, "fusion_lon": 0.0, "fusion_lat": 0.0, "lon": -77.02584233333333, "name": "f0f8c64f1d1ef005c9f623aaf5e5f5d3"}, {"bike_id": "0f9e26584873110ab93e39766dbad236", "type": "electric_scooter", "is_disabled": 0, "lat": 38.9192165, "rental_uris": {"ios": "https://dc.lft.to/lastmile_qr_scan", "android": "https://dc.lft.to/lastmile_qr_scan"}, "is_reserved": 0, "fusion_lon": 0.0, "fusion_lat": 0.0, "lon": -77.03111, "name": "0f9e26584873110ab93e39766dbad236"}, {"bike_id": "182e54a880d92117b5b8821139282439", "type": "electric_scooter", "is_disabled": 0, "lat": 38.876689999999996, "rental_uris": {"ios": "https://dc.lft.to/lastmile_qr_scan", "android": "https://dc.lft.to/lastmile_qr_scan"}, "is_reserved": 0, "fusion_lon": 0.0, "fusion_lat": 0.0, "lon": -77.00413616666667, "name": "182e54a880d92117b5b8821139282439"}, {"bike_id": "bb54c7dca8815fbc8e559b7bb12b19b0", "type": "electric_scooter", "is_disabled": 0, "lat": 38.903786, "rental_uris": {"ios": "https://dc.lft.to/lastmile_qr_scan", "android": "https://dc.lft.to/lastmile_qr_scan"}, "is_reserved": 0, "fusion_lon": 0.0, "fusion_lat": 0.0, "lon": -77.05364283333333, "name": "bb54c7dca8815fbc8e559b7bb12b19b0"}, {"bike_id": "8da1a4d87effac7d7e2add82f31b5603", "type": "electric_scooter", "is_disabled": 0, "lat": 38.90581666666667, "rental_uris": {"ios": "https://dc.lft.to/lastmile_qr_scan", "android": "https://dc.lft.to/lastmile_qr_scan"}, "is_reserved": 0, "fusion_lon": 0.0, "fusion_lat": 0.0, "lon": -77.025954, "name": "8da1a4d87effac7d7e2add82f31b5603"}, {"bike_id": "62c8ba38b8d57bf2904d7bd92dde0023", "type": "electric_scooter", "is_disabled": 0, "lat": 38.926130666666666, "rental_uris": {"ios": "https://dc.lft.to/lastmile_qr_scan", "android": "https://dc.lft.to/lastmile_qr_scan"}, "is_reserved": 0, "fusion_lon": 0.0, "fusion_lat": 0.0, "lon": -77.026574, "name": "62c8ba38b8d57bf2904d7bd92dde0023"}, {"bike_id": "c6c41dc9e683a5abda56c3a600cde053", "type": "electric_scooter", "is_disabled": 0, "lat": 38.915661, "rental_uris": {"ios": "https://dc.lft.to/lastmile_qr_scan", "android": "https://dc.lft.to/lastmile_qr_scan"}, "is_reserved": 0, "fusion_lon": 0.0, "fusion_lat": 0.0, "lon": -77.038687, "name": "c6c41dc9e683a5abda56c3a600cde053"}, {"bike_id": "a676602ed5bad3a15875643056adeb0f", "type": "electric_scooter", "is_disabled": 0, "lat": 38.912788166666665, "rental_uris": {"ios": "https://dc.lft.to/lastmile_qr_scan", "android": "https://dc.lft.to/lastmile_qr_scan"}, "is_reserved": 0, "fusion_lon": 0.0, "fusion_lat": 0.0, "lon": -77.022412, "name": "a676602ed5bad3a15875643056adeb0f"}, {"bike_id": "331542daaf30d43c5f938c783dba22f2", "type": "electric_scooter", "is_disabled": 0, "lat": 38.905152333333334, "rental_uris": {"ios": "https://dc.lft.to/lastmile_qr_scan", "android": "https://dc.lft.to/lastmile_qr_scan"}, "is_reserved": 0, "fusion_lon": 0.0, "fusion_lat": 0.0, "lon": -77.06873833333333, "name": "331542daaf30d43c5f938c783dba22f2"}, {"bike_id": "f861263e3d95ff850a595b9ed922d89f", "type": "electric_scooter", "is_disabled": 0, "lat": 38.922056166666664, "rental_uris": {"ios": "https://dc.lft.to/lastmile_qr_scan", "android": "https://dc.lft.to/lastmile_qr_scan"}, "is_reserved": 0, "fusion_lon": 0.0, "fusion_lat": 0.0, "lon": -77.03511516666667, "name": "f861263e3d95ff850a595b9ed922d89f"}, {"bike_id": "43f7817c2e8dfbd5e3cf857e8951e198", "type": "electric_scooter", "is_disabled": 0, "lat": 38.95408116666667, "rental_uris": {"ios": "https://dc.lft.to/lastmile_qr_scan", "android": "https://dc.lft.to/lastmile_qr_scan"}, "is_reserved": 0, "fusion_lon": 0.0, "fusion_lat": 0.0, "lon": -76.99855333333333, "name": "43f7817c2e8dfbd5e3cf857e8951e198"}, {"bike_id": "d71dea6dd762a84958f0e3c32580e4b3", "type": "electric_scooter", "is_disabled": 0, "lat": 38.92658016666667, "rental_uris": {"ios": "https://dc.lft.to/lastmile_qr_scan", "android": "https://dc.lft.to/lastmile_qr_scan"}, "is_reserved": 0, "fusion_lon": 0.0, "fusion_lat": 0.0, "lon": -77.03725316666667, "name": "d71dea6dd762a84958f0e3c32580e4b3"}, {"bike_id": "33c68743a1930f1543d3d517cdc8d0d1", "type": "electric_scooter", "is_disabled": 0, "lat": 38.93341916666667, "rental_uris": {"ios": "https://dc.lft.to/lastmile_qr_scan", "android": "https://dc.lft.to/lastmile_qr_scan"}, "is_reserved": 0, "fusion_lon": 0.0, "fusion_lat": 0.0, "lon": -77.03878633333333, "name": "33c68743a1930f1543d3d517cdc8d0d1"}, {"bike_id": "ad6fe11130f262c56c98a60311a0ccee", "type": "electric_scooter", "is_disabled": 0, "lat": 38.9285445, "rental_uris": {"ios": "https://dc.lft.to/lastmile_qr_scan", "android": "https://dc.lft.to/lastmile_qr_scan"}, "is_reserved": 0, "fusion_lon": 0.0, "fusion_lat": 0.0, "lon": -77.02735233333334, "name": "ad6fe11130f262c56c98a60311a0ccee"}, {"bike_id": "c010b12a58d17ba11f1def2b0cac4f97", "type": "electric_bike", "is_disabled": 0, "lat": 38.9245845, "rental_uris": {"ios": "https://dc.lft.to/lastmile_qr_scan", "android": "https://dc.lft.to/lastmile_qr_scan"}, "is_reserved": 0, "fusion_lon": 0.0, "fusion_lat": 0.0, "lon": -76.97559283333334, "name": "c010b12a58d17ba11f1def2b0cac4f97"}, {"bike_id": "d46d293892c462b553600888057e2135", "type": "electric_scooter", "is_disabled": 0, "lat": 38.933729, "rental_uris": {"ios": "https://dc.lft.to/lastmile_qr_scan", "android": "https://dc.lft.to/lastmile_qr_scan"}, "is_reserved": 0, "fusion_lon": 0.0, "fusion_lat": 0.0, "lon": -77.03986616666667, "name": "d46d293892c462b553600888057e2135"}, {"bike_id": "c3cbb3718a531280ff6e48c744d6a0bd", "type": "electric_scooter", "is_disabled": 0, "lat": 38.90678283333333, "rental_uris": {"ios": "https://dc.lft.to/lastmile_qr_scan", "android": "https://dc.lft.to/lastmile_qr_scan"}, "is_reserved": 0, "fusion_lon": 0.0, "fusion_lat": 0.0, "lon": -77.071827, "name": "c3cbb3718a531280ff6e48c744d6a0bd"}, {"bike_id": "d8a9d0c3077a694bd51cd9558a099619", "type": "electric_scooter", "is_disabled": 0, "lat": 38.862490333333334, "rental_uris": {"ios": "https://dc.lft.to/lastmile_qr_scan", "android": "https://dc.lft.to/lastmile_qr_scan"}, "is_reserved": 0, "fusion_lon": 0.0, "fusion_lat": 0.0, "lon": -76.99501716666667, "name": "d8a9d0c3077a694bd51cd9558a099619"}, {"bike_id": "ca29ee0d76258006e00bd60bfc1e8cdd", "type": "electric_scooter", "is_disabled": 0, "lat": 38.91707433333333, "rental_uris": {"ios": "https://dc.lft.to/lastmile_qr_scan", "android": "https://dc.lft.to/lastmile_qr_scan"}, "is_reserved": 0, "fusion_lon": 0.0, "fusion_lat": 0.0, "lon": -77.01069433333333, "name": "ca29ee0d76258006e00bd60bfc1e8cdd"}, {"bike_id": "99b14d072ea8cb1644f2035b11756f46", "type": "electric_scooter", "is_disabled": 0, "lat": 38.8806125, "rental_uris": {"ios": "https://dc.lft.to/lastmile_qr_scan", "android": "https://dc.lft.to/lastmile_qr_scan"}, "is_reserved": 0, "fusion_lon": 0.0, "fusion_lat": 0.0, "lon": -76.932202, "name": "99b14d072ea8cb1644f2035b11756f46"}, {"bike_id": "1dac691e63f5aadc59038adfb84c7371", "type": "electric_scooter", "is_disabled": 0, "lat": 38.9163875, "rental_uris": {"ios": "https://dc.lft.to/lastmile_qr_scan", "android": "https://dc.lft.to/lastmile_qr_scan"}, "is_reserved": 0, "fusion_lon": 0.0, "fusion_lat": 0.0, "lon": -77.04231833333333, "name": "1dac691e63f5aadc59038adfb84c7371"}, {"bike_id": "44abf8026045a1a4c8db46f56753c7ac", "type": "electric_scooter", "is_disabled": 0, "lat": 38.87419116666667, "rental_uris": {"ios": "https://dc.lft.to/lastmile_qr_scan", "android": "https://dc.lft.to/lastmile_qr_scan"}, "is_reserved": 0, "fusion_lon": 0.0, "fusion_lat": 0.0, "lon": -76.97108716666666, "name": "44abf8026045a1a4c8db46f56753c7ac"}, {"bike_id": "0740595e79a6229de4f24bb4c026b26b", "type": "electric_scooter", "is_disabled": 0, "lat": 38.893243166666664, "rental_uris": {"ios": "https://dc.lft.to/lastmile_qr_scan", "android": "https://dc.lft.to/lastmile_qr_scan"}, "is_reserved": 0, "fusion_lon": 0.0, "fusion_lat": 0.0, "lon": -77.04872216666666, "name": "0740595e79a6229de4f24bb4c026b26b"}, {"bike_id": "7ed252635851d98eca4461835d5e37b2", "type": "electric_scooter", "is_disabled": 0, "lat": 38.89899833333333, "rental_uris": {"ios": "https://dc.lft.to/lastmile_qr_scan", "android": "https://dc.lft.to/lastmile_qr_scan"}, "is_reserved": 0, "fusion_lon": 0.0, "fusion_lat": 0.0, "lon": -77.015167, "name": "7ed252635851d98eca4461835d5e37b2"}, {"bike_id": "87e662064a764b618c0928cfa071c1ef", "type": "electric_scooter", "is_disabled": 0, "lat": 38.9515145, "rental_uris": {"ios": "https://dc.lft.to/lastmile_qr_scan", "android": "https://dc.lft.to/lastmile_qr_scan"}, "is_reserved": 0, "fusion_lon": 0.0, "fusion_lat": 0.0, "lon": -77.018682, "name": "87e662064a764b618c0928cfa071c1ef"}, {"bike_id": "cd3f93c2e684766bcdddbf7330d8e4ee", "type": "electric_scooter", "is_disabled": 0, "lat": 38.9302285, "rental_uris": {"ios": "https://dc.lft.to/lastmile_qr_scan", "android": "https://dc.lft.to/lastmile_qr_scan"}, "is_reserved": 0, "fusion_lon": 0.0, "fusion_lat": 0.0, "lon": -77.0662795, "name": "cd3f93c2e684766bcdddbf7330d8e4ee"}, {"bike_id": "610b89168a760aeb108d1ca490db590d", "type": "electric_scooter", "is_disabled": 0, "lat": 38.914813333333335, "rental_uris": {"ios": "https://dc.lft.to/lastmile_qr_scan", "android": "https://dc.lft.to/lastmile_qr_scan"}, "is_reserved": 0, "fusion_lon": 0.0, "fusion_lat": 0.0, "lon": -77.002852, "name": "610b89168a760aeb108d1ca490db590d"}, {"bike_id": "2913e387aa25e6ad9115875f7d9e4564", "type": "electric_scooter", "is_disabled": 0, "lat": 38.903729166666665, "rental_uris": {"ios": "https://dc.lft.to/lastmile_qr_scan", "android": "https://dc.lft.to/lastmile_qr_scan"}, "is_reserved": 0, "fusion_lon": 0.0, "fusion_lat": 0.0, "lon": -77.0163, "name": "2913e387aa25e6ad9115875f7d9e4564"}, {"bike_id": "6c42693ea47f5ae206e804f8204dad80", "type": "electric_scooter", "is_disabled": 0, "lat": 38.906856166666664, "rental_uris": {"ios": "https://dc.lft.to/lastmile_qr_scan", "android": "https://dc.lft.to/lastmile_qr_scan"}, "is_reserved": 0, "fusion_lon": 0.0, "fusion_lat": 0.0, "lon": -77.02689833333334, "name": "6c42693ea47f5ae206e804f8204dad80"}, {"bike_id": "692c71a960171683459cbd9d3762ae84", "type": "electric_scooter", "is_disabled": 0, "lat": 38.9395605, "rental_uris": {"ios": "https://dc.lft.to/lastmile_qr_scan", "android": "https://dc.lft.to/lastmile_qr_scan"}, "is_reserved": 0, "fusion_lon": 0.0, "fusion_lat": 0.0, "lon": -77.07253483333334, "name": "692c71a960171683459cbd9d3762ae84"}, {"bike_id": "9b0ce0b5d207127079e9cb948957954d", "type": "electric_scooter", "is_disabled": 0, "lat": 38.9190395, "rental_uris": {"ios": "https://dc.lft.to/lastmile_qr_scan", "android": "https://dc.lft.to/lastmile_qr_scan"}, "is_reserved": 0, "fusion_lon": 0.0, "fusion_lat": 0.0, "lon": -77.04591166666667, "name": "9b0ce0b5d207127079e9cb948957954d"}, {"bike_id": "55f1f03e21710787ed5c40386a4fa6b6", "type": "electric_scooter", "is_disabled": 0, "lat": 38.90717766666667, "rental_uris": {"ios": "https://dc.lft.to/lastmile_qr_scan", "android": "https://dc.lft.to/lastmile_qr_scan"}, "is_reserved": 0, "fusion_lon": 0.0, "fusion_lat": 0.0, "lon": -77.00053366666667, "name": "55f1f03e21710787ed5c40386a4fa6b6"}, {"bike_id": "5ef029556546397fa6ce74064f3c7927", "type": "electric_scooter", "is_disabled": 0, "lat": 38.89923733333333, "rental_uris": {"ios": "https://dc.lft.to/lastmile_qr_scan", "android": "https://dc.lft.to/lastmile_qr_scan"}, "is_reserved": 0, "fusion_lon": 0.0, "fusion_lat": 0.0, "lon": -77.05365466666667, "name": "5ef029556546397fa6ce74064f3c7927"}, {"bike_id": "8e3f1db580a449f7192bd1be1d52b461", "type": "electric_bike", "is_disabled": 0, "lat": 38.92030966666667, "rental_uris": {"ios": "https://dc.lft.to/lastmile_qr_scan", "android": "https://dc.lft.to/lastmile_qr_scan"}, "is_reserved": 0, "fusion_lon": 0.0, "fusion_lat": 0.0, "lon": -77.01830583333333, "name": "8e3f1db580a449f7192bd1be1d52b461"}, {"bike_id": "266bba5aeb430ecb86550e390a059fea", "type": "electric_scooter", "is_disabled": 0, "lat": 38.891178833333335, "rental_uris": {"ios": "https://dc.lft.to/lastmile_qr_scan", "android": "https://dc.lft.to/lastmile_qr_scan"}, "is_reserved": 0, "fusion_lon": 0.0, "fusion_lat": 0.0, "lon": -76.99165733333334, "name": "266bba5aeb430ecb86550e390a059fea"}, {"bike_id": "e5242a6768d8a4fec342677efa522a17", "type": "electric_scooter", "is_disabled": 0, "lat": 38.90136866666667, "rental_uris": {"ios": "https://dc.lft.to/lastmile_qr_scan", "android": "https://dc.lft.to/lastmile_qr_scan"}, "is_reserved": 0, "fusion_lon": 0.0, "fusion_lat": 0.0, "lon": -77.0380735, "name": "e5242a6768d8a4fec342677efa522a17"}, {"bike_id": "feb34d2a758f417d92c2397bdc7fc2dc", "type": "electric_scooter", "is_disabled": 0, "lat": 38.92657633333334, "rental_uris": {"ios": "https://dc.lft.to/lastmile_qr_scan", "android": "https://dc.lft.to/lastmile_qr_scan"}, "is_reserved": 0, "fusion_lon": 0.0, "fusion_lat": 0.0, "lon": -77.03728483333333, "name": "feb34d2a758f417d92c2397bdc7fc2dc"}, {"bike_id": "418ae4adffa60258156c5a3ff0be0b08", "type": "electric_scooter", "is_disabled": 0, "lat": 38.90973833333334, "rental_uris": {"ios": "https://dc.lft.to/lastmile_qr_scan", "android": "https://dc.lft.to/lastmile_qr_scan"}, "is_reserved": 0, "fusion_lon": 0.0, "fusion_lat": 0.0, "lon": -77.03752916666667, "name": "418ae4adffa60258156c5a3ff0be0b08"}, {"bike_id": "e355d6470cd3a891d7e801e4120d70c5", "type": "electric_scooter", "is_disabled": 0, "lat": 38.91420516666667, "rental_uris": {"ios": "https://dc.lft.to/lastmile_qr_scan", "android": "https://dc.lft.to/lastmile_qr_scan"}, "is_reserved": 0, "fusion_lon": 0.0, "fusion_lat": 0.0, "lon": -77.02250816666667, "name": "e355d6470cd3a891d7e801e4120d70c5"}, {"bike_id": "e9971833c0722b029402dd893b87b3e9", "type": "electric_scooter", "is_disabled": 0, "lat": 38.9038655, "rental_uris": {"ios": "https://dc.lft.to/lastmile_qr_scan", "android": "https://dc.lft.to/lastmile_qr_scan"}, "is_reserved": 0, "fusion_lon": 0.0, "fusion_lat": 0.0, "lon": -77.01635783333333, "name": "e9971833c0722b029402dd893b87b3e9"}, {"bike_id": "e95c64cddfd6defeca3e458f0b86edb7", "type": "electric_scooter", "is_disabled": 0, "lat": 38.9170275, "rental_uris": {"ios": "https://dc.lft.to/lastmile_qr_scan", "android": "https://dc.lft.to/lastmile_qr_scan"}, "is_reserved": 0, "fusion_lon": 0.0, "fusion_lat": 0.0, "lon": -77.0079955, "name": "e95c64cddfd6defeca3e458f0b86edb7"}, {"bike_id": "f0077ea43c9d9309b461ca87793520e8", "type": "electric_scooter", "is_disabled": 0, "lat": 38.925797, "rental_uris": {"ios": "https://dc.lft.to/lastmile_qr_scan", "android": "https://dc.lft.to/lastmile_qr_scan"}, "is_reserved": 0, "fusion_lon": 0.0, "fusion_lat": 0.0, "lon": -77.02757816666667, "name": "f0077ea43c9d9309b461ca87793520e8"}, {"bike_id": "9a6ab677117fae2d502fac73cabc8c04", "type": "electric_scooter", "is_disabled": 0, "lat": 38.9226545, "rental_uris": {"ios": "https://dc.lft.to/lastmile_qr_scan", "android": "https://dc.lft.to/lastmile_qr_scan"}, "is_reserved": 0, "fusion_lon": 0.0, "fusion_lat": 0.0, "lon": -77.03257266666667, "name": "9a6ab677117fae2d502fac73cabc8c04"}, {"bike_id": "9cc8e10d60e1337ce773bc279e9639ce", "type": "electric_scooter", "is_disabled": 0, "lat": 38.878150166666664, "rental_uris": {"ios": "https://dc.lft.to/lastmile_qr_scan", "android": "https://dc.lft.to/lastmile_qr_scan"}, "is_reserved": 0, "fusion_lon": 0.0, "fusion_lat": 0.0, "lon": -76.93091966666667, "name": "9cc8e10d60e1337ce773bc279e9639ce"}, {"bike_id": "a5c1fdcd18ab2536e7cceab1be0546fa", "type": "electric_bike", "is_disabled": 0, "lat": 38.93649516666667, "rental_uris": {"ios": "https://dc.lft.to/lastmile_qr_scan", "android": "https://dc.lft.to/lastmile_qr_scan"}, "is_reserved": 0, "fusion_lon": 0.0, "fusion_lat": 0.0, "lon": -77.02087816666666, "name": "a5c1fdcd18ab2536e7cceab1be0546fa"}, {"bike_id": "edbe758d9dbd2cb56f024a9389c53390", "type": "electric_scooter", "is_disabled": 0, "lat": 38.932489, "rental_uris": {"ios": "https://dc.lft.to/lastmile_qr_scan", "android": "https://dc.lft.to/lastmile_qr_scan"}, "is_reserved": 0, "fusion_lon": 0.0, "fusion_lat": 0.0, "lon": -77.038409, "name": "edbe758d9dbd2cb56f024a9389c53390"}, {"bike_id": "f2beafc867495151639991ff06cacbfb", "type": "electric_scooter", "is_disabled": 0, "lat": 38.9001475, "rental_uris": {"ios": "https://dc.lft.to/lastmile_qr_scan", "android": "https://dc.lft.to/lastmile_qr_scan"}, "is_reserved": 0, "fusion_lon": 0.0, "fusion_lat": 0.0, "lon": -77.04467783333334, "name": "f2beafc867495151639991ff06cacbfb"}, {"bike_id": "0ef80c0f3414188a51e992e215b8381c", "type": "electric_bike", "is_disabled": 0, "lat": 38.96133583333334, "rental_uris": {"ios": "https://dc.lft.to/lastmile_qr_scan", "android": "https://dc.lft.to/lastmile_qr_scan"}, "is_reserved": 0, "fusion_lon": 0.0, "fusion_lat": 0.0, "lon": -77.033365, "name": "0ef80c0f3414188a51e992e215b8381c"}, {"bike_id": "0ab7b054a49a69a0d827b59c5d2a405c", "type": "electric_scooter", "is_disabled": 0, "lat": 38.949920166666665, "rental_uris": {"ios": "https://dc.lft.to/lastmile_qr_scan", "android": "https://dc.lft.to/lastmile_qr_scan"}, "is_reserved": 0, "fusion_lon": 0.0, "fusion_lat": 0.0, "lon": -77.02698183333334, "name": "0ab7b054a49a69a0d827b59c5d2a405c"}, {"bike_id": "34195d180c530dc0ad46b102eb26e889", "type": "electric_bike", "is_disabled": 0, "lat": 38.87301316666667, "rental_uris": {"ios": "https://dc.lft.to/lastmile_qr_scan", "android": "https://dc.lft.to/lastmile_qr_scan"}, "is_reserved": 0, "fusion_lon": 0.0, "fusion_lat": 0.0, "lon": -76.96980183333334, "name": "34195d180c530dc0ad46b102eb26e889"}, {"bike_id": "38081398cb7484aa93b2bb63e9aa2200", "type": "electric_scooter", "is_disabled": 0, "lat": 38.905903333333335, "rental_uris": {"ios": "https://dc.lft.to/lastmile_qr_scan", "android": "https://dc.lft.to/lastmile_qr_scan"}, "is_reserved": 0, "fusion_lon": 0.0, "fusion_lat": 0.0, "lon": -77.0488495, "name": "38081398cb7484aa93b2bb63e9aa2200"}, {"bike_id": "200d574a63ceb013222c6aabbb3e39af", "type": "electric_scooter", "is_disabled": 0, "lat": 38.9231465, "rental_uris": {"ios": "https://dc.lft.to/lastmile_qr_scan", "android": "https://dc.lft.to/lastmile_qr_scan"}, "is_reserved": 0, "fusion_lon": 0.0, "fusion_lat": 0.0, "lon": -77.0381105, "name": "200d574a63ceb013222c6aabbb3e39af"}, {"bike_id": "2deacdb303f4da7831c86c8b80cebf9c", "type": "electric_scooter", "is_disabled": 0, "lat": 38.88587183333333, "rental_uris": {"ios": "https://dc.lft.to/lastmile_qr_scan", "android": "https://dc.lft.to/lastmile_qr_scan"}, "is_reserved": 0, "fusion_lon": 0.0, "fusion_lat": 0.0, "lon": -77.028386, "name": "2deacdb303f4da7831c86c8b80cebf9c"}, {"bike_id": "9ba798f5117d199cbbb74475a8fd7035", "type": "electric_scooter", "is_disabled": 0, "lat": 38.9040795, "rental_uris": {"ios": "https://dc.lft.to/lastmile_qr_scan", "android": "https://dc.lft.to/lastmile_qr_scan"}, "is_reserved": 0, "fusion_lon": 0.0, "fusion_lat": 0.0, "lon": -76.97327933333334, "name": "9ba798f5117d199cbbb74475a8fd7035"}, {"bike_id": "12237e80e4c5be2dac55249cef3e8dc7", "type": "electric_scooter", "is_disabled": 0, "lat": 38.924600833333336, "rental_uris": {"ios": "https://dc.lft.to/lastmile_qr_scan", "android": "https://dc.lft.to/lastmile_qr_scan"}, "is_reserved": 0, "fusion_lon": 0.0, "fusion_lat": 0.0, "lon": -76.99910583333333, "name": "12237e80e4c5be2dac55249cef3e8dc7"}, {"bike_id": "4028aeb20e517cecfcffb43fb5c3790f", "type": "electric_scooter", "is_disabled": 0, "lat": 38.90122216666666, "rental_uris": {"ios": "https://dc.lft.to/lastmile_qr_scan", "android": "https://dc.lft.to/lastmile_qr_scan"}, "is_reserved": 0, "fusion_lon": 0.0, "fusion_lat": 0.0, "lon": -76.9295345, "name": "4028aeb20e517cecfcffb43fb5c3790f"}, {"bike_id": "f1841cc0809f52f9110b22a7ae6b85bf", "type": "electric_scooter", "is_disabled": 0, "lat": 38.937511, "rental_uris": {"ios": "https://dc.lft.to/lastmile_qr_scan", "android": "https://dc.lft.to/lastmile_qr_scan"}, "is_reserved": 0, "fusion_lon": 0.0, "fusion_lat": 0.0, "lon": -77.02473666666667, "name": "f1841cc0809f52f9110b22a7ae6b85bf"}, {"bike_id": "d869053fd85a68a8abfb359975295d50", "type": "electric_scooter", "is_disabled": 0, "lat": 38.9313455, "rental_uris": {"ios": "https://dc.lft.to/lastmile_qr_scan", "android": "https://dc.lft.to/lastmile_qr_scan"}, "is_reserved": 0, "fusion_lon": 0.0, "fusion_lat": 0.0, "lon": -77.02795983333333, "name": "d869053fd85a68a8abfb359975295d50"}, {"bike_id": "564fb41c33119cab9dd7ddec43d874fc", "type": "electric_scooter", "is_disabled": 0, "lat": 38.92022583333333, "rental_uris": {"ios": "https://dc.lft.to/lastmile_qr_scan", "android": "https://dc.lft.to/lastmile_qr_scan"}, "is_reserved": 0, "fusion_lon": 0.0, "fusion_lat": 0.0, "lon": -77.0419325, "name": "564fb41c33119cab9dd7ddec43d874fc"}, {"bike_id": "fac983c3228ce789aa85fddb772517a7", "type": "electric_scooter", "is_disabled": 0, "lat": 38.923708833333336, "rental_uris": {"ios": "https://dc.lft.to/lastmile_qr_scan", "android": "https://dc.lft.to/lastmile_qr_scan"}, "is_reserved": 0, "fusion_lon": 0.0, "fusion_lat": 0.0, "lon": -77.01915116666666, "name": "fac983c3228ce789aa85fddb772517a7"}, {"bike_id": "b44d07d03f86effc39b426189666e857", "type": "electric_scooter", "is_disabled": 0, "lat": 38.902811, "rental_uris": {"ios": "https://dc.lft.to/lastmile_qr_scan", "android": "https://dc.lft.to/lastmile_qr_scan"}, "is_reserved": 0, "fusion_lon": 0.0, "fusion_lat": 0.0, "lon": -77.003519, "name": "b44d07d03f86effc39b426189666e857"}, {"bike_id": "0c2556a4d8129500f8f0f70044cf5d17", "type": "electric_scooter", "is_disabled": 0, "lat": 38.956318333333336, "rental_uris": {"ios": "https://dc.lft.to/lastmile_qr_scan", "android": "https://dc.lft.to/lastmile_qr_scan"}, "is_reserved": 0, "fusion_lon": 0.0, "fusion_lat": 0.0, "lon": -77.03612933333334, "name": "0c2556a4d8129500f8f0f70044cf5d17"}, {"bike_id": "de44f808116a4f1f1d319ea148d5b82b", "type": "electric_scooter", "is_disabled": 0, "lat": 38.9245325, "rental_uris": {"ios": "https://dc.lft.to/lastmile_qr_scan", "android": "https://dc.lft.to/lastmile_qr_scan"}, "is_reserved": 0, "fusion_lon": 0.0, "fusion_lat": 0.0, "lon": -77.0240475, "name": "de44f808116a4f1f1d319ea148d5b82b"}, {"bike_id": "d550ef471bb29e971342995553159815", "type": "electric_scooter", "is_disabled": 0, "lat": 38.8734075, "rental_uris": {"ios": "https://dc.lft.to/lastmile_qr_scan", "android": "https://dc.lft.to/lastmile_qr_scan"}, "is_reserved": 0, "fusion_lon": 0.0, "fusion_lat": 0.0, "lon": -76.96782766666666, "name": "d550ef471bb29e971342995553159815"}, {"bike_id": "af7b200100f47eede13b198e01dd343c", "type": "electric_scooter", "is_disabled": 0, "lat": 38.877369333333334, "rental_uris": {"ios": "https://dc.lft.to/lastmile_qr_scan", "android": "https://dc.lft.to/lastmile_qr_scan"}, "is_reserved": 0, "fusion_lon": 0.0, "fusion_lat": 0.0, "lon": -77.0199475, "name": "af7b200100f47eede13b198e01dd343c"}, {"bike_id": "60a4d0d8872bb7d93ecb8eaec742db3d", "type": "electric_scooter", "is_disabled": 0, "lat": 38.929001, "rental_uris": {"ios": "https://dc.lft.to/lastmile_qr_scan", "android": "https://dc.lft.to/lastmile_qr_scan"},