{"data": {"bikes": [{"is_reserved": 0, "is_disabled": 0, "fusion_lon": 0.0, "lat": 38.898332, "name": "68c146ca9d2b83a96207fe9f0421c513", "bike_id": "68c146ca9d2b83a96207fe9f0421c513", "lon": -77.046985, "fusion_lat": 0.0, "rental_uris": {"android": "https://dc.lft.to/lastmile_qr_scan", "ios": "https://dc.lft.to/lastmile_qr_scan"}, "type": "electric_scooter"}, {"is_reserved": 0, "is_disabled": 0, "fusion_lon": 0.0, "lat": 38.903614833333336, "name": "29c62a0880e5af54a73a59214ee4c035", "bike_id": "29c62a0880e5af54a73a59214ee4c035", "lon": -77.05150766666667, "fusion_lat": 0.0, "rental_uris": {"android": "https://dc.lft.to/lastmile_qr_scan", "ios": "https://dc.lft.to/lastmile_qr_scan"}, "type": "electric_scooter"}, {"is_reserved": 0, "is_disabled": 0, "fusion_lon": 0.0, "lat": 38.900393, "name": "9d9fb5e4a6639052b594eb99ac4f2b09", "bike_id": "9d9fb5e4a6639052b594eb99ac4f2b09", "lon": -76.98832483333334, "fusion_lat": 0.0, "rental_uris": {"android": "https://dc.lft.to/lastmile_qr_scan", "ios": "https://dc.lft.to/lastmile_qr_scan"}, "type": "electric_scooter"}, {"is_reserved": 0, "is_disabled": 0, "fusion_lon": 0.0, "lat": 38.883633833333334, "name": "24d5ea773616607ff53310ccf374a21a", "bike_id": "24d5ea773616607ff53310ccf374a21a", "lon": -77.02621866666667, "fusion_lat": 0.0, "rental_uris": {"android": "https://dc.lft.to/lastmile_qr_scan", "ios": "https://dc.lft.to/lastmile_qr_scan"}, "type": "electric_scooter"}, {"is_reserved": 0, "is_disabled": 0, "fusion_lon": 0.0, "lat": 38.8929005, "name": "2932b8d95b19431d89d03fbfdc9c9b5c", "bike_id": "2932b8d95b19431d89d03fbfdc9c9b5c", "lon": -76.97619, "fusion_lat": 0.0, "rental_uris": {"android": "https://dc.lft.to/lastmile_qr_scan", "ios": "https://dc.lft.to/lastmile_qr_scan"}, "type": "electric_bike"}, {"is_reserved": 0, "is_disabled": 0, "fusion_lon": 0.0, "lat": 38.92466016666667, "name": "ff4a928a3e9139b68d58a31bc8659b15", "bike_id": "ff4a928a3e9139b68d58a31bc8659b15", "lon": -77.021924, "fusion_lat": 0.0, "rental_uris": {"android": "https://dc.lft.to/lastmile_qr_scan", "ios": "https://dc.lft.to/lastmile_qr_scan"}, "type": "electric_scooter"}, {"is_reserved": 0, "is_disabled": 0, "fusion_lon": 0.0, "lat": 38.9174745, "name": "bd0a5adec1b317b0779a062495d530b2", "bike_id": "bd0a5adec1b317b0779a062495d530b2", "lon": -77.0415815, "fusion_lat": 0.0, "rental_uris": {"android": "https://dc.lft.to/lastmile_qr_scan", "ios": "https://dc.lft.to/lastmile_qr_scan"}, "type": "electric_scooter"}, {"is_reserved": 0, "is_disabled": 0, "fusion_lon": 0.0, "lat": 38.9319235, "name": "5c26c1f86bbe0858f243e1c97a974bb4", "bike_id": "5c26c1f86bbe0858f243e1c97a974bb4", "lon": -77.07200233333333, "fusion_lat": 0.0, "rental_uris": {"android": "https://dc.lft.to/lastmile_qr_scan", "ios": "https://dc.lft.to/lastmile_qr_scan"}, "type": "electric_scooter"}, {"is_reserved": 0, "is_disabled": 0, "fusion_lon": 0.0, "lat": 38.938671, "name": "059a7467ebebf1e671437e6ae933ed4b", "bike_id": "059a7467ebebf1e671437e6ae933ed4b", "lon": -77.025168, "fusion_lat": 0.0, "rental_uris": {"android": "https://dc.lft.to/lastmile_qr_scan", "ios": "https://dc.lft.to/lastmile_qr_scan"}, "type": "electric_scooter"}, {"is_reserved": 0, "is_disabled": 0, "fusion_lon": 0.0, "lat": 38.8922005, "name": "49a4accb1b7e28ec709e08274d195575", "bike_id": "49a4accb1b7e28ec709e08274d195575", "lon": -77.02172566666667, "fusion_lat": 0.0, "rental_uris": {"android": "https://dc.lft.to/lastmile_qr_scan", "ios": "https://dc.lft.to/lastmile_qr_scan"}, "type": "electric_scooter"}, {"is_reserved": 0, "is_disabled": 0, "fusion_lon": 0.0, "lat": 38.92435483333333, "name": "24ecbe103b14cd37b82050d3931fbb2f", "bike_id": "24ecbe103b14cd37b82050d3931fbb2f", "lon": -77.02130616666666, "fusion_lat": 0.0, "rental_uris": {"android": "https://dc.lft.to/lastmile_qr_scan", "ios": "https://dc.lft.to/lastmile_qr_scan"}, "type": "electric_scooter"}, {"is_reserved": 0, "is_disabled": 0, "fusion_lon": 0.0, "lat": 38.914185333333336, "name": "a57dabf88a7c79769ee7fa764214bd0b", "bike_id": "a57dabf88a7c79769ee7fa764214bd0b", "lon": -77.03175533333334, "fusion_lat": 0.0, "rental_uris": {"android": "https://dc.lft.to/lastmile_qr_scan", "ios": "https://dc.lft.to/lastmile_qr_scan"}, "type": "electric_scooter"}, {"is_reserved": 0, "is_disabled": 0, "fusion_lon": 0.0, "lat": 38.878024, "name": "15b0581326b6e7aa97b9a9c6c14a7af2", "bike_id": "15b0581326b6e7aa97b9a9c6c14a7af2", "lon": -77.00752833333334, "fusion_lat": 0.0, "rental_uris": {"android": "https://dc.lft.to/lastmile_qr_scan", "ios": "https://dc.lft.to/lastmile_qr_scan"}, "type": "electric_scooter"}, {"is_reserved": 0, "is_disabled": 0, "fusion_lon": 0.0, "lat": 38.924495666666665, "name": "21481585eb74f9dec69f4ca656dccd2e", "bike_id": "21481585eb74f9dec69f4ca656dccd2e", "lon": -77.02249466666666, "fusion_lat": 0.0, "rental_uris": {"android": "https://dc.lft.to/lastmile_qr_scan", "ios": "https://dc.lft.to/lastmile_qr_scan"}, "type": "electric_scooter"}, {"is_reserved": 0, "is_disabled": 0, "fusion_lon": 0.0, "lat": 38.889691666666664, "name": "f1e0053e374080d95fca516c3715fbb0", "bike_id": "f1e0053e374080d95fca516c3715fbb0", "lon": -76.99275033333333, "fusion_lat": 0.0, "rental_uris": {"android": "https://dc.lft.to/lastmile_qr_scan", "ios": "https://dc.lft.to/lastmile_qr_scan"}, "type": "electric_scooter"}, {"is_reserved": 0, "is_disabled": 0, "fusion_lon": 0.0, "lat": 38.87926783333333, "name": "03f6f9e523f28f814ca5fafd1b25f17d", "bike_id": "03f6f9e523f28f814ca5fafd1b25f17d", "lon": -77.02154133333333, "fusion_lat": 0.0, "rental_uris": {"android": "https://dc.lft.to/lastmile_qr_scan", "ios": "https://dc.lft.to/lastmile_qr_scan"}, "type": "electric_scooter"}, {"is_reserved": 0, "is_disabled": 0, "fusion_lon": 0.0, "lat": 38.89908333333333, "name": "4a9c86c92830201df2fec88348772ceb", "bike_id": "4a9c86c92830201df2fec88348772ceb", "lon": -77.01381533333333, "fusion_lat": 0.0, "rental_uris": {"android": "https://dc.lft.to/lastmile_qr_scan", "ios": "https://dc.lft.to/lastmile_qr_scan"}, "type": "electric_scooter"}, {"is_reserved": 0, "is_disabled": 0, "fusion_lon": 0.0, "lat": 38.934501, "name": "2554ba36efbfa18f812e2114416d00d2", "bike_id": "2554ba36efbfa18f812e2114416d00d2", "lon": -77.021029, "fusion_lat": 0.0, "rental_uris": {"android": "https://dc.lft.to/lastmile_qr_scan", "ios": "https://dc.lft.to/lastmile_qr_scan"}, "type": "electric_scooter"}, {"is_reserved": 0, "is_disabled": 0, "fusion_lon": 0.0, "lat": 38.907625, "name": "a166855c6726389bdbabd93f6cbef452", "bike_id": "a166855c6726389bdbabd93f6cbef452", "lon": -77.0360395, "fusion_lat": 0.0, "rental_uris": {"android": "https://dc.lft.to/lastmile_qr_scan", "ios": "https://dc.lft.to/lastmile_qr_scan"}, "type": "electric_scooter"}, {"is_reserved": 0, "is_disabled": 0, "fusion_lon": 0.0, "lat": 38.9232375, "name": "c01058db160db2b952fc35778a0e00bd", "bike_id": "c01058db160db2b952fc35778a0e00bd", "lon": -77.02076516666666, "fusion_lat": 0.0, "rental_uris": {"android": "https://dc.lft.to/lastmile_qr_scan", "ios": "https://dc.lft.to/lastmile_qr_scan"}, "type": "electric_scooter"}, {"is_reserved": 0, "is_disabled": 0, "fusion_lon": 0.0, "lat": 38.928580333333336, "name": "0b2093a4c18162321d2b961fa95a03b2", "bike_id": "0b2093a4c18162321d2b961fa95a03b2", "lon": -77.014006, "fusion_lat": 0.0, "rental_uris": {"android": "https://dc.lft.to/lastmile_qr_scan", "ios": "https://dc.lft.to/lastmile_qr_scan"}, "type": "electric_scooter"}, {"is_reserved": 0, "is_disabled": 0, "fusion_lon": 0.0, "lat": 38.89493133333333, "name": "0b0c64fd787b2f7c6b316d24ea133916", "bike_id": "0b0c64fd787b2f7c6b316d24ea133916", "lon": -76.99507233333334, "fusion_lat": 0.0, "rental_uris": {"android": "https://dc.lft.to/lastmile_qr_scan", "ios": "https://dc.lft.to/lastmile_qr_scan"}, "type": "electric_scooter"}, {"is_reserved": 0, "is_disabled": 0, "fusion_lon": 0.0, "lat": 38.897251, "name": "0cfaa8397571d278cca7db4e9b61b500", "bike_id": "0cfaa8397571d278cca7db4e9b61b500", "lon": -77.03112066666667, "fusion_lat": 0.0, "rental_uris": {"android": "https://dc.lft.to/lastmile_qr_scan", "ios": "https://dc.lft.to/lastmile_qr_scan"}, "type": "electric_scooter"}, {"is_reserved": 0, "is_disabled": 0, "fusion_lon": 0.0, "lat": 38.91026866666667, "name": "dd11308972f2342dd5b4d43a7644f49e", "bike_id": "dd11308972f2342dd5b4d43a7644f49e", "lon": -77.03187283333334, "fusion_lat": 0.0, "rental_uris": {"android": "https://dc.lft.to/lastmile_qr_scan", "ios": "https://dc.lft.to/lastmile_qr_scan"}, "type": "electric_scooter"}, {"is_reserved": 0, "is_disabled": 0, "fusion_lon": 0.0, "lat": 38.92453916666667, "name": "05a77d2ffaec929f9fd8b01e4325dbba", "bike_id": "05a77d2ffaec929f9fd8b01e4325dbba", "lon": -77.02244916666666, "fusion_lat": 0.0, "rental_uris": {"android": "https://dc.lft.to/lastmile_qr_scan", "ios": "https://dc.lft.to/lastmile_qr_scan"}, "type": "electric_scooter"}, {"is_reserved": 0, "is_disabled": 0, "fusion_lon": 0.0, "lat": 38.9045685, "name": "f83ebe74862f1501c1448a61320a7632", "bike_id": "f83ebe74862f1501c1448a61320a7632", "lon": -76.99464, "fusion_lat": 0.0, "rental_uris": {"android": "https://dc.lft.to/lastmile_qr_scan", "ios": "https://dc.lft.to/lastmile_qr_scan"}, "type": "electric_scooter"}, {"is_reserved": 0, "is_disabled": 0, "fusion_lon": 0.0, "lat": 38.9122995, "name": "2bea4025df1a3e4e79e947e31312f263", "bike_id": "2bea4025df1a3e4e79e947e31312f263", "lon": -77.07747016666667, "fusion_lat": 0.0, "rental_uris": {"android": "https://dc.lft.to/lastmile_qr_scan", "ios": "https://dc.lft.to/lastmile_qr_scan"}, "type": "electric_scooter"}, {"is_reserved": 0, "is_disabled": 0, "fusion_lon": 0.0, "lat": 38.922382999999996, "name": "c6ecdc60e1d8d72380a5579645599b5a", "bike_id": "c6ecdc60e1d8d72380a5579645599b5a", "lon": -77.028514, "fusion_lat": 0.0, "rental_uris": {"android": "https://dc.lft.to/lastmile_qr_scan", "ios": "https://dc.lft.to/lastmile_qr_scan"}, "type": "electric_scooter"}, {"is_reserved": 0, "is_disabled": 0, "fusion_lon": 0.0, "lat": 38.92889566666667, "name": "f7e4d2e8209b597e1b28a19c1e965df2", "bike_id": "f7e4d2e8209b597e1b28a19c1e965df2", "lon": -77.03236333333334, "fusion_lat": 0.0, "rental_uris": {"android": "https://dc.lft.to/lastmile_qr_scan", "ios": "https://dc.lft.to/lastmile_qr_scan"}, "type": "electric_scooter"}, {"is_reserved": 0, "is_disabled": 0, "fusion_lon": 0.0, "lat": 38.90093933333333, "name": "f8ec438eb5df7af070e485565d0c2646", "bike_id": "f8ec438eb5df7af070e485565d0c2646", "lon": -77.0578955, "fusion_lat": 0.0, "rental_uris": {"android": "https://dc.lft.to/lastmile_qr_scan", "ios": "https://dc.lft.to/lastmile_qr_scan"}, "type": "electric_scooter"}, {"is_reserved": 0, "is_disabled": 0, "fusion_lon": 0.0, "lat": 38.89867383333333, "name": "2c9ce617cd093934ef536e8684334868", "bike_id": "2c9ce617cd093934ef536e8684334868", "lon": -77.02292433333334, "fusion_lat": 0.0, "rental_uris": {"android": "https://dc.lft.to/lastmile_qr_scan", "ios": "https://dc.lft.to/lastmile_qr_scan"}, "type": "electric_scooter"}, {"is_reserved": 0, "is_disabled": 0, "fusion_lon": 0.0, "lat": 38.92968883333333, "name": "4d36e4ec48d0c75bb156e41bbbdd2fec", "bike_id": "4d36e4ec48d0c75bb156e41bbbdd2fec", "lon": -77.04201683333334, "fusion_lat": 0.0, "rental_uris": {"android": "https://dc.lft.to/lastmile_qr_scan", "ios": "https://dc.lft.to/lastmile_qr_scan"}, "type": "electric_scooter"}, {"is_reserved": 0, "is_disabled": 0, "fusion_lon": 0.0, "lat": 38.913204666666665, "name": "f05ec3e62f9c20593c566c582aaf6f0d", "bike_id": "f05ec3e62f9c20593c566c582aaf6f0d", "lon": -77.04669816666667, "fusion_lat": 0.0, "rental_uris": {"android": "https://dc.lft.to/lastmile_qr_scan", "ios": "https://dc.lft.to/lastmile_qr_scan"}, "type": "electric_scooter"}, {"is_reserved": 0, "is_disabled": 0, "fusion_lon": 0.0, "lat": 38.937487, "name": "68196988e040f2d367d1814afbda499b", "bike_id": "68196988e040f2d367d1814afbda499b", "lon": -77.0253695, "fusion_lat": 0.0, "rental_uris": {"android": "https://dc.lft.to/lastmile_qr_scan", "ios": "https://dc.lft.to/lastmile_qr_scan"}, "type": "electric_scooter"}, {"is_reserved": 0, "is_disabled": 0, "fusion_lon": 0.0, "lat": 38.91806533333333, "name": "b0c34dd1024fc851c14c7da9868669d3", "bike_id": "b0c34dd1024fc851c14c7da9868669d3", "lon": -77.034342, "fusion_lat": 0.0, "rental_uris": {"android": "https://dc.lft.to/lastmile_qr_scan", "ios": "https://dc.lft.to/lastmile_qr_scan"}, "type": "electric_scooter"}, {"is_reserved": 0, "is_disabled": 0, "fusion_lon": 0.0, "lat": 38.92390833333333, "name": "35f8c084429f995513eb8efc8abccd30", "bike_id": "35f8c084429f995513eb8efc8abccd30", "lon": -77.02598916666666, "fusion_lat": 0.0, "rental_uris": {"android": "https://dc.lft.to/lastmile_qr_scan", "ios": "https://dc.lft.to/lastmile_qr_scan"}, "type": "electric_scooter"}, {"is_reserved": 0, "is_disabled": 0, "fusion_lon": 0.0, "lat": 38.90411066666667, "name": "5c5fd1916cd91360697cbd2288d777af", "bike_id": "5c5fd1916cd91360697cbd2288d777af", "lon": -77.03858816666667, "fusion_lat": 0.0, "rental_uris": {"android": "https://dc.lft.to/lastmile_qr_scan", "ios": "https://dc.lft.to/lastmile_qr_scan"}, "type": "electric_scooter"}, {"is_reserved": 0, "is_disabled": 0, "fusion_lon": 0.0, "lat": 38.8040275, "name": "f3b91048edf960c31b4b107fe7eae9bf", "bike_id": "f3b91048edf960c31b4b107fe7eae9bf", "lon": -77.11330716666667, "fusion_lat": 0.0, "rental_uris": {"android": "https://dc.lft.to/lastmile_qr_scan", "ios": "https://dc.lft.to/lastmile_qr_scan"}, "type": "electric_bike"}, {"is_reserved": 0, "is_disabled": 0, "fusion_lon": 0.0, "lat": 38.87212916666667, "name": "e3b2bfd940b5f751c3cfa135ddd58222", "bike_id": "e3b2bfd940b5f751c3cfa135ddd58222", "lon": -77.01611183333333, "fusion_lat": 0.0, "rental_uris": {"android": "https://dc.lft.to/lastmile_qr_scan", "ios": "https://dc.lft.to/lastmile_qr_scan"}, "type": "electric_scooter"}, {"is_reserved": 0, "is_disabled": 0, "fusion_lon": 0.0, "lat": 38.911031666666666, "name": "daef4d41f8070abc49d4261cbc1e6118", "bike_id": "daef4d41f8070abc49d4261cbc1e6118", "lon": -77.07347083333333, "fusion_lat": 0.0, "rental_uris": {"android": "https://dc.lft.to/lastmile_qr_scan", "ios": "https://dc.lft.to/lastmile_qr_scan"}, "type": "electric_scooter"}, {"is_reserved": 0, "is_disabled": 0, "fusion_lon": 0.0, "lat": 38.9106395, "name": "d89eab237326e3ad467e315b934836c2", "bike_id": "d89eab237326e3ad467e315b934836c2", "lon": -77.0411245, "fusion_lat": 0.0, "rental_uris": {"android": "https://dc.lft.to/lastmile_qr_scan", "ios": "https://dc.lft.to/lastmile_qr_scan"}, "type": "electric_scooter"}, {"is_reserved": 0, "is_disabled": 0, "fusion_lon": 0.0, "lat": 38.900709166666665, "name": "46c8ed0756b9aa046b8bfa2d0a8c8b40", "bike_id": "46c8ed0756b9aa046b8bfa2d0a8c8b40", "lon": -77.03199316666667, "fusion_lat": 0.0, "rental_uris": {"android": "https://dc.lft.to/lastmile_qr_scan", "ios": "https://dc.lft.to/lastmile_qr_scan"}, "type": "electric_scooter"}, {"is_reserved": 0, "is_disabled": 0, "fusion_lon": 0.0, "lat": 38.900666333333334, "name": "7dad44db5fd02c632604dc20971c74d7", "bike_id": "7dad44db5fd02c632604dc20971c74d7", "lon": -76.98704783333334, "fusion_lat": 0.0, "rental_uris": {"android": "https://dc.lft.to/lastmile_qr_scan", "ios": "https://dc.lft.to/lastmile_qr_scan"}, "type": "electric_scooter"}, {"is_reserved": 0, "is_disabled": 0, "fusion_lon": 0.0, "lat": 38.91544833333333, "name": "cd3c65f1a2d5715ca5d265b0596f27a1", "bike_id": "cd3c65f1a2d5715ca5d265b0596f27a1", "lon": -77.03184833333333, "fusion_lat": 0.0, "rental_uris": {"android": "https://dc.lft.to/lastmile_qr_scan", "ios": "https://dc.lft.to/lastmile_qr_scan"}, "type": "electric_scooter"}, {"is_reserved": 0, "is_disabled": 0, "fusion_lon": 0.0, "lat": 38.88236366666667, "name": "2df6d9d8069100cad43cf11e9fb42d49", "bike_id": "2df6d9d8069100cad43cf11e9fb42d49", "lon": -76.99494233333333, "fusion_lat": 0.0, "rental_uris": {"android": "https://dc.lft.to/lastmile_qr_scan", "ios": "https://dc.lft.to/lastmile_qr_scan"}, "type": "electric_scooter"}, {"is_reserved": 0, "is_disabled": 0, "fusion_lon": 0.0, "lat": 38.876450166666665, "name": "1a23f1be7d2339df92d142ec1ead30cc", "bike_id": "1a23f1be7d2339df92d142ec1ead30cc", "lon": -77.000829, "fusion_lat": 0.0, "rental_uris": {"android": "https://dc.lft.to/lastmile_qr_scan", "ios": "https://dc.lft.to/lastmile_qr_scan"}, "type": "electric_scooter"}, {"is_reserved": 0, "is_disabled": 0, "fusion_lon": 0.0, "lat": 38.915401, "name": "96005c51c41fcf9e5fce78901c769ba2", "bike_id": "96005c51c41fcf9e5fce78901c769ba2", "lon": -77.03210083333333, "fusion_lat": 0.0, "rental_uris": {"android": "https://dc.lft.to/lastmile_qr_scan", "ios": "https://dc.lft.to/lastmile_qr_scan"}, "type": "electric_scooter"}, {"is_reserved": 0, "is_disabled": 0, "fusion_lon": 0.0, "lat": 38.91663583333333, "name": "da8b1460831511b36002dce89986a11c", "bike_id": "da8b1460831511b36002dce89986a11c", "lon": -77.04387283333334, "fusion_lat": 0.0, "rental_uris": {"android": "https://dc.lft.to/lastmile_qr_scan", "ios": "https://dc.lft.to/lastmile_qr_scan"}, "type": "electric_scooter"}, {"is_reserved": 0, "is_disabled": 0, "fusion_lon": 0.0, "lat": 38.8948825, "name": "574ed804ca41d50bf1297a7e235e3241", "bike_id": "574ed804ca41d50bf1297a7e235e3241", "lon": -76.99507083333333, "fusion_lat": 0.0, "rental_uris": {"android": "https://dc.lft.to/lastmile_qr_scan", "ios": "https://dc.lft.to/lastmile_qr_scan"}, "type": "electric_scooter"}, {"is_reserved": 0, "is_disabled": 0, "fusion_lon": 0.0, "lat": 38.89741766666667, "name": "4916e1fe1b34d265dd15a2160bf20027", "bike_id": "4916e1fe1b34d265dd15a2160bf20027", "lon": -77.02564866666667, "fusion_lat": 0.0, "rental_uris": {"android": "https://dc.lft.to/lastmile_qr_scan", "ios": "https://dc.lft.to/lastmile_qr_scan"}, "type": "electric_scooter"}, {"is_reserved": 0, "is_disabled": 0, "fusion_lon": 0.0, "lat": 38.92486016666667, "name": "84f2ec913f0a0fef1c3359ef13c68ab8", "bike_id": "84f2ec913f0a0fef1c3359ef13c68ab8", "lon": -77.02276183333333, "fusion_lat": 0.0, "rental_uris": {"android": "https://dc.lft.to/lastmile_qr_scan", "ios": "https://dc.lft.to/lastmile_qr_scan"}, "type": "electric_scooter"}, {"is_reserved": 0, "is_disabled": 0, "fusion_lon": 0.0, "lat": 38.92148816666667, "name": "054716e3b645a06473e44f1c114cf795", "bike_id": "054716e3b645a06473e44f1c114cf795", "lon": -77.038713, "fusion_lat": 0.0, "rental_uris": {"android": "https://dc.lft.to/lastmile_qr_scan", "ios": "https://dc.lft.to/lastmile_qr_scan"}, "type": "electric_scooter"}, {"is_reserved": 0, "is_disabled": 0, "fusion_lon": 0.0, "lat": 38.855611, "name": "18cebb2896106e5cb2ee28c9b48d8563", "bike_id": "18cebb2896106e5cb2ee28c9b48d8563", "lon": -77.0633195, "fusion_lat": 0.0, "rental_uris": {"android": "https://dc.lft.to/lastmile_qr_scan", "ios": "https://dc.lft.to/lastmile_qr_scan"}, "type": "electric_bike"}, {"is_reserved": 0, "is_disabled": 0, "fusion_lon": 0.0, "lat": 38.90625683333333, "name": "4aa6257e1a911fa9fcf752681ff16ec6", "bike_id": "4aa6257e1a911fa9fcf752681ff16ec6", "lon": -77.0436125, "fusion_lat": 0.0, "rental_uris": {"android": "https://dc.lft.to/lastmile_qr_scan", "ios": "https://dc.lft.to/lastmile_qr_scan"}, "type": "electric_scooter"}, {"is_reserved": 0, "is_disabled": 0, "fusion_lon": 0.0, "lat": 38.86057233333333, "name": "32533057b845aa824025dfe40108576c", "bike_id": "32533057b845aa824025dfe40108576c", "lon": -76.98425416666667, "fusion_lat": 0.0, "rental_uris": {"android": "https://dc.lft.to/lastmile_qr_scan", "ios": "https://dc.lft.to/lastmile_qr_scan"}, "type": "electric_scooter"}, {"is_reserved": 0, "is_disabled": 0, "fusion_lon": 0.0, "lat": 38.925626666666666, "name": "98fcc1006cbdfc10bd96a8bc244b0712", "bike_id": "98fcc1006cbdfc10bd96a8bc244b0712", "lon": -77.02286683333334, "fusion_lat": 0.0, "rental_uris": {"android": "https://dc.lft.to/lastmile_qr_scan", "ios": "https://dc.lft.to/lastmile_qr_scan"}, "type": "electric_scooter"}, {"is_reserved": 0, "is_disabled": 0, "fusion_lon": 0.0, "lat": 38.842255333333334, "name": "d55aedef64e8463f127f28ee9d14b19d", "bike_id": "d55aedef64e8463f127f28ee9d14b19d", "lon": -76.9489535, "fusion_lat": 0.0, "rental_uris": {"android": "https://dc.lft.to/lastmile_qr_scan", "ios": "https://dc.lft.to/lastmile_qr_scan"}, "type": "electric_bike"}, {"is_reserved": 0, "is_disabled": 0, "fusion_lon": 0.0, "lat": 38.92329816666667, "name": "c86f6dfe66c491f0af56a4d83a84eedf", "bike_id": "c86f6dfe66c491f0af56a4d83a84eedf", "lon": -77.05677366666667, "fusion_lat": 0.0, "rental_uris": {"android": "https://dc.lft.to/lastmile_qr_scan", "ios": "https://dc.lft.to/lastmile_qr_scan"}, "type": "electric_scooter"}, {"is_reserved": 0, "is_disabled": 0, "fusion_lon": 0.0, "lat": 38.9155185, "name": "0506fe4d354cb79f319afd9054c2685f", "bike_id": "0506fe4d354cb79f319afd9054c2685f", "lon": -77.03176266666667, "fusion_lat": 0.0, "rental_uris": {"android": "https://dc.lft.to/lastmile_qr_scan", "ios": "https://dc.lft.to/lastmile_qr_scan"}, "type": "electric_scooter"}, {"is_reserved": 0, "is_disabled": 0, "fusion_lon": 0.0, "lat": 38.8522285, "name": "41ee182f764ae20edf2e048e0611615d", "bike_id": "41ee182f764ae20edf2e048e0611615d", "lon": -76.99377166666666, "fusion_lat": 0.0, "rental_uris": {"android": "https://dc.lft.to/lastmile_qr_scan", "ios": "https://dc.lft.to/lastmile_qr_scan"}, "type": "electric_scooter"}, {"is_reserved": 0, "is_disabled": 0, "fusion_lon": 0.0, "lat": 38.894836, "name": "e3da4685af2452afcde43569670becec", "bike_id": "e3da4685af2452afcde43569670becec", "lon": -77.04158933333333, "fusion_lat": 0.0, "rental_uris": {"android": "https://dc.lft.to/lastmile_qr_scan", "ios": "https://dc.lft.to/lastmile_qr_scan"}, "type": "electric_scooter"}, {"is_reserved": 0, "is_disabled": 0, "fusion_lon": 0.0, "lat": 38.92685733333333, "name": "85a7d64f12c212e54b327a1c856742f8", "bike_id": "85a7d64f12c212e54b327a1c856742f8", "lon": -77.02963983333333, "fusion_lat": 0.0, "rental_uris": {"android": "https://dc.lft.to/lastmile_qr_scan", "ios": "https://dc.lft.to/lastmile_qr_scan"}, "type": "electric_scooter"}, {"is_reserved": 0, "is_disabled": 0, "fusion_lon": 0.0, "lat": 38.91816, "name": "59ef4fb366b3f3628f9c049978e60dc0", "bike_id": "59ef4fb366b3f3628f9c049978e60dc0", "lon": -77.03109383333333, "fusion_lat": 0.0, "rental_uris": {"android": "https://dc.lft.to/lastmile_qr_scan", "ios": "https://dc.lft.to/lastmile_qr_scan"}, "type": "electric_scooter"}, {"is_reserved": 0, "is_disabled": 0, "fusion_lon": 0.0, "lat": 38.96405216666667, "name": "1f8b1a65672ff30d72652606141e5917", "bike_id": "1f8b1a65672ff30d72652606141e5917", "lon": -77.032838, "fusion_lat": 0.0, "rental_uris": {"android": "https://dc.lft.to/lastmile_qr_scan", "ios": "https://dc.lft.to/lastmile_qr_scan"}, "type": "electric_scooter"}, {"is_reserved": 0, "is_disabled": 0, "fusion_lon": 0.0, "lat": 38.87069366666667, "name": "b43b48570034fa7314f087ec54176013", "bike_id": "b43b48570034fa7314f087ec54176013", "lon": -77.1104, "fusion_lat": 0.0, "rental_uris": {"android": "https://dc.lft.to/lastmile_qr_scan", "ios": "https://dc.lft.to/lastmile_qr_scan"}, "type": "electric_bike"}, {"is_reserved": 0, "is_disabled": 0, "fusion_lon": 0.0, "lat": 38.89726, "name": "4e3fb15571b21c362f161de7c34f29f8", "bike_id": "4e3fb15571b21c362f161de7c34f29f8", "lon": -77.0552505, "fusion_lat": 0.0, "rental_uris": {"android": "https://dc.lft.to/lastmile_qr_scan", "ios": "https://dc.lft.to/lastmile_qr_scan"}, "type": "electric_scooter"}, {"is_reserved": 0, "is_disabled": 0, "fusion_lon": 0.0, "lat": 38.917263, "name": "6390037ec0135416216e6dada43dc825", "bike_id": "6390037ec0135416216e6dada43dc825", "lon": -77.03352566666666, "fusion_lat": 0.0, "rental_uris": {"android": "https://dc.lft.to/lastmile_qr_scan", "ios": "https://dc.lft.to/lastmile_qr_scan"}, "type": "electric_scooter"}, {"is_reserved": 0, "is_disabled": 0, "fusion_lon": 0.0, "lat": 38.918802666666664, "name": "8941b5791a16f062c9bfea97a10a5bd7", "bike_id": "8941b5791a16f062c9bfea97a10a5bd7", "lon": -77.04313483333334, "fusion_lat": 0.0, "rental_uris": {"android": "https://dc.lft.to/lastmile_qr_scan", "ios": "https://dc.lft.to/lastmile_qr_scan"}, "type": "electric_scooter"}, {"is_reserved": 0, "is_disabled": 0, "fusion_lon": 0.0, "lat": 38.9156625, "name": "ee14af7604d978259466f96dea87901b", "bike_id": "ee14af7604d978259466f96dea87901b", "lon": -77.03223366666667, "fusion_lat": 0.0, "rental_uris": {"android": "https://dc.lft.to/lastmile_qr_scan", "ios": "https://dc.lft.to/lastmile_qr_scan"}, "type": "electric_scooter"}, {"is_reserved": 0, "is_disabled": 0, "fusion_lon": 0.0, "lat": 38.92042133333333, "name": "d55ff1edc92a58475c4c48b9c36d242f", "bike_id": "d55ff1edc92a58475c4c48b9c36d242f", "lon": -77.0168215, "fusion_lat": 0.0, "rental_uris": {"android": "https://dc.lft.to/lastmile_qr_scan", "ios": "https://dc.lft.to/lastmile_qr_scan"}, "type": "electric_scooter"}, {"is_reserved": 0, "is_disabled": 0, "fusion_lon": 0.0, "lat": 38.8717665, "name": "ff1fb787a29c23581e4e5ccba033211d", "bike_id": "ff1fb787a29c23581e4e5ccba033211d", "lon": -77.006645, "fusion_lat": 0.0, "rental_uris": {"android": "https://dc.lft.to/lastmile_qr_scan", "ios": "https://dc.lft.to/lastmile_qr_scan"}, "type": "electric_scooter"}, {"is_reserved": 0, "is_disabled": 0, "fusion_lon": 0.0, "lat": 38.9266625, "name": "da0f0706388e047d9fa684dc051f087e", "bike_id": "da0f0706388e047d9fa684dc051f087e", "lon": -77.01466583333334, "fusion_lat": 0.0, "rental_uris": {"android": "https://dc.lft.to/lastmile_qr_scan", "ios": "https://dc.lft.to/lastmile_qr_scan"}, "type": "electric_scooter"}, {"is_reserved": 0, "is_disabled": 0, "fusion_lon": 0.0, "lat": 38.907026, "name": "b7dcf26035752343161420a6c86e10d4", "bike_id": "b7dcf26035752343161420a6c86e10d4", "lon": -76.9869615, "fusion_lat": 0.0, "rental_uris": {"android": "https://dc.lft.to/lastmile_qr_scan", "ios": "https://dc.lft.to/lastmile_qr_scan"}, "type": "electric_scooter"}, {"is_reserved": 0, "is_disabled": 0, "fusion_lon": 0.0, "lat": 38.88720933333333, "name": "19c61b211b4b08bd7da0da4c9224a778", "bike_id": "19c61b211b4b08bd7da0da4c9224a778", "lon": -76.99643683333333, "fusion_lat": 0.0, "rental_uris": {"android": "https://dc.lft.to/lastmile_qr_scan", "ios": "https://dc.lft.to/lastmile_qr_scan"}, "type": "electric_scooter"}, {"is_reserved": 0, "is_disabled": 0, "fusion_lon": 0.0, "lat": 38.874697, "name": "d31863e9d8bbe388b540dce56d750585", "bike_id": "d31863e9d8bbe388b540dce56d750585", "lon": -77.00509483333333, "fusion_lat": 0.0, "rental_uris": {"android": "https://dc.lft.to/lastmile_qr_scan", "ios": "https://dc.lft.to/lastmile_qr_scan"}, "type": "electric_scooter"}, {"is_reserved": 0, "is_disabled": 0, "fusion_lon": 0.0, "lat": 38.874562, "name": "583693d6af7156c4ebee8ba62e02ba19", "bike_id": "583693d6af7156c4ebee8ba62e02ba19", "lon": -77.00052833333334, "fusion_lat": 0.0, "rental_uris": {"android": "https://dc.lft.to/lastmile_qr_scan", "ios": "https://dc.lft.to/lastmile_qr_scan"}, "type": "electric_scooter"}, {"is_reserved": 0, "is_disabled": 0, "fusion_lon": 0.0, "lat": 38.91952116666667, "name": "c2fd4966c65231b8f6c5d173cdd953de", "bike_id": "c2fd4966c65231b8f6c5d173cdd953de", "lon": -77.02493566666666, "fusion_lat": 0.0, "rental_uris": {"android": "https://dc.lft.to/lastmile_qr_scan", "ios": "https://dc.lft.to/lastmile_qr_scan"}, "type": "electric_scooter"}, {"is_reserved": 0, "is_disabled": 0, "fusion_lon": 0.0, "lat": 38.944142666666664, "name": "50fc7aa2d03671d08945535425604cf9", "bike_id": "50fc7aa2d03671d08945535425604cf9", "lon": -77.06331283333333, "fusion_lat": 0.0, "rental_uris": {"android": "https://dc.lft.to/lastmile_qr_scan", "ios": "https://dc.lft.to/lastmile_qr_scan"}, "type": "electric_scooter"}, {"is_reserved": 0, "is_disabled": 0, "fusion_lon": 0.0, "lat": 38.92613883333333, "name": "81b69f915ab469a296fc7183149f889b", "bike_id": "81b69f915ab469a296fc7183149f889b", "lon": -77.021669, "fusion_lat": 0.0, "rental_uris": {"android": "https://dc.lft.to/lastmile_qr_scan", "ios": "https://dc.lft.to/lastmile_qr_scan"}, "type": "electric_scooter"}, {"is_reserved": 0, "is_disabled": 0, "fusion_lon": 0.0, "lat": 38.90479416666667, "name": "cb76893e24f256c956a7c19a852bc9f8", "bike_id": "cb76893e24f256c956a7c19a852bc9f8", "lon": -77.00125616666666, "fusion_lat": 0.0, "rental_uris": {"android": "https://dc.lft.to/lastmile_qr_scan", "ios": "https://dc.lft.to/lastmile_qr_scan"}, "type": "electric_scooter"}, {"is_reserved": 0, "is_disabled": 0, "fusion_lon": 0.0, "lat": 38.925608833333335, "name": "3f8ae6c90bd24ffc52254e2f42652ad8", "bike_id": "3f8ae6c90bd24ffc52254e2f42652ad8", "lon": -77.02139616666666, "fusion_lat": 0.0, "rental_uris": {"android": "https://dc.lft.to/lastmile_qr_scan", "ios": "https://dc.lft.to/lastmile_qr_scan"}, "type": "electric_scooter"}, {"is_reserved": 0, "is_disabled": 0, "fusion_lon": 0.0, "lat": 38.9003575, "name": "ed45d23c9a8d49f9fd876373f612159b", "bike_id": "ed45d23c9a8d49f9fd876373f612159b", "lon": -76.9883705, "fusion_lat": 0.0, "rental_uris": {"android": "https://dc.lft.to/lastmile_qr_scan", "ios": "https://dc.lft.to/lastmile_qr_scan"}, "type": "electric_scooter"}, {"is_reserved": 0, "is_disabled": 0, "fusion_lon": 0.0, "lat": 38.90400783333333, "name": "2f4fd851c10de02eb4e2f54911b01f96", "bike_id": "2f4fd851c10de02eb4e2f54911b01f96", "lon": -77.0043655, "fusion_lat": 0.0, "rental_uris": {"android": "https://dc.lft.to/lastmile_qr_scan", "ios": "https://dc.lft.to/lastmile_qr_scan"}, "type": "electric_scooter"}, {"is_reserved": 0, "is_disabled": 0, "fusion_lon": 0.0, "lat": 38.87041966666666, "name": "12ff9a74b4b90abbbf2993dd5874af62", "bike_id": "12ff9a74b4b90abbbf2993dd5874af62", "lon": -77.2291295, "fusion_lat": 0.0, "rental_uris": {"android": "https://dc.lft.to/lastmile_qr_scan", "ios": "https://dc.lft.to/lastmile_qr_scan"}, "type": "electric_bike"}, {"is_reserved": 0, "is_disabled": 0, "fusion_lon": 0.0, "lat": 38.879617833333334, "name": "edc0e51e76581e1ccaba31584e072de2", "bike_id": "edc0e51e76581e1ccaba31584e072de2", "lon": -77.0241725, "fusion_lat": 0.0, "rental_uris": {"android": "https://dc.lft.to/lastmile_qr_scan", "ios": "https://dc.lft.to/lastmile_qr_scan"}, "type": "electric_scooter"}, {"is_reserved": 0, "is_disabled": 0, "fusion_lon": 0.0, "lat": 38.9050645, "name": "959ca1cc908d194f60fb216ef4f1e0a3", "bike_id": "959ca1cc908d194f60fb216ef4f1e0a3", "lon": -77.0281085, "fusion_lat": 0.0, "rental_uris": {"android": "https://dc.lft.to/lastmile_qr_scan", "ios": "https://dc.lft.to/lastmile_qr_scan"}, "type": "electric_scooter"}, {"is_reserved": 0, "is_disabled": 0, "fusion_lon": 0.0, "lat": 38.927617166666664, "name": "a28fd9a2ba5881bfca3c871d266db8c1", "bike_id": "a28fd9a2ba5881bfca3c871d266db8c1", "lon": -77.0320985, "fusion_lat": 0.0, "rental_uris": {"android": "https://dc.lft.to/lastmile_qr_scan", "ios": "https://dc.lft.to/lastmile_qr_scan"}, "type": "electric_scooter"}, {"is_reserved": 0, "is_disabled": 0, "fusion_lon": 0.0, "lat": 38.9110705, "name": "cbcce702eb7edc6da0df663c7615068f", "bike_id": "cbcce702eb7edc6da0df663c7615068f", "lon": -77.02514766666667, "fusion_lat": 0.0, "rental_uris": {"android": "https://dc.lft.to/lastmile_qr_scan", "ios": "https://dc.lft.to/lastmile_qr_scan"}, "type": "electric_scooter"}, {"is_reserved": 0, "is_disabled": 0, "fusion_lon": 0.0, "lat": 38.89478866666666, "name": "f6de8438f18fc269c50ab451ad10d775", "bike_id": "f6de8438f18fc269c50ab451ad10d775", "lon": -76.99439083333333, "fusion_lat": 0.0, "rental_uris": {"android": "https://dc.lft.to/lastmile_qr_scan", "ios": "https://dc.lft.to/lastmile_qr_scan"}, "type": "electric_scooter"}, {"is_reserved": 0, "is_disabled": 0, "fusion_lon": 0.0, "lat": 38.99892033333333, "name": "db5734b1e2f69286c648ea32f14aae49", "bike_id": "db5734b1e2f69286c648ea32f14aae49", "lon": -76.90862083333333, "fusion_lat": 0.0, "rental_uris": {"android": "https://dc.lft.to/lastmile_qr_scan", "ios": "https://dc.lft.to/lastmile_qr_scan"}, "type": "electric_bike"}, {"is_reserved": 0, "is_disabled": 0, "fusion_lon": 0.0, "lat": 38.90446816666667, "name": "81d437dbf2fc58b611b222440855fcdc", "bike_id": "81d437dbf2fc58b611b222440855fcdc", "lon": -77.03671783333333, "fusion_lat": 0.0, "rental_uris": {"android": "https://dc.lft.to/lastmile_qr_scan", "ios": "https://dc.lft.to/lastmile_qr_scan"}, "type": "electric_scooter"}, {"is_reserved": 0, "is_disabled": 0, "fusion_lon": 0.0, "lat": 38.907577, "name": "eb82b2c1a88e825a93b042367c9c61a8", "bike_id": "eb82b2c1a88e825a93b042367c9c61a8", "lon": -77.0307435, "fusion_lat": 0.0, "rental_uris": {"android": "https://dc.lft.to/lastmile_qr_scan", "ios": "https://dc.lft.to/lastmile_qr_scan"}, "type": "electric_scooter"}, {"is_reserved": 0, "is_disabled": 0, "fusion_lon": 0.0, "lat": 38.927914666666666, "name": "f54c5d6cfaa6c5c8dc581e079785d193", "bike_id": "f54c5d6cfaa6c5c8dc581e079785d193", "lon": -76.99625366666666, "fusion_lat": 0.0, "rental_uris": {"android": "https://dc.lft.to/lastmile_qr_scan", "ios": "https://dc.lft.to/lastmile_qr_scan"}, "type": "electric_scooter"}, {"is_reserved": 0, "is_disabled": 0, "fusion_lon": 0.0, "lat": 38.909082833333336, "name": "53631fe79f7ac012845d18c5c2f56cf1", "bike_id": "53631fe79f7ac012845d18c5c2f56cf1", "lon": -77.0272115, "fusion_lat": 0.0, "rental_uris": {"android": "https://dc.lft.to/lastmile_qr_scan", "ios": "https://dc.lft.to/lastmile_qr_scan"}, "type": "electric_scooter"}, {"is_reserved": 0, "is_disabled": 0, "fusion_lon": 0.0, "lat": 38.901653833333334, "name": "df9c3511b07b28376a545ecfb16e9481", "bike_id": "df9c3511b07b28376a545ecfb16e9481", "lon": -76.98076383333333, "fusion_lat": 0.0, "rental_uris": {"android": "https://dc.lft.to/lastmile_qr_scan", "ios": "https://dc.lft.to/lastmile_qr_scan"}, "type": "electric_scooter"}, {"is_reserved": 0, "is_disabled": 0, "fusion_lon": 0.0, "lat": 38.908535, "name": "23e816ea26c07186c9bfb56177ecfb13", "bike_id": "23e816ea26c07186c9bfb56177ecfb13", "lon": -77.024205, "fusion_lat": 0.0, "rental_uris": {"android": "https://dc.lft.to/lastmile_qr_scan", "ios": "https://dc.lft.to/lastmile_qr_scan"}, "type": "electric_scooter"}, {"is_reserved": 0, "is_disabled": 0, "fusion_lon": 0.0, "lat": 38.90515166666667, "name": "5651cf7ed1d77cb44df47b019019f9dd", "bike_id": "5651cf7ed1d77cb44df47b019019f9dd", "lon": -77.068713, "fusion_lat": 0.0, "rental_uris": {"android": "https://dc.lft.to/lastmile_qr_scan", "ios": "https://dc.lft.to/lastmile_qr_scan"}, "type": "electric_scooter"}, {"is_reserved": 0, "is_disabled": 0, "fusion_lon": 0.0, "lat": 38.93863183333333, "name": "0666f7716f22f9c454564ddf6d61b1d9", "bike_id": "0666f7716f22f9c454564ddf6d61b1d9", "lon": -77.0265015, "fusion_lat": 0.0, "rental_uris": {"android": "https://dc.lft.to/lastmile_qr_scan", "ios": "https://dc.lft.to/lastmile_qr_scan"}, "type": "electric_scooter"}, {"is_reserved": 0, "is_disabled": 0, "fusion_lon": 0.0, "lat": 38.91401883333333, "name": "e4b856f0692f4e8cac3b40e30d4f2a23", "bike_id": "e4b856f0692f4e8cac3b40e30d4f2a23", "lon": -77.01818533333334, "fusion_lat": 0.0, "rental_uris": {"android": "https://dc.lft.to/lastmile_qr_scan", "ios": "https://dc.lft.to/lastmile_qr_scan"}, "type": "electric_scooter"}, {"is_reserved": 0, "is_disabled": 0, "fusion_lon": 0.0, "lat": 38.916526833333336, "name": "e2d2c6c5708c45c39493bd64f4a8827e", "bike_id": "e2d2c6c5708c45c39493bd64f4a8827e", "lon": -77.01020033333333, "fusion_lat": 0.0, "rental_uris": {"android": "https://dc.lft.to/lastmile_qr_scan", "ios": "https://dc.lft.to/lastmile_qr_scan"}, "type": "electric_scooter"}, {"is_reserved": 0, "is_disabled": 0, "fusion_lon": 0.0, "lat": 38.874488666666664, "name": "e4a83044dd253142a197cdca0c76802c", "bike_id": "e4a83044dd253142a197cdca0c76802c", "lon": -77.0007625, "fusion_lat": 0.0, "rental_uris": {"android": "https://dc.lft.to/lastmile_qr_scan", "ios": "https://dc.lft.to/lastmile_qr_scan"}, "type": "electric_scooter"}, {"is_reserved": 0, "is_disabled": 0, "fusion_lon": 0.0, "lat": 38.917108, "name": "b01b93a33bf7c450fe88ac6f3e0ee103", "bike_id": "b01b93a33bf7c450fe88ac6f3e0ee103", "lon": -77.0386725, "fusion_lat": 0.0, "rental_uris": {"android": "https://dc.lft.to/lastmile_qr_scan", "ios": "https://dc.lft.to/lastmile_qr_scan"}, "type": "electric_scooter"}, {"is_reserved": 0, "is_disabled": 0, "fusion_lon": 0.0, "lat": 38.921167, "name": "9b471f914267bb040d9a5c69680d5f4f", "bike_id": "9b471f914267bb040d9a5c69680d5f4f", "lon": -76.98882983333333, "fusion_lat": 0.0, "rental_uris": {"android": "https://dc.lft.to/lastmile_qr_scan", "ios": "https://dc.lft.to/lastmile_qr_scan"}, "type": "electric_bike"}, {"is_reserved": 0, "is_disabled": 0, "fusion_lon": 0.0, "lat": 38.917707166666666, "name": "a752facf007b6603ed843b44757faffc", "bike_id": "a752facf007b6603ed843b44757faffc", "lon": -77.0149925, "fusion_lat": 0.0, "rental_uris": {"android": "https://dc.lft.to/lastmile_qr_scan", "ios": "https://dc.lft.to/lastmile_qr_scan"}, "type": "electric_scooter"}, {"is_reserved": 0, "is_disabled": 0, "fusion_lon": 0.0, "lat": 38.92477366666667, "name": "e00b3d85bbbb50fc01e68ed1e2a9cf62", "bike_id": "e00b3d85bbbb50fc01e68ed1e2a9cf62", "lon": -77.03945433333334, "fusion_lat": 0.0, "rental_uris": {"android": "https://dc.lft.to/lastmile_qr_scan", "ios": "https://dc.lft.to/lastmile_qr_scan"}, "type": "electric_scooter"}, {"is_reserved": 0, "is_disabled": 0, "fusion_lon": 0.0, "lat": 38.9187415, "name": "334d0652bf8903fc1a74299f6d53a254", "bike_id": "334d0652bf8903fc1a74299f6d53a254", "lon": -77.04489683333334, "fusion_lat": 0.0, "rental_uris": {"android": "https://dc.lft.to/lastmile_qr_scan", "ios": "https://dc.lft.to/lastmile_qr_scan"}, "type": "electric_scooter"}, {"is_reserved": 0, "is_disabled": 0, "fusion_lon": 0.0, "lat": 38.9604845, "name": "e3fa8e45ba43cff0520d3e1e83b037e9", "bike_id": "e3fa8e45ba43cff0520d3e1e83b037e9", "lon": -77.00513166666667, "fusion_lat": 0.0, "rental_uris": {"android": "https://dc.lft.to/lastmile_qr_scan", "ios": "https://dc.lft.to/lastmile_qr_scan"}, "type": "electric_scooter"}, {"is_reserved": 0, "is_disabled": 0, "fusion_lon": 0.0, "lat": 38.90123633333333, "name": "0a3eee261e717141b7bd2c9206abbe93", "bike_id": "0a3eee261e717141b7bd2c9206abbe93", "lon": -77.01745083333333, "fusion_lat": 0.0, "rental_uris": {"android": "https://dc.lft.to/lastmile_qr_scan", "ios": "https://dc.lft.to/lastmile_qr_scan"}, "type": "electric_scooter"}, {"is_reserved": 0, "is_disabled": 0, "fusion_lon": 0.0, "lat": 38.93060216666667, "name": "576e9b6c69a62896c83f85fbf7fb1412", "bike_id": "576e9b6c69a62896c83f85fbf7fb1412", "lon": -77.04327183333334, "fusion_lat": 0.0, "rental_uris": {"android": "https://dc.lft.to/lastmile_qr_scan", "ios": "https://dc.lft.to/lastmile_qr_scan"}, "type": "electric_scooter"}, {"is_reserved": 0, "is_disabled": 0, "fusion_lon": 0.0, "lat": 38.922884833333335, "name": "c21c332f0be13030b964e40995c3685d", "bike_id": "c21c332f0be13030b964e40995c3685d", "lon": -77.0422925, "fusion_lat": 0.0, "rental_uris": {"android": "https://dc.lft.to/lastmile_qr_scan", "ios": "https://dc.lft.to/lastmile_qr_scan"}, "type": "electric_scooter"}, {"is_reserved": 0, "is_disabled": 0, "fusion_lon": 0.0, "lat": 38.89885566666667, "name": "c35b38d4543e1d6c30b01ee66eeafd8a", "bike_id": "c35b38d4543e1d6c30b01ee66eeafd8a", "lon": -76.93182283333333, "fusion_lat": 0.0, "rental_uris": {"android": "https://dc.lft.to/lastmile_qr_scan", "ios": "https://dc.lft.to/lastmile_qr_scan"}, "type": "electric_scooter"}, {"is_reserved": 0, "is_disabled": 0, "fusion_lon": 0.0, "lat": 38.90943733333334, "name": "25a9c63e462d19708df228688e950ede", "bike_id": "25a9c63e462d19708df228688e950ede", "lon": -77.048711, "fusion_lat": 0.0, "rental_uris": {"android": "https://dc.lft.to/lastmile_qr_scan", "ios": "https://dc.lft.to/lastmile_qr_scan"}, "type": "electric_scooter"}, {"is_reserved": 0, "is_disabled": 0, "fusion_lon": 0.0, "lat": 38.92370183333333, "name": "32d35b03feac89aaf5c9d3570de0f19a", "bike_id": "32d35b03feac89aaf5c9d3570de0f19a", "lon": -77.031279, "fusion_lat": 0.0, "rental_uris": {"android": "https://dc.lft.to/lastmile_qr_scan", "ios": "https://dc.lft.to/lastmile_qr_scan"}, "type": "electric_scooter"}, {"is_reserved": 0, "is_disabled": 0, "fusion_lon": 0.0, "lat": 38.8717645, "name": "cf5373c9bd14e973a11b33b46b6174c3", "bike_id": "cf5373c9bd14e973a11b33b46b6174c3", "lon": -77.23394683333333, "fusion_lat": 0.0, "rental_uris": {"android": "https://dc.lft.to/lastmile_qr_scan", "ios": "https://dc.lft.to/lastmile_qr_scan"}, "type": "electric_bike"}, {"is_reserved": 0, "is_disabled": 0, "fusion_lon": 0.0, "lat": 38.9002605, "name": "3d88184839fb1cf7b7b9e7bc6c63893d", "bike_id": "3d88184839fb1cf7b7b9e7bc6c63893d", "lon": -76.998587, "fusion_lat": 0.0, "rental_uris": {"android": "https://dc.lft.to/lastmile_qr_scan", "ios": "https://dc.lft.to/lastmile_qr_scan"}, "type": "electric_scooter"}, {"is_reserved": 0, "is_disabled": 0, "fusion_lon": 0.0, "lat": 38.9228325, "name": "817563995ffcbcf9aa160daaf325162d", "bike_id": "817563995ffcbcf9aa160daaf325162d", "lon": -77.0341235, "fusion_lat": 0.0, "rental_uris": {"android": "https://dc.lft.to/lastmile_qr_scan", "ios": "https://dc.lft.to/lastmile_qr_scan"}, "type": "electric_scooter"}, {"is_reserved": 0, "is_disabled": 0, "fusion_lon": 0.0, "lat": 38.915542333333335, "name": "da14c2a72bddb32ee681480412f96991", "bike_id": "da14c2a72bddb32ee681480412f96991", "lon": -77.0204865, "fusion_lat": 0.0, "rental_uris": {"android": "https://dc.lft.to/lastmile_qr_scan", "ios": "https://dc.lft.to/lastmile_qr_scan"}, "type": "electric_scooter"}, {"is_reserved": 0, "is_disabled": 0, "fusion_lon": 0.0, "lat": 38.89211533333334, "name": "315549f269a846da4e3df3386c5a15a4", "bike_id": "315549f269a846da4e3df3386c5a15a4", "lon": -76.97957783333334, "fusion_lat": 0.0, "rental_uris": {"android": "https://dc.lft.to/lastmile_qr_scan", "ios": "https://dc.lft.to/lastmile_qr_scan"}, "type": "electric_scooter"}, {"is_reserved": 0, "is_disabled": 0, "fusion_lon": 0.0, "lat": 38.9151095, "name": "92cb23618e73b94e6641841977c1a549", "bike_id": "92cb23618e73b94e6641841977c1a549", "lon": -77.02183416666666, "fusion_lat": 0.0, "rental_uris": {"android": "https://dc.lft.to/lastmile_qr_scan", "ios": "https://dc.lft.to/lastmile_qr_scan"}, "type": "electric_scooter"}, {"is_reserved": 0, "is_disabled": 0, "fusion_lon": 0.0, "lat": 38.918709, "name": "736b3fd836984e5e7d601e50b04a47d0", "bike_id": "736b3fd836984e5e7d601e50b04a47d0", "lon": -77.04482, "fusion_lat": 0.0, "rental_uris": {"android": "https://dc.lft.to/lastmile_qr_scan", "ios": "https://dc.lft.to/lastmile_qr_scan"}, "type": "electric_scooter"}, {"is_reserved": 0, "is_disabled": 0, "fusion_lon": 0.0, "lat": 38.87664383333333, "name": "0b082a79fa78f5039a601964ec0b2577", "bike_id": "0b082a79fa78f5039a601964ec0b2577", "lon": -77.01787316666666, "fusion_lat": 0.0, "rental_uris": {"android": "https://dc.lft.to/lastmile_qr_scan", "ios": "https://dc.lft.to/lastmile_qr_scan"}, "type": "electric_scooter"}, {"is_reserved": 0, "is_disabled": 0, "fusion_lon": 0.0, "lat": 38.924105833333336, "name": "b99e8883f24ac583294cc059dfe28aab", "bike_id": "b99e8883f24ac583294cc059dfe28aab", "lon": -77.01943716666666, "fusion_lat": 0.0, "rental_uris": {"android": "https://dc.lft.to/lastmile_qr_scan", "ios": "https://dc.lft.to/lastmile_qr_scan"}, "type": "electric_scooter"}, {"is_reserved": 0, "is_disabled": 0, "fusion_lon": 0.0, "lat": 38.98027966666667, "name": "035cbc00867ea41f7122edd063f262c9", "bike_id": "035cbc00867ea41f7122edd063f262c9", "lon": -76.94251966666667, "fusion_lat": 0.0, "rental_uris": {"android": "https://dc.lft.to/lastmile_qr_scan", "ios": "https://dc.lft.to/lastmile_qr_scan"}, "type": "electric_bike"}, {"is_reserved": 0, "is_disabled": 0, "fusion_lon": 0.0, "lat": 38.92058933333333, "name": "a4b3530970196754f9b147b0038ec493", "bike_id": "a4b3530970196754f9b147b0038ec493", "lon": -77.02304233333334, "fusion_lat": 0.0, "rental_uris": {"android": "https://dc.lft.to/lastmile_qr_scan", "ios": "https://dc.lft.to/lastmile_qr_scan"}, "type": "electric_scooter"}, {"is_reserved": 0, "is_disabled": 0, "fusion_lon": 0.0, "lat": 38.855733666666666, "name": "4ce09aba4975df7264d822b96fcf6b5e", "bike_id": "4ce09aba4975df7264d822b96fcf6b5e", "lon": -77.05335433333333, "fusion_lat": 0.0, "rental_uris": {"android": "https://dc.lft.to/lastmile_qr_scan", "ios": "https://dc.lft.to/lastmile_qr_scan"}, "type": "electric_bike"}, {"is_reserved": 0, "is_disabled": 0, "fusion_lon": 0.0, "lat": 38.972625, "name": "cc857934ee0c60ec57d21cb60e262778", "bike_id": "cc857934ee0c60ec57d21cb60e262778", "lon": -76.99279916666667, "fusion_lat": 0.0, "rental_uris": {"android": "https://dc.lft.to/lastmile_qr_scan", "ios": "https://dc.lft.to/lastmile_qr_scan"}, "type": "electric_bike"}, {"is_reserved": 0, "is_disabled": 0, "fusion_lon": 0.0, "lat": 38.9234935, "name": "21414d8d12d1f959b317710dd0f86dc4", "bike_id": "21414d8d12d1f959b317710dd0f86dc4", "lon": -77.02097133333334, "fusion_lat": 0.0, "rental_uris": {"android": "https://dc.lft.to/lastmile_qr_scan", "ios": "https://dc.lft.to/lastmile_qr_scan"}, "type": "electric_scooter"}, {"is_reserved": 0, "is_disabled": 0, "fusion_lon": 0.0, "lat": 38.908607333333336, "name": "39e489e1c4bf23b9bba1a918deb3b977", "bike_id": "39e489e1c4bf23b9bba1a918deb3b977", "lon": -77.08076516666667, "fusion_lat": 0.0, "rental_uris": {"android": "https://dc.lft.to/lastmile_qr_scan", "ios": "https://dc.lft.to/lastmile_qr_scan"}, "type": "electric_bike"}, {"is_reserved": 0, "is_disabled": 0, "fusion_lon": 0.0, "lat": 38.908049, "name": "d42da01b9a26bcdf6614ffc3b3ad9f83", "bike_id": "d42da01b9a26bcdf6614ffc3b3ad9f83", "lon": -77.08404116666667, "fusion_lat": 0.0, "rental_uris": {"android": "https://dc.lft.to/lastmile_qr_scan", "ios": "https://dc.lft.to/lastmile_qr_scan"}, "type": "electric_scooter"}, {"is_reserved": 0, "is_disabled": 0, "fusion_lon": 0.0, "lat": 38.934293833333335, "name": "6f0978df22d0a312970d897298f6ce1d", "bike_id": "6f0978df22d0a312970d897298f6ce1d", "lon": -77.05850316666667, "fusion_lat": 0.0, "rental_uris": {"android": "https://dc.lft.to/lastmile_qr_scan", "ios": "https://dc.lft.to/lastmile_qr_scan"}, "type": "electric_scooter"}, {"is_reserved": 0, "is_disabled": 0, "fusion_lon": 0.0, "lat": 38.975496166666666, "name": "54de924d1cef27a641cdc21bf26d28e7", "bike_id": "54de924d1cef27a641cdc21bf26d28e7", "lon": -77.026532, "fusion_lat": 0.0, "rental_uris": {"android": "https://dc.lft.to/lastmile_qr_scan", "ios": "https://dc.lft.to/lastmile_qr_scan"}, "type": "electric_scooter"}, {"is_reserved": 0, "is_disabled": 0, "fusion_lon": 0.0, "lat": 38.87116866666667, "name": "b03a752a7fc4895dc9a27abdaae78d95", "bike_id": "b03a752a7fc4895dc9a27abdaae78d95", "lon": -77.00908533333333, "fusion_lat": 0.0, "rental_uris": {"android": "https://dc.lft.to/lastmile_qr_scan", "ios": "https://dc.lft.to/lastmile_qr_scan"}, "type": "electric_scooter"}, {"is_reserved": 0, "is_disabled": 0, "fusion_lon": 0.0, "lat": 38.904084166666664, "name": "685734877810adf58ff38d1ea69b95d3", "bike_id": "685734877810adf58ff38d1ea69b95d3", "lon": -77.03274016666667, "fusion_lat": 0.0, "rental_uris": {"android": "https://dc.lft.to/lastmile_qr_scan", "ios": "https://dc.lft.to/lastmile_qr_scan"}, "type": "electric_scooter"}, {"is_reserved": 0, "is_disabled": 0, "fusion_lon": 0.0, "lat": 38.87705416666667, "name": "9baa6bcf0fe97f440fbde156c36f054b", "bike_id": "9baa6bcf0fe97f440fbde156c36f054b", "lon": -76.99321233333333, "fusion_lat": 0.0, "rental_uris": {"android": "https://dc.lft.to/lastmile_qr_scan", "ios": "https://dc.lft.to/lastmile_qr_scan"}, "type": "electric_scooter"}, {"is_reserved": 0, "is_disabled": 0, "fusion_lon": 0.0, "lat": 38.90359183333333, "name": "f268defb7bcc0052f576649e9d3408d8", "bike_id": "f268defb7bcc0052f576649e9d3408d8", "lon": -77.033257, "fusion_lat": 0.0, "rental_uris": {"android": "https://dc.lft.to/lastmile_qr_scan", "ios": "https://dc.lft.to/lastmile_qr_scan"}, "type": "electric_bike"}, {"is_reserved": 0, "is_disabled": 0, "fusion_lon": 0.0, "lat": 38.88710533333333, "name": "3ad9898b623aca185444919dcd3f1cb3", "bike_id": "3ad9898b623aca185444919dcd3f1cb3", "lon": -76.98347, "fusion_lat": 0.0, "rental_uris": {"android": "https://dc.lft.to/lastmile_qr_scan", "ios": "https://dc.lft.to/lastmile_qr_scan"}, "type": "electric_scooter"}, {"is_reserved": 0, "is_disabled": 0, "fusion_lon": 0.0, "lat": 38.92886933333333, "name": "ac8dc1850d351fa8f3f56d67c3d1765f", "bike_id": "ac8dc1850d351fa8f3f56d67c3d1765f", "lon": -77.0323295, "fusion_lat": 0.0, "rental_uris": {"android": "https://dc.lft.to/lastmile_qr_scan", "ios": "https://dc.lft.to/lastmile_qr_scan"}, "type": "electric_scooter"}, {"is_reserved": 0, "is_disabled": 0, "fusion_lon": 0.0, "lat": 38.92732433333333, "name": "98ce62d9aefa73eac7dad811c5025754", "bike_id": "98ce62d9aefa73eac7dad811c5025754", "lon": -77.05373683333333, "fusion_lat": 0.0, "rental_uris": {"android": "https://dc.lft.to/lastmile_qr_scan", "ios": "https://dc.lft.to/lastmile_qr_scan"}, "type": "electric_scooter"}, {"is_reserved": 0, "is_disabled": 0, "fusion_lon": 0.0, "lat": 38.94265466666667, "name": "d640e0d7c9c5491f6eaa96c321bb7b24", "bike_id": "d640e0d7c9c5491f6eaa96c321bb7b24", "lon": -77.02588766666666, "fusion_lat": 0.0, "rental_uris": {"android": "https://dc.lft.to/lastmile_qr_scan", "ios": "https://dc.lft.to/lastmile_qr_scan"}, "type": "electric_scooter"}, {"is_reserved": 0, "is_disabled": 0, "fusion_lon": 0.0, "lat": 38.91808366666667, "name": "8e39f9dbeaf65882e57cf9fa2405214e", "bike_id": "8e39f9dbeaf65882e57cf9fa2405214e", "lon": -77.03706266666667, "fusion_lat": 0.0, "rental_uris": {"android": "https://dc.lft.to/lastmile_qr_scan", "ios": "https://dc.lft.to/lastmile_qr_scan"}, "type": "electric_scooter"}, {"is_reserved": 0, "is_disabled": 0, "fusion_lon": 0.0, "lat": 38.926147, "name": "c896d4832c54971141238dff4054a8e0", "bike_id": "c896d4832c54971141238dff4054a8e0", "lon": -77.02164133333333, "fusion_lat": 0.0, "rental_uris": {"android": "https://dc.lft.to/lastmile_qr_scan", "ios": "https://dc.lft.to/lastmile_qr_scan"}, "type": "electric_scooter"}, {"is_reserved": 0, "is_disabled": 0, "fusion_lon": 0.0, "lat": 38.88482716666667, "name": "c76af1c14f4601946bd290f0cf880208", "bike_id": "c76af1c14f4601946bd290f0cf880208", "lon": -77.02647483333334, "fusion_lat": 0.0, "rental_uris": {"android": "https://dc.lft.to/lastmile_qr_scan", "ios": "https://dc.lft.to/lastmile_qr_scan"}, "type": "electric_scooter"}, {"is_reserved": 0, "is_disabled": 0, "fusion_lon": 0.0, "lat": 38.91404516666667, "name": "d7dc25e61e12f5b9b0a292251a5c2cf3", "bike_id": "d7dc25e61e12f5b9b0a292251a5c2cf3", "lon": -77.03216133333333, "fusion_lat": 0.0, "rental_uris": {"android": "https://dc.lft.to/lastmile_qr_scan", "ios": "https://dc.lft.to/lastmile_qr_scan"}, "type": "electric_scooter"}, {"is_reserved": 0, "is_disabled": 0, "fusion_lon": 0.0, "lat": 38.90404783333334, "name": "74f3df506f0fc85899e46b9df2158aca", "bike_id": "74f3df506f0fc85899e46b9df2158aca", "lon": -77.01845766666666, "fusion_lat": 0.0, "rental_uris": {"android": "https://dc.lft.to/lastmile_qr_scan", "ios": "https://dc.lft.to/lastmile_qr_scan"}, "type": "electric_scooter"}, {"is_reserved": 0, "is_disabled": 0, "fusion_lon": 0.0, "lat": 38.909676166666664, "name": "c3f3f785be42f9cf2f35852a1416ff67", "bike_id": "c3f3f785be42f9cf2f35852a1416ff67", "lon": -77.03593783333334, "fusion_lat": 0.0, "rental_uris": {"android": "https://dc.lft.to/lastmile_qr_scan", "ios": "https://dc.lft.to/lastmile_qr_scan"}, "type": "electric_scooter"}, {"is_reserved": 0, "is_disabled": 0, "fusion_lon": 0.0, "lat": 38.920595, "name": "915f9a94eb44b8f5246876d8d7aeb0c1", "bike_id": "915f9a94eb44b8f5246876d8d7aeb0c1", "lon": -77.04403016666667, "fusion_lat": 0.0, "rental_uris": {"android": "https://dc.lft.to/lastmile_qr_scan", "ios": "https://dc.lft.to/lastmile_qr_scan"}, "type": "electric_scooter"}, {"is_reserved": 0, "is_disabled": 0, "fusion_lon": 0.0, "lat": 38.92414133333333, "name": "2391de1dca9bacd4b7d9aad4ccb5b035", "bike_id": "2391de1dca9bacd4b7d9aad4ccb5b035", "lon": -77.02004666666667, "fusion_lat": 0.0, "rental_uris": {"android": "https://dc.lft.to/lastmile_qr_scan", "ios": "https://dc.lft.to/lastmile_qr_scan"}, "type": "electric_scooter"}, {"is_reserved": 0, "is_disabled": 0, "fusion_lon": 0.0, "lat": 38.9953315, "name": "63d7ede3b1c8485ad7a6c73cf5bd9109", "bike_id": "63d7ede3b1c8485ad7a6c73cf5bd9109", "lon": -77.0289275, "fusion_lat": 0.0, "rental_uris": {"android": "https://dc.lft.to/lastmile_qr_scan", "ios": "https://dc.lft.to/lastmile_qr_scan"}, "type": "electric_bike"}, {"is_reserved": 0, "is_disabled": 0, "fusion_lon": 0.0, "lat": 38.912609, "name": "2991f9a2dec893a89a5723e165a28e9c", "bike_id": "2991f9a2dec893a89a5723e165a28e9c", "lon": -77.032809, "fusion_lat": 0.0, "rental_uris": {"android": "https://dc.lft.to/lastmile_qr_scan", "ios": "https://dc.lft.to/lastmile_qr_scan"}, "type": "electric_scooter"}, {"is_reserved": 0, "is_disabled": 0, "fusion_lon": 0.0, "lat": 38.908477500000004, "name": "1ce8a0234598d82d93400d34435cc213", "bike_id": "1ce8a0234598d82d93400d34435cc213", "lon": -76.99802866666667, "fusion_lat": 0.0, "rental_uris": {"android": "https://dc.lft.to/lastmile_qr_scan", "ios": "https://dc.lft.to/lastmile_qr_scan"}, "type": "electric_scooter"}, {"is_reserved": 0, "is_disabled": 0, "fusion_lon": 0.0, "lat": 38.89724533333333, "name": "c719f187f7ab80b5f0d55889502a7214", "bike_id": "c719f187f7ab80b5f0d55889502a7214", "lon": -77.03220633333333, "fusion_lat": 0.0, "rental_uris": {"android": "https://dc.lft.to/lastmile_qr_scan", "ios": "https://dc.lft.to/lastmile_qr_scan"}, "type": "electric_scooter"}, {"is_reserved": 0, "is_disabled": 0, "fusion_lon": 0.0, "lat": 38.896099666666665, "name": "dbeab85f8bf5bb4899a245a5dc10cf9c", "bike_id": "dbeab85f8bf5bb4899a245a5dc10cf9c", "lon": -76.97255916666667, "fusion_lat": 0.0, "rental_uris": {"android": "https://dc.lft.to/lastmile_qr_scan", "ios": "https://dc.lft.to/lastmile_qr_scan"}, "type": "electric_scooter"}, {"is_reserved": 0, "is_disabled": 0, "fusion_lon": 0.0, "lat": 38.919803333333334, "name": "4329d530bfbc8af8c86d845145fe362e", "bike_id": "4329d530bfbc8af8c86d845145fe362e", "lon": -77.07115516666667, "fusion_lat": 0.0, "rental_uris": {"android": "https://dc.lft.to/lastmile_qr_scan", "ios": "https://dc.lft.to/lastmile_qr_scan"}, "type": "electric_scooter"}, {"is_reserved": 0, "is_disabled": 0, "fusion_lon": 0.0, "lat": 38.92283333333334, "name": "097147b241a5da3427e2c73028f05a36", "bike_id": "097147b241a5da3427e2c73028f05a36", "lon": -77.036574, "fusion_lat": 0.0, "rental_uris": {"android": "https://dc.lft.to/lastmile_qr_scan", "ios": "https://dc.lft.to/lastmile_qr_scan"}, "type": "electric_scooter"}, {"is_reserved": 0, "is_disabled": 0, "fusion_lon": 0.0, "lat": 38.9156265, "name": "a7e06a63cdd30a9d32a1ed92292db389", "bike_id": "a7e06a63cdd30a9d32a1ed92292db389", "lon": -77.00618233333333, "fusion_lat": 0.0, "rental_uris": {"android": "https://dc.lft.to/lastmile_qr_scan", "ios": "https://dc.lft.to/lastmile_qr_scan"}, "type": "electric_bike"}, {"is_reserved": 0, "is_disabled": 0, "fusion_lon": 0.0, "lat": 38.907282333333335, "name": "877616d91143fcc096bec2179518eea2", "bike_id": "877616d91143fcc096bec2179518eea2", "lon": -77.04543116666666, "fusion_lat": 0.0, "rental_uris": {"android": "https://dc.lft.to/lastmile_qr_scan", "ios": "https://dc.lft.to/lastmile_qr_scan"}, "type": "electric_scooter"}, {"is_reserved": 0, "is_disabled": 0, "fusion_lon": 0.0, "lat": 38.910989666666666, "name": "6121792d827a3b9c97204c4653a99d09", "bike_id": "6121792d827a3b9c97204c4653a99d09", "lon": -77.07355466666667, "fusion_lat": 0.0, "rental_uris": {"android": "https://dc.lft.to/lastmile_qr_scan", "ios": "https://dc.lft.to/lastmile_qr_scan"}, "type": "electric_scooter"}, {"is_reserved": 0, "is_disabled": 0, "fusion_lon": 0.0, "lat": 38.923428333333334, "name": "c219669d9ab3b8e7530b648bf65ca5e3", "bike_id": "c219669d9ab3b8e7530b648bf65ca5e3", "lon": -77.01901233333334, "fusion_lat": 0.0, "rental_uris": {"android": "https://dc.lft.to/lastmile_qr_scan", "ios": "https://dc.lft.to/lastmile_qr_scan"}, "type": "electric_scooter"}, {"is_reserved": 0, "is_disabled": 0, "fusion_lon": 0.0, "lat": 38.904861, "name": "846f9d13ec13a71d86b834e222f49798", "bike_id": "846f9d13ec13a71d86b834e222f49798", "lon": -76.94959733333333, "fusion_lat": 0.0, "rental_uris": {"android": "https://dc.lft.to/lastmile_qr_scan", "ios": "https://dc.lft.to/lastmile_qr_scan"}, "type": "electric_scooter"}, {"is_reserved": 0, "is_disabled": 0, "fusion_lon": 0.0, "lat": 38.909640333333336, "name": "d097123f8924d199f46b87434ffe7e47", "bike_id": "d097123f8924d199f46b87434ffe7e47", "lon": -77.032538, "fusion_lat": 0.0, "rental_uris": {"android": "https://dc.lft.to/lastmile_qr_scan", "ios": "https://dc.lft.to/lastmile_qr_scan"}, "type": "electric_scooter"}, {"is_reserved": 0, "is_disabled": 0, "fusion_lon": 0.0, "lat": 38.90038033333333, "name": "af0948189a1aba53ff5086bdbeed7b3e", "bike_id": "af0948189a1aba53ff5086bdbeed7b3e", "lon": -76.99039733333333, "fusion_lat": 0.0, "rental_uris": {"android": "https://dc.lft.to/lastmile_qr_scan", "ios": "https://dc.lft.to/lastmile_qr_scan"}, "type": "electric_scooter"}, {"is_reserved": 0, "is_disabled": 0, "fusion_lon": 0.0, "lat": 38.92340516666667, "name": "28bbef2a3802c8a2eb8d401a9646b082", "bike_id": "28bbef2a3802c8a2eb8d401a9646b082", "lon": -77.01904466666667, "fusion_lat": 0.0, "rental_uris": {"android": "https://dc.lft.to/lastmile_qr_scan", "ios": "https://dc.lft.to/lastmile_qr_scan"}, "type": "electric_scooter"}, {"is_reserved": 0, "is_disabled": 0, "fusion_lon": 0.0, "lat": 38.892324333333335, "name": "d0a4c2f6b5a2aa38b9c8afb78cd4dce8", "bike_id": "d0a4c2f6b5a2aa38b9c8afb78cd4dce8", "lon": -77.031824, "fusion_lat": 0.0, "rental_uris": {"android": "https://dc.lft.to/lastmile_qr_scan", "ios": "https://dc.lft.to/lastmile_qr_scan"}, "type": "electric_scooter"}, {"is_reserved": 0, "is_disabled": 0, "fusion_lon": 0.0, "lat": 38.9170935, "name": "e5690590d825711f37c5d0caf96219b0", "bike_id": "e5690590d825711f37c5d0caf96219b0", "lon": -77.02551083333333, "fusion_lat": 0.0, "rental_uris": {"android": "https://dc.lft.to/lastmile_qr_scan", "ios": "https://dc.lft.to/lastmile_qr_scan"}, "type": "electric_scooter"}, {"is_reserved": 0, "is_disabled": 0, "fusion_lon": 0.0, "lat": 38.858058, "name": "327463491e9317c101fcf9a8ab38d207", "bike_id": "327463491e9317c101fcf9a8ab38d207", "lon": -76.987516, "fusion_lat": 0.0, "rental_uris": {"android": "https://dc.lft.to/lastmile_qr_scan", "ios": "https://dc.lft.to/lastmile_qr_scan"}, "type": "electric_bike"}, {"is_reserved": 0, "is_disabled": 0, "fusion_lon": 0.0, "lat": 38.902675333333335, "name": "95f5c91cfe1f895194eef76228b92934", "bike_id": "95f5c91cfe1f895194eef76228b92934", "lon": -77.0386185, "fusion_lat": 0.0, "rental_uris": {"android": "https://dc.lft.to/lastmile_qr_scan", "ios": "https://dc.lft.to/lastmile_qr_scan"}, "type": "electric_scooter"}, {"is_reserved": 0, "is_disabled": 0, "fusion_lon": 0.0, "lat": 38.9340885, "name": "f4368cb19b57520df9d32d7e63e0bc13", "bike_id": "f4368cb19b57520df9d32d7e63e0bc13", "lon": -77.04538666666667, "fusion_lat": 0.0, "rental_uris": {"android": "https://dc.lft.to/lastmile_qr_scan", "ios": "https://dc.lft.to/lastmile_qr_scan"}, "type": "electric_scooter"}, {"is_reserved": 0, "is_disabled": 0, "fusion_lon": 0.0, "lat": 38.9303435, "name": "a6454016a1fe93d298a8ca624be58ccb", "bike_id": "a6454016a1fe93d298a8ca624be58ccb", "lon": -77.0828995, "fusion_lat": 0.0, "rental_uris": {"android": "https://dc.lft.to/lastmile_qr_scan", "ios": "https://dc.lft.to/lastmile_qr_scan"}, "type": "electric_bike"}, {"is_reserved": 0, "is_disabled": 0, "fusion_lon": 0.0, "lat": 39.02919716666667, "name": "dc8b5194fd44dcb59f66e38305ab4e0b", "bike_id": "dc8b5194fd44dcb59f66e38305ab4e0b", "lon": -77.01353933333333, "fusion_lat": 0.0, "rental_uris": {"android": "https://dc.lft.to/lastmile_qr_scan", "ios": "https://dc.lft.to/lastmile_qr_scan"}, "type": "electric_bike"}, {"is_reserved": 0, "is_disabled": 0, "fusion_lon": 0.0, "lat": 38.87802333333333, "name": "7e21bf62400814750a79e2564525bdec", "bike_id": "7e21bf62400814750a79e2564525bdec", "lon": -76.988262, "fusion_lat": 0.0, "rental_uris": {"android": "https://dc.lft.to/lastmile_qr_scan", "ios": "https://dc.lft.to/lastmile_qr_scan"}, "type": "electric_scooter"}, {"is_reserved": 0, "is_disabled": 0, "fusion_lon": 0.0, "lat": 38.884451166666665, "name": "160689c22655134e185a2884c46f3233", "bike_id": "160689c22655134e185a2884c46f3233", "lon": -76.957704, "fusion_lat": 0.0, "rental_uris": {"android": "https://dc.lft.to/lastmile_qr_scan", "ios": "https://dc.lft.to/lastmile_qr_scan"}, "type": "electric_scooter"}, {"is_reserved": 0, "is_disabled": 0, "fusion_lon": 0.0, "lat": 38.884335666666665, "name": "815f5dc696f3a4faf42b9336ddcf9014", "bike_id": "815f5dc696f3a4faf42b9336ddcf9014", "lon": -76.99725816666667, "fusion_lat": 0.0, "rental_uris": {"android": "https://dc.lft.to/lastmile_qr_scan", "ios": "https://dc.lft.to/lastmile_qr_scan"}, "type": "electric_scooter"}, {"is_reserved": 0, "is_disabled": 0, "fusion_lon": 0.0, "lat": 38.91608866666667, "name": "31bdc7f8628ca8cc6a226b3867a32e7a", "bike_id": "31bdc7f8628ca8cc6a226b3867a32e7a", "lon": -77.022873, "fusion_lat": 0.0, "rental_uris": {"android": "https://dc.lft.to/lastmile_qr_scan", "ios": "https://dc.lft.to/lastmile_qr_scan"}, "type": "electric_scooter"}, {"is_reserved": 0, "is_disabled": 0, "fusion_lon": 0.0, "lat": 38.923361166666666, "name": "7962ee24a3e71e5f3822fe34d80108c5", "bike_id": "7962ee24a3e71e5f3822fe34d80108c5", "lon": -77.04132683333333, "fusion_lat": 0.0, "rental_uris": {"android": "https://dc.lft.to/lastmile_qr_scan", "ios": "https://dc.lft.to/lastmile_qr_scan"}, "type": "electric_scooter"}, {"is_reserved": 0, "is_disabled": 0, "fusion_lon": 0.0, "lat": 38.903063333333336, "name": "897e86fd06d9411c4b2b1fb422204060", "bike_id": "897e86fd06d9411c4b2b1fb422204060", "lon": -76.975106, "fusion_lat": 0.0, "rental_uris": {"android": "https://dc.lft.to/lastmile_qr_scan", "ios": "https://dc.lft.to/lastmile_qr_scan"}, "type": "electric_scooter"}, {"is_reserved": 0, "is_disabled": 0, "fusion_lon": 0.0, "lat": 38.883922166666665, "name": "b1f40aa3794d53f1f8f7fa2e3d78a037", "bike_id": "b1f40aa3794d53f1f8f7fa2e3d78a037", "lon": -76.9951385, "fusion_lat": 0.0, "rental_uris": {"android": "https://dc.lft.to/lastmile_qr_scan", "ios": "https://dc.lft.to/lastmile_qr_scan"}, "type": "electric_scooter"}, {"is_reserved": 0, "is_disabled": 0, "fusion_lon": 0.0, "lat": 38.89292116666667, "name": "1582cdff681bbc9e663600e923e06b8d", "bike_id": "1582cdff681bbc9e663600e923e06b8d", "lon": -76.99841083333334, "fusion_lat": 0.0, "rental_uris": {"android": "https://dc.lft.to/lastmile_qr_scan", "ios": "https://dc.lft.to/lastmile_qr_scan"}, "type": "electric_scooter"}, {"is_reserved": 0, "is_disabled": 0, "fusion_lon": 0.0, "lat": 38.90674216666667, "name": "be7ae45ee844c61055b1e551259e9a45", "bike_id": "be7ae45ee844c61055b1e551259e9a45", "lon": -77.07077133333334, "fusion_lat": 0.0, "rental_uris": {"android": "https://dc.lft.to/lastmile_qr_scan", "ios": "https://dc.lft.to/lastmile_qr_scan"}, "type": "electric_scooter"}, {"is_reserved": 0, "is_disabled": 0, "fusion_lon": 0.0, "lat": 38.93981733333333, "name": "5679cb626cd7e7ef13a05102a01f0843", "bike_id": "5679cb626cd7e7ef13a05102a01f0843", "lon": -77.030265, "fusion_lat": 0.0, "rental_uris": {"android": "https://dc.lft.to/lastmile_qr_scan", "ios": "https://dc.lft.to/lastmile_qr_scan"}, "type": "electric_scooter"}, {"is_reserved": 0, "is_disabled": 0, "fusion_lon": 0.0, "lat": 38.924470166666666, "name": "2941f06b1b2ea8b41eb6b9d4a1f10933", "bike_id": "2941f06b1b2ea8b41eb6b9d4a1f10933", "lon": -76.96827516666667, "fusion_lat": 0.0, "rental_uris": {"android": "https://dc.lft.to/lastmile_qr_scan", "ios": "https://dc.lft.to/lastmile_qr_scan"}, "type": "electric_scooter"}, {"is_reserved": 0, "is_disabled": 0, "fusion_lon": 0.0, "lat": 38.922555333333335, "name": "90034abb1161348cb6f72805e7a5e098", "bike_id": "90034abb1161348cb6f72805e7a5e098", "lon": -77.01951983333333, "fusion_lat": 0.0, "rental_uris": {"android": "https://dc.lft.to/lastmile_qr_scan", "ios": "https://dc.lft.to/lastmile_qr_scan"}, "type": "electric_scooter"}, {"is_reserved": 0, "is_disabled": 0, "fusion_lon": 0.0, "lat": 38.9208085, "name": "a6c70e3009694ee4f52cf156f2ffa156", "bike_id": "a6c70e3009694ee4f52cf156f2ffa156", "lon": -77.02483966666667, "fusion_lat": 0.0, "rental_uris": {"android": "https://dc.lft.to/lastmile_qr_scan", "ios": "https://dc.lft.to/lastmile_qr_scan"}, "type": "electric_scooter"}, {"is_reserved": 0, "is_disabled": 0, "fusion_lon": 0.0, "lat": 38.884613, "name": "44ceb645d03afb89e721af9f2b7e6675", "bike_id": "44ceb645d03afb89e721af9f2b7e6675", "lon": -77.0004685, "fusion_lat": 0.0, "rental_uris": {"android": "https://dc.lft.to/lastmile_qr_scan", "ios": "https://dc.lft.to/lastmile_qr_scan"}, "type": "electric_scooter"}, {"is_reserved": 0, "is_disabled": 0, "fusion_lon": 0.0, "lat": 38.84696916666667, "name": "12be1e68a9d2fca5296b0918471e939d", "bike_id": "12be1e68a9d2fca5296b0918471e939d", "lon": -76.99626, "fusion_lat": 0.0, "rental_uris": {"android": "https://dc.lft.to/lastmile_qr_scan", "ios": "https://dc.lft.to/lastmile_qr_scan"}, "type": "electric_scooter"}, {"is_reserved": 0, "is_disabled": 0, "fusion_lon": 0.0, "lat": 38.91690716666667, "name": "434c747069008763e5adba465be43280", "bike_id": "434c747069008763e5adba465be43280", "lon": -77.04084816666666, "fusion_lat": 0.0, "rental_uris": {"android": "https://dc.lft.to/lastmile_qr_scan", "ios": "https://dc.lft.to/lastmile_qr_scan"}, "type": "electric_scooter"}, {"is_reserved": 0, "is_disabled": 0, "fusion_lon": 0.0, "lat": 38.92405866666667, "name": "43b2d1be194f5825352e2c5cc137ca40", "bike_id": "43b2d1be194f5825352e2c5cc137ca40", "lon": -77.02715183333333, "fusion_lat": 0.0, "rental_uris": {"android": "https://dc.lft.to/lastmile_qr_scan", "ios": "https://dc.lft.to/lastmile_qr_scan"}, "type": "electric_scooter"}, {"is_reserved": 0, "is_disabled": 0, "fusion_lon": 0.0, "lat": 38.92962433333334, "name": "d16ee218ba8f577d4cadcb5a882542bf", "bike_id": "d16ee218ba8f577d4cadcb5a882542bf", "lon": -77.041273, "fusion_lat": 0.0, "rental_uris": {"android": "https://dc.lft.to/lastmile_qr_scan", "ios": "https://dc.lft.to/lastmile_qr_scan"}, "type": "electric_scooter"}, {"is_reserved": 0, "is_disabled": 0, "fusion_lon": 0.0, "lat": 38.89669333333333, "name": "9a1898e1f6c249c18d8a80fc004c9ebe", "bike_id": "9a1898e1f6c249c18d8a80fc004c9ebe", "lon": -76.93212233333334, "fusion_lat": 0.0, "rental_uris": {"android": "https://dc.lft.to/lastmile_qr_scan", "ios": "https://dc.lft.to/lastmile_qr_scan"}, "type": "electric_bike"}, {"is_reserved": 0, "is_disabled": 0, "fusion_lon": 0.0, "lat": 38.9167, "name": "45fb01f33980c085ed097e1192434283", "bike_id": "45fb01f33980c085ed097e1192434283", "lon": -77.0230855, "fusion_lat": 0.0, "rental_uris": {"android": "https://dc.lft.to/lastmile_qr_scan", "ios": "https://dc.lft.to/lastmile_qr_scan"}, "type": "electric_scooter"}, {"is_reserved": 0, "is_disabled": 0, "fusion_lon": 0.0, "lat": 38.92146183333333, "name": "ab1f1276bbe29df1a15e44fb0f980e99", "bike_id": "ab1f1276bbe29df1a15e44fb0f980e99", "lon": -77.02141833333333, "fusion_lat": 0.0, "rental_uris": {"android": "https://dc.lft.to/lastmile_qr_scan", "ios": "https://dc.lft.to/lastmile_qr_scan"}, "type": "electric_scooter"}, {"is_reserved": 0, "is_disabled": 0, "fusion_lon": 0.0, "lat": 38.921606833333335, "name": "7295c1eb2302439caa6a7da65f0c215b", "bike_id": "7295c1eb2302439caa6a7da65f0c215b", "lon": -77.042355, "fusion_lat": 0.0, "rental_uris": {"android": "https://dc.lft.to/lastmile_qr_scan", "ios": "https://dc.lft.to/lastmile_qr_scan"}, "type": "electric_scooter"}, {"is_reserved": 0, "is_disabled": 0, "fusion_lon": 0.0, "lat": 38.9271575, "name": "03f9e4ad35019fc87f292d4697f70cbf", "bike_id": "03f9e4ad35019fc87f292d4697f70cbf", "lon": -77.0599535, "fusion_lat": 0.0, "rental_uris": {"android": "https://dc.lft.to/lastmile_qr_scan", "ios": "https://dc.lft.to/lastmile_qr_scan"}, "type": "electric_scooter"}, {"is_reserved": 0, "is_disabled": 0, "fusion_lon": 0.0, "lat": 38.90338333333333, "name": "985a8d746c33469ae42c327283793fb6", "bike_id": "985a8d746c33469ae42c327283793fb6", "lon": -77.01637083333334, "fusion_lat": 0.0, "rental_uris": {"android": "https://dc.lft.to/lastmile_qr_scan", "ios": "https://dc.lft.to/lastmile_qr_scan"}, "type": "electric_scooter"}, {"is_reserved": 0, "is_disabled": 0, "fusion_lon": 0.0, "lat": 38.919837333333334, "name": "e4f13604fffd617db2f62efec0df184b", "bike_id": "e4f13604fffd617db2f62efec0df184b", "lon": -77.0250305, "fusion_lat": 0.0, "rental_uris": {"android": "https://dc.lft.to/lastmile_qr_scan", "ios": "https://dc.lft.to/lastmile_qr_scan"}, "type": "electric_scooter"}, {"is_reserved": 0, "is_disabled": 0, "fusion_lon": 0.0, "lat": 38.9981035, "name": "b2e9f310f60c79e0830f25947feee308", "bike_id": "b2e9f310f60c79e0830f25947feee308", "lon": -77.02887016666666, "fusion_lat": 0.0, "rental_uris": {"android": "https://dc.lft.to/lastmile_qr_scan", "ios": "https://dc.lft.to/lastmile_qr_scan"}, "type": "electric_bike"}, {"is_reserved": 0, "is_disabled": 0, "fusion_lon": 0.0, "lat": 38.92149216666667, "name": "66dad42d3e5970530d319169900dfc77", "bike_id": "66dad42d3e5970530d319169900dfc77", "lon": -77.03866683333334, "fusion_lat": 0.0, "rental_uris": {"android": "https://dc.lft.to/lastmile_qr_scan", "ios": "https://dc.lft.to/lastmile_qr_scan"}, "type": "electric_scooter"}, {"is_reserved": 0, "is_disabled": 0, "fusion_lon": 0.0, "lat": 38.914360333333335, "name": "0a5282ec68b8fb6c41b4958fbb9dedbf", "bike_id": "0a5282ec68b8fb6c41b4958fbb9dedbf", "lon": -77.00359466666667, "fusion_lat": 0.0, "rental_uris": {"android": "https://dc.lft.to/lastmile_qr_scan", "ios": "https://dc.lft.to/lastmile_qr_scan"}, "type": "electric_scooter"}, {"is_reserved": 0, "is_disabled": 0, "fusion_lon": 0.0, "lat": 38.919095, "name": "5440b2e1d6130e685200cadf24018632", "bike_id": "5440b2e1d6130e685200cadf24018632", "lon": -77.03331, "fusion_lat": 0.0, "rental_uris": {"android": "https://dc.lft.to/lastmile_qr_scan", "ios": "https://dc.lft.to/lastmile_qr_scan"}, "type": "electric_scooter"}, {"is_reserved": 0, "is_disabled": 0, "fusion_lon": 0.0, "lat": 38.8968195, "name": "788a55b127a5cb754642ccdc1bc4c110", "bike_id": "788a55b127a5cb754642ccdc1bc4c110", "lon": -76.9630515, "fusion_lat": 0.0, "rental_uris": {"android": "https://dc.lft.to/lastmile_qr_scan", "ios": "https://dc.lft.to/lastmile_qr_scan"}, "type": "electric_bike"}, {"is_reserved": 0, "is_disabled": 0, "fusion_lon": 0.0, "lat": 38.89228083333333, "name": "d0fd375415b28b3585acabf6ad2092f5", "bike_id": "d0fd375415b28b3585acabf6ad2092f5", "lon": -77.04344716666667, "fusion_lat": 0.0, "rental_uris": {"android": "https://dc.lft.to/lastmile_qr_scan", "ios": "https://dc.lft.to/lastmile_qr_scan"}, "type": "electric_scooter"}, {"is_reserved": 0, "is_disabled": 0, "fusion_lon": 0.0, "lat": 38.8982475, "name": "50b02f72cd1d13ed1259f5f5dafbc044", "bike_id": "50b02f72cd1d13ed1259f5f5dafbc044", "lon": -77.04594516666667, "fusion_lat": 0.0, "rental_uris": {"android": "https://dc.lft.to/lastmile_qr_scan", "ios": "https://dc.lft.to/lastmile_qr_scan"}, "type": "electric_scooter"}, {"is_reserved": 0, "is_disabled": 0, "fusion_lon": 0.0, "lat": 38.92761433333333, "name": "08212d32f7241ae84cb17fbdbe97a0d7", "bike_id": "08212d32f7241ae84cb17fbdbe97a0d7", "lon": -77.0321375, "fusion_lat": 0.0, "rental_uris": {"android": "https://dc.lft.to/lastmile_qr_scan", "ios": "https://dc.lft.to/lastmile_qr_scan"}, "type": "electric_scooter"}, {"is_reserved": 0, "is_disabled": 0, "fusion_lon": 0.0, "lat": 38.90810416666667, "name": "3870e6ba1ee41b01cbb9a76bd3506504", "bike_id": "3870e6ba1ee41b01cbb9a76bd3506504", "lon": -77.02392033333334, "fusion_lat": 0.0, "rental_uris": {"android": "https://dc.lft.to/lastmile_qr_scan", "ios": "https://dc.lft.to/lastmile_qr_scan"}, "type": "electric_scooter"}, {"is_reserved": 0, "is_disabled": 0, "fusion_lon": 0.0, "lat": 38.87677983333333, "name": "a49d03a15c4c8d31b8579e116c2c62a2", "bike_id": "a49d03a15c4c8d31b8579e116c2c62a2", "lon": -77.002431, "fusion_lat": 0.0, "rental_uris": {"android": "https://dc.lft.to/lastmile_qr_scan", "ios": "https://dc.lft.to/lastmile_qr_scan"}, "type": "electric_scooter"}, {"is_reserved": 0, "is_disabled": 0, "fusion_lon": 0.0, "lat": 38.8945105, "name": "ca23042e065d0fa08fdd7f0edeee31e9", "bike_id": "ca23042e065d0fa08fdd7f0edeee31e9", "lon": -77.0268715, "fusion_lat": 0.0, "rental_uris": {"android": "https://dc.lft.to/lastmile_qr_scan", "ios": "https://dc.lft.to/lastmile_qr_scan"}, "type": "electric_scooter"}, {"is_reserved": 0, "is_disabled": 0, "fusion_lon": 0.0, "lat": 38.91762933333333, "name": "eefd446104025783a5d1a1de7c5ae490", "bike_id": "eefd446104025783a5d1a1de7c5ae490", "lon": -77.027145, "fusion_lat": 0.0, "rental_uris": {"android": "https://dc.lft.to/lastmile_qr_scan", "ios": "https://dc.lft.to/lastmile_qr_scan"}, "type": "electric_scooter"}, {"is_reserved": 0, "is_disabled": 0, "fusion_lon": 0.0, "lat": 38.92305616666667, "name": "8dc5ac58dce51980bde71b37a3eed22c", "bike_id": "8dc5ac58dce51980bde71b37a3eed22c", "lon": -77.03105816666667, "fusion_lat": 0.0, "rental_uris": {"android": "https://dc.lft.to/lastmile_qr_scan", "ios": "https://dc.lft.to/lastmile_qr_scan"}, "type": "electric_scooter"}, {"is_reserved": 0, "is_disabled": 0, "fusion_lon": 0.0, "lat": 38.89223466666667, "name": "aaf301059c0ff432ca83f2d36dc1b0a8", "bike_id": "aaf301059c0ff432ca83f2d36dc1b0a8", "lon": -77.02413883333334, "fusion_lat": 0.0, "rental_uris": {"android": "https://dc.lft.to/lastmile_qr_scan", "ios": "https://dc.lft.to/lastmile_qr_scan"}, "type": "electric_scooter"}, {"is_reserved": 0, "is_disabled": 0, "fusion_lon": 0.0, "lat": 38.9243775, "name": "110fc72c2ed176b0b0b951f96302f71f", "bike_id": "110fc72c2ed176b0b0b951f96302f71f", "lon": -77.033545, "fusion_lat": 0.0, "rental_uris": {"android": "https://dc.lft.to/lastmile_qr_scan", "ios": "https://dc.lft.to/lastmile_qr_scan"}, "type": "electric_scooter"}, {"is_reserved": 0, "is_disabled": 0, "fusion_lon": 0.0, "lat": 38.88787833333333, "name": "f5354ee7318224044f4b5b6eb3d31bde", "bike_id": "f5354ee7318224044f4b5b6eb3d31bde", "lon": -77.015957, "fusion_lat": 0.0, "rental_uris": {"android": "https://dc.lft.to/lastmile_qr_scan", "ios": "https://dc.lft.to/lastmile_qr_scan"}, "type": "electric_scooter"}, {"is_reserved": 0, "is_disabled": 0, "fusion_lon": 0.0, "lat": 38.881385333333334, "name": "bdbcbd0406c3db58f14b4752c9d06d67", "bike_id": "bdbcbd0406c3db58f14b4752c9d06d67", "lon": -77.02273983333333, "fusion_lat": 0.0, "rental_uris": {"android": "https://dc.lft.to/lastmile_qr_scan", "ios": "https://dc.lft.to/lastmile_qr_scan"}, "type": "electric_scooter"}, {"is_reserved": 0, "is_disabled": 0, "fusion_lon": 0.0, "lat": 38.92220316666667, "name": "e1b4272f81389c4f743906573dc7aa37", "bike_id": "e1b4272f81389c4f743906573dc7aa37", "lon": -77.04243333333334, "fusion_lat": 0.0, "rental_uris": {"android": "https://dc.lft.to/lastmile_qr_scan", "ios": "https://dc.lft.to/lastmile_qr_scan"}, "type": "electric_scooter"}, {"is_reserved": 0, "is_disabled": 0, "fusion_lon": 0.0, "lat": 38.89852783333333, "name": "f372cd9e90d9df1f02e518ffa8358304", "bike_id": "f372cd9e90d9df1f02e518ffa8358304", "lon": -76.93188366666666, "fusion_lat": 0.0, "rental_uris": {"android": "https://dc.lft.to/lastmile_qr_scan", "ios": "https://dc.lft.to/lastmile_qr_scan"}, "type": "electric_bike"}, {"is_reserved": 0, "is_disabled": 0, "fusion_lon": 0.0, "lat": 38.93305516666667, "name": "f6eac01d5cf8e99d8a31d137338c053e", "bike_id": "f6eac01d5cf8e99d8a31d137338c053e", "lon": -77.030786, "fusion_lat": 0.0, "rental_uris": {"android": "https://dc.lft.to/lastmile_qr_scan", "ios": "https://dc.lft.to/lastmile_qr_scan"}, "type": "electric_scooter"}, {"is_reserved": 0, "is_disabled": 0, "fusion_lon": 0.0, "lat": 38.9561205, "name": "d369c6d8dd369b949051e104fa4ad801", "bike_id": "d369c6d8dd369b949051e104fa4ad801", "lon": -76.96267716666667, "fusion_lat": 0.0, "rental_uris": {"android": "https://dc.lft.to/lastmile_qr_scan", "ios": "https://dc.lft.to/lastmile_qr_scan"}, "type": "electric_bike"}, {"is_reserved": 0, "is_disabled": 0, "fusion_lon": 0.0, "lat": 38.896134, "name": "9ffa4e626be320273329011df8f32eea", "bike_id": "9ffa4e626be320273329011df8f32eea", "lon": -76.94855, "fusion_lat": 0.0, "rental_uris": {"android": "https://dc.lft.to/lastmile_qr_scan", "ios": "https://dc.lft.to/lastmile_qr_scan"}, "type": "electric_scooter"}, {"is_reserved": 0, "is_disabled": 0, "fusion_lon": 0.0, "lat": 38.917083, "name": "c163efa454eb22567ffb503fedafad37", "bike_id": "c163efa454eb22567ffb503fedafad37", "lon": -77.03412683333333, "fusion_lat": 0.0, "rental_uris": {"android": "https://dc.lft.to/lastmile_qr_scan", "ios": "https://dc.lft.to/lastmile_qr_scan"}, "type": "electric_scooter"}, {"is_reserved": 0, "is_disabled": 0, "fusion_lon": 0.0, "lat": 38.924903666666665, "name": "4aa14a0b6002c4ffa83500201532c005", "bike_id": "4aa14a0b6002c4ffa83500201532c005", "lon": -77.02136866666666, "fusion_lat": 0.0, "rental_uris": {"android": "https://dc.lft.to/lastmile_qr_scan", "ios": "https://dc.lft.to/lastmile_qr_scan"}, "type": "electric_scooter"}, {"is_reserved": 0, "is_disabled": 0, "fusion_lon": 0.0, "lat": 38.896352, "name": "e5c9bb4db4ff1485ee60d601c09a18af", "bike_id": "e5c9bb4db4ff1485ee60d601c09a18af", "lon": -77.04010916666667, "fusion_lat": 0.0, "rental_uris": {"android": "https://dc.lft.to/lastmile_qr_scan", "ios": "https://dc.lft.to/lastmile_qr_scan"}, "type": "electric_scooter"}, {"is_reserved": 0, "is_disabled": 0, "fusion_lon": 0.0, "lat": 38.900758333333336, "name": "f8204fa6e583c51865d587aaf5c4f3ee", "bike_id": "f8204fa6e583c51865d587aaf5c4f3ee", "lon": -77.05078683333333, "fusion_lat": 0.0, "rental_uris": {"android": "https://dc.lft.to/lastmile_qr_scan", "ios": "https://dc.lft.to/lastmile_qr_scan"}, "type": "electric_scooter"}, {"is_reserved": 0, "is_disabled": 0, "fusion_lon": 0.0, "lat": 38.891763166666664, "name": "470aae10eedf61efa93bc5b8e80054b2", "bike_id": "470aae10eedf61efa93bc5b8e80054b2", "lon": -77.01562666666666, "fusion_lat": 0.0, "rental_uris": {"android": "https://dc.lft.to/lastmile_qr_scan", "ios": "https://dc.lft.to/lastmile_qr_scan"}, "type": "electric_scooter"}, {"is_reserved": 0, "is_disabled": 0, "fusion_lon": 0.0, "lat": 38.909683333333334, "name": "8dacfd3bfb168c1f78ba49e5bf7b2730", "bike_id": "8dacfd3bfb168c1f78ba49e5bf7b2730", "lon": -77.0380755, "fusion_lat": 0.0, "rental_uris": {"android": "https://dc.lft.to/lastmile_qr_scan", "ios": "https://dc.lft.to/lastmile_qr_scan"}, "type": "electric_scooter"}, {"is_reserved": 0, "is_disabled": 0, "fusion_lon": 0.0, "lat": 38.92068733333333, "name": "b3faddaa27d498f87cb2c3c87b57be38", "bike_id": "b3faddaa27d498f87cb2c3c87b57be38", "lon": -77.02483066666667, "fusion_lat": 0.0, "rental_uris": {"android": "https://dc.lft.to/lastmile_qr_scan", "ios": "https://dc.lft.to/lastmile_qr_scan"}, "type": "electric_scooter"}, {"is_reserved": 0, "is_disabled": 0, "fusion_lon": 0.0, "lat": 38.9247765, "name": "d84b8adcf71dda750ca739c8959712d3", "bike_id": "d84b8adcf71dda750ca739c8959712d3", "lon": -77.0393105, "fusion_lat": 0.0, "rental_uris": {"android": "https://dc.lft.to/lastmile_qr_scan", "ios": "https://dc.lft.to/lastmile_qr_scan"}, "type": "electric_scooter"}, {"is_reserved": 0, "is_disabled": 0, "fusion_lon": 0.0, "lat": 38.909596666666665, "name": "23e10772815e4a52bdcc0c7cafc32a5c", "bike_id": "23e10772815e4a52bdcc0c7cafc32a5c", "lon": -77.08811083333333, "fusion_lat": 0.0, "rental_uris": {"android": "https://dc.lft.to/lastmile_qr_scan", "ios": "https://dc.lft.to/lastmile_qr_scan"}, "type": "electric_bike"}, {"is_reserved": 0, "is_disabled": 0, "fusion_lon": 0.0, "lat": 38.91262283333333, "name": "3977f896760b4e4093f329276a15675a", "bike_id": "3977f896760b4e4093f329276a15675a", "lon": -76.9720815, "fusion_lat": 0.0, "rental_uris": {"android": "https://dc.lft.to/lastmile_qr_scan", "ios": "https://dc.lft.to/lastmile_qr_scan"}, "type": "electric_scooter"}, {"is_reserved": 0, "is_disabled": 0, "fusion_lon": 0.0, "lat": 38.88690183333333, "name": "b3e0482ef16fc7f67a3778ca8dd5643b", "bike_id": "b3e0482ef16fc7f67a3778ca8dd5643b", "lon": -76.9763915, "fusion_lat": 0.0, "rental_uris": {"android": "https://dc.lft.to/lastmile_qr_scan", "ios": "https://dc.lft.to/lastmile_qr_scan"}, "type": "electric_scooter"}, {"is_reserved": 0, "is_disabled": 0, "fusion_lon": 0.0, "lat": 38.90288283333334, "name": "9a6b661f4ee13e29c50b7b574d4818bd", "bike_id": "9a6b661f4ee13e29c50b7b574d4818bd", "lon": -77.022766, "fusion_lat": 0.0, "rental_uris": {"android": "https://dc.lft.to/lastmile_qr_scan", "ios": "https://dc.lft.to/lastmile_qr_scan"}, "type": "electric_scooter"}, {"is_reserved": 0, "is_disabled": 0, "fusion_lon": 0.0, "lat": 38.849625833333334, "name": "a6ad07059b21bf1e713f08c9ff645afb", "bike_id": "a6ad07059b21bf1e713f08c9ff645afb", "lon": -77.0892885, "fusion_lat": 0.0, "rental_uris": {"android": "https://dc.lft.to/lastmile_qr_scan", "ios": "https://dc.lft.to/lastmile_qr_scan"}, "type": "electric_bike"}, {"is_reserved": 0, "is_disabled": 0, "fusion_lon": 0.0, "lat": 38.923188833333334, "name": "1fd32c9f45cbc473c089cb4d3a22fcaa", "bike_id": "1fd32c9f45cbc473c089cb4d3a22fcaa", "lon": -77.04461033333334, "fusion_lat": 0.0, "rental_uris": {"android": "https://dc.lft.to/lastmile_qr_scan", "ios": "https://dc.lft.to/lastmile_qr_scan"}, "type": "electric_scooter"}, {"is_reserved": 0, "is_disabled": 0, "fusion_lon": 0.0, "lat": 38.913792666666666, "name": "17620145daa3a70f1af78f61a3df78fe", "bike_id": "17620145daa3a70f1af78f61a3df78fe", "lon": -77.0417475, "fusion_lat": 0.0, "rental_uris": {"android": "https://dc.lft.to/lastmile_qr_scan", "ios": "https://dc.lft.to/lastmile_qr_scan"}, "type": "electric_scooter"}, {"is_reserved": 0, "is_disabled": 0, "fusion_lon": 0.0, "lat": 38.931743, "name": "1e69f78a728c1930bd1e40e2c10286d0", "bike_id": "1e69f78a728c1930bd1e40e2c10286d0", "lon": -77.02341316666667, "fusion_lat": 0.0, "rental_uris": {"android": "https://dc.lft.to/lastmile_qr_scan", "ios": "https://dc.lft.to/lastmile_qr_scan"}, "type": "electric_scooter"}, {"is_reserved": 0, "is_disabled": 0, "fusion_lon": 0.0, "lat": 38.89669383333333, "name": "4986e1938d329fe8c66d537bff4c0a0f", "bike_id": "4986e1938d329fe8c66d537bff4c0a0f", "lon": -76.93212883333334, "fusion_lat": 0.0, "rental_uris": {"android": "https://dc.lft.to/lastmile_qr_scan", "ios": "https://dc.lft.to/lastmile_qr_scan"}, "type": "electric_scooter"}, {"is_reserved": 0, "is_disabled": 0, "fusion_lon": 0.0, "lat": 38.88458933333333, "name": "5199ce10abbde268eee439e4b43edab9", "bike_id": "5199ce10abbde268eee439e4b43edab9", "lon": -76.92623666666667, "fusion_lat": 0.0, "rental_uris": {"android": "https://dc.lft.to/lastmile_qr_scan", "ios": "https://dc.lft.to/lastmile_qr_scan"}, "type": "electric_scooter"}, {"is_reserved": 0, "is_disabled": 0, "fusion_lon": 0.0, "lat": 38.9209295, "name": "2b01f436ac8780ab9ef6cf17bbe1d1ef", "bike_id": "2b01f436ac8780ab9ef6cf17bbe1d1ef", "lon": -77.0438215, "fusion_lat": 0.0, "rental_uris": {"android": "https://dc.lft.to/lastmile_qr_scan", "ios": "https://dc.lft.to/lastmile_qr_scan"}, "type": "electric_scooter"}, {"is_reserved": 0, "is_disabled": 0, "fusion_lon": 0.0, "lat": 38.9018665, "name": "7686a642f29acd6dd0902438860228e2", "bike_id": "7686a642f29acd6dd0902438860228e2", "lon": -77.01259333333333, "fusion_lat": 0.0, "rental_uris": {"android": "https://dc.lft.to/lastmile_qr_scan", "ios": "https://dc.lft.to/lastmile_qr_scan"}, "type": "electric_scooter"}, {"is_reserved": 0, "is_disabled": 0, "fusion_lon": 0.0, "lat": 38.8904455, "name": "5915fc2606da74350f09997b9f9debfc", "bike_id": "5915fc2606da74350f09997b9f9debfc", "lon": -76.93756283333333, "fusion_lat": 0.0, "rental_uris": {"android": "https://dc.lft.to/lastmile_qr_scan", "ios": "https://dc.lft.to/lastmile_qr_scan"}, "type": "electric_scooter"}, {"is_reserved": 0, "is_disabled": 0, "fusion_lon": 0.0, "lat": 38.89245233333333, "name": "37966d32219783c07485bbe3f92f67ff", "bike_id": "37966d32219783c07485bbe3f92f67ff", "lon": -77.03186883333333, "fusion_lat": 0.0, "rental_uris": {"android": "https://dc.lft.to/lastmile_qr_scan", "ios": "https://dc.lft.to/lastmile_qr_scan"}, "type": "electric_scooter"}, {"is_reserved": 0, "is_disabled": 0, "fusion_lon": 0.0, "lat": 38.90099216666667, "name": "1557400ccbf4c23da43b37e460c1f238", "bike_id": "1557400ccbf4c23da43b37e460c1f238", "lon": -77.018164, "fusion_lat": 0.0, "rental_uris": {"android": "https://dc.lft.to/lastmile_qr_scan", "ios": "https://dc.lft.to/lastmile_qr_scan"}, "type": "electric_scooter"}, {"is_reserved": 0, "is_disabled": 0, "fusion_lon": 0.0, "lat": 38.951343, "name": "2bdb799468d26c19c6a62c72ecaffb11", "bike_id": "2bdb799468d26c19c6a62c72ecaffb11", "lon": -77.0272645, "fusion_lat": 0.0, "rental_uris": {"android": "https://dc.lft.to/lastmile_qr_scan", "ios": "https://dc.lft.to/lastmile_qr_scan"}, "type": "electric_scooter"}, {"is_reserved": 0, "is_disabled": 0, "fusion_lon": 0.0, "lat": 39.0747255, "name": "32b15c29eaf0dae8aa726df9825ca6d2", "bike_id": "32b15c29eaf0dae8aa726df9825ca6d2", "lon": -77.1152865, "fusion_lat": 0.0, "rental_uris": {"android": "https://dc.lft.to/lastmile_qr_scan", "ios": "https://dc.lft.to/lastmile_qr_scan"}, "type": "electric_bike"}, {"is_reserved": 0, "is_disabled": 0, "fusion_lon": 0.0, "lat": 38.915772, "name": "d1679daf61e1271036a3f64bf03544a2", "bike_id": "d1679daf61e1271036a3f64bf03544a2", "lon": -77.0318635, "fusion_lat": 0.0, "rental_uris": {"android": "https://dc.lft.to/lastmile_qr_scan", "ios": "https://dc.lft.to/lastmile_qr_scan"}, "type": "electric_scooter"}, {"is_reserved": 0, "is_disabled": 0, "fusion_lon": 0.0, "lat": 38.898477166666666, "name": "a8fe68c12d29bef72dfb3bbefa585d30", "bike_id": "a8fe68c12d29bef72dfb3bbefa585d30", "lon": -77.03956516666666, "fusion_lat": 0.0, "rental_uris": {"android": "https://dc.lft.to/lastmile_qr_scan", "ios": "https://dc.lft.to/lastmile_qr_scan"}, "type": "electric_scooter"}, {"is_reserved": 0, "is_disabled": 0, "fusion_lon": 0.0, "lat": 38.916765833333336, "name": "753757d5a21dac965bbcbb3742cdb8c9", "bike_id": "753757d5a21dac965bbcbb3742cdb8c9", "lon": -77.04615483333333, "fusion_lat": 0.0, "rental_uris": {"android": "https://dc.lft.to/lastmile_qr_scan", "ios": "https://dc.lft.to/lastmile_qr_scan"}, "type": "electric_scooter"}, {"is_reserved": 0, "is_disabled": 0, "fusion_lon": 0.0, "lat": 38.913237333333335, "name": "29f5108b767815d592af13948a3afdee", "bike_id": "29f5108b767815d592af13948a3afdee", "lon": -77.04535666666666, "fusion_lat": 0.0, "rental_uris": {"android": "https://dc.lft.to/lastmile_qr_scan", "ios": "https://dc.lft.to/lastmile_qr_scan"}, "type": "electric_scooter"}, {"is_reserved": 0, "is_disabled": 0, "fusion_lon": 0.0, "lat": 38.90584466666667, "name": "f32e08b4b0e69025343398177b537459", "bike_id": "f32e08b4b0e69025343398177b537459", "lon": -77.040884, "fusion_lat": 0.0, "rental_uris": {"android": "https://dc.lft.to/lastmile_qr_scan", "ios": "https://dc.lft.to/lastmile_qr_scan"}, "type": "electric_scooter"}, {"is_reserved": 0, "is_disabled": 0, "fusion_lon": 0.0, "lat": 38.90036033333333, "name": "579b12e261adce03bd5e8a3750449206", "bike_id": "579b12e261adce03bd5e8a3750449206", "lon": -76.99856766666667, "fusion_lat": 0.0, "rental_uris": {"android": "https://dc.lft.to/lastmile_qr_scan", "ios": "https://dc.lft.to/lastmile_qr_scan"}, "type": "electric_scooter"}, {"is_reserved": 0, "is_disabled": 0, "fusion_lon": 0.0, "lat": 38.917099, "name": "0bb5c430936d832a9e98d90e9ad9bef1", "bike_id": "0bb5c430936d832a9e98d90e9ad9bef1", "lon": -77.03864133333333, "fusion_lat": 0.0, "rental_uris": {"android": "https://dc.lft.to/lastmile_qr_scan", "ios": "https://dc.lft.to/lastmile_qr_scan"}, "type": "electric_scooter"}, {"is_reserved": 0, "is_disabled": 0, "fusion_lon": 0.0, "lat": 38.90031883333333, "name": "e3e529db60d46d2d09bc83d313d73689", "bike_id": "e3e529db60d46d2d09bc83d313d73689", "lon": -76.988354, "fusion_lat": 0.0, "rental_uris": {"android": "https://dc.lft.to/lastmile_qr_scan", "ios": "https://dc.lft.to/lastmile_qr_scan"}, "type": "electric_scooter"}, {"is_reserved": 0, "is_disabled": 0, "fusion_lon": 0.0, "lat": 38.9155235, "name": "8d5a30b5355cbc0c2d6f854b7239bac0", "bike_id": "8d5a30b5355cbc0c2d6f854b7239bac0", "lon": -77.02362966666666, "fusion_lat": 0.0, "rental_uris": {"android": "https://dc.lft.to/lastmile_qr_scan", "ios": "https://dc.lft.to/lastmile_qr_scan"}, "type": "electric_bike"}, {"is_reserved": 0, "is_disabled": 0, "fusion_lon": 0.0, "lat": 38.904822, "name": "4cf98eaddbc9028ac9570a33a77057b1", "bike_id": "4cf98eaddbc9028ac9570a33a77057b1", "lon": -77.035773, "fusion_lat": 0.0, "rental_uris": {"android": "https://dc.lft.to/lastmile_qr_scan", "ios": "https://dc.lft.to/lastmile_qr_scan"}, "type": "electric_scooter"}, {"is_reserved": 0, "is_disabled": 0, "fusion_lon": 0.0, "lat": 38.938564666666664, "name": "10e27f0227cb2dc5920be8bf4e616188", "bike_id": "10e27f0227cb2dc5920be8bf4e616188", "lon": -76.9943775, "fusion_lat": 0.0, "rental_uris": {"android": "https://dc.lft.to/lastmile_qr_scan", "ios": "https://dc.lft.to/lastmile_qr_scan"}, "type": "electric_scooter"}, {"is_reserved": 0, "is_disabled": 0, "fusion_lon": 0.0, "lat": 38.89125466666667, "name": "1f41652bc49c024dc97fd1c60ed79eb4", "bike_id": "1f41652bc49c024dc97fd1c60ed79eb4", "lon": -76.940631, "fusion_lat": 0.0, "rental_uris": {"android": "https://dc.lft.to/lastmile_qr_scan", "ios": "https://dc.lft.to/lastmile_qr_scan"}, "type": "electric_bike"}, {"is_reserved": 0, "is_disabled": 0, "fusion_lon": 0.0, "lat": 38.917793833333334, "name": "a290d6ad2e9da2bab98f25fca89424b6", "bike_id": "a290d6ad2e9da2bab98f25fca89424b6", "lon": -77.022723, "fusion_lat": 0.0, "rental_uris": {"android": "https://dc.lft.to/lastmile_qr_scan", "ios": "https://dc.lft.to/lastmile_qr_scan"}, "type": "electric_scooter"}, {"is_reserved": 0, "is_disabled": 0, "fusion_lon": 0.0, "lat": 38.92379733333333, "name": "b50b17bb61931c295ce279cb80d07e7c", "bike_id": "b50b17bb61931c295ce279cb80d07e7c", "lon": -77.029597, "fusion_lat": 0.0, "rental_uris": {"android": "https://dc.lft.to/lastmile_qr_scan", "ios": "https://dc.lft.to/lastmile_qr_scan"}, "type": "electric_scooter"}, {"is_reserved": 0, "is_disabled": 0, "fusion_lon": 0.0, "lat": 38.892214833333334, "name": "2ec36004d63bce20a1daa66870ee457c", "bike_id": "2ec36004d63bce20a1daa66870ee457c", "lon": -77.03219166666666, "fusion_lat": 0.0, "rental_uris": {"android": "https://dc.lft.to/lastmile_qr_scan", "ios": "https://dc.lft.to/lastmile_qr_scan"}, "type": "electric_scooter"}, {"is_reserved": 0, "is_disabled": 0, "fusion_lon": 0.0, "lat": 38.914061833333335, "name": "b27185eb085b0e2f85111b20e498d0cc", "bike_id": "b27185eb085b0e2f85111b20e498d0cc", "lon": -77.024218, "fusion_lat": 0.0, "rental_uris": {"android": "https://dc.lft.to/lastmile_qr_scan", "ios": "https://dc.lft.to/lastmile_qr_scan"}, "type": "electric_scooter"}, {"is_reserved": 0, "is_disabled": 0, "fusion_lon": 0.0, "lat": 38.92329983333333, "name": "b09686d068db4fd7c868935e58c20d53", "bike_id": "b09686d068db4fd7c868935e58c20d53", "lon": -77.05686066666667, "fusion_lat": 0.0, "rental_uris": {"android": "https://dc.lft.to/lastmile_qr_scan", "ios": "https://dc.lft.to/lastmile_qr_scan"}, "type": "electric_scooter"}, {"is_reserved": 0, "is_disabled": 0, "fusion_lon": 0.0, "lat": 38.892211333333336, "name": "1d654895f05eaa6eb10486f3a4251065", "bike_id": "1d654895f05eaa6eb10486f3a4251065", "lon": -77.04640183333333, "fusion_lat": 0.0, "rental_uris": {"android": "https://dc.lft.to/lastmile_qr_scan", "ios": "https://dc.lft.to/lastmile_qr_scan"}, "type": "electric_scooter"}, {"is_reserved": 0, "is_disabled": 0, "fusion_lon": 0.0, "lat": 38.89332183333333, "name": "7a37b85395d35c183731dde93801169e", "bike_id": "7a37b85395d35c183731dde93801169e", "lon": -76.93929, "fusion_lat": 0.0, "rental_uris": {"android": "https://dc.lft.to/lastmile_qr_scan", "ios": "https://dc.lft.to/lastmile_qr_scan"}, "type": "electric_scooter"}, {"is_reserved": 0, "is_disabled": 0, "fusion_lon": 0.0, "lat": 38.916178333333335, "name": "1a6052f8ce20d9492de167b48067e230", "bike_id": "1a6052f8ce20d9492de167b48067e230", "lon": -77.03648816666667, "fusion_lat": 0.0, "rental_uris": {"android": "https://dc.lft.to/lastmile_qr_scan", "ios": "https://dc.lft.to/lastmile_qr_scan"}, "type": "electric_scooter"}, {"is_reserved": 0, "is_disabled": 0, "fusion_lon": 0.0, "lat": 38.921569833333336, "name": "c747889826dcacb13f0606a3fd6df991", "bike_id": "c747889826dcacb13f0606a3fd6df991", "lon": -77.03326166666666, "fusion_lat": 0.0, "rental_uris": {"android": "https://dc.lft.to/lastmile_qr_scan", "ios": "https://dc.lft.to/lastmile_qr_scan"}, "type": "electric_scooter"}, {"is_reserved": 0, "is_disabled": 0, "fusion_lon": 0.0, "lat": 38.9198285, "name": "ea9cbe693a81816756b9d18641720d2b", "bike_id": "ea9cbe693a81816756b9d18641720d2b", "lon": -77.03265283333333, "fusion_lat": 0.0, "rental_uris": {"android": "https://dc.lft.to/lastmile_qr_scan", "ios": "https://dc.lft.to/lastmile_qr_scan"}, "type": "electric_scooter"}, {"is_reserved": 0, "is_disabled": 0, "fusion_lon": 0.0, "lat": 38.886222, "name": "630b4468d46880bdbb8ecefbb3061ba7", "bike_id": "630b4468d46880bdbb8ecefbb3061ba7", "lon": -77.03174266666667, "fusion_lat": 0.0, "rental_uris": {"android": "https://dc.lft.to/lastmile_qr_scan", "ios": "https://dc.lft.to/lastmile_qr_scan"}, "type": "electric_scooter"}, {"is_reserved": 0, "is_disabled": 0, "fusion_lon": 0.0, "lat": 38.952315666666664, "name": "810e035318a24cabdf7258311d394e80", "bike_id": "810e035318a24cabdf7258311d394e80", "lon": -76.97947833333333, "fusion_lat": 0.0, "rental_uris": {"android": "https://dc.lft.to/lastmile_qr_scan", "ios": "https://dc.lft.to/lastmile_qr_scan"}, "type": "electric_bike"}, {"is_reserved": 0, "is_disabled": 0, "fusion_lon": 0.0, "lat": 38.94485383333333, "name": "9c8236e224793eca91151e05da88ace1", "bike_id": "9c8236e224793eca91151e05da88ace1", "lon": -77.063998, "fusion_lat": 0.0, "rental_uris": {"android": "https://dc.lft.to/lastmile_qr_scan", "ios": "https://dc.lft.to/lastmile_qr_scan"}, "type": "electric_scooter"}, {"is_reserved": 0, "is_disabled": 0, "fusion_lon": 0.0, "lat": 38.923343333333335, "name": "7d2465e52566fe8b3e46f8f5711df2b6", "bike_id": "7d2465e52566fe8b3e46f8f5711df2b6", "lon": -77.05680466666666, "fusion_lat": 0.0, "rental_uris": {"android": "https://dc.lft.to/lastmile_qr_scan", "ios": "https://dc.lft.to/lastmile_qr_scan"}, "type": "electric_scooter"}, {"is_reserved": 0, "is_disabled": 0, "fusion_lon": 0.0, "lat": 38.85242983333333, "name": "f3e0e0ebe301134525909ef9465bd5a4", "bike_id": "f3e0e0ebe301134525909ef9465bd5a4", "lon": -77.11432, "fusion_lat": 0.0, "rental_uris": {"android": "https://dc.lft.to/lastmile_qr_scan", "ios": "https://dc.lft.to/lastmile_qr_scan"}, "type": "electric_bike"}, {"is_reserved": 0, "is_disabled": 0, "fusion_lon": 0.0, "lat": 38.906026, "name": "0fabb006300106d23315333e827934ed", "bike_id": "0fabb006300106d23315333e827934ed", "lon": -77.04182166666666, "fusion_lat": 0.0, "rental_uris": {"android": "https://dc.lft.to/lastmile_qr_scan", "ios": "https://dc.lft.to/lastmile_qr_scan"}, "type": "electric_scooter"}, {"is_reserved": 0, "is_disabled": 0, "fusion_lon": 0.0, "lat": 38.8972875, "name": "01a09813c2d27d845f6926111a6b8dfd", "bike_id": "01a09813c2d27d845f6926111a6b8dfd", "lon": -77.05526233333333, "fusion_lat": 0.0, "rental_uris": {"android": "https://dc.lft.to/lastmile_qr_scan", "ios": "https://dc.lft.to/lastmile_qr_scan"}, "type": "electric_scooter"}, {"is_reserved": 0, "is_disabled": 0, "fusion_lon": 0.0, "lat": 38.93106266666667, "name": "bc666bab509f982aad9f7eeee6eaac4b", "bike_id": "bc666bab509f982aad9f7eeee6eaac4b", "lon": -77.03147133333333, "fusion_lat": 0.0, "rental_uris": {"android": "https://dc.lft.to/lastmile_qr_scan", "ios": "https://dc.lft.to/lastmile_qr_scan"}, "type": "electric_scooter"}, {"is_reserved": 0, "is_disabled": 0, "fusion_lon": 0.0, "lat": 38.92241633333333, "name": "8203aeffa2726a503a4d9ffd7a827177", "bike_id": "8203aeffa2726a503a4d9ffd7a827177", "lon": -77.02120566666666, "fusion_lat": 0.0, "rental_uris": {"android": "https://dc.lft.to/lastmile_qr_scan", "ios": "https://dc.lft.to/lastmile_qr_scan"}, "type": "electric_scooter"}, {"is_reserved": 0, "is_disabled": 0, "fusion_lon": 0.0, "lat": 38.854439, "name": "0794d3e9bd306c3f255e01cfab78c05c", "bike_id": "0794d3e9bd306c3f255e01cfab78c05c", "lon": -77.08323283333333, "fusion_lat": 0.0, "rental_uris": {"android": "https://dc.lft.to/lastmile_qr_scan", "ios": "https://dc.lft.to/lastmile_qr_scan"}, "type": "electric_bike"}, {"is_reserved": 0, "is_disabled": 0, "fusion_lon": 0.0, "lat": 38.915491833333334, "name": "d6a29f37c4f5aa098224985333392539", "bike_id": "d6a29f37c4f5aa098224985333392539", "lon": -77.02448066666666, "fusion_lat": 0.0, "rental_uris": {"android": "https://dc.lft.to/lastmile_qr_scan", "ios": "https://dc.lft.to/lastmile_qr_scan"}, "type": "electric_scooter"}, {"is_reserved": 0, "is_disabled": 0, "fusion_lon": 0.0, "lat": 38.89552333333334, "name": "7c5230105b962e3c29ffebc6daed13f9", "bike_id": "7c5230105b962e3c29ffebc6daed13f9", "lon": -77.009213, "fusion_lat": 0.0, "rental_uris": {"android": "https://dc.lft.to/lastmile_qr_scan", "ios": "https://dc.lft.to/lastmile_qr_scan"}, "type": "electric_scooter"}, {"is_reserved": 0, "is_disabled": 0, "fusion_lon": 0.0, "lat": 38.91914333333333, "name": "030c109f1bf1dcb14eb22f81cb206428", "bike_id": "030c109f1bf1dcb14eb22f81cb206428", "lon": -77.03389566666667, "fusion_lat": 0.0, "rental_uris": {"android": "https://dc.lft.to/lastmile_qr_scan", "ios": "https://dc.lft.to/lastmile_qr_scan"}, "type": "electric_scooter"}, {"is_reserved": 0, "is_disabled": 0, "fusion_lon": 0.0, "lat": 38.91347433333333, "name": "1e487456b7440ead7d525d51ccbd0e42", "bike_id": "1e487456b7440ead7d525d51ccbd0e42", "lon": -77.03184066666667, "fusion_lat": 0.0, "rental_uris": {"android": "https://dc.lft.to/lastmile_qr_scan", "ios": "https://dc.lft.to/lastmile_qr_scan"}, "type": "electric_scooter"}, {"is_reserved": 0, "is_disabled": 0, "fusion_lon": 0.0, "lat": 38.923306333333336, "name": "6fdbc0d15c5a8c44f0a18c6caf29172f", "bike_id": "6fdbc0d15c5a8c44f0a18c6caf29172f", "lon": -77.05679766666667, "fusion_lat": 0.0, "rental_uris": {"android": "https://dc.lft.to/lastmile_qr_scan", "ios": "https://dc.lft.to/lastmile_qr_scan"}, "type": "electric_scooter"}, {"is_reserved": 0, "is_disabled": 0, "fusion_lon": 0.0, "lat": 38.8686895, "name": "a01c77555681b3e1a06f0c1b23a77acc", "bike_id": "a01c77555681b3e1a06f0c1b23a77acc", "lon": -76.98666883333334, "fusion_lat": 0.0, "rental_uris": {"android": "https://dc.lft.to/lastmile_qr_scan", "ios": "https://dc.lft.to/lastmile_qr_scan"}, "type": "electric_scooter"}, {"is_reserved": 0, "is_disabled": 0, "fusion_lon": 0.0, "lat": 38.9148985, "name": "5051d1fb0534ee2f1b499ab9a502a934", "bike_id": "5051d1fb0534ee2f1b499ab9a502a934", "lon": -77.00222, "fusion_lat": 0.0, "rental_uris": {"android": "https://dc.lft.to/lastmile_qr_scan", "ios": "https://dc.lft.to/lastmile_qr_scan"}, "type": "electric_scooter"}, {"is_reserved": 0, "is_disabled": 0, "fusion_lon": 0.0, "lat": 38.92468383333333, "name": "3b36573ab16baada1c2a48e56b02fabc", "bike_id": "3b36573ab16baada1c2a48e56b02fabc", "lon": -77.02218166666667, "fusion_lat": 0.0, "rental_uris": {"android": "https://dc.lft.to/lastmile_qr_scan", "ios": "https://dc.lft.to/lastmile_qr_scan"}, "type": "electric_scooter"}, {"is_reserved": 0, "is_disabled": 0, "fusion_lon": 0.0, "lat": 38.8901465, "name": "abfac88c011147f1b76e1be161e061db", "bike_id": "abfac88c011147f1b76e1be161e061db", "lon": -76.937396, "fusion_lat": 0.0, "rental_uris": {"android": "https://dc.lft.to/lastmile_qr_scan", "ios": "https://dc.lft.to/lastmile_qr_scan"}, "type": "electric_scooter"},