{"data": {"bikes": [{"is_disabled": 0, "lat": 38.899452, "bike_id": "8da3e43bd0a91ae4390a89d49fe9b5fd", "is_reserved": 0, "rental_uris": {"ios": "https://dc.lft.to/lastmile_qr_scan", "android": "https://dc.lft.to/lastmile_qr_scan"}, "name": "8da3e43bd0a91ae4390a89d49fe9b5fd", "fusion_lon": 0.0, "fusion_lat": 0.0, "lon": -77.03231966666667, "type": "electric_scooter"}, {"is_disabled": 0, "lat": 38.8961445, "bike_id": "678315f662b98b7f0bf7ceb72c0934ab", "is_reserved": 0, "rental_uris": {"ios": "https://dc.lft.to/lastmile_qr_scan", "android": "https://dc.lft.to/lastmile_qr_scan"}, "name": "678315f662b98b7f0bf7ceb72c0934ab", "fusion_lon": 0.0, "fusion_lat": 0.0, "lon": -77.043739, "type": "electric_scooter"}, {"is_disabled": 0, "lat": 38.90573666666667, "bike_id": "8898a1232727d9cf63eb0ca380319578", "is_reserved": 0, "rental_uris": {"ios": "https://dc.lft.to/lastmile_qr_scan", "android": "https://dc.lft.to/lastmile_qr_scan"}, "name": "8898a1232727d9cf63eb0ca380319578", "fusion_lon": 0.0, "fusion_lat": 0.0, "lon": -77.003922, "type": "electric_scooter"}, {"is_disabled": 0, "lat": 38.923526833333334, "bike_id": "021af697aa1ef76a9f71eb069060f2a6", "is_reserved": 0, "rental_uris": {"ios": "https://dc.lft.to/lastmile_qr_scan", "android": "https://dc.lft.to/lastmile_qr_scan"}, "name": "021af697aa1ef76a9f71eb069060f2a6", "fusion_lon": 0.0, "fusion_lat": 0.0, "lon": -77.033685, "type": "electric_scooter"}, {"is_disabled": 0, "lat": 38.88442233333333, "bike_id": "91e7902bc315c4722c41cc295e222255", "is_reserved": 0, "rental_uris": {"ios": "https://dc.lft.to/lastmile_qr_scan", "android": "https://dc.lft.to/lastmile_qr_scan"}, "name": "91e7902bc315c4722c41cc295e222255", "fusion_lon": 0.0, "fusion_lat": 0.0, "lon": -77.02926233333334, "type": "electric_scooter"}, {"is_disabled": 0, "lat": 38.871597333333334, "bike_id": "62e966c63139bec1128717c8f3d0e375", "is_reserved": 0, "rental_uris": {"ios": "https://dc.lft.to/lastmile_qr_scan", "android": "https://dc.lft.to/lastmile_qr_scan"}, "name": "62e966c63139bec1128717c8f3d0e375", "fusion_lon": 0.0, "fusion_lat": 0.0, "lon": -77.01356683333333, "type": "electric_scooter"}, {"is_disabled": 0, "lat": 38.93446616666667, "bike_id": "d118273e6768eddcc108ad9bc02dd2c0", "is_reserved": 0, "rental_uris": {"ios": "https://dc.lft.to/lastmile_qr_scan", "android": "https://dc.lft.to/lastmile_qr_scan"}, "name": "d118273e6768eddcc108ad9bc02dd2c0", "fusion_lon": 0.0, "fusion_lat": 0.0, "lon": -77.0297845, "type": "electric_scooter"}, {"is_disabled": 0, "lat": 38.89218266666666, "bike_id": "b476e56d305ba1c8aa67f3f97cc49db7", "is_reserved": 0, "rental_uris": {"ios": "https://dc.lft.to/lastmile_qr_scan", "android": "https://dc.lft.to/lastmile_qr_scan"}, "name": "b476e56d305ba1c8aa67f3f97cc49db7", "fusion_lon": 0.0, "fusion_lat": 0.0, "lon": -77.02417633333333, "type": "electric_scooter"}, {"is_disabled": 0, "lat": 38.90607383333333, "bike_id": "fa0ff0f4aadcb8525b78d4b059463d5b", "is_reserved": 0, "rental_uris": {"ios": "https://dc.lft.to/lastmile_qr_scan", "android": "https://dc.lft.to/lastmile_qr_scan"}, "name": "fa0ff0f4aadcb8525b78d4b059463d5b", "fusion_lon": 0.0, "fusion_lat": 0.0, "lon": -76.9841885, "type": "electric_scooter"}, {"is_disabled": 0, "lat": 38.94927466666667, "bike_id": "50965f9cfe2b1e7558b118da0cecd6ea", "is_reserved": 0, "rental_uris": {"ios": "https://dc.lft.to/lastmile_qr_scan", "android": "https://dc.lft.to/lastmile_qr_scan"}, "name": "50965f9cfe2b1e7558b118da0cecd6ea", "fusion_lon": 0.0, "fusion_lat": 0.0, "lon": -77.01936383333333, "type": "electric_scooter"}, {"is_disabled": 0, "lat": 38.89522266666667, "bike_id": "c74a0f9caf4065a273d87bbe87b54ab3", "is_reserved": 0, "rental_uris": {"ios": "https://dc.lft.to/lastmile_qr_scan", "android": "https://dc.lft.to/lastmile_qr_scan"}, "name": "c74a0f9caf4065a273d87bbe87b54ab3", "fusion_lon": 0.0, "fusion_lat": 0.0, "lon": -77.0197345, "type": "electric_scooter"}, {"is_disabled": 0, "lat": 38.906076166666665, "bike_id": "f1ac65dc34cebc2766d54fe5317a8512", "is_reserved": 0, "rental_uris": {"ios": "https://dc.lft.to/lastmile_qr_scan", "android": "https://dc.lft.to/lastmile_qr_scan"}, "name": "f1ac65dc34cebc2766d54fe5317a8512", "fusion_lon": 0.0, "fusion_lat": 0.0, "lon": -77.12903216666666, "type": "electric_bike"}, {"is_disabled": 0, "lat": 38.9036645, "bike_id": "817e84acca956cf7c017d04cd4f76d0c", "is_reserved": 0, "rental_uris": {"ios": "https://dc.lft.to/lastmile_qr_scan", "android": "https://dc.lft.to/lastmile_qr_scan"}, "name": "817e84acca956cf7c017d04cd4f76d0c", "fusion_lon": 0.0, "fusion_lat": 0.0, "lon": -77.04199383333334, "type": "electric_scooter"}, {"is_disabled": 0, "lat": 38.923638833333335, "bike_id": "654fca62957c20593fabdf1189c8397d", "is_reserved": 0, "rental_uris": {"ios": "https://dc.lft.to/lastmile_qr_scan", "android": "https://dc.lft.to/lastmile_qr_scan"}, "name": "654fca62957c20593fabdf1189c8397d", "fusion_lon": 0.0, "fusion_lat": 0.0, "lon": -77.05030483333333, "type": "electric_scooter"}, {"is_disabled": 0, "lat": 38.905692, "bike_id": "e211286d8dd448bf63eb04e72b570eb8", "is_reserved": 0, "rental_uris": {"ios": "https://dc.lft.to/lastmile_qr_scan", "android": "https://dc.lft.to/lastmile_qr_scan"}, "name": "e211286d8dd448bf63eb04e72b570eb8", "fusion_lon": 0.0, "fusion_lat": 0.0, "lon": -77.04170916666666, "type": "electric_scooter"}, {"is_disabled": 0, "lat": 38.88503683333333, "bike_id": "084e153e2e5b9ae3a3f7c485a898d10c", "is_reserved": 0, "rental_uris": {"ios": "https://dc.lft.to/lastmile_qr_scan", "android": "https://dc.lft.to/lastmile_qr_scan"}, "name": "084e153e2e5b9ae3a3f7c485a898d10c", "fusion_lon": 0.0, "fusion_lat": 0.0, "lon": -77.0056545, "type": "electric_scooter"}, {"is_disabled": 0, "lat": 38.909002, "bike_id": "5f09a3b55025760ab1641551b740295c", "is_reserved": 0, "rental_uris": {"ios": "https://dc.lft.to/lastmile_qr_scan", "android": "https://dc.lft.to/lastmile_qr_scan"}, "name": "5f09a3b55025760ab1641551b740295c", "fusion_lon": 0.0, "fusion_lat": 0.0, "lon": -77.0338465, "type": "electric_scooter"}, {"is_disabled": 0, "lat": 38.90964316666667, "bike_id": "d4215881f205b8fe2c504d01fccdf6a9", "is_reserved": 0, "rental_uris": {"ios": "https://dc.lft.to/lastmile_qr_scan", "android": "https://dc.lft.to/lastmile_qr_scan"}, "name": "d4215881f205b8fe2c504d01fccdf6a9", "fusion_lon": 0.0, "fusion_lat": 0.0, "lon": -77.011304, "type": "electric_scooter"}, {"is_disabled": 0, "lat": 38.921326, "bike_id": "3c4d3a4caadeccbffb6b61bb1b6a4b84", "is_reserved": 0, "rental_uris": {"ios": "https://dc.lft.to/lastmile_qr_scan", "android": "https://dc.lft.to/lastmile_qr_scan"}, "name": "3c4d3a4caadeccbffb6b61bb1b6a4b84", "fusion_lon": 0.0, "fusion_lat": 0.0, "lon": -77.0180345, "type": "electric_scooter"}, {"is_disabled": 0, "lat": 38.91267916666666, "bike_id": "b206361a1a038bf54e30c7b39efb5ae5", "is_reserved": 0, "rental_uris": {"ios": "https://dc.lft.to/lastmile_qr_scan", "android": "https://dc.lft.to/lastmile_qr_scan"}, "name": "b206361a1a038bf54e30c7b39efb5ae5", "fusion_lon": 0.0, "fusion_lat": 0.0, "lon": -77.02224216666667, "type": "electric_scooter"}, {"is_disabled": 0, "lat": 38.923315, "bike_id": "876c4a5f205dafa9c3c118e1bf29cafb", "is_reserved": 0, "rental_uris": {"ios": "https://dc.lft.to/lastmile_qr_scan", "android": "https://dc.lft.to/lastmile_qr_scan"}, "name": "876c4a5f205dafa9c3c118e1bf29cafb", "fusion_lon": 0.0, "fusion_lat": 0.0, "lon": -77.01951533333333, "type": "electric_scooter"}, {"is_disabled": 0, "lat": 38.89223233333333, "bike_id": "f9a194357c9792c92f50d36fda3387fd", "is_reserved": 0, "rental_uris": {"ios": "https://dc.lft.to/lastmile_qr_scan", "android": "https://dc.lft.to/lastmile_qr_scan"}, "name": "f9a194357c9792c92f50d36fda3387fd", "fusion_lon": 0.0, "fusion_lat": 0.0, "lon": -77.02351933333334, "type": "electric_scooter"}, {"is_disabled": 0, "lat": 38.83044366666667, "bike_id": "b19c171cef2b1d3644093b4050c46028", "is_reserved": 0, "rental_uris": {"ios": "https://dc.lft.to/lastmile_qr_scan", "android": "https://dc.lft.to/lastmile_qr_scan"}, "name": "b19c171cef2b1d3644093b4050c46028", "fusion_lon": 0.0, "fusion_lat": 0.0, "lon": -77.00821516666667, "type": "electric_bike"}, {"is_disabled": 0, "lat": 38.9178305, "bike_id": "48bf1064236c5460f6b40331235882a8", "is_reserved": 0, "rental_uris": {"ios": "https://dc.lft.to/lastmile_qr_scan", "android": "https://dc.lft.to/lastmile_qr_scan"}, "name": "48bf1064236c5460f6b40331235882a8", "fusion_lon": 0.0, "fusion_lat": 0.0, "lon": -77.046653, "type": "electric_scooter"}, {"is_disabled": 0, "lat": 38.886785333333336, "bike_id": "331dbd7495cb187cb23d7c341133f290", "is_reserved": 0, "rental_uris": {"ios": "https://dc.lft.to/lastmile_qr_scan", "android": "https://dc.lft.to/lastmile_qr_scan"}, "name": "331dbd7495cb187cb23d7c341133f290", "fusion_lon": 0.0, "fusion_lat": 0.0, "lon": -77.047944, "type": "electric_scooter"}, {"is_disabled": 0, "lat": 38.926585833333334, "bike_id": "95a5fdc01de6bb950712838a01c99d36", "is_reserved": 0, "rental_uris": {"ios": "https://dc.lft.to/lastmile_qr_scan", "android": "https://dc.lft.to/lastmile_qr_scan"}, "name": "95a5fdc01de6bb950712838a01c99d36", "fusion_lon": 0.0, "fusion_lat": 0.0, "lon": -77.0150965, "type": "electric_scooter"}, {"is_disabled": 0, "lat": 38.91636, "bike_id": "27f884d0ea4c54202b67897ccd54febd", "is_reserved": 0, "rental_uris": {"ios": "https://dc.lft.to/lastmile_qr_scan", "android": "https://dc.lft.to/lastmile_qr_scan"}, "name": "27f884d0ea4c54202b67897ccd54febd", "fusion_lon": 0.0, "fusion_lat": 0.0, "lon": -76.98285183333333, "type": "electric_bike"}, {"is_disabled": 0, "lat": 38.90044116666667, "bike_id": "a6c86f58ffd551103ac15d3834b9c85b", "is_reserved": 0, "rental_uris": {"ios": "https://dc.lft.to/lastmile_qr_scan", "android": "https://dc.lft.to/lastmile_qr_scan"}, "name": "a6c86f58ffd551103ac15d3834b9c85b", "fusion_lon": 0.0, "fusion_lat": 0.0, "lon": -77.040073, "type": "electric_scooter"}, {"is_disabled": 0, "lat": 38.92748366666667, "bike_id": "22fddf53d0aff8aa16894f949b5c008e", "is_reserved": 0, "rental_uris": {"ios": "https://dc.lft.to/lastmile_qr_scan", "android": "https://dc.lft.to/lastmile_qr_scan"}, "name": "22fddf53d0aff8aa16894f949b5c008e", "fusion_lon": 0.0, "fusion_lat": 0.0, "lon": -77.06460816666667, "type": "electric_scooter"}, {"is_disabled": 0, "lat": 38.93024716666667, "bike_id": "2e262d4b0c3bb352e7e8b937aa67aa43", "is_reserved": 0, "rental_uris": {"ios": "https://dc.lft.to/lastmile_qr_scan", "android": "https://dc.lft.to/lastmile_qr_scan"}, "name": "2e262d4b0c3bb352e7e8b937aa67aa43", "fusion_lon": 0.0, "fusion_lat": 0.0, "lon": -77.0231985, "type": "electric_scooter"}, {"is_disabled": 0, "lat": 38.88745216666667, "bike_id": "39d8fc2d6d8d68d3438a56423f8428c2", "is_reserved": 0, "rental_uris": {"ios": "https://dc.lft.to/lastmile_qr_scan", "android": "https://dc.lft.to/lastmile_qr_scan"}, "name": "39d8fc2d6d8d68d3438a56423f8428c2", "fusion_lon": 0.0, "fusion_lat": 0.0, "lon": -77.02223333333333, "type": "electric_scooter"}, {"is_disabled": 0, "lat": 38.846877, "bike_id": "d88d7d9fdb7649bb1ba3b1a7f7fa95f0", "is_reserved": 0, "rental_uris": {"ios": "https://dc.lft.to/lastmile_qr_scan", "android": "https://dc.lft.to/lastmile_qr_scan"}, "name": "d88d7d9fdb7649bb1ba3b1a7f7fa95f0", "fusion_lon": 0.0, "fusion_lat": 0.0, "lon": -76.96852633333333, "type": "electric_scooter"}, {"is_disabled": 0, "lat": 38.9048505, "bike_id": "1c5282eb8eefffa56ba5f053aebd1a49", "is_reserved": 0, "rental_uris": {"ios": "https://dc.lft.to/lastmile_qr_scan", "android": "https://dc.lft.to/lastmile_qr_scan"}, "name": "1c5282eb8eefffa56ba5f053aebd1a49", "fusion_lon": 0.0, "fusion_lat": 0.0, "lon": -77.00907033333333, "type": "electric_scooter"}, {"is_disabled": 0, "lat": 38.8928, "bike_id": "00f89f4383b97f2f6421cc8a82543bb4", "is_reserved": 0, "rental_uris": {"ios": "https://dc.lft.to/lastmile_qr_scan", "android": "https://dc.lft.to/lastmile_qr_scan"}, "name": "00f89f4383b97f2f6421cc8a82543bb4", "fusion_lon": 0.0, "fusion_lat": 0.0, "lon": -77.05044433333333, "type": "electric_scooter"}, {"is_disabled": 0, "lat": 38.916349333333336, "bike_id": "7cca0671ffab4827f002cc81d28a98f4", "is_reserved": 0, "rental_uris": {"ios": "https://dc.lft.to/lastmile_qr_scan", "android": "https://dc.lft.to/lastmile_qr_scan"}, "name": "7cca0671ffab4827f002cc81d28a98f4", "fusion_lon": 0.0, "fusion_lat": 0.0, "lon": -77.04167216666667, "type": "electric_bike"}, {"is_disabled": 0, "lat": 38.91274716666667, "bike_id": "27e47d3e86c9cc0dc81665d0342bdf05", "is_reserved": 0, "rental_uris": {"ios": "https://dc.lft.to/lastmile_qr_scan", "android": "https://dc.lft.to/lastmile_qr_scan"}, "name": "27e47d3e86c9cc0dc81665d0342bdf05", "fusion_lon": 0.0, "fusion_lat": 0.0, "lon": -77.0229795, "type": "electric_scooter"}, {"is_disabled": 0, "lat": 38.89172816666667, "bike_id": "ce335af45343926d682628a7d2549459", "is_reserved": 0, "rental_uris": {"ios": "https://dc.lft.to/lastmile_qr_scan", "android": "https://dc.lft.to/lastmile_qr_scan"}, "name": "ce335af45343926d682628a7d2549459", "fusion_lon": 0.0, "fusion_lat": 0.0, "lon": -77.01560633333334, "type": "electric_scooter"}, {"is_disabled": 0, "lat": 38.9046545, "bike_id": "038ff6e6dfd191e989958016f88fb5f9", "is_reserved": 0, "rental_uris": {"ios": "https://dc.lft.to/lastmile_qr_scan", "android": "https://dc.lft.to/lastmile_qr_scan"}, "name": "038ff6e6dfd191e989958016f88fb5f9", "fusion_lon": 0.0, "fusion_lat": 0.0, "lon": -77.03482816666667, "type": "electric_scooter"}, {"is_disabled": 0, "lat": 38.92051766666667, "bike_id": "ed6b4cb57ea52dfdfc8ea6c865cd610f", "is_reserved": 0, "rental_uris": {"ios": "https://dc.lft.to/lastmile_qr_scan", "android": "https://dc.lft.to/lastmile_qr_scan"}, "name": "ed6b4cb57ea52dfdfc8ea6c865cd610f", "fusion_lon": 0.0, "fusion_lat": 0.0, "lon": -77.0332755, "type": "electric_scooter"}, {"is_disabled": 0, "lat": 38.925103666666665, "bike_id": "8968ef9c87071348c2e94f8a513dbd0e", "is_reserved": 0, "rental_uris": {"ios": "https://dc.lft.to/lastmile_qr_scan", "android": "https://dc.lft.to/lastmile_qr_scan"}, "name": "8968ef9c87071348c2e94f8a513dbd0e", "fusion_lon": 0.0, "fusion_lat": 0.0, "lon": -77.00221633333334, "type": "electric_scooter"}, {"is_disabled": 0, "lat": 38.91111, "bike_id": "aaf819a9a5eea817686a8799c7d5844b", "is_reserved": 0, "rental_uris": {"ios": "https://dc.lft.to/lastmile_qr_scan", "android": "https://dc.lft.to/lastmile_qr_scan"}, "name": "aaf819a9a5eea817686a8799c7d5844b", "fusion_lon": 0.0, "fusion_lat": 0.0, "lon": -77.03832533333333, "type": "electric_scooter"}, {"is_disabled": 0, "lat": 38.8974345, "bike_id": "524a859b918b1221c87a3f40e5bf7799", "is_reserved": 0, "rental_uris": {"ios": "https://dc.lft.to/lastmile_qr_scan", "android": "https://dc.lft.to/lastmile_qr_scan"}, "name": "524a859b918b1221c87a3f40e5bf7799", "fusion_lon": 0.0, "fusion_lat": 0.0, "lon": -76.9904155, "type": "electric_scooter"}, {"is_disabled": 0, "lat": 38.910028833333335, "bike_id": "d9bca78a248faca0572e6241c98d1369", "is_reserved": 0, "rental_uris": {"ios": "https://dc.lft.to/lastmile_qr_scan", "android": "https://dc.lft.to/lastmile_qr_scan"}, "name": "d9bca78a248faca0572e6241c98d1369", "fusion_lon": 0.0, "fusion_lat": 0.0, "lon": -77.04170116666667, "type": "electric_scooter"}, {"is_disabled": 0, "lat": 38.9082715, "bike_id": "50f3f12c9b6f5b704d77e724eeb2c585", "is_reserved": 0, "rental_uris": {"ios": "https://dc.lft.to/lastmile_qr_scan", "android": "https://dc.lft.to/lastmile_qr_scan"}, "name": "50f3f12c9b6f5b704d77e724eeb2c585", "fusion_lon": 0.0, "fusion_lat": 0.0, "lon": -77.0396325, "type": "electric_scooter"}, {"is_disabled": 0, "lat": 38.90880766666667, "bike_id": "6e9acdbd4fef00af26e6a6555b28a19d", "is_reserved": 0, "rental_uris": {"ios": "https://dc.lft.to/lastmile_qr_scan", "android": "https://dc.lft.to/lastmile_qr_scan"}, "name": "6e9acdbd4fef00af26e6a6555b28a19d", "fusion_lon": 0.0, "fusion_lat": 0.0, "lon": -77.04344916666666, "type": "electric_scooter"}, {"is_disabled": 0, "lat": 38.909154, "bike_id": "5e1dd0a74ae130a1de0373f6964d308f", "is_reserved": 0, "rental_uris": {"ios": "https://dc.lft.to/lastmile_qr_scan", "android": "https://dc.lft.to/lastmile_qr_scan"}, "name": "5e1dd0a74ae130a1de0373f6964d308f", "fusion_lon": 0.0, "fusion_lat": 0.0, "lon": -76.99904866666667, "type": "electric_scooter"}, {"is_disabled": 0, "lat": 38.918825166666664, "bike_id": "dcdc32cae49ca3d88deb5dab89b2b841", "is_reserved": 0, "rental_uris": {"ios": "https://dc.lft.to/lastmile_qr_scan", "android": "https://dc.lft.to/lastmile_qr_scan"}, "name": "dcdc32cae49ca3d88deb5dab89b2b841", "fusion_lon": 0.0, "fusion_lat": 0.0, "lon": -77.0246, "type": "electric_scooter"}, {"is_disabled": 0, "lat": 38.8917155, "bike_id": "e4ece506614f61aafa2eda20432f9ac4", "is_reserved": 0, "rental_uris": {"ios": "https://dc.lft.to/lastmile_qr_scan", "android": "https://dc.lft.to/lastmile_qr_scan"}, "name": "e4ece506614f61aafa2eda20432f9ac4", "fusion_lon": 0.0, "fusion_lat": 0.0, "lon": -77.0155155, "type": "electric_scooter"}, {"is_disabled": 0, "lat": 38.91358183333333, "bike_id": "2442b4a2bd461908c933496e4cc2158e", "is_reserved": 0, "rental_uris": {"ios": "https://dc.lft.to/lastmile_qr_scan", "android": "https://dc.lft.to/lastmile_qr_scan"}, "name": "2442b4a2bd461908c933496e4cc2158e", "fusion_lon": 0.0, "fusion_lat": 0.0, "lon": -77.02046633333333, "type": "electric_scooter"}, {"is_disabled": 0, "lat": 38.880252, "bike_id": "33f75470fd33615434def60b62650c03", "is_reserved": 0, "rental_uris": {"ios": "https://dc.lft.to/lastmile_qr_scan", "android": "https://dc.lft.to/lastmile_qr_scan"}, "name": "33f75470fd33615434def60b62650c03", "fusion_lon": 0.0, "fusion_lat": 0.0, "lon": -76.943255, "type": "electric_scooter"}, {"is_disabled": 0, "lat": 38.901116, "bike_id": "7e745228e55175b7070560586cf01af0", "is_reserved": 0, "rental_uris": {"ios": "https://dc.lft.to/lastmile_qr_scan", "android": "https://dc.lft.to/lastmile_qr_scan"}, "name": "7e745228e55175b7070560586cf01af0", "fusion_lon": 0.0, "fusion_lat": 0.0, "lon": -77.04990983333333, "type": "electric_scooter"}, {"is_disabled": 0, "lat": 38.9226135, "bike_id": "219361bbe375c2121b923971ce6b1f2e", "is_reserved": 0, "rental_uris": {"ios": "https://dc.lft.to/lastmile_qr_scan", "android": "https://dc.lft.to/lastmile_qr_scan"}, "name": "219361bbe375c2121b923971ce6b1f2e", "fusion_lon": 0.0, "fusion_lat": 0.0, "lon": -77.019533, "type": "electric_scooter"}, {"is_disabled": 0, "lat": 38.902572166666666, "bike_id": "7186645627a7aed9fd131d839e5dac13", "is_reserved": 0, "rental_uris": {"ios": "https://dc.lft.to/lastmile_qr_scan", "android": "https://dc.lft.to/lastmile_qr_scan"}, "name": "7186645627a7aed9fd131d839e5dac13", "fusion_lon": 0.0, "fusion_lat": 0.0, "lon": -77.03798666666667, "type": "electric_scooter"}, {"is_disabled": 0, "lat": 38.887083, "bike_id": "f5701392fd2fcc568e4d72833b8386bb", "is_reserved": 0, "rental_uris": {"ios": "https://dc.lft.to/lastmile_qr_scan", "android": "https://dc.lft.to/lastmile_qr_scan"}, "name": "f5701392fd2fcc568e4d72833b8386bb", "fusion_lon": 0.0, "fusion_lat": 0.0, "lon": -76.9834005, "type": "electric_scooter"}, {"is_disabled": 0, "lat": 38.8708375, "bike_id": "f06454e37b10b448de4ff8cf7e10dd17", "is_reserved": 0, "rental_uris": {"ios": "https://dc.lft.to/lastmile_qr_scan", "android": "https://dc.lft.to/lastmile_qr_scan"}, "name": "f06454e37b10b448de4ff8cf7e10dd17", "fusion_lon": 0.0, "fusion_lat": 0.0, "lon": -77.13331266666667, "type": "electric_bike"}, {"is_disabled": 0, "lat": 38.913160166666664, "bike_id": "6c139ce50c6bc4381065cc15e16dcc08", "is_reserved": 0, "rental_uris": {"ios": "https://dc.lft.to/lastmile_qr_scan", "android": "https://dc.lft.to/lastmile_qr_scan"}, "name": "6c139ce50c6bc4381065cc15e16dcc08", "fusion_lon": 0.0, "fusion_lat": 0.0, "lon": -77.03195766666667, "type": "electric_scooter"}, {"is_disabled": 0, "lat": 38.9252115, "bike_id": "626403d10dec7409b7187b76c8127eb2", "is_reserved": 0, "rental_uris": {"ios": "https://dc.lft.to/lastmile_qr_scan", "android": "https://dc.lft.to/lastmile_qr_scan"}, "name": "626403d10dec7409b7187b76c8127eb2", "fusion_lon": 0.0, "fusion_lat": 0.0, "lon": -77.03846183333333, "type": "electric_scooter"}, {"is_disabled": 0, "lat": 38.900369, "bike_id": "8fc1fdfc2870cafb99ecf0017ecbeef2", "is_reserved": 0, "rental_uris": {"ios": "https://dc.lft.to/lastmile_qr_scan", "android": "https://dc.lft.to/lastmile_qr_scan"}, "name": "8fc1fdfc2870cafb99ecf0017ecbeef2", "fusion_lon": 0.0, "fusion_lat": 0.0, "lon": -77.0178415, "type": "electric_scooter"}, {"is_disabled": 0, "lat": 38.9224825, "bike_id": "b8ad5eeb31332b932ee168322d2e00b8", "is_reserved": 0, "rental_uris": {"ios": "https://dc.lft.to/lastmile_qr_scan", "android": "https://dc.lft.to/lastmile_qr_scan"}, "name": "b8ad5eeb31332b932ee168322d2e00b8", "fusion_lon": 0.0, "fusion_lat": 0.0, "lon": -77.03865733333333, "type": "electric_scooter"}, {"is_disabled": 0, "lat": 38.8316, "bike_id": "d4f198adf3a898901081be4d2a6eaacf", "is_reserved": 0, "rental_uris": {"ios": "https://dc.lft.to/lastmile_qr_scan", "android": "https://dc.lft.to/lastmile_qr_scan"}, "name": "d4f198adf3a898901081be4d2a6eaacf", "fusion_lon": 0.0, "fusion_lat": 0.0, "lon": -76.995731, "type": "electric_bike"}, {"is_disabled": 0, "lat": 38.900713, "bike_id": "9a3b784368d4360f5765b8be0f5c3cf9", "is_reserved": 0, "rental_uris": {"ios": "https://dc.lft.to/lastmile_qr_scan", "android": "https://dc.lft.to/lastmile_qr_scan"}, "name": "9a3b784368d4360f5765b8be0f5c3cf9", "fusion_lon": 0.0, "fusion_lat": 0.0, "lon": -77.00201416666667, "type": "electric_scooter"}, {"is_disabled": 0, "lat": 38.91118266666667, "bike_id": "d245ed3ab9c6944f2c37698de5fa2581", "is_reserved": 0, "rental_uris": {"ios": "https://dc.lft.to/lastmile_qr_scan", "android": "https://dc.lft.to/lastmile_qr_scan"}, "name": "d245ed3ab9c6944f2c37698de5fa2581", "fusion_lon": 0.0, "fusion_lat": 0.0, "lon": -77.00601583333334, "type": "electric_scooter"}, {"is_disabled": 0, "lat": 38.9082735, "bike_id": "4a9c95280550dc61b984ac814d1cf3c8", "is_reserved": 0, "rental_uris": {"ios": "https://dc.lft.to/lastmile_qr_scan", "android": "https://dc.lft.to/lastmile_qr_scan"}, "name": "4a9c95280550dc61b984ac814d1cf3c8", "fusion_lon": 0.0, "fusion_lat": 0.0, "lon": -76.98261316666667, "type": "electric_scooter"}, {"is_disabled": 0, "lat": 38.902016833333334, "bike_id": "1c03936a0e4d294355f9e5488bf1903e", "is_reserved": 0, "rental_uris": {"ios": "https://dc.lft.to/lastmile_qr_scan", "android": "https://dc.lft.to/lastmile_qr_scan"}, "name": "1c03936a0e4d294355f9e5488bf1903e", "fusion_lon": 0.0, "fusion_lat": 0.0, "lon": -77.033911, "type": "electric_scooter"}, {"is_disabled": 0, "lat": 38.846467833333335, "bike_id": "1c6ae923ff712b113c30430168321f5e", "is_reserved": 0, "rental_uris": {"ios": "https://dc.lft.to/lastmile_qr_scan", "android": "https://dc.lft.to/lastmile_qr_scan"}, "name": "1c6ae923ff712b113c30430168321f5e", "fusion_lon": 0.0, "fusion_lat": 0.0, "lon": -77.003696, "type": "electric_scooter"}, {"is_disabled": 0, "lat": 38.9118105, "bike_id": "34ef80e68ec1a9a3665348763cc00d46", "is_reserved": 0, "rental_uris": {"ios": "https://dc.lft.to/lastmile_qr_scan", "android": "https://dc.lft.to/lastmile_qr_scan"}, "name": "34ef80e68ec1a9a3665348763cc00d46", "fusion_lon": 0.0, "fusion_lat": 0.0, "lon": -77.01208733333333, "type": "electric_scooter"}, {"is_disabled": 0, "lat": 38.902627333333335, "bike_id": "c7575ca067f2163feedfe2a00d5e9431", "is_reserved": 0, "rental_uris": {"ios": "https://dc.lft.to/lastmile_qr_scan", "android": "https://dc.lft.to/lastmile_qr_scan"}, "name": "c7575ca067f2163feedfe2a00d5e9431", "fusion_lon": 0.0, "fusion_lat": 0.0, "lon": -77.0373295, "type": "electric_scooter"}, {"is_disabled": 0, "lat": 38.902678333333334, "bike_id": "1b9e902c34ac957d12954c14139820be", "is_reserved": 0, "rental_uris": {"ios": "https://dc.lft.to/lastmile_qr_scan", "android": "https://dc.lft.to/lastmile_qr_scan"}, "name": "1b9e902c34ac957d12954c14139820be", "fusion_lon": 0.0, "fusion_lat": 0.0, "lon": -77.03041883333333, "type": "electric_scooter"}, {"is_disabled": 0, "lat": 38.93454283333333, "bike_id": "891f0150dadfe1c2e1814ddd61e31b69", "is_reserved": 0, "rental_uris": {"ios": "https://dc.lft.to/lastmile_qr_scan", "android": "https://dc.lft.to/lastmile_qr_scan"}, "name": "891f0150dadfe1c2e1814ddd61e31b69", "fusion_lon": 0.0, "fusion_lat": 0.0, "lon": -77.0291535, "type": "electric_scooter"}, {"is_disabled": 0, "lat": 38.88975383333333, "bike_id": "59d7e57598fb0a4c58d2bfa53eff7384", "is_reserved": 0, "rental_uris": {"ios": "https://dc.lft.to/lastmile_qr_scan", "android": "https://dc.lft.to/lastmile_qr_scan"}, "name": "59d7e57598fb0a4c58d2bfa53eff7384", "fusion_lon": 0.0, "fusion_lat": 0.0, "lon": -76.98177533333333, "type": "electric_scooter"}, {"is_disabled": 0, "lat": 38.9165635, "bike_id": "5d36889deb785136f7b8245c3e6ea415", "is_reserved": 0, "rental_uris": {"ios": "https://dc.lft.to/lastmile_qr_scan", "android": "https://dc.lft.to/lastmile_qr_scan"}, "name": "5d36889deb785136f7b8245c3e6ea415", "fusion_lon": 0.0, "fusion_lat": 0.0, "lon": -77.046695, "type": "electric_scooter"}, {"is_disabled": 0, "lat": 38.92827883333333, "bike_id": "7ecee78d50ccd37a669c3178fbd2e484", "is_reserved": 0, "rental_uris": {"ios": "https://dc.lft.to/lastmile_qr_scan", "android": "https://dc.lft.to/lastmile_qr_scan"}, "name": "7ecee78d50ccd37a669c3178fbd2e484", "fusion_lon": 0.0, "fusion_lat": 0.0, "lon": -77.05961616666667, "type": "electric_bike"}, {"is_disabled": 0, "lat": 38.8963015, "bike_id": "5e4598b051f6c99ec79579eb653e356a", "is_reserved": 0, "rental_uris": {"ios": "https://dc.lft.to/lastmile_qr_scan", "android": "https://dc.lft.to/lastmile_qr_scan"}, "name": "5e4598b051f6c99ec79579eb653e356a", "fusion_lon": 0.0, "fusion_lat": 0.0, "lon": -77.02854666666667, "type": "electric_scooter"}, {"is_disabled": 0, "lat": 38.9252095, "bike_id": "fbaac8ef740aa8373092a71dd8817e43", "is_reserved": 0, "rental_uris": {"ios": "https://dc.lft.to/lastmile_qr_scan", "android": "https://dc.lft.to/lastmile_qr_scan"}, "name": "fbaac8ef740aa8373092a71dd8817e43", "fusion_lon": 0.0, "fusion_lat": 0.0, "lon": -77.03885133333333, "type": "electric_scooter"}, {"is_disabled": 0, "lat": 38.92859083333333, "bike_id": "d988df5c43e95df67b287abfc8f6fbc3", "is_reserved": 0, "rental_uris": {"ios": "https://dc.lft.to/lastmile_qr_scan", "android": "https://dc.lft.to/lastmile_qr_scan"}, "name": "d988df5c43e95df67b287abfc8f6fbc3", "fusion_lon": 0.0, "fusion_lat": 0.0, "lon": -77.034346, "type": "electric_scooter"}, {"is_disabled": 0, "lat": 38.89887366666667, "bike_id": "50caa34a386a5cec7d30b232b889ffc1", "is_reserved": 0, "rental_uris": {"ios": "https://dc.lft.to/lastmile_qr_scan", "android": "https://dc.lft.to/lastmile_qr_scan"}, "name": "50caa34a386a5cec7d30b232b889ffc1", "fusion_lon": 0.0, "fusion_lat": 0.0, "lon": -76.9868705, "type": "electric_scooter"}, {"is_disabled": 0, "lat": 38.9074515, "bike_id": "9851df971a2b375dc28e41e071c19ac1", "is_reserved": 0, "rental_uris": {"ios": "https://dc.lft.to/lastmile_qr_scan", "android": "https://dc.lft.to/lastmile_qr_scan"}, "name": "9851df971a2b375dc28e41e071c19ac1", "fusion_lon": 0.0, "fusion_lat": 0.0, "lon": -77.04155783333333, "type": "electric_scooter"}, {"is_disabled": 0, "lat": 38.92681866666667, "bike_id": "cbebe71a72f6023de496969dc30a2cbb", "is_reserved": 0, "rental_uris": {"ios": "https://dc.lft.to/lastmile_qr_scan", "android": "https://dc.lft.to/lastmile_qr_scan"}, "name": "cbebe71a72f6023de496969dc30a2cbb", "fusion_lon": 0.0, "fusion_lat": 0.0, "lon": -77.01569533333333, "type": "electric_bike"}, {"is_disabled": 0, "lat": 38.8792735, "bike_id": "c4e5fc06e2bf198aaec143cb07099031", "is_reserved": 0, "rental_uris": {"ios": "https://dc.lft.to/lastmile_qr_scan", "android": "https://dc.lft.to/lastmile_qr_scan"}, "name": "c4e5fc06e2bf198aaec143cb07099031", "fusion_lon": 0.0, "fusion_lat": 0.0, "lon": -77.02372716666666, "type": "electric_scooter"}, {"is_disabled": 0, "lat": 38.9132745, "bike_id": "5516b0139729f095ed1588a370f1fca7", "is_reserved": 0, "rental_uris": {"ios": "https://dc.lft.to/lastmile_qr_scan", "android": "https://dc.lft.to/lastmile_qr_scan"}, "name": "5516b0139729f095ed1588a370f1fca7", "fusion_lon": 0.0, "fusion_lat": 0.0, "lon": -77.03188416666667, "type": "electric_scooter"}, {"is_disabled": 0, "lat": 38.9236525, "bike_id": "f2fed5311988280d9c8e91e69f35f128", "is_reserved": 0, "rental_uris": {"ios": "https://dc.lft.to/lastmile_qr_scan", "android": "https://dc.lft.to/lastmile_qr_scan"}, "name": "f2fed5311988280d9c8e91e69f35f128", "fusion_lon": 0.0, "fusion_lat": 0.0, "lon": -77.05030533333333, "type": "electric_scooter"}, {"is_disabled": 0, "lat": 38.8963645, "bike_id": "f480255d367cc4c57df39ee62aa28379", "is_reserved": 0, "rental_uris": {"ios": "https://dc.lft.to/lastmile_qr_scan", "android": "https://dc.lft.to/lastmile_qr_scan"}, "name": "f480255d367cc4c57df39ee62aa28379", "fusion_lon": 0.0, "fusion_lat": 0.0, "lon": -76.9280345, "type": "electric_scooter"}, {"is_disabled": 0, "lat": 38.910051333333335, "bike_id": "0461e71b06e3fe8215d3af66eaefcfa3", "is_reserved": 0, "rental_uris": {"ios": "https://dc.lft.to/lastmile_qr_scan", "android": "https://dc.lft.to/lastmile_qr_scan"}, "name": "0461e71b06e3fe8215d3af66eaefcfa3", "fusion_lon": 0.0, "fusion_lat": 0.0, "lon": -76.994076, "type": "electric_scooter"}, {"is_disabled": 0, "lat": 38.877018666666665, "bike_id": "eea13b43a0031605eb5f24f002f0f175", "is_reserved": 0, "rental_uris": {"ios": "https://dc.lft.to/lastmile_qr_scan", "android": "https://dc.lft.to/lastmile_qr_scan"}, "name": "eea13b43a0031605eb5f24f002f0f175", "fusion_lon": 0.0, "fusion_lat": 0.0, "lon": -77.01765416666667, "type": "electric_scooter"}, {"is_disabled": 0, "lat": 38.9181645, "bike_id": "ecc9fd2a20560aefeb9e4a999f15cdb6", "is_reserved": 0, "rental_uris": {"ios": "https://dc.lft.to/lastmile_qr_scan", "android": "https://dc.lft.to/lastmile_qr_scan"}, "name": "ecc9fd2a20560aefeb9e4a999f15cdb6", "fusion_lon": 0.0, "fusion_lat": 0.0, "lon": -77.025317, "type": "electric_scooter"}, {"is_disabled": 0, "lat": 38.925232333333334, "bike_id": "d0979840c8e7a61984efeb7f1f7d0f95", "is_reserved": 0, "rental_uris": {"ios": "https://dc.lft.to/lastmile_qr_scan", "android": "https://dc.lft.to/lastmile_qr_scan"}, "name": "d0979840c8e7a61984efeb7f1f7d0f95", "fusion_lon": 0.0, "fusion_lat": 0.0, "lon": -77.038488, "type": "electric_scooter"}, {"is_disabled": 0, "lat": 38.92707266666667, "bike_id": "4532f75c20cd186589efbd63223c45fa", "is_reserved": 0, "rental_uris": {"ios": "https://dc.lft.to/lastmile_qr_scan", "android": "https://dc.lft.to/lastmile_qr_scan"}, "name": "4532f75c20cd186589efbd63223c45fa", "fusion_lon": 0.0, "fusion_lat": 0.0, "lon": -76.96078066666666, "type": "electric_scooter"}, {"is_disabled": 0, "lat": 38.89714716666667, "bike_id": "569ab9c6657bd39eb990a194c1837237", "is_reserved": 0, "rental_uris": {"ios": "https://dc.lft.to/lastmile_qr_scan", "android": "https://dc.lft.to/lastmile_qr_scan"}, "name": "569ab9c6657bd39eb990a194c1837237", "fusion_lon": 0.0, "fusion_lat": 0.0, "lon": -77.01301016666666, "type": "electric_scooter"}, {"is_disabled": 0, "lat": 38.949121166666664, "bike_id": "2fea402537febcda7fde69959922e0be", "is_reserved": 0, "rental_uris": {"ios": "https://dc.lft.to/lastmile_qr_scan", "android": "https://dc.lft.to/lastmile_qr_scan"}, "name": "2fea402537febcda7fde69959922e0be", "fusion_lon": 0.0, "fusion_lat": 0.0, "lon": -77.02082733333333, "type": "electric_scooter"}, {"is_disabled": 0, "lat": 38.875269, "bike_id": "5c596df16a81447c05ad4c72fe759b59", "is_reserved": 0, "rental_uris": {"ios": "https://dc.lft.to/lastmile_qr_scan", "android": "https://dc.lft.to/lastmile_qr_scan"}, "name": "5c596df16a81447c05ad4c72fe759b59", "fusion_lon": 0.0, "fusion_lat": 0.0, "lon": -77.01234366666667, "type": "electric_scooter"}, {"is_disabled": 0, "lat": 38.896139, "bike_id": "cc5d0f83009d39be30294ddca9618810", "is_reserved": 0, "rental_uris": {"ios": "https://dc.lft.to/lastmile_qr_scan", "android": "https://dc.lft.to/lastmile_qr_scan"}, "name": "cc5d0f83009d39be30294ddca9618810", "fusion_lon": 0.0, "fusion_lat": 0.0, "lon": -77.0230775, "type": "electric_bike"}, {"is_disabled": 0, "lat": 38.90174366666667, "bike_id": "1530b743177f19ce7b7ce0047bb29e8c", "is_reserved": 0, "rental_uris": {"ios": "https://dc.lft.to/lastmile_qr_scan", "android": "https://dc.lft.to/lastmile_qr_scan"}, "name": "1530b743177f19ce7b7ce0047bb29e8c", "fusion_lon": 0.0, "fusion_lat": 0.0, "lon": -77.02398566666666, "type": "electric_scooter"}, {"is_disabled": 0, "lat": 38.912078, "bike_id": "6a385a272c8f033526a84cfed8d8c600", "is_reserved": 0, "rental_uris": {"ios": "https://dc.lft.to/lastmile_qr_scan", "android": "https://dc.lft.to/lastmile_qr_scan"}, "name": "6a385a272c8f033526a84cfed8d8c600", "fusion_lon": 0.0, "fusion_lat": 0.0, "lon": -77.02096666666667, "type": "electric_scooter"}, {"is_disabled": 0, "lat": 38.89461383333333, "bike_id": "363fedfb32d7af9dde61045eca31ceac", "is_reserved": 0, "rental_uris": {"ios": "https://dc.lft.to/lastmile_qr_scan", "android": "https://dc.lft.to/lastmile_qr_scan"}, "name": "363fedfb32d7af9dde61045eca31ceac", "fusion_lon": 0.0, "fusion_lat": 0.0, "lon": -77.02387116666667, "type": "electric_scooter"}, {"is_disabled": 0, "lat": 38.9313335, "bike_id": "1f9bd98448509f37dccc8e6b933c3a6f", "is_reserved": 0, "rental_uris": {"ios": "https://dc.lft.to/lastmile_qr_scan", "android": "https://dc.lft.to/lastmile_qr_scan"}, "name": "1f9bd98448509f37dccc8e6b933c3a6f", "fusion_lon": 0.0, "fusion_lat": 0.0, "lon": -77.028106, "type": "electric_scooter"}, {"is_disabled": 0, "lat": 38.907193166666666, "bike_id": "439414be42f520f964ad72b71aa0e94b", "is_reserved": 0, "rental_uris": {"ios": "https://dc.lft.to/lastmile_qr_scan", "android": "https://dc.lft.to/lastmile_qr_scan"}, "name": "439414be42f520f964ad72b71aa0e94b", "fusion_lon": 0.0, "fusion_lat": 0.0, "lon": -77.05309783333334, "type": "electric_scooter"}, {"is_disabled": 0, "lat": 38.88982583333333, "bike_id": "2ae1f3fc1da3a37d7c597df535933b63", "is_reserved": 0, "rental_uris": {"ios": "https://dc.lft.to/lastmile_qr_scan", "android": "https://dc.lft.to/lastmile_qr_scan"}, "name": "2ae1f3fc1da3a37d7c597df535933b63", "fusion_lon": 0.0, "fusion_lat": 0.0, "lon": -76.9918, "type": "electric_scooter"}, {"is_disabled": 0, "lat": 38.893538, "bike_id": "4443ff35e8fe0d7e525defb08bf2b60f", "is_reserved": 0, "rental_uris": {"ios": "https://dc.lft.to/lastmile_qr_scan", "android": "https://dc.lft.to/lastmile_qr_scan"}, "name": "4443ff35e8fe0d7e525defb08bf2b60f", "fusion_lon": 0.0, "fusion_lat": 0.0, "lon": -76.99210883333333, "type": "electric_scooter"}, {"is_disabled": 0, "lat": 38.921647666666665, "bike_id": "1b100da379648331b9cf1bc1079a5782", "is_reserved": 0, "rental_uris": {"ios": "https://dc.lft.to/lastmile_qr_scan", "android": "https://dc.lft.to/lastmile_qr_scan"}, "name": "1b100da379648331b9cf1bc1079a5782", "fusion_lon": 0.0, "fusion_lat": 0.0, "lon": -77.03662566666667, "type": "electric_scooter"}, {"is_disabled": 0, "lat": 38.921541500000004, "bike_id": "5d251af2461fd8a8515f67fb5665fa7d", "is_reserved": 0, "rental_uris": {"ios": "https://dc.lft.to/lastmile_qr_scan", "android": "https://dc.lft.to/lastmile_qr_scan"}, "name": "5d251af2461fd8a8515f67fb5665fa7d", "fusion_lon": 0.0, "fusion_lat": 0.0, "lon": -77.03466783333333, "type": "electric_scooter"}, {"is_disabled": 0, "lat": 38.923308, "bike_id": "9aa5f418e605003c52f4880a846c88e5", "is_reserved": 0, "rental_uris": {"ios": "https://dc.lft.to/lastmile_qr_scan", "android": "https://dc.lft.to/lastmile_qr_scan"}, "name": "9aa5f418e605003c52f4880a846c88e5", "fusion_lon": 0.0, "fusion_lat": 0.0, "lon": -77.00889266666667, "type": "electric_scooter"}, {"is_disabled": 0, "lat": 38.893856166666666, "bike_id": "9b73ac1e6a05169d55c8e781c129e168", "is_reserved": 0, "rental_uris": {"ios": "https://dc.lft.to/lastmile_qr_scan", "android": "https://dc.lft.to/lastmile_qr_scan"}, "name": "9b73ac1e6a05169d55c8e781c129e168", "fusion_lon": 0.0, "fusion_lat": 0.0, "lon": -76.9230555, "type": "electric_scooter"}, {"is_disabled": 0, "lat": 38.884768, "bike_id": "0f51102221a523d48548abecbb702b43", "is_reserved": 0, "rental_uris": {"ios": "https://dc.lft.to/lastmile_qr_scan", "android": "https://dc.lft.to/lastmile_qr_scan"}, "name": "0f51102221a523d48548abecbb702b43", "fusion_lon": 0.0, "fusion_lat": 0.0, "lon": -77.03354216666666, "type": "electric_scooter"}, {"is_disabled": 0, "lat": 38.928814, "bike_id": "70085000d62e232731e14e1ded0e7553", "is_reserved": 0, "rental_uris": {"ios": "https://dc.lft.to/lastmile_qr_scan", "android": "https://dc.lft.to/lastmile_qr_scan"}, "name": "70085000d62e232731e14e1ded0e7553", "fusion_lon": 0.0, "fusion_lat": 0.0, "lon": -77.014021, "type": "electric_scooter"}, {"is_disabled": 0, "lat": 38.9331465, "bike_id": "6a24a98a4d1dfbb06633b021d083585b", "is_reserved": 0, "rental_uris": {"ios": "https://dc.lft.to/lastmile_qr_scan", "android": "https://dc.lft.to/lastmile_qr_scan"}, "name": "6a24a98a4d1dfbb06633b021d083585b", "fusion_lon": 0.0, "fusion_lat": 0.0, "lon": -77.03184133333333, "type": "electric_scooter"}, {"is_disabled": 0, "lat": 38.917622, "bike_id": "18f86fb6731b7f61f032616afb4b5862", "is_reserved": 0, "rental_uris": {"ios": "https://dc.lft.to/lastmile_qr_scan", "android": "https://dc.lft.to/lastmile_qr_scan"}, "name": "18f86fb6731b7f61f032616afb4b5862", "fusion_lon": 0.0, "fusion_lat": 0.0, "lon": -77.00448383333334, "type": "electric_scooter"}, {"is_disabled": 0, "lat": 38.876426, "bike_id": "ee861602727125273f60565adcf088f0", "is_reserved": 0, "rental_uris": {"ios": "https://dc.lft.to/lastmile_qr_scan", "android": "https://dc.lft.to/lastmile_qr_scan"}, "name": "ee861602727125273f60565adcf088f0", "fusion_lon": 0.0, "fusion_lat": 0.0, "lon": -76.93546766666667, "type": "electric_bike"}, {"is_disabled": 0, "lat": 38.87665416666667, "bike_id": "ce4bc24fd813dde4746bb3ad4c380c9d", "is_reserved": 0, "rental_uris": {"ios": "https://dc.lft.to/lastmile_qr_scan", "android": "https://dc.lft.to/lastmile_qr_scan"}, "name": "ce4bc24fd813dde4746bb3ad4c380c9d", "fusion_lon": 0.0, "fusion_lat": 0.0, "lon": -77.01759316666667, "type": "electric_scooter"}, {"is_disabled": 0, "lat": 38.89260016666667, "bike_id": "1f72b5ca72402dbec32c1dbbdcf7c6de", "is_reserved": 0, "rental_uris": {"ios": "https://dc.lft.to/lastmile_qr_scan", "android": "https://dc.lft.to/lastmile_qr_scan"}, "name": "1f72b5ca72402dbec32c1dbbdcf7c6de", "fusion_lon": 0.0, "fusion_lat": 0.0, "lon": -77.05025233333333, "type": "electric_scooter"}, {"is_disabled": 0, "lat": 38.927139333333336, "bike_id": "f0b6df36837f8cdf5d801c6abb5b0d85", "is_reserved": 0, "rental_uris": {"ios": "https://dc.lft.to/lastmile_qr_scan", "android": "https://dc.lft.to/lastmile_qr_scan"}, "name": "f0b6df36837f8cdf5d801c6abb5b0d85", "fusion_lon": 0.0, "fusion_lat": 0.0, "lon": -77.05994933333334, "type": "electric_scooter"}, {"is_disabled": 0, "lat": 38.923847333333335, "bike_id": "358cc4ac90b3f4d90e463a74a367c6b5", "is_reserved": 0, "rental_uris": {"ios": "https://dc.lft.to/lastmile_qr_scan", "android": "https://dc.lft.to/lastmile_qr_scan"}, "name": "358cc4ac90b3f4d90e463a74a367c6b5", "fusion_lon": 0.0, "fusion_lat": 0.0, "lon": -77.04309483333333, "type": "electric_scooter"}, {"is_disabled": 0, "lat": 38.897326166666666, "bike_id": "cdbe8d958ef2ec853c80d4afab3e270a", "is_reserved": 0, "rental_uris": {"ios": "https://dc.lft.to/lastmile_qr_scan", "android": "https://dc.lft.to/lastmile_qr_scan"}, "name": "cdbe8d958ef2ec853c80d4afab3e270a", "fusion_lon": 0.0, "fusion_lat": 0.0, "lon": -77.04995783333334, "type": "electric_scooter"}, {"is_disabled": 0, "lat": 38.887132, "bike_id": "24df08d03cf7d3a7f7895a815bb302ae", "is_reserved": 0, "rental_uris": {"ios": "https://dc.lft.to/lastmile_qr_scan", "android": "https://dc.lft.to/lastmile_qr_scan"}, "name": "24df08d03cf7d3a7f7895a815bb302ae", "fusion_lon": 0.0, "fusion_lat": 0.0, "lon": -76.99628233333334, "type": "electric_scooter"}, {"is_disabled": 0, "lat": 38.90522133333333, "bike_id": "3d1957fc2cdb4a3037325eedb1553f3c", "is_reserved": 0, "rental_uris": {"ios": "https://dc.lft.to/lastmile_qr_scan", "android": "https://dc.lft.to/lastmile_qr_scan"}, "name": "3d1957fc2cdb4a3037325eedb1553f3c", "fusion_lon": 0.0, "fusion_lat": 0.0, "lon": -77.02951233333333, "type": "electric_scooter"}, {"is_disabled": 0, "lat": 38.87062533333334, "bike_id": "a4b4aa8fddce4031bc880623ab34338d", "is_reserved": 0, "rental_uris": {"ios": "https://dc.lft.to/lastmile_qr_scan", "android": "https://dc.lft.to/lastmile_qr_scan"}, "name": "a4b4aa8fddce4031bc880623ab34338d", "fusion_lon": 0.0, "fusion_lat": 0.0, "lon": -77.11051866666666, "type": "electric_bike"}, {"is_disabled": 0, "lat": 38.890514333333336, "bike_id": "862a91874caf86d139abfdbd2e9a4eff", "is_reserved": 0, "rental_uris": {"ios": "https://dc.lft.to/lastmile_qr_scan", "android": "https://dc.lft.to/lastmile_qr_scan"}, "name": "862a91874caf86d139abfdbd2e9a4eff", "fusion_lon": 0.0, "fusion_lat": 0.0, "lon": -77.01968316666667, "type": "electric_scooter"}, {"is_disabled": 0, "lat": 38.8786055, "bike_id": "e439795730b809f4f38b0aa112897a3b", "is_reserved": 0, "rental_uris": {"ios": "https://dc.lft.to/lastmile_qr_scan", "android": "https://dc.lft.to/lastmile_qr_scan"}, "name": "e439795730b809f4f38b0aa112897a3b", "fusion_lon": 0.0, "fusion_lat": 0.0, "lon": -77.0176635, "type": "electric_scooter"}, {"is_disabled": 0, "lat": 38.919675833333336, "bike_id": "fc9591e2fc03c18477f01e53d4598d08", "is_reserved": 0, "rental_uris": {"ios": "https://dc.lft.to/lastmile_qr_scan", "android": "https://dc.lft.to/lastmile_qr_scan"}, "name": "fc9591e2fc03c18477f01e53d4598d08", "fusion_lon": 0.0, "fusion_lat": 0.0, "lon": -77.04635866666666, "type": "electric_scooter"}, {"is_disabled": 0, "lat": 38.937461, "bike_id": "2ef25afd37b132d42a854cdeaac41a2d", "is_reserved": 0, "rental_uris": {"ios": "https://dc.lft.to/lastmile_qr_scan", "android": "https://dc.lft.to/lastmile_qr_scan"}, "name": "2ef25afd37b132d42a854cdeaac41a2d", "fusion_lon": 0.0, "fusion_lat": 0.0, "lon": -77.03433666666666, "type": "electric_scooter"}, {"is_disabled": 0, "lat": 38.86825416666667, "bike_id": "7be0c4349beb5afc0608883bdb0c4ca7", "is_reserved": 0, "rental_uris": {"ios": "https://dc.lft.to/lastmile_qr_scan", "android": "https://dc.lft.to/lastmile_qr_scan"}, "name": "7be0c4349beb5afc0608883bdb0c4ca7", "fusion_lon": 0.0, "fusion_lat": 0.0, "lon": -76.98011966666667, "type": "electric_bike"}, {"is_disabled": 0, "lat": 38.91444583333333, "bike_id": "e77c6c5a0196b50afb3ed8f65f8b138e", "is_reserved": 0, "rental_uris": {"ios": "https://dc.lft.to/lastmile_qr_scan", "android": "https://dc.lft.to/lastmile_qr_scan"}, "name": "e77c6c5a0196b50afb3ed8f65f8b138e", "fusion_lon": 0.0, "fusion_lat": 0.0, "lon": -77.0228775, "type": "electric_scooter"}, {"is_disabled": 0, "lat": 38.91930033333333, "bike_id": "60141e24b041fe897515b76618b03226", "is_reserved": 0, "rental_uris": {"ios": "https://dc.lft.to/lastmile_qr_scan", "android": "https://dc.lft.to/lastmile_qr_scan"}, "name": "60141e24b041fe897515b76618b03226", "fusion_lon": 0.0, "fusion_lat": 0.0, "lon": -77.04806366666666, "type": "electric_scooter"}, {"is_disabled": 0, "lat": 38.93651916666666, "bike_id": "82980b9404d49dfed8e83b6dc4fb23f1", "is_reserved": 0, "rental_uris": {"ios": "https://dc.lft.to/lastmile_qr_scan", "android": "https://dc.lft.to/lastmile_qr_scan"}, "name": "82980b9404d49dfed8e83b6dc4fb23f1", "fusion_lon": 0.0, "fusion_lat": 0.0, "lon": -77.02442433333333, "type": "electric_scooter"}, {"is_disabled": 0, "lat": 38.8977975, "bike_id": "c76118a49206bc98c19e02343535ebd2", "is_reserved": 0, "rental_uris": {"ios": "https://dc.lft.to/lastmile_qr_scan", "android": "https://dc.lft.to/lastmile_qr_scan"}, "name": "c76118a49206bc98c19e02343535ebd2", "fusion_lon": 0.0, "fusion_lat": 0.0, "lon": -77.01220316666667, "type": "electric_scooter"}, {"is_disabled": 0, "lat": 38.870686, "bike_id": "7a1506c17fb3d083a08de09ab4b2ba6b", "is_reserved": 0, "rental_uris": {"ios": "https://dc.lft.to/lastmile_qr_scan", "android": "https://dc.lft.to/lastmile_qr_scan"}, "name": "7a1506c17fb3d083a08de09ab4b2ba6b", "fusion_lon": 0.0, "fusion_lat": 0.0, "lon": -76.97974833333333, "type": "electric_scooter"}, {"is_disabled": 0, "lat": 38.87578833333333, "bike_id": "a8965f3dccdacaca34b69c1351b35ebc", "is_reserved": 0, "rental_uris": {"ios": "https://dc.lft.to/lastmile_qr_scan", "android": "https://dc.lft.to/lastmile_qr_scan"}, "name": "a8965f3dccdacaca34b69c1351b35ebc", "fusion_lon": 0.0, "fusion_lat": 0.0, "lon": -77.23410816666667, "type": "electric_bike"}, {"is_disabled": 0, "lat": 38.90213266666667, "bike_id": "0e0d24e2fc893a286fe3b5ecba4cc007", "is_reserved": 0, "rental_uris": {"ios": "https://dc.lft.to/lastmile_qr_scan", "android": "https://dc.lft.to/lastmile_qr_scan"}, "name": "0e0d24e2fc893a286fe3b5ecba4cc007", "fusion_lon": 0.0, "fusion_lat": 0.0, "lon": -77.05116033333333, "type": "electric_scooter"}, {"is_disabled": 0, "lat": 38.880387666666664, "bike_id": "eafa552c5e1b2a8ad3205c900187d3bb", "is_reserved": 0, "rental_uris": {"ios": "https://dc.lft.to/lastmile_qr_scan", "android": "https://dc.lft.to/lastmile_qr_scan"}, "name": "eafa552c5e1b2a8ad3205c900187d3bb", "fusion_lon": 0.0, "fusion_lat": 0.0, "lon": -76.92723, "type": "electric_scooter"}, {"is_disabled": 0, "lat": 38.90352983333333, "bike_id": "43401a0a5a20c9687123a777663804e4", "is_reserved": 0, "rental_uris": {"ios": "https://dc.lft.to/lastmile_qr_scan", "android": "https://dc.lft.to/lastmile_qr_scan"}, "name": "43401a0a5a20c9687123a777663804e4", "fusion_lon": 0.0, "fusion_lat": 0.0, "lon": -76.98127616666666, "type": "electric_scooter"}, {"is_disabled": 0, "lat": 38.914437, "bike_id": "9e2e466c8818af90a2bebfe23773f536", "is_reserved": 0, "rental_uris": {"ios": "https://dc.lft.to/lastmile_qr_scan", "android": "https://dc.lft.to/lastmile_qr_scan"}, "name": "9e2e466c8818af90a2bebfe23773f536", "fusion_lon": 0.0, "fusion_lat": 0.0, "lon": -76.97224566666667, "type": "electric_bike"}, {"is_disabled": 0, "lat": 38.9053325, "bike_id": "9925f49ca33e65a9a874313a012e0ca9", "is_reserved": 0, "rental_uris": {"ios": "https://dc.lft.to/lastmile_qr_scan", "android": "https://dc.lft.to/lastmile_qr_scan"}, "name": "9925f49ca33e65a9a874313a012e0ca9", "fusion_lon": 0.0, "fusion_lat": 0.0, "lon": -77.0593465, "type": "electric_scooter"}, {"is_disabled": 0, "lat": 38.89248633333333, "bike_id": "9084a814476fb6d5af048f3716b2329a", "is_reserved": 0, "rental_uris": {"ios": "https://dc.lft.to/lastmile_qr_scan", "android": "https://dc.lft.to/lastmile_qr_scan"}, "name": "9084a814476fb6d5af048f3716b2329a", "fusion_lon": 0.0, "fusion_lat": 0.0, "lon": -77.0465285, "type": "electric_scooter"}, {"is_disabled": 0, "lat": 38.92428266666667, "bike_id": "19e01852d63286bdca4dc78317d90442", "is_reserved": 0, "rental_uris": {"ios": "https://dc.lft.to/lastmile_qr_scan", "android": "https://dc.lft.to/lastmile_qr_scan"}, "name": "19e01852d63286bdca4dc78317d90442", "fusion_lon": 0.0, "fusion_lat": 0.0, "lon": -77.02021483333333, "type": "electric_scooter"}, {"is_disabled": 0, "lat": 38.882941333333335, "bike_id": "6a050b8596eee626bacd1b16d6aaabce", "is_reserved": 0, "rental_uris": {"ios": "https://dc.lft.to/lastmile_qr_scan", "android": "https://dc.lft.to/lastmile_qr_scan"}, "name": "6a050b8596eee626bacd1b16d6aaabce", "fusion_lon": 0.0, "fusion_lat": 0.0, "lon": -76.93496566666667, "type": "electric_scooter"}, {"is_disabled": 0, "lat": 38.89799266666667, "bike_id": "4252e9d4f3eb824e11b66eac7bbc9301", "is_reserved": 0, "rental_uris": {"ios": "https://dc.lft.to/lastmile_qr_scan", "android": "https://dc.lft.to/lastmile_qr_scan"}, "name": "4252e9d4f3eb824e11b66eac7bbc9301", "fusion_lon": 0.0, "fusion_lat": 0.0, "lon": -76.97176616666667, "type": "electric_scooter"}, {"is_disabled": 0, "lat": 38.892018666666665, "bike_id": "8304d3301ff9f6c562ee8125c6f04343", "is_reserved": 0, "rental_uris": {"ios": "https://dc.lft.to/lastmile_qr_scan", "android": "https://dc.lft.to/lastmile_qr_scan"}, "name": "8304d3301ff9f6c562ee8125c6f04343", "fusion_lon": 0.0, "fusion_lat": 0.0, "lon": -77.02473716666667, "type": "electric_scooter"}, {"is_disabled": 0, "lat": 39.0347525, "bike_id": "ba2a5dc73bd8b59280dae0d02ed682d7", "is_reserved": 0, "rental_uris": {"ios": "https://dc.lft.to/lastmile_qr_scan", "android": "https://dc.lft.to/lastmile_qr_scan"}, "name": "ba2a5dc73bd8b59280dae0d02ed682d7", "fusion_lon": 0.0, "fusion_lat": 0.0, "lon": -77.01658483333334, "type": "electric_bike"}, {"is_disabled": 0, "lat": 38.92087083333333, "bike_id": "bd0301102e416e65c90537c96890a18a", "is_reserved": 0, "rental_uris": {"ios": "https://dc.lft.to/lastmile_qr_scan", "android": "https://dc.lft.to/lastmile_qr_scan"}, "name": "bd0301102e416e65c90537c96890a18a", "fusion_lon": 0.0, "fusion_lat": 0.0, "lon": -77.025021, "type": "electric_scooter"}, {"is_disabled": 0, "lat": 38.89648666666667, "bike_id": "5d03d170c0e790bfbd346927056a9d92", "is_reserved": 0, "rental_uris": {"ios": "https://dc.lft.to/lastmile_qr_scan", "android": "https://dc.lft.to/lastmile_qr_scan"}, "name": "5d03d170c0e790bfbd346927056a9d92", "fusion_lon": 0.0, "fusion_lat": 0.0, "lon": -77.024188, "type": "electric_scooter"}, {"is_disabled": 0, "lat": 38.953458, "bike_id": "65fb64610c7316dcf26bfe2817965965", "is_reserved": 0, "rental_uris": {"ios": "https://dc.lft.to/lastmile_qr_scan", "android": "https://dc.lft.to/lastmile_qr_scan"}, "name": "65fb64610c7316dcf26bfe2817965965", "fusion_lon": 0.0, "fusion_lat": 0.0, "lon": -77.08148483333333, "type": "electric_scooter"}, {"is_disabled": 0, "lat": 38.9335625, "bike_id": "8be2ac51f3ee132570b1e8139bd4fad5", "is_reserved": 0, "rental_uris": {"ios": "https://dc.lft.to/lastmile_qr_scan", "android": "https://dc.lft.to/lastmile_qr_scan"}, "name": "8be2ac51f3ee132570b1e8139bd4fad5", "fusion_lon": 0.0, "fusion_lat": 0.0, "lon": -77.023918, "type": "electric_scooter"}, {"is_disabled": 0, "lat": 38.9216865, "bike_id": "63da1f98cb7d502dcb1427650813844e", "is_reserved": 0, "rental_uris": {"ios": "https://dc.lft.to/lastmile_qr_scan", "android": "https://dc.lft.to/lastmile_qr_scan"}, "name": "63da1f98cb7d502dcb1427650813844e", "fusion_lon": 0.0, "fusion_lat": 0.0, "lon": -77.04023716666667, "type": "electric_scooter"}, {"is_disabled": 0, "lat": 38.9141535, "bike_id": "bca430096bfcdec84fa11e634047edf8", "is_reserved": 0, "rental_uris": {"ios": "https://dc.lft.to/lastmile_qr_scan", "android": "https://dc.lft.to/lastmile_qr_scan"}, "name": "bca430096bfcdec84fa11e634047edf8", "fusion_lon": 0.0, "fusion_lat": 0.0, "lon": -77.02232316666667, "type": "electric_scooter"}, {"is_disabled": 0, "lat": 38.901153666666666, "bike_id": "4e38858303c5ecfd7bed58d597f77804", "is_reserved": 0, "rental_uris": {"ios": "https://dc.lft.to/lastmile_qr_scan", "android": "https://dc.lft.to/lastmile_qr_scan"}, "name": "4e38858303c5ecfd7bed58d597f77804", "fusion_lon": 0.0, "fusion_lat": 0.0, "lon": -77.04988466666667, "type": "electric_bike"}, {"is_disabled": 0, "lat": 39.084971833333334, "bike_id": "dd5ead0483dcca0d14964b37d44e154a", "is_reserved": 0, "rental_uris": {"ios": "https://dc.lft.to/lastmile_qr_scan", "android": "https://dc.lft.to/lastmile_qr_scan"}, "name": "dd5ead0483dcca0d14964b37d44e154a", "fusion_lon": 0.0, "fusion_lat": 0.0, "lon": -76.95056233333334, "type": "electric_bike"}, {"is_disabled": 0, "lat": 38.902562833333334, "bike_id": "78da090f6bd67888166db0e64103d695", "is_reserved": 0, "rental_uris": {"ios": "https://dc.lft.to/lastmile_qr_scan", "android": "https://dc.lft.to/lastmile_qr_scan"}, "name": "78da090f6bd67888166db0e64103d695", "fusion_lon": 0.0, "fusion_lat": 0.0, "lon": -77.01902066666666, "type": "electric_scooter"}, {"is_disabled": 0, "lat": 38.88182616666667, "bike_id": "24af4d8245e38db02de8e933f5682ff6", "is_reserved": 0, "rental_uris": {"ios": "https://dc.lft.to/lastmile_qr_scan", "android": "https://dc.lft.to/lastmile_qr_scan"}, "name": "24af4d8245e38db02de8e933f5682ff6", "fusion_lon": 0.0, "fusion_lat": 0.0, "lon": -77.00592633333333, "type": "electric_scooter"}, {"is_disabled": 0, "lat": 38.928388, "bike_id": "ece50dcd7b91569aa3359662b7b6cd7b", "is_reserved": 0, "rental_uris": {"ios": "https://dc.lft.to/lastmile_qr_scan", "android": "https://dc.lft.to/lastmile_qr_scan"}, "name": "ece50dcd7b91569aa3359662b7b6cd7b", "fusion_lon": 0.0, "fusion_lat": 0.0, "lon": -77.05425916666667, "type": "electric_scooter"}, {"is_disabled": 0, "lat": 38.8887435, "bike_id": "a92db1e7fb9f7615331e327b830aff44", "is_reserved": 0, "rental_uris": {"ios": "https://dc.lft.to/lastmile_qr_scan", "android": "https://dc.lft.to/lastmile_qr_scan"}, "name": "a92db1e7fb9f7615331e327b830aff44", "fusion_lon": 0.0, "fusion_lat": 0.0, "lon": -76.9569675, "type": "electric_bike"}, {"is_disabled": 0, "lat": 38.89743766666667, "bike_id": "f337c63c83e62622a1c88eeaf2f7e9cd", "is_reserved": 0, "rental_uris": {"ios": "https://dc.lft.to/lastmile_qr_scan", "android": "https://dc.lft.to/lastmile_qr_scan"}, "name": "f337c63c83e62622a1c88eeaf2f7e9cd", "fusion_lon": 0.0, "fusion_lat": 0.0, "lon": -77.047731, "type": "electric_bike"}, {"is_disabled": 0, "lat": 38.930482, "bike_id": "3e1c5920a6a01cecca423220ca3d49c9", "is_reserved": 0, "rental_uris": {"ios": "https://dc.lft.to/lastmile_qr_scan", "android": "https://dc.lft.to/lastmile_qr_scan"}, "name": "3e1c5920a6a01cecca423220ca3d49c9", "fusion_lon": 0.0, "fusion_lat": 0.0, "lon": -77.03363383333334, "type": "electric_scooter"}, {"is_disabled": 0, "lat": 38.905431166666666, "bike_id": "2a05c855ff647ca7a8d55f65a37e50a0", "is_reserved": 0, "rental_uris": {"ios": "https://dc.lft.to/lastmile_qr_scan", "android": "https://dc.lft.to/lastmile_qr_scan"}, "name": "2a05c855ff647ca7a8d55f65a37e50a0", "fusion_lon": 0.0, "fusion_lat": 0.0, "lon": -77.050056, "type": "electric_scooter"}, {"is_disabled": 0, "lat": 38.92956816666667, "bike_id": "baef0585bcc413845ae4760383a9ddea", "is_reserved": 0, "rental_uris": {"ios": "https://dc.lft.to/lastmile_qr_scan", "android": "https://dc.lft.to/lastmile_qr_scan"}, "name": "baef0585bcc413845ae4760383a9ddea", "fusion_lon": 0.0, "fusion_lat": 0.0, "lon": -77.011505, "type": "electric_scooter"}, {"is_disabled": 0, "lat": 38.9375155, "bike_id": "292effef01dbdcb56ace8f5642347860", "is_reserved": 0, "rental_uris": {"ios": "https://dc.lft.to/lastmile_qr_scan", "android": "https://dc.lft.to/lastmile_qr_scan"}, "name": "292effef01dbdcb56ace8f5642347860", "fusion_lon": 0.0, "fusion_lat": 0.0, "lon": -77.03265783333333, "type": "electric_scooter"}, {"is_disabled": 0, "lat": 38.902675333333335, "bike_id": "3fc5fdb29408e1f1557425dde8fe3ba6", "is_reserved": 0, "rental_uris": {"ios": "https://dc.lft.to/lastmile_qr_scan", "android": "https://dc.lft.to/lastmile_qr_scan"}, "name": "3fc5fdb29408e1f1557425dde8fe3ba6", "fusion_lon": 0.0, "fusion_lat": 0.0, "lon": -77.02819416666667, "type": "electric_scooter"}, {"is_disabled": 0, "lat": 38.907960833333334, "bike_id": "59315c3d27cdde52c6765378416a8058", "is_reserved": 0, "rental_uris": {"ios": "https://dc.lft.to/lastmile_qr_scan", "android": "https://dc.lft.to/lastmile_qr_scan"}, "name": "59315c3d27cdde52c6765378416a8058", "fusion_lon": 0.0, "fusion_lat": 0.0, "lon": -77.04488833333333, "type": "electric_scooter"}, {"is_disabled": 0, "lat": 38.90447916666667, "bike_id": "602a822665694e76c634c7fb460ab6cc", "is_reserved": 0, "rental_uris": {"ios": "https://dc.lft.to/lastmile_qr_scan", "android": "https://dc.lft.to/lastmile_qr_scan"}, "name": "602a822665694e76c634c7fb460ab6cc", "fusion_lon": 0.0, "fusion_lat": 0.0, "lon": -77.0365815, "type": "electric_scooter"}, {"is_disabled": 0, "lat": 38.940432, "bike_id": "6f22aa60f67e1b4bd429871fc22c9b4b", "is_reserved": 0, "rental_uris": {"ios": "https://dc.lft.to/lastmile_qr_scan", "android": "https://dc.lft.to/lastmile_qr_scan"}, "name": "6f22aa60f67e1b4bd429871fc22c9b4b", "fusion_lon": 0.0, "fusion_lat": 0.0, "lon": -77.01763083333333, "type": "electric_scooter"}, {"is_disabled": 0, "lat": 38.923307333333334, "bike_id": "f8a842cf1f08247d29ad6c381fd3f9c0", "is_reserved": 0, "rental_uris": {"ios": "https://dc.lft.to/lastmile_qr_scan", "android": "https://dc.lft.to/lastmile_qr_scan"}, "name": "f8a842cf1f08247d29ad6c381fd3f9c0", "fusion_lon": 0.0, "fusion_lat": 0.0, "lon": -77.01961333333334, "type": "electric_scooter"}, {"is_disabled": 0, "lat": 38.92520066666667, "bike_id": "92f6305e41a1633c1824d2137faaf732", "is_reserved": 0, "rental_uris": {"ios": "https://dc.lft.to/lastmile_qr_scan", "android": "https://dc.lft.to/lastmile_qr_scan"}, "name": "92f6305e41a1633c1824d2137faaf732", "fusion_lon": 0.0, "fusion_lat": 0.0, "lon": -77.02965516666667, "type": "electric_scooter"}, {"is_disabled": 0, "lat": 38.89221766666667, "bike_id": "0a71ac116139e3f653a259c14b802651", "is_reserved": 0, "rental_uris": {"ios": "https://dc.lft.to/lastmile_qr_scan", "android": "https://dc.lft.to/lastmile_qr_scan"}, "name": "0a71ac116139e3f653a259c14b802651", "fusion_lon": 0.0, "fusion_lat": 0.0, "lon": -77.04686433333333, "type": "electric_scooter"}, {"is_disabled": 0, "lat": 38.961862833333335, "bike_id": "ffeef4b6d5a46322e476019df653aed4", "is_reserved": 0, "rental_uris": {"ios": "https://dc.lft.to/lastmile_qr_scan", "android": "https://dc.lft.to/lastmile_qr_scan"}, "name": "ffeef4b6d5a46322e476019df653aed4", "fusion_lon": 0.0, "fusion_lat": 0.0, "lon": -77.0989905, "type": "electric_bike"}, {"is_disabled": 0, "lat": 38.87658483333333, "bike_id": "6e076a109b411ebc0890aa542a62129c", "is_reserved": 0, "rental_uris": {"ios": "https://dc.lft.to/lastmile_qr_scan", "android": "https://dc.lft.to/lastmile_qr_scan"}, "name": "6e076a109b411ebc0890aa542a62129c", "fusion_lon": 0.0, "fusion_lat": 0.0, "lon": -77.00955366666666, "type": "electric_scooter"}, {"is_disabled": 0, "lat": 38.90231083333333, "bike_id": "54a247cc2aa8810c1cef66067346adca", "is_reserved": 0, "rental_uris": {"ios": "https://dc.lft.to/lastmile_qr_scan", "android": "https://dc.lft.to/lastmile_qr_scan"}, "name": "54a247cc2aa8810c1cef66067346adca", "fusion_lon": 0.0, "fusion_lat": 0.0, "lon": -77.02280483333334, "type": "electric_scooter"}, {"is_disabled": 0, "lat": 38.90166966666666, "bike_id": "6b6588ebaa23ffc0926c01c2fc80d31c", "is_reserved": 0, "rental_uris": {"ios": "https://dc.lft.to/lastmile_qr_scan", "android": "https://dc.lft.to/lastmile_qr_scan"}, "name": "6b6588ebaa23ffc0926c01c2fc80d31c", "fusion_lon": 0.0, "fusion_lat": 0.0, "lon": -77.0405675, "type": "electric_scooter"}, {"is_disabled": 0, "lat": 38.89332116666667, "bike_id": "d1b4259c6cb67e9cb19266992a86ea19", "is_reserved": 0, "rental_uris": {"ios": "https://dc.lft.to/lastmile_qr_scan", "android": "https://dc.lft.to/lastmile_qr_scan"}, "name": "d1b4259c6cb67e9cb19266992a86ea19", "fusion_lon": 0.0, "fusion_lat": 0.0, "lon": -76.92890833333334, "type": "electric_scooter"}, {"is_disabled": 0, "lat": 38.922239, "bike_id": "1cf7cbb6c9f3976fb41eddc02d10a02d", "is_reserved": 0, "rental_uris": {"ios": "https://dc.lft.to/lastmile_qr_scan", "android": "https://dc.lft.to/lastmile_qr_scan"}, "name": "1cf7cbb6c9f3976fb41eddc02d10a02d", "fusion_lon": 0.0, "fusion_lat": 0.0, "lon": -77.042408, "type": "electric_scooter"}, {"is_disabled": 0, "lat": 38.91617433333333, "bike_id": "a026a4e1951b86b049f82a65515f3ad8", "is_reserved": 0, "rental_uris": {"ios": "https://dc.lft.to/lastmile_qr_scan", "android": "https://dc.lft.to/lastmile_qr_scan"}, "name": "a026a4e1951b86b049f82a65515f3ad8", "fusion_lon": 0.0, "fusion_lat": 0.0, "lon": -77.00288533333334, "type": "electric_bike"}, {"is_disabled": 0, "lat": 38.921532166666665, "bike_id": "f683cb84733cc5955e19113e178f2407", "is_reserved": 0, "rental_uris": {"ios": "https://dc.lft.to/lastmile_qr_scan", "android": "https://dc.lft.to/lastmile_qr_scan"}, "name": "f683cb84733cc5955e19113e178f2407", "fusion_lon": 0.0, "fusion_lat": 0.0, "lon": -77.038704, "type": "electric_scooter"}, {"is_disabled": 0, "lat": 38.901857166666666, "bike_id": "459c27cb4ba99dee1084216b7f96b56c", "is_reserved": 0, "rental_uris": {"ios": "https://dc.lft.to/lastmile_qr_scan", "android": "https://dc.lft.to/lastmile_qr_scan"}, "name": "459c27cb4ba99dee1084216b7f96b56c", "fusion_lon": 0.0, "fusion_lat": 0.0, "lon": -77.02598183333333, "type": "electric_scooter"}, {"is_disabled": 0, "lat": 38.932899666666664, "bike_id": "f47378c3c3e29ffc03d86e7f9dbad431", "is_reserved": 0, "rental_uris": {"ios": "https://dc.lft.to/lastmile_qr_scan", "android": "https://dc.lft.to/lastmile_qr_scan"}, "name": "f47378c3c3e29ffc03d86e7f9dbad431", "fusion_lon": 0.0, "fusion_lat": 0.0, "lon": -77.036185, "type": "electric_scooter"}, {"is_disabled": 0, "lat": 38.91204533333333, "bike_id": "37069eaeab8eefee96495654c691bc42", "is_reserved": 0, "rental_uris": {"ios": "https://dc.lft.to/lastmile_qr_scan", "android": "https://dc.lft.to/lastmile_qr_scan"}, "name": "37069eaeab8eefee96495654c691bc42", "fusion_lon": 0.0, "fusion_lat": 0.0, "lon": -76.9876155, "type": "electric_scooter"}, {"is_disabled": 0, "lat": 38.841932666666665, "bike_id": "92e021e65378c69f22512186abec2128", "is_reserved": 0, "rental_uris": {"ios": "https://dc.lft.to/lastmile_qr_scan", "android": "https://dc.lft.to/lastmile_qr_scan"}, "name": "92e021e65378c69f22512186abec2128", "fusion_lon": 0.0, "fusion_lat": 0.0, "lon": -77.0775135, "type": "electric_bike"}, {"is_disabled": 0, "lat": 38.905250833333334, "bike_id": "82273acdd3c337ab62ea154dc2f29f3c", "is_reserved": 0, "rental_uris": {"ios": "https://dc.lft.to/lastmile_qr_scan", "android": "https://dc.lft.to/lastmile_qr_scan"}, "name": "82273acdd3c337ab62ea154dc2f29f3c", "fusion_lon": 0.0, "fusion_lat": 0.0, "lon": -77.066015, "type": "electric_scooter"}, {"is_disabled": 0, "lat": 38.88139366666667, "bike_id": "a96b63214a780283c6add57187f3d655", "is_reserved": 0, "rental_uris": {"ios": "https://dc.lft.to/lastmile_qr_scan", "android": "https://dc.lft.to/lastmile_qr_scan"}, "name": "a96b63214a780283c6add57187f3d655", "fusion_lon": 0.0, "fusion_lat": 0.0, "lon": -77.02275233333333, "type": "electric_scooter"}, {"is_disabled": 0, "lat": 38.89972183333333, "bike_id": "986f181c0ea9c69f83b61baf521d0fe9", "is_reserved": 0, "rental_uris": {"ios": "https://dc.lft.to/lastmile_qr_scan", "android": "https://dc.lft.to/lastmile_qr_scan"}, "name": "986f181c0ea9c69f83b61baf521d0fe9", "fusion_lon": 0.0, "fusion_lat": 0.0, "lon": -77.02942, "type": "electric_scooter"}, {"is_disabled": 0, "lat": 38.8936335, "bike_id": "536ba4863c9bdf2f39757f4ae99eee04", "is_reserved": 0, "rental_uris": {"ios": "https://dc.lft.to/lastmile_qr_scan", "android": "https://dc.lft.to/lastmile_qr_scan"}, "name": "536ba4863c9bdf2f39757f4ae99eee04", "fusion_lon": 0.0, "fusion_lat": 0.0, "lon": -76.98903783333333, "type": "electric_bike"}, {"is_disabled": 0, "lat": 38.88304733333333, "bike_id": "fb570f5f208725b4b9a7e2decb493bdf", "is_reserved": 0, "rental_uris": {"ios": "https://dc.lft.to/lastmile_qr_scan", "android": "https://dc.lft.to/lastmile_qr_scan"}, "name": "fb570f5f208725b4b9a7e2decb493bdf", "fusion_lon": 0.0, "fusion_lat": 0.0, "lon": -76.94853016666667, "type": "electric_scooter"}, {"is_disabled": 0, "lat": 38.879949333333336, "bike_id": "3755dfe09e1f7bf59883a58426b65fe2", "is_reserved": 0, "rental_uris": {"ios": "https://dc.lft.to/lastmile_qr_scan", "android": "https://dc.lft.to/lastmile_qr_scan"}, "name": "3755dfe09e1f7bf59883a58426b65fe2", "fusion_lon": 0.0, "fusion_lat": 0.0, "lon": -77.03740183333333, "type": "electric_scooter"}, {"is_disabled": 0, "lat": 38.9409545, "bike_id": "4ca3ae20589d124f83b33bab498b180f", "is_reserved": 0, "rental_uris": {"ios": "https://dc.lft.to/lastmile_qr_scan", "android": "https://dc.lft.to/lastmile_qr_scan"}, "name": "4ca3ae20589d124f83b33bab498b180f", "fusion_lon": 0.0, "fusion_lat": 0.0, "lon": -77.03281116666666, "type": "electric_scooter"}, {"is_disabled": 0, "lat": 38.90551933333333, "bike_id": "e5538da28f7e72503e0974ca5eb80d5d", "is_reserved": 0, "rental_uris": {"ios": "https://dc.lft.to/lastmile_qr_scan", "android": "https://dc.lft.to/lastmile_qr_scan"}, "name": "e5538da28f7e72503e0974ca5eb80d5d", "fusion_lon": 0.0, "fusion_lat": 0.0, "lon": -77.0418715, "type": "electric_scooter"}, {"is_disabled": 0, "lat": 38.90798316666667, "bike_id": "d788529a4be38acee3297af9efa053e5", "is_reserved": 0, "rental_uris": {"ios": "https://dc.lft.to/lastmile_qr_scan", "android": "https://dc.lft.to/lastmile_qr_scan"}, "name": "d788529a4be38acee3297af9efa053e5", "fusion_lon": 0.0, "fusion_lat": 0.0, "lon": -77.00230533333334, "type": "electric_scooter"}, {"is_disabled": 0, "lat": 38.911756833333335, "bike_id": "9a777876ba5f247643774442dc6ed3fc", "is_reserved": 0, "rental_uris": {"ios": "https://dc.lft.to/lastmile_qr_scan", "android": "https://dc.lft.to/lastmile_qr_scan"}, "name": "9a777876ba5f247643774442dc6ed3fc", "fusion_lon": 0.0, "fusion_lat": 0.0, "lon": -77.00273683333333, "type": "electric_bike"}, {"is_disabled": 0, "lat": 38.9021925, "bike_id": "e04e48eeb4c6d9d227b08f5d5e0c6fe3", "is_reserved": 0, "rental_uris": {"ios": "https://dc.lft.to/lastmile_qr_scan", "android": "https://dc.lft.to/lastmile_qr_scan"}, "name": "e04e48eeb4c6d9d227b08f5d5e0c6fe3", "fusion_lon": 0.0, "fusion_lat": 0.0, "lon": -76.93174666666667, "type": "electric_bike"}, {"is_disabled": 0, "lat": 38.91721033333334, "bike_id": "d80a153e56b213154483f0c1e78a284d", "is_reserved": 0, "rental_uris": {"ios": "https://dc.lft.to/lastmile_qr_scan", "android": "https://dc.lft.to/lastmile_qr_scan"}, "name": "d80a153e56b213154483f0c1e78a284d", "fusion_lon": 0.0, "fusion_lat": 0.0, "lon": -77.04177366666667, "type": "electric_scooter"}, {"is_disabled": 0, "lat": 38.838665, "bike_id": "896743f0da93cecc213ad7979371c562", "is_reserved": 0, "rental_uris": {"ios": "https://dc.lft.to/lastmile_qr_scan", "android": "https://dc.lft.to/lastmile_qr_scan"}, "name": "896743f0da93cecc213ad7979371c562", "fusion_lon": 0.0, "fusion_lat": 0.0, "lon": -76.99698516666666, "type": "electric_bike"}, {"is_disabled": 0, "lat": 38.90678333333334, "bike_id": "4ee14a670b1444ef9c8858e12d6a183e", "is_reserved": 0, "rental_uris": {"ios": "https://dc.lft.to/lastmile_qr_scan", "android": "https://dc.lft.to/lastmile_qr_scan"}, "name": "4ee14a670b1444ef9c8858e12d6a183e", "fusion_lon": 0.0, "fusion_lat": 0.0, "lon": -76.97937, "type": "electric_scooter"}, {"is_disabled": 0, "lat": 38.887471, "bike_id": "9b9b6e9d959638fa59987a5f5a02eb89", "is_reserved": 0, "rental_uris": {"ios": "https://dc.lft.to/lastmile_qr_scan", "android": "https://dc.lft.to/lastmile_qr_scan"}, "name": "9b9b6e9d959638fa59987a5f5a02eb89", "fusion_lon": 0.0, "fusion_lat": 0.0, "lon": -77.028417, "type": "electric_scooter"}, {"is_disabled": 0, "lat": 38.928751166666665, "bike_id": "d41238f4ab4e81eb7f3aa42f5f907851", "is_reserved": 0, "rental_uris": {"ios": "https://dc.lft.to/lastmile_qr_scan", "android": "https://dc.lft.to/lastmile_qr_scan"}, "name": "d41238f4ab4e81eb7f3aa42f5f907851", "fusion_lon": 0.0, "fusion_lat": 0.0, "lon": -77.0334135, "type": "electric_scooter"}, {"is_disabled": 0, "lat": 38.91419533333333, "bike_id": "3104d6d75b71e5c70f20ecfc9598345a", "is_reserved": 0, "rental_uris": {"ios": "https://dc.lft.to/lastmile_qr_scan", "android": "https://dc.lft.to/lastmile_qr_scan"}, "name": "3104d6d75b71e5c70f20ecfc9598345a", "fusion_lon": 0.0, "fusion_lat": 0.0, "lon": -77.022011, "type": "electric_scooter"}, {"is_disabled": 0, "lat": 39.010762, "bike_id": "f77bd2ce05a63c4c237c2c9a6f55473b", "is_reserved": 0, "rental_uris": {"ios": "https://dc.lft.to/lastmile_qr_scan", "android": "https://dc.lft.to/lastmile_qr_scan"}, "name": "f77bd2ce05a63c4c237c2c9a6f55473b", "fusion_lon": 0.0, "fusion_lat": 0.0, "lon": -76.910622, "type": "electric_bike"}, {"is_disabled": 0, "lat": 38.89510033333333, "bike_id": "54f6ea558e9f6768a264ca26fbc0cbef", "is_reserved": 0, "rental_uris": {"ios": "https://dc.lft.to/lastmile_qr_scan", "android": "https://dc.lft.to/lastmile_qr_scan"}, "name": "54f6ea558e9f6768a264ca26fbc0cbef", "fusion_lon": 0.0, "fusion_lat": 0.0, "lon": -76.99504166666667, "type": "electric_scooter"}, {"is_disabled": 0, "lat": 38.915888333333335, "bike_id": "ff126830000815f5cc3cb1687d376230", "is_reserved": 0, "rental_uris": {"ios": "https://dc.lft.to/lastmile_qr_scan", "android": "https://dc.lft.to/lastmile_qr_scan"}, "name": "ff126830000815f5cc3cb1687d376230", "fusion_lon": 0.0, "fusion_lat": 0.0, "lon": -77.020008, "type": "electric_scooter"}, {"is_disabled": 0, "lat": 38.901413, "bike_id": "426ddc3d10cefc471ebc9dacd986ca02", "is_reserved": 0, "rental_uris": {"ios": "https://dc.lft.to/lastmile_qr_scan", "android": "https://dc.lft.to/lastmile_qr_scan"}, "name": "426ddc3d10cefc471ebc9dacd986ca02", "fusion_lon": 0.0, "fusion_lat": 0.0, "lon": -77.0386835, "type": "electric_scooter"}, {"is_disabled": 0, "lat": 38.922529833333336, "bike_id": "e82483ba219e55c57890021167d73ee7", "is_reserved": 0, "rental_uris": {"ios": "https://dc.lft.to/lastmile_qr_scan", "android": "https://dc.lft.to/lastmile_qr_scan"}, "name": "e82483ba219e55c57890021167d73ee7", "fusion_lon": 0.0, "fusion_lat": 0.0, "lon": -77.03065133333334, "type": "electric_scooter"}, {"is_disabled": 0, "lat": 38.93285483333333, "bike_id": "8e59da3ae779ffca3cb9f2f42f3aca6b", "is_reserved": 0, "rental_uris": {"ios": "https://dc.lft.to/lastmile_qr_scan", "android": "https://dc.lft.to/lastmile_qr_scan"}, "name": "8e59da3ae779ffca3cb9f2f42f3aca6b", "fusion_lon": 0.0, "fusion_lat": 0.0, "lon": -77.034805, "type": "electric_scooter"}, {"is_disabled": 0, "lat": 38.90249583333333, "bike_id": "92f769c3413164eff69c768d4bb16b5e", "is_reserved": 0, "rental_uris": {"ios": "https://dc.lft.to/lastmile_qr_scan", "android": "https://dc.lft.to/lastmile_qr_scan"}, "name": "92f769c3413164eff69c768d4bb16b5e", "fusion_lon": 0.0, "fusion_lat": 0.0, "lon": -77.02636066666666, "type": "electric_scooter"}, {"is_disabled": 0, "lat": 38.924753833333334, "bike_id": "bec6f0bdc348acdaec04e0c1e4d468c5", "is_reserved": 0, "rental_uris": {"ios": "https://dc.lft.to/lastmile_qr_scan", "android": "https://dc.lft.to/lastmile_qr_scan"}, "name": "bec6f0bdc348acdaec04e0c1e4d468c5", "fusion_lon": 0.0, "fusion_lat": 0.0, "lon": -77.02201766666667, "type": "electric_scooter"}, {"is_disabled": 0, "lat": 38.9170025, "bike_id": "53957f9f5a8100547a10d910c0cb8ac1", "is_reserved": 0, "rental_uris": {"ios": "https://dc.lft.to/lastmile_qr_scan", "android": "https://dc.lft.to/lastmile_qr_scan"}, "name": "53957f9f5a8100547a10d910c0cb8ac1", "fusion_lon": 0.0, "fusion_lat": 0.0, "lon": -77.02526083333333, "type": "electric_scooter"}, {"is_disabled": 0, "lat": 38.91127016666667, "bike_id": "c61b1468b2f01ea0eef36b81ac7fafe4", "is_reserved": 0, "rental_uris": {"ios": "https://dc.lft.to/lastmile_qr_scan", "android": "https://dc.lft.to/lastmile_qr_scan"}, "name": "c61b1468b2f01ea0eef36b81ac7fafe4", "fusion_lon": 0.0, "fusion_lat": 0.0, "lon": -77.0219525, "type": "electric_scooter"}, {"is_disabled": 0, "lat": 38.89613166666667, "bike_id": "2efd6c6e79f37c170e00cb2176a3c815", "is_reserved": 0, "rental_uris": {"ios": "https://dc.lft.to/lastmile_qr_scan", "android": "https://dc.lft.to/lastmile_qr_scan"}, "name": "2efd6c6e79f37c170e00cb2176a3c815", "fusion_lon": 0.0, "fusion_lat": 0.0, "lon": -77.02209766666667, "type": "electric_scooter"}, {"is_disabled": 0, "lat": 38.91271066666667, "bike_id": "8c62339a41ebe7a91912ea4a6f00f748", "is_reserved": 0, "rental_uris": {"ios": "https://dc.lft.to/lastmile_qr_scan", "android": "https://dc.lft.to/lastmile_qr_scan"}, "name": "8c62339a41ebe7a91912ea4a6f00f748", "fusion_lon": 0.0, "fusion_lat": 0.0, "lon": -77.0222665, "type": "electric_scooter"}, {"is_disabled": 0, "lat": 38.900763833333336, "bike_id": "a7f8a82874561352c7aa5cac06ffb50a", "is_reserved": 0, "rental_uris": {"ios": "https://dc.lft.to/lastmile_qr_scan", "android": "https://dc.lft.to/lastmile_qr_scan"}, "name": "a7f8a82874561352c7aa5cac06ffb50a", "fusion_lon": 0.0, "fusion_lat": 0.0, "lon": -77.05010766666666, "type": "electric_scooter"}, {"is_disabled": 0, "lat": 38.92796333333333, "bike_id": "3142157c05deea78521cf02b03492acc", "is_reserved": 0, "rental_uris": {"ios": "https://dc.lft.to/lastmile_qr_scan", "android": "https://dc.lft.to/lastmile_qr_scan"}, "name": "3142157c05deea78521cf02b03492acc", "fusion_lon": 0.0, "fusion_lat": 0.0, "lon": -77.01551716666667, "type": "electric_scooter"}, {"is_disabled": 0, "lat": 38.91117166666667, "bike_id": "50c3a731274a3b76348eb6961a3da7ec", "is_reserved": 0, "rental_uris": {"ios": "https://dc.lft.to/lastmile_qr_scan", "android": "https://dc.lft.to/lastmile_qr_scan"}, "name": "50c3a731274a3b76348eb6961a3da7ec", "fusion_lon": 0.0, "fusion_lat": 0.0, "lon": -77.038621, "type": "electric_scooter"}, {"is_disabled": 0, "lat": 38.91351683333333, "bike_id": "4bca350981a9f27173d10507ebd7fe2e", "is_reserved": 0, "rental_uris": {"ios": "https://dc.lft.to/lastmile_qr_scan", "android": "https://dc.lft.to/lastmile_qr_scan"}, "name": "4bca350981a9f27173d10507ebd7fe2e", "fusion_lon": 0.0, "fusion_lat": 0.0, "lon": -77.03203683333334, "type": "electric_scooter"}, {"is_disabled": 0, "lat": 38.804793, "bike_id": "575337d4c95bff3c07a4e5266af3f1d2", "is_reserved": 0, "rental_uris": {"ios": "https://dc.lft.to/lastmile_qr_scan", "android": "https://dc.lft.to/lastmile_qr_scan"}, "name": "575337d4c95bff3c07a4e5266af3f1d2", "fusion_lon": 0.0, "fusion_lat": 0.0, "lon": -76.991059, "type": "electric_bike"}, {"is_disabled": 0, "lat": 38.9588525, "bike_id": "06ab62a46fccb0aba06f722858c046c2", "is_reserved": 0, "rental_uris": {"ios": "https://dc.lft.to/lastmile_qr_scan", "android": "https://dc.lft.to/lastmile_qr_scan"}, "name": "06ab62a46fccb0aba06f722858c046c2", "fusion_lon": 0.0, "fusion_lat": 0.0, "lon": -76.98097066666666, "type": "electric_bike"}, {"is_disabled": 0, "lat": 38.919652, "bike_id": "8a3c7806983221ae51493acf4525694a", "is_reserved": 0, "rental_uris": {"ios": "https://dc.lft.to/lastmile_qr_scan", "android": "https://dc.lft.to/lastmile_qr_scan"}, "name": "8a3c7806983221ae51493acf4525694a", "fusion_lon": 0.0, "fusion_lat": 0.0, "lon": -77.04240833333333, "type": "electric_scooter"}, {"is_disabled": 0, "lat": 38.90056216666667, "bike_id": "0fc6652f03bb02a934ce032a85fbc615", "is_reserved": 0, "rental_uris": {"ios": "https://dc.lft.to/lastmile_qr_scan", "android": "https://dc.lft.to/lastmile_qr_scan"}, "name": "0fc6652f03bb02a934ce032a85fbc615", "fusion_lon": 0.0, "fusion_lat": 0.0, "lon": -77.01372233333333, "type": "electric_scooter"}, {"is_disabled": 0, "lat": 38.85797133333333, "bike_id": "21cbe58e63bc1f0ecb599a06ffe9055d", "is_reserved": 0, "rental_uris": {"ios": "https://dc.lft.to/lastmile_qr_scan", "android": "https://dc.lft.to/lastmile_qr_scan"}, "name": "21cbe58e63bc1f0ecb599a06ffe9055d", "fusion_lon": 0.0, "fusion_lat": 0.0, "lon": -76.98750233333334, "type": "electric_bike"}, {"is_disabled": 0, "lat": 38.902083833333336, "bike_id": "63ec70c93bb4538592381ce118866889", "is_reserved": 0, "rental_uris": {"ios": "https://dc.lft.to/lastmile_qr_scan", "android": "https://dc.lft.to/lastmile_qr_scan"}, "name": "63ec70c93bb4538592381ce118866889", "fusion_lon": 0.0, "fusion_lat": 0.0, "lon": -77.05129566666666, "type": "electric_scooter"}, {"is_disabled": 0, "lat": 38.922366333333336, "bike_id": "ceaed89afdea6ede02189713aa6ebc08", "is_reserved": 0, "rental_uris": {"ios": "https://dc.lft.to/lastmile_qr_scan", "android": "https://dc.lft.to/lastmile_qr_scan"}, "name": "ceaed89afdea6ede02189713aa6ebc08", "fusion_lon": 0.0, "fusion_lat": 0.0, "lon": -77.0401705, "type": "electric_scooter"}, {"is_disabled": 0, "lat": 38.89905266666667, "bike_id": "4aaff536e346612a1e213926128c5061", "is_reserved": 0, "rental_uris": {"ios": "https://dc.lft.to/lastmile_qr_scan", "android": "https://dc.lft.to/lastmile_qr_scan"}, "name": "4aaff536e346612a1e213926128c5061", "fusion_lon": 0.0, "fusion_lat": 0.0, "lon": -77.0404365, "type": "electric_scooter"}, {"is_disabled": 0, "lat": 39.026217833333334, "bike_id": "aa141f045955f4dcf346a279500b2ee0", "is_reserved": 0, "rental_uris": {"ios": "https://dc.lft.to/lastmile_qr_scan", "android": "https://dc.lft.to/lastmile_qr_scan"}, "name": "aa141f045955f4dcf346a279500b2ee0", "fusion_lon": 0.0, "fusion_lat": 0.0, "lon": -77.038799, "type": "electric_bike"}, {"is_disabled": 0, "lat": 38.925829666666665, "bike_id": "8cc5ee5b20742f1bb6f254fc90deaa93", "is_reserved": 0, "rental_uris": {"ios": "https://dc.lft.to/lastmile_qr_scan", "android": "https://dc.lft.to/lastmile_qr_scan"}, "name": "8cc5ee5b20742f1bb6f254fc90deaa93", "fusion_lon": 0.0, "fusion_lat": 0.0, "lon": -77.03632633333334, "type": "electric_scooter"}, {"is_disabled": 0, "lat": 38.846765, "bike_id": "a8dac6025570acd6a7d98b5ed9e64407", "is_reserved": 0, "rental_uris": {"ios": "https://dc.lft.to/lastmile_qr_scan", "android": "https://dc.lft.to/lastmile_qr_scan"}, "name": "a8dac6025570acd6a7d98b5ed9e64407", "fusion_lon": 0.0, "fusion_lat": 0.0, "lon": -77.13935016666667, "type": "electric_bike"}, {"is_disabled": 0, "lat": 38.915566166666665, "bike_id": "6c91e70550e85429596153cccdc861c4", "is_reserved": 0, "rental_uris": {"ios": "https://dc.lft.to/lastmile_qr_scan", "android": "https://dc.lft.to/lastmile_qr_scan"}, "name": "6c91e70550e85429596153cccdc861c4", "fusion_lon": 0.0, "fusion_lat": 0.0, "lon": -77.0510125, "type": "electric_scooter"}, {"is_disabled": 0, "lat": 38.91999916666666, "bike_id": "52a3b6eb12273476a1a07cd202bdb1b8", "is_reserved": 0, "rental_uris": {"ios": "https://dc.lft.to/lastmile_qr_scan", "android": "https://dc.lft.to/lastmile_qr_scan"}, "name": "52a3b6eb12273476a1a07cd202bdb1b8", "fusion_lon": 0.0, "fusion_lat": 0.0, "lon": -77.02161983333333, "type": "electric_scooter"}, {"is_disabled": 0, "lat": 38.93259366666667, "bike_id": "23df3ed391abd0f26efaf66839779cb8", "is_reserved": 0, "rental_uris": {"ios": "https://dc.lft.to/lastmile_qr_scan", "android": "https://dc.lft.to/lastmile_qr_scan"}, "name": "23df3ed391abd0f26efaf66839779cb8", "fusion_lon": 0.0, "fusion_lat": 0.0, "lon": -77.02089066666667, "type": "electric_scooter"}, {"is_disabled": 0, "lat": 38.884897333333335, "bike_id": "ec0a4ef7f2a42cbc50c2c16df59b4c18", "is_reserved": 0, "rental_uris": {"ios": "https://dc.lft.to/lastmile_qr_scan", "android": "https://dc.lft.to/lastmile_qr_scan"}, "name": "ec0a4ef7f2a42cbc50c2c16df59b4c18", "fusion_lon": 0.0, "fusion_lat": 0.0, "lon": -77.03473616666666, "type": "electric_scooter"}, {"is_disabled": 0, "lat": 38.907312833333336, "bike_id": "b59ab5c0b11201ae56b00337efee37f8", "is_reserved": 0, "rental_uris": {"ios": "https://dc.lft.to/lastmile_qr_scan", "android": "https://dc.lft.to/lastmile_qr_scan"}, "name": "b59ab5c0b11201ae56b00337efee37f8", "fusion_lon": 0.0, "fusion_lat": 0.0, "lon": -77.05024933333333, "type": "electric_scooter"}, {"is_disabled": 0, "lat": 38.9104975, "bike_id": "7f6d45f02ed64529e0965c399baaa668", "is_reserved": 0, "rental_uris": {"ios": "https://dc.lft.to/lastmile_qr_scan", "android": "https://dc.lft.to/lastmile_qr_scan"}, "name": "7f6d45f02ed64529e0965c399baaa668", "fusion_lon": 0.0, "fusion_lat": 0.0, "lon": -77.00997583333333, "type": "electric_scooter"}, {"is_disabled": 0, "lat": 38.92839716666667, "bike_id": "ef4092b9e585bcfd8378aec91003c1bb", "is_reserved": 0, "rental_uris": {"ios": "https://dc.lft.to/lastmile_qr_scan", "android": "https://dc.lft.to/lastmile_qr_scan"}, "name": "ef4092b9e585bcfd8378aec91003c1bb", "fusion_lon": 0.0, "fusion_lat": 0.0, "lon": -77.05418983333334, "type": "electric_scooter"}, {"is_disabled": 0, "lat": 38.91419, "bike_id": "c5a09eb82ac8c1aac6e15b6094653f9b", "is_reserved": 0, "rental_uris": {"ios": "https://dc.lft.to/lastmile_qr_scan", "android": "https://dc.lft.to/lastmile_qr_scan"}, "name": "c5a09eb82ac8c1aac6e15b6094653f9b", "fusion_lon": 0.0, "fusion_lat": 0.0, "lon": -77.02224383333333, "type": "electric_scooter"}, {"is_disabled": 0, "lat": 38.889670333333335, "bike_id": "d960e34281238bebe8968270d7f3faa2", "is_reserved": 0, "rental_uris": {"ios": "https://dc.lft.to/lastmile_qr_scan", "android": "https://dc.lft.to/lastmile_qr_scan"}, "name": "d960e34281238bebe8968270d7f3faa2", "fusion_lon": 0.0, "fusion_lat": 0.0, "lon": -76.98034283333334, "type": "electric_scooter"}, {"is_disabled": 0, "lat": 38.911231666666666, "bike_id": "b0a587c236eb1b889cacc1bdef6ea9ef", "is_reserved": 0, "rental_uris": {"ios": "https://dc.lft.to/lastmile_qr_scan", "android": "https://dc.lft.to/lastmile_qr_scan"}, "name": "b0a587c236eb1b889cacc1bdef6ea9ef", "fusion_lon": 0.0, "fusion_lat": 0.0, "lon": -77.038309, "type": "electric_scooter"}, {"is_disabled": 0, "lat": 38.94179783333333, "bike_id": "8c33bb76c8568a61144250ad04ad4cee", "is_reserved": 0, "rental_uris": {"ios": "https://dc.lft.to/lastmile_qr_scan", "android": "https://dc.lft.to/lastmile_qr_scan"}, "name": "8c33bb76c8568a61144250ad04ad4cee", "fusion_lon": 0.0, "fusion_lat": 0.0, "lon": -77.03148783333333, "type": "electric_scooter"}, {"is_disabled": 0, "lat": 38.89013383333333, "bike_id": "bbee27fff86ba6dcbd2f8ccbb4c7bd99", "is_reserved": 0, "rental_uris": {"ios": "https://dc.lft.to/lastmile_qr_scan", "android": "https://dc.lft.to/lastmile_qr_scan"}, "name": "bbee27fff86ba6dcbd2f8ccbb4c7bd99", "fusion_lon": 0.0, "fusion_lat": 0.0, "lon": -76.9373095, "type": "electric_scooter"}, {"is_disabled": 0, "lat": 38.899832333333336, "bike_id": "1188161c0910035c3ce71c9f0c700860", "is_reserved": 0, "rental_uris": {"ios": "https://dc.lft.to/lastmile_qr_scan", "android": "https://dc.lft.to/lastmile_qr_scan"}, "name": "1188161c0910035c3ce71c9f0c700860", "fusion_lon": 0.0, "fusion_lat": 0.0, "lon": -77.03085716666666, "type": "electric_scooter"}, {"is_disabled": 0, "lat": 38.894494333333334, "bike_id": "b0904f0a48938aaf823cf82f5599a13c", "is_reserved": 0, "rental_uris": {"ios": "https://dc.lft.to/lastmile_qr_scan", "android": "https://dc.lft.to/lastmile_qr_scan"}, "name": "b0904f0a48938aaf823cf82f5599a13c", "fusion_lon": 0.0, "fusion_lat": 0.0, "lon": -77.15825133333334, "type": "electric_bike"}, {"is_disabled": 0, "lat": 38.91641283333333, "bike_id": "12e714dbda136ed6bbdc8ffda8eb861f", "is_reserved": 0, "rental_uris": {"ios": "https://dc.lft.to/lastmile_qr_scan", "android": "https://dc.lft.to/lastmile_qr_scan"}, "name": "12e714dbda136ed6bbdc8ffda8eb861f", "fusion_lon": 0.0, "fusion_lat": 0.0, "lon": -77.02082133333333, "type": "electric_scooter"}, {"is_disabled": 0, "lat": 38.911297, "bike_id": "22512c6771a8bb7e2b55bd256101b380", "is_reserved": 0, "rental_uris": {"ios": "https://dc.lft.to/lastmile_qr_scan", "android": "https://dc.lft.to/lastmile_qr_scan"}, "name": "22512c6771a8bb7e2b55bd256101b380", "fusion_lon": 0.0, "fusion_lat": 0.0, "lon": -77.02199716666667, "type": "electric_scooter"}, {"is_disabled": 0, "lat": 38.93523366666667, "bike_id": "cf3c27bc974a014a9ca0f7eb8a437f4b", "is_reserved": 0, "rental_uris": {"ios": "https://dc.lft.to/lastmile_qr_scan", "android": "https://dc.lft.to/lastmile_qr_scan"}, "name": "cf3c27bc974a014a9ca0f7eb8a437f4b", "fusion_lon": 0.0, "fusion_lat": 0.0, "lon": -77.03812233333333, "type": "electric_scooter"}, {"is_disabled": 0, "lat": 38.921494, "bike_id": "c982d1e17f3cc7fe3d9f4043a2d93c3f", "is_reserved": 0, "rental_uris": {"ios": "https://dc.lft.to/lastmile_qr_scan", "android": "https://dc.lft.to/lastmile_qr_scan"}, "name": "c982d1e17f3cc7fe3d9f4043a2d93c3f", "fusion_lon": 0.0, "fusion_lat": 0.0, "lon": -77.03868433333334, "type": "electric_scooter"}, {"is_disabled": 0, "lat": 38.96504383333333, "bike_id": "85d6811a2b491eee0fa61923b2468901", "is_reserved": 0, "rental_uris": {"ios": "https://dc.lft.to/lastmile_qr_scan", "android": "https://dc.lft.to/lastmile_qr_scan"}, "name": "85d6811a2b491eee0fa61923b2468901", "fusion_lon": 0.0, "fusion_lat": 0.0, "lon": -77.0336415, "type": "electric_bike"}, {"is_disabled": 0, "lat": 38.933882833333335, "bike_id": "ad3ae3967e585187c9ecb578a487a9e5", "is_reserved": 0, "rental_uris": {"ios": "https://dc.lft.to/lastmile_qr_scan", "android": "https://dc.lft.to/lastmile_qr_scan"}, "name": "ad3ae3967e585187c9ecb578a487a9e5", "fusion_lon": 0.0, "fusion_lat": 0.0, "lon": -77.020719, "type": "electric_scooter"}, {"is_disabled": 0, "lat": 38.8865615, "bike_id": "54038f02bac87225df94c6c9b6470be3", "is_reserved": 0, "rental_uris": {"ios": "https://dc.lft.to/lastmile_qr_scan", "android": "https://dc.lft.to/lastmile_qr_scan"}, "name": "54038f02bac87225df94c6c9b6470be3", "fusion_lon": 0.0, "fusion_lat": 0.0, "lon": -77.03388483333333, "type": "electric_scooter"}, {"is_disabled": 0, "lat": 38.89039266666666, "bike_id": "1eea23f5878538615c6abe39e03d409f", "is_reserved": 0, "rental_uris": {"ios": "https://dc.lft.to/lastmile_qr_scan", "android": "https://dc.lft.to/lastmile_qr_scan"}, "name": "1eea23f5878538615c6abe39e03d409f", "fusion_lon": 0.0, "fusion_lat": 0.0, "lon": -76.9375215, "type": "electric_scooter"}, {"is_disabled": 0, "lat": 38.892196, "bike_id": "5fe36fed69b6af119a4ca479557f32b6", "is_reserved": 0, "rental_uris": {"ios": "https://dc.lft.to/lastmile_qr_scan", "android": "https://dc.lft.to/lastmile_qr_scan"}, "name": "5fe36fed69b6af119a4ca479557f32b6", "fusion_lon": 0.0, "fusion_lat": 0.0, "lon": -77.048609, "type": "electric_scooter"}, {"is_disabled": 0, "lat": 38.876706, "bike_id": "1cf42c4353d8141e648f1221f60c6430", "is_reserved": 0, "rental_uris": {"ios": "https://dc.lft.to/lastmile_qr_scan", "android": "https://dc.lft.to/lastmile_qr_scan"}, "name": "1cf42c4353d8141e648f1221f60c6430", "fusion_lon": 0.0, "fusion_lat": 0.0, "lon": -77.00566983333333, "type": "electric_scooter"}, {"is_disabled": 0, "lat": 38.895020833333334, "bike_id": "cb973fa7e5e494a9cf88812e7d0149d2", "is_reserved": 0, "rental_uris": {"ios": "https://dc.lft.to/lastmile_qr_scan", "android": "https://dc.lft.to/lastmile_qr_scan"}, "name": "cb973fa7e5e494a9cf88812e7d0149d2", "fusion_lon": 0.0, "fusion_lat": 0.0, "lon": -77.04167266666667, "type": "electric_scooter"}, {"is_disabled": 0, "lat": 38.961736333333334, "bike_id": "f16ab46502184a091d4abda4dfafd755", "is_reserved": 0, "rental_uris": {"ios": "https://dc.lft.to/lastmile_qr_scan", "android": "https://dc.lft.to/lastmile_qr_scan"}, "name": "f16ab46502184a091d4abda4dfafd755", "fusion_lon": 0.0, "fusion_lat": 0.0, "lon": -77.03227866666667, "type": "electric_scooter"}, {"is_disabled": 0, "lat": 38.9122775, "bike_id": "cbc03188d99bc3ec6ab0c8583bc25ff3", "is_reserved": 0, "rental_uris": {"ios": "https://dc.lft.to/lastmile_qr_scan", "android": "https://dc.lft.to/lastmile_qr_scan"}, "name": "cbc03188d99bc3ec6ab0c8583bc25ff3", "fusion_lon": 0.0, "fusion_lat": 0.0, "lon": -77.07750066666667, "type": "electric_scooter"}, {"is_disabled": 0, "lat": 38.901915833333334, "bike_id": "1061e5930bc9749f9e7edacbd887ebea", "is_reserved": 0, "rental_uris": {"ios": "https://dc.lft.to/lastmile_qr_scan", "android": "https://dc.lft.to/lastmile_qr_scan"}, "name": "1061e5930bc9749f9e7edacbd887ebea", "fusion_lon": 0.0, "fusion_lat": 0.0, "lon": -77.05088233333333, "type": "electric_scooter"}, {"is_disabled": 0, "lat": 38.93072883333333, "bike_id": "072bd78b407417cbee0937fd2267d29b", "is_reserved": 0, "rental_uris": {"ios": "https://dc.lft.to/lastmile_qr_scan", "android": "https://dc.lft.to/lastmile_qr_scan"}, "name": "072bd78b407417cbee0937fd2267d29b", "fusion_lon": 0.0, "fusion_lat": 0.0, "lon": -77.02761766666667, "type": "electric_scooter"}, {"is_disabled": 0, "lat": 38.913473, "bike_id": "f5f5bb8919235183f03cf8d2bb4368ab", "is_reserved": 0, "rental_uris": {"ios": "https://dc.lft.to/lastmile_qr_scan", "android": "https://dc.lft.to/lastmile_qr_scan"}, "name": "f5f5bb8919235183f03cf8d2bb4368ab", "fusion_lon": 0.0, "fusion_lat": 0.0, "lon": -77.03201633333333, "type": "electric_scooter"}, {"is_disabled": 0, "lat": 38.917124666666666, "bike_id": "119a93735c55dc5722abde7609893de0", "is_reserved": 0, "rental_uris": {"ios": "https://dc.lft.to/lastmile_qr_scan", "android": "https://dc.lft.to/lastmile_qr_scan"}, "name": "119a93735c55dc5722abde7609893de0", "fusion_lon": 0.0, "fusion_lat": 0.0, "lon": -77.023868, "type": "electric_scooter"}, {"is_disabled": 0, "lat": 38.947243, "bike_id": "1ce100e710a09cad43f47a6c4a4bf04b", "is_reserved": 0, "rental_uris": {"ios": "https://dc.lft.to/lastmile_qr_scan", "android": "https://dc.lft.to/lastmile_qr_scan"}, "name": "1ce100e710a09cad43f47a6c4a4bf04b", "fusion_lon": 0.0, "fusion_lat": 0.0, "lon": -77.02354016666666, "type": "electric_scooter"}, {"is_disabled": 0, "lat": 38.917831166666666, "bike_id": "47d02f6d9471f9b1f189d4c9f4e3da7d", "is_reserved": 0, "rental_uris": {"ios": "https://dc.lft.to/lastmile_qr_scan", "android": "https://dc.lft.to/lastmile_qr_scan"}, "name": "47d02f6d9471f9b1f189d4c9f4e3da7d", "fusion_lon": 0.0, "fusion_lat": 0.0, "lon": -77.02466233333334, "type": "electric_scooter"}, {"is_disabled": 0, "lat": 38.929725833333336, "bike_id": "d1500509a3520476a96345d3180f0aa7", "is_reserved": 0, "rental_uris": {"ios": "https://dc.lft.to/lastmile_qr_scan", "android": "https://dc.lft.to/lastmile_qr_scan"}, "name": "d1500509a3520476a96345d3180f0aa7", "fusion_lon": 0.0, "fusion_lat": 0.0, "lon": -77.04198733333334, "type": "electric_scooter"}, {"is_disabled": 0, "lat": 38.895875, "bike_id": "584256bffaf1cd195ae744f829c5dc8d", "is_reserved": 0, "rental_uris": {"ios": "https://dc.lft.to/lastmile_qr_scan", "android": "https://dc.lft.to/lastmile_qr_scan"}, "name": "584256bffaf1cd195ae744f829c5dc8d", "fusion_lon": 0.0, "fusion_lat": 0.0, "lon": -77.02513083333334, "type": "electric_scooter"}, {"is_disabled": 0, "lat": 38.908549666666666, "bike_id": "882c84d487f2a6f4d094f092b33e54c5", "is_reserved": 0, "rental_uris": {"ios": "https://dc.lft.to/lastmile_qr_scan", "android": "https://dc.lft.to/lastmile_qr_scan"}, "name": "882c84d487f2a6f4d094f092b33e54c5", "fusion_lon": 0.0, "fusion_lat": 0.0, "lon": -77.04832366666666, "type": "electric_scooter"}, {"is_disabled": 0, "lat": 38.894936333333334, "bike_id": "00aba7c2773ffc5199c73fe170cfff01", "is_reserved": 0, "rental_uris": {"ios": "https://dc.lft.to/lastmile_qr_scan", "android": "https://dc.lft.to/lastmile_qr_scan"}, "name": "00aba7c2773ffc5199c73fe170cfff01", "fusion_lon": 0.0, "fusion_lat": 0.0, "lon": -77.0210075, "type": "electric_scooter"}, {"is_disabled": 0, "lat": 38.93873416666667, "bike_id": "a37fcf7d6691b81315f6388834d89999", "is_reserved": 0, "rental_uris": {"ios": "https://dc.lft.to/lastmile_qr_scan", "android": "https://dc.lft.to/lastmile_qr_scan"}, "name": "a37fcf7d6691b81315f6388834d89999", "fusion_lon": 0.0, "fusion_lat": 0.0, "lon": -77.0601545, "type": "electric_scooter"}, {"is_disabled": 0, "lat": 38.92131283333333, "bike_id": "140e9c3dbc668411c10e23996ee1fcac", "is_reserved": 0, "rental_uris": {"ios": "https://dc.lft.to/lastmile_qr_scan", "android": "https://dc.lft.to/lastmile_qr_scan"}, "name": "140e9c3dbc668411c10e23996ee1fcac", "fusion_lon": 0.0, "fusion_lat": 0.0, "lon": -77.0179865, "type": "electric_scooter"}, {"is_disabled": 0, "lat": 38.923652, "bike_id": "4892f85e21a355dfb22ef72534567e16", "is_reserved": 0, "rental_uris": {"ios": "https://dc.lft.to/lastmile_qr_scan", "android": "https://dc.lft.to/lastmile_qr_scan"}, "name": "4892f85e21a355dfb22ef72534567e16", "fusion_lon": 0.0, "fusion_lat": 0.0, "lon": -77.051273, "type": "electric_scooter"}, {"is_disabled": 0, "lat": 38.930605166666666, "bike_id": "4ed0bd5942f76c76025d5bfb7cda7d85", "is_reserved": 0, "rental_uris": {"ios": "https://dc.lft.to/lastmile_qr_scan", "android": "https://dc.lft.to/lastmile_qr_scan"}, "name": "4ed0bd5942f76c76025d5bfb7cda7d85", "fusion_lon": 0.0, "fusion_lat": 0.0, "lon": -77.043315, "type": "electric_scooter"}, {"is_disabled": 0, "lat": 38.906660333333335, "bike_id": "21de2b79fb2181793c9d3d8dd725dcb4", "is_reserved": 0, "rental_uris": {"ios": "https://dc.lft.to/lastmile_qr_scan", "android": "https://dc.lft.to/lastmile_qr_scan"}, "name": "21de2b79fb2181793c9d3d8dd725dcb4", "fusion_lon": 0.0, "fusion_lat": 0.0, "lon": -76.98596016666667, "type": "electric_scooter"}, {"is_disabled": 0, "lat": 38.96046416666667, "bike_id": "5be6d86fe9532e6d144e1c04c2a02969", "is_reserved": 0, "rental_uris": {"ios": "https://dc.lft.to/lastmile_qr_scan", "android": "https://dc.lft.to/lastmile_qr_scan"}, "name": "5be6d86fe9532e6d144e1c04c2a02969", "fusion_lon": 0.0, "fusion_lat": 0.0, "lon": -77.00508233333333, "type": "electric_scooter"}, {"is_disabled": 0, "lat": 38.90651833333333, "bike_id": "3ffece88db7311a5df5a1ef3d4b9b258", "is_reserved": 0, "rental_uris": {"ios": "https://dc.lft.to/lastmile_qr_scan", "android": "https://dc.lft.to/lastmile_qr_scan"}, "name": "3ffece88db7311a5df5a1ef3d4b9b258", "fusion_lon": 0.0, "fusion_lat": 0.0, "lon": -77.0387655, "type": "electric_scooter"}, {"is_disabled": 0, "lat": 38.912932, "bike_id": "1f5ec6560572580c528dbb3b14142255", "is_reserved": 0, "rental_uris": {"ios": "https://dc.lft.to/lastmile_qr_scan", "android": "https://dc.lft.to/lastmile_qr_scan"}, "name": "1f5ec6560572580c528dbb3b14142255", "fusion_lon": 0.0, "fusion_lat": 0.0, "lon": -76.93738583333334, "type": "electric_scooter"}, {"is_disabled": 0, "lat": 38.83610016666667, "bike_id": "fa2170072634ef1e0e16cfac078bd56c", "is_reserved": 0, "rental_uris": {"ios": "https://dc.lft.to/lastmile_qr_scan", "android": "https://dc.lft.to/lastmile_qr_scan"}, "name": "fa2170072634ef1e0e16cfac078bd56c", "fusion_lon": 0.0, "fusion_lat": 0.0, "lon": -77.00379716666667, "type": "electric_bike"}, {"is_disabled": 0, "lat": 38.90397033333333, "bike_id": "ae5044adafb8be95231fdf1abaf2ebdc", "is_reserved": 0, "rental_uris": {"ios": "https://dc.lft.to/lastmile_qr_scan", "android": "https://dc.lft.to/lastmile_qr_scan"}, "name": "ae5044adafb8be95231fdf1abaf2ebdc", "fusion_lon": 0.0, "fusion_lat": 0.0, "lon": -77.02818516666666, "type": "electric_scooter"}, {"is_disabled": 0, "lat": 38.95321966666667, "bike_id": "addea573a8771eb634006d7430bdde0a", "is_reserved": 0, "rental_uris": {"ios": "https://dc.lft.to/lastmile_qr_scan", "android": "https://dc.lft.to/lastmile_qr_scan"}, "name": "addea573a8771eb634006d7430bdde0a", "fusion_lon": 0.0, "fusion_lat": 0.0, "lon": -77.01577316666666, "type": "electric_bike"}, {"is_disabled": 0, "lat": 38.91118316666667, "bike_id": "42efdcb0608cecda4bd52fb2dd5326a8", "is_reserved": 0, "rental_uris": {"ios": "https://dc.lft.to/lastmile_qr_scan", "android": "https://dc.lft.to/lastmile_qr_scan"}, "name": "42efdcb0608cecda4bd52fb2dd5326a8", "fusion_lon": 0.0, "fusion_lat": 0.0, "lon": -77.04358683333334, "type": "electric_scooter"}, {"is_disabled": 0, "lat": 38.89838783333333, "bike_id": "9af998aa4b34294b15cc4bc2c898bc8f", "is_reserved": 0, "rental_uris": {"ios": "https://dc.lft.to/lastmile_qr_scan", "android": "https://dc.lft.to/lastmile_qr_scan"}, "name": "9af998aa4b34294b15cc4bc2c898bc8f", "fusion_lon": 0.0, "fusion_lat": 0.0, "lon": -76.98104866666667, "type": "electric_scooter"}, {"is_disabled": 0, "lat": 38.92236583333333, "bike_id": "f26655f53009179e4ddfc4d7e8f077ba", "is_reserved": 0, "rental_uris": {"ios": "https://dc.lft.to/lastmile_qr_scan", "android": "https://dc.lft.to/lastmile_qr_scan"}, "name": "f26655f53009179e4ddfc4d7e8f077ba", "fusion_lon": 0.0, "fusion_lat": 0.0, "lon": -77.0211105, "type": "electric_scooter"}, {"is_disabled": 0, "lat": 38.8874695, "bike_id": "2e6d5f0a6ec50d299309ced42fdae1f7", "is_reserved": 0, "rental_uris": {"ios": "https://dc.lft.to/lastmile_qr_scan", "android": "https://dc.lft.to/lastmile_qr_scan"}, "name": "2e6d5f0a6ec50d299309ced42fdae1f7", "fusion_lon": 0.0, "fusion_lat": 0.0, "lon": -77.0222505, "type": "electric_scooter"}, {"is_disabled": 0, "lat": 38.896407833333335, "bike_id": "e35053ac7d5f149a4fdf18cd6c85960f", "is_reserved": 0, "rental_uris": {"ios": "https://dc.lft.to/lastmile_qr_scan", "android": "https://dc.lft.to/lastmile_qr_scan"}, "name": "e35053ac7d5f149a4fdf18cd6c85960f", "fusion_lon": 0.0, "fusion_lat": 0.0, "lon": -77.0435035, "type": "electric_scooter"}, {"is_disabled": 0, "lat": 38.89933883333333, "bike_id": "d4e2de5f69eded9ffefb6f56e125ba59", "is_reserved": 0, "rental_uris": {"ios": "https://dc.lft.to/lastmile_qr_scan", "android": "https://dc.lft.to/lastmile_qr_scan"}, "name": "d4e2de5f69eded9ffefb6f56e125ba59", "fusion_lon": 0.0, "fusion_lat": 0.0, "lon": -76.93760816666666, "type": "electric_scooter"}, {"is_disabled": 0, "lat": 38.89739383333333, "bike_id": "cb3ef99073049fb9a7e1fdc15a1ca8b6", "is_reserved": 0, "rental_uris": {"ios": "https://dc.lft.to/lastmile_qr_scan", "android": "https://dc.lft.to/lastmile_qr_scan"}, "name": "cb3ef99073049fb9a7e1fdc15a1ca8b6", "fusion_lon": 0.0, "fusion_lat": 0.0, "lon": -77.00776, "type": "electric_scooter"}, {"is_disabled": 0, "lat": 38.883933166666665, "bike_id": "a7a6e7fa01c736846f50a68ee7591d0d", "is_reserved": 0, "rental_uris": {"ios": "https://dc.lft.to/lastmile_qr_scan", "android": "https://dc.lft.to/lastmile_qr_scan"}, "name": "a7a6e7fa01c736846f50a68ee7591d0d", "fusion_lon": 0.0, "fusion_lat": 0.0, "lon": -77.03175833333333, "type": "electric_scooter"}, {"is_disabled": 0, "lat": 38.897443833333334, "bike_id": "d289bbf6c7f53177eadf64f731231eb3", "is_reserved": 0, "rental_uris": {"ios": "https://dc.lft.to/lastmile_qr_scan", "android": "https://dc.lft.to/lastmile_qr_scan"}, "name": "d289bbf6c7f53177eadf64f731231eb3", "fusion_lon": 0.0, "fusion_lat": 0.0, "lon": -77.03342916666666, "type": "electric_scooter"}, {"is_disabled": 0, "lat": 38.877892333333335, "bike_id": "816d31081301eaa547084d83aa0fb743", "is_reserved": 0, "rental_uris": {"ios": "https://dc.lft.to/lastmile_qr_scan", "android": "https://dc.lft.to/lastmile_qr_scan"}, "name": "816d31081301eaa547084d83aa0fb743", "fusion_lon": 0.0, "fusion_lat": 0.0, "lon": -76.994124, "type": "electric_scooter"}, {"is_disabled": 0, "lat": 38.89253633333333, "bike_id": "48d2fe3c988cacbc74f9ca3aa02d01ee", "is_reserved": 0, "rental_uris": {"ios": "https://dc.lft.to/lastmile_qr_scan", "android": "https://dc.lft.to/lastmile_qr_scan"}, "name": "48d2fe3c988cacbc74f9ca3aa02d01ee", "fusion_lon": 0.0, "fusion_lat": 0.0, "lon": -77.02820683333333, "type": "electric_scooter"}, {"is_disabled": 0, "lat": 38.945136166666664, "bike_id": "f9b757adff3459141848df2de993d289", "is_reserved": 0, "rental_uris": {"ios": "https://dc.lft.to/lastmile_qr_scan", "android": "https://dc.lft.to/lastmile_qr_scan"}, "name": "f9b757adff3459141848df2de993d289", "fusion_lon": 0.0, "fusion_lat": 0.0, "lon": -77.0067715, "type": "electric_bike"}, {"is_disabled": 0, "lat": 38.901703499999996, "bike_id": "072f6c25c9fbbe15871bcf21bddbbabb", "is_reserved": 0, "rental_uris": {"ios": "https://dc.lft.to/lastmile_qr_scan", "android": "https://dc.lft.to/lastmile_qr_scan"}, "name": "072f6c25c9fbbe15871bcf21bddbbabb", "fusion_lon": 0.0, "fusion_lat": 0.0, "lon": -77.0239535, "type": "electric_scooter"}, {"is_disabled": 0, "lat": 38.91724283333333, "bike_id": "a2cb5138c89f0b9dc445ee9e1176212b", "is_reserved": 0, "rental_uris": {"ios": "https://dc.lft.to/lastmile_qr_scan", "android": "https://dc.lft.to/lastmile_qr_scan"}, "name": "a2cb5138c89f0b9dc445ee9e1176212b", "fusion_lon": 0.0, "fusion_lat": 0.0, "lon": -77.02968833333334, "type": "electric_scooter"}, {"is_disabled": 0, "lat": 38.92167583333333, "bike_id": "dc0e9964da680c107ea0425b0215452c", "is_reserved": 0, "rental_uris": {"ios": "https://dc.lft.to/lastmile_qr_scan", "android": "https://dc.lft.to/lastmile_qr_scan"}, "name": "dc0e9964da680c107ea0425b0215452c", "fusion_lon": 0.0, "fusion_lat": 0.0, "lon": -77.04022083333334, "type": "electric_scooter"}, {"is_disabled": 0, "lat": 38.902624333333335, "bike_id": "236600de1e1559ea6e0a698d2fa48615", "is_reserved": 0, "rental_uris": {"ios": "https://dc.lft.to/lastmile_qr_scan", "android": "https://dc.lft.to/lastmile_qr_scan"}, "name": "236600de1e1559ea6e0a698d2fa48615", "fusion_lon": 0.0, "fusion_lat": 0.0, "lon": -77.045198, "type": "electric_scooter"}, {"is_disabled": 0, "lat": 38.9026525, "bike_id": "e4120ec7d67586f5460b0f3173b7d72f", "is_reserved": 0, "rental_uris": {"ios": "https://dc.lft.to/lastmile_qr_scan", "android": "https://dc.lft.to/lastmile_qr_scan"}, "name": "e4120ec7d67586f5460b0f3173b7d72f", "fusion_lon": 0.0, "fusion_lat": 0.0, "lon": -77.02649183333334, "type": "electric_scooter"}, {"is_disabled": 0, "lat": 38.925012833333334, "bike_id": "f137b6b7c0b7efd2bc8fe6acbfe78971", "is_reserved": 0, "rental_uris": {"ios": "https://dc.lft.to/lastmile_qr_scan", "android": "https://dc.lft.to/lastmile_qr_scan"},