{"data": {"bikes": [{"name": "c134abebaa76ae958904e8b855e06847", "lon": -77.0372465, "lat": 38.91067683333333, "type": "electric_scooter", "fusion_lon": 0.0, "is_reserved": 0, "bike_id": "c134abebaa76ae958904e8b855e06847", "fusion_lat": 0.0, "is_disabled": 0, "rental_uris": {"ios": "https://dc.lft.to/lastmile_qr_scan", "android": "https://dc.lft.to/lastmile_qr_scan"}}, {"name": "38f8efe555d27f03c7371dd68a71a1f1", "lon": -76.9879445, "lat": 38.9221155, "type": "electric_bike", "fusion_lon": 0.0, "is_reserved": 0, "bike_id": "38f8efe555d27f03c7371dd68a71a1f1", "fusion_lat": 0.0, "is_disabled": 0, "rental_uris": {"ios": "https://dc.lft.to/lastmile_qr_scan", "android": "https://dc.lft.to/lastmile_qr_scan"}}, {"name": "2017d1e7651a46a33fc9b289056bf0db", "lon": -76.9316105, "lat": 38.89877116666667, "type": "electric_scooter", "fusion_lon": 0.0, "is_reserved": 0, "bike_id": "2017d1e7651a46a33fc9b289056bf0db", "fusion_lat": 0.0, "is_disabled": 0, "rental_uris": {"ios": "https://dc.lft.to/lastmile_qr_scan", "android": "https://dc.lft.to/lastmile_qr_scan"}}, {"name": "718701853b0ef3f8d6134d0a268ad9d1", "lon": -77.07366233333333, "lat": 38.933539333333336, "type": "electric_scooter", "fusion_lon": 0.0, "is_reserved": 0, "bike_id": "718701853b0ef3f8d6134d0a268ad9d1", "fusion_lat": 0.0, "is_disabled": 0, "rental_uris": {"ios": "https://dc.lft.to/lastmile_qr_scan", "android": "https://dc.lft.to/lastmile_qr_scan"}}, {"name": "52c186b394c1849d5675545ab54c5f7f", "lon": -77.00913566666667, "lat": 38.906792, "type": "electric_scooter", "fusion_lon": 0.0, "is_reserved": 0, "bike_id": "52c186b394c1849d5675545ab54c5f7f", "fusion_lat": 0.0, "is_disabled": 0, "rental_uris": {"ios": "https://dc.lft.to/lastmile_qr_scan", "android": "https://dc.lft.to/lastmile_qr_scan"}}, {"name": "4b118f0d1ca4e49da53b584fb71f065c", "lon": -77.03974833333334, "lat": 38.902693666666664, "type": "electric_scooter", "fusion_lon": 0.0, "is_reserved": 0, "bike_id": "4b118f0d1ca4e49da53b584fb71f065c", "fusion_lat": 0.0, "is_disabled": 0, "rental_uris": {"ios": "https://dc.lft.to/lastmile_qr_scan", "android": "https://dc.lft.to/lastmile_qr_scan"}}, {"name": "afceef67f3394a8151e7a5a892fdfe5a", "lon": -77.0290995, "lat": 38.904851, "type": "electric_scooter", "fusion_lon": 0.0, "is_reserved": 0, "bike_id": "afceef67f3394a8151e7a5a892fdfe5a", "fusion_lat": 0.0, "is_disabled": 0, "rental_uris": {"ios": "https://dc.lft.to/lastmile_qr_scan", "android": "https://dc.lft.to/lastmile_qr_scan"}}, {"name": "26d4c3a07fb03f07262a8e3c1f5c8596", "lon": -77.03829683333333, "lat": 38.92546433333333, "type": "electric_scooter", "fusion_lon": 0.0, "is_reserved": 0, "bike_id": "26d4c3a07fb03f07262a8e3c1f5c8596", "fusion_lat": 0.0, "is_disabled": 0, "rental_uris": {"ios": "https://dc.lft.to/lastmile_qr_scan", "android": "https://dc.lft.to/lastmile_qr_scan"}}, {"name": "b705c16f8e8c8da2896b157d951adacb", "lon": -77.023329, "lat": 38.92891633333333, "type": "electric_scooter", "fusion_lon": 0.0, "is_reserved": 0, "bike_id": "b705c16f8e8c8da2896b157d951adacb", "fusion_lat": 0.0, "is_disabled": 0, "rental_uris": {"ios": "https://dc.lft.to/lastmile_qr_scan", "android": "https://dc.lft.to/lastmile_qr_scan"}}, {"name": "65f3909e1cf46e11bb7130824e48d956", "lon": -76.98519916666666, "lat": 38.866634166666664, "type": "electric_scooter", "fusion_lon": 0.0, "is_reserved": 0, "bike_id": "65f3909e1cf46e11bb7130824e48d956", "fusion_lat": 0.0, "is_disabled": 0, "rental_uris": {"ios": "https://dc.lft.to/lastmile_qr_scan", "android": "https://dc.lft.to/lastmile_qr_scan"}}, {"name": "9e79cfdd495b5db55299a86fd3d89944", "lon": -77.03469716666666, "lat": 38.917103, "type": "electric_scooter", "fusion_lon": 0.0, "is_reserved": 0, "bike_id": "9e79cfdd495b5db55299a86fd3d89944", "fusion_lat": 0.0, "is_disabled": 0, "rental_uris": {"ios": "https://dc.lft.to/lastmile_qr_scan", "android": "https://dc.lft.to/lastmile_qr_scan"}}, {"name": "3de88409e730f2b747fc6e390105a82b", "lon": -77.05662266666667, "lat": 38.905348833333335, "type": "electric_scooter", "fusion_lon": 0.0, "is_reserved": 0, "bike_id": "3de88409e730f2b747fc6e390105a82b", "fusion_lat": 0.0, "is_disabled": 0, "rental_uris": {"ios": "https://dc.lft.to/lastmile_qr_scan", "android": "https://dc.lft.to/lastmile_qr_scan"}}, {"name": "379260dbf0b3463660c4a1bbabaed482", "lon": -77.01766883333333, "lat": 38.8908225, "type": "electric_scooter", "fusion_lon": 0.0, "is_reserved": 0, "bike_id": "379260dbf0b3463660c4a1bbabaed482", "fusion_lat": 0.0, "is_disabled": 0, "rental_uris": {"ios": "https://dc.lft.to/lastmile_qr_scan", "android": "https://dc.lft.to/lastmile_qr_scan"}}, {"name": "daf2f15df6921f9da5c3a7e35f7161a9", "lon": -77.01937716666667, "lat": 38.947048833333334, "type": "electric_scooter", "fusion_lon": 0.0, "is_reserved": 0, "bike_id": "daf2f15df6921f9da5c3a7e35f7161a9", "fusion_lat": 0.0, "is_disabled": 0, "rental_uris": {"ios": "https://dc.lft.to/lastmile_qr_scan", "android": "https://dc.lft.to/lastmile_qr_scan"}}, {"name": "8017b51e5b87d26ba5ba075fc4d797f6", "lon": -77.068657, "lat": 38.80577533333334, "type": "electric_bike", "fusion_lon": 0.0, "is_reserved": 0, "bike_id": "8017b51e5b87d26ba5ba075fc4d797f6", "fusion_lat": 0.0, "is_disabled": 0, "rental_uris": {"ios": "https://dc.lft.to/lastmile_qr_scan", "android": "https://dc.lft.to/lastmile_qr_scan"}}, {"name": "c791e6f3537e752ac84b6d265e28a1e1", "lon": -76.92732383333333, "lat": 38.889637, "type": "electric_scooter", "fusion_lon": 0.0, "is_reserved": 0, "bike_id": "c791e6f3537e752ac84b6d265e28a1e1", "fusion_lat": 0.0, "is_disabled": 0, "rental_uris": {"ios": "https://dc.lft.to/lastmile_qr_scan", "android": "https://dc.lft.to/lastmile_qr_scan"}}, {"name": "038565314b5dafa03e756c0ac7bce217", "lon": -77.002461, "lat": 38.90273966666667, "type": "electric_scooter", "fusion_lon": 0.0, "is_reserved": 0, "bike_id": "038565314b5dafa03e756c0ac7bce217", "fusion_lat": 0.0, "is_disabled": 0, "rental_uris": {"ios": "https://dc.lft.to/lastmile_qr_scan", "android": "https://dc.lft.to/lastmile_qr_scan"}}, {"name": "8a13418cba30e2a7f157ebb4d77734b2", "lon": -77.07819083333334, "lat": 38.9364515, "type": "electric_bike", "fusion_lon": 0.0, "is_reserved": 0, "bike_id": "8a13418cba30e2a7f157ebb4d77734b2", "fusion_lat": 0.0, "is_disabled": 0, "rental_uris": {"ios": "https://dc.lft.to/lastmile_qr_scan", "android": "https://dc.lft.to/lastmile_qr_scan"}}, {"name": "a7acb160005a8f5dae74b6c3222f7cdc", "lon": -77.0326365, "lat": 38.918125, "type": "electric_scooter", "fusion_lon": 0.0, "is_reserved": 0, "bike_id": "a7acb160005a8f5dae74b6c3222f7cdc", "fusion_lat": 0.0, "is_disabled": 0, "rental_uris": {"ios": "https://dc.lft.to/lastmile_qr_scan", "android": "https://dc.lft.to/lastmile_qr_scan"}}, {"name": "aeedb6b526759b307717807dc6d2556c", "lon": -76.990751, "lat": 38.898077, "type": "electric_bike", "fusion_lon": 0.0, "is_reserved": 0, "bike_id": "aeedb6b526759b307717807dc6d2556c", "fusion_lat": 0.0, "is_disabled": 0, "rental_uris": {"ios": "https://dc.lft.to/lastmile_qr_scan", "android": "https://dc.lft.to/lastmile_qr_scan"}}, {"name": "7e9ad5c10ee02ef957115bda59546f69", "lon": -77.02046733333333, "lat": 38.92194716666667, "type": "electric_scooter", "fusion_lon": 0.0, "is_reserved": 0, "bike_id": "7e9ad5c10ee02ef957115bda59546f69", "fusion_lat": 0.0, "is_disabled": 0, "rental_uris": {"ios": "https://dc.lft.to/lastmile_qr_scan", "android": "https://dc.lft.to/lastmile_qr_scan"}}, {"name": "df3b25ac3fb3c8365b3b65726f0c09e5", "lon": -76.95959316666666, "lat": 38.88999033333333, "type": "electric_scooter", "fusion_lon": 0.0, "is_reserved": 0, "bike_id": "df3b25ac3fb3c8365b3b65726f0c09e5", "fusion_lat": 0.0, "is_disabled": 0, "rental_uris": {"ios": "https://dc.lft.to/lastmile_qr_scan", "android": "https://dc.lft.to/lastmile_qr_scan"}}, {"name": "04daa2255cd09ddfdec3d1a77db0720c", "lon": -77.02193183333333, "lat": 38.894716333333335, "type": "electric_scooter", "fusion_lon": 0.0, "is_reserved": 0, "bike_id": "04daa2255cd09ddfdec3d1a77db0720c", "fusion_lat": 0.0, "is_disabled": 0, "rental_uris": {"ios": "https://dc.lft.to/lastmile_qr_scan", "android": "https://dc.lft.to/lastmile_qr_scan"}}, {"name": "c34de26a4b1fe948ba006fe49ef09c76", "lon": -77.01160633333333, "lat": 38.915609833333335, "type": "electric_scooter", "fusion_lon": 0.0, "is_reserved": 0, "bike_id": "c34de26a4b1fe948ba006fe49ef09c76", "fusion_lat": 0.0, "is_disabled": 0, "rental_uris": {"ios": "https://dc.lft.to/lastmile_qr_scan", "android": "https://dc.lft.to/lastmile_qr_scan"}}, {"name": "dcc1f3a84f1a20dbc8980d128b7807d9", "lon": -77.02597416666667, "lat": 38.8943555, "type": "electric_scooter", "fusion_lon": 0.0, "is_reserved": 0, "bike_id": "dcc1f3a84f1a20dbc8980d128b7807d9", "fusion_lat": 0.0, "is_disabled": 0, "rental_uris": {"ios": "https://dc.lft.to/lastmile_qr_scan", "android": "https://dc.lft.to/lastmile_qr_scan"}}, {"name": "eed069ae75d00990a7d0c3450685cded", "lon": -77.03841916666667, "lat": 38.908373, "type": "electric_scooter", "fusion_lon": 0.0, "is_reserved": 0, "bike_id": "eed069ae75d00990a7d0c3450685cded", "fusion_lat": 0.0, "is_disabled": 0, "rental_uris": {"ios": "https://dc.lft.to/lastmile_qr_scan", "android": "https://dc.lft.to/lastmile_qr_scan"}}, {"name": "b1105dd6ebb1923e8e02966a23aa6783", "lon": -77.03299166666666, "lat": 38.90727233333333, "type": "electric_scooter", "fusion_lon": 0.0, "is_reserved": 0, "bike_id": "b1105dd6ebb1923e8e02966a23aa6783", "fusion_lat": 0.0, "is_disabled": 0, "rental_uris": {"ios": "https://dc.lft.to/lastmile_qr_scan", "android": "https://dc.lft.to/lastmile_qr_scan"}}, {"name": "d7dae5dfa30d2332ab046074c3f37e5a", "lon": -77.038886, "lat": 38.921973, "type": "electric_scooter", "fusion_lon": 0.0, "is_reserved": 0, "bike_id": "d7dae5dfa30d2332ab046074c3f37e5a", "fusion_lat": 0.0, "is_disabled": 0, "rental_uris": {"ios": "https://dc.lft.to/lastmile_qr_scan", "android": "https://dc.lft.to/lastmile_qr_scan"}}, {"name": "dc73dee8d99b3ec6e77fb63daa896950", "lon": -77.0459805, "lat": 38.916942, "type": "electric_scooter", "fusion_lon": 0.0, "is_reserved": 0, "bike_id": "dc73dee8d99b3ec6e77fb63daa896950", "fusion_lat": 0.0, "is_disabled": 0, "rental_uris": {"ios": "https://dc.lft.to/lastmile_qr_scan", "android": "https://dc.lft.to/lastmile_qr_scan"}}, {"name": "feb3e912448a2044a628636be112bfeb", "lon": -77.03840233333334, "lat": 38.91683616666667, "type": "electric_scooter", "fusion_lon": 0.0, "is_reserved": 0, "bike_id": "feb3e912448a2044a628636be112bfeb", "fusion_lat": 0.0, "is_disabled": 0, "rental_uris": {"ios": "https://dc.lft.to/lastmile_qr_scan", "android": "https://dc.lft.to/lastmile_qr_scan"}}, {"name": "dcd1c27647b50f449c76c823db190e50", "lon": -77.02677433333334, "lat": 38.897270666666664, "type": "electric_scooter", "fusion_lon": 0.0, "is_reserved": 0, "bike_id": "dcd1c27647b50f449c76c823db190e50", "fusion_lat": 0.0, "is_disabled": 0, "rental_uris": {"ios": "https://dc.lft.to/lastmile_qr_scan", "android": "https://dc.lft.to/lastmile_qr_scan"}}, {"name": "19bb5944c0cdc458d65e8c5db9b69cf8", "lon": -76.98839716666667, "lat": 38.842799666666664, "type": "electric_bike", "fusion_lon": 0.0, "is_reserved": 0, "bike_id": "19bb5944c0cdc458d65e8c5db9b69cf8", "fusion_lat": 0.0, "is_disabled": 0, "rental_uris": {"ios": "https://dc.lft.to/lastmile_qr_scan", "android": "https://dc.lft.to/lastmile_qr_scan"}}, {"name": "11122783e3f361647bc71bd244f93710", "lon": -77.02226283333333, "lat": 38.89222866666667, "type": "electric_scooter", "fusion_lon": 0.0, "is_reserved": 0, "bike_id": "11122783e3f361647bc71bd244f93710", "fusion_lat": 0.0, "is_disabled": 0, "rental_uris": {"ios": "https://dc.lft.to/lastmile_qr_scan", "android": "https://dc.lft.to/lastmile_qr_scan"}}, {"name": "0e2a1d27f6edd7773cdb064af4239786", "lon": -77.05268283333334, "lat": 38.939386666666664, "type": "electric_scooter", "fusion_lon": 0.0, "is_reserved": 0, "bike_id": "0e2a1d27f6edd7773cdb064af4239786", "fusion_lat": 0.0, "is_disabled": 0, "rental_uris": {"ios": "https://dc.lft.to/lastmile_qr_scan", "android": "https://dc.lft.to/lastmile_qr_scan"}}, {"name": "f5a8c04c3a5d046b68c45fcf3c744d20", "lon": -77.04409483333333, "lat": 38.92953833333333, "type": "electric_scooter", "fusion_lon": 0.0, "is_reserved": 0, "bike_id": "f5a8c04c3a5d046b68c45fcf3c744d20", "fusion_lat": 0.0, "is_disabled": 0, "rental_uris": {"ios": "https://dc.lft.to/lastmile_qr_scan", "android": "https://dc.lft.to/lastmile_qr_scan"}}, {"name": "c8f80d1081f7710d7d1412749de94623", "lon": -76.9334065, "lat": 38.88816283333333, "type": "electric_scooter", "fusion_lon": 0.0, "is_reserved": 0, "bike_id": "c8f80d1081f7710d7d1412749de94623", "fusion_lat": 0.0, "is_disabled": 0, "rental_uris": {"ios": "https://dc.lft.to/lastmile_qr_scan", "android": "https://dc.lft.to/lastmile_qr_scan"}}, {"name": "a33be70c988f0f5fe98bbed6466ebb7c", "lon": -77.02212066666667, "lat": 38.90573083333334, "type": "electric_scooter", "fusion_lon": 0.0, "is_reserved": 0, "bike_id": "a33be70c988f0f5fe98bbed6466ebb7c", "fusion_lat": 0.0, "is_disabled": 0, "rental_uris": {"ios": "https://dc.lft.to/lastmile_qr_scan", "android": "https://dc.lft.to/lastmile_qr_scan"}}, {"name": "c42529738ac4773cbab44436ed74ae7e", "lon": -77.0401755, "lat": 38.92195016666667, "type": "electric_scooter", "fusion_lon": 0.0, "is_reserved": 0, "bike_id": "c42529738ac4773cbab44436ed74ae7e", "fusion_lat": 0.0, "is_disabled": 0, "rental_uris": {"ios": "https://dc.lft.to/lastmile_qr_scan", "android": "https://dc.lft.to/lastmile_qr_scan"}}, {"name": "c6209ed4f44b9a6160859aad4b833d3c", "lon": -77.05005216666666, "lat": 38.89232066666667, "type": "electric_scooter", "fusion_lon": 0.0, "is_reserved": 0, "bike_id": "c6209ed4f44b9a6160859aad4b833d3c", "fusion_lat": 0.0, "is_disabled": 0, "rental_uris": {"ios": "https://dc.lft.to/lastmile_qr_scan", "android": "https://dc.lft.to/lastmile_qr_scan"}}, {"name": "857bd794bdc5e738b66ad4c3e973d458", "lon": -76.98400216666667, "lat": 38.86700783333333, "type": "electric_scooter", "fusion_lon": 0.0, "is_reserved": 0, "bike_id": "857bd794bdc5e738b66ad4c3e973d458", "fusion_lat": 0.0, "is_disabled": 0, "rental_uris": {"ios": "https://dc.lft.to/lastmile_qr_scan", "android": "https://dc.lft.to/lastmile_qr_scan"}}, {"name": "32964b8a863d0fd6d3326e171a46d610", "lon": -77.032424, "lat": 38.9155815, "type": "electric_scooter", "fusion_lon": 0.0, "is_reserved": 0, "bike_id": "32964b8a863d0fd6d3326e171a46d610", "fusion_lat": 0.0, "is_disabled": 0, "rental_uris": {"ios": "https://dc.lft.to/lastmile_qr_scan", "android": "https://dc.lft.to/lastmile_qr_scan"}}, {"name": "a9d1448e5cea605b649ff5c9442cc75b", "lon": -77.01241783333333, "lat": 38.9156515, "type": "electric_scooter", "fusion_lon": 0.0, "is_reserved": 0, "bike_id": "a9d1448e5cea605b649ff5c9442cc75b", "fusion_lat": 0.0, "is_disabled": 0, "rental_uris": {"ios": "https://dc.lft.to/lastmile_qr_scan", "android": "https://dc.lft.to/lastmile_qr_scan"}}, {"name": "16eef9fb509ee7ef4653201588c05d32", "lon": -77.043281, "lat": 38.905021166666664, "type": "electric_scooter", "fusion_lon": 0.0, "is_reserved": 0, "bike_id": "16eef9fb509ee7ef4653201588c05d32", "fusion_lat": 0.0, "is_disabled": 0, "rental_uris": {"ios": "https://dc.lft.to/lastmile_qr_scan", "android": "https://dc.lft.to/lastmile_qr_scan"}}, {"name": "5f794198c82659f68644ea71e9efb9c7", "lon": -77.02364616666667, "lat": 38.902138666666666, "type": "electric_scooter", "fusion_lon": 0.0, "is_reserved": 0, "bike_id": "5f794198c82659f68644ea71e9efb9c7", "fusion_lat": 0.0, "is_disabled": 0, "rental_uris": {"ios": "https://dc.lft.to/lastmile_qr_scan", "android": "https://dc.lft.to/lastmile_qr_scan"}}, {"name": "c12880b6c623ba091ea93cfdf1079fee", "lon": -77.02691883333334, "lat": 38.89626716666667, "type": "electric_scooter", "fusion_lon": 0.0, "is_reserved": 0, "bike_id": "c12880b6c623ba091ea93cfdf1079fee", "fusion_lat": 0.0, "is_disabled": 0, "rental_uris": {"ios": "https://dc.lft.to/lastmile_qr_scan", "android": "https://dc.lft.to/lastmile_qr_scan"}}, {"name": "f0cfb44489420d39c7175d776f055d1d", "lon": -76.990726, "lat": 38.904217833333334, "type": "electric_scooter", "fusion_lon": 0.0, "is_reserved": 0, "bike_id": "f0cfb44489420d39c7175d776f055d1d", "fusion_lat": 0.0, "is_disabled": 0, "rental_uris": {"ios": "https://dc.lft.to/lastmile_qr_scan", "android": "https://dc.lft.to/lastmile_qr_scan"}}, {"name": "ce7fe7a5d477d6427b12f58c128b4ae2", "lon": -77.02521366666667, "lat": 38.90962533333333, "type": "electric_scooter", "fusion_lon": 0.0, "is_reserved": 0, "bike_id": "ce7fe7a5d477d6427b12f58c128b4ae2", "fusion_lat": 0.0, "is_disabled": 0, "rental_uris": {"ios": "https://dc.lft.to/lastmile_qr_scan", "android": "https://dc.lft.to/lastmile_qr_scan"}}, {"name": "baacfaedfafc8682622cb7d98bb41e63", "lon": -77.05883466666667, "lat": 38.918253666666665, "type": "electric_scooter", "fusion_lon": 0.0, "is_reserved": 0, "bike_id": "baacfaedfafc8682622cb7d98bb41e63", "fusion_lat": 0.0, "is_disabled": 0, "rental_uris": {"ios": "https://dc.lft.to/lastmile_qr_scan", "android": "https://dc.lft.to/lastmile_qr_scan"}}, {"name": "c3701afdc5ba6b6adb9bee5e4bafac1e", "lon": -76.990004, "lat": 38.86423966666667, "type": "electric_scooter", "fusion_lon": 0.0, "is_reserved": 0, "bike_id": "c3701afdc5ba6b6adb9bee5e4bafac1e", "fusion_lat": 0.0, "is_disabled": 0, "rental_uris": {"ios": "https://dc.lft.to/lastmile_qr_scan", "android": "https://dc.lft.to/lastmile_qr_scan"}}, {"name": "53c435da3c4481c4c746d7717ab26bbb", "lon": -77.02321783333333, "lat": 38.930589833333336, "type": "electric_scooter", "fusion_lon": 0.0, "is_reserved": 0, "bike_id": "53c435da3c4481c4c746d7717ab26bbb", "fusion_lat": 0.0, "is_disabled": 0, "rental_uris": {"ios": "https://dc.lft.to/lastmile_qr_scan", "android": "https://dc.lft.to/lastmile_qr_scan"}}, {"name": "295b6652c0919edbb1ae72a1dd168d3b", "lon": -77.0142075, "lat": 38.92866466666667, "type": "electric_scooter", "fusion_lon": 0.0, "is_reserved": 0, "bike_id": "295b6652c0919edbb1ae72a1dd168d3b", "fusion_lat": 0.0, "is_disabled": 0, "rental_uris": {"ios": "https://dc.lft.to/lastmile_qr_scan", "android": "https://dc.lft.to/lastmile_qr_scan"}}, {"name": "d51c13fa8530f059a12080248843b1fa", "lon": -77.05900966666667, "lat": 38.903069, "type": "electric_scooter", "fusion_lon": 0.0, "is_reserved": 0, "bike_id": "d51c13fa8530f059a12080248843b1fa", "fusion_lat": 0.0, "is_disabled": 0, "rental_uris": {"ios": "https://dc.lft.to/lastmile_qr_scan", "android": "https://dc.lft.to/lastmile_qr_scan"}}, {"name": "cd3197f7d76fa2b9a67ccde410423140", "lon": -77.03732116666667, "lat": 38.9357465, "type": "electric_scooter", "fusion_lon": 0.0, "is_reserved": 0, "bike_id": "cd3197f7d76fa2b9a67ccde410423140", "fusion_lat": 0.0, "is_disabled": 0, "rental_uris": {"ios": "https://dc.lft.to/lastmile_qr_scan", "android": "https://dc.lft.to/lastmile_qr_scan"}}, {"name": "d91b4d906fc8ec672e0fbffbd2645621", "lon": -77.01818433333334, "lat": 38.92212966666666, "type": "electric_scooter", "fusion_lon": 0.0, "is_reserved": 0, "bike_id": "d91b4d906fc8ec672e0fbffbd2645621", "fusion_lat": 0.0, "is_disabled": 0, "rental_uris": {"ios": "https://dc.lft.to/lastmile_qr_scan", "android": "https://dc.lft.to/lastmile_qr_scan"}}, {"name": "2465cf59706b54c0b18949682c2b6e9e", "lon": -77.022105, "lat": 38.905734, "type": "electric_scooter", "fusion_lon": 0.0, "is_reserved": 0, "bike_id": "2465cf59706b54c0b18949682c2b6e9e", "fusion_lat": 0.0, "is_disabled": 0, "rental_uris": {"ios": "https://dc.lft.to/lastmile_qr_scan", "android": "https://dc.lft.to/lastmile_qr_scan"}}, {"name": "1f8f06538c5d74579c36af740ef7a6ec", "lon": -77.05842516666667, "lat": 38.9105305, "type": "electric_scooter", "fusion_lon": 0.0, "is_reserved": 0, "bike_id": "1f8f06538c5d74579c36af740ef7a6ec", "fusion_lat": 0.0, "is_disabled": 0, "rental_uris": {"ios": "https://dc.lft.to/lastmile_qr_scan", "android": "https://dc.lft.to/lastmile_qr_scan"}}, {"name": "4e37a693ca592b14e327bd100aad952c", "lon": -77.20841716666666, "lat": 38.924695166666666, "type": "electric_bike", "fusion_lon": 0.0, "is_reserved": 0, "bike_id": "4e37a693ca592b14e327bd100aad952c", "fusion_lat": 0.0, "is_disabled": 0, "rental_uris": {"ios": "https://dc.lft.to/lastmile_qr_scan", "android": "https://dc.lft.to/lastmile_qr_scan"}}, {"name": "4b14284b38c593c829e9c9a0292c8473", "lon": -77.02945816666667, "lat": 38.90753933333333, "type": "electric_scooter", "fusion_lon": 0.0, "is_reserved": 0, "bike_id": "4b14284b38c593c829e9c9a0292c8473", "fusion_lat": 0.0, "is_disabled": 0, "rental_uris": {"ios": "https://dc.lft.to/lastmile_qr_scan", "android": "https://dc.lft.to/lastmile_qr_scan"}}, {"name": "85db17377544b5f1b133f32903e6b76f", "lon": -77.02437683333333, "lat": 38.92501033333333, "type": "electric_scooter", "fusion_lon": 0.0, "is_reserved": 0, "bike_id": "85db17377544b5f1b133f32903e6b76f", "fusion_lat": 0.0, "is_disabled": 0, "rental_uris": {"ios": "https://dc.lft.to/lastmile_qr_scan", "android": "https://dc.lft.to/lastmile_qr_scan"}}, {"name": "70b07514297743207980c2ac1b04f99a", "lon": -77.12485066666666, "lat": 38.827945666666665, "type": "electric_bike", "fusion_lon": 0.0, "is_reserved": 0, "bike_id": "70b07514297743207980c2ac1b04f99a", "fusion_lat": 0.0, "is_disabled": 0, "rental_uris": {"ios": "https://dc.lft.to/lastmile_qr_scan", "android": "https://dc.lft.to/lastmile_qr_scan"}}, {"name": "3d14bd232c70f0cbca6b346ef9d547d6", "lon": -77.00511033333333, "lat": 38.9119135, "type": "electric_scooter", "fusion_lon": 0.0, "is_reserved": 0, "bike_id": "3d14bd232c70f0cbca6b346ef9d547d6", "fusion_lat": 0.0, "is_disabled": 0, "rental_uris": {"ios": "https://dc.lft.to/lastmile_qr_scan", "android": "https://dc.lft.to/lastmile_qr_scan"}}, {"name": "fc05bd491da3b2feaad2c0bf8e9d3d88", "lon": -76.99880083333333, "lat": 38.920576, "type": "electric_scooter", "fusion_lon": 0.0, "is_reserved": 0, "bike_id": "fc05bd491da3b2feaad2c0bf8e9d3d88", "fusion_lat": 0.0, "is_disabled": 0, "rental_uris": {"ios": "https://dc.lft.to/lastmile_qr_scan", "android": "https://dc.lft.to/lastmile_qr_scan"}}, {"name": "86ab40240501780f16edf0da843c5905", "lon": -77.04271083333333, "lat": 38.908627333333335, "type": "electric_scooter", "fusion_lon": 0.0, "is_reserved": 0, "bike_id": "86ab40240501780f16edf0da843c5905", "fusion_lat": 0.0, "is_disabled": 0, "rental_uris": {"ios": "https://dc.lft.to/lastmile_qr_scan", "android": "https://dc.lft.to/lastmile_qr_scan"}}, {"name": "460c6ea074c3c6dca2722b4da4e451d8", "lon": -77.0109635, "lat": 38.91566183333333, "type": "electric_scooter", "fusion_lon": 0.0, "is_reserved": 0, "bike_id": "460c6ea074c3c6dca2722b4da4e451d8", "fusion_lat": 0.0, "is_disabled": 0, "rental_uris": {"ios": "https://dc.lft.to/lastmile_qr_scan", "android": "https://dc.lft.to/lastmile_qr_scan"}}, {"name": "2142430a65a4ae962cc954a7d4009c85", "lon": -77.04223016666667, "lat": 38.921748, "type": "electric_scooter", "fusion_lon": 0.0, "is_reserved": 0, "bike_id": "2142430a65a4ae962cc954a7d4009c85", "fusion_lat": 0.0, "is_disabled": 0, "rental_uris": {"ios": "https://dc.lft.to/lastmile_qr_scan", "android": "https://dc.lft.to/lastmile_qr_scan"}}, {"name": "a56447cc74607eeffca9eeee98940d5e", "lon": -77.02690583333333, "lat": 38.90688083333333, "type": "electric_scooter", "fusion_lon": 0.0, "is_reserved": 0, "bike_id": "a56447cc74607eeffca9eeee98940d5e", "fusion_lat": 0.0, "is_disabled": 0, "rental_uris": {"ios": "https://dc.lft.to/lastmile_qr_scan", "android": "https://dc.lft.to/lastmile_qr_scan"}}, {"name": "d092245bf12f54f5f48df6c03226f914", "lon": -77.01620933333334, "lat": 38.90613183333333, "type": "electric_scooter", "fusion_lon": 0.0, "is_reserved": 0, "bike_id": "d092245bf12f54f5f48df6c03226f914", "fusion_lat": 0.0, "is_disabled": 0, "rental_uris": {"ios": "https://dc.lft.to/lastmile_qr_scan", "android": "https://dc.lft.to/lastmile_qr_scan"}}, {"name": "f435743abf5d90568f0a039239afeb7b", "lon": -77.040162, "lat": 38.92272066666666, "type": "electric_scooter", "fusion_lon": 0.0, "is_reserved": 0, "bike_id": "f435743abf5d90568f0a039239afeb7b", "fusion_lat": 0.0, "is_disabled": 0, "rental_uris": {"ios": "https://dc.lft.to/lastmile_qr_scan", "android": "https://dc.lft.to/lastmile_qr_scan"}}, {"name": "4dd98ae2ba28676906b20ad53cebe796", "lon": -77.013661, "lat": 38.8870725, "type": "electric_scooter", "fusion_lon": 0.0, "is_reserved": 0, "bike_id": "4dd98ae2ba28676906b20ad53cebe796", "fusion_lat": 0.0, "is_disabled": 0, "rental_uris": {"ios": "https://dc.lft.to/lastmile_qr_scan", "android": "https://dc.lft.to/lastmile_qr_scan"}}, {"name": "128f3fcd38afe5f9d26f424902bb052e", "lon": -77.0230975, "lat": 38.91552016666667, "type": "electric_scooter", "fusion_lon": 0.0, "is_reserved": 0, "bike_id": "128f3fcd38afe5f9d26f424902bb052e", "fusion_lat": 0.0, "is_disabled": 0, "rental_uris": {"ios": "https://dc.lft.to/lastmile_qr_scan", "android": "https://dc.lft.to/lastmile_qr_scan"}}, {"name": "250911a268b664f74a675f67f8fdcd44", "lon": -77.04122366666667, "lat": 38.804949, "type": "electric_bike", "fusion_lon": 0.0, "is_reserved": 0, "bike_id": "250911a268b664f74a675f67f8fdcd44", "fusion_lat": 0.0, "is_disabled": 0, "rental_uris": {"ios": "https://dc.lft.to/lastmile_qr_scan", "android": "https://dc.lft.to/lastmile_qr_scan"}}, {"name": "86bebe51fdd114132c11947401f4ea2a", "lon": -77.00203066666667, "lat": 38.81939416666667, "type": "electric_bike", "fusion_lon": 0.0, "is_reserved": 0, "bike_id": "86bebe51fdd114132c11947401f4ea2a", "fusion_lat": 0.0, "is_disabled": 0, "rental_uris": {"ios": "https://dc.lft.to/lastmile_qr_scan", "android": "https://dc.lft.to/lastmile_qr_scan"}}, {"name": "ba621a52e16532f4685f0609f336f00d", "lon": -77.04132683333333, "lat": 38.923184, "type": "electric_scooter", "fusion_lon": 0.0, "is_reserved": 0, "bike_id": "ba621a52e16532f4685f0609f336f00d", "fusion_lat": 0.0, "is_disabled": 0, "rental_uris": {"ios": "https://dc.lft.to/lastmile_qr_scan", "android": "https://dc.lft.to/lastmile_qr_scan"}}, {"name": "2d8446776a55968c1079c5ebacb85dc0", "lon": -77.02496233333333, "lat": 38.930004333333336, "type": "electric_bike", "fusion_lon": 0.0, "is_reserved": 0, "bike_id": "2d8446776a55968c1079c5ebacb85dc0", "fusion_lat": 0.0, "is_disabled": 0, "rental_uris": {"ios": "https://dc.lft.to/lastmile_qr_scan", "android": "https://dc.lft.to/lastmile_qr_scan"}}, {"name": "9b5097823f0ae9fcaa4f0fee059771a5", "lon": -77.04124233333333, "lat": 38.92164833333333, "type": "electric_scooter", "fusion_lon": 0.0, "is_reserved": 0, "bike_id": "9b5097823f0ae9fcaa4f0fee059771a5", "fusion_lat": 0.0, "is_disabled": 0, "rental_uris": {"ios": "https://dc.lft.to/lastmile_qr_scan", "android": "https://dc.lft.to/lastmile_qr_scan"}}, {"name": "a8b6643366614bf978496d5c1705f482", "lon": -77.0178965, "lat": 38.92024633333333, "type": "electric_scooter", "fusion_lon": 0.0, "is_reserved": 0, "bike_id": "a8b6643366614bf978496d5c1705f482", "fusion_lat": 0.0, "is_disabled": 0, "rental_uris": {"ios": "https://dc.lft.to/lastmile_qr_scan", "android": "https://dc.lft.to/lastmile_qr_scan"}}, {"name": "34d64c3e4fae29cf3d753ac9a7aead7c", "lon": -76.9950415, "lat": 38.88219333333333, "type": "electric_bike", "fusion_lon": 0.0, "is_reserved": 0, "bike_id": "34d64c3e4fae29cf3d753ac9a7aead7c", "fusion_lat": 0.0, "is_disabled": 0, "rental_uris": {"ios": "https://dc.lft.to/lastmile_qr_scan", "android": "https://dc.lft.to/lastmile_qr_scan"}}, {"name": "921a8d7e8fa1d4ca0124f0bb8f736bfe", "lon": -77.026089, "lat": 38.927564333333336, "type": "electric_scooter", "fusion_lon": 0.0, "is_reserved": 0, "bike_id": "921a8d7e8fa1d4ca0124f0bb8f736bfe", "fusion_lat": 0.0, "is_disabled": 0, "rental_uris": {"ios": "https://dc.lft.to/lastmile_qr_scan", "android": "https://dc.lft.to/lastmile_qr_scan"}}, {"name": "b2cec54d79ea89144c4e500e6ad86094", "lon": -76.95096766666667, "lat": 38.88452683333333, "type": "electric_scooter", "fusion_lon": 0.0, "is_reserved": 0, "bike_id": "b2cec54d79ea89144c4e500e6ad86094", "fusion_lat": 0.0, "is_disabled": 0, "rental_uris": {"ios": "https://dc.lft.to/lastmile_qr_scan", "android": "https://dc.lft.to/lastmile_qr_scan"}}, {"name": "1e5505d6c56f1ac15d1e86d137271b46", "lon": -77.039068, "lat": 38.91764516666667, "type": "electric_scooter", "fusion_lon": 0.0, "is_reserved": 0, "bike_id": "1e5505d6c56f1ac15d1e86d137271b46", "fusion_lat": 0.0, "is_disabled": 0, "rental_uris": {"ios": "https://dc.lft.to/lastmile_qr_scan", "android": "https://dc.lft.to/lastmile_qr_scan"}}, {"name": "c3de8e719ce46149583edea2e251e0f4", "lon": -77.0447315, "lat": 38.9187145, "type": "electric_scooter", "fusion_lon": 0.0, "is_reserved": 0, "bike_id": "c3de8e719ce46149583edea2e251e0f4", "fusion_lat": 0.0, "is_disabled": 0, "rental_uris": {"ios": "https://dc.lft.to/lastmile_qr_scan", "android": "https://dc.lft.to/lastmile_qr_scan"}}, {"name": "5cda81027a8e8d584ca8ea59eb9d02dd", "lon": -76.94183916666667, "lat": 38.897540666666664, "type": "electric_scooter", "fusion_lon": 0.0, "is_reserved": 0, "bike_id": "5cda81027a8e8d584ca8ea59eb9d02dd", "fusion_lat": 0.0, "is_disabled": 0, "rental_uris": {"ios": "https://dc.lft.to/lastmile_qr_scan", "android": "https://dc.lft.to/lastmile_qr_scan"}}, {"name": "c6259a5637e10072c96a5b44af17dfe8", "lon": -77.036479, "lat": 38.912402166666666, "type": "electric_scooter", "fusion_lon": 0.0, "is_reserved": 0, "bike_id": "c6259a5637e10072c96a5b44af17dfe8", "fusion_lat": 0.0, "is_disabled": 0, "rental_uris": {"ios": "https://dc.lft.to/lastmile_qr_scan", "android": "https://dc.lft.to/lastmile_qr_scan"}}, {"name": "f85161f0c403e0f4359a8d043c2f1a6f", "lon": -77.06401483333333, "lat": 38.905203, "type": "electric_scooter", "fusion_lon": 0.0, "is_reserved": 0, "bike_id": "f85161f0c403e0f4359a8d043c2f1a6f", "fusion_lat": 0.0, "is_disabled": 0, "rental_uris": {"ios": "https://dc.lft.to/lastmile_qr_scan", "android": "https://dc.lft.to/lastmile_qr_scan"}}, {"name": "eab7d80e73b703da06a13bcf75a50e59", "lon": -77.01758983333333, "lat": 38.876821, "type": "electric_scooter", "fusion_lon": 0.0, "is_reserved": 0, "bike_id": "eab7d80e73b703da06a13bcf75a50e59", "fusion_lat": 0.0, "is_disabled": 0, "rental_uris": {"ios": "https://dc.lft.to/lastmile_qr_scan", "android": "https://dc.lft.to/lastmile_qr_scan"}}, {"name": "529dd0069883ba23dcf77ee7a3265d4e", "lon": -77.00489033333334, "lat": 38.89684833333333, "type": "electric_scooter", "fusion_lon": 0.0, "is_reserved": 0, "bike_id": "529dd0069883ba23dcf77ee7a3265d4e", "fusion_lat": 0.0, "is_disabled": 0, "rental_uris": {"ios": "https://dc.lft.to/lastmile_qr_scan", "android": "https://dc.lft.to/lastmile_qr_scan"}}, {"name": "1b7152d24d53f82511282ce4deac2dae", "lon": -77.04194833333334, "lat": 38.893643833333336, "type": "electric_scooter", "fusion_lon": 0.0, "is_reserved": 0, "bike_id": "1b7152d24d53f82511282ce4deac2dae", "fusion_lat": 0.0, "is_disabled": 0, "rental_uris": {"ios": "https://dc.lft.to/lastmile_qr_scan", "android": "https://dc.lft.to/lastmile_qr_scan"}}, {"name": "6b7b95e69d98df1fdf2dfb1374968531", "lon": -77.1200975, "lat": 38.85513433333333, "type": "electric_bike", "fusion_lon": 0.0, "is_reserved": 0, "bike_id": "6b7b95e69d98df1fdf2dfb1374968531", "fusion_lat": 0.0, "is_disabled": 0, "rental_uris": {"ios": "https://dc.lft.to/lastmile_qr_scan", "android": "https://dc.lft.to/lastmile_qr_scan"}}, {"name": "d12ffe02bcf6c256f77d20f8ce09cae5", "lon": -77.00205133333333, "lat": 38.8936285, "type": "electric_scooter", "fusion_lon": 0.0, "is_reserved": 0, "bike_id": "d12ffe02bcf6c256f77d20f8ce09cae5", "fusion_lat": 0.0, "is_disabled": 0, "rental_uris": {"ios": "https://dc.lft.to/lastmile_qr_scan", "android": "https://dc.lft.to/lastmile_qr_scan"}}, {"name": "fcd2f7c0c80c6bc4e0a82b511bb87969", "lon": -77.038568, "lat": 38.91020016666667, "type": "electric_scooter", "fusion_lon": 0.0, "is_reserved": 0, "bike_id": "fcd2f7c0c80c6bc4e0a82b511bb87969", "fusion_lat": 0.0, "is_disabled": 0, "rental_uris": {"ios": "https://dc.lft.to/lastmile_qr_scan", "android": "https://dc.lft.to/lastmile_qr_scan"}}, {"name": "af65518432f2576e90807a485a7f837e", "lon": -77.04511516666666, "lat": 38.892249166666666, "type": "electric_scooter", "fusion_lon": 0.0, "is_reserved": 0, "bike_id": "af65518432f2576e90807a485a7f837e", "fusion_lat": 0.0, "is_disabled": 0, "rental_uris": {"ios": "https://dc.lft.to/lastmile_qr_scan", "android": "https://dc.lft.to/lastmile_qr_scan"}}, {"name": "6e0d378cee30f6fc145676adfa6ad3e7", "lon": -76.99757233333334, "lat": 38.8876845, "type": "electric_scooter", "fusion_lon": 0.0, "is_reserved": 0, "bike_id": "6e0d378cee30f6fc145676adfa6ad3e7", "fusion_lat": 0.0, "is_disabled": 0, "rental_uris": {"ios": "https://dc.lft.to/lastmile_qr_scan", "android": "https://dc.lft.to/lastmile_qr_scan"}}, {"name": "370afb76fb13fa0de2447ec5f057a619", "lon": -77.11222766666667, "lat": 38.81266433333333, "type": "electric_bike", "fusion_lon": 0.0, "is_reserved": 0, "bike_id": "370afb76fb13fa0de2447ec5f057a619", "fusion_lat": 0.0, "is_disabled": 0, "rental_uris": {"ios": "https://dc.lft.to/lastmile_qr_scan", "android": "https://dc.lft.to/lastmile_qr_scan"}}, {"name": "df293e8f8c5a8f1777bed5b82ebcd834", "lon": -76.94941616666667, "lat": 38.89509416666667, "type": "electric_scooter", "fusion_lon": 0.0, "is_reserved": 0, "bike_id": "df293e8f8c5a8f1777bed5b82ebcd834", "fusion_lat": 0.0, "is_disabled": 0, "rental_uris": {"ios": "https://dc.lft.to/lastmile_qr_scan", "android": "https://dc.lft.to/lastmile_qr_scan"}}, {"name": "e448423c288745fe30b67036258fc3b5", "lon": -76.982017, "lat": 38.98498816666667, "type": "electric_bike", "fusion_lon": 0.0, "is_reserved": 0, "bike_id": "e448423c288745fe30b67036258fc3b5", "fusion_lat": 0.0, "is_disabled": 0, "rental_uris": {"ios": "https://dc.lft.to/lastmile_qr_scan", "android": "https://dc.lft.to/lastmile_qr_scan"}}, {"name": "fe2e9de2868176046271fbba48af0def", "lon": -77.01771366666667, "lat": 38.982823833333335, "type": "electric_bike", "fusion_lon": 0.0, "is_reserved": 0, "bike_id": "fe2e9de2868176046271fbba48af0def", "fusion_lat": 0.0, "is_disabled": 0, "rental_uris": {"ios": "https://dc.lft.to/lastmile_qr_scan", "android": "https://dc.lft.to/lastmile_qr_scan"}}, {"name": "e940f25b8d2b5be6cb0a1ca4b2a6f652", "lon": -77.03151733333333, "lat": 38.927967333333335, "type": "electric_scooter", "fusion_lon": 0.0, "is_reserved": 0, "bike_id": "e940f25b8d2b5be6cb0a1ca4b2a6f652", "fusion_lat": 0.0, "is_disabled": 0, "rental_uris": {"ios": "https://dc.lft.to/lastmile_qr_scan", "android": "https://dc.lft.to/lastmile_qr_scan"}}, {"name": "f7dbec23c9b8d3293f7f82495d7c464c", "lon": -77.0174595, "lat": 38.902648166666665, "type": "electric_scooter", "fusion_lon": 0.0, "is_reserved": 0, "bike_id": "f7dbec23c9b8d3293f7f82495d7c464c", "fusion_lat": 0.0, "is_disabled": 0, "rental_uris": {"ios": "https://dc.lft.to/lastmile_qr_scan", "android": "https://dc.lft.to/lastmile_qr_scan"}}, {"name": "3db2cdefe415ab00b485a01f9e21fcc8", "lon": -76.94682866666666, "lat": 38.886275, "type": "electric_scooter", "fusion_lon": 0.0, "is_reserved": 0, "bike_id": "3db2cdefe415ab00b485a01f9e21fcc8", "fusion_lat": 0.0, "is_disabled": 0, "rental_uris": {"ios": "https://dc.lft.to/lastmile_qr_scan", "android": "https://dc.lft.to/lastmile_qr_scan"}}, {"name": "0af320386cd11cf0247bb9f60b7c1593", "lon": -77.01222583333333, "lat": 38.91689083333333, "type": "electric_scooter", "fusion_lon": 0.0, "is_reserved": 0, "bike_id": "0af320386cd11cf0247bb9f60b7c1593", "fusion_lat": 0.0, "is_disabled": 0, "rental_uris": {"ios": "https://dc.lft.to/lastmile_qr_scan", "android": "https://dc.lft.to/lastmile_qr_scan"}}, {"name": "dcceab46a40f09ee87600bc1a2529736", "lon": -77.04181033333333, "lat": 38.89224383333333, "type": "electric_scooter", "fusion_lon": 0.0, "is_reserved": 0, "bike_id": "dcceab46a40f09ee87600bc1a2529736", "fusion_lat": 0.0, "is_disabled": 0, "rental_uris": {"ios": "https://dc.lft.to/lastmile_qr_scan", "android": "https://dc.lft.to/lastmile_qr_scan"}}, {"name": "a62494c2a192e410408567e74ee3d79c", "lon": -77.0232975, "lat": 38.89723516666667, "type": "electric_scooter", "fusion_lon": 0.0, "is_reserved": 0, "bike_id": "a62494c2a192e410408567e74ee3d79c", "fusion_lat": 0.0, "is_disabled": 0, "rental_uris": {"ios": "https://dc.lft.to/lastmile_qr_scan", "android": "https://dc.lft.to/lastmile_qr_scan"}}, {"name": "c4b56426692d3ce08439f038d38f9d21", "lon": -77.04604966666666, "lat": 38.923292833333335, "type": "electric_scooter", "fusion_lon": 0.0, "is_reserved": 0, "bike_id": "c4b56426692d3ce08439f038d38f9d21", "fusion_lat": 0.0, "is_disabled": 0, "rental_uris": {"ios": "https://dc.lft.to/lastmile_qr_scan", "android": "https://dc.lft.to/lastmile_qr_scan"}}, {"name": "05afb6441dfb1e5ffb9c14f91a23a2a6", "lon": -77.02410533333334, "lat": 38.914164166666666, "type": "electric_bike", "fusion_lon": 0.0, "is_reserved": 0, "bike_id": "05afb6441dfb1e5ffb9c14f91a23a2a6", "fusion_lat": 0.0, "is_disabled": 0, "rental_uris": {"ios": "https://dc.lft.to/lastmile_qr_scan", "android": "https://dc.lft.to/lastmile_qr_scan"}}, {"name": "539da445f33711da40b3c96fae44f156", "lon": -77.03508433333333, "lat": 38.931132833333336, "type": "electric_bike", "fusion_lon": 0.0, "is_reserved": 0, "bike_id": "539da445f33711da40b3c96fae44f156", "fusion_lat": 0.0, "is_disabled": 0, "rental_uris": {"ios": "https://dc.lft.to/lastmile_qr_scan", "android": "https://dc.lft.to/lastmile_qr_scan"}}, {"name": "607897b2d151ec7f9b3087cc96892530", "lon": -77.032544, "lat": 38.915673166666664, "type": "electric_scooter", "fusion_lon": 0.0, "is_reserved": 0, "bike_id": "607897b2d151ec7f9b3087cc96892530", "fusion_lat": 0.0, "is_disabled": 0, "rental_uris": {"ios": "https://dc.lft.to/lastmile_qr_scan", "android": "https://dc.lft.to/lastmile_qr_scan"}}, {"name": "dbab804e8a5a8951d8781e2d3c5edabe", "lon": -77.0238325, "lat": 38.91991216666667, "type": "electric_scooter", "fusion_lon": 0.0, "is_reserved": 0, "bike_id": "dbab804e8a5a8951d8781e2d3c5edabe", "fusion_lat": 0.0, "is_disabled": 0, "rental_uris": {"ios": "https://dc.lft.to/lastmile_qr_scan", "android": "https://dc.lft.to/lastmile_qr_scan"}}, {"name": "da1965f98e992fc50201a88b60251d88", "lon": -77.03264616666667, "lat": 38.934097, "type": "electric_scooter", "fusion_lon": 0.0, "is_reserved": 0, "bike_id": "da1965f98e992fc50201a88b60251d88", "fusion_lat": 0.0, "is_disabled": 0, "rental_uris": {"ios": "https://dc.lft.to/lastmile_qr_scan", "android": "https://dc.lft.to/lastmile_qr_scan"}}, {"name": "100f5f496a1c537f6b0978e369ff704d", "lon": -77.04098416666666, "lat": 38.91787516666667, "type": "electric_scooter", "fusion_lon": 0.0, "is_reserved": 0, "bike_id": "100f5f496a1c537f6b0978e369ff704d", "fusion_lat": 0.0, "is_disabled": 0, "rental_uris": {"ios": "https://dc.lft.to/lastmile_qr_scan", "android": "https://dc.lft.to/lastmile_qr_scan"}}, {"name": "7df7b3bb019792f17e05984c0e60e419", "lon": -77.00483266666667, "lat": 38.9112675, "type": "electric_scooter", "fusion_lon": 0.0, "is_reserved": 0, "bike_id": "7df7b3bb019792f17e05984c0e60e419", "fusion_lat": 0.0, "is_disabled": 0, "rental_uris": {"ios": "https://dc.lft.to/lastmile_qr_scan", "android": "https://dc.lft.to/lastmile_qr_scan"}}, {"name": "16cfb79cf4e7ed97d2519c54875baf83", "lon": -77.03500216666667, "lat": 38.96385, "type": "electric_scooter", "fusion_lon": 0.0, "is_reserved": 0, "bike_id": "16cfb79cf4e7ed97d2519c54875baf83", "fusion_lat": 0.0, "is_disabled": 0, "rental_uris": {"ios": "https://dc.lft.to/lastmile_qr_scan", "android": "https://dc.lft.to/lastmile_qr_scan"}}, {"name": "072837c8f6f2da29c6b6bb7fb0767115", "lon": -77.033124, "lat": 38.92649133333333, "type": "electric_bike", "fusion_lon": 0.0, "is_reserved": 0, "bike_id": "072837c8f6f2da29c6b6bb7fb0767115", "fusion_lat": 0.0, "is_disabled": 0, "rental_uris": {"ios": "https://dc.lft.to/lastmile_qr_scan", "android": "https://dc.lft.to/lastmile_qr_scan"}}, {"name": "554ad91d5b34edb6923d2a92d7b97eec", "lon": -77.0435705, "lat": 38.898437, "type": "electric_scooter", "fusion_lon": 0.0, "is_reserved": 0, "bike_id": "554ad91d5b34edb6923d2a92d7b97eec", "fusion_lat": 0.0, "is_disabled": 0, "rental_uris": {"ios": "https://dc.lft.to/lastmile_qr_scan", "android": "https://dc.lft.to/lastmile_qr_scan"}}, {"name": "c1295a8870c1147b7db3a98af4e93d7d", "lon": -76.99613083333334, "lat": 38.901848, "type": "electric_bike", "fusion_lon": 0.0, "is_reserved": 0, "bike_id": "c1295a8870c1147b7db3a98af4e93d7d", "fusion_lat": 0.0, "is_disabled": 0, "rental_uris": {"ios": "https://dc.lft.to/lastmile_qr_scan", "android": "https://dc.lft.to/lastmile_qr_scan"}}, {"name": "76f4aa40951c77a169236c76c7276b67", "lon": -77.01208, "lat": 38.864255, "type": "electric_scooter", "fusion_lon": 0.0, "is_reserved": 0, "bike_id": "76f4aa40951c77a169236c76c7276b67", "fusion_lat": 0.0, "is_disabled": 0, "rental_uris": {"ios": "https://dc.lft.to/lastmile_qr_scan", "android": "https://dc.lft.to/lastmile_qr_scan"}}, {"name": "ddd1e088d73b51c99e9d9d9201c23b6d", "lon": -77.04363583333334, "lat": 38.90722783333333, "type": "electric_scooter", "fusion_lon": 0.0, "is_reserved": 0, "bike_id": "ddd1e088d73b51c99e9d9d9201c23b6d", "fusion_lat": 0.0, "is_disabled": 0, "rental_uris": {"ios": "https://dc.lft.to/lastmile_qr_scan", "android": "https://dc.lft.to/lastmile_qr_scan"}}, {"name": "00102d2f33717c08992874457e1dcc8c", "lon": -77.008126, "lat": 38.948017666666665, "type": "electric_bike", "fusion_lon": 0.0, "is_reserved": 0, "bike_id": "00102d2f33717c08992874457e1dcc8c", "fusion_lat": 0.0, "is_disabled": 0, "rental_uris": {"ios": "https://dc.lft.to/lastmile_qr_scan", "android": "https://dc.lft.to/lastmile_qr_scan"}}, {"name": "d938da90e546678652b738069a965e77", "lon": -77.0412825, "lat": 38.9028015, "type": "electric_scooter", "fusion_lon": 0.0, "is_reserved": 0, "bike_id": "d938da90e546678652b738069a965e77", "fusion_lat": 0.0, "is_disabled": 0, "rental_uris": {"ios": "https://dc.lft.to/lastmile_qr_scan", "android": "https://dc.lft.to/lastmile_qr_scan"}}, {"name": "9df803e3a93c8d50d208d2f193b322f3", "lon": -76.97912783333334, "lat": 38.8988645, "type": "electric_scooter", "fusion_lon": 0.0, "is_reserved": 0, "bike_id": "9df803e3a93c8d50d208d2f193b322f3", "fusion_lat": 0.0, "is_disabled": 0, "rental_uris": {"ios": "https://dc.lft.to/lastmile_qr_scan", "android": "https://dc.lft.to/lastmile_qr_scan"}}, {"name": "4aa4943927c1b644bf89f29b3493d368", "lon": -77.07807583333333, "lat": 38.92461016666667, "type": "electric_scooter", "fusion_lon": 0.0, "is_reserved": 0, "bike_id": "4aa4943927c1b644bf89f29b3493d368", "fusion_lat": 0.0, "is_disabled": 0, "rental_uris": {"ios": "https://dc.lft.to/lastmile_qr_scan", "android": "https://dc.lft.to/lastmile_qr_scan"}}, {"name": "75414a5ab7dadb3c9b04292dba81421d", "lon": -77.02818216666667, "lat": 38.9608015, "type": "electric_scooter", "fusion_lon": 0.0, "is_reserved": 0, "bike_id": "75414a5ab7dadb3c9b04292dba81421d", "fusion_lat": 0.0, "is_disabled": 0, "rental_uris": {"ios": "https://dc.lft.to/lastmile_qr_scan", "android": "https://dc.lft.to/lastmile_qr_scan"}}, {"name": "ef91f5774d26114846c4d85d076a36d3", "lon": -77.12953383333333, "lat": 38.85228133333333, "type": "electric_bike", "fusion_lon": 0.0, "is_reserved": 0, "bike_id": "ef91f5774d26114846c4d85d076a36d3", "fusion_lat": 0.0, "is_disabled": 0, "rental_uris": {"ios": "https://dc.lft.to/lastmile_qr_scan", "android": "https://dc.lft.to/lastmile_qr_scan"}}, {"name": "82e84bf902c9321818dcb2b976052e48", "lon": -77.0375105, "lat": 38.929136166666666, "type": "electric_scooter", "fusion_lon": 0.0, "is_reserved": 0, "bike_id": "82e84bf902c9321818dcb2b976052e48", "fusion_lat": 0.0, "is_disabled": 0, "rental_uris": {"ios": "https://dc.lft.to/lastmile_qr_scan", "android": "https://dc.lft.to/lastmile_qr_scan"}}, {"name": "cbf5b0a0844fa2ed22b193c468d0866a", "lon": -77.02566883333333, "lat": 38.904302333333334, "type": "electric_scooter", "fusion_lon": 0.0, "is_reserved": 0, "bike_id": "cbf5b0a0844fa2ed22b193c468d0866a", "fusion_lat": 0.0, "is_disabled": 0, "rental_uris": {"ios": "https://dc.lft.to/lastmile_qr_scan", "android": "https://dc.lft.to/lastmile_qr_scan"}}, {"name": "d25210c046ad2e0d0d906fdbdf9d51f9", "lon": -77.08936933333334, "lat": 38.8626535, "type": "electric_bike", "fusion_lon": 0.0, "is_reserved": 0, "bike_id": "d25210c046ad2e0d0d906fdbdf9d51f9", "fusion_lat": 0.0, "is_disabled": 0, "rental_uris": {"ios": "https://dc.lft.to/lastmile_qr_scan", "android": "https://dc.lft.to/lastmile_qr_scan"}}, {"name": "b7d82517a8e0de533ea7ac1f23b77f50", "lon": -76.98364316666667, "lat": 38.915400166666664, "type": "electric_scooter", "fusion_lon": 0.0, "is_reserved": 0, "bike_id": "b7d82517a8e0de533ea7ac1f23b77f50", "fusion_lat": 0.0, "is_disabled": 0, "rental_uris": {"ios": "https://dc.lft.to/lastmile_qr_scan", "android": "https://dc.lft.to/lastmile_qr_scan"}}, {"name": "3db23af50b1f974857d93c0facf27c3f", "lon": -77.01185633333333, "lat": 38.89534733333333, "type": "electric_scooter", "fusion_lon": 0.0, "is_reserved": 0, "bike_id": "3db23af50b1f974857d93c0facf27c3f", "fusion_lat": 0.0, "is_disabled": 0, "rental_uris": {"ios": "https://dc.lft.to/lastmile_qr_scan", "android": "https://dc.lft.to/lastmile_qr_scan"}}, {"name": "34e190a4b1992918f9508f873f8e6d5f", "lon": -77.0074775, "lat": 38.92672316666667, "type": "electric_scooter", "fusion_lon": 0.0, "is_reserved": 0, "bike_id": "34e190a4b1992918f9508f873f8e6d5f", "fusion_lat": 0.0, "is_disabled": 0, "rental_uris": {"ios": "https://dc.lft.to/lastmile_qr_scan", "android": "https://dc.lft.to/lastmile_qr_scan"}}, {"name": "dc88d3e6c22607a6c9ba3c608f074cd5", "lon": -77.00578366666667, "lat": 38.90562883333333, "type": "electric_scooter", "fusion_lon": 0.0, "is_reserved": 0, "bike_id": "dc88d3e6c22607a6c9ba3c608f074cd5", "fusion_lat": 0.0, "is_disabled": 0, "rental_uris": {"ios": "https://dc.lft.to/lastmile_qr_scan", "android": "https://dc.lft.to/lastmile_qr_scan"}}, {"name": "960f770f9079ddf5f51175fd991fde67", "lon": -76.997007, "lat": 38.908365, "type": "electric_scooter", "fusion_lon": 0.0, "is_reserved": 0, "bike_id": "960f770f9079ddf5f51175fd991fde67", "fusion_lat": 0.0, "is_disabled": 0, "rental_uris": {"ios": "https://dc.lft.to/lastmile_qr_scan", "android": "https://dc.lft.to/lastmile_qr_scan"}}, {"name": "dba58adb94cb2452196e9ddb25434888", "lon": -77.043987, "lat": 38.920305166666665, "type": "electric_scooter", "fusion_lon": 0.0, "is_reserved": 0, "bike_id": "dba58adb94cb2452196e9ddb25434888", "fusion_lat": 0.0, "is_disabled": 0, "rental_uris": {"ios": "https://dc.lft.to/lastmile_qr_scan", "android": "https://dc.lft.to/lastmile_qr_scan"}}, {"name": "07634d3ccacfce14088c75ef7471589a", "lon": -77.05307433333333, "lat": 38.89853216666667, "type": "electric_scooter", "fusion_lon": 0.0, "is_reserved": 0, "bike_id": "07634d3ccacfce14088c75ef7471589a", "fusion_lat": 0.0, "is_disabled": 0, "rental_uris": {"ios": "https://dc.lft.to/lastmile_qr_scan", "android": "https://dc.lft.to/lastmile_qr_scan"}}, {"name": "7b0b618b325f70af0436c09d6f0647bc", "lon": -77.0279235, "lat": 38.930812, "type": "electric_scooter", "fusion_lon": 0.0, "is_reserved": 0, "bike_id": "7b0b618b325f70af0436c09d6f0647bc", "fusion_lat": 0.0, "is_disabled": 0, "rental_uris": {"ios": "https://dc.lft.to/lastmile_qr_scan", "android": "https://dc.lft.to/lastmile_qr_scan"}}, {"name": "3dcfabf701b30e03a5d53fc132e621ae", "lon": -77.0306945, "lat": 38.92730433333333, "type": "electric_scooter", "fusion_lon": 0.0, "is_reserved": 0, "bike_id": "3dcfabf701b30e03a5d53fc132e621ae", "fusion_lat": 0.0, "is_disabled": 0, "rental_uris": {"ios": "https://dc.lft.to/lastmile_qr_scan", "android": "https://dc.lft.to/lastmile_qr_scan"}}, {"name": "8abedcb43b44527b6a0a8f90bcddb337", "lon": -77.03192866666667, "lat": 38.917832833333335, "type": "electric_scooter", "fusion_lon": 0.0, "is_reserved": 0, "bike_id": "8abedcb43b44527b6a0a8f90bcddb337", "fusion_lat": 0.0, "is_disabled": 0, "rental_uris": {"ios": "https://dc.lft.to/lastmile_qr_scan", "android": "https://dc.lft.to/lastmile_qr_scan"}}, {"name": "705e357748a6fc65988ef1b6300f8416", "lon": -77.03189866666666, "lat": 38.916422, "type": "electric_scooter", "fusion_lon": 0.0, "is_reserved": 0, "bike_id": "705e357748a6fc65988ef1b6300f8416", "fusion_lat": 0.0, "is_disabled": 0, "rental_uris": {"ios": "https://dc.lft.to/lastmile_qr_scan", "android": "https://dc.lft.to/lastmile_qr_scan"}}, {"name": "3f2f828a5fce34fa5cbcd7c53215959d", "lon": -77.030209, "lat": 38.9915745, "type": "electric_bike", "fusion_lon": 0.0, "is_reserved": 0, "bike_id": "3f2f828a5fce34fa5cbcd7c53215959d", "fusion_lat": 0.0, "is_disabled": 0, "rental_uris": {"ios": "https://dc.lft.to/lastmile_qr_scan", "android": "https://dc.lft.to/lastmile_qr_scan"}}, {"name": "a49e9c552e13c7aa5f25bf92bdd4ad15", "lon": -77.03378783333334, "lat": 38.92057466666667, "type": "electric_scooter", "fusion_lon": 0.0, "is_reserved": 0, "bike_id": "a49e9c552e13c7aa5f25bf92bdd4ad15", "fusion_lat": 0.0, "is_disabled": 0, "rental_uris": {"ios": "https://dc.lft.to/lastmile_qr_scan", "android": "https://dc.lft.to/lastmile_qr_scan"}}, {"name": "49883461b4ccf548f88a31794518f1a6", "lon": -77.00118616666667, "lat": 38.87796766666666, "type": "electric_scooter", "fusion_lon": 0.0, "is_reserved": 0, "bike_id": "49883461b4ccf548f88a31794518f1a6", "fusion_lat": 0.0, "is_disabled": 0, "rental_uris": {"ios": "https://dc.lft.to/lastmile_qr_scan", "android": "https://dc.lft.to/lastmile_qr_scan"}}, {"name": "0558d1d0397c46d959e9d476a1ba70b5", "lon": -77.02705166666667, "lat": 38.906726, "type": "electric_scooter", "fusion_lon": 0.0, "is_reserved": 0, "bike_id": "0558d1d0397c46d959e9d476a1ba70b5", "fusion_lat": 0.0, "is_disabled": 0, "rental_uris": {"ios": "https://dc.lft.to/lastmile_qr_scan", "android": "https://dc.lft.to/lastmile_qr_scan"}}, {"name": "5a940fcf9e1dce91698f327e25a2c400", "lon": -77.04001116666667, "lat": 38.888684833333336, "type": "electric_scooter", "fusion_lon": 0.0, "is_reserved": 0, "bike_id": "5a940fcf9e1dce91698f327e25a2c400", "fusion_lat": 0.0, "is_disabled": 0, "rental_uris": {"ios": "https://dc.lft.to/lastmile_qr_scan", "android": "https://dc.lft.to/lastmile_qr_scan"}}, {"name": "7e132b3dfe032a89e8dfc3bb6f6ffb63", "lon": -76.99351366666667, "lat": 38.8450835, "type": "electric_bike", "fusion_lon": 0.0, "is_reserved": 0, "bike_id": "7e132b3dfe032a89e8dfc3bb6f6ffb63", "fusion_lat": 0.0, "is_disabled": 0, "rental_uris": {"ios": "https://dc.lft.to/lastmile_qr_scan", "android": "https://dc.lft.to/lastmile_qr_scan"}}, {"name": "0f3d51914643d1fadae61d27eca19c0c", "lon": -77.034421, "lat": 38.91807083333333, "type": "electric_scooter", "fusion_lon": 0.0, "is_reserved": 0, "bike_id": "0f3d51914643d1fadae61d27eca19c0c", "fusion_lat": 0.0, "is_disabled": 0, "rental_uris": {"ios": "https://dc.lft.to/lastmile_qr_scan", "android": "https://dc.lft.to/lastmile_qr_scan"}}, {"name": "6a8dd8b954812320e42f33f2f65d3701", "lon": -77.03438416666667, "lat": 38.905681666666666, "type": "electric_scooter", "fusion_lon": 0.0, "is_reserved": 0, "bike_id": "6a8dd8b954812320e42f33f2f65d3701", "fusion_lat": 0.0, "is_disabled": 0, "rental_uris": {"ios": "https://dc.lft.to/lastmile_qr_scan", "android": "https://dc.lft.to/lastmile_qr_scan"}}, {"name": "d4678865a1ea30e64f664c3c9fd8896b", "lon": -76.998345, "lat": 38.883250333333336, "type": "electric_scooter", "fusion_lon": 0.0, "is_reserved": 0, "bike_id": "d4678865a1ea30e64f664c3c9fd8896b", "fusion_lat": 0.0, "is_disabled": 0, "rental_uris": {"ios": "https://dc.lft.to/lastmile_qr_scan", "android": "https://dc.lft.to/lastmile_qr_scan"}}, {"name": "8806684953fdf84ca34728681ebb0ad5", "lon": -77.03303516666666, "lat": 38.928779666666664, "type": "electric_scooter", "fusion_lon": 0.0, "is_reserved": 0, "bike_id": "8806684953fdf84ca34728681ebb0ad5", "fusion_lat": 0.0, "is_disabled": 0, "rental_uris": {"ios": "https://dc.lft.to/lastmile_qr_scan", "android": "https://dc.lft.to/lastmile_qr_scan"}}, {"name": "1d8bfbd8449123f4024d031978bfe0da", "lon": -77.001969, "lat": 38.90236183333333, "type": "electric_scooter", "fusion_lon": 0.0, "is_reserved": 0, "bike_id": "1d8bfbd8449123f4024d031978bfe0da", "fusion_lat": 0.0, "is_disabled": 0, "rental_uris": {"ios": "https://dc.lft.to/lastmile_qr_scan", "android": "https://dc.lft.to/lastmile_qr_scan"}}, {"name": "f6b2a779318806f8031823d8c22b9bc2", "lon": -76.9373335, "lat": 38.890171, "type": "electric_scooter", "fusion_lon": 0.0, "is_reserved": 0, "bike_id": "f6b2a779318806f8031823d8c22b9bc2", "fusion_lat": 0.0, "is_disabled": 0, "rental_uris": {"ios": "https://dc.lft.to/lastmile_qr_scan", "android": "https://dc.lft.to/lastmile_qr_scan"}}, {"name": "4697d5b63ff4674b24155e51716aaad8", "lon": -76.97009483333333, "lat": 38.8636905, "type": "electric_bike", "fusion_lon": 0.0, "is_reserved": 0, "bike_id": "4697d5b63ff4674b24155e51716aaad8", "fusion_lat": 0.0, "is_disabled": 0, "rental_uris": {"ios": "https://dc.lft.to/lastmile_qr_scan", "android": "https://dc.lft.to/lastmile_qr_scan"}}, {"name": "4170ef25bcb7b849f3a07d6d9dad2da6", "lon": -77.11798916666666, "lat": 38.873768166666665, "type": "electric_bike", "fusion_lon": 0.0, "is_reserved": 0, "bike_id": "4170ef25bcb7b849f3a07d6d9dad2da6", "fusion_lat": 0.0, "is_disabled": 0, "rental_uris": {"ios": "https://dc.lft.to/lastmile_qr_scan", "android": "https://dc.lft.to/lastmile_qr_scan"}}, {"name": "46f6b2af98dacfa5b4cd3642468a94ed", "lon": -77.02722116666666, "lat": 38.90141, "type": "electric_scooter", "fusion_lon": 0.0, "is_reserved": 0, "bike_id": "46f6b2af98dacfa5b4cd3642468a94ed", "fusion_lat": 0.0, "is_disabled": 0, "rental_uris": {"ios": "https://dc.lft.to/lastmile_qr_scan", "android": "https://dc.lft.to/lastmile_qr_scan"}}, {"name": "ac9354f829e3c90313295f7fbecfa59e", "lon": -77.00712183333333, "lat": 38.884907166666665, "type": "electric_scooter", "fusion_lon": 0.0, "is_reserved": 0, "bike_id": "ac9354f829e3c90313295f7fbecfa59e", "fusion_lat": 0.0, "is_disabled": 0, "rental_uris": {"ios": "https://dc.lft.to/lastmile_qr_scan", "android": "https://dc.lft.to/lastmile_qr_scan"}}, {"name": "ad463decb1b9db78244ac318120c3378", "lon": -77.03448116666667, "lat": 38.90813383333333, "type": "electric_scooter", "fusion_lon": 0.0, "is_reserved": 0, "bike_id": "ad463decb1b9db78244ac318120c3378", "fusion_lat": 0.0, "is_disabled": 0, "rental_uris": {"ios": "https://dc.lft.to/lastmile_qr_scan", "android": "https://dc.lft.to/lastmile_qr_scan"}}, {"name": "a541fc199f78a8f175a1f8a72cf79e3d", "lon": -76.96526433333334, "lat": 38.876293833333335, "type": "electric_scooter", "fusion_lon": 0.0, "is_reserved": 0, "bike_id": "a541fc199f78a8f175a1f8a72cf79e3d", "fusion_lat": 0.0, "is_disabled": 0, "rental_uris": {"ios": "https://dc.lft.to/lastmile_qr_scan", "android": "https://dc.lft.to/lastmile_qr_scan"}}, {"name": "2471b690a24e3e19ca19df5b1348699c", "lon": -77.01128316666667, "lat": 38.915913833333335, "type": "electric_scooter", "fusion_lon": 0.0, "is_reserved": 0, "bike_id": "2471b690a24e3e19ca19df5b1348699c", "fusion_lat": 0.0, "is_disabled": 0, "rental_uris": {"ios": "https://dc.lft.to/lastmile_qr_scan", "android": "https://dc.lft.to/lastmile_qr_scan"}}, {"name": "37d628a6c13d5c5ba5f9524c8fec8b1d", "lon": -76.99933183333333, "lat": 38.900226833333335, "type": "electric_scooter", "fusion_lon": 0.0, "is_reserved": 0, "bike_id": "37d628a6c13d5c5ba5f9524c8fec8b1d", "fusion_lat": 0.0, "is_disabled": 0, "rental_uris": {"ios": "https://dc.lft.to/lastmile_qr_scan", "android": "https://dc.lft.to/lastmile_qr_scan"}}, {"name": "50ca04ab6e7a8bec3094f8f170b2d231", "lon": -76.96530216666666, "lat": 38.87628866666667, "type": "electric_scooter", "fusion_lon": 0.0, "is_reserved": 0, "bike_id": "50ca04ab6e7a8bec3094f8f170b2d231", "fusion_lat": 0.0, "is_disabled": 0, "rental_uris": {"ios": "https://dc.lft.to/lastmile_qr_scan", "android": "https://dc.lft.to/lastmile_qr_scan"}}, {"name": "c1fb4c0716e234564d980daf175a14ee", "lon": -77.04062916666666, "lat": 38.91128533333333, "type": "electric_scooter", "fusion_lon": 0.0, "is_reserved": 0, "bike_id": "c1fb4c0716e234564d980daf175a14ee", "fusion_lat": 0.0, "is_disabled": 0, "rental_uris": {"ios": "https://dc.lft.to/lastmile_qr_scan", "android": "https://dc.lft.to/lastmile_qr_scan"}}, {"name": "2b3c0fa6bd7bfbcbad5b53b081a64940", "lon": -77.0236785, "lat": 38.892208, "type": "electric_scooter", "fusion_lon": 0.0, "is_reserved": 0, "bike_id": "2b3c0fa6bd7bfbcbad5b53b081a64940", "fusion_lat": 0.0, "is_disabled": 0, "rental_uris": {"ios": "https://dc.lft.to/lastmile_qr_scan", "android": "https://dc.lft.to/lastmile_qr_scan"}}, {"name": "768ca17145bce19e2fb1ffe82358f5a0", "lon": -77.053959, "lat": 38.9281045, "type": "electric_scooter", "fusion_lon": 0.0, "is_reserved": 0, "bike_id": "768ca17145bce19e2fb1ffe82358f5a0", "fusion_lat": 0.0, "is_disabled": 0, "rental_uris": {"ios": "https://dc.lft.to/lastmile_qr_scan", "android": "https://dc.lft.to/lastmile_qr_scan"}}, {"name": "a16f11d7c8f9f88beb2424b3895df492", "lon": -77.0326715, "lat": 38.931417, "type": "electric_scooter", "fusion_lon": 0.0, "is_reserved": 0, "bike_id": "a16f11d7c8f9f88beb2424b3895df492", "fusion_lat": 0.0, "is_disabled": 0, "rental_uris": {"ios": "https://dc.lft.to/lastmile_qr_scan", "android": "https://dc.lft.to/lastmile_qr_scan"}}, {"name": "87cbc17b321386d92d0e1a58091c6910", "lon": -77.03661333333334, "lat": 38.9175525, "type": "electric_scooter", "fusion_lon": 0.0, "is_reserved": 0, "bike_id": "87cbc17b321386d92d0e1a58091c6910", "fusion_lat": 0.0, "is_disabled": 0, "rental_uris": {"ios": "https://dc.lft.to/lastmile_qr_scan", "android": "https://dc.lft.to/lastmile_qr_scan"}}, {"name": "23a366c02d2b87277a754172df4d9675", "lon": -77.01189633333334, "lat": 38.915543, "type": "electric_scooter", "fusion_lon": 0.0, "is_reserved": 0, "bike_id": "23a366c02d2b87277a754172df4d9675", "fusion_lat": 0.0, "is_disabled": 0, "rental_uris": {"ios": "https://dc.lft.to/lastmile_qr_scan", "android": "https://dc.lft.to/lastmile_qr_scan"}}, {"name": "50b97cbd6490ef0378fbac4e6f750ad6", "lon": -76.99404366666667, "lat": 38.921035833333335, "type": "electric_scooter", "fusion_lon": 0.0, "is_reserved": 0, "bike_id": "50b97cbd6490ef0378fbac4e6f750ad6", "fusion_lat": 0.0, "is_disabled": 0, "rental_uris": {"ios": "https://dc.lft.to/lastmile_qr_scan", "android": "https://dc.lft.to/lastmile_qr_scan"}}, {"name": "fa932f42480d44076c19101279ec2559", "lon": -76.953664, "lat": 38.892111666666665, "type": "electric_scooter", "fusion_lon": 0.0, "is_reserved": 0, "bike_id": "fa932f42480d44076c19101279ec2559", "fusion_lat": 0.0, "is_disabled": 0, "rental_uris": {"ios": "https://dc.lft.to/lastmile_qr_scan", "android": "https://dc.lft.to/lastmile_qr_scan"}}, {"name": "2186555eab974e768d6d5c5c03bf3ba4", "lon": -76.98716033333334, "lat": 38.8670205, "type": "electric_scooter", "fusion_lon": 0.0, "is_reserved": 0, "bike_id": "2186555eab974e768d6d5c5c03bf3ba4", "fusion_lat": 0.0, "is_disabled": 0, "rental_uris": {"ios": "https://dc.lft.to/lastmile_qr_scan", "android": "https://dc.lft.to/lastmile_qr_scan"}}, {"name": "dad9cfbac833cdc57ed4a397d5054221", "lon": -77.05125533333333, "lat": 38.899708833333335, "type": "electric_scooter", "fusion_lon": 0.0, "is_reserved": 0, "bike_id": "dad9cfbac833cdc57ed4a397d5054221", "fusion_lat": 0.0, "is_disabled": 0, "rental_uris": {"ios": "https://dc.lft.to/lastmile_qr_scan", "android": "https://dc.lft.to/lastmile_qr_scan"}}, {"name": "4256a71557076818330b3cb391e881d8", "lon": -77.03210583333333, "lat": 38.91775966666667, "type": "electric_scooter", "fusion_lon": 0.0, "is_reserved": 0, "bike_id": "4256a71557076818330b3cb391e881d8", "fusion_lat": 0.0, "is_disabled": 0, "rental_uris": {"ios": "https://dc.lft.to/lastmile_qr_scan", "android": "https://dc.lft.to/lastmile_qr_scan"}}, {"name": "8494abd090466ac05a59e5d10fc9c429", "lon": -77.0021075, "lat": 38.90031333333334, "type": "electric_scooter", "fusion_lon": 0.0, "is_reserved": 0, "bike_id": "8494abd090466ac05a59e5d10fc9c429", "fusion_lat": 0.0, "is_disabled": 0, "rental_uris": {"ios": "https://dc.lft.to/lastmile_qr_scan", "android": "https://dc.lft.to/lastmile_qr_scan"}}, {"name": "980b6bd846fe0f71e61f093b8ad1d29b", "lon": -77.04466283333333, "lat": 38.9057945, "type": "electric_scooter", "fusion_lon": 0.0, "is_reserved": 0, "bike_id": "980b6bd846fe0f71e61f093b8ad1d29b", "fusion_lat": 0.0, "is_disabled": 0, "rental_uris": {"ios": "https://dc.lft.to/lastmile_qr_scan", "android": "https://dc.lft.to/lastmile_qr_scan"}}, {"name": "410312105d128a6a8a0875ff80d2bc7b", "lon": -77.0174475, "lat": 38.887399333333335, "type": "electric_scooter", "fusion_lon": 0.0, "is_reserved": 0, "bike_id": "410312105d128a6a8a0875ff80d2bc7b", "fusion_lat": 0.0, "is_disabled": 0, "rental_uris": {"ios": "https://dc.lft.to/lastmile_qr_scan", "android": "https://dc.lft.to/lastmile_qr_scan"}}, {"name": "6004d56c7236b69455a7ea3d51c9a094", "lon": -77.049075, "lat": 38.9006045, "type": "electric_scooter", "fusion_lon": 0.0, "is_reserved": 0, "bike_id": "6004d56c7236b69455a7ea3d51c9a094", "fusion_lat": 0.0, "is_disabled": 0, "rental_uris": {"ios": "https://dc.lft.to/lastmile_qr_scan", "android": "https://dc.lft.to/lastmile_qr_scan"}}, {"name": "5b1ab672255838fdf6ee01875694f4ee", "lon": -77.0294575, "lat": 38.90750833333333, "type": "electric_scooter", "fusion_lon": 0.0, "is_reserved": 0, "bike_id": "5b1ab672255838fdf6ee01875694f4ee", "fusion_lat": 0.0, "is_disabled": 0, "rental_uris": {"ios": "https://dc.lft.to/lastmile_qr_scan", "android": "https://dc.lft.to/lastmile_qr_scan"}}, {"name": "cc4e51e502e092e2ee8a2d9e3bb8f10c", "lon": -77.04332333333333, "lat": 38.89225966666667, "type": "electric_scooter", "fusion_lon": 0.0, "is_reserved": 0, "bike_id": "cc4e51e502e092e2ee8a2d9e3bb8f10c", "fusion_lat": 0.0, "is_disabled": 0, "rental_uris": {"ios": "https://dc.lft.to/lastmile_qr_scan", "android": "https://dc.lft.to/lastmile_qr_scan"}}, {"name": "855fbad22b9e48dd551225193ac04813", "lon": -76.98539183333334, "lat": 38.86648066666667, "type": "electric_scooter", "fusion_lon": 0.0, "is_reserved": 0, "bike_id": "855fbad22b9e48dd551225193ac04813", "fusion_lat": 0.0, "is_disabled": 0, "rental_uris": {"ios": "https://dc.lft.to/lastmile_qr_scan", "android": "https://dc.lft.to/lastmile_qr_scan"}}, {"name": "1c37594c515bbf0e1b976ca7ff7bd04e", "lon": -77.04876383333334, "lat": 38.906383, "type": "electric_scooter", "fusion_lon": 0.0, "is_reserved": 0, "bike_id": "1c37594c515bbf0e1b976ca7ff7bd04e", "fusion_lat": 0.0, "is_disabled": 0, "rental_uris": {"ios": "https://dc.lft.to/lastmile_qr_scan", "android": "https://dc.lft.to/lastmile_qr_scan"}}, {"name": "542bb465e83c368f376d50ccf2180315", "lon": -77.00906383333333, "lat": 38.88212933333333, "type": "electric_scooter", "fusion_lon": 0.0, "is_reserved": 0, "bike_id": "542bb465e83c368f376d50ccf2180315", "fusion_lat": 0.0, "is_disabled": 0, "rental_uris": {"ios": "https://dc.lft.to/lastmile_qr_scan", "android": "https://dc.lft.to/lastmile_qr_scan"}}, {"name": "f016feea23f3826228744f588fc54d5f", "lon": -77.0271245, "lat": 38.90073983333333, "type": "electric_scooter", "fusion_lon": 0.0, "is_reserved": 0, "bike_id": "f016feea23f3826228744f588fc54d5f", "fusion_lat": 0.0, "is_disabled": 0, "rental_uris": {"ios": "https://dc.lft.to/lastmile_qr_scan", "android": "https://dc.lft.to/lastmile_qr_scan"}}, {"name": "accd30c92fe544750a26fc4410346f70", "lon": -77.03647966666666, "lat": 38.93622633333333, "type": "electric_scooter", "fusion_lon": 0.0, "is_reserved": 0, "bike_id": "accd30c92fe544750a26fc4410346f70", "fusion_lat": 0.0, "is_disabled": 0, "rental_uris": {"ios": "https://dc.lft.to/lastmile_qr_scan", "android": "https://dc.lft.to/lastmile_qr_scan"}}, {"name": "1f49c90a64c71e3d5a3ab7c53e1aa4da", "lon": -77.04246716666667, "lat": 38.90827266666667, "type": "electric_scooter", "fusion_lon": 0.0, "is_reserved": 0, "bike_id": "1f49c90a64c71e3d5a3ab7c53e1aa4da", "fusion_lat": 0.0, "is_disabled": 0, "rental_uris": {"ios": "https://dc.lft.to/lastmile_qr_scan", "android": "https://dc.lft.to/lastmile_qr_scan"}}, {"name": "7159e48e8513b0745c0b9bd7a1afabae", "lon": -77.02486983333333, "lat": 38.94183733333333, "type": "electric_scooter", "fusion_lon": 0.0, "is_reserved": 0, "bike_id": "7159e48e8513b0745c0b9bd7a1afabae", "fusion_lat": 0.0, "is_disabled": 0, "rental_uris": {"ios": "https://dc.lft.to/lastmile_qr_scan", "android": "https://dc.lft.to/lastmile_qr_scan"}}, {"name": "22a593508e9c2ddfdaf4c7f7d6cbb896", "lon": -77.02296133333333, "lat": 38.92805583333333, "type": "electric_scooter", "fusion_lon": 0.0, "is_reserved": 0, "bike_id": "22a593508e9c2ddfdaf4c7f7d6cbb896", "fusion_lat": 0.0, "is_disabled": 0, "rental_uris": {"ios": "https://dc.lft.to/lastmile_qr_scan", "android": "https://dc.lft.to/lastmile_qr_scan"}}, {"name": "caebf159e8a330722c6bdd34e9b6b1fc", "lon": -77.0272405, "lat": 38.894895166666664, "type": "electric_scooter", "fusion_lon": 0.0, "is_reserved": 0, "bike_id": "caebf159e8a330722c6bdd34e9b6b1fc", "fusion_lat": 0.0, "is_disabled": 0, "rental_uris": {"ios": "https://dc.lft.to/lastmile_qr_scan", "android": "https://dc.lft.to/lastmile_qr_scan"}}, {"name": "479681819f41aafbca295a2863e3f75c", "lon": -77.04646416666667, "lat": 38.905534333333335, "type": "electric_scooter", "fusion_lon": 0.0, "is_reserved": 0, "bike_id": "479681819f41aafbca295a2863e3f75c", "fusion_lat": 0.0, "is_disabled": 0, "rental_uris": {"ios": "https://dc.lft.to/lastmile_qr_scan", "android": "https://dc.lft.to/lastmile_qr_scan"}}, {"name": "948fa094b090fd3db7855c635d8050dc", "lon": -77.042705, "lat": 38.908623, "type": "electric_scooter", "fusion_lon": 0.0, "is_reserved": 0, "bike_id": "948fa094b090fd3db7855c635d8050dc", "fusion_lat": 0.0, "is_disabled": 0, "rental_uris": {"ios": "https://dc.lft.to/lastmile_qr_scan", "android": "https://dc.lft.to/lastmile_qr_scan"}}, {"name": "0700cf525befa540be36cd33130e1cea", "lon": -77.03439416666667, "lat": 38.90975483333333, "type": "electric_scooter", "fusion_lon": 0.0, "is_reserved": 0, "bike_id": "0700cf525befa540be36cd33130e1cea", "fusion_lat": 0.0, "is_disabled": 0, "rental_uris": {"ios": "https://dc.lft.to/lastmile_qr_scan", "android": "https://dc.lft.to/lastmile_qr_scan"}}, {"name": "746b0cc118a3d8d85527fe15f5f3ea5f", "lon": -77.0102165, "lat": 38.917050833333334, "type": "electric_scooter", "fusion_lon": 0.0, "is_reserved": 0, "bike_id": "746b0cc118a3d8d85527fe15f5f3ea5f", "fusion_lat": 0.0, "is_disabled": 0, "rental_uris": {"ios": "https://dc.lft.to/lastmile_qr_scan", "android": "https://dc.lft.to/lastmile_qr_scan"}}, {"name": "42db9db785b8a13094a1c6d60176507f", "lon": -77.04720116666667, "lat": 38.90953283333333, "type": "electric_scooter", "fusion_lon": 0.0, "is_reserved": 0, "bike_id": "42db9db785b8a13094a1c6d60176507f", "fusion_lat": 0.0, "is_disabled": 0, "rental_uris": {"ios": "https://dc.lft.to/lastmile_qr_scan", "android": "https://dc.lft.to/lastmile_qr_scan"}}, {"name": "ff386fa0a3f00348fe72a406bed8f146", "lon": -77.0399385, "lat": 38.917624833333335, "type": "electric_scooter", "fusion_lon": 0.0, "is_reserved": 0, "bike_id": "ff386fa0a3f00348fe72a406bed8f146", "fusion_lat": 0.0, "is_disabled": 0, "rental_uris": {"ios": "https://dc.lft.to/lastmile_qr_scan", "android": "https://dc.lft.to/lastmile_qr_scan"}}, {"name": "c25222b52241df4f6e7bda124cea8344", "lon": -77.03461683333333, "lat": 38.9080575, "type": "electric_scooter", "fusion_lon": 0.0, "is_reserved": 0, "bike_id": "c25222b52241df4f6e7bda124cea8344", "fusion_lat": 0.0, "is_disabled": 0, "rental_uris": {"ios": "https://dc.lft.to/lastmile_qr_scan", "android": "https://dc.lft.to/lastmile_qr_scan"}}, {"name": "67508b6a7138177a975f8bb222265e40", "lon": -77.05668466666667, "lat": 38.92869366666667, "type": "electric_bike", "fusion_lon": 0.0, "is_reserved": 0, "bike_id": "67508b6a7138177a975f8bb222265e40", "fusion_lat": 0.0, "is_disabled": 0, "rental_uris": {"ios": "https://dc.lft.to/lastmile_qr_scan", "android": "https://dc.lft.to/lastmile_qr_scan"}}, {"name": "066c8776410121a86a61a6405bd205ed", "lon": -77.03194583333334, "lat": 38.9212215, "type": "electric_scooter", "fusion_lon": 0.0, "is_reserved": 0, "bike_id": "066c8776410121a86a61a6405bd205ed", "fusion_lat": 0.0, "is_disabled": 0, "rental_uris": {"ios": "https://dc.lft.to/lastmile_qr_scan", "android": "https://dc.lft.to/lastmile_qr_scan"}}, {"name": "9ede38d5fb749ee7984b1453ec809840", "lon": -77.021977, "lat": 38.91001166666667, "type": "electric_scooter", "fusion_lon": 0.0, "is_reserved": 0, "bike_id": "9ede38d5fb749ee7984b1453ec809840", "fusion_lat": 0.0, "is_disabled": 0, "rental_uris": {"ios": "https://dc.lft.to/lastmile_qr_scan", "android": "https://dc.lft.to/lastmile_qr_scan"}}, {"name": "894478fa2f45220326d71eff6518a96f", "lon": -76.99123166666666, "lat": 38.86202333333333, "type": "electric_scooter", "fusion_lon": 0.0, "is_reserved": 0, "bike_id": "894478fa2f45220326d71eff6518a96f", "fusion_lat": 0.0, "is_disabled": 0, "rental_uris": {"ios": "https://dc.lft.to/lastmile_qr_scan", "android": "https://dc.lft.to/lastmile_qr_scan"}}, {"name": "698f305f58a52b9adbd1ca9ad186ac74", "lon": -77.0418095, "lat": 38.892898833333334, "type": "electric_scooter", "fusion_lon": 0.0, "is_reserved": 0, "bike_id": "698f305f58a52b9adbd1ca9ad186ac74", "fusion_lat": 0.0, "is_disabled": 0, "rental_uris": {"ios": "https://dc.lft.to/lastmile_qr_scan", "android": "https://dc.lft.to/lastmile_qr_scan"}}, {"name": "7ba583993cfba6cecc5e7212eae7f403", "lon": -77.03838583333334, "lat": 38.912138, "type": "electric_scooter", "fusion_lon": 0.0, "is_reserved": 0, "bike_id": "7ba583993cfba6cecc5e7212eae7f403", "fusion_lat": 0.0, "is_disabled": 0, "rental_uris": {"ios": "https://dc.lft.to/lastmile_qr_scan", "android": "https://dc.lft.to/lastmile_qr_scan"}}, {"name": "cd5bc99435b3740e01316a8400ba666c", "lon": -77.02576316666666, "lat": 38.88353083333333, "type": "electric_scooter", "fusion_lon": 0.0, "is_reserved": 0, "bike_id": "cd5bc99435b3740e01316a8400ba666c", "fusion_lat": 0.0, "is_disabled": 0, "rental_uris": {"ios": "https://dc.lft.to/lastmile_qr_scan", "android": "https://dc.lft.to/lastmile_qr_scan"}}, {"name": "002b64d838ca4ed72d13708f83e5b61f", "lon": -77.0402785, "lat": 38.9128375, "type": "electric_scooter", "fusion_lon": 0.0, "is_reserved": 0, "bike_id": "002b64d838ca4ed72d13708f83e5b61f", "fusion_lat": 0.0, "is_disabled": 0, "rental_uris": {"ios": "https://dc.lft.to/lastmile_qr_scan", "android": "https://dc.lft.to/lastmile_qr_scan"}}, {"name": "33cde698923e78d2f89322c0f9ec3c95", "lon": -77.02710766666667, "lat": 38.90670016666667, "type": "electric_scooter", "fusion_lon": 0.0, "is_reserved": 0, "bike_id": "33cde698923e78d2f89322c0f9ec3c95", "fusion_lat": 0.0, "is_disabled": 0, "rental_uris": {"ios": "https://dc.lft.to/lastmile_qr_scan", "android": "https://dc.lft.to/lastmile_qr_scan"}}, {"name": "2accfb678739a495d4b6f67805987c0d", "lon": -77.02228666666667, "lat": 38.8922205, "type": "electric_scooter", "fusion_lon": 0.0, "is_reserved": 0, "bike_id": "2accfb678739a495d4b6f67805987c0d", "fusion_lat": 0.0, "is_disabled": 0, "rental_uris": {"ios": "https://dc.lft.to/lastmile_qr_scan", "android": "https://dc.lft.to/lastmile_qr_scan"}}, {"name": "3b1ab7f01b648bf9fa760456aa441e4b", "lon": -77.00075116666666, "lat": 38.916312833333336, "type": "electric_scooter", "fusion_lon": 0.0, "is_reserved": 0, "bike_id": "3b1ab7f01b648bf9fa760456aa441e4b", "fusion_lat": 0.0, "is_disabled": 0, "rental_uris": {"ios": "https://dc.lft.to/lastmile_qr_scan", "android": "https://dc.lft.to/lastmile_qr_scan"}}, {"name": "67ab47db75d00865bdddeb8e014c7335", "lon": -77.03779916666667, "lat": 38.916927333333334, "type": "electric_scooter", "fusion_lon": 0.0, "is_reserved": 0, "bike_id": "67ab47db75d00865bdddeb8e014c7335", "fusion_lat": 0.0, "is_disabled": 0, "rental_uris": {"ios": "https://dc.lft.to/lastmile_qr_scan", "android": "https://dc.lft.to/lastmile_qr_scan"}}, {"name": "16dfa18ef580acbe8c409dd4807b2a52", "lon": -77.02251366666667, "lat": 38.9274135, "type": "electric_scooter", "fusion_lon": 0.0, "is_reserved": 0, "bike_id": "16dfa18ef580acbe8c409dd4807b2a52", "fusion_lat": 0.0, "is_disabled": 0, "rental_uris": {"ios": "https://dc.lft.to/lastmile_qr_scan", "android": "https://dc.lft.to/lastmile_qr_scan"}}, {"name": "c7972369b8d413dbc3c3611167a0df6e", "lon": -77.01582516666667, "lat": 38.91675883333333, "type": "electric_scooter", "fusion_lon": 0.0, "is_reserved": 0, "bike_id": "c7972369b8d413dbc3c3611167a0df6e", "fusion_lat": 0.0, "is_disabled": 0, "rental_uris": {"ios": "https://dc.lft.to/lastmile_qr_scan", "android": "https://dc.lft.to/lastmile_qr_scan"}}, {"name": "4e862de2aaa17d73eb6ea564263e73a6", "lon": -76.99634033333334, "lat": 38.925614333333336, "type": "electric_scooter", "fusion_lon": 0.0, "is_reserved": 0, "bike_id": "4e862de2aaa17d73eb6ea564263e73a6", "fusion_lat": 0.0, "is_disabled": 0, "rental_uris": {"ios": "https://dc.lft.to/lastmile_qr_scan", "android": "https://dc.lft.to/lastmile_qr_scan"}}, {"name": "9eeed82a42be336ae4a724e1ee941d18", "lon": -77.03338083333334, "lat": 38.89827733333333, "type": "electric_scooter", "fusion_lon": 0.0, "is_reserved": 0, "bike_id": "9eeed82a42be336ae4a724e1ee941d18", "fusion_lat": 0.0, "is_disabled": 0, "rental_uris": {"ios": "https://dc.lft.to/lastmile_qr_scan", "android": "https://dc.lft.to/lastmile_qr_scan"}}, {"name": "ae8f7ddb948529852c89ac023bffd7ef", "lon": -77.03871233333334, "lat": 38.9325805, "type": "electric_scooter", "fusion_lon": 0.0, "is_reserved": 0, "bike_id": "ae8f7ddb948529852c89ac023bffd7ef", "fusion_lat": 0.0, "is_disabled": 0, "rental_uris": {"ios": "https://dc.lft.to/lastmile_qr_scan", "android": "https://dc.lft.to/lastmile_qr_scan"}}, {"name": "c5bd1e9a5d27889e2761c8beca1b6f2e", "lon": -77.05117016666667, "lat": 38.923611333333334, "type": "electric_scooter", "fusion_lon": 0.0, "is_reserved": 0, "bike_id": "c5bd1e9a5d27889e2761c8beca1b6f2e", "fusion_lat": 0.0, "is_disabled": 0, "rental_uris": {"ios": "https://dc.lft.to/lastmile_qr_scan", "android": "https://dc.lft.to/lastmile_qr_scan"}}, {"name": "3cfe3486ba5de00b07cd8a9b4f5a3e0f", "lon": -76.99407883333333, "lat": 38.877858, "type": "electric_scooter", "fusion_lon": 0.0, "is_reserved": 0, "bike_id": "3cfe3486ba5de00b07cd8a9b4f5a3e0f", "fusion_lat": 0.0, "is_disabled": 0, "rental_uris": {"ios": "https://dc.lft.to/lastmile_qr_scan", "android": "https://dc.lft.to/lastmile_qr_scan"}}, {"name": "26ffa5188575a75c729384e40e64a86e", "lon": -77.0176365, "lat": 38.87723366666667, "type": "electric_scooter", "fusion_lon": 0.0, "is_reserved": 0, "bike_id": "26ffa5188575a75c729384e40e64a86e", "fusion_lat": 0.0, "is_disabled": 0, "rental_uris": {"ios": "https://dc.lft.to/lastmile_qr_scan", "android": "https://dc.lft.to/lastmile_qr_scan"}}, {"name": "8dcc69400f897e7f2c65a224a82ea91d", "lon": -77.0177115, "lat": 38.874949, "type": "electric_scooter", "fusion_lon": 0.0, "is_reserved": 0, "bike_id": "8dcc69400f897e7f2c65a224a82ea91d", "fusion_lat": 0.0, "is_disabled": 0, "rental_uris": {"ios": "https://dc.lft.to/lastmile_qr_scan", "android": "https://dc.lft.to/lastmile_qr_scan"}}, {"name": "76e1cedb5f27f54bc17a73fe365fcbbd", "lon": -77.0882085, "lat": 38.909779, "type": "electric_bike", "fusion_lon": 0.0, "is_reserved": 0, "bike_id": "76e1cedb5f27f54bc17a73fe365fcbbd", "fusion_lat": 0.0, "is_disabled": 0, "rental_uris": {"ios": "https://dc.lft.to/lastmile_qr_scan", "android": "https://dc.lft.to/lastmile_qr_scan"}}, {"name": "a764a1837305c27a9e6d1fba94035c8f", "lon": -77.02372983333333, "lat": 38.896197, "type": "electric_scooter", "fusion_lon": 0.0, "is_reserved": 0, "bike_id": "a764a1837305c27a9e6d1fba94035c8f", "fusion_lat": 0.0, "is_disabled": 0, "rental_uris": {"ios": "https://dc.lft.to/lastmile_qr_scan", "android": "https://dc.lft.to/lastmile_qr_scan"}}, {"name": "f964784e0e3f749e471ef9a5ee17169c", "lon": -77.03632883333333, "lat": 38.923428, "type": "electric_scooter", "fusion_lon": 0.0, "is_reserved": 0, "bike_id": "f964784e0e3f749e471ef9a5ee17169c", "fusion_lat": 0.0, "is_disabled": 0, "rental_uris": {"ios": "https://dc.lft.to/lastmile_qr_scan", "android": "https://dc.lft.to/lastmile_qr_scan"}}, {"name": "a946b87e9f64d0c8a4b4109f262fb9ee", "lon": -77.03438333333334, "lat": 38.930900666666666, "type": "electric_scooter", "fusion_lon": 0.0, "is_reserved": 0, "bike_id": "a946b87e9f64d0c8a4b4109f262fb9ee", "fusion_lat": 0.0, "is_disabled": 0, "rental_uris": {"ios": "https://dc.lft.to/lastmile_qr_scan", "android": "https://dc.lft.to/lastmile_qr_scan"}}, {"name": "72ac4bb3ecbfe6d01fbf199755dcb9d8", "lon": -77.06416633333333, "lat": 38.94560366666666, "type": "electric_scooter", "fusion_lon": 0.0, "is_reserved": 0, "bike_id": "72ac4bb3ecbfe6d01fbf199755dcb9d8", "fusion_lat": 0.0, "is_disabled": 0, "rental_uris": {"ios": "https://dc.lft.to/lastmile_qr_scan", "android": "https://dc.lft.to/lastmile_qr_scan"}}, {"name": "26cad1a393ca4a80a0c893dbfd731f22", "lon": -77.02978666666667, "lat": 38.93454766666667, "type": "electric_scooter", "fusion_lon": 0.0, "is_reserved": 0, "bike_id": "26cad1a393ca4a80a0c893dbfd731f22", "fusion_lat": 0.0, "is_disabled": 0, "rental_uris": {"ios": "https://dc.lft.to/lastmile_qr_scan", "android": "https://dc.lft.to/lastmile_qr_scan"}}, {"name": "9ea9475d9ba3269dd533bf65b9af41cb", "lon": -77.01861483333333, "lat": 38.9041715, "type": "electric_scooter", "fusion_lon": 0.0, "is_reserved": 0, "bike_id": "9ea9475d9ba3269dd533bf65b9af41cb", "fusion_lat": 0.0, "is_disabled": 0, "rental_uris": {"ios": "https://dc.lft.to/lastmile_qr_scan", "android": "https://dc.lft.to/lastmile_qr_scan"}}, {"name": "9a6444932016e995a659a2dcea563e84", "lon": -77.04494283333334, "lat": 38.9132775, "type": "electric_scooter", "fusion_lon": 0.0, "is_reserved": 0, "bike_id": "9a6444932016e995a659a2dcea563e84", "fusion_lat": 0.0, "is_disabled": 0, "rental_uris": {"ios": "https://dc.lft.to/lastmile_qr_scan", "android": "https://dc.lft.to/lastmile_qr_scan"}}, {"name": "f92d3227cc53229a356bebe474fe87af", "lon": -77.01733433333334, "lat": 38.872684166666666, "type": "electric_scooter", "fusion_lon": 0.0, "is_reserved": 0, "bike_id": "f92d3227cc53229a356bebe474fe87af", "fusion_lat": 0.0, "is_disabled": 0, "rental_uris": {"ios": "https://dc.lft.to/lastmile_qr_scan", "android": "https://dc.lft.to/lastmile_qr_scan"}}, {"name": "4eace3d4c29f8d6c0fd952176e46ea67", "lon": -77.04927566666667, "lat": 38.81351733333333, "type": "electric_bike", "fusion_lon": 0.0, "is_reserved": 0, "bike_id": "4eace3d4c29f8d6c0fd952176e46ea67", "fusion_lat": 0.0, "is_disabled": 0, "rental_uris": {"ios": "https://dc.lft.to/lastmile_qr_scan", "android": "https://dc.lft.to/lastmile_qr_scan"}}, {"name": "5009af101112a679ac4f80656e286479", "lon": -77.02452716666667, "lat": 38.918060833333335, "type": "electric_scooter", "fusion_lon": 0.0, "is_reserved": 0, "bike_id": "5009af101112a679ac4f80656e286479", "fusion_lat": 0.0, "is_disabled": 0, "rental_uris": {"ios": "https://dc.lft.to/lastmile_qr_scan", "android": "https://dc.lft.to/lastmile_qr_scan"}}, {"name": "d9c27fcb16e6111114f9622b4bfada41", "lon": -76.967099, "lat": 38.847939, "type": "electric_scooter", "fusion_lon": 0.0, "is_reserved": 0, "bike_id": "d9c27fcb16e6111114f9622b4bfada41", "fusion_lat": 0.0, "is_disabled": 0, "rental_uris": {"ios": "https://dc.lft.to/lastmile_qr_scan", "android": "https://dc.lft.to/lastmile_qr_scan"}}, {"name": "5148b2736a94481b130bb0f0e449c84d", "lon": -77.0280045, "lat": 38.932939833333336, "type": "electric_scooter", "fusion_lon": 0.0, "is_reserved": 0, "bike_id": "5148b2736a94481b130bb0f0e449c84d", "fusion_lat": 0.0, "is_disabled": 0, "rental_uris": {"ios": "https://dc.lft.to/lastmile_qr_scan", "android": "https://dc.lft.to/lastmile_qr_scan"}}, {"name": "3004c2d3b9609350ee8cd8c97ea90866", "lon": -77.04243366666667, "lat": 38.91343533333333, "type": "electric_scooter", "fusion_lon": 0.0, "is_reserved": 0, "bike_id": "3004c2d3b9609350ee8cd8c97ea90866", "fusion_lat": 0.0, "is_disabled": 0, "rental_uris": {"ios": "https://dc.lft.to/lastmile_qr_scan", "android": "https://dc.lft.to/lastmile_qr_scan"}}, {"name": "35a7de8fa38c6e12d525408c186ab695", "lon": -77.00262566666666, "lat": 38.887240166666665, "type": "electric_scooter", "fusion_lon": 0.0, "is_reserved": 0, "bike_id": "35a7de8fa38c6e12d525408c186ab695", "fusion_lat": 0.0, "is_disabled": 0, "rental_uris": {"ios": "https://dc.lft.to/lastmile_qr_scan", "android": "https://dc.lft.to/lastmile_qr_scan"}}, {"name": "82d32c2cf73eb423d9e77f42c4ce92d5", "lon": -77.05184816666667, "lat": 38.903781, "type": "electric_scooter", "fusion_lon": 0.0, "is_reserved": 0, "bike_id": "82d32c2cf73eb423d9e77f42c4ce92d5", "fusion_lat": 0.0, "is_disabled": 0, "rental_uris": {"ios": "https://dc.lft.to/lastmile_qr_scan", "android": "https://dc.lft.to/lastmile_qr_scan"}}, {"name": "0481c8056202f139c16bdbd078a8b0b2", "lon": -77.0288, "lat": 38.904342, "type": "electric_scooter", "fusion_lon": 0.0, "is_reserved": 0, "bike_id": "0481c8056202f139c16bdbd078a8b0b2", "fusion_lat": 0.0, "is_disabled": 0, "rental_uris": {"ios": "https://dc.lft.to/lastmile_qr_scan", "android": "https://dc.lft.to/lastmile_qr_scan"}}, {"name": "115c7dd4ed86012828f2bdbcd21ac230", "lon": -76.9442305, "lat": 38.96621233333333, "type": "electric_bike", "fusion_lon": 0.0, "is_reserved": 0, "bike_id": "115c7dd4ed86012828f2bdbcd21ac230", "fusion_lat": 0.0, "is_disabled": 0, "rental_uris": {"ios": "https://dc.lft.to/lastmile_qr_scan", "android": "https://dc.lft.to/lastmile_qr_scan"}}, {"name": "94d8e296c85b78ca85a558523ce0986a", "lon": -77.02412283333334, "lat": 38.91745616666667, "type": "electric_scooter", "fusion_lon": 0.0, "is_reserved": 0, "bike_id": "94d8e296c85b78ca85a558523ce0986a", "fusion_lat": 0.0, "is_disabled": 0, "rental_uris": {"ios": "https://dc.lft.to/lastmile_qr_scan", "android": "https://dc.lft.to/lastmile_qr_scan"}}, {"name": "ac5df5765414dee2a22cf56cc112cb45", "lon": -76.998657, "lat": 38.900283333333334, "type": "electric_scooter", "fusion_lon": 0.0, "is_reserved": 0, "bike_id": "ac5df5765414dee2a22cf56cc112cb45", "fusion_lat": 0.0, "is_disabled": 0, "rental_uris": {"ios": "https://dc.lft.to/lastmile_qr_scan", "android": "https://dc.lft.to/lastmile_qr_scan"}}, {"name": "ffd13e63df2572142601bd7a8a0d2e06", "lon": -77.03361866666667, "lat": 38.928892166666664, "type": "electric_scooter", "fusion_lon": 0.0, "is_reserved": 0, "bike_id": "ffd13e63df2572142601bd7a8a0d2e06", "fusion_lat": 0.0, "is_disabled": 0, "rental_uris": {"ios": "https://dc.lft.to/lastmile_qr_scan", "android": "https://dc.lft.to/lastmile_qr_scan"}}, {"name": "21efd2a2d7b58083ec7d8b07b5b605fe", "lon": -77.051315, "lat": 38.90715866666667, "type": "electric_scooter", "fusion_lon": 0.0, "is_reserved": 0, "bike_id": "21efd2a2d7b58083ec7d8b07b5b605fe", "fusion_lat": 0.0, "is_disabled": 0, "rental_uris": {"ios": "https://dc.lft.to/lastmile_qr_scan", "android": "https://dc.lft.to/lastmile_qr_scan"}}, {"name": "3c24dccf9331584214b9edbc3e4af5d0", "lon": -76.92333416666666, "lat": 38.871129833333335, "type": "electric_bike", "fusion_lon": 0.0, "is_reserved": 0, "bike_id": "3c24dccf9331584214b9edbc3e4af5d0", "fusion_lat": 0.0, "is_disabled": 0, "rental_uris": {"ios": "https://dc.lft.to/lastmile_qr_scan", "android": "https://dc.lft.to/lastmile_qr_scan"}}, {"name": "f3c4838b8eecfb545e80c9328571fbe7", "lon": -77.00778933333333, "lat": 38.9267705, "type": "electric_scooter", "fusion_lon": 0.0, "is_reserved": 0, "bike_id": "f3c4838b8eecfb545e80c9328571fbe7", "fusion_lat": 0.0, "is_disabled": 0, "rental_uris": {"ios": "https://dc.lft.to/lastmile_qr_scan", "android": "https://dc.lft.to/lastmile_qr_scan"}}, {"name": "f176a77c13a216da20bf5be36e918eb4", "lon": -77.02343683333334, "lat": 38.94612433333333, "type": "electric_scooter", "fusion_lon": 0.0, "is_reserved": 0, "bike_id": "f176a77c13a216da20bf5be36e918eb4", "fusion_lat": 0.0, "is_disabled": 0, "rental_uris": {"ios": "https://dc.lft.to/lastmile_qr_scan", "android": "https://dc.lft.to/lastmile_qr_scan"}}, {"name": "c5b166d35ca4e7e2ca5c26968f6d899f", "lon": -77.0248855, "lat": 38.94184816666667, "type": "electric_scooter", "fusion_lon": 0.0, "is_reserved": 0, "bike_id": "c5b166d35ca4e7e2ca5c26968f6d899f", "fusion_lat": 0.0, "is_disabled": 0, "rental_uris": {"ios": "https://dc.lft.to/lastmile_qr_scan", "android": "https://dc.lft.to/lastmile_qr_scan"}}, {"name": "21769bbceebe8eed5d049ebf0d38653a", "lon": -76.9841855, "lat": 38.85515816666667, "type": "electric_bike", "fusion_lon": 0.0, "is_reserved": 0, "bike_id": "21769bbceebe8eed5d049ebf0d38653a", "fusion_lat": 0.0, "is_disabled": 0, "rental_uris": {"ios": "https://dc.lft.to/lastmile_qr_scan", "android": "https://dc.lft.to/lastmile_qr_scan"}}, {"name": "c8b642ea6c1d80af5d3aa97717526c9b", "lon": -77.01666033333333, "lat": 38.881074166666664, "type": "electric_scooter", "fusion_lon": 0.0, "is_reserved": 0, "bike_id": "c8b642ea6c1d80af5d3aa97717526c9b", "fusion_lat": 0.0, "is_disabled": 0, "rental_uris": {"ios": "https://dc.lft.to/lastmile_qr_scan", "android": "https://dc.lft.to/lastmile_qr_scan"}}, {"name": "0adec70f3f6e59a989131cfbdbaeca5c", "lon": -77.062714, "lat": 38.9055055, "type": "electric_scooter", "fusion_lon": 0.0, "is_reserved": 0, "bike_id": "0adec70f3f6e59a989131cfbdbaeca5c", "fusion_lat": 0.0, "is_disabled": 0, "rental_uris": {"ios": "https://dc.lft.to/lastmile_qr_scan", "android": "https://dc.lft.to/lastmile_qr_scan"}}, {"name": "617433d819ae7f91b5933766077f7f81", "lon": -77.02806316666667, "lat": 38.92363533333334, "type": "electric_scooter", "fusion_lon": 0.0, "is_reserved": 0, "bike_id": "617433d819ae7f91b5933766077f7f81", "fusion_lat": 0.0, "is_disabled": 0, "rental_uris": {"ios": "https://dc.lft.to/lastmile_qr_scan", "android": "https://dc.lft.to/lastmile_qr_scan"}}, {"name": "fe80ffb69aff765581f7bfce3493e701", "lon": -77.03338616666667, "lat": 38.898285333333334, "type": "electric_scooter", "fusion_lon": 0.0, "is_reserved": 0, "bike_id": "fe80ffb69aff765581f7bfce3493e701", "fusion_lat": 0.0, "is_disabled": 0, "rental_uris": {"ios": "https://dc.lft.to/lastmile_qr_scan", "android": "https://dc.lft.to/lastmile_qr_scan"}}, {"name": "b08b8498244c5b06274da0ffd5ca590e", "lon": -77.02401383333333, "lat": 38.91632233333333, "type": "electric_scooter", "fusion_lon": 0.0, "is_reserved": 0, "bike_id": "b08b8498244c5b06274da0ffd5ca590e", "fusion_lat": 0.0, "is_disabled": 0, "rental_uris": {"ios": "https://dc.lft.to/lastmile_qr_scan", "android": "https://dc.lft.to/lastmile_qr_scan"}}, {"name": "8ed58e2ce468628795ba0304e46173a2", "lon": -77.01755416666667, "lat": 38.8771425, "type": "electric_scooter", "fusion_lon": 0.0, "is_reserved": 0, "bike_id": "8ed58e2ce468628795ba0304e46173a2", "fusion_lat": 0.0, "is_disabled": 0, "rental_uris": {"ios": "https://dc.lft.to/lastmile_qr_scan", "android": "https://dc.lft.to/lastmile_qr_scan"}}, {"name": "eb7a2759617cb2a0f8d27c317974289f", "lon": -77.03376066666667, "lat": 38.89903283333334, "type": "electric_scooter", "fusion_lon": 0.0, "is_reserved": 0, "bike_id": "eb7a2759617cb2a0f8d27c317974289f", "fusion_lat": 0.0, "is_disabled": 0, "rental_uris": {"ios": "https://dc.lft.to/lastmile_qr_scan", "android": "https://dc.lft.to/lastmile_qr_scan"}}, {"name": "8785aae3b9c2d7d0130de5aca1b35214", "lon": -77.04642783333334, "lat": 38.9193895, "type": "electric_scooter", "fusion_lon": 0.0, "is_reserved": 0, "bike_id": "8785aae3b9c2d7d0130de5aca1b35214", "fusion_lat": 0.0, "is_disabled": 0, "rental_uris": {"ios": "https://dc.lft.to/lastmile_qr_scan", "android": "https://dc.lft.to/lastmile_qr_scan"}}, {"name": "0bbab7e8b78fb0e5379803f0d52a0e6e", "lon": -77.04518016666667, "lat": 38.9027085, "type": "electric_scooter", "fusion_lon": 0.0, "is_reserved": 0, "bike_id": "0bbab7e8b78fb0e5379803f0d52a0e6e", "fusion_lat": 0.0, "is_disabled": 0, "rental_uris": {"ios": "https://dc.lft.to/lastmile_qr_scan", "android": "https://dc.lft.to/lastmile_qr_scan"}}, {"name": "c3d4bf19021a537829d279c95c91d8e5", "lon": -77.0945635, "lat": 38.807581666666664, "type": "electric_bike", "fusion_lon": 0.0, "is_reserved": 0, "bike_id": "c3d4bf19021a537829d279c95c91d8e5", "fusion_lat": 0.0, "is_disabled": 0, "rental_uris": {"ios": "https://dc.lft.to/lastmile_qr_scan", "android": "https://dc.lft.to/lastmile_qr_scan"}}, {"name": "6384ae0da5cf3eff75bcee41b95dd1ec", "lon": -77.04479916666666, "lat": 38.92423466666666, "type": "electric_scooter", "fusion_lon": 0.0, "is_reserved": 0, "bike_id": "6384ae0da5cf3eff75bcee41b95dd1ec", "fusion_lat": 0.0, "is_disabled": 0, "rental_uris": {"ios": "https://dc.lft.to/lastmile_qr_scan", "android": "https://dc.lft.to/lastmile_qr_scan"}}, {"name": "e71862ccb3691d1fe11e6bb06c4798cc", "lon": -77.06330616666666, "lat": 38.944218166666666, "type": "electric_scooter", "fusion_lon": 0.0, "is_reserved": 0, "bike_id": "e71862ccb3691d1fe11e6bb06c4798cc", "fusion_lat": 0.0, "is_disabled": 0, "rental_uris": {"ios": "https://dc.lft.to/lastmile_qr_scan", "android": "https://dc.lft.to/lastmile_qr_scan"}}, {"name": "835bb77d1cb4a0f2927427adf2aa7707", "lon": -77.021685, "lat": 38.90559416666667, "type": "electric_scooter", "fusion_lon": 0.0, "is_reserved": 0, "bike_id": "835bb77d1cb4a0f2927427adf2aa7707", "fusion_lat": 0.0, "is_disabled": 0, "rental_uris": {"ios": "https://dc.lft.to/lastmile_qr_scan", "android": "https://dc.lft.to/lastmile_qr_scan"}}, {"name": "bbc1fee3b97d1c10a73405d3cc3f5c68", "lon": -77.02731166666666, "lat": 38.940926, "type": "electric_scooter", "fusion_lon": 0.0, "is_reserved": 0, "bike_id": "bbc1fee3b97d1c10a73405d3cc3f5c68", "fusion_lat": 0.0, "is_disabled": 0, "rental_uris": {"ios": "https://dc.lft.to/lastmile_qr_scan", "android": "https://dc.lft.to/lastmile_qr_scan"}}, {"name": "957907e45424c0c1a00ec6f16f05b7c2", "lon": -77.04136816666667, "lat": 38.893544166666665, "type": "electric_scooter", "fusion_lon": 0.0, "is_reserved": 0, "bike_id": "957907e45424c0c1a00ec6f16f05b7c2", "fusion_lat": 0.0, "is_disabled": 0, "rental_uris": {"ios": "https://dc.lft.to/lastmile_qr_scan", "android": "https://dc.lft.to/lastmile_qr_scan"}}, {"name": "9d18dfc78211f64f6321990574cfd56e", "lon": -76.89538933333333, "lat": 38.945549, "type": "electric_bike", "fusion_lon": 0.0, "is_reserved": 0, "bike_id": "9d18dfc78211f64f6321990574cfd56e", "fusion_lat": 0.0, "is_disabled": 0, "rental_uris": {"ios": "https://dc.lft.to/lastmile_qr_scan", "android": "https://dc.lft.to/lastmile_qr_scan"}}, {"name": "9704cb9f7aaa77f5433773de30752a2c", "lon": -76.9824375, "lat": 38.8645795, "type": "electric_scooter", "fusion_lon": 0.0, "is_reserved": 0, "bike_id": "9704cb9f7aaa77f5433773de30752a2c", "fusion_lat": 0.0, "is_disabled": 0, "rental_uris": {"ios": "https://dc.lft.to/lastmile_qr_scan", "android": "https://dc.lft.to/lastmile_qr_scan"}}, {"name": "d3930430c96161bce665f1d9b3cf958d", "lon": -77.0634935, "lat": 38.944478833333335, "type": "electric_scooter", "fusion_lon": 0.0, "is_reserved": 0, "bike_id": "d3930430c96161bce665f1d9b3cf958d", "fusion_lat": 0.0, "is_disabled": 0, "rental_uris": {"ios": "https://dc.lft.to/lastmile_qr_scan", "android": "https://dc.lft.to/lastmile_qr_scan"}}, {"name": "5a0cb3879c4661d753db654df9707b4f", "lon": -76.99539416666667, "lat": 38.879314, "type": "electric_scooter", "fusion_lon": 0.0, "is_reserved": 0, "bike_id": "5a0cb3879c4661d753db654df9707b4f", "fusion_lat": 0.0, "is_disabled": 0, "rental_uris": {"ios": "https://dc.lft.to/lastmile_qr_scan", "android": "https://dc.lft.to/lastmile_qr_scan"}}, {"name": "fbe3e64944b96589599eb9f3a02edbb8", "lon": -77.03257566666667, "lat": 38.939701166666666, "type": "electric_scooter", "fusion_lon": 0.0, "is_reserved": 0, "bike_id": "fbe3e64944b96589599eb9f3a02edbb8", "fusion_lat": 0.0, "is_disabled": 0, "rental_uris": {"ios": "https://dc.lft.to/lastmile_qr_scan", "android": "https://dc.lft.to/lastmile_qr_scan"}}, {"name": "56962a3885b01076e2b3819b866aad77", "lon": -77.04303366666667, "lat": 38.9288885, "type": "electric_bike", "fusion_lon": 0.0, "is_reserved": 0, "bike_id": "56962a3885b01076e2b3819b866aad77", "fusion_lat": 0.0, "is_disabled": 0, "rental_uris": {"ios": "https://dc.lft.to/lastmile_qr_scan", "android": "https://dc.lft.to/lastmile_qr_scan"}}, {"name": "4cd59e0db121c2df66b6aa431a69cbdf", "lon": -76.9662395, "lat": 38.871053, "type": "electric_scooter", "fusion_lon": 0.0, "is_reserved": 0, "bike_id": "4cd59e0db121c2df66b6aa431a69cbdf", "fusion_lat": 0.0, "is_disabled": 0, "rental_uris": {"ios": "https://dc.lft.to/lastmile_qr_scan", "android": "https://dc.lft.to/lastmile_qr_scan"}}, {"name": "1c9503235297734db30c0a7dc20b840d", "lon": -77.00119466666666, "lat": 38.90507016666667, "type": "electric_scooter", "fusion_lon": 0.0, "is_reserved": 0, "bike_id": "1c9503235297734db30c0a7dc20b840d", "fusion_lat": 0.0, "is_disabled": 0, "rental_uris": {"ios": "https://dc.lft.to/lastmile_qr_scan", "android": "https://dc.lft.to/lastmile_qr_scan"}}, {"name": "68ae3c8b19d0d3227abe7e26f670faac", "lon": -77.0304005, "lat": 38.898193, "type": "electric_scooter", "fusion_lon": 0.0, "is_reserved": 0, "bike_id": "68ae3c8b19d0d3227abe7e26f670faac", "fusion_lat": 0.0, "is_disabled": 0, "rental_uris": {"ios": "https://dc.lft.to/lastmile_qr_scan", "android": "https://dc.lft.to/lastmile_qr_scan"}}, {"name": "fc0313830c52ef6ad5bf0eb1fd5863d6", "lon": -77.029372, "lat": 38.89613516666667, "type": "electric_scooter", "fusion_lon": 0.0, "is_reserved": 0, "bike_id": "fc0313830c52ef6ad5bf0eb1fd5863d6", "fusion_lat": 0.0, "is_disabled": 0, "rental_uris": {"ios": "https://dc.lft.to/lastmile_qr_scan", "android": "https://dc.lft.to/lastmile_qr_scan"}}, {"name": "cd497b91490790dfc789b319ec277b53", "lon": -77.03415733333334, "lat": 38.919185666666664, "type": "electric_scooter", "fusion_lon": 0.0, "is_reserved": 0, "bike_id": "cd497b91490790dfc789b319ec277b53", "fusion_lat": 0.0, "is_disabled": 0, "rental_uris": {"ios": "https://dc.lft.to/lastmile_qr_scan", "android": "https://dc.lft.to/lastmile_qr_scan"}}, {"name": "bd64bcbf340ce77f6a57c3a72177d95c", "lon": -77.0142425, "lat": 38.90577566666666, "type": "electric_bike", "fusion_lon": 0.0, "is_reserved": 0, "bike_id": "bd64bcbf340ce77f6a57c3a72177d95c", "fusion_lat": 0.0, "is_disabled": 0, "rental_uris": {"ios": "https://dc.lft.to/lastmile_qr_scan", "android": "https://dc.lft.to/lastmile_qr_scan"}}, {"name": "a26dce75921557e361f24a7f4b12fcf0", "lon": -77.043266, "lat": 38.89224133333333, "type": "electric_scooter", "fusion_lon": 0.0, "is_reserved": 0, "bike_id": "a26dce75921557e361f24a7f4b12fcf0", "fusion_lat": 0.0, "is_disabled": 0, "rental_uris": {"ios": "https://dc.lft.to/lastmile_qr_scan", "android": "https://dc.lft.to/lastmile_qr_scan"}}, {"name": "fb9085dfb390adca20d836dc5a51b6d9", "lon": -76.9462305, "lat": 38.83232866666667, "type": "electric_bike", "fusion_lon": 0.0, "is_reserved": 0, "bike_id": "fb9085dfb390adca20d836dc5a51b6d9", "fusion_lat": 0.0, "is_disabled": 0, "rental_uris": {"ios": "https://dc.lft.to/lastmile_qr_scan", "android": "https://dc.lft.to/lastmile_qr_scan"}}, {"name": "af144a2c177561dc862f037569e07455", "lon": -77.032923, "lat": 38.9563495, "type": "electric_scooter", "fusion_lon": 0.0, "is_reserved": 0, "bike_id": "af144a2c177561dc862f037569e07455", "fusion_lat": 0.0, "is_disabled": 0, "rental_uris": {"ios": "https://dc.lft.to/lastmile_qr_scan", "android": "https://dc.lft.to/lastmile_qr_scan"}}, {"name": "3e5b02fce7558147697a4e6dce610bbe", "lon": -77.00924066666667, "lat": 38.9134435, "type": "electric_scooter", "fusion_lon": 0.0, "is_reserved": 0, "bike_id": "3e5b02fce7558147697a4e6dce610bbe", "fusion_lat": 0.0, "is_disabled": 0, "rental_uris": {"ios": "https://dc.lft.to/lastmile_qr_scan", "android": "https://dc.lft.to/lastmile_qr_scan"}}, {"name": "0d9e57c12b543afabb22aba0a43af64f", "lon": -76.9424555, "lat": 38.89674633333333, "type": "electric_scooter", "fusion_lon": 0.0, "is_reserved": 0, "bike_id": "0d9e57c12b543afabb22aba0a43af64f", "fusion_lat": 0.0, "is_disabled": 0, "rental_uris": {"ios": "https://dc.lft.to/lastmile_qr_scan", "android": "https://dc.lft.to/lastmile_qr_scan"}}, {"name": "cb957390f1b29da05ba27a1c14df723f", "lon": -77.04977583333333, "lat": 39.062934166666665, "type": "electric_bike", "fusion_lon": 0.0, "is_reserved": 0, "bike_id": "cb957390f1b29da05ba27a1c14df723f", "fusion_lat": 0.0, "is_disabled": 0, "rental_uris": {"ios": "https://dc.lft.to/lastmile_qr_scan", "android": "https://dc.lft.to/lastmile_qr_scan"}}, {"name": "c754905238b9aa28125729b44ada32f0", "lon": -77.008851, "lat": 38.924843333333335, "type": "electric_scooter", "fusion_lon": 0.0, "is_reserved": 0, "bike_id": "c754905238b9aa28125729b44ada32f0", "fusion_lat": 0.0, "is_disabled": 0, "rental_uris": {"ios": "https://dc.lft.to/lastmile_qr_scan", "android": "https://dc.lft.to/lastmile_qr_scan"}}, {"name": "735719bcd79c38e1e98e9afbffae111c", "lon": -77.0574745, "lat": 38.924981, "type": "electric_scooter", "fusion_lon": 0.0, "is_reserved": 0, "bike_id": "735719bcd79c38e1e98e9afbffae111c", "fusion_lat": 0.0, "is_disabled": 0, "rental_uris": {"ios": "https://dc.lft.to/lastmile_qr_scan", "android": "https://dc.lft.to/lastmile_qr_scan"}}, {"name": "9db3b33881d5d4f948563706da6830cc", "lon": -77.035358, "lat": 38.92537633333333, "type": "electric_scooter", "fusion_lon": 0.0, "is_reserved": 0, "bike_id": "9db3b33881d5d4f948563706da6830cc", "fusion_lat": 0.0, "is_disabled": 0, "rental_uris": {"ios": "https://dc.lft.to/lastmile_qr_scan", "android": "https://dc.lft.to/lastmile_qr_scan"}}, {"name": "f529dc955d9455ec9640c8983d293523", "lon": -77.02988316666666, "lat": 38.90577716666667, "type": "electric_scooter", "fusion_lon": 0.0, "is_reserved": 0, "bike_id": "f529dc955d9455ec9640c8983d293523", "fusion_lat": 0.0, "is_disabled": 0, "rental_uris": {"ios": "https://dc.lft.to/lastmile_qr_scan", "android": "https://dc.lft.to/lastmile_qr_scan"}}, {"name": "3c12d6c78d162bd4a6fb9eab3d125a12", "lon": -76.98004733333333, "lat": 38.853167166666665, "type": "electric_scooter", "fusion_lon": 0.0, "is_reserved": 0, "bike_id": "3c12d6c78d162bd4a6fb9eab3d125a12", "fusion_lat": 0.0, "is_disabled": 0, "rental_uris": {"ios": "https://dc.lft.to/lastmile_qr_scan", "android": "https://dc.lft.to/lastmile_qr_scan"}}, {"name": "9f206cbe0fc5261e998e77ef0ec3716f", "lon": -77.00897533333334, "lat": 38.909911666666666, "type": "electric_scooter", "fusion_lon": 0.0, "is_reserved": 0, "bike_id": "9f206cbe0fc5261e998e77ef0ec3716f", "fusion_lat": 0.0, "is_disabled": 0, "rental_uris": {"ios": "https://dc.lft.to/lastmile_qr_scan", "android": "https://dc.lft.to/lastmile_qr_scan"}}, {"name": "aa123b205882708c726a5f5ebc9f56f0", "lon": -77.0174875, "lat": 38.920376166666664, "type": "electric_scooter", "fusion_lon": 0.0, "is_reserved": 0, "bike_id": "aa123b205882708c726a5f5ebc9f56f0", "fusion_lat": 0.0, "is_disabled": 0, "rental_uris": {"ios": "https://dc.lft.to/lastmile_qr_scan", "android": "https://dc.lft.to/lastmile_qr_scan"}}, {"name": "f509ee4b88c03ac12c541eec4f778e6f", "lon": -77.03863883333334, "lat": 38.91694016666667, "type": "electric_scooter", "fusion_lon": 0.0, "is_reserved": 0, "bike_id": "f509ee4b88c03ac12c541eec4f778e6f", "fusion_lat": 0.0, "is_disabled": 0, "rental_uris": {"ios": "https://dc.lft.to/lastmile_qr_scan", "android": "https://dc.lft.to/lastmile_qr_scan"}}, {"name": "a15611ff2b40d41c0d30cf4de4f84c02", "lon": -77.06408933333333, "lat": 38.9130025, "type": "electric_scooter", "fusion_lon": 0.0, "is_reserved": 0, "bike_id": "a15611ff2b40d41c0d30cf4de4f84c02", "fusion_lat": 0.0, "is_disabled": 0, "rental_uris": {"ios": "https://dc.lft.to/lastmile_qr_scan", "android": "https://dc.lft.to/lastmile_qr_scan"}}, {"name": "d8663dd297b233a0f7be0060e78e74d8", "lon": -77.038201, "lat": 38.90679733333333, "type": "electric_scooter", "fusion_lon": 0.0, "is_reserved": 0, "bike_id": "d8663dd297b233a0f7be0060e78e74d8", "fusion_lat": 0.0, "is_disabled": 0, "rental_uris": {"ios": "https://dc.lft.to/lastmile_qr_scan", "android": "https://dc.lft.to/lastmile_qr_scan"}}, {"name": "1f79b2330b1ae5f591cda03ffcf82050", "lon": -76.94583766666666, "lat": 38.93745466666667, "type": "electric_bike", "fusion_lon": 0.0, "is_reserved": 0, "bike_id": "1f79b2330b1ae5f591cda03ffcf82050", "fusion_lat": 0.0, "is_disabled": 0, "rental_uris": {"ios": "https://dc.lft.to/lastmile_qr_scan", "android": "https://dc.lft.to/lastmile_qr_scan"}},