{"data": {"bikes": [{"rental_uris": {"android": "https://dc.lft.to/lastmile_qr_scan", "ios": "https://dc.lft.to/lastmile_qr_scan"}, "is_reserved": 0, "is_disabled": 0, "name": "643b2190b613f524507cf013c439e7f3", "bike_id": "643b2190b613f524507cf013c439e7f3", "fusion_lat": 0.0, "lon": -77.12732983333333, "type": "electric_bike", "fusion_lon": 0.0, "lat": 38.895613833333336}, {"rental_uris": {"android": "https://dc.lft.to/lastmile_qr_scan", "ios": "https://dc.lft.to/lastmile_qr_scan"}, "is_reserved": 0, "is_disabled": 0, "name": "d0f1ab47b317b98ee045e2fbf220f83e", "bike_id": "d0f1ab47b317b98ee045e2fbf220f83e", "fusion_lat": 0.0, "lon": -77.03182133333334, "type": "electric_scooter", "fusion_lon": 0.0, "lat": 38.908039333333335}, {"rental_uris": {"android": "https://dc.lft.to/lastmile_qr_scan", "ios": "https://dc.lft.to/lastmile_qr_scan"}, "is_reserved": 0, "is_disabled": 0, "name": "6efee4504a7a13b3defc120f3fbcd7da", "bike_id": "6efee4504a7a13b3defc120f3fbcd7da", "fusion_lat": 0.0, "lon": -77.02579466666667, "type": "electric_scooter", "fusion_lon": 0.0, "lat": 38.89604583333333}, {"rental_uris": {"android": "https://dc.lft.to/lastmile_qr_scan", "ios": "https://dc.lft.to/lastmile_qr_scan"}, "is_reserved": 0, "is_disabled": 0, "name": "734c7f40bf27edeb6b35170be3c3f57d", "bike_id": "734c7f40bf27edeb6b35170be3c3f57d", "fusion_lat": 0.0, "lon": -76.95697266666667, "type": "electric_bike", "fusion_lon": 0.0, "lat": 38.8509305}, {"rental_uris": {"android": "https://dc.lft.to/lastmile_qr_scan", "ios": "https://dc.lft.to/lastmile_qr_scan"}, "is_reserved": 0, "is_disabled": 0, "name": "d1394310713388627ab5a8bfcdd8345b", "bike_id": "d1394310713388627ab5a8bfcdd8345b", "fusion_lat": 0.0, "lon": -77.03193716666667, "type": "electric_scooter", "fusion_lon": 0.0, "lat": 38.92251783333333}, {"rental_uris": {"android": "https://dc.lft.to/lastmile_qr_scan", "ios": "https://dc.lft.to/lastmile_qr_scan"}, "is_reserved": 0, "is_disabled": 0, "name": "0575e7a8ba275ca7b29884b4f25ca09d", "bike_id": "0575e7a8ba275ca7b29884b4f25ca09d", "fusion_lat": 0.0, "lon": -77.04027083333334, "type": "electric_scooter", "fusion_lon": 0.0, "lat": 38.9181145}, {"rental_uris": {"android": "https://dc.lft.to/lastmile_qr_scan", "ios": "https://dc.lft.to/lastmile_qr_scan"}, "is_reserved": 0, "is_disabled": 0, "name": "6463e68339bcbe1a126cfb249f53677b", "bike_id": "6463e68339bcbe1a126cfb249f53677b", "fusion_lat": 0.0, "lon": -76.94178483333333, "type": "electric_scooter", "fusion_lon": 0.0, "lat": 38.892655}, {"rental_uris": {"android": "https://dc.lft.to/lastmile_qr_scan", "ios": "https://dc.lft.to/lastmile_qr_scan"}, "is_reserved": 0, "is_disabled": 0, "name": "3068cae65b75e613adb78e5ab0f39d5b", "bike_id": "3068cae65b75e613adb78e5ab0f39d5b", "fusion_lat": 0.0, "lon": -77.03903216666667, "type": "electric_scooter", "fusion_lon": 0.0, "lat": 38.9219575}, {"rental_uris": {"android": "https://dc.lft.to/lastmile_qr_scan", "ios": "https://dc.lft.to/lastmile_qr_scan"}, "is_reserved": 0, "is_disabled": 0, "name": "5e492a97511fafbc498f8ee587224b73", "bike_id": "5e492a97511fafbc498f8ee587224b73", "fusion_lat": 0.0, "lon": -77.00286533333333, "type": "electric_scooter", "fusion_lon": 0.0, "lat": 38.9057495}, {"rental_uris": {"android": "https://dc.lft.to/lastmile_qr_scan", "ios": "https://dc.lft.to/lastmile_qr_scan"}, "is_reserved": 0, "is_disabled": 0, "name": "43e77487a6921355a415d3cd72fa8bdf", "bike_id": "43e77487a6921355a415d3cd72fa8bdf", "fusion_lat": 0.0, "lon": -77.024799, "type": "electric_scooter", "fusion_lon": 0.0, "lat": 38.938521}, {"rental_uris": {"android": "https://dc.lft.to/lastmile_qr_scan", "ios": "https://dc.lft.to/lastmile_qr_scan"}, "is_reserved": 0, "is_disabled": 0, "name": "8dffed6d243b6e9426577e077b8462dc", "bike_id": "8dffed6d243b6e9426577e077b8462dc", "fusion_lat": 0.0, "lon": -77.09012766666666, "type": "electric_bike", "fusion_lon": 0.0, "lat": 38.92643183333333}, {"rental_uris": {"android": "https://dc.lft.to/lastmile_qr_scan", "ios": "https://dc.lft.to/lastmile_qr_scan"}, "is_reserved": 0, "is_disabled": 0, "name": "1d2130e5397c209f86920e8ed782acff", "bike_id": "1d2130e5397c209f86920e8ed782acff", "fusion_lat": 0.0, "lon": -77.02181716666666, "type": "electric_scooter", "fusion_lon": 0.0, "lat": 38.90061266666667}, {"rental_uris": {"android": "https://dc.lft.to/lastmile_qr_scan", "ios": "https://dc.lft.to/lastmile_qr_scan"}, "is_reserved": 0, "is_disabled": 0, "name": "46b7cc95d0b10e81d038066d8d1a9e7d", "bike_id": "46b7cc95d0b10e81d038066d8d1a9e7d", "fusion_lat": 0.0, "lon": -77.03295783333333, "type": "electric_scooter", "fusion_lon": 0.0, "lat": 38.89905266666667}, {"rental_uris": {"android": "https://dc.lft.to/lastmile_qr_scan", "ios": "https://dc.lft.to/lastmile_qr_scan"}, "is_reserved": 0, "is_disabled": 0, "name": "1ad6ddf2e656f3879e73d5a2d243b09e", "bike_id": "1ad6ddf2e656f3879e73d5a2d243b09e", "fusion_lat": 0.0, "lon": -77.01872566666667, "type": "electric_scooter", "fusion_lon": 0.0, "lat": 38.92912533333333}, {"rental_uris": {"android": "https://dc.lft.to/lastmile_qr_scan", "ios": "https://dc.lft.to/lastmile_qr_scan"}, "is_reserved": 0, "is_disabled": 0, "name": "a387067f26cc8f82c7a0340a7928a05c", "bike_id": "a387067f26cc8f82c7a0340a7928a05c", "fusion_lat": 0.0, "lon": -77.0184805, "type": "electric_scooter", "fusion_lon": 0.0, "lat": 38.909519833333334}, {"rental_uris": {"android": "https://dc.lft.to/lastmile_qr_scan", "ios": "https://dc.lft.to/lastmile_qr_scan"}, "is_reserved": 0, "is_disabled": 0, "name": "ae4e5f7696f69bdf78ccbe5246ea71c1", "bike_id": "ae4e5f7696f69bdf78ccbe5246ea71c1", "fusion_lat": 0.0, "lon": -77.02299483333333, "type": "electric_scooter", "fusion_lon": 0.0, "lat": 38.9178785}, {"rental_uris": {"android": "https://dc.lft.to/lastmile_qr_scan", "ios": "https://dc.lft.to/lastmile_qr_scan"}, "is_reserved": 0, "is_disabled": 0, "name": "e50f44b5b6f9715ce481477c7f930563", "bike_id": "e50f44b5b6f9715ce481477c7f930563", "fusion_lat": 0.0, "lon": -77.01998183333333, "type": "electric_scooter", "fusion_lon": 0.0, "lat": 38.90053833333333}, {"rental_uris": {"android": "https://dc.lft.to/lastmile_qr_scan", "ios": "https://dc.lft.to/lastmile_qr_scan"}, "is_reserved": 0, "is_disabled": 0, "name": "fe21e33df24c51aa058c86c310c0101a", "bike_id": "fe21e33df24c51aa058c86c310c0101a", "fusion_lat": 0.0, "lon": -77.00920266666667, "type": "electric_scooter", "fusion_lon": 0.0, "lat": 38.913787666666664}, {"rental_uris": {"android": "https://dc.lft.to/lastmile_qr_scan", "ios": "https://dc.lft.to/lastmile_qr_scan"}, "is_reserved": 0, "is_disabled": 0, "name": "cfb27346ea177342f9b73232e78ed9cc", "bike_id": "cfb27346ea177342f9b73232e78ed9cc", "fusion_lat": 0.0, "lon": -77.02937833333333, "type": "electric_scooter", "fusion_lon": 0.0, "lat": 38.9206115}, {"rental_uris": {"android": "https://dc.lft.to/lastmile_qr_scan", "ios": "https://dc.lft.to/lastmile_qr_scan"}, "is_reserved": 0, "is_disabled": 0, "name": "1d11dd89d461a4b7f445509c57c66af7", "bike_id": "1d11dd89d461a4b7f445509c57c66af7", "fusion_lat": 0.0, "lon": -77.03667466666667, "type": "electric_scooter", "fusion_lon": 0.0, "lat": 38.92272583333333}, {"rental_uris": {"android": "https://dc.lft.to/lastmile_qr_scan", "ios": "https://dc.lft.to/lastmile_qr_scan"}, "is_reserved": 0, "is_disabled": 0, "name": "77e88b3b421ccc6d657b0cac18e1b60b", "bike_id": "77e88b3b421ccc6d657b0cac18e1b60b", "fusion_lat": 0.0, "lon": -77.02888133333333, "type": "electric_scooter", "fusion_lon": 0.0, "lat": 38.926753833333336}, {"rental_uris": {"android": "https://dc.lft.to/lastmile_qr_scan", "ios": "https://dc.lft.to/lastmile_qr_scan"}, "is_reserved": 0, "is_disabled": 0, "name": "c6ddf604a66958319c3069602e7f0a27", "bike_id": "c6ddf604a66958319c3069602e7f0a27", "fusion_lat": 0.0, "lon": -77.03537016666667, "type": "electric_scooter", "fusion_lon": 0.0, "lat": 38.92467383333333}, {"rental_uris": {"android": "https://dc.lft.to/lastmile_qr_scan", "ios": "https://dc.lft.to/lastmile_qr_scan"}, "is_reserved": 0, "is_disabled": 0, "name": "c113b31439920afa12e8d367eec8fbc7", "bike_id": "c113b31439920afa12e8d367eec8fbc7", "fusion_lat": 0.0, "lon": -77.02535816666666, "type": "electric_scooter", "fusion_lon": 0.0, "lat": 38.88333}, {"rental_uris": {"android": "https://dc.lft.to/lastmile_qr_scan", "ios": "https://dc.lft.to/lastmile_qr_scan"}, "is_reserved": 0, "is_disabled": 0, "name": "f685484ab2648d6111fb16680fc3cdcc", "bike_id": "f685484ab2648d6111fb16680fc3cdcc", "fusion_lat": 0.0, "lon": -77.04010633333333, "type": "electric_scooter", "fusion_lon": 0.0, "lat": 38.9243595}, {"rental_uris": {"android": "https://dc.lft.to/lastmile_qr_scan", "ios": "https://dc.lft.to/lastmile_qr_scan"}, "is_reserved": 0, "is_disabled": 0, "name": "092cef51ff813ca41fffcf86b8ce543f", "bike_id": "092cef51ff813ca41fffcf86b8ce543f", "fusion_lat": 0.0, "lon": -76.9863355, "type": "electric_scooter", "fusion_lon": 0.0, "lat": 38.8551135}, {"rental_uris": {"android": "https://dc.lft.to/lastmile_qr_scan", "ios": "https://dc.lft.to/lastmile_qr_scan"}, "is_reserved": 0, "is_disabled": 0, "name": "ce170524e1770fb6a88c0c6db7a9055d", "bike_id": "ce170524e1770fb6a88c0c6db7a9055d", "fusion_lat": 0.0, "lon": -77.04347016666667, "type": "electric_scooter", "fusion_lon": 0.0, "lat": 38.897111333333335}, {"rental_uris": {"android": "https://dc.lft.to/lastmile_qr_scan", "ios": "https://dc.lft.to/lastmile_qr_scan"}, "is_reserved": 0, "is_disabled": 0, "name": "8a62dd584250b1d9156453bc2a6f5c71", "bike_id": "8a62dd584250b1d9156453bc2a6f5c71", "fusion_lat": 0.0, "lon": -77.036418, "type": "electric_scooter", "fusion_lon": 0.0, "lat": 38.916319}, {"rental_uris": {"android": "https://dc.lft.to/lastmile_qr_scan", "ios": "https://dc.lft.to/lastmile_qr_scan"}, "is_reserved": 0, "is_disabled": 0, "name": "0d13d1100e57e323493fa74b2733223f", "bike_id": "0d13d1100e57e323493fa74b2733223f", "fusion_lat": 0.0, "lon": -76.98581166666666, "type": "electric_scooter", "fusion_lon": 0.0, "lat": 38.900131}, {"rental_uris": {"android": "https://dc.lft.to/lastmile_qr_scan", "ios": "https://dc.lft.to/lastmile_qr_scan"}, "is_reserved": 0, "is_disabled": 0, "name": "131633eff0d019544f1b1aff83de5fad", "bike_id": "131633eff0d019544f1b1aff83de5fad", "fusion_lat": 0.0, "lon": -77.0240955, "type": "electric_scooter", "fusion_lon": 0.0, "lat": 38.912652}, {"rental_uris": {"android": "https://dc.lft.to/lastmile_qr_scan", "ios": "https://dc.lft.to/lastmile_qr_scan"}, "is_reserved": 0, "is_disabled": 0, "name": "8d1bc91caa855f71eb67c06c360ca6a6", "bike_id": "8d1bc91caa855f71eb67c06c360ca6a6", "fusion_lat": 0.0, "lon": -77.07872033333334, "type": "electric_scooter", "fusion_lon": 0.0, "lat": 38.9195835}, {"rental_uris": {"android": "https://dc.lft.to/lastmile_qr_scan", "ios": "https://dc.lft.to/lastmile_qr_scan"}, "is_reserved": 0, "is_disabled": 0, "name": "d1c8bd21854ac0e60e2c2adeddda6c10", "bike_id": "d1c8bd21854ac0e60e2c2adeddda6c10", "fusion_lat": 0.0, "lon": -77.018836, "type": "electric_scooter", "fusion_lon": 0.0, "lat": 38.92911816666667}, {"rental_uris": {"android": "https://dc.lft.to/lastmile_qr_scan", "ios": "https://dc.lft.to/lastmile_qr_scan"}, "is_reserved": 0, "is_disabled": 0, "name": "e78df141b840ca4b1273b53eaae1a830", "bike_id": "e78df141b840ca4b1273b53eaae1a830", "fusion_lat": 0.0, "lon": -77.041684, "type": "electric_scooter", "fusion_lon": 0.0, "lat": 38.905956833333335}, {"rental_uris": {"android": "https://dc.lft.to/lastmile_qr_scan", "ios": "https://dc.lft.to/lastmile_qr_scan"}, "is_reserved": 0, "is_disabled": 0, "name": "3f683ab58155411d1b599550c6648d3e", "bike_id": "3f683ab58155411d1b599550c6648d3e", "fusion_lat": 0.0, "lon": -77.02531733333333, "type": "electric_scooter", "fusion_lon": 0.0, "lat": 38.906524166666664}, {"rental_uris": {"android": "https://dc.lft.to/lastmile_qr_scan", "ios": "https://dc.lft.to/lastmile_qr_scan"}, "is_reserved": 0, "is_disabled": 0, "name": "49a3e8e5c9384adc1765d728ee7a0ae7", "bike_id": "49a3e8e5c9384adc1765d728ee7a0ae7", "fusion_lat": 0.0, "lon": -77.0212475, "type": "electric_scooter", "fusion_lon": 0.0, "lat": 38.923735666666666}, {"rental_uris": {"android": "https://dc.lft.to/lastmile_qr_scan", "ios": "https://dc.lft.to/lastmile_qr_scan"}, "is_reserved": 0, "is_disabled": 0, "name": "a92c48d98612cef954ffa86768954d86", "bike_id": "a92c48d98612cef954ffa86768954d86", "fusion_lat": 0.0, "lon": -77.03445716666667, "type": "electric_scooter", "fusion_lon": 0.0, "lat": 38.90811083333333}, {"rental_uris": {"android": "https://dc.lft.to/lastmile_qr_scan", "ios": "https://dc.lft.to/lastmile_qr_scan"}, "is_reserved": 0, "is_disabled": 0, "name": "da6574aac61ab83d88a8d8050cf0a442", "bike_id": "da6574aac61ab83d88a8d8050cf0a442", "fusion_lat": 0.0, "lon": -77.04685416666666, "type": "electric_scooter", "fusion_lon": 0.0, "lat": 38.8995945}, {"rental_uris": {"android": "https://dc.lft.to/lastmile_qr_scan", "ios": "https://dc.lft.to/lastmile_qr_scan"}, "is_reserved": 0, "is_disabled": 0, "name": "fbec7acba5f59556768736d47b969791", "bike_id": "fbec7acba5f59556768736d47b969791", "fusion_lat": 0.0, "lon": -77.04026666666667, "type": "electric_scooter", "fusion_lon": 0.0, "lat": 38.91811166666667}, {"rental_uris": {"android": "https://dc.lft.to/lastmile_qr_scan", "ios": "https://dc.lft.to/lastmile_qr_scan"}, "is_reserved": 0, "is_disabled": 0, "name": "a8afd7337fca276f99a2587cc60001f8", "bike_id": "a8afd7337fca276f99a2587cc60001f8", "fusion_lat": 0.0, "lon": -77.0425805, "type": "electric_scooter", "fusion_lon": 0.0, "lat": 38.909404}, {"rental_uris": {"android": "https://dc.lft.to/lastmile_qr_scan", "ios": "https://dc.lft.to/lastmile_qr_scan"}, "is_reserved": 0, "is_disabled": 0, "name": "ee72948a5b585e12871f203eb42cbbd5", "bike_id": "ee72948a5b585e12871f203eb42cbbd5", "fusion_lat": 0.0, "lon": -77.0345145, "type": "electric_scooter", "fusion_lon": 0.0, "lat": 38.9180725}, {"rental_uris": {"android": "https://dc.lft.to/lastmile_qr_scan", "ios": "https://dc.lft.to/lastmile_qr_scan"}, "is_reserved": 0, "is_disabled": 0, "name": "fe15c0133aa0ef43a08382e1e07ebaf6", "bike_id": "fe15c0133aa0ef43a08382e1e07ebaf6", "fusion_lat": 0.0, "lon": -76.99459533333334, "type": "electric_scooter", "fusion_lon": 0.0, "lat": 38.82777633333333}, {"rental_uris": {"android": "https://dc.lft.to/lastmile_qr_scan", "ios": "https://dc.lft.to/lastmile_qr_scan"}, "is_reserved": 0, "is_disabled": 0, "name": "2fac12dc310080c8a2c3b0ba469c5929", "bike_id": "2fac12dc310080c8a2c3b0ba469c5929", "fusion_lat": 0.0, "lon": -77.06105233333334, "type": "electric_scooter", "fusion_lon": 0.0, "lat": 38.905315}, {"rental_uris": {"android": "https://dc.lft.to/lastmile_qr_scan", "ios": "https://dc.lft.to/lastmile_qr_scan"}, "is_reserved": 0, "is_disabled": 0, "name": "ba8060ee66734238e2b4afabc1103f01", "bike_id": "ba8060ee66734238e2b4afabc1103f01", "fusion_lat": 0.0, "lon": -76.9300975, "type": "electric_scooter", "fusion_lon": 0.0, "lat": 38.907189833333334}, {"rental_uris": {"android": "https://dc.lft.to/lastmile_qr_scan", "ios": "https://dc.lft.to/lastmile_qr_scan"}, "is_reserved": 0, "is_disabled": 0, "name": "c839ec149304e91cd5d993d7a332b71b", "bike_id": "c839ec149304e91cd5d993d7a332b71b", "fusion_lat": 0.0, "lon": -77.02831783333333, "type": "electric_scooter", "fusion_lon": 0.0, "lat": 38.89530366666666}, {"rental_uris": {"android": "https://dc.lft.to/lastmile_qr_scan", "ios": "https://dc.lft.to/lastmile_qr_scan"}, "is_reserved": 0, "is_disabled": 0, "name": "946e29abf653d24fa241958c1d60763c", "bike_id": "946e29abf653d24fa241958c1d60763c", "fusion_lat": 0.0, "lon": -77.09522916666667, "type": "electric_bike", "fusion_lon": 0.0, "lat": 38.838127166666666}, {"rental_uris": {"android": "https://dc.lft.to/lastmile_qr_scan", "ios": "https://dc.lft.to/lastmile_qr_scan"}, "is_reserved": 0, "is_disabled": 0, "name": "b6ff76619fd106c1050b98f6b64337bc", "bike_id": "b6ff76619fd106c1050b98f6b64337bc", "fusion_lat": 0.0, "lon": -76.94381383333334, "type": "electric_scooter", "fusion_lon": 0.0, "lat": 38.89118066666666}, {"rental_uris": {"android": "https://dc.lft.to/lastmile_qr_scan", "ios": "https://dc.lft.to/lastmile_qr_scan"}, "is_reserved": 0, "is_disabled": 0, "name": "c80b7e97f3ed8b969b79208e5d06e1ad", "bike_id": "c80b7e97f3ed8b969b79208e5d06e1ad", "fusion_lat": 0.0, "lon": -77.02543616666667, "type": "electric_scooter", "fusion_lon": 0.0, "lat": 38.924074}, {"rental_uris": {"android": "https://dc.lft.to/lastmile_qr_scan", "ios": "https://dc.lft.to/lastmile_qr_scan"}, "is_reserved": 0, "is_disabled": 0, "name": "c4cd92b221e7c68e86b594bab3e062ac", "bike_id": "c4cd92b221e7c68e86b594bab3e062ac", "fusion_lat": 0.0, "lon": -77.054117, "type": "electric_scooter", "fusion_lon": 0.0, "lat": 38.900810666666665}, {"rental_uris": {"android": "https://dc.lft.to/lastmile_qr_scan", "ios": "https://dc.lft.to/lastmile_qr_scan"}, "is_reserved": 0, "is_disabled": 0, "name": "6365faefd586e51de02fed5df471236c", "bike_id": "6365faefd586e51de02fed5df471236c", "fusion_lat": 0.0, "lon": -77.05502983333334, "type": "electric_scooter", "fusion_lon": 0.0, "lat": 38.92841683333333}, {"rental_uris": {"android": "https://dc.lft.to/lastmile_qr_scan", "ios": "https://dc.lft.to/lastmile_qr_scan"}, "is_reserved": 0, "is_disabled": 0, "name": "65dbd4e87188ed3135d700d23fdc57c7", "bike_id": "65dbd4e87188ed3135d700d23fdc57c7", "fusion_lat": 0.0, "lon": -76.967119, "type": "electric_scooter", "fusion_lon": 0.0, "lat": 38.859715}, {"rental_uris": {"android": "https://dc.lft.to/lastmile_qr_scan", "ios": "https://dc.lft.to/lastmile_qr_scan"}, "is_reserved": 0, "is_disabled": 0, "name": "9e298d5dc23c28ecfa0c02280629d854", "bike_id": "9e298d5dc23c28ecfa0c02280629d854", "fusion_lat": 0.0, "lon": -77.030618, "type": "electric_scooter", "fusion_lon": 0.0, "lat": 38.923701333333334}, {"rental_uris": {"android": "https://dc.lft.to/lastmile_qr_scan", "ios": "https://dc.lft.to/lastmile_qr_scan"}, "is_reserved": 0, "is_disabled": 0, "name": "9af1d6c4693351cff1a977384ec2d332", "bike_id": "9af1d6c4693351cff1a977384ec2d332", "fusion_lat": 0.0, "lon": -77.04232333333333, "type": "electric_scooter", "fusion_lon": 0.0, "lat": 38.9341445}, {"rental_uris": {"android": "https://dc.lft.to/lastmile_qr_scan", "ios": "https://dc.lft.to/lastmile_qr_scan"}, "is_reserved": 0, "is_disabled": 0, "name": "6ad85afa4d082f66ce6b8287ee4e4b8b", "bike_id": "6ad85afa4d082f66ce6b8287ee4e4b8b", "fusion_lat": 0.0, "lon": -76.99539616666667, "type": "electric_bike", "fusion_lon": 0.0, "lat": 38.956324333333335}, {"rental_uris": {"android": "https://dc.lft.to/lastmile_qr_scan", "ios": "https://dc.lft.to/lastmile_qr_scan"}, "is_reserved": 0, "is_disabled": 0, "name": "96cb6798e063dcdff7b9dc0c99978f2f", "bike_id": "96cb6798e063dcdff7b9dc0c99978f2f", "fusion_lat": 0.0, "lon": -77.01866316666667, "type": "electric_scooter", "fusion_lon": 0.0, "lat": 38.97369333333333}, {"rental_uris": {"android": "https://dc.lft.to/lastmile_qr_scan", "ios": "https://dc.lft.to/lastmile_qr_scan"}, "is_reserved": 0, "is_disabled": 0, "name": "9f7917768d69e2fee5e4a9078cc941d5", "bike_id": "9f7917768d69e2fee5e4a9078cc941d5", "fusion_lat": 0.0, "lon": -77.00353333333334, "type": "electric_scooter", "fusion_lon": 0.0, "lat": 38.87668766666667}, {"rental_uris": {"android": "https://dc.lft.to/lastmile_qr_scan", "ios": "https://dc.lft.to/lastmile_qr_scan"}, "is_reserved": 0, "is_disabled": 0, "name": "a22ed095a75e9fc348518decce13ca65", "bike_id": "a22ed095a75e9fc348518decce13ca65", "fusion_lat": 0.0, "lon": -77.02206816666667, "type": "electric_scooter", "fusion_lon": 0.0, "lat": 38.88703783333333}, {"rental_uris": {"android": "https://dc.lft.to/lastmile_qr_scan", "ios": "https://dc.lft.to/lastmile_qr_scan"}, "is_reserved": 0, "is_disabled": 0, "name": "43bbfef4d423a91df792413719d365be", "bike_id": "43bbfef4d423a91df792413719d365be", "fusion_lat": 0.0, "lon": -77.02776533333333, "type": "electric_scooter", "fusion_lon": 0.0, "lat": 38.93417566666667}, {"rental_uris": {"android": "https://dc.lft.to/lastmile_qr_scan", "ios": "https://dc.lft.to/lastmile_qr_scan"}, "is_reserved": 0, "is_disabled": 0, "name": "34c402bcf6bd69a5d6678150ce3aee1a", "bike_id": "34c402bcf6bd69a5d6678150ce3aee1a", "fusion_lat": 0.0, "lon": -77.0257295, "type": "electric_scooter", "fusion_lon": 0.0, "lat": 38.912575333333336}, {"rental_uris": {"android": "https://dc.lft.to/lastmile_qr_scan", "ios": "https://dc.lft.to/lastmile_qr_scan"}, "is_reserved": 0, "is_disabled": 0, "name": "4c5789f893ec69bbffbd9a370a8be979", "bike_id": "4c5789f893ec69bbffbd9a370a8be979", "fusion_lat": 0.0, "lon": -76.9355865, "type": "electric_scooter", "fusion_lon": 0.0, "lat": 38.8827435}, {"rental_uris": {"android": "https://dc.lft.to/lastmile_qr_scan", "ios": "https://dc.lft.to/lastmile_qr_scan"}, "is_reserved": 0, "is_disabled": 0, "name": "0757e1d91e322ada4f674bc2543a90c4", "bike_id": "0757e1d91e322ada4f674bc2543a90c4", "fusion_lat": 0.0, "lon": -77.0437805, "type": "electric_scooter", "fusion_lon": 0.0, "lat": 38.911193}, {"rental_uris": {"android": "https://dc.lft.to/lastmile_qr_scan", "ios": "https://dc.lft.to/lastmile_qr_scan"}, "is_reserved": 0, "is_disabled": 0, "name": "5b655ce8f0d6e727d7a37e6e2b7ff478", "bike_id": "5b655ce8f0d6e727d7a37e6e2b7ff478", "fusion_lat": 0.0, "lon": -76.96549716666667, "type": "electric_scooter", "fusion_lon": 0.0, "lat": 38.918597}, {"rental_uris": {"android": "https://dc.lft.to/lastmile_qr_scan", "ios": "https://dc.lft.to/lastmile_qr_scan"}, "is_reserved": 0, "is_disabled": 0, "name": "12b7b76ad382d2e9cc4048111f065270", "bike_id": "12b7b76ad382d2e9cc4048111f065270", "fusion_lat": 0.0, "lon": -77.00669233333333, "type": "electric_scooter", "fusion_lon": 0.0, "lat": 38.90000583333333}, {"rental_uris": {"android": "https://dc.lft.to/lastmile_qr_scan", "ios": "https://dc.lft.to/lastmile_qr_scan"}, "is_reserved": 0, "is_disabled": 0, "name": "2e7f8e71ac5cdf34c8c710b2011093e5", "bike_id": "2e7f8e71ac5cdf34c8c710b2011093e5", "fusion_lat": 0.0, "lon": -77.0213175, "type": "electric_scooter", "fusion_lon": 0.0, "lat": 38.92279716666667}, {"rental_uris": {"android": "https://dc.lft.to/lastmile_qr_scan", "ios": "https://dc.lft.to/lastmile_qr_scan"}, "is_reserved": 0, "is_disabled": 0, "name": "0d1dfe842ac5702a2dc1cea1e7adda0b", "bike_id": "0d1dfe842ac5702a2dc1cea1e7adda0b", "fusion_lat": 0.0, "lon": -77.03166533333334, "type": "electric_scooter", "fusion_lon": 0.0, "lat": 38.92966283333333}, {"rental_uris": {"android": "https://dc.lft.to/lastmile_qr_scan", "ios": "https://dc.lft.to/lastmile_qr_scan"}, "is_reserved": 0, "is_disabled": 0, "name": "ffc0ea80cdb3ae644c28d8978e582ff5", "bike_id": "ffc0ea80cdb3ae644c28d8978e582ff5", "fusion_lat": 0.0, "lon": -76.985454, "type": "electric_bike", "fusion_lon": 0.0, "lat": 38.912927833333335}, {"rental_uris": {"android": "https://dc.lft.to/lastmile_qr_scan", "ios": "https://dc.lft.to/lastmile_qr_scan"}, "is_reserved": 0, "is_disabled": 0, "name": "676db669bf1bea51ad054a66ee6288f5", "bike_id": "676db669bf1bea51ad054a66ee6288f5", "fusion_lat": 0.0, "lon": -77.02336533333333, "type": "electric_scooter", "fusion_lon": 0.0, "lat": 38.922306666666664}, {"rental_uris": {"android": "https://dc.lft.to/lastmile_qr_scan", "ios": "https://dc.lft.to/lastmile_qr_scan"}, "is_reserved": 0, "is_disabled": 0, "name": "54788dd2eb2e569cb7c9157cf5470540", "bike_id": "54788dd2eb2e569cb7c9157cf5470540", "fusion_lat": 0.0, "lon": -77.03856583333334, "type": "electric_scooter", "fusion_lon": 0.0, "lat": 38.9117325}, {"rental_uris": {"android": "https://dc.lft.to/lastmile_qr_scan", "ios": "https://dc.lft.to/lastmile_qr_scan"}, "is_reserved": 0, "is_disabled": 0, "name": "dd5c09d322a35523b243cbc0a48e4e36", "bike_id": "dd5c09d322a35523b243cbc0a48e4e36", "fusion_lat": 0.0, "lon": -77.00294433333333, "type": "electric_scooter", "fusion_lon": 0.0, "lat": 38.891965166666665}, {"rental_uris": {"android": "https://dc.lft.to/lastmile_qr_scan", "ios": "https://dc.lft.to/lastmile_qr_scan"}, "is_reserved": 0, "is_disabled": 0, "name": "33d9343147521cc51c63bede7ad44e7e", "bike_id": "33d9343147521cc51c63bede7ad44e7e", "fusion_lat": 0.0, "lon": -77.03293416666666, "type": "electric_scooter", "fusion_lon": 0.0, "lat": 38.95612416666667}, {"rental_uris": {"android": "https://dc.lft.to/lastmile_qr_scan", "ios": "https://dc.lft.to/lastmile_qr_scan"}, "is_reserved": 0, "is_disabled": 0, "name": "44281e0077e838cec060d4cc33150b54", "bike_id": "44281e0077e838cec060d4cc33150b54", "fusion_lat": 0.0, "lon": -77.04130533333333, "type": "electric_scooter", "fusion_lon": 0.0, "lat": 38.92173783333333}, {"rental_uris": {"android": "https://dc.lft.to/lastmile_qr_scan", "ios": "https://dc.lft.to/lastmile_qr_scan"}, "is_reserved": 0, "is_disabled": 0, "name": "ddae88b6128ff324ba1d259fcc05c2bd", "bike_id": "ddae88b6128ff324ba1d259fcc05c2bd", "fusion_lat": 0.0, "lon": -77.04984983333334, "type": "electric_scooter", "fusion_lon": 0.0, "lat": 38.9011565}, {"rental_uris": {"android": "https://dc.lft.to/lastmile_qr_scan", "ios": "https://dc.lft.to/lastmile_qr_scan"}, "is_reserved": 0, "is_disabled": 0, "name": "6f17be1ffe6f00159d72f5bb7f6f071a", "bike_id": "6f17be1ffe6f00159d72f5bb7f6f071a", "fusion_lat": 0.0, "lon": -76.917225, "type": "electric_bike", "fusion_lon": 0.0, "lat": 38.880289166666664}, {"rental_uris": {"android": "https://dc.lft.to/lastmile_qr_scan", "ios": "https://dc.lft.to/lastmile_qr_scan"}, "is_reserved": 0, "is_disabled": 0, "name": "803513c26853a979301b3a021a1757ca", "bike_id": "803513c26853a979301b3a021a1757ca", "fusion_lat": 0.0, "lon": -77.04623033333333, "type": "electric_scooter", "fusion_lon": 0.0, "lat": 38.91645583333333}, {"rental_uris": {"android": "https://dc.lft.to/lastmile_qr_scan", "ios": "https://dc.lft.to/lastmile_qr_scan"}, "is_reserved": 0, "is_disabled": 0, "name": "0fd72c678d0377f1da43e2808c742868", "bike_id": "0fd72c678d0377f1da43e2808c742868", "fusion_lat": 0.0, "lon": -77.02282383333333, "type": "electric_scooter", "fusion_lon": 0.0, "lat": 38.899842}, {"rental_uris": {"android": "https://dc.lft.to/lastmile_qr_scan", "ios": "https://dc.lft.to/lastmile_qr_scan"}, "is_reserved": 0, "is_disabled": 0, "name": "df5047bbf67dc604f8c56a9cedeb20af", "bike_id": "df5047bbf67dc604f8c56a9cedeb20af", "fusion_lat": 0.0, "lon": -77.02149783333333, "type": "electric_scooter", "fusion_lon": 0.0, "lat": 38.92745883333333}, {"rental_uris": {"android": "https://dc.lft.to/lastmile_qr_scan", "ios": "https://dc.lft.to/lastmile_qr_scan"}, "is_reserved": 0, "is_disabled": 0, "name": "9f9a88d57e57676dd241f26574b94ac5", "bike_id": "9f9a88d57e57676dd241f26574b94ac5", "fusion_lat": 0.0, "lon": -77.04874233333334, "type": "electric_scooter", "fusion_lon": 0.0, "lat": 38.919803}, {"rental_uris": {"android": "https://dc.lft.to/lastmile_qr_scan", "ios": "https://dc.lft.to/lastmile_qr_scan"}, "is_reserved": 0, "is_disabled": 0, "name": "6a504887929917cf51d7abf1492b58f2", "bike_id": "6a504887929917cf51d7abf1492b58f2", "fusion_lat": 0.0, "lon": -77.07625633333333, "type": "electric_scooter", "fusion_lon": 0.0, "lat": 38.92521933333333}, {"rental_uris": {"android": "https://dc.lft.to/lastmile_qr_scan", "ios": "https://dc.lft.to/lastmile_qr_scan"}, "is_reserved": 0, "is_disabled": 0, "name": "0838415936e8222c967586ea191e2d96", "bike_id": "0838415936e8222c967586ea191e2d96", "fusion_lat": 0.0, "lon": -77.0945295, "type": "electric_bike", "fusion_lon": 0.0, "lat": 38.8075205}, {"rental_uris": {"android": "https://dc.lft.to/lastmile_qr_scan", "ios": "https://dc.lft.to/lastmile_qr_scan"}, "is_reserved": 0, "is_disabled": 0, "name": "215d193dafd3d522b13b9a80b532ec39", "bike_id": "215d193dafd3d522b13b9a80b532ec39", "fusion_lat": 0.0, "lon": -76.92924383333333, "type": "electric_scooter", "fusion_lon": 0.0, "lat": 38.892066166666666}, {"rental_uris": {"android": "https://dc.lft.to/lastmile_qr_scan", "ios": "https://dc.lft.to/lastmile_qr_scan"}, "is_reserved": 0, "is_disabled": 0, "name": "8bf7b3ca8fe29d53d9e550629ac38c25", "bike_id": "8bf7b3ca8fe29d53d9e550629ac38c25", "fusion_lat": 0.0, "lon": -77.05148316666667, "type": "electric_scooter", "fusion_lon": 0.0, "lat": 38.90625516666667}, {"rental_uris": {"android": "https://dc.lft.to/lastmile_qr_scan", "ios": "https://dc.lft.to/lastmile_qr_scan"}, "is_reserved": 0, "is_disabled": 0, "name": "66cd339262712291af03bb4333169fcb", "bike_id": "66cd339262712291af03bb4333169fcb", "fusion_lat": 0.0, "lon": -77.02270366666667, "type": "electric_scooter", "fusion_lon": 0.0, "lat": 38.8997575}, {"rental_uris": {"android": "https://dc.lft.to/lastmile_qr_scan", "ios": "https://dc.lft.to/lastmile_qr_scan"}, "is_reserved": 0, "is_disabled": 0, "name": "255a6e346fcb7db22f386b984f035582", "bike_id": "255a6e346fcb7db22f386b984f035582", "fusion_lat": 0.0, "lon": -77.00903516666666, "type": "electric_scooter", "fusion_lon": 0.0, "lat": 38.9097355}, {"rental_uris": {"android": "https://dc.lft.to/lastmile_qr_scan", "ios": "https://dc.lft.to/lastmile_qr_scan"}, "is_reserved": 0, "is_disabled": 0, "name": "2b25a809a4adae9932c96b46c48da1d9", "bike_id": "2b25a809a4adae9932c96b46c48da1d9", "fusion_lat": 0.0, "lon": -77.03448666666667, "type": "electric_scooter", "fusion_lon": 0.0, "lat": 38.918030333333334}, {"rental_uris": {"android": "https://dc.lft.to/lastmile_qr_scan", "ios": "https://dc.lft.to/lastmile_qr_scan"}, "is_reserved": 0, "is_disabled": 0, "name": "33abf8ce511e33823b89a3cc14bff594", "bike_id": "33abf8ce511e33823b89a3cc14bff594", "fusion_lat": 0.0, "lon": -76.9609145, "type": "electric_scooter", "fusion_lon": 0.0, "lat": 38.9185765}, {"rental_uris": {"android": "https://dc.lft.to/lastmile_qr_scan", "ios": "https://dc.lft.to/lastmile_qr_scan"}, "is_reserved": 0, "is_disabled": 0, "name": "171d462334ce6734ce907ee2d4dd8d5e", "bike_id": "171d462334ce6734ce907ee2d4dd8d5e", "fusion_lat": 0.0, "lon": -77.02281733333334, "type": "electric_scooter", "fusion_lon": 0.0, "lat": 38.917807333333336}, {"rental_uris": {"android": "https://dc.lft.to/lastmile_qr_scan", "ios": "https://dc.lft.to/lastmile_qr_scan"}, "is_reserved": 0, "is_disabled": 0, "name": "6d7ac9d58f7d413010b62568dcf0c77f", "bike_id": "6d7ac9d58f7d413010b62568dcf0c77f", "fusion_lat": 0.0, "lon": -77.044057, "type": "electric_scooter", "fusion_lon": 0.0, "lat": 38.89607516666667}, {"rental_uris": {"android": "https://dc.lft.to/lastmile_qr_scan", "ios": "https://dc.lft.to/lastmile_qr_scan"}, "is_reserved": 0, "is_disabled": 0, "name": "c1591c4b13b11fda215e2d67e6e71231", "bike_id": "c1591c4b13b11fda215e2d67e6e71231", "fusion_lat": 0.0, "lon": -77.05038866666666, "type": "electric_scooter", "fusion_lon": 0.0, "lat": 38.92357716666667}, {"rental_uris": {"android": "https://dc.lft.to/lastmile_qr_scan", "ios": "https://dc.lft.to/lastmile_qr_scan"}, "is_reserved": 0, "is_disabled": 0, "name": "2a06db78baa85b1a3f041a1d61779608", "bike_id": "2a06db78baa85b1a3f041a1d61779608", "fusion_lat": 0.0, "lon": -77.019059, "type": "electric_scooter", "fusion_lon": 0.0, "lat": 38.91737}, {"rental_uris": {"android": "https://dc.lft.to/lastmile_qr_scan", "ios": "https://dc.lft.to/lastmile_qr_scan"}, "is_reserved": 0, "is_disabled": 0, "name": "bb3024c90d0088b95336e4c6555434a2", "bike_id": "bb3024c90d0088b95336e4c6555434a2", "fusion_lat": 0.0, "lon": -77.02305266666667, "type": "electric_scooter", "fusion_lon": 0.0, "lat": 38.917935666666665}, {"rental_uris": {"android": "https://dc.lft.to/lastmile_qr_scan", "ios": "https://dc.lft.to/lastmile_qr_scan"}, "is_reserved": 0, "is_disabled": 0, "name": "be6a47f8861247f49dae71ca16259764", "bike_id": "be6a47f8861247f49dae71ca16259764", "fusion_lat": 0.0, "lon": -77.03474183333333, "type": "electric_scooter", "fusion_lon": 0.0, "lat": 38.924809333333336}, {"rental_uris": {"android": "https://dc.lft.to/lastmile_qr_scan", "ios": "https://dc.lft.to/lastmile_qr_scan"}, "is_reserved": 0, "is_disabled": 0, "name": "9f93736302a80e324cbf86f1ce7b4db9", "bike_id": "9f93736302a80e324cbf86f1ce7b4db9", "fusion_lat": 0.0, "lon": -77.03341866666666, "type": "electric_scooter", "fusion_lon": 0.0, "lat": 38.935166}, {"rental_uris": {"android": "https://dc.lft.to/lastmile_qr_scan", "ios": "https://dc.lft.to/lastmile_qr_scan"}, "is_reserved": 0, "is_disabled": 0, "name": "b59d8bedc1fd6e8b6a2f64d562139f8e", "bike_id": "b59d8bedc1fd6e8b6a2f64d562139f8e", "fusion_lat": 0.0, "lon": -77.04753883333333, "type": "electric_scooter", "fusion_lon": 0.0, "lat": 38.900976166666666}, {"rental_uris": {"android": "https://dc.lft.to/lastmile_qr_scan", "ios": "https://dc.lft.to/lastmile_qr_scan"}, "is_reserved": 0, "is_disabled": 0, "name": "792045131a06054a14b1f0190a6553a9", "bike_id": "792045131a06054a14b1f0190a6553a9", "fusion_lat": 0.0, "lon": -77.00772433333333, "type": "electric_scooter", "fusion_lon": 0.0, "lat": 38.9267535}, {"rental_uris": {"android": "https://dc.lft.to/lastmile_qr_scan", "ios": "https://dc.lft.to/lastmile_qr_scan"}, "is_reserved": 0, "is_disabled": 0, "name": "576bac94f51d1983863aea62ee38475b", "bike_id": "576bac94f51d1983863aea62ee38475b", "fusion_lat": 0.0, "lon": -77.03653366666667, "type": "electric_scooter", "fusion_lon": 0.0, "lat": 38.935979333333336}, {"rental_uris": {"android": "https://dc.lft.to/lastmile_qr_scan", "ios": "https://dc.lft.to/lastmile_qr_scan"}, "is_reserved": 0, "is_disabled": 0, "name": "42af5913b707fd37a72da9c636ba29c7", "bike_id": "42af5913b707fd37a72da9c636ba29c7", "fusion_lat": 0.0, "lon": -77.07330633333333, "type": "electric_scooter", "fusion_lon": 0.0, "lat": 38.92604383333333}, {"rental_uris": {"android": "https://dc.lft.to/lastmile_qr_scan", "ios": "https://dc.lft.to/lastmile_qr_scan"}, "is_reserved": 0, "is_disabled": 0, "name": "7a0eb1141cb56153128e744d2f465a64", "bike_id": "7a0eb1141cb56153128e744d2f465a64", "fusion_lat": 0.0, "lon": -76.95063583333334, "type": "electric_bike", "fusion_lon": 0.0, "lat": 39.085106}, {"rental_uris": {"android": "https://dc.lft.to/lastmile_qr_scan", "ios": "https://dc.lft.to/lastmile_qr_scan"}, "is_reserved": 0, "is_disabled": 0, "name": "deb487717e8a5c13b0af24cd1f98799d", "bike_id": "deb487717e8a5c13b0af24cd1f98799d", "fusion_lat": 0.0, "lon": -77.015557, "type": "electric_scooter", "fusion_lon": 0.0, "lat": 38.88325433333333}, {"rental_uris": {"android": "https://dc.lft.to/lastmile_qr_scan", "ios": "https://dc.lft.to/lastmile_qr_scan"}, "is_reserved": 0, "is_disabled": 0, "name": "af5c4ada54a96790c647e5bb2eecbf5a", "bike_id": "af5c4ada54a96790c647e5bb2eecbf5a", "fusion_lat": 0.0, "lon": -77.01312866666666, "type": "electric_scooter", "fusion_lon": 0.0, "lat": 38.897544333333336}, {"rental_uris": {"android": "https://dc.lft.to/lastmile_qr_scan", "ios": "https://dc.lft.to/lastmile_qr_scan"}, "is_reserved": 0, "is_disabled": 0, "name": "a22ef8d5d69498da5e71f1d00804f451", "bike_id": "a22ef8d5d69498da5e71f1d00804f451", "fusion_lat": 0.0, "lon": -76.98616466666667, "type": "electric_scooter", "fusion_lon": 0.0, "lat": 38.907275166666665}, {"rental_uris": {"android": "https://dc.lft.to/lastmile_qr_scan", "ios": "https://dc.lft.to/lastmile_qr_scan"}, "is_reserved": 0, "is_disabled": 0, "name": "3d823d370eabf510839f68fe8502e1d2", "bike_id": "3d823d370eabf510839f68fe8502e1d2", "fusion_lat": 0.0, "lon": -77.0348605, "type": "electric_scooter", "fusion_lon": 0.0, "lat": 38.92147816666667}, {"rental_uris": {"android": "https://dc.lft.to/lastmile_qr_scan", "ios": "https://dc.lft.to/lastmile_qr_scan"}, "is_reserved": 0, "is_disabled": 0, "name": "9e75aa372b5f580f183ca3a964479e57", "bike_id": "9e75aa372b5f580f183ca3a964479e57", "fusion_lat": 0.0, "lon": -77.024705, "type": "electric_scooter", "fusion_lon": 0.0, "lat": 38.89737433333333}, {"rental_uris": {"android": "https://dc.lft.to/lastmile_qr_scan", "ios": "https://dc.lft.to/lastmile_qr_scan"}, "is_reserved": 0, "is_disabled": 0, "name": "ad7732e8ac9be598e2d07a54b014c24c", "bike_id": "ad7732e8ac9be598e2d07a54b014c24c", "fusion_lat": 0.0, "lon": -77.017066, "type": "electric_scooter", "fusion_lon": 0.0, "lat": 38.90475133333333}, {"rental_uris": {"android": "https://dc.lft.to/lastmile_qr_scan", "ios": "https://dc.lft.to/lastmile_qr_scan"}, "is_reserved": 0, "is_disabled": 0, "name": "9d29f71c2c5165be7bcc74a694badb13", "bike_id": "9d29f71c2c5165be7bcc74a694badb13", "fusion_lat": 0.0, "lon": -76.94033116666667, "type": "electric_bike", "fusion_lon": 0.0, "lat": 38.90825383333333}, {"rental_uris": {"android": "https://dc.lft.to/lastmile_qr_scan", "ios": "https://dc.lft.to/lastmile_qr_scan"}, "is_reserved": 0, "is_disabled": 0, "name": "8123bc548670c2699add1786fef8570c", "bike_id": "8123bc548670c2699add1786fef8570c", "fusion_lat": 0.0, "lon": -77.0231385, "type": "electric_scooter", "fusion_lon": 0.0, "lat": 38.91694183333333}, {"rental_uris": {"android": "https://dc.lft.to/lastmile_qr_scan", "ios": "https://dc.lft.to/lastmile_qr_scan"}, "is_reserved": 0, "is_disabled": 0, "name": "982163873ad5784e4de9e52865ca5acd", "bike_id": "982163873ad5784e4de9e52865ca5acd", "fusion_lat": 0.0, "lon": -77.04065066666666, "type": "electric_bike", "fusion_lon": 0.0, "lat": 38.91771116666666}, {"rental_uris": {"android": "https://dc.lft.to/lastmile_qr_scan", "ios": "https://dc.lft.to/lastmile_qr_scan"}, "is_reserved": 0, "is_disabled": 0, "name": "a778cfe9c20433bd3111476519ff33ef", "bike_id": "a778cfe9c20433bd3111476519ff33ef", "fusion_lat": 0.0, "lon": -77.03472466666666, "type": "electric_scooter", "fusion_lon": 0.0, "lat": 38.913826}, {"rental_uris": {"android": "https://dc.lft.to/lastmile_qr_scan", "ios": "https://dc.lft.to/lastmile_qr_scan"}, "is_reserved": 0, "is_disabled": 0, "name": "0c4cef4770fd9e2226c42d9af317873b", "bike_id": "0c4cef4770fd9e2226c42d9af317873b", "fusion_lat": 0.0, "lon": -76.990225, "type": "electric_bike", "fusion_lon": 0.0, "lat": 38.835748}, {"rental_uris": {"android": "https://dc.lft.to/lastmile_qr_scan", "ios": "https://dc.lft.to/lastmile_qr_scan"}, "is_reserved": 0, "is_disabled": 0, "name": "c81333acd5fb5047607673f5f68ba2da", "bike_id": "c81333acd5fb5047607673f5f68ba2da", "fusion_lat": 0.0, "lon": -76.972244, "type": "electric_bike", "fusion_lon": 0.0, "lat": 38.90033283333333}, {"rental_uris": {"android": "https://dc.lft.to/lastmile_qr_scan", "ios": "https://dc.lft.to/lastmile_qr_scan"}, "is_reserved": 0, "is_disabled": 0, "name": "a711fe73936959317aa3817dc05eff24", "bike_id": "a711fe73936959317aa3817dc05eff24", "fusion_lat": 0.0, "lon": -77.02565483333333, "type": "electric_scooter", "fusion_lon": 0.0, "lat": 38.88746666666667}, {"rental_uris": {"android": "https://dc.lft.to/lastmile_qr_scan", "ios": "https://dc.lft.to/lastmile_qr_scan"}, "is_reserved": 0, "is_disabled": 0, "name": "2214c94547b4c83f5541ca61c02f4093", "bike_id": "2214c94547b4c83f5541ca61c02f4093", "fusion_lat": 0.0, "lon": -77.01961316666667, "type": "electric_scooter", "fusion_lon": 0.0, "lat": 38.92329183333333}, {"rental_uris": {"android": "https://dc.lft.to/lastmile_qr_scan", "ios": "https://dc.lft.to/lastmile_qr_scan"}, "is_reserved": 0, "is_disabled": 0, "name": "68e56697ae86108576c18c022d383a58", "bike_id": "68e56697ae86108576c18c022d383a58", "fusion_lat": 0.0, "lon": -77.03379266666667, "type": "electric_scooter", "fusion_lon": 0.0, "lat": 38.899587833333335}, {"rental_uris": {"android": "https://dc.lft.to/lastmile_qr_scan", "ios": "https://dc.lft.to/lastmile_qr_scan"}, "is_reserved": 0, "is_disabled": 0, "name": "27099f8a6e57b744ed9c517d1e2ff2fe", "bike_id": "27099f8a6e57b744ed9c517d1e2ff2fe", "fusion_lat": 0.0, "lon": -77.096132, "type": "electric_bike", "fusion_lon": 0.0, "lat": 38.878844}, {"rental_uris": {"android": "https://dc.lft.to/lastmile_qr_scan", "ios": "https://dc.lft.to/lastmile_qr_scan"}, "is_reserved": 0, "is_disabled": 0, "name": "d6d23fd888f835467a843ec2cbe1681d", "bike_id": "d6d23fd888f835467a843ec2cbe1681d", "fusion_lat": 0.0, "lon": -77.00618066666667, "type": "electric_scooter", "fusion_lon": 0.0, "lat": 38.905747}, {"rental_uris": {"android": "https://dc.lft.to/lastmile_qr_scan", "ios": "https://dc.lft.to/lastmile_qr_scan"}, "is_reserved": 0, "is_disabled": 0, "name": "eeb35ce469529c0aa92d07ed2c8c815b", "bike_id": "eeb35ce469529c0aa92d07ed2c8c815b", "fusion_lat": 0.0, "lon": -77.025511, "type": "electric_scooter", "fusion_lon": 0.0, "lat": 38.89200783333333}, {"rental_uris": {"android": "https://dc.lft.to/lastmile_qr_scan", "ios": "https://dc.lft.to/lastmile_qr_scan"}, "is_reserved": 0, "is_disabled": 0, "name": "bd1f5aec32074f134fadb61ad46afbdf", "bike_id": "bd1f5aec32074f134fadb61ad46afbdf", "fusion_lat": 0.0, "lon": -77.03948083333333, "type": "electric_scooter", "fusion_lon": 0.0, "lat": 38.908359}, {"rental_uris": {"android": "https://dc.lft.to/lastmile_qr_scan", "ios": "https://dc.lft.to/lastmile_qr_scan"}, "is_reserved": 0, "is_disabled": 0, "name": "d0d7b968b4288a9880c3c0a8954fcf78", "bike_id": "d0d7b968b4288a9880c3c0a8954fcf78", "fusion_lat": 0.0, "lon": -77.003453, "type": "electric_scooter", "fusion_lon": 0.0, "lat": 38.894656833333336}, {"rental_uris": {"android": "https://dc.lft.to/lastmile_qr_scan", "ios": "https://dc.lft.to/lastmile_qr_scan"}, "is_reserved": 0, "is_disabled": 0, "name": "0125297e90beb47d2e2512d4b38efdd4", "bike_id": "0125297e90beb47d2e2512d4b38efdd4", "fusion_lat": 0.0, "lon": -77.01720983333334, "type": "electric_scooter", "fusion_lon": 0.0, "lat": 38.974901833333334}, {"rental_uris": {"android": "https://dc.lft.to/lastmile_qr_scan", "ios": "https://dc.lft.to/lastmile_qr_scan"}, "is_reserved": 0, "is_disabled": 0, "name": "901032ffe2c3ca95be1d7316e0e5dc40", "bike_id": "901032ffe2c3ca95be1d7316e0e5dc40", "fusion_lat": 0.0, "lon": -77.0195675, "type": "electric_scooter", "fusion_lon": 0.0, "lat": 38.931970666666665}, {"rental_uris": {"android": "https://dc.lft.to/lastmile_qr_scan", "ios": "https://dc.lft.to/lastmile_qr_scan"}, "is_reserved": 0, "is_disabled": 0, "name": "8a547b558a22033efcd3850aa6e6e65d", "bike_id": "8a547b558a22033efcd3850aa6e6e65d", "fusion_lat": 0.0, "lon": -77.03278866666666, "type": "electric_bike", "fusion_lon": 0.0, "lat": 38.961236666666665}, {"rental_uris": {"android": "https://dc.lft.to/lastmile_qr_scan", "ios": "https://dc.lft.to/lastmile_qr_scan"}, "is_reserved": 0, "is_disabled": 0, "name": "1994d23af2795b414e9f79afa9bf77a1", "bike_id": "1994d23af2795b414e9f79afa9bf77a1", "fusion_lat": 0.0, "lon": -77.0232415, "type": "electric_scooter", "fusion_lon": 0.0, "lat": 38.90889333333333}, {"rental_uris": {"android": "https://dc.lft.to/lastmile_qr_scan", "ios": "https://dc.lft.to/lastmile_qr_scan"}, "is_reserved": 0, "is_disabled": 0, "name": "22f8d315b9665201c89bb5b21071fb76", "bike_id": "22f8d315b9665201c89bb5b21071fb76", "fusion_lat": 0.0, "lon": -77.03903333333334, "type": "electric_scooter", "fusion_lon": 0.0, "lat": 38.922006833333334}, {"rental_uris": {"android": "https://dc.lft.to/lastmile_qr_scan", "ios": "https://dc.lft.to/lastmile_qr_scan"}, "is_reserved": 0, "is_disabled": 0, "name": "fd31da22f97a26df40ce54ae511d9354", "bike_id": "fd31da22f97a26df40ce54ae511d9354", "fusion_lat": 0.0, "lon": -77.038428, "type": "electric_scooter", "fusion_lon": 0.0, "lat": 38.921682833333335}, {"rental_uris": {"android": "https://dc.lft.to/lastmile_qr_scan", "ios": "https://dc.lft.to/lastmile_qr_scan"}, "is_reserved": 0, "is_disabled": 0, "name": "0c88c005a38dcbdc9d9f884add99af79", "bike_id": "0c88c005a38dcbdc9d9f884add99af79", "fusion_lat": 0.0, "lon": -77.0291425, "type": "electric_scooter", "fusion_lon": 0.0, "lat": 38.91653683333333}, {"rental_uris": {"android": "https://dc.lft.to/lastmile_qr_scan", "ios": "https://dc.lft.to/lastmile_qr_scan"}, "is_reserved": 0, "is_disabled": 0, "name": "11acf3ca993fa5a6f3d233ccd8246a69", "bike_id": "11acf3ca993fa5a6f3d233ccd8246a69", "fusion_lat": 0.0, "lon": -77.032815, "type": "electric_scooter", "fusion_lon": 0.0, "lat": 38.898853333333335}, {"rental_uris": {"android": "https://dc.lft.to/lastmile_qr_scan", "ios": "https://dc.lft.to/lastmile_qr_scan"}, "is_reserved": 0, "is_disabled": 0, "name": "b997b78671948c89b0bc7b3f8f682fea", "bike_id": "b997b78671948c89b0bc7b3f8f682fea", "fusion_lat": 0.0, "lon": -76.965482, "type": "electric_scooter", "fusion_lon": 0.0, "lat": 38.91854433333334}, {"rental_uris": {"android": "https://dc.lft.to/lastmile_qr_scan", "ios": "https://dc.lft.to/lastmile_qr_scan"}, "is_reserved": 0, "is_disabled": 0, "name": "9004b5ea3ed5942615d877b6ef42b078", "bike_id": "9004b5ea3ed5942615d877b6ef42b078", "fusion_lat": 0.0, "lon": -77.03209933333333, "type": "electric_scooter", "fusion_lon": 0.0, "lat": 38.903708}, {"rental_uris": {"android": "https://dc.lft.to/lastmile_qr_scan", "ios": "https://dc.lft.to/lastmile_qr_scan"}, "is_reserved": 0, "is_disabled": 0, "name": "2de51d4a729926bf73b17d2fb9dd3c40", "bike_id": "2de51d4a729926bf73b17d2fb9dd3c40", "fusion_lat": 0.0, "lon": -77.01898283333334, "type": "electric_scooter", "fusion_lon": 0.0, "lat": 38.9055755}, {"rental_uris": {"android": "https://dc.lft.to/lastmile_qr_scan", "ios": "https://dc.lft.to/lastmile_qr_scan"}, "is_reserved": 0, "is_disabled": 0, "name": "0095d1717a81482e257691d1117326e0", "bike_id": "0095d1717a81482e257691d1117326e0", "fusion_lat": 0.0, "lon": -77.02949566666666, "type": "electric_scooter", "fusion_lon": 0.0, "lat": 38.907410166666665}, {"rental_uris": {"android": "https://dc.lft.to/lastmile_qr_scan", "ios": "https://dc.lft.to/lastmile_qr_scan"}, "is_reserved": 0, "is_disabled": 0, "name": "62def6cdb597bd5a5398f201aae4c64a", "bike_id": "62def6cdb597bd5a5398f201aae4c64a", "fusion_lat": 0.0, "lon": -77.07495216666666, "type": "electric_scooter", "fusion_lon": 0.0, "lat": 38.9231045}, {"rental_uris": {"android": "https://dc.lft.to/lastmile_qr_scan", "ios": "https://dc.lft.to/lastmile_qr_scan"}, "is_reserved": 0, "is_disabled": 0, "name": "812accbc8eded190691b63e49c3493cf", "bike_id": "812accbc8eded190691b63e49c3493cf", "fusion_lat": 0.0, "lon": -77.00371616666666, "type": "electric_scooter", "fusion_lon": 0.0, "lat": 38.892737333333336}, {"rental_uris": {"android": "https://dc.lft.to/lastmile_qr_scan", "ios": "https://dc.lft.to/lastmile_qr_scan"}, "is_reserved": 0, "is_disabled": 0, "name": "cfc073fe4b408f1e4f4282106a45846d", "bike_id": "cfc073fe4b408f1e4f4282106a45846d", "fusion_lat": 0.0, "lon": -76.9987085, "type": "electric_scooter", "fusion_lon": 0.0, "lat": 38.900284}, {"rental_uris": {"android": "https://dc.lft.to/lastmile_qr_scan", "ios": "https://dc.lft.to/lastmile_qr_scan"}, "is_reserved": 0, "is_disabled": 0, "name": "c17e1f82391ac15e3287f2f17d17f262", "bike_id": "c17e1f82391ac15e3287f2f17d17f262", "fusion_lat": 0.0, "lon": -77.0199535, "type": "electric_scooter", "fusion_lon": 0.0, "lat": 38.91492733333333}, {"rental_uris": {"android": "https://dc.lft.to/lastmile_qr_scan", "ios": "https://dc.lft.to/lastmile_qr_scan"}, "is_reserved": 0, "is_disabled": 0, "name": "daf2c03d7199b03c8c7e7ca57971dba4", "bike_id": "daf2c03d7199b03c8c7e7ca57971dba4", "fusion_lat": 0.0, "lon": -77.00728466666666, "type": "electric_scooter", "fusion_lon": 0.0, "lat": 38.91195283333333}, {"rental_uris": {"android": "https://dc.lft.to/lastmile_qr_scan", "ios": "https://dc.lft.to/lastmile_qr_scan"}, "is_reserved": 0, "is_disabled": 0, "name": "b2870782179422877802c51670fdc968", "bike_id": "b2870782179422877802c51670fdc968", "fusion_lat": 0.0, "lon": -77.03171666666667, "type": "electric_scooter", "fusion_lon": 0.0, "lat": 38.91560333333334}, {"rental_uris": {"android": "https://dc.lft.to/lastmile_qr_scan", "ios": "https://dc.lft.to/lastmile_qr_scan"}, "is_reserved": 0, "is_disabled": 0, "name": "c7629488113e8cd9ca957b4d1c879cd3", "bike_id": "c7629488113e8cd9ca957b4d1c879cd3", "fusion_lat": 0.0, "lon": -77.04560483333333, "type": "electric_scooter", "fusion_lon": 0.0, "lat": 38.90223483333333}, {"rental_uris": {"android": "https://dc.lft.to/lastmile_qr_scan", "ios": "https://dc.lft.to/lastmile_qr_scan"}, "is_reserved": 0, "is_disabled": 0, "name": "9f7cdf2d25f68a2a211111b9b284a577", "bike_id": "9f7cdf2d25f68a2a211111b9b284a577", "fusion_lat": 0.0, "lon": -77.0504835, "type": "electric_scooter", "fusion_lon": 0.0, "lat": 38.903034166666664}, {"rental_uris": {"android": "https://dc.lft.to/lastmile_qr_scan", "ios": "https://dc.lft.to/lastmile_qr_scan"}, "is_reserved": 0, "is_disabled": 0, "name": "e959f33ca4e7c4db56e23c965df0032c", "bike_id": "e959f33ca4e7c4db56e23c965df0032c", "fusion_lat": 0.0, "lon": -77.02479366666667, "type": "electric_scooter", "fusion_lon": 0.0, "lat": 38.914123333333336}, {"rental_uris": {"android": "https://dc.lft.to/lastmile_qr_scan", "ios": "https://dc.lft.to/lastmile_qr_scan"}, "is_reserved": 0, "is_disabled": 0, "name": "30cab1fc42cb433828022aaa4daeb482", "bike_id": "30cab1fc42cb433828022aaa4daeb482", "fusion_lat": 0.0, "lon": -77.0122455, "type": "electric_scooter", "fusion_lon": 0.0, "lat": 38.915172166666665}, {"rental_uris": {"android": "https://dc.lft.to/lastmile_qr_scan", "ios": "https://dc.lft.to/lastmile_qr_scan"}, "is_reserved": 0, "is_disabled": 0, "name": "1b058a43a5afd738ae0aceefc7251afa", "bike_id": "1b058a43a5afd738ae0aceefc7251afa", "fusion_lat": 0.0, "lon": -77.03189433333333, "type": "electric_scooter", "fusion_lon": 0.0, "lat": 38.9134745}, {"rental_uris": {"android": "https://dc.lft.to/lastmile_qr_scan", "ios": "https://dc.lft.to/lastmile_qr_scan"}, "is_reserved": 0, "is_disabled": 0, "name": "2253fb37fb7353f03bdf6c41bcdc6496", "bike_id": "2253fb37fb7353f03bdf6c41bcdc6496", "fusion_lat": 0.0, "lon": -77.028137, "type": "electric_scooter", "fusion_lon": 0.0, "lat": 38.917466}, {"rental_uris": {"android": "https://dc.lft.to/lastmile_qr_scan", "ios": "https://dc.lft.to/lastmile_qr_scan"}, "is_reserved": 0, "is_disabled": 0, "name": "d159e19f1a350ba7442eb808fd6be4bb", "bike_id": "d159e19f1a350ba7442eb808fd6be4bb", "fusion_lat": 0.0, "lon": -77.03264583333333, "type": "electric_scooter", "fusion_lon": 0.0, "lat": 38.919913}, {"rental_uris": {"android": "https://dc.lft.to/lastmile_qr_scan", "ios": "https://dc.lft.to/lastmile_qr_scan"}, "is_reserved": 0, "is_disabled": 0, "name": "3096d4560262e55ae7e1df09e9cf7bca", "bike_id": "3096d4560262e55ae7e1df09e9cf7bca", "fusion_lat": 0.0, "lon": -77.035709, "type": "electric_scooter", "fusion_lon": 0.0, "lat": 38.90836}, {"rental_uris": {"android": "https://dc.lft.to/lastmile_qr_scan", "ios": "https://dc.lft.to/lastmile_qr_scan"}, "is_reserved": 0, "is_disabled": 0, "name": "19c0d123e78142a4d7fabbefaf20a3eb", "bike_id": "19c0d123e78142a4d7fabbefaf20a3eb", "fusion_lat": 0.0, "lon": -77.024957, "type": "electric_scooter", "fusion_lon": 0.0, "lat": 38.9194225}, {"rental_uris": {"android": "https://dc.lft.to/lastmile_qr_scan", "ios": "https://dc.lft.to/lastmile_qr_scan"}, "is_reserved": 0, "is_disabled": 0, "name": "a016ce5401e537de82f3b13365d5060e", "bike_id": "a016ce5401e537de82f3b13365d5060e", "fusion_lat": 0.0, "lon": -77.02697283333333, "type": "electric_scooter", "fusion_lon": 0.0, "lat": 38.92778766666667}, {"rental_uris": {"android": "https://dc.lft.to/lastmile_qr_scan", "ios": "https://dc.lft.to/lastmile_qr_scan"}, "is_reserved": 0, "is_disabled": 0, "name": "2aa5cbc7879684214fe81afef9a169dc", "bike_id": "2aa5cbc7879684214fe81afef9a169dc", "fusion_lat": 0.0, "lon": -77.04137883333334, "type": "electric_scooter", "fusion_lon": 0.0, "lat": 38.92272116666667}, {"rental_uris": {"android": "https://dc.lft.to/lastmile_qr_scan", "ios": "https://dc.lft.to/lastmile_qr_scan"}, "is_reserved": 0, "is_disabled": 0, "name": "d20c4c1b5778bbffc859121a8ee3a3d3", "bike_id": "d20c4c1b5778bbffc859121a8ee3a3d3", "fusion_lat": 0.0, "lon": -77.04503616666666, "type": "electric_scooter", "fusion_lon": 0.0, "lat": 38.892212}, {"rental_uris": {"android": "https://dc.lft.to/lastmile_qr_scan", "ios": "https://dc.lft.to/lastmile_qr_scan"}, "is_reserved": 0, "is_disabled": 0, "name": "3b6ed213e864fe5864af8ad3371857ec", "bike_id": "3b6ed213e864fe5864af8ad3371857ec", "fusion_lat": 0.0, "lon": -76.977022, "type": "electric_bike", "fusion_lon": 0.0, "lat": 38.82211266666667}, {"rental_uris": {"android": "https://dc.lft.to/lastmile_qr_scan", "ios": "https://dc.lft.to/lastmile_qr_scan"}, "is_reserved": 0, "is_disabled": 0, "name": "222a9f4643cfbe3fb3b824092e3afbed", "bike_id": "222a9f4643cfbe3fb3b824092e3afbed", "fusion_lat": 0.0, "lon": -76.98543066666667, "type": "electric_scooter", "fusion_lon": 0.0, "lat": 38.90587566666667}, {"rental_uris": {"android": "https://dc.lft.to/lastmile_qr_scan", "ios": "https://dc.lft.to/lastmile_qr_scan"}, "is_reserved": 0, "is_disabled": 0, "name": "8e60f5c7bb1a11f21f4070ca872be835", "bike_id": "8e60f5c7bb1a11f21f4070ca872be835", "fusion_lat": 0.0, "lon": -77.02410066666667, "type": "electric_scooter", "fusion_lon": 0.0, "lat": 38.9170665}, {"rental_uris": {"android": "https://dc.lft.to/lastmile_qr_scan", "ios": "https://dc.lft.to/lastmile_qr_scan"}, "is_reserved": 0, "is_disabled": 0, "name": "2b24043f386a4a9bf2f5510da59105b3", "bike_id": "2b24043f386a4a9bf2f5510da59105b3", "fusion_lat": 0.0, "lon": -77.02789733333333, "type": "electric_scooter", "fusion_lon": 0.0, "lat": 38.96130316666667}, {"rental_uris": {"android": "https://dc.lft.to/lastmile_qr_scan", "ios": "https://dc.lft.to/lastmile_qr_scan"}, "is_reserved": 0, "is_disabled": 0, "name": "f96c314ac09070f205bbca4ca30faf7c", "bike_id": "f96c314ac09070f205bbca4ca30faf7c", "fusion_lat": 0.0, "lon": -77.0831225, "type": "electric_bike", "fusion_lon": 0.0, "lat": 38.85439233333334}, {"rental_uris": {"android": "https://dc.lft.to/lastmile_qr_scan", "ios": "https://dc.lft.to/lastmile_qr_scan"}, "is_reserved": 0, "is_disabled": 0, "name": "8b98a4848473e7708d5ada5b174fe24f", "bike_id": "8b98a4848473e7708d5ada5b174fe24f", "fusion_lat": 0.0, "lon": -77.00602633333334, "type": "electric_scooter", "fusion_lon": 0.0, "lat": 38.9023995}, {"rental_uris": {"android": "https://dc.lft.to/lastmile_qr_scan", "ios": "https://dc.lft.to/lastmile_qr_scan"}, "is_reserved": 0, "is_disabled": 0, "name": "b5692e91ff84ae664bffaa45da8a98a1", "bike_id": "b5692e91ff84ae664bffaa45da8a98a1", "fusion_lat": 0.0, "lon": -76.935238, "type": "electric_scooter", "fusion_lon": 0.0, "lat": 38.8789755}, {"rental_uris": {"android": "https://dc.lft.to/lastmile_qr_scan", "ios": "https://dc.lft.to/lastmile_qr_scan"}, "is_reserved": 0, "is_disabled": 0, "name": "eb3d50aa701319435d9d7ac4d286b674", "bike_id": "eb3d50aa701319435d9d7ac4d286b674", "fusion_lat": 0.0, "lon": -77.05264133333333, "type": "electric_scooter", "fusion_lon": 0.0, "lat": 38.90149666666667}, {"rental_uris": {"android": "https://dc.lft.to/lastmile_qr_scan", "ios": "https://dc.lft.to/lastmile_qr_scan"}, "is_reserved": 0, "is_disabled": 0, "name": "92ba42da2a4769046a7e9ed49b8cf69a", "bike_id": "92ba42da2a4769046a7e9ed49b8cf69a", "fusion_lat": 0.0, "lon": -77.05004383333333, "type": "electric_scooter", "fusion_lon": 0.0, "lat": 38.8923045}, {"rental_uris": {"android": "https://dc.lft.to/lastmile_qr_scan", "ios": "https://dc.lft.to/lastmile_qr_scan"}, "is_reserved": 0, "is_disabled": 0, "name": "346666e9b271f3142702d75348927e5b", "bike_id": "346666e9b271f3142702d75348927e5b", "fusion_lat": 0.0, "lon": -77.026423, "type": "electric_scooter", "fusion_lon": 0.0, "lat": 38.92381266666666}, {"rental_uris": {"android": "https://dc.lft.to/lastmile_qr_scan", "ios": "https://dc.lft.to/lastmile_qr_scan"}, "is_reserved": 0, "is_disabled": 0, "name": "c2cf843f4e53ca534d98ce95798d68d7", "bike_id": "c2cf843f4e53ca534d98ce95798d68d7", "fusion_lat": 0.0, "lon": -76.99116433333333, "type": "electric_scooter", "fusion_lon": 0.0, "lat": 38.90904116666667}, {"rental_uris": {"android": "https://dc.lft.to/lastmile_qr_scan", "ios": "https://dc.lft.to/lastmile_qr_scan"}, "is_reserved": 0, "is_disabled": 0, "name": "6c0822d301ce98aa671e074b81428389", "bike_id": "6c0822d301ce98aa671e074b81428389", "fusion_lat": 0.0, "lon": -77.04501233333333, "type": "electric_scooter", "fusion_lon": 0.0, "lat": 38.91186066666667}, {"rental_uris": {"android": "https://dc.lft.to/lastmile_qr_scan", "ios": "https://dc.lft.to/lastmile_qr_scan"}, "is_reserved": 0, "is_disabled": 0, "name": "7847f1e291daa91f729607ffb476df69", "bike_id": "7847f1e291daa91f729607ffb476df69", "fusion_lat": 0.0, "lon": -77.0461675, "type": "electric_scooter", "fusion_lon": 0.0, "lat": 38.904637}, {"rental_uris": {"android": "https://dc.lft.to/lastmile_qr_scan", "ios": "https://dc.lft.to/lastmile_qr_scan"}, "is_reserved": 0, "is_disabled": 0, "name": "7b408913ac9d4badd7e79ed00962ba6c", "bike_id": "7b408913ac9d4badd7e79ed00962ba6c", "fusion_lat": 0.0, "lon": -77.03080483333333, "type": "electric_scooter", "fusion_lon": 0.0, "lat": 38.900234833333336}, {"rental_uris": {"android": "https://dc.lft.to/lastmile_qr_scan", "ios": "https://dc.lft.to/lastmile_qr_scan"}, "is_reserved": 0, "is_disabled": 0, "name": "2d308a98788381e8d84ec9e0d73b5c93", "bike_id": "2d308a98788381e8d84ec9e0d73b5c93", "fusion_lat": 0.0, "lon": -77.01887433333333, "type": "electric_scooter", "fusion_lon": 0.0, "lat": 38.914887666666665}, {"rental_uris": {"android": "https://dc.lft.to/lastmile_qr_scan", "ios": "https://dc.lft.to/lastmile_qr_scan"}, "is_reserved": 0, "is_disabled": 0, "name": "1d0f2d1d69795adf7710fac3c6e4b800", "bike_id": "1d0f2d1d69795adf7710fac3c6e4b800", "fusion_lat": 0.0, "lon": -77.07153183333334, "type": "electric_scooter", "fusion_lon": 0.0, "lat": 38.90599133333333}, {"rental_uris": {"android": "https://dc.lft.to/lastmile_qr_scan", "ios": "https://dc.lft.to/lastmile_qr_scan"}, "is_reserved": 0, "is_disabled": 0, "name": "a4e46c642b058f8dfeac209119b6d9de", "bike_id": "a4e46c642b058f8dfeac209119b6d9de", "fusion_lat": 0.0, "lon": -77.030677, "type": "electric_scooter", "fusion_lon": 0.0, "lat": 38.92250383333333}, {"rental_uris": {"android": "https://dc.lft.to/lastmile_qr_scan", "ios": "https://dc.lft.to/lastmile_qr_scan"}, "is_reserved": 0, "is_disabled": 0, "name": "c66e6875fb42f9885d00346b04eb2dd2", "bike_id": "c66e6875fb42f9885d00346b04eb2dd2", "fusion_lat": 0.0, "lon": -77.02197266666667, "type": "electric_scooter", "fusion_lon": 0.0, "lat": 38.91118816666667}, {"rental_uris": {"android": "https://dc.lft.to/lastmile_qr_scan", "ios": "https://dc.lft.to/lastmile_qr_scan"}, "is_reserved": 0, "is_disabled": 0, "name": "26df06e77ac5171397aa33ef441e7738", "bike_id": "26df06e77ac5171397aa33ef441e7738", "fusion_lat": 0.0, "lon": -76.9466265, "type": "electric_scooter", "fusion_lon": 0.0, "lat": 38.898685666666665}, {"rental_uris": {"android": "https://dc.lft.to/lastmile_qr_scan", "ios": "https://dc.lft.to/lastmile_qr_scan"}, "is_reserved": 0, "is_disabled": 0, "name": "3a73d107fb7ba9d9635502797f3efb88", "bike_id": "3a73d107fb7ba9d9635502797f3efb88", "fusion_lat": 0.0, "lon": -77.03707566666667, "type": "electric_scooter", "fusion_lon": 0.0, "lat": 38.92635533333333}, {"rental_uris": {"android": "https://dc.lft.to/lastmile_qr_scan", "ios": "https://dc.lft.to/lastmile_qr_scan"}, "is_reserved": 0, "is_disabled": 0, "name": "14f4ca24827a67b02a1991ca59d33842", "bike_id": "14f4ca24827a67b02a1991ca59d33842", "fusion_lat": 0.0, "lon": -77.14875216666667, "type": "electric_bike", "fusion_lon": 0.0, "lat": 38.8773885}, {"rental_uris": {"android": "https://dc.lft.to/lastmile_qr_scan", "ios": "https://dc.lft.to/lastmile_qr_scan"}, "is_reserved": 0, "is_disabled": 0, "name": "e7140fdd7b7cf6c9fd17e945c93ca0c4", "bike_id": "e7140fdd7b7cf6c9fd17e945c93ca0c4", "fusion_lat": 0.0, "lon": -77.04169366666666, "type": "electric_scooter", "fusion_lon": 0.0, "lat": 38.901487}, {"rental_uris": {"android": "https://dc.lft.to/lastmile_qr_scan", "ios": "https://dc.lft.to/lastmile_qr_scan"}, "is_reserved": 0, "is_disabled": 0, "name": "9db1153d6fef7afd255742c677858354", "bike_id": "9db1153d6fef7afd255742c677858354", "fusion_lat": 0.0, "lon": -77.0482465, "type": "electric_scooter", "fusion_lon": 0.0, "lat": 38.9050985}, {"rental_uris": {"android": "https://dc.lft.to/lastmile_qr_scan", "ios": "https://dc.lft.to/lastmile_qr_scan"}, "is_reserved": 0, "is_disabled": 0, "name": "10b26e733ae8123a2d7cd7f05ad6a950", "bike_id": "10b26e733ae8123a2d7cd7f05ad6a950", "fusion_lat": 0.0, "lon": -77.0375995, "type": "electric_bike", "fusion_lon": 0.0, "lat": 38.916929}, {"rental_uris": {"android": "https://dc.lft.to/lastmile_qr_scan", "ios": "https://dc.lft.to/lastmile_qr_scan"}, "is_reserved": 0, "is_disabled": 0, "name": "b3f030605b72563ea4a34ab4df70dc49", "bike_id": "b3f030605b72563ea4a34ab4df70dc49", "fusion_lat": 0.0, "lon": -76.99502266666667, "type": "electric_scooter", "fusion_lon": 0.0, "lat": 38.882321166666664}, {"rental_uris": {"android": "https://dc.lft.to/lastmile_qr_scan", "ios": "https://dc.lft.to/lastmile_qr_scan"}, "is_reserved": 0, "is_disabled": 0, "name": "ad995540dcd62000b2b70c83e74ece81", "bike_id": "ad995540dcd62000b2b70c83e74ece81", "fusion_lat": 0.0, "lon": -77.0527165, "type": "electric_scooter", "fusion_lon": 0.0, "lat": 38.92559983333334}, {"rental_uris": {"android": "https://dc.lft.to/lastmile_qr_scan", "ios": "https://dc.lft.to/lastmile_qr_scan"}, "is_reserved": 0, "is_disabled": 0, "name": "2442ac0f5e5cf88eef89e2db393e582d", "bike_id": "2442ac0f5e5cf88eef89e2db393e582d", "fusion_lat": 0.0, "lon": -76.94874983333334, "type": "electric_scooter", "fusion_lon": 0.0, "lat": 38.89497816666667}, {"rental_uris": {"android": "https://dc.lft.to/lastmile_qr_scan", "ios": "https://dc.lft.to/lastmile_qr_scan"}, "is_reserved": 0, "is_disabled": 0, "name": "074ec9738373b8ddba62ccb2f5ef09c0", "bike_id": "074ec9738373b8ddba62ccb2f5ef09c0", "fusion_lat": 0.0, "lon": -77.03786066666666, "type": "electric_scooter", "fusion_lon": 0.0, "lat": 38.924265}, {"rental_uris": {"android": "https://dc.lft.to/lastmile_qr_scan", "ios": "https://dc.lft.to/lastmile_qr_scan"}, "is_reserved": 0, "is_disabled": 0, "name": "25275547c85cb4d58f923668b771380f", "bike_id": "25275547c85cb4d58f923668b771380f", "fusion_lat": 0.0, "lon": -76.97347416666666, "type": "electric_bike", "fusion_lon": 0.0, "lat": 38.8652975}, {"rental_uris": {"android": "https://dc.lft.to/lastmile_qr_scan", "ios": "https://dc.lft.to/lastmile_qr_scan"}, "is_reserved": 0, "is_disabled": 0, "name": "c25176f6f5d685c6f70cd6f7ec8401c7", "bike_id": "c25176f6f5d685c6f70cd6f7ec8401c7", "fusion_lat": 0.0, "lon": -77.02178666666667, "type": "electric_scooter", "fusion_lon": 0.0, "lat": 38.89226433333333}, {"rental_uris": {"android": "https://dc.lft.to/lastmile_qr_scan", "ios": "https://dc.lft.to/lastmile_qr_scan"}, "is_reserved": 0, "is_disabled": 0, "name": "11cc0bca04941e9b993035005aae4093", "bike_id": "11cc0bca04941e9b993035005aae4093", "fusion_lat": 0.0, "lon": -77.03078283333333, "type": "electric_scooter", "fusion_lon": 0.0, "lat": 38.898442333333335}, {"rental_uris": {"android": "https://dc.lft.to/lastmile_qr_scan", "ios": "https://dc.lft.to/lastmile_qr_scan"}, "is_reserved": 0, "is_disabled": 0, "name": "98dde55218fc51a2543aa16d92d6c72d", "bike_id": "98dde55218fc51a2543aa16d92d6c72d", "fusion_lat": 0.0, "lon": -77.00202233333333, "type": "electric_scooter", "fusion_lon": 0.0, "lat": 38.902365}, {"rental_uris": {"android": "https://dc.lft.to/lastmile_qr_scan", "ios": "https://dc.lft.to/lastmile_qr_scan"}, "is_reserved": 0, "is_disabled": 0, "name": "668cbc4dc18a1a8f9a300ccc5c1ac3fa", "bike_id": "668cbc4dc18a1a8f9a300ccc5c1ac3fa", "fusion_lat": 0.0, "lon": -77.03197416666667, "type": "electric_scooter", "fusion_lon": 0.0, "lat": 38.9072025}, {"rental_uris": {"android": "https://dc.lft.to/lastmile_qr_scan", "ios": "https://dc.lft.to/lastmile_qr_scan"}, "is_reserved": 0, "is_disabled": 0, "name": "ecb7fc4606e29a502e5cc879acef3c67", "bike_id": "ecb7fc4606e29a502e5cc879acef3c67", "fusion_lat": 0.0, "lon": -77.02414616666667, "type": "electric_scooter", "fusion_lon": 0.0, "lat": 38.933616666666666}, {"rental_uris": {"android": "https://dc.lft.to/lastmile_qr_scan", "ios": "https://dc.lft.to/lastmile_qr_scan"}, "is_reserved": 0, "is_disabled": 0, "name": "954a1fb946c9a725997eac24b1b5b78f", "bike_id": "954a1fb946c9a725997eac24b1b5b78f", "fusion_lat": 0.0, "lon": -77.05043933333333, "type": "electric_scooter", "fusion_lon": 0.0, "lat": 38.92363683333333}, {"rental_uris": {"android": "https://dc.lft.to/lastmile_qr_scan", "ios": "https://dc.lft.to/lastmile_qr_scan"}, "is_reserved": 0, "is_disabled": 0, "name": "fe255e9d996a09d38b073e8f1ae48fe6", "bike_id": "fe255e9d996a09d38b073e8f1ae48fe6", "fusion_lat": 0.0, "lon": -77.0223055, "type": "electric_scooter", "fusion_lon": 0.0, "lat": 38.91252983333333}, {"rental_uris": {"android": "https://dc.lft.to/lastmile_qr_scan", "ios": "https://dc.lft.to/lastmile_qr_scan"}, "is_reserved": 0, "is_disabled": 0, "name": "a7b09e8029a89d98de9c19980160463e", "bike_id": "a7b09e8029a89d98de9c19980160463e", "fusion_lat": 0.0, "lon": -77.04764366666667, "type": "electric_bike", "fusion_lon": 0.0, "lat": 38.920025333333335}, {"rental_uris": {"android": "https://dc.lft.to/lastmile_qr_scan", "ios": "https://dc.lft.to/lastmile_qr_scan"}, "is_reserved": 0, "is_disabled": 0, "name": "b6bf4e3412cf4a185ceedf1fe53bda00", "bike_id": "b6bf4e3412cf4a185ceedf1fe53bda00", "fusion_lat": 0.0, "lon": -77.000562, "type": "electric_scooter", "fusion_lon": 0.0, "lat": 38.878828666666664}, {"rental_uris": {"android": "https://dc.lft.to/lastmile_qr_scan", "ios": "https://dc.lft.to/lastmile_qr_scan"}, "is_reserved": 0, "is_disabled": 0, "name": "d56698d117413158aba62c2eefa6cd4b", "bike_id": "d56698d117413158aba62c2eefa6cd4b", "fusion_lat": 0.0, "lon": -77.07659, "type": "electric_bike", "fusion_lon": 0.0, "lat": 38.80980133333333}, {"rental_uris": {"android": "https://dc.lft.to/lastmile_qr_scan", "ios": "https://dc.lft.to/lastmile_qr_scan"}, "is_reserved": 0, "is_disabled": 0, "name": "7ce451564d178bb673cb0ba5b2763113", "bike_id": "7ce451564d178bb673cb0ba5b2763113", "fusion_lat": 0.0, "lon": -77.026935, "type": "electric_scooter", "fusion_lon": 0.0, "lat": 38.9127295}, {"rental_uris": {"android": "https://dc.lft.to/lastmile_qr_scan", "ios": "https://dc.lft.to/lastmile_qr_scan"}, "is_reserved": 0, "is_disabled": 0, "name": "edb7f7c0971302a69498af8c56ecf547", "bike_id": "edb7f7c0971302a69498af8c56ecf547", "fusion_lat": 0.0, "lon": -77.033592, "type": "electric_scooter", "fusion_lon": 0.0, "lat": 38.901513666666666}, {"rental_uris": {"android": "https://dc.lft.to/lastmile_qr_scan", "ios": "https://dc.lft.to/lastmile_qr_scan"}, "is_reserved": 0, "is_disabled": 0, "name": "c614a844fd6917b4263c614e6abaad45", "bike_id": "c614a844fd6917b4263c614e6abaad45", "fusion_lat": 0.0, "lon": -77.02180983333334, "type": "electric_scooter", "fusion_lon": 0.0, "lat": 38.92488683333333}, {"rental_uris": {"android": "https://dc.lft.to/lastmile_qr_scan", "ios": "https://dc.lft.to/lastmile_qr_scan"}, "is_reserved": 0, "is_disabled": 0, "name": "2c07896a1b8c8b1c947fa40fbd74003d", "bike_id": "2c07896a1b8c8b1c947fa40fbd74003d", "fusion_lat": 0.0, "lon": -77.06833983333334, "type": "electric_bike", "fusion_lon": 0.0, "lat": 38.95106166666667}, {"rental_uris": {"android": "https://dc.lft.to/lastmile_qr_scan", "ios": "https://dc.lft.to/lastmile_qr_scan"}, "is_reserved": 0, "is_disabled": 0, "name": "5b6ab8ff2f552c57ad3ba993bf27750f", "bike_id": "5b6ab8ff2f552c57ad3ba993bf27750f", "fusion_lat": 0.0, "lon": -77.02995716666666, "type": "electric_scooter", "fusion_lon": 0.0, "lat": 38.89750033333333}, {"rental_uris": {"android": "https://dc.lft.to/lastmile_qr_scan", "ios": "https://dc.lft.to/lastmile_qr_scan"}, "is_reserved": 0, "is_disabled": 0, "name": "540c87d0e34a7b5ebb06939532e90305", "bike_id": "540c87d0e34a7b5ebb06939532e90305", "fusion_lat": 0.0, "lon": -77.00116666666666, "type": "electric_scooter", "fusion_lon": 0.0, "lat": 38.876504}, {"rental_uris": {"android": "https://dc.lft.to/lastmile_qr_scan", "ios": "https://dc.lft.to/lastmile_qr_scan"}, "is_reserved": 0, "is_disabled": 0, "name": "af6873a83c0f911c759631cb4af574ab", "bike_id": "af6873a83c0f911c759631cb4af574ab", "fusion_lat": 0.0, "lon": -77.016548, "type": "electric_scooter", "fusion_lon": 0.0, "lat": 38.88123983333333}, {"rental_uris": {"android": "https://dc.lft.to/lastmile_qr_scan", "ios": "https://dc.lft.to/lastmile_qr_scan"}, "is_reserved": 0, "is_disabled": 0, "name": "6c036fb662c94331587554208ee351c6", "bike_id": "6c036fb662c94331587554208ee351c6", "fusion_lat": 0.0, "lon": -77.0370475, "type": "electric_scooter", "fusion_lon": 0.0, "lat": 38.9263355}, {"rental_uris": {"android": "https://dc.lft.to/lastmile_qr_scan", "ios": "https://dc.lft.to/lastmile_qr_scan"}, "is_reserved": 0, "is_disabled": 0, "name": "a20df288c9e2d49b92d70af648c20299", "bike_id": "a20df288c9e2d49b92d70af648c20299", "fusion_lat": 0.0, "lon": -77.0355705, "type": "electric_scooter", "fusion_lon": 0.0, "lat": 38.924853666666664}, {"rental_uris": {"android": "https://dc.lft.to/lastmile_qr_scan", "ios": "https://dc.lft.to/lastmile_qr_scan"}, "is_reserved": 0, "is_disabled": 0, "name": "7313a1277e9df10ca34c02510e757353", "bike_id": "7313a1277e9df10ca34c02510e757353", "fusion_lat": 0.0, "lon": -77.0245285, "type": "electric_scooter", "fusion_lon": 0.0, "lat": 38.91912116666666}, {"rental_uris": {"android": "https://dc.lft.to/lastmile_qr_scan", "ios": "https://dc.lft.to/lastmile_qr_scan"}, "is_reserved": 0, "is_disabled": 0, "name": "743dce79490a34756f311a6c66dc998d", "bike_id": "743dce79490a34756f311a6c66dc998d", "fusion_lat": 0.0, "lon": -76.94184, "type": "electric_scooter", "fusion_lon": 0.0, "lat": 38.89758533333333}, {"rental_uris": {"android": "https://dc.lft.to/lastmile_qr_scan", "ios": "https://dc.lft.to/lastmile_qr_scan"}, "is_reserved": 0, "is_disabled": 0, "name": "8d7f3b746e7c1015fe4658beb44a7cd8", "bike_id": "8d7f3b746e7c1015fe4658beb44a7cd8", "fusion_lat": 0.0, "lon": -77.047405, "type": "electric_scooter", "fusion_lon": 0.0, "lat": 38.9125815}, {"rental_uris": {"android": "https://dc.lft.to/lastmile_qr_scan", "ios": "https://dc.lft.to/lastmile_qr_scan"}, "is_reserved": 0, "is_disabled": 0, "name": "bf8785f907400fc08b6b2c1f7afd1fec", "bike_id": "bf8785f907400fc08b6b2c1f7afd1fec", "fusion_lat": 0.0, "lon": -76.9781785, "type": "electric_scooter", "fusion_lon": 0.0, "lat": 38.893984833333334}, {"rental_uris": {"android": "https://dc.lft.to/lastmile_qr_scan", "ios": "https://dc.lft.to/lastmile_qr_scan"}, "is_reserved": 0, "is_disabled": 0, "name": "ac7d1ce124b16205fea009f59586260f", "bike_id": "ac7d1ce124b16205fea009f59586260f", "fusion_lat": 0.0, "lon": -77.020717, "type": "electric_bike", "fusion_lon": 0.0, "lat": 38.964431833333336}, {"rental_uris": {"android": "https://dc.lft.to/lastmile_qr_scan", "ios": "https://dc.lft.to/lastmile_qr_scan"}, "is_reserved": 0, "is_disabled": 0, "name": "777ffd39b3f37dacdcc6176b0f59bbfe", "bike_id": "777ffd39b3f37dacdcc6176b0f59bbfe", "fusion_lat": 0.0, "lon": -77.04879266666667, "type": "electric_scooter", "fusion_lon": 0.0, "lat": 38.8979435}, {"rental_uris": {"android": "https://dc.lft.to/lastmile_qr_scan", "ios": "https://dc.lft.to/lastmile_qr_scan"}, "is_reserved": 0, "is_disabled": 0, "name": "22fed5dbac3f387a2ac82e0ec5d98047", "bike_id": "22fed5dbac3f387a2ac82e0ec5d98047", "fusion_lat": 0.0, "lon": -77.02299283333333, "type": "electric_scooter", "fusion_lon": 0.0, "lat": 38.92418033333333}, {"rental_uris": {"android": "https://dc.lft.to/lastmile_qr_scan", "ios": "https://dc.lft.to/lastmile_qr_scan"}, "is_reserved": 0, "is_disabled": 0, "name": "67f93c445560dc83d4ba8c804563521a", "bike_id": "67f93c445560dc83d4ba8c804563521a", "fusion_lat": 0.0, "lon": -77.04426316666667, "type": "electric_scooter", "fusion_lon": 0.0, "lat": 38.89603283333334}, {"rental_uris": {"android": "https://dc.lft.to/lastmile_qr_scan", "ios": "https://dc.lft.to/lastmile_qr_scan"}, "is_reserved": 0, "is_disabled": 0, "name": "9463ad79b0136f716d2c5ba3ff8a138d", "bike_id": "9463ad79b0136f716d2c5ba3ff8a138d", "fusion_lat": 0.0, "lon": -77.0238715, "type": "electric_scooter", "fusion_lon": 0.0, "lat": 38.916588833333336}, {"rental_uris": {"android": "https://dc.lft.to/lastmile_qr_scan", "ios": "https://dc.lft.to/lastmile_qr_scan"}, "is_reserved": 0, "is_disabled": 0, "name": "016fe3e14ae0deb368832739d1e01369", "bike_id": "016fe3e14ae0deb368832739d1e01369", "fusion_lat": 0.0, "lon": -77.03541216666666, "type": "electric_scooter", "fusion_lon": 0.0, "lat": 38.916953166666666}, {"rental_uris": {"android": "https://dc.lft.to/lastmile_qr_scan", "ios": "https://dc.lft.to/lastmile_qr_scan"}, "is_reserved": 0, "is_disabled": 0, "name": "51e269fcb86c1a2e5311bddad533f667", "bike_id": "51e269fcb86c1a2e5311bddad533f667", "fusion_lat": 0.0, "lon": -77.0246275, "type": "electric_scooter", "fusion_lon": 0.0, "lat": 38.9578175}, {"rental_uris": {"android": "https://dc.lft.to/lastmile_qr_scan", "ios": "https://dc.lft.to/lastmile_qr_scan"}, "is_reserved": 0, "is_disabled": 0, "name": "923f40e2ffa8e10b67bc3b2b72a32548", "bike_id": "923f40e2ffa8e10b67bc3b2b72a32548", "fusion_lat": 0.0, "lon": -77.06948816666667, "type": "electric_bike", "fusion_lon": 0.0, "lat": 38.836233166666666}, {"rental_uris": {"android": "https://dc.lft.to/lastmile_qr_scan", "ios": "https://dc.lft.to/lastmile_qr_scan"}, "is_reserved": 0, "is_disabled": 0, "name": "8bd4c8559c280cd3dbb5262d15e49cfa", "bike_id": "8bd4c8559c280cd3dbb5262d15e49cfa", "fusion_lat": 0.0, "lon": -77.05820516666667, "type": "electric_scooter", "fusion_lon": 0.0, "lat": 38.935308}, {"rental_uris": {"android": "https://dc.lft.to/lastmile_qr_scan", "ios": "https://dc.lft.to/lastmile_qr_scan"}, "is_reserved": 0, "is_disabled": 0, "name": "d8eb1f2a6ad7b95efb9b4bb2defe9966", "bike_id": "d8eb1f2a6ad7b95efb9b4bb2defe9966", "fusion_lat": 0.0, "lon": -77.02446316666666, "type": "electric_scooter", "fusion_lon": 0.0, "lat": 38.94977166666666}, {"rental_uris": {"android": "https://dc.lft.to/lastmile_qr_scan", "ios": "https://dc.lft.to/lastmile_qr_scan"}, "is_reserved": 0, "is_disabled": 0, "name": "0e5e54584ef1a0e9317b2be6dcf6ee7e", "bike_id": "0e5e54584ef1a0e9317b2be6dcf6ee7e", "fusion_lat": 0.0, "lon": -77.03795983333333, "type": "electric_scooter", "fusion_lon": 0.0, "lat": 38.90657916666667}, {"rental_uris": {"android": "https://dc.lft.to/lastmile_qr_scan", "ios": "https://dc.lft.to/lastmile_qr_scan"}, "is_reserved": 0, "is_disabled": 0, "name": "22c9a1d2a06206c8ac84f687df6be257", "bike_id": "22c9a1d2a06206c8ac84f687df6be257", "fusion_lat": 0.0, "lon": -77.00021766666667, "type": "electric_scooter", "fusion_lon": 0.0, "lat": 38.91973983333333}, {"rental_uris": {"android": "https://dc.lft.to/lastmile_qr_scan", "ios": "https://dc.lft.to/lastmile_qr_scan"}, "is_reserved": 0, "is_disabled": 0, "name": "b01a467b63158bd26434cb5ae98878e7", "bike_id": "b01a467b63158bd26434cb5ae98878e7", "fusion_lat": 0.0, "lon": -77.02407466666666, "type": "electric_scooter", "fusion_lon": 0.0, "lat": 38.90975816666667}, {"rental_uris": {"android": "https://dc.lft.to/lastmile_qr_scan", "ios": "https://dc.lft.to/lastmile_qr_scan"}, "is_reserved": 0, "is_disabled": 0, "name": "8154124d8df75a0373f959882f7c9ef3", "bike_id": "8154124d8df75a0373f959882f7c9ef3", "fusion_lat": 0.0, "lon": -76.97329816666667, "type": "electric_scooter", "fusion_lon": 0.0, "lat": 38.90411616666667}, {"rental_uris": {"android": "https://dc.lft.to/lastmile_qr_scan", "ios": "https://dc.lft.to/lastmile_qr_scan"}, "is_reserved": 0, "is_disabled": 0, "name": "540be600373c72a0f29d6b73896cb74b", "bike_id": "540be600373c72a0f29d6b73896cb74b", "fusion_lat": 0.0, "lon": -77.02726216666667, "type": "electric_bike", "fusion_lon": 0.0, "lat": 38.896327666666664}, {"rental_uris": {"android": "https://dc.lft.to/lastmile_qr_scan", "ios": "https://dc.lft.to/lastmile_qr_scan"}, "is_reserved": 0, "is_disabled": 0, "name": "73563192b81b2c0c65de7f07bbd18370", "bike_id": "73563192b81b2c0c65de7f07bbd18370", "fusion_lat": 0.0, "lon": -77.02739133333333, "type": "electric_scooter", "fusion_lon": 0.0, "lat": 38.952019}, {"rental_uris": {"android": "https://dc.lft.to/lastmile_qr_scan", "ios": "https://dc.lft.to/lastmile_qr_scan"}, "is_reserved": 0, "is_disabled": 0, "name": "3bb9f11885630e059ac8d243fcb93a41", "bike_id": "3bb9f11885630e059ac8d243fcb93a41", "fusion_lat": 0.0, "lon": -77.02132416666667, "type": "electric_scooter", "fusion_lon": 0.0, "lat": 38.92417833333333}, {"rental_uris": {"android": "https://dc.lft.to/lastmile_qr_scan", "ios": "https://dc.lft.to/lastmile_qr_scan"}, "is_reserved": 0, "is_disabled": 0, "name": "db72c6a63556223afb7a20586ebe7d46", "bike_id": "db72c6a63556223afb7a20586ebe7d46", "fusion_lat": 0.0, "lon": -77.03088233333334, "type": "electric_scooter", "fusion_lon": 0.0, "lat": 38.923861}, {"rental_uris": {"android": "https://dc.lft.to/lastmile_qr_scan", "ios": "https://dc.lft.to/lastmile_qr_scan"}, "is_reserved": 0, "is_disabled": 0, "name": "442581107429712b7a300eb0e6e02876", "bike_id": "442581107429712b7a300eb0e6e02876", "fusion_lat": 0.0, "lon": -77.02809816666667, "type": "electric_scooter", "fusion_lon": 0.0, "lat": 38.910524833333334}, {"rental_uris": {"android": "https://dc.lft.to/lastmile_qr_scan", "ios": "https://dc.lft.to/lastmile_qr_scan"}, "is_reserved": 0, "is_disabled": 0, "name": "29d15c40f3139f56cc45da9848024ae1", "bike_id": "29d15c40f3139f56cc45da9848024ae1", "fusion_lat": 0.0, "lon": -77.046304, "type": "electric_scooter", "fusion_lon": 0.0, "lat": 38.90965283333333}, {"rental_uris": {"android": "https://dc.lft.to/lastmile_qr_scan", "ios": "https://dc.lft.to/lastmile_qr_scan"}, "is_reserved": 0, "is_disabled": 0, "name": "b2665885213c72e1a132f6ad1801a009", "bike_id": "b2665885213c72e1a132f6ad1801a009", "fusion_lat": 0.0, "lon": -77.03982683333334, "type": "electric_scooter", "fusion_lon": 0.0, "lat": 38.901235166666666}, {"rental_uris": {"android": "https://dc.lft.to/lastmile_qr_scan", "ios": "https://dc.lft.to/lastmile_qr_scan"}, "is_reserved": 0, "is_disabled": 0, "name": "1e3470032b77dfbd9738fb4767b0d6b9", "bike_id": "1e3470032b77dfbd9738fb4767b0d6b9", "fusion_lat": 0.0, "lon": -77.023576, "type": "electric_scooter", "fusion_lon": 0.0, "lat": 38.935331166666664}, {"rental_uris": {"android": "https://dc.lft.to/lastmile_qr_scan", "ios": "https://dc.lft.to/lastmile_qr_scan"}, "is_reserved": 0, "is_disabled": 0, "name": "94aab2209215b54812d95e24a43998c4", "bike_id": "94aab2209215b54812d95e24a43998c4", "fusion_lat": 0.0, "lon": -77.00605483333334, "type": "electric_scooter", "fusion_lon": 0.0, "lat": 38.90597266666666}, {"rental_uris": {"android": "https://dc.lft.to/lastmile_qr_scan", "ios": "https://dc.lft.to/lastmile_qr_scan"}, "is_reserved": 0, "is_disabled": 0, "name": "47ad7f466a969d4fafe53ef4388f4a9b", "bike_id": "47ad7f466a969d4fafe53ef4388f4a9b", "fusion_lat": 0.0, "lon": -77.0435695, "type": "electric_scooter", "fusion_lon": 0.0, "lat": 38.91091866666667}, {"rental_uris": {"android": "https://dc.lft.to/lastmile_qr_scan", "ios": "https://dc.lft.to/lastmile_qr_scan"}, "is_reserved": 0, "is_disabled": 0, "name": "458fe10ddaa8c2356c9224a2654f884c", "bike_id": "458fe10ddaa8c2356c9224a2654f884c", "fusion_lat": 0.0, "lon": -77.01886916666666, "type": "electric_scooter", "fusion_lon": 0.0, "lat": 38.897506166666666}, {"rental_uris": {"android": "https://dc.lft.to/lastmile_qr_scan", "ios": "https://dc.lft.to/lastmile_qr_scan"}, "is_reserved": 0, "is_disabled": 0, "name": "fa8102fbbc98d38016ac70ab3712d4dd", "bike_id": "fa8102fbbc98d38016ac70ab3712d4dd", "fusion_lat": 0.0, "lon": -77.02375233333333, "type": "electric_scooter", "fusion_lon": 0.0, "lat": 38.89225716666667}, {"rental_uris": {"android": "https://dc.lft.to/lastmile_qr_scan", "ios": "https://dc.lft.to/lastmile_qr_scan"}, "is_reserved": 0, "is_disabled": 0, "name": "e6ee635e4d84142aed09a77675cc41d9", "bike_id": "e6ee635e4d84142aed09a77675cc41d9", "fusion_lat": 0.0, "lon": -77.04074366666667, "type": "electric_scooter", "fusion_lon": 0.0, "lat": 38.91415966666667}, {"rental_uris": {"android": "https://dc.lft.to/lastmile_qr_scan", "ios": "https://dc.lft.to/lastmile_qr_scan"}, "is_reserved": 0, "is_disabled": 0, "name": "a51d0ba0d4816db71ced7f6c5e04fbca", "bike_id": "a51d0ba0d4816db71ced7f6c5e04fbca", "fusion_lat": 0.0, "lon": -77.064563, "type": "electric_scooter", "fusion_lon": 0.0, "lat": 38.948827}, {"rental_uris": {"android": "https://dc.lft.to/lastmile_qr_scan", "ios": "https://dc.lft.to/lastmile_qr_scan"}, "is_reserved": 0, "is_disabled": 0, "name": "950ae3c233728212fc21db7c946fec84", "bike_id": "950ae3c233728212fc21db7c946fec84", "fusion_lat": 0.0, "lon": -76.92504616666666, "type": "electric_scooter", "fusion_lon": 0.0, "lat": 38.886011}, {"rental_uris": {"android": "https://dc.lft.to/lastmile_qr_scan", "ios": "https://dc.lft.to/lastmile_qr_scan"}, "is_reserved": 0, "is_disabled": 0, "name": "5b3286edeaba2d245fbf2f15c9f190f3", "bike_id": "5b3286edeaba2d245fbf2f15c9f190f3", "fusion_lat": 0.0, "lon": -77.05070966666666, "type": "electric_scooter", "fusion_lon": 0.0, "lat": 38.911392166666666}, {"rental_uris": {"android": "https://dc.lft.to/lastmile_qr_scan", "ios": "https://dc.lft.to/lastmile_qr_scan"}, "is_reserved": 0, "is_disabled": 0, "name": "4fb850104288fc9b985d105370db1ca9", "bike_id": "4fb850104288fc9b985d105370db1ca9", "fusion_lat": 0.0, "lon": -77.0168735, "type": "electric_scooter", "fusion_lon": 0.0, "lat": 38.906372166666664}, {"rental_uris": {"android": "https://dc.lft.to/lastmile_qr_scan", "ios": "https://dc.lft.to/lastmile_qr_scan"}, "is_reserved": 0, "is_disabled": 0, "name": "9ad02fb7456914e32e5231dcb33e3f41", "bike_id": "9ad02fb7456914e32e5231dcb33e3f41", "fusion_lat": 0.0, "lon": -77.04502766666667, "type": "electric_scooter", "fusion_lon": 0.0, "lat": 38.892217}, {"rental_uris": {"android": "https://dc.lft.to/lastmile_qr_scan", "ios": "https://dc.lft.to/lastmile_qr_scan"}, "is_reserved": 0, "is_disabled": 0, "name": "1284c60d9df2c05fc268d15860ddd909", "bike_id": "1284c60d9df2c05fc268d15860ddd909", "fusion_lat": 0.0, "lon": -77.0134035, "type": "electric_scooter", "fusion_lon": 0.0, "lat": 38.900417}, {"rental_uris": {"android": "https://dc.lft.to/lastmile_qr_scan", "ios": "https://dc.lft.to/lastmile_qr_scan"}, "is_reserved": 0, "is_disabled": 0, "name": "e07a1a4ab5c29e2d200c0b7581baa044", "bike_id": "e07a1a4ab5c29e2d200c0b7581baa044", "fusion_lat": 0.0, "lon": -76.98360116666667, "type": "electric_scooter", "fusion_lon": 0.0, "lat": 38.88732916666667}, {"rental_uris": {"android": "https://dc.lft.to/lastmile_qr_scan", "ios": "https://dc.lft.to/lastmile_qr_scan"}, "is_reserved": 0, "is_disabled": 0, "name": "faf09a451e5093c24d40c811e782f0d6", "bike_id": "faf09a451e5093c24d40c811e782f0d6", "fusion_lat": 0.0, "lon": -77.00538366666666, "type": "electric_scooter", "fusion_lon": 0.0, "lat": 38.88052866666666}, {"rental_uris": {"android": "https://dc.lft.to/lastmile_qr_scan", "ios": "https://dc.lft.to/lastmile_qr_scan"}, "is_reserved": 0, "is_disabled": 0, "name": "f3e187690c612069e20256134ca6bf9c", "bike_id": "f3e187690c612069e20256134ca6bf9c", "fusion_lat": 0.0, "lon": -77.031645, "type": "electric_scooter", "fusion_lon": 0.0, "lat": 38.892232166666666}, {"rental_uris": {"android": "https://dc.lft.to/lastmile_qr_scan", "ios": "https://dc.lft.to/lastmile_qr_scan"}, "is_reserved": 0, "is_disabled": 0, "name": "396b97cf0b6d76e32a04d84ee3f920f0", "bike_id": "396b97cf0b6d76e32a04d84ee3f920f0", "fusion_lat": 0.0, "lon": -77.00213616666667, "type": "electric_scooter", "fusion_lon": 0.0, "lat": 38.9110305}, {"rental_uris": {"android": "https://dc.lft.to/lastmile_qr_scan", "ios": "https://dc.lft.to/lastmile_qr_scan"}, "is_reserved": 0, "is_disabled": 0, "name": "edf03d3b136a93c24cd471da97f2ba55", "bike_id": "edf03d3b136a93c24cd471da97f2ba55", "fusion_lat": 0.0, "lon": -77.03556166666667, "type": "electric_scooter", "fusion_lon": 0.0, "lat": 38.918211666666664}, {"rental_uris": {"android": "https://dc.lft.to/lastmile_qr_scan", "ios": "https://dc.lft.to/lastmile_qr_scan"}, "is_reserved": 0, "is_disabled": 0, "name": "cfaa94e5f98b4cca413d54c6ac69110f", "bike_id": "cfaa94e5f98b4cca413d54c6ac69110f", "fusion_lat": 0.0, "lon": -77.0316555, "type": "electric_scooter", "fusion_lon": 0.0, "lat": 38.892202833333336}, {"rental_uris": {"android": "https://dc.lft.to/lastmile_qr_scan", "ios": "https://dc.lft.to/lastmile_qr_scan"}, "is_reserved": 0, "is_disabled": 0, "name": "82d5bceba755a19b382680b0ca09495e", "bike_id": "82d5bceba755a19b382680b0ca09495e", "fusion_lat": 0.0, "lon": -77.03418666666667, "type": "electric_scooter", "fusion_lon": 0.0, "lat": 38.9240085}, {"rental_uris": {"android": "https://dc.lft.to/lastmile_qr_scan", "ios": "https://dc.lft.to/lastmile_qr_scan"}, "is_reserved": 0, "is_disabled": 0, "name": "63090e106bae4c0a725321032ebedcbf", "bike_id": "63090e106bae4c0a725321032ebedcbf", "fusion_lat": 0.0, "lon": -77.0444715, "type": "electric_scooter", "fusion_lon": 0.0, "lat": 38.9039235}, {"rental_uris": {"android": "https://dc.lft.to/lastmile_qr_scan", "ios": "https://dc.lft.to/lastmile_qr_scan"}, "is_reserved": 0, "is_disabled": 0, "name": "ec61f86a823f4353791208fcb4d51bfa", "bike_id": "ec61f86a823f4353791208fcb4d51bfa", "fusion_lat": 0.0, "lon": -77.04686566666666, "type": "electric_scooter", "fusion_lon": 0.0, "lat": 38.902167}, {"rental_uris": {"android": "https://dc.lft.to/lastmile_qr_scan", "ios": "https://dc.lft.to/lastmile_qr_scan"}, "is_reserved": 0, "is_disabled": 0, "name": "9c866849cb2fed909ac11e32ebe94d1f", "bike_id": "9c866849cb2fed909ac11e32ebe94d1f", "fusion_lat": 0.0, "lon": -77.02714383333333, "type": "electric_scooter", "fusion_lon": 0.0, "lat": 38.92467116666667}, {"rental_uris": {"android": "https://dc.lft.to/lastmile_qr_scan", "ios": "https://dc.lft.to/lastmile_qr_scan"}, "is_reserved": 0, "is_disabled": 0, "name": "152a67a9700be1a50240301eca780c75", "bike_id": "152a67a9700be1a50240301eca780c75", "fusion_lat": 0.0, "lon": -77.03548733333334, "type": "electric_scooter", "fusion_lon": 0.0, "lat": 38.92646333333333}, {"rental_uris": {"android": "https://dc.lft.to/lastmile_qr_scan", "ios": "https://dc.lft.to/lastmile_qr_scan"}, "is_reserved": 0, "is_disabled": 0, "name": "8e793d270b96c962e4315b21ee29bc20", "bike_id": "8e793d270b96c962e4315b21ee29bc20", "fusion_lat": 0.0, "lon": -77.09721366666666, "type": "electric_bike", "fusion_lon": 0.0, "lat": 38.88685266666667}, {"rental_uris": {"android": "https://dc.lft.to/lastmile_qr_scan", "ios": "https://dc.lft.to/lastmile_qr_scan"}, "is_reserved": 0, "is_disabled": 0, "name": "b8e6c71a4d6922463ac1f10c1e648393", "bike_id": "b8e6c71a4d6922463ac1f10c1e648393", "fusion_lat": 0.0, "lon": -77.05321066666667, "type": "electric_scooter", "fusion_lon": 0.0, "lat": 38.9154755}, {"rental_uris": {"android": "https://dc.lft.to/lastmile_qr_scan", "ios": "https://dc.lft.to/lastmile_qr_scan"}, "is_reserved": 0, "is_disabled": 0, "name": "a2a00922f77b873d35477b03d030b75e", "bike_id": "a2a00922f77b873d35477b03d030b75e", "fusion_lat": 0.0, "lon": -77.03503733333334, "type": "electric_scooter", "fusion_lon": 0.0, "lat": 38.91869066666667}, {"rental_uris": {"android": "https://dc.lft.to/lastmile_qr_scan", "ios": "https://dc.lft.to/lastmile_qr_scan"}, "is_reserved": 0, "is_disabled": 0, "name": "e811a943f35a2b314b0ada40200ec574", "bike_id": "e811a943f35a2b314b0ada40200ec574", "fusion_lat": 0.0, "lon": -77.0306175, "type": "electric_scooter", "fusion_lon": 0.0, "lat": 38.903344}, {"rental_uris": {"android": "https://dc.lft.to/lastmile_qr_scan", "ios": "https://dc.lft.to/lastmile_qr_scan"}, "is_reserved": 0, "is_disabled": 0, "name": "9e641fff7141a28db2d3d7e1c96b864a", "bike_id": "9e641fff7141a28db2d3d7e1c96b864a", "fusion_lat": 0.0, "lon": -77.02066233333333, "type": "electric_scooter", "fusion_lon": 0.0, "lat": 38.923772}, {"rental_uris": {"android": "https://dc.lft.to/lastmile_qr_scan", "ios": "https://dc.lft.to/lastmile_qr_scan"}, "is_reserved": 0, "is_disabled": 0, "name": "e8ec8c2c0d6eabfdc0c750ac1d2bd61f", "bike_id": "e8ec8c2c0d6eabfdc0c750ac1d2bd61f", "fusion_lat": 0.0, "lon": -77.03640283333333, "type": "electric_scooter", "fusion_lon": 0.0, "lat": 38.927067}, {"rental_uris": {"android": "https://dc.lft.to/lastmile_qr_scan", "ios": "https://dc.lft.to/lastmile_qr_scan"}, "is_reserved": 0, "is_disabled": 0, "name": "f2b79f24feff4f00eadb03f55515ed03", "bike_id": "f2b79f24feff4f00eadb03f55515ed03", "fusion_lat": 0.0, "lon": -77.03039966666667, "type": "electric_scooter", "fusion_lon": 0.0, "lat": 38.909825166666664}, {"rental_uris": {"android": "https://dc.lft.to/lastmile_qr_scan", "ios": "https://dc.lft.to/lastmile_qr_scan"}, "is_reserved": 0, "is_disabled": 0, "name": "5a157de469f726e533b381f3e1d5cb82", "bike_id": "5a157de469f726e533b381f3e1d5cb82", "fusion_lat": 0.0, "lon": -77.02107416666666, "type": "electric_scooter", "fusion_lon": 0.0, "lat": 38.90559966666667}, {"rental_uris": {"android": "https://dc.lft.to/lastmile_qr_scan", "ios": "https://dc.lft.to/lastmile_qr_scan"}, "is_reserved": 0, "is_disabled": 0, "name": "4eeba0c7c2c89da1694f9ce1c6bcfcf0", "bike_id": "4eeba0c7c2c89da1694f9ce1c6bcfcf0", "fusion_lat": 0.0, "lon": -77.02254166666667, "type": "electric_scooter", "fusion_lon": 0.0, "lat": 38.893686}, {"rental_uris": {"android": "https://dc.lft.to/lastmile_qr_scan", "ios": "https://dc.lft.to/lastmile_qr_scan"}, "is_reserved": 0, "is_disabled": 0, "name": "d76e54965472b1357c2b8ae20cacd074", "bike_id": "d76e54965472b1357c2b8ae20cacd074", "fusion_lat": 0.0, "lon": -77.08326966666667, "type": "electric_bike", "fusion_lon": 0.0, "lat": 38.93349766666667}, {"rental_uris": {"android": "https://dc.lft.to/lastmile_qr_scan", "ios": "https://dc.lft.to/lastmile_qr_scan"}, "is_reserved": 0, "is_disabled": 0, "name": "4e8a3f79543ba1f75c614fe32bda6952", "bike_id": "4e8a3f79543ba1f75c614fe32bda6952", "fusion_lat": 0.0, "lon": -77.02599933333333, "type": "electric_scooter", "fusion_lon": 0.0, "lat": 38.925872166666664}, {"rental_uris": {"android": "https://dc.lft.to/lastmile_qr_scan", "ios": "https://dc.lft.to/lastmile_qr_scan"}, "is_reserved": 0, "is_disabled": 0, "name": "f9bec1b4146a285c905f7f3bc6e7d3d6", "bike_id": "f9bec1b4146a285c905f7f3bc6e7d3d6", "fusion_lat": 0.0, "lon": -76.98585883333334, "type": "electric_scooter", "fusion_lon": 0.0, "lat": 38.900351}, {"rental_uris": {"android": "https://dc.lft.to/lastmile_qr_scan", "ios": "https://dc.lft.to/lastmile_qr_scan"}, "is_reserved": 0, "is_disabled": 0, "name": "9d8c2b8fbdad7e83e2e922bc226a27f0", "bike_id": "9d8c2b8fbdad7e83e2e922bc226a27f0", "fusion_lat": 0.0, "lon": -77.0344845, "type": "electric_scooter", "fusion_lon": 0.0, "lat": 38.909519}, {"rental_uris": {"android": "https://dc.lft.to/lastmile_qr_scan", "ios": "https://dc.lft.to/lastmile_qr_scan"}, "is_reserved": 0, "is_disabled": 0, "name": "89f37e4bc3fd8edc93e5c4f092da9484", "bike_id": "89f37e4bc3fd8edc93e5c4f092da9484", "fusion_lat": 0.0, "lon": -77.02487316666667, "type": "electric_scooter", "fusion_lon": 0.0, "lat": 38.92076816666667}, {"rental_uris": {"android": "https://dc.lft.to/lastmile_qr_scan", "ios": "https://dc.lft.to/lastmile_qr_scan"}, "is_reserved": 0, "is_disabled": 0, "name": "8fb78b57c57a6b6919268fde9148e15b", "bike_id": "8fb78b57c57a6b6919268fde9148e15b", "fusion_lat": 0.0, "lon": -77.034571, "type": "electric_scooter", "fusion_lon": 0.0, "lat": 38.917937}, {"rental_uris": {"android": "https://dc.lft.to/lastmile_qr_scan", "ios": "https://dc.lft.to/lastmile_qr_scan"}, "is_reserved": 0, "is_disabled": 0, "name": "2f0bc402430e539de4abd6cac9350b39", "bike_id": "2f0bc402430e539de4abd6cac9350b39", "fusion_lat": 0.0, "lon": -77.05597166666666, "type": "electric_scooter", "fusion_lon": 0.0, "lat": 38.8942435}, {"rental_uris": {"android": "https://dc.lft.to/lastmile_qr_scan", "ios": "https://dc.lft.to/lastmile_qr_scan"}, "is_reserved": 0, "is_disabled": 0, "name": "54ebdb394d603788d4ce182877aedfe7", "bike_id": "54ebdb394d603788d4ce182877aedfe7", "fusion_lat": 0.0, "lon": -76.9951785, "type": "electric_scooter", "fusion_lon": 0.0, "lat": 38.902608666666666}, {"rental_uris": {"android": "https://dc.lft.to/lastmile_qr_scan", "ios": "https://dc.lft.to/lastmile_qr_scan"}, "is_reserved": 0, "is_disabled": 0, "name": "3a74b0710240b703c3bea88a0f73e7ad", "bike_id": "3a74b0710240b703c3bea88a0f73e7ad", "fusion_lat": 0.0, "lon": -77.013338, "type": "electric_scooter", "fusion_lon": 0.0, "lat": 38.88130733333333}, {"rental_uris": {"android": "https://dc.lft.to/lastmile_qr_scan", "ios": "https://dc.lft.to/lastmile_qr_scan"}, "is_reserved": 0, "is_disabled": 0, "name": "6044ddb2fef26e05938c166a0a3de137", "bike_id": "6044ddb2fef26e05938c166a0a3de137", "fusion_lat": 0.0, "lon": -77.02909183333334, "type": "electric_scooter", "fusion_lon": 0.0, "lat": 38.932948333333336}, {"rental_uris": {"android": "https://dc.lft.to/lastmile_qr_scan", "ios": "https://dc.lft.to/lastmile_qr_scan"}, "is_reserved": 0, "is_disabled": 0, "name": "d05978e0aa7626930bca1d517636b378", "bike_id": "d05978e0aa7626930bca1d517636b378", "fusion_lat": 0.0, "lon": -77.03015166666667, "type": "electric_scooter", "fusion_lon": 0.0, "lat": 38.895297}, {"rental_uris": {"android": "https://dc.lft.to/lastmile_qr_scan", "ios": "https://dc.lft.to/lastmile_qr_scan"}, "is_reserved": 0, "is_disabled": 0, "name": "eccd90f3ef77ea10259bd00508e1dc9a", "bike_id": "eccd90f3ef77ea10259bd00508e1dc9a", "fusion_lat": 0.0, "lon": -77.021415, "type": "electric_scooter", "fusion_lon": 0.0, "lat": 38.894227}, {"rental_uris": {"android": "https://dc.lft.to/lastmile_qr_scan", "ios": "https://dc.lft.to/lastmile_qr_scan"}, "is_reserved": 0, "is_disabled": 0, "name": "754553a70de61e825b5704d77302a8ba", "bike_id": "754553a70de61e825b5704d77302a8ba", "fusion_lat": 0.0, "lon": -77.039962, "type": "electric_scooter", "fusion_lon": 0.0, "lat": 38.917666}, {"rental_uris": {"android": "https://dc.lft.to/lastmile_qr_scan", "ios": "https://dc.lft.to/lastmile_qr_scan"}, "is_reserved": 0, "is_disabled": 0, "name": "4d1ddb6f0a90029f1e8b00753b779e26", "bike_id": "4d1ddb6f0a90029f1e8b00753b779e26", "fusion_lat": 0.0, "lon": -77.04327616666667, "type": "electric_scooter", "fusion_lon": 0.0, "lat": 38.89222566666667}, {"rental_uris": {"android": "https://dc.lft.to/lastmile_qr_scan", "ios": "https://dc.lft.to/lastmile_qr_scan"}, "is_reserved": 0, "is_disabled": 0, "name": "99c44084976c864a402a4576f93add2b", "bike_id": "99c44084976c864a402a4576f93add2b", "fusion_lat": 0.0, "lon": -77.02169216666667, "type": "electric_scooter", "fusion_lon": 0.0, "lat": 38.924968666666665}, {"rental_uris": {"android": "https://dc.lft.to/lastmile_qr_scan", "ios": "https://dc.lft.to/lastmile_qr_scan"}, "is_reserved": 0, "is_disabled": 0, "name": "5724b48a4e3c4aa636e6acf1fcae9afc", "bike_id": "5724b48a4e3c4aa636e6acf1fcae9afc", "fusion_lat": 0.0, "lon": -77.00200666666667, "type": "electric_scooter", "fusion_lon": 0.0, "lat": 38.9024015}, {"rental_uris": {"android": "https://dc.lft.to/lastmile_qr_scan", "ios": "https://dc.lft.to/lastmile_qr_scan"}, "is_reserved": 0, "is_disabled": 0, "name": "4d8b274bc9c63e39d237820663643a98", "bike_id": "4d8b274bc9c63e39d237820663643a98", "fusion_lat": 0.0, "lon": -77.0354695, "type": "electric_scooter", "fusion_lon": 0.0, "lat": 38.9235035}, {"rental_uris": {"android": "https://dc.lft.to/lastmile_qr_scan", "ios": "https://dc.lft.to/lastmile_qr_scan"}, "is_reserved": 0, "is_disabled": 0, "name": "ddf86b1f512cea592021108a16541bd1", "bike_id": "ddf86b1f512cea592021108a16541bd1", "fusion_lat": 0.0, "lon": -77.01843183333334, "type": "electric_scooter", "fusion_lon": 0.0, "lat": 38.9096395}, {"rental_uris": {"android": "https://dc.lft.to/lastmile_qr_scan", "ios": "https://dc.lft.to/lastmile_qr_scan"}, "is_reserved": 0, "is_disabled": 0, "name": "be10507b097bae57ea595a8eb6c837b1", "bike_id": "be10507b097bae57ea595a8eb6c837b1", "fusion_lat": 0.0, "lon": -77.03612266666667, "type": "electric_scooter", "fusion_lon": 0.0, "lat": 38.9374105}, {"rental_uris": {"android": "https://dc.lft.to/lastmile_qr_scan", "ios": "https://dc.lft.to/lastmile_qr_scan"}, "is_reserved": 0, "is_disabled": 0, "name": "997ba70cca8521622d6b784c0c178e2f", "bike_id": "997ba70cca8521622d6b784c0c178e2f", "fusion_lat": 0.0, "lon": -77.02713133333333, "type": "electric_scooter", "fusion_lon": 0.0, "lat": 38.90668766666667}, {"rental_uris": {"android": "https://dc.lft.to/lastmile_qr_scan", "ios": "https://dc.lft.to/lastmile_qr_scan"}, "is_reserved": 0, "is_disabled": 0, "name": "c8e09c6ffba5c2ecd18560827a4c2db3", "bike_id": "c8e09c6ffba5c2ecd18560827a4c2db3", "fusion_lat": 0.0, "lon": -77.0048085, "type": "electric_scooter", "fusion_lon": 0.0, "lat": 38.911388333333335}, {"rental_uris": {"android": "https://dc.lft.to/lastmile_qr_scan", "ios": "https://dc.lft.to/lastmile_qr_scan"}, "is_reserved": 0, "is_disabled": 0, "name": "ddba4cce86185870dcaa47d649dbd41a", "bike_id": "ddba4cce86185870dcaa47d649dbd41a", "fusion_lat": 0.0, "lon": -77.0281435, "type": "electric_scooter", "fusion_lon": 0.0, "lat": 38.881858333333334}, {"rental_uris": {"android": "https://dc.lft.to/lastmile_qr_scan", "ios": "https://dc.lft.to/lastmile_qr_scan"}, "is_reserved": 0, "is_disabled": 0, "name": "3e926273e90c3658dfe1c8c4237934eb", "bike_id": "3e926273e90c3658dfe1c8c4237934eb", "fusion_lat": 0.0, "lon": -77.08534566666667, "type": "electric_bike", "fusion_lon": 0.0, "lat": 38.8566565}, {"rental_uris": {"android": "https://dc.lft.to/lastmile_qr_scan", "ios": "https://dc.lft.to/lastmile_qr_scan"}, "is_reserved": 0, "is_disabled": 0, "name": "974bd3a59a1b1aa4a0850d37a9075071", "bike_id": "974bd3a59a1b1aa4a0850d37a9075071", "fusion_lat": 0.0, "lon": -77.04049933333333, "type": "electric_scooter", "fusion_lon": 0.0, "lat": 38.901471666666666}, {"rental_uris": {"android": "https://dc.lft.to/lastmile_qr_scan", "ios": "https://dc.lft.to/lastmile_qr_scan"}, "is_reserved": 0, "is_disabled": 0, "name": "db95e8adbe0434407abfdd92e8c8f873", "bike_id": "db95e8adbe0434407abfdd92e8c8f873", "fusion_lat": 0.0, "lon": -77.03447533333333, "type": "electric_scooter", "fusion_lon": 0.0, "lat": 38.922211}, {"rental_uris": {"android": "https://dc.lft.to/lastmile_qr_scan", "ios": "https://dc.lft.to/lastmile_qr_scan"}, "is_reserved": 0, "is_disabled": 0, "name": "64c96ebfe955b9af017fa9a447a8ab2f", "bike_id": "64c96ebfe955b9af017fa9a447a8ab2f", "fusion_lat": 0.0, "lon": -77.0324735, "type": "electric_scooter", "fusion_lon": 0.0, "lat": 38.9171625}, {"rental_uris": {"android": "https://dc.lft.to/lastmile_qr_scan", "ios": "https://dc.lft.to/lastmile_qr_scan"}, "is_reserved": 0, "is_disabled": 0, "name": "dfa0810f9f48f13bcd59f64ef60a35ca", "bike_id": "dfa0810f9f48f13bcd59f64ef60a35ca", "fusion_lat": 0.0, "lon": -77.0307555, "type": "electric_scooter", "fusion_lon": 0.0, "lat": 38.89965266666667}, {"rental_uris": {"android": "https://dc.lft.to/lastmile_qr_scan", "ios": "https://dc.lft.to/lastmile_qr_scan"}, "is_reserved": 0, "is_disabled": 0, "name": "067113571ae17152a7d2a051dd59dd96", "bike_id": "067113571ae17152a7d2a051dd59dd96", "fusion_lat": 0.0, "lon": -77.00233583333333, "type": "electric_scooter", "fusion_lon": 0.0, "lat": 38.90030766666667}, {"rental_uris": {"android": "https://dc.lft.to/lastmile_qr_scan", "ios": "https://dc.lft.to/lastmile_qr_scan"}, "is_reserved": 0, "is_disabled": 0, "name": "8b3a0f8c67916e79ad4416981dfd969f", "bike_id": "8b3a0f8c67916e79ad4416981dfd969f", "fusion_lat": 0.0, "lon": -77.00166866666666, "type": "electric_scooter", "fusion_lon": 0.0, "lat": 38.9076105}, {"rental_uris": {"android": "https://dc.lft.to/lastmile_qr_scan", "ios": "https://dc.lft.to/lastmile_qr_scan"}, "is_reserved": 0, "is_disabled": 0, "name": "ae78e60e00cfc2049cbd3707762b4af0", "bike_id": "ae78e60e00cfc2049cbd3707762b4af0", "fusion_lat": 0.0, "lon": -76.9734515, "type": "electric_bike", "fusion_lon": 0.0, "lat": 38.86527783333333}, {"rental_uris": {"android": "https://dc.lft.to/lastmile_qr_scan", "ios": "https://dc.lft.to/lastmile_qr_scan"}, "is_reserved": 0, "is_disabled": 0, "name": "c83e6e44f59939cd5ce51ae134147d96", "bike_id": "c83e6e44f59939cd5ce51ae134147d96", "fusion_lat": 0.0, "lon": -77.01455816666666, "type": "electric_scooter", "fusion_lon": 0.0, "lat": 38.917719166666664}, {"rental_uris": {"android": "https://dc.lft.to/lastmile_qr_scan", "ios": "https://dc.lft.to/lastmile_qr_scan"}, "is_reserved": 0, "is_disabled": 0, "name": "5dc7df1cebe81f6206a75188b86748d3", "bike_id": "5dc7df1cebe81f6206a75188b86748d3", "fusion_lat": 0.0, "lon": -77.03205066666666, "type": "electric_scooter", "fusion_lon": 0.0, "lat": 38.91521983333333}, {"rental_uris": {"android": "https://dc.lft.to/lastmile_qr_scan", "ios": "https://dc.lft.to/lastmile_qr_scan"},