{"data": {"bikes": [{"rental_uris": {"android": "https://dc.lft.to/lastmile_qr_scan", "ios": "https://dc.lft.to/lastmile_qr_scan"}, "lon": -77.02295066666667, "name": "11330d43666dc47f8f2c8ab091eef9bb", "lat": 38.920828, "is_reserved": 0, "fusion_lat": 0.0, "bike_id": "11330d43666dc47f8f2c8ab091eef9bb", "type": "electric_scooter", "is_disabled": 0, "fusion_lon": 0.0}, {"rental_uris": {"android": "https://dc.lft.to/lastmile_qr_scan", "ios": "https://dc.lft.to/lastmile_qr_scan"}, "lon": -77.04352783333333, "name": "0dd07475f55791b592ab14c101e78b65", "lat": 38.9041245, "is_reserved": 0, "fusion_lat": 0.0, "bike_id": "0dd07475f55791b592ab14c101e78b65", "type": "electric_scooter", "is_disabled": 0, "fusion_lon": 0.0}, {"rental_uris": {"android": "https://dc.lft.to/lastmile_qr_scan", "ios": "https://dc.lft.to/lastmile_qr_scan"}, "lon": -76.916028, "name": "e4b17279e0ed7881da175aaaf759fe13", "lat": 38.87982233333334, "is_reserved": 0, "fusion_lat": 0.0, "bike_id": "e4b17279e0ed7881da175aaaf759fe13", "type": "electric_bike", "is_disabled": 0, "fusion_lon": 0.0}, {"rental_uris": {"android": "https://dc.lft.to/lastmile_qr_scan", "ios": "https://dc.lft.to/lastmile_qr_scan"}, "lon": -77.0241565, "name": "009e4db17afe49ebd85a592b5f2150fc", "lat": 38.91211633333333, "is_reserved": 0, "fusion_lat": 0.0, "bike_id": "009e4db17afe49ebd85a592b5f2150fc", "type": "electric_scooter", "is_disabled": 0, "fusion_lon": 0.0}, {"rental_uris": {"android": "https://dc.lft.to/lastmile_qr_scan", "ios": "https://dc.lft.to/lastmile_qr_scan"}, "lon": -77.038952, "name": "65af6ce155f9d1ebc90b248ea8fa2914", "lat": 38.922542, "is_reserved": 0, "fusion_lat": 0.0, "bike_id": "65af6ce155f9d1ebc90b248ea8fa2914", "type": "electric_scooter", "is_disabled": 0, "fusion_lon": 0.0}, {"rental_uris": {"android": "https://dc.lft.to/lastmile_qr_scan", "ios": "https://dc.lft.to/lastmile_qr_scan"}, "lon": -77.036684, "name": "a055eb65383453ff035c2237e230d6ce", "lat": 38.910079, "is_reserved": 0, "fusion_lat": 0.0, "bike_id": "a055eb65383453ff035c2237e230d6ce", "type": "electric_scooter", "is_disabled": 0, "fusion_lon": 0.0}, {"rental_uris": {"android": "https://dc.lft.to/lastmile_qr_scan", "ios": "https://dc.lft.to/lastmile_qr_scan"}, "lon": -77.00388716666667, "name": "038774491dc6a4654b79b6cec8ae547a", "lat": 38.90547016666667, "is_reserved": 0, "fusion_lat": 0.0, "bike_id": "038774491dc6a4654b79b6cec8ae547a", "type": "electric_scooter", "is_disabled": 0, "fusion_lon": 0.0}, {"rental_uris": {"android": "https://dc.lft.to/lastmile_qr_scan", "ios": "https://dc.lft.to/lastmile_qr_scan"}, "lon": -76.99895833333333, "name": "68ef1dd97463876c41f663e291743916", "lat": 38.909564, "is_reserved": 0, "fusion_lat": 0.0, "bike_id": "68ef1dd97463876c41f663e291743916", "type": "electric_bike", "is_disabled": 0, "fusion_lon": 0.0}, {"rental_uris": {"android": "https://dc.lft.to/lastmile_qr_scan", "ios": "https://dc.lft.to/lastmile_qr_scan"}, "lon": -77.02398666666667, "name": "2ce6a65fc63305b296bd1319d96fca5d", "lat": 38.919806666666666, "is_reserved": 0, "fusion_lat": 0.0, "bike_id": "2ce6a65fc63305b296bd1319d96fca5d", "type": "electric_scooter", "is_disabled": 0, "fusion_lon": 0.0}, {"rental_uris": {"android": "https://dc.lft.to/lastmile_qr_scan", "ios": "https://dc.lft.to/lastmile_qr_scan"}, "lon": -76.97055883333333, "name": "dcd40c90ba9ca48049f09ee999c20790", "lat": 38.984658333333336, "is_reserved": 0, "fusion_lat": 0.0, "bike_id": "dcd40c90ba9ca48049f09ee999c20790", "type": "electric_bike", "is_disabled": 0, "fusion_lon": 0.0}, {"rental_uris": {"android": "https://dc.lft.to/lastmile_qr_scan", "ios": "https://dc.lft.to/lastmile_qr_scan"}, "lon": -77.0322655, "name": "bdc8dfcd5d217817319d14141a2ee00e", "lat": 38.91035816666667, "is_reserved": 0, "fusion_lat": 0.0, "bike_id": "bdc8dfcd5d217817319d14141a2ee00e", "type": "electric_scooter", "is_disabled": 0, "fusion_lon": 0.0}, {"rental_uris": {"android": "https://dc.lft.to/lastmile_qr_scan", "ios": "https://dc.lft.to/lastmile_qr_scan"}, "lon": -77.01236516666667, "name": "5a4828b2fb1b6b91f7ccf8d6fda0d879", "lat": 38.872128000000004, "is_reserved": 0, "fusion_lat": 0.0, "bike_id": "5a4828b2fb1b6b91f7ccf8d6fda0d879", "type": "electric_scooter", "is_disabled": 0, "fusion_lon": 0.0}, {"rental_uris": {"android": "https://dc.lft.to/lastmile_qr_scan", "ios": "https://dc.lft.to/lastmile_qr_scan"}, "lon": -77.05605883333334, "name": "c86d2b11466095381aa400459f7683a9", "lat": 38.93699483333333, "is_reserved": 0, "fusion_lat": 0.0, "bike_id": "c86d2b11466095381aa400459f7683a9", "type": "electric_scooter", "is_disabled": 0, "fusion_lon": 0.0}, {"rental_uris": {"android": "https://dc.lft.to/lastmile_qr_scan", "ios": "https://dc.lft.to/lastmile_qr_scan"}, "lon": -77.03808516666666, "name": "5e160539b6a4320a7b4b2af72760415d", "lat": 38.9207505, "is_reserved": 0, "fusion_lat": 0.0, "bike_id": "5e160539b6a4320a7b4b2af72760415d", "type": "electric_scooter", "is_disabled": 0, "fusion_lon": 0.0}, {"rental_uris": {"android": "https://dc.lft.to/lastmile_qr_scan", "ios": "https://dc.lft.to/lastmile_qr_scan"}, "lon": -77.037065, "name": "d71e00e035ca049950ded52561c5b867", "lat": 38.9278275, "is_reserved": 0, "fusion_lat": 0.0, "bike_id": "d71e00e035ca049950ded52561c5b867", "type": "electric_scooter", "is_disabled": 0, "fusion_lon": 0.0}, {"rental_uris": {"android": "https://dc.lft.to/lastmile_qr_scan", "ios": "https://dc.lft.to/lastmile_qr_scan"}, "lon": -77.03079433333333, "name": "2e279d0c6127155dc682b61d36f64361", "lat": 38.92668833333333, "is_reserved": 0, "fusion_lat": 0.0, "bike_id": "2e279d0c6127155dc682b61d36f64361", "type": "electric_scooter", "is_disabled": 0, "fusion_lon": 0.0}, {"rental_uris": {"android": "https://dc.lft.to/lastmile_qr_scan", "ios": "https://dc.lft.to/lastmile_qr_scan"}, "lon": -77.03285133333333, "name": "f3a5a031d386a0b69d601445403c67b2", "lat": 38.94055083333333, "is_reserved": 0, "fusion_lat": 0.0, "bike_id": "f3a5a031d386a0b69d601445403c67b2", "type": "electric_scooter", "is_disabled": 0, "fusion_lon": 0.0}, {"rental_uris": {"android": "https://dc.lft.to/lastmile_qr_scan", "ios": "https://dc.lft.to/lastmile_qr_scan"}, "lon": -76.93476133333333, "name": "ca5dc6265ca9d4ff19aeedc67ff863b3", "lat": 38.895065833333334, "is_reserved": 0, "fusion_lat": 0.0, "bike_id": "ca5dc6265ca9d4ff19aeedc67ff863b3", "type": "electric_scooter", "is_disabled": 0, "fusion_lon": 0.0}, {"rental_uris": {"android": "https://dc.lft.to/lastmile_qr_scan", "ios": "https://dc.lft.to/lastmile_qr_scan"}, "lon": -77.02468, "name": "f28e499e6db6e3e96a1dc99603abaa00", "lat": 38.920629166666664, "is_reserved": 0, "fusion_lat": 0.0, "bike_id": "f28e499e6db6e3e96a1dc99603abaa00", "type": "electric_scooter", "is_disabled": 0, "fusion_lon": 0.0}, {"rental_uris": {"android": "https://dc.lft.to/lastmile_qr_scan", "ios": "https://dc.lft.to/lastmile_qr_scan"}, "lon": -76.94640583333333, "name": "1d0de19bbf4ebeca48fe46a7c8f1794e", "lat": 38.8986475, "is_reserved": 0, "fusion_lat": 0.0, "bike_id": "1d0de19bbf4ebeca48fe46a7c8f1794e", "type": "electric_scooter", "is_disabled": 0, "fusion_lon": 0.0}, {"rental_uris": {"android": "https://dc.lft.to/lastmile_qr_scan", "ios": "https://dc.lft.to/lastmile_qr_scan"}, "lon": -77.0765665, "name": "957cc8f1aafed28f6f2e8240e05c8bb4", "lat": 38.9352545, "is_reserved": 0, "fusion_lat": 0.0, "bike_id": "957cc8f1aafed28f6f2e8240e05c8bb4", "type": "electric_scooter", "is_disabled": 0, "fusion_lon": 0.0}, {"rental_uris": {"android": "https://dc.lft.to/lastmile_qr_scan", "ios": "https://dc.lft.to/lastmile_qr_scan"}, "lon": -77.033267, "name": "9114d95c983f6237756f5e4e3e09bc05", "lat": 38.91397383333333, "is_reserved": 0, "fusion_lat": 0.0, "bike_id": "9114d95c983f6237756f5e4e3e09bc05", "type": "electric_scooter", "is_disabled": 0, "fusion_lon": 0.0}, {"rental_uris": {"android": "https://dc.lft.to/lastmile_qr_scan", "ios": "https://dc.lft.to/lastmile_qr_scan"}, "lon": -77.04488816666667, "name": "26cdb5a8687e9347964f180183ed5579", "lat": 38.90851966666666, "is_reserved": 0, "fusion_lat": 0.0, "bike_id": "26cdb5a8687e9347964f180183ed5579", "type": "electric_scooter", "is_disabled": 0, "fusion_lon": 0.0}, {"rental_uris": {"android": "https://dc.lft.to/lastmile_qr_scan", "ios": "https://dc.lft.to/lastmile_qr_scan"}, "lon": -77.02126533333333, "name": "3aca6b4599fb1b6182f5d3e8a9044f76", "lat": 38.9231415, "is_reserved": 0, "fusion_lat": 0.0, "bike_id": "3aca6b4599fb1b6182f5d3e8a9044f76", "type": "electric_scooter", "is_disabled": 0, "fusion_lon": 0.0}, {"rental_uris": {"android": "https://dc.lft.to/lastmile_qr_scan", "ios": "https://dc.lft.to/lastmile_qr_scan"}, "lon": -77.044099, "name": "4488c31f9255d9eda5d705c8d69d2fda", "lat": 38.9258895, "is_reserved": 0, "fusion_lat": 0.0, "bike_id": "4488c31f9255d9eda5d705c8d69d2fda", "type": "electric_scooter", "is_disabled": 0, "fusion_lon": 0.0}, {"rental_uris": {"android": "https://dc.lft.to/lastmile_qr_scan", "ios": "https://dc.lft.to/lastmile_qr_scan"}, "lon": -76.99839283333333, "name": "1ca67fecbb89f269a9fb0fb4c509f350", "lat": 38.884590833333334, "is_reserved": 0, "fusion_lat": 0.0, "bike_id": "1ca67fecbb89f269a9fb0fb4c509f350", "type": "electric_scooter", "is_disabled": 0, "fusion_lon": 0.0}, {"rental_uris": {"android": "https://dc.lft.to/lastmile_qr_scan", "ios": "https://dc.lft.to/lastmile_qr_scan"}, "lon": -77.0437845, "name": "202eab61976ec23cd2b69cc350869d6b", "lat": 38.892199, "is_reserved": 0, "fusion_lat": 0.0, "bike_id": "202eab61976ec23cd2b69cc350869d6b", "type": "electric_scooter", "is_disabled": 0, "fusion_lon": 0.0}, {"rental_uris": {"android": "https://dc.lft.to/lastmile_qr_scan", "ios": "https://dc.lft.to/lastmile_qr_scan"}, "lon": -77.05127033333333, "name": "3dbdf7827df2b801c5e780728977a3c1", "lat": 38.92524266666667, "is_reserved": 0, "fusion_lat": 0.0, "bike_id": "3dbdf7827df2b801c5e780728977a3c1", "type": "electric_scooter", "is_disabled": 0, "fusion_lon": 0.0}, {"rental_uris": {"android": "https://dc.lft.to/lastmile_qr_scan", "ios": "https://dc.lft.to/lastmile_qr_scan"}, "lon": -77.0259445, "name": "1bde993a55756778a9b2c3babb2ce3db", "lat": 38.9430825, "is_reserved": 0, "fusion_lat": 0.0, "bike_id": "1bde993a55756778a9b2c3babb2ce3db", "type": "electric_scooter", "is_disabled": 0, "fusion_lon": 0.0}, {"rental_uris": {"android": "https://dc.lft.to/lastmile_qr_scan", "ios": "https://dc.lft.to/lastmile_qr_scan"}, "lon": -77.0469955, "name": "ab352adf4b8cdf0b6a78bccfe5979e7f", "lat": 38.8983475, "is_reserved": 0, "fusion_lat": 0.0, "bike_id": "ab352adf4b8cdf0b6a78bccfe5979e7f", "type": "electric_scooter", "is_disabled": 0, "fusion_lon": 0.0}, {"rental_uris": {"android": "https://dc.lft.to/lastmile_qr_scan", "ios": "https://dc.lft.to/lastmile_qr_scan"}, "lon": -76.94637216666666, "name": "baebe8ea9373081e0c442d3c614ce487", "lat": 38.89865366666667, "is_reserved": 0, "fusion_lat": 0.0, "bike_id": "baebe8ea9373081e0c442d3c614ce487", "type": "electric_scooter", "is_disabled": 0, "fusion_lon": 0.0}, {"rental_uris": {"android": "https://dc.lft.to/lastmile_qr_scan", "ios": "https://dc.lft.to/lastmile_qr_scan"}, "lon": -76.92897866666667, "name": "88946f92ec546dc44071bb7e855ddb81", "lat": 38.9018615, "is_reserved": 0, "fusion_lat": 0.0, "bike_id": "88946f92ec546dc44071bb7e855ddb81", "type": "electric_scooter", "is_disabled": 0, "fusion_lon": 0.0}, {"rental_uris": {"android": "https://dc.lft.to/lastmile_qr_scan", "ios": "https://dc.lft.to/lastmile_qr_scan"}, "lon": -77.02231283333333, "name": "df14c6fe1bc29dc34a04f0e36fa26868", "lat": 38.956926333333335, "is_reserved": 0, "fusion_lat": 0.0, "bike_id": "df14c6fe1bc29dc34a04f0e36fa26868", "type": "electric_bike", "is_disabled": 0, "fusion_lon": 0.0}, {"rental_uris": {"android": "https://dc.lft.to/lastmile_qr_scan", "ios": "https://dc.lft.to/lastmile_qr_scan"}, "lon": -77.0034635, "name": "1a8cf62d601fb380273963da9e694427", "lat": 38.887034, "is_reserved": 0, "fusion_lat": 0.0, "bike_id": "1a8cf62d601fb380273963da9e694427", "type": "electric_scooter", "is_disabled": 0, "fusion_lon": 0.0}, {"rental_uris": {"android": "https://dc.lft.to/lastmile_qr_scan", "ios": "https://dc.lft.to/lastmile_qr_scan"}, "lon": -77.041189, "name": "b03f98f59808381a0b8fed060e0669b9", "lat": 38.921800833333336, "is_reserved": 0, "fusion_lat": 0.0, "bike_id": "b03f98f59808381a0b8fed060e0669b9", "type": "electric_scooter", "is_disabled": 0, "fusion_lon": 0.0}, {"rental_uris": {"android": "https://dc.lft.to/lastmile_qr_scan", "ios": "https://dc.lft.to/lastmile_qr_scan"}, "lon": -77.02381416666667, "name": "5ddb10b825124ebda4f491aa794836a1", "lat": 38.892290833333334, "is_reserved": 0, "fusion_lat": 0.0, "bike_id": "5ddb10b825124ebda4f491aa794836a1", "type": "electric_scooter", "is_disabled": 0, "fusion_lon": 0.0}, {"rental_uris": {"android": "https://dc.lft.to/lastmile_qr_scan", "ios": "https://dc.lft.to/lastmile_qr_scan"}, "lon": -77.04267733333333, "name": "e875ac5f9e3a5f428f23b832e818b8c9", "lat": 38.83098666666667, "is_reserved": 0, "fusion_lat": 0.0, "bike_id": "e875ac5f9e3a5f428f23b832e818b8c9", "type": "electric_bike", "is_disabled": 0, "fusion_lon": 0.0}, {"rental_uris": {"android": "https://dc.lft.to/lastmile_qr_scan", "ios": "https://dc.lft.to/lastmile_qr_scan"}, "lon": -77.00888016666667, "name": "8ffe975469e65f338b92df13adb022e5", "lat": 38.914738166666666, "is_reserved": 0, "fusion_lat": 0.0, "bike_id": "8ffe975469e65f338b92df13adb022e5", "type": "electric_scooter", "is_disabled": 0, "fusion_lon": 0.0}, {"rental_uris": {"android": "https://dc.lft.to/lastmile_qr_scan", "ios": "https://dc.lft.to/lastmile_qr_scan"}, "lon": -77.02379683333334, "name": "345efa927635ba5266baffee3ae286a4", "lat": 38.891994, "is_reserved": 0, "fusion_lat": 0.0, "bike_id": "345efa927635ba5266baffee3ae286a4", "type": "electric_scooter", "is_disabled": 0, "fusion_lon": 0.0}, {"rental_uris": {"android": "https://dc.lft.to/lastmile_qr_scan", "ios": "https://dc.lft.to/lastmile_qr_scan"}, "lon": -77.043194, "name": "2e954f673aa3408701efc96e69bbe2c4", "lat": 38.91409383333333, "is_reserved": 0, "fusion_lat": 0.0, "bike_id": "2e954f673aa3408701efc96e69bbe2c4", "type": "electric_scooter", "is_disabled": 0, "fusion_lon": 0.0}, {"rental_uris": {"android": "https://dc.lft.to/lastmile_qr_scan", "ios": "https://dc.lft.to/lastmile_qr_scan"}, "lon": -77.02114466666667, "name": "0020a99c5229b569566ee84f26a75c48", "lat": 38.9275615, "is_reserved": 0, "fusion_lat": 0.0, "bike_id": "0020a99c5229b569566ee84f26a75c48", "type": "electric_scooter", "is_disabled": 0, "fusion_lon": 0.0}, {"rental_uris": {"android": "https://dc.lft.to/lastmile_qr_scan", "ios": "https://dc.lft.to/lastmile_qr_scan"}, "lon": -77.02390033333333, "name": "11f2a536a96922dd3833eea112a5d952", "lat": 38.906991833333336, "is_reserved": 0, "fusion_lat": 0.0, "bike_id": "11f2a536a96922dd3833eea112a5d952", "type": "electric_scooter", "is_disabled": 0, "fusion_lon": 0.0}, {"rental_uris": {"android": "https://dc.lft.to/lastmile_qr_scan", "ios": "https://dc.lft.to/lastmile_qr_scan"}, "lon": -77.038572, "name": "160a7ac454f63707c40c2fe0ccff0f07", "lat": 38.9014015, "is_reserved": 0, "fusion_lat": 0.0, "bike_id": "160a7ac454f63707c40c2fe0ccff0f07", "type": "electric_scooter", "is_disabled": 0, "fusion_lon": 0.0}, {"rental_uris": {"android": "https://dc.lft.to/lastmile_qr_scan", "ios": "https://dc.lft.to/lastmile_qr_scan"}, "lon": -76.9525365, "name": "d177b63c5ee34dee4099ed283d7bc104", "lat": 38.90693983333333, "is_reserved": 0, "fusion_lat": 0.0, "bike_id": "d177b63c5ee34dee4099ed283d7bc104", "type": "electric_bike", "is_disabled": 0, "fusion_lon": 0.0}, {"rental_uris": {"android": "https://dc.lft.to/lastmile_qr_scan", "ios": "https://dc.lft.to/lastmile_qr_scan"}, "lon": -76.93129333333333, "name": "7271ac9f8b0e5079beed87eeaf430f15", "lat": 38.8982825, "is_reserved": 0, "fusion_lat": 0.0, "bike_id": "7271ac9f8b0e5079beed87eeaf430f15", "type": "electric_scooter", "is_disabled": 0, "fusion_lon": 0.0}, {"rental_uris": {"android": "https://dc.lft.to/lastmile_qr_scan", "ios": "https://dc.lft.to/lastmile_qr_scan"}, "lon": -77.07703616666667, "name": "f082ab773a7b7dfa3f7ea0b4c9086a49", "lat": 38.943845333333336, "is_reserved": 0, "fusion_lat": 0.0, "bike_id": "f082ab773a7b7dfa3f7ea0b4c9086a49", "type": "electric_scooter", "is_disabled": 0, "fusion_lon": 0.0}, {"rental_uris": {"android": "https://dc.lft.to/lastmile_qr_scan", "ios": "https://dc.lft.to/lastmile_qr_scan"}, "lon": -77.05266933333333, "name": "6787f76b7db9ab59e983a67604bec6f8", "lat": 38.92359166666667, "is_reserved": 0, "fusion_lat": 0.0, "bike_id": "6787f76b7db9ab59e983a67604bec6f8", "type": "electric_scooter", "is_disabled": 0, "fusion_lon": 0.0}, {"rental_uris": {"android": "https://dc.lft.to/lastmile_qr_scan", "ios": "https://dc.lft.to/lastmile_qr_scan"}, "lon": -77.20138066666667, "name": "b85a7a6d2c79dfbf508440f33caef9bc", "lat": 38.92221966666666, "is_reserved": 0, "fusion_lat": 0.0, "bike_id": "b85a7a6d2c79dfbf508440f33caef9bc", "type": "electric_bike", "is_disabled": 0, "fusion_lon": 0.0}, {"rental_uris": {"android": "https://dc.lft.to/lastmile_qr_scan", "ios": "https://dc.lft.to/lastmile_qr_scan"}, "lon": -77.025965, "name": "1aa3af614e0e398784c56dc0f548cf0a", "lat": 38.94309916666667, "is_reserved": 0, "fusion_lat": 0.0, "bike_id": "1aa3af614e0e398784c56dc0f548cf0a", "type": "electric_scooter", "is_disabled": 0, "fusion_lon": 0.0}, {"rental_uris": {"android": "https://dc.lft.to/lastmile_qr_scan", "ios": "https://dc.lft.to/lastmile_qr_scan"}, "lon": -77.01408883333333, "name": "efd1b3e53710385fb3cf4a278c32ddc6", "lat": 38.9286385, "is_reserved": 0, "fusion_lat": 0.0, "bike_id": "efd1b3e53710385fb3cf4a278c32ddc6", "type": "electric_scooter", "is_disabled": 0, "fusion_lon": 0.0}, {"rental_uris": {"android": "https://dc.lft.to/lastmile_qr_scan", "ios": "https://dc.lft.to/lastmile_qr_scan"}, "lon": -77.03470216666666, "name": "ea395eb4bb1089be13d142b3179162c1", "lat": 38.907945833333336, "is_reserved": 0, "fusion_lat": 0.0, "bike_id": "ea395eb4bb1089be13d142b3179162c1", "type": "electric_scooter", "is_disabled": 0, "fusion_lon": 0.0}, {"rental_uris": {"android": "https://dc.lft.to/lastmile_qr_scan", "ios": "https://dc.lft.to/lastmile_qr_scan"}, "lon": -77.05422866666666, "name": "8b5cba093623d4c75f2bc05381666cc3", "lat": 38.928444999999996, "is_reserved": 0, "fusion_lat": 0.0, "bike_id": "8b5cba093623d4c75f2bc05381666cc3", "type": "electric_scooter", "is_disabled": 0, "fusion_lon": 0.0}, {"rental_uris": {"android": "https://dc.lft.to/lastmile_qr_scan", "ios": "https://dc.lft.to/lastmile_qr_scan"}, "lon": -77.03803416666666, "name": "9a9635c2dec6141d5328edeced533fa2", "lat": 38.932305166666666, "is_reserved": 0, "fusion_lat": 0.0, "bike_id": "9a9635c2dec6141d5328edeced533fa2", "type": "electric_scooter", "is_disabled": 0, "fusion_lon": 0.0}, {"rental_uris": {"android": "https://dc.lft.to/lastmile_qr_scan", "ios": "https://dc.lft.to/lastmile_qr_scan"}, "lon": -77.00674416666666, "name": "b80b897212f18810090bd5eff807d0ef", "lat": 38.94514233333334, "is_reserved": 0, "fusion_lat": 0.0, "bike_id": "b80b897212f18810090bd5eff807d0ef", "type": "electric_bike", "is_disabled": 0, "fusion_lon": 0.0}, {"rental_uris": {"android": "https://dc.lft.to/lastmile_qr_scan", "ios": "https://dc.lft.to/lastmile_qr_scan"}, "lon": -77.01208633333333, "name": "6c3d2828aeaaffd3fcfe7b5df6eb5d58", "lat": 38.89332483333333, "is_reserved": 0, "fusion_lat": 0.0, "bike_id": "6c3d2828aeaaffd3fcfe7b5df6eb5d58", "type": "electric_scooter", "is_disabled": 0, "fusion_lon": 0.0}, {"rental_uris": {"android": "https://dc.lft.to/lastmile_qr_scan", "ios": "https://dc.lft.to/lastmile_qr_scan"}, "lon": -77.00571233333334, "name": "18de0105f92929adf45651695eef03ba", "lat": 38.90653316666667, "is_reserved": 0, "fusion_lat": 0.0, "bike_id": "18de0105f92929adf45651695eef03ba", "type": "electric_scooter", "is_disabled": 0, "fusion_lon": 0.0}, {"rental_uris": {"android": "https://dc.lft.to/lastmile_qr_scan", "ios": "https://dc.lft.to/lastmile_qr_scan"}, "lon": -77.04860916666667, "name": "4f9d7a1ce947f8d5f797239b363ed905", "lat": 38.91327, "is_reserved": 0, "fusion_lat": 0.0, "bike_id": "4f9d7a1ce947f8d5f797239b363ed905", "type": "electric_scooter", "is_disabled": 0, "fusion_lon": 0.0}, {"rental_uris": {"android": "https://dc.lft.to/lastmile_qr_scan", "ios": "https://dc.lft.to/lastmile_qr_scan"}, "lon": -77.07235116666666, "name": "9e264a4ccf48b13ac93dc1a8c969a840", "lat": 38.93188133333334, "is_reserved": 0, "fusion_lat": 0.0, "bike_id": "9e264a4ccf48b13ac93dc1a8c969a840", "type": "electric_scooter", "is_disabled": 0, "fusion_lon": 0.0}, {"rental_uris": {"android": "https://dc.lft.to/lastmile_qr_scan", "ios": "https://dc.lft.to/lastmile_qr_scan"}, "lon": -77.02121133333333, "name": "39f56c26b703fe939babb2d36f0ca63c", "lat": 38.9227005, "is_reserved": 0, "fusion_lat": 0.0, "bike_id": "39f56c26b703fe939babb2d36f0ca63c", "type": "electric_scooter", "is_disabled": 0, "fusion_lon": 0.0}, {"rental_uris": {"android": "https://dc.lft.to/lastmile_qr_scan", "ios": "https://dc.lft.to/lastmile_qr_scan"}, "lon": -77.02796316666667, "name": "11fc183c14255d27b56073ecacd08990", "lat": 38.92975166666667, "is_reserved": 0, "fusion_lat": 0.0, "bike_id": "11fc183c14255d27b56073ecacd08990", "type": "electric_scooter", "is_disabled": 0, "fusion_lon": 0.0}, {"rental_uris": {"android": "https://dc.lft.to/lastmile_qr_scan", "ios": "https://dc.lft.to/lastmile_qr_scan"}, "lon": -77.03541266666667, "name": "6f265a73fdd8fe48d908da8975639346", "lat": 38.923396, "is_reserved": 0, "fusion_lat": 0.0, "bike_id": "6f265a73fdd8fe48d908da8975639346", "type": "electric_scooter", "is_disabled": 0, "fusion_lon": 0.0}, {"rental_uris": {"android": "https://dc.lft.to/lastmile_qr_scan", "ios": "https://dc.lft.to/lastmile_qr_scan"}, "lon": -77.06405516666666, "name": "f5b0ba8983f992f9c0d81808dc65582b", "lat": 38.94414166666667, "is_reserved": 0, "fusion_lat": 0.0, "bike_id": "f5b0ba8983f992f9c0d81808dc65582b", "type": "electric_scooter", "is_disabled": 0, "fusion_lon": 0.0}, {"rental_uris": {"android": "https://dc.lft.to/lastmile_qr_scan", "ios": "https://dc.lft.to/lastmile_qr_scan"}, "lon": -77.03844283333333, "name": "8d8bb5c4f6d86c0da385420d8dbfcc75", "lat": 38.902824333333335, "is_reserved": 0, "fusion_lat": 0.0, "bike_id": "8d8bb5c4f6d86c0da385420d8dbfcc75", "type": "electric_scooter", "is_disabled": 0, "fusion_lon": 0.0}, {"rental_uris": {"android": "https://dc.lft.to/lastmile_qr_scan", "ios": "https://dc.lft.to/lastmile_qr_scan"}, "lon": -77.0383645, "name": "c86fe23709965a451a518ab12dba84ad", "lat": 38.9419105, "is_reserved": 0, "fusion_lat": 0.0, "bike_id": "c86fe23709965a451a518ab12dba84ad", "type": "electric_scooter", "is_disabled": 0, "fusion_lon": 0.0}, {"rental_uris": {"android": "https://dc.lft.to/lastmile_qr_scan", "ios": "https://dc.lft.to/lastmile_qr_scan"}, "lon": -77.047358, "name": "91ac77e9717a3b71c9afe7cd63b7b06f", "lat": 38.908731333333336, "is_reserved": 0, "fusion_lat": 0.0, "bike_id": "91ac77e9717a3b71c9afe7cd63b7b06f", "type": "electric_scooter", "is_disabled": 0, "fusion_lon": 0.0}, {"rental_uris": {"android": "https://dc.lft.to/lastmile_qr_scan", "ios": "https://dc.lft.to/lastmile_qr_scan"}, "lon": -77.02766316666667, "name": "a8ef7742d5f02cb807a143fb260103b8", "lat": 38.902543, "is_reserved": 0, "fusion_lat": 0.0, "bike_id": "a8ef7742d5f02cb807a143fb260103b8", "type": "electric_scooter", "is_disabled": 0, "fusion_lon": 0.0}, {"rental_uris": {"android": "https://dc.lft.to/lastmile_qr_scan", "ios": "https://dc.lft.to/lastmile_qr_scan"}, "lon": -77.00816666666667, "name": "0d30d32e6e83f35cd78b147778ca5c7d", "lat": 38.90251116666666, "is_reserved": 0, "fusion_lat": 0.0, "bike_id": "0d30d32e6e83f35cd78b147778ca5c7d", "type": "electric_scooter", "is_disabled": 0, "fusion_lon": 0.0}, {"rental_uris": {"android": "https://dc.lft.to/lastmile_qr_scan", "ios": "https://dc.lft.to/lastmile_qr_scan"}, "lon": -77.02847566666667, "name": "5be66658f8cba1804098c31457306bab", "lat": 38.893647666666666, "is_reserved": 0, "fusion_lat": 0.0, "bike_id": "5be66658f8cba1804098c31457306bab", "type": "electric_scooter", "is_disabled": 0, "fusion_lon": 0.0}, {"rental_uris": {"android": "https://dc.lft.to/lastmile_qr_scan", "ios": "https://dc.lft.to/lastmile_qr_scan"}, "lon": -77.04706283333333, "name": "f4edc9611f651d4abea54f1c55d3d333", "lat": 38.92172466666667, "is_reserved": 0, "fusion_lat": 0.0, "bike_id": "f4edc9611f651d4abea54f1c55d3d333", "type": "electric_scooter", "is_disabled": 0, "fusion_lon": 0.0}, {"rental_uris": {"android": "https://dc.lft.to/lastmile_qr_scan", "ios": "https://dc.lft.to/lastmile_qr_scan"}, "lon": -77.03650133333333, "name": "36b572be8a9ddf7f2f0c0d589d43e2aa", "lat": 38.922920500000004, "is_reserved": 0, "fusion_lat": 0.0, "bike_id": "36b572be8a9ddf7f2f0c0d589d43e2aa", "type": "electric_scooter", "is_disabled": 0, "fusion_lon": 0.0}, {"rental_uris": {"android": "https://dc.lft.to/lastmile_qr_scan", "ios": "https://dc.lft.to/lastmile_qr_scan"}, "lon": -77.044979, "name": "0592727902a587947c08a4ca87eb00e5", "lat": 38.91582733333333, "is_reserved": 0, "fusion_lat": 0.0, "bike_id": "0592727902a587947c08a4ca87eb00e5", "type": "electric_scooter", "is_disabled": 0, "fusion_lon": 0.0}, {"rental_uris": {"android": "https://dc.lft.to/lastmile_qr_scan", "ios": "https://dc.lft.to/lastmile_qr_scan"}, "lon": -76.97422983333334, "name": "76c90da71415204a276fc9da60056058", "lat": 38.93240083333333, "is_reserved": 0, "fusion_lat": 0.0, "bike_id": "76c90da71415204a276fc9da60056058", "type": "electric_bike", "is_disabled": 0, "fusion_lon": 0.0}, {"rental_uris": {"android": "https://dc.lft.to/lastmile_qr_scan", "ios": "https://dc.lft.to/lastmile_qr_scan"}, "lon": -77.02206583333333, "name": "3ba37ab58225a59c9621df8640149f24", "lat": 38.905683, "is_reserved": 0, "fusion_lat": 0.0, "bike_id": "3ba37ab58225a59c9621df8640149f24", "type": "electric_scooter", "is_disabled": 0, "fusion_lon": 0.0}, {"rental_uris": {"android": "https://dc.lft.to/lastmile_qr_scan", "ios": "https://dc.lft.to/lastmile_qr_scan"}, "lon": -77.02755716666667, "name": "48fb0377e86175b23459b1e43b4ce2aa", "lat": 38.89979316666667, "is_reserved": 0, "fusion_lat": 0.0, "bike_id": "48fb0377e86175b23459b1e43b4ce2aa", "type": "electric_scooter", "is_disabled": 0, "fusion_lon": 0.0}, {"rental_uris": {"android": "https://dc.lft.to/lastmile_qr_scan", "ios": "https://dc.lft.to/lastmile_qr_scan"}, "lon": -77.02533433333333, "name": "4b66ec27a3ae2854c5a79fa9175ac1c5", "lat": 38.9205545, "is_reserved": 0, "fusion_lat": 0.0, "bike_id": "4b66ec27a3ae2854c5a79fa9175ac1c5", "type": "electric_scooter", "is_disabled": 0, "fusion_lon": 0.0}, {"rental_uris": {"android": "https://dc.lft.to/lastmile_qr_scan", "ios": "https://dc.lft.to/lastmile_qr_scan"}, "lon": -77.02209366666666, "name": "2d1ff870143bd37796b23c90df92569e", "lat": 38.91033516666667, "is_reserved": 0, "fusion_lat": 0.0, "bike_id": "2d1ff870143bd37796b23c90df92569e", "type": "electric_scooter", "is_disabled": 0, "fusion_lon": 0.0}, {"rental_uris": {"android": "https://dc.lft.to/lastmile_qr_scan", "ios": "https://dc.lft.to/lastmile_qr_scan"}, "lon": -77.00683783333334, "name": "084c2e56bfc33945bb415d48af3435fd", "lat": 38.87173033333333, "is_reserved": 0, "fusion_lat": 0.0, "bike_id": "084c2e56bfc33945bb415d48af3435fd", "type": "electric_scooter", "is_disabled": 0, "fusion_lon": 0.0}, {"rental_uris": {"android": "https://dc.lft.to/lastmile_qr_scan", "ios": "https://dc.lft.to/lastmile_qr_scan"}, "lon": -76.9180405, "name": "a7a19970de857f77a5fe8c17ef0c5a3f", "lat": 39.000047, "is_reserved": 0, "fusion_lat": 0.0, "bike_id": "a7a19970de857f77a5fe8c17ef0c5a3f", "type": "electric_bike", "is_disabled": 0, "fusion_lon": 0.0}, {"rental_uris": {"android": "https://dc.lft.to/lastmile_qr_scan", "ios": "https://dc.lft.to/lastmile_qr_scan"}, "lon": -77.00706816666667, "name": "ebfe4113b720430d2a8d038845960ed9", "lat": 38.90550066666667, "is_reserved": 0, "fusion_lat": 0.0, "bike_id": "ebfe4113b720430d2a8d038845960ed9", "type": "electric_scooter", "is_disabled": 0, "fusion_lon": 0.0}, {"rental_uris": {"android": "https://dc.lft.to/lastmile_qr_scan", "ios": "https://dc.lft.to/lastmile_qr_scan"}, "lon": -77.03960966666666, "name": "1d226f2cad323ded6c1432f983422ceb", "lat": 38.902534333333335, "is_reserved": 0, "fusion_lat": 0.0, "bike_id": "1d226f2cad323ded6c1432f983422ceb", "type": "electric_scooter", "is_disabled": 0, "fusion_lon": 0.0}, {"rental_uris": {"android": "https://dc.lft.to/lastmile_qr_scan", "ios": "https://dc.lft.to/lastmile_qr_scan"}, "lon": -77.01789766666667, "name": "b8e796c04309e27e96792c0cd00b3c6c", "lat": 38.92033283333333, "is_reserved": 0, "fusion_lat": 0.0, "bike_id": "b8e796c04309e27e96792c0cd00b3c6c", "type": "electric_scooter", "is_disabled": 0, "fusion_lon": 0.0}, {"rental_uris": {"android": "https://dc.lft.to/lastmile_qr_scan", "ios": "https://dc.lft.to/lastmile_qr_scan"}, "lon": -77.03407333333334, "name": "f2ca25d443c918d0c3c801c415e334da", "lat": 38.922694166666666, "is_reserved": 0, "fusion_lat": 0.0, "bike_id": "f2ca25d443c918d0c3c801c415e334da", "type": "electric_scooter", "is_disabled": 0, "fusion_lon": 0.0}, {"rental_uris": {"android": "https://dc.lft.to/lastmile_qr_scan", "ios": "https://dc.lft.to/lastmile_qr_scan"}, "lon": -77.02372383333334, "name": "a3a8337af2c4d9327962789e30b683d2", "lat": 38.907366, "is_reserved": 0, "fusion_lat": 0.0, "bike_id": "a3a8337af2c4d9327962789e30b683d2", "type": "electric_scooter", "is_disabled": 0, "fusion_lon": 0.0}, {"rental_uris": {"android": "https://dc.lft.to/lastmile_qr_scan", "ios": "https://dc.lft.to/lastmile_qr_scan"}, "lon": -77.0396395, "name": "3c96a0da890dcbf987766ce8efc0d37e", "lat": 38.90259266666666, "is_reserved": 0, "fusion_lat": 0.0, "bike_id": "3c96a0da890dcbf987766ce8efc0d37e", "type": "electric_scooter", "is_disabled": 0, "fusion_lon": 0.0}, {"rental_uris": {"android": "https://dc.lft.to/lastmile_qr_scan", "ios": "https://dc.lft.to/lastmile_qr_scan"}, "lon": -77.04228416666666, "name": "6b71d8116aa06584f0f0a3325aa754f0", "lat": 38.911082, "is_reserved": 0, "fusion_lat": 0.0, "bike_id": "6b71d8116aa06584f0f0a3325aa754f0", "type": "electric_scooter", "is_disabled": 0, "fusion_lon": 0.0}, {"rental_uris": {"android": "https://dc.lft.to/lastmile_qr_scan", "ios": "https://dc.lft.to/lastmile_qr_scan"}, "lon": -77.02507683333333, "name": "1a9757989e6a223408628796d9fae648", "lat": 38.905635833333335, "is_reserved": 0, "fusion_lat": 0.0, "bike_id": "1a9757989e6a223408628796d9fae648", "type": "electric_scooter", "is_disabled": 0, "fusion_lon": 0.0}, {"rental_uris": {"android": "https://dc.lft.to/lastmile_qr_scan", "ios": "https://dc.lft.to/lastmile_qr_scan"}, "lon": -77.0387285, "name": "fff5c6493f7849ca957d77164e821a87", "lat": 38.93266583333333, "is_reserved": 0, "fusion_lat": 0.0, "bike_id": "fff5c6493f7849ca957d77164e821a87", "type": "electric_scooter", "is_disabled": 0, "fusion_lon": 0.0}, {"rental_uris": {"android": "https://dc.lft.to/lastmile_qr_scan", "ios": "https://dc.lft.to/lastmile_qr_scan"}, "lon": -77.02043916666666, "name": "41d63c9c2f23a2a339e68bc0924f8359", "lat": 38.9154925, "is_reserved": 0, "fusion_lat": 0.0, "bike_id": "41d63c9c2f23a2a339e68bc0924f8359", "type": "electric_scooter", "is_disabled": 0, "fusion_lon": 0.0}, {"rental_uris": {"android": "https://dc.lft.to/lastmile_qr_scan", "ios": "https://dc.lft.to/lastmile_qr_scan"}, "lon": -76.93973966666667, "name": "f0998e617a23444b3d38c5126028e905", "lat": 38.89342166666667, "is_reserved": 0, "fusion_lat": 0.0, "bike_id": "f0998e617a23444b3d38c5126028e905", "type": "electric_scooter", "is_disabled": 0, "fusion_lon": 0.0}, {"rental_uris": {"android": "https://dc.lft.to/lastmile_qr_scan", "ios": "https://dc.lft.to/lastmile_qr_scan"}, "lon": -77.06403766666666, "name": "36d66b349edef8c517541c898a6db736", "lat": 38.94444816666667, "is_reserved": 0, "fusion_lat": 0.0, "bike_id": "36d66b349edef8c517541c898a6db736", "type": "electric_scooter", "is_disabled": 0, "fusion_lon": 0.0}, {"rental_uris": {"android": "https://dc.lft.to/lastmile_qr_scan", "ios": "https://dc.lft.to/lastmile_qr_scan"}, "lon": -77.02061016666667, "name": "48c39bf47e3aa3c1281a873ba5f444bf", "lat": 38.894775, "is_reserved": 0, "fusion_lat": 0.0, "bike_id": "48c39bf47e3aa3c1281a873ba5f444bf", "type": "electric_scooter", "is_disabled": 0, "fusion_lon": 0.0}, {"rental_uris": {"android": "https://dc.lft.to/lastmile_qr_scan", "ios": "https://dc.lft.to/lastmile_qr_scan"}, "lon": -77.01506766666667, "name": "a9d265aa21f1cfd613b251fe5ba85ae4", "lat": 38.913237333333335, "is_reserved": 0, "fusion_lat": 0.0, "bike_id": "a9d265aa21f1cfd613b251fe5ba85ae4", "type": "electric_scooter", "is_disabled": 0, "fusion_lon": 0.0}, {"rental_uris": {"android": "https://dc.lft.to/lastmile_qr_scan", "ios": "https://dc.lft.to/lastmile_qr_scan"}, "lon": -77.00694183333333, "name": "0d2434ee626be099806f8a43096ef32e", "lat": 38.91733516666667, "is_reserved": 0, "fusion_lat": 0.0, "bike_id": "0d2434ee626be099806f8a43096ef32e", "type": "electric_scooter", "is_disabled": 0, "fusion_lon": 0.0}, {"rental_uris": {"android": "https://dc.lft.to/lastmile_qr_scan", "ios": "https://dc.lft.to/lastmile_qr_scan"}, "lon": -77.01676233333333, "name": "0c521470e45b9ee729c0a415363725f5", "lat": 38.901130333333334, "is_reserved": 0, "fusion_lat": 0.0, "bike_id": "0c521470e45b9ee729c0a415363725f5", "type": "electric_scooter", "is_disabled": 0, "fusion_lon": 0.0}, {"rental_uris": {"android": "https://dc.lft.to/lastmile_qr_scan", "ios": "https://dc.lft.to/lastmile_qr_scan"}, "lon": -77.0210445, "name": "cd65514c91a9efeb8cb8cc0bbe9cf683", "lat": 38.921204333333336, "is_reserved": 0, "fusion_lat": 0.0, "bike_id": "cd65514c91a9efeb8cb8cc0bbe9cf683", "type": "electric_scooter", "is_disabled": 0, "fusion_lon": 0.0}, {"rental_uris": {"android": "https://dc.lft.to/lastmile_qr_scan", "ios": "https://dc.lft.to/lastmile_qr_scan"}, "lon": -77.03446033333333, "name": "2b9f132f76812cc27e89ec3552275102", "lat": 38.90946066666667, "is_reserved": 0, "fusion_lat": 0.0, "bike_id": "2b9f132f76812cc27e89ec3552275102", "type": "electric_scooter", "is_disabled": 0, "fusion_lon": 0.0}, {"rental_uris": {"android": "https://dc.lft.to/lastmile_qr_scan", "ios": "https://dc.lft.to/lastmile_qr_scan"}, "lon": -77.05757716666666, "name": "02063a563850346e19852c6ada0598c0", "lat": 38.92422783333333, "is_reserved": 0, "fusion_lat": 0.0, "bike_id": "02063a563850346e19852c6ada0598c0", "type": "electric_scooter", "is_disabled": 0, "fusion_lon": 0.0}, {"rental_uris": {"android": "https://dc.lft.to/lastmile_qr_scan", "ios": "https://dc.lft.to/lastmile_qr_scan"}, "lon": -77.05028716666666, "name": "3c1c60bcbf59215d799a6e5cf746bbfe", "lat": 38.9236685, "is_reserved": 0, "fusion_lat": 0.0, "bike_id": "3c1c60bcbf59215d799a6e5cf746bbfe", "type": "electric_scooter", "is_disabled": 0, "fusion_lon": 0.0}, {"rental_uris": {"android": "https://dc.lft.to/lastmile_qr_scan", "ios": "https://dc.lft.to/lastmile_qr_scan"}, "lon": -77.02205966666666, "name": "dd2c6d70ebe15a39d3b08deed0c137be", "lat": 38.905372166666666, "is_reserved": 0, "fusion_lat": 0.0, "bike_id": "dd2c6d70ebe15a39d3b08deed0c137be", "type": "electric_scooter", "is_disabled": 0, "fusion_lon": 0.0}, {"rental_uris": {"android": "https://dc.lft.to/lastmile_qr_scan", "ios": "https://dc.lft.to/lastmile_qr_scan"}, "lon": -77.018538, "name": "cac418dd819dbb283b27fca62534833f", "lat": 38.973670166666665, "is_reserved": 0, "fusion_lat": 0.0, "bike_id": "cac418dd819dbb283b27fca62534833f", "type": "electric_scooter", "is_disabled": 0, "fusion_lon": 0.0}, {"rental_uris": {"android": "https://dc.lft.to/lastmile_qr_scan", "ios": "https://dc.lft.to/lastmile_qr_scan"}, "lon": -77.026157, "name": "cb63c6f8c0891efb20ef3e9796fa952f", "lat": 38.89658033333333, "is_reserved": 0, "fusion_lat": 0.0, "bike_id": "cb63c6f8c0891efb20ef3e9796fa952f", "type": "electric_scooter", "is_disabled": 0, "fusion_lon": 0.0}, {"rental_uris": {"android": "https://dc.lft.to/lastmile_qr_scan", "ios": "https://dc.lft.to/lastmile_qr_scan"}, "lon": -77.027112, "name": "5a0cf7216079f2bfea61ecf1930d5415", "lat": 38.90670683333333, "is_reserved": 0, "fusion_lat": 0.0, "bike_id": "5a0cf7216079f2bfea61ecf1930d5415", "type": "electric_scooter", "is_disabled": 0, "fusion_lon": 0.0}, {"rental_uris": {"android": "https://dc.lft.to/lastmile_qr_scan", "ios": "https://dc.lft.to/lastmile_qr_scan"}, "lon": -77.036356, "name": "12b709a938a921273d53aad53930da73", "lat": 38.927403, "is_reserved": 0, "fusion_lat": 0.0, "bike_id": "12b709a938a921273d53aad53930da73", "type": "electric_scooter", "is_disabled": 0, "fusion_lon": 0.0}, {"rental_uris": {"android": "https://dc.lft.to/lastmile_qr_scan", "ios": "https://dc.lft.to/lastmile_qr_scan"}, "lon": -77.01162216666667, "name": "0220be1d0ab94ffb51d6352a6a14552e", "lat": 38.9202495, "is_reserved": 0, "fusion_lat": 0.0, "bike_id": "0220be1d0ab94ffb51d6352a6a14552e", "type": "electric_scooter", "is_disabled": 0, "fusion_lon": 0.0}, {"rental_uris": {"android": "https://dc.lft.to/lastmile_qr_scan", "ios": "https://dc.lft.to/lastmile_qr_scan"}, "lon": -76.98082733333334, "name": "fff75cdccf8c5d1cfe07cfd481bd2da7", "lat": 38.92243916666666, "is_reserved": 0, "fusion_lat": 0.0, "bike_id": "fff75cdccf8c5d1cfe07cfd481bd2da7", "type": "electric_scooter", "is_disabled": 0, "fusion_lon": 0.0}, {"rental_uris": {"android": "https://dc.lft.to/lastmile_qr_scan", "ios": "https://dc.lft.to/lastmile_qr_scan"}, "lon": -77.05137166666667, "name": "baee960b40e70dcfe35f2d1a0979cb8f", "lat": 38.905344166666666, "is_reserved": 0, "fusion_lat": 0.0, "bike_id": "baee960b40e70dcfe35f2d1a0979cb8f", "type": "electric_scooter", "is_disabled": 0, "fusion_lon": 0.0}, {"rental_uris": {"android": "https://dc.lft.to/lastmile_qr_scan", "ios": "https://dc.lft.to/lastmile_qr_scan"}, "lon": -77.04145016666666, "name": "5722a0328e572e1dcf4c38a8f1536681", "lat": 38.916322666666666, "is_reserved": 0, "fusion_lat": 0.0, "bike_id": "5722a0328e572e1dcf4c38a8f1536681", "type": "electric_scooter", "is_disabled": 0, "fusion_lon": 0.0}, {"rental_uris": {"android": "https://dc.lft.to/lastmile_qr_scan", "ios": "https://dc.lft.to/lastmile_qr_scan"}, "lon": -77.00788833333333, "name": "df271dd569c95ac2e8b493f2c087fcf6", "lat": 38.907246666666666, "is_reserved": 0, "fusion_lat": 0.0, "bike_id": "df271dd569c95ac2e8b493f2c087fcf6", "type": "electric_scooter", "is_disabled": 0, "fusion_lon": 0.0}, {"rental_uris": {"android": "https://dc.lft.to/lastmile_qr_scan", "ios": "https://dc.lft.to/lastmile_qr_scan"}, "lon": -77.00197066666667, "name": "180c8697776604afa5798e48ada1e527", "lat": 38.900312166666666, "is_reserved": 0, "fusion_lat": 0.0, "bike_id": "180c8697776604afa5798e48ada1e527", "type": "electric_scooter", "is_disabled": 0, "fusion_lon": 0.0}, {"rental_uris": {"android": "https://dc.lft.to/lastmile_qr_scan", "ios": "https://dc.lft.to/lastmile_qr_scan"}, "lon": -77.0290965, "name": "13ec2091e2ad0ce5809b81fadee91883", "lat": 38.91700133333333, "is_reserved": 0, "fusion_lat": 0.0, "bike_id": "13ec2091e2ad0ce5809b81fadee91883", "type": "electric_scooter", "is_disabled": 0, "fusion_lon": 0.0}, {"rental_uris": {"android": "https://dc.lft.to/lastmile_qr_scan", "ios": "https://dc.lft.to/lastmile_qr_scan"}, "lon": -76.99607016666667, "name": "088438232aeb7be4a8c5789bc08e99b5", "lat": 38.8569255, "is_reserved": 0, "fusion_lat": 0.0, "bike_id": "088438232aeb7be4a8c5789bc08e99b5", "type": "electric_scooter", "is_disabled": 0, "fusion_lon": 0.0}, {"rental_uris": {"android": "https://dc.lft.to/lastmile_qr_scan", "ios": "https://dc.lft.to/lastmile_qr_scan"}, "lon": -76.99497583333333, "name": "103d1591a0795e31b1adf31000c89673", "lat": 38.909871333333335, "is_reserved": 0, "fusion_lat": 0.0, "bike_id": "103d1591a0795e31b1adf31000c89673", "type": "electric_scooter", "is_disabled": 0, "fusion_lon": 0.0}, {"rental_uris": {"android": "https://dc.lft.to/lastmile_qr_scan", "ios": "https://dc.lft.to/lastmile_qr_scan"}, "lon": -77.007525, "name": "190ccf107a3938b488609f46d3034854", "lat": 38.8983345, "is_reserved": 0, "fusion_lat": 0.0, "bike_id": "190ccf107a3938b488609f46d3034854", "type": "electric_scooter", "is_disabled": 0, "fusion_lon": 0.0}, {"rental_uris": {"android": "https://dc.lft.to/lastmile_qr_scan", "ios": "https://dc.lft.to/lastmile_qr_scan"}, "lon": -77.01363816666667, "name": "06af9a8584134516c1b0a23a4c2e4d2c", "lat": 38.92886566666667, "is_reserved": 0, "fusion_lat": 0.0, "bike_id": "06af9a8584134516c1b0a23a4c2e4d2c", "type": "electric_scooter", "is_disabled": 0, "fusion_lon": 0.0}, {"rental_uris": {"android": "https://dc.lft.to/lastmile_qr_scan", "ios": "https://dc.lft.to/lastmile_qr_scan"}, "lon": -77.03477283333334, "name": "5e20ba49beaa621f6c6890684c06da87", "lat": 38.92638316666667, "is_reserved": 0, "fusion_lat": 0.0, "bike_id": "5e20ba49beaa621f6c6890684c06da87", "type": "electric_scooter", "is_disabled": 0, "fusion_lon": 0.0}, {"rental_uris": {"android": "https://dc.lft.to/lastmile_qr_scan", "ios": "https://dc.lft.to/lastmile_qr_scan"}, "lon": -77.00299166666667, "name": "61180a8844f0ea9943859b1881b4e06f", "lat": 38.83379166666667, "is_reserved": 0, "fusion_lat": 0.0, "bike_id": "61180a8844f0ea9943859b1881b4e06f", "type": "electric_bike", "is_disabled": 0, "fusion_lon": 0.0}, {"rental_uris": {"android": "https://dc.lft.to/lastmile_qr_scan", "ios": "https://dc.lft.to/lastmile_qr_scan"}, "lon": -77.05521716666667, "name": "daac9b08ef279766e71f4090c3b72191", "lat": 38.92967483333334, "is_reserved": 0, "fusion_lat": 0.0, "bike_id": "daac9b08ef279766e71f4090c3b72191", "type": "electric_scooter", "is_disabled": 0, "fusion_lon": 0.0}, {"rental_uris": {"android": "https://dc.lft.to/lastmile_qr_scan", "ios": "https://dc.lft.to/lastmile_qr_scan"}, "lon": -77.02954066666666, "name": "008995ae2f55ee83df255dbd3b8f6dcf", "lat": 38.922520166666665, "is_reserved": 0, "fusion_lat": 0.0, "bike_id": "008995ae2f55ee83df255dbd3b8f6dcf", "type": "electric_scooter", "is_disabled": 0, "fusion_lon": 0.0}, {"rental_uris": {"android": "https://dc.lft.to/lastmile_qr_scan", "ios": "https://dc.lft.to/lastmile_qr_scan"}, "lon": -77.0279345, "name": "25a240e0383714c66fedd9f0683fcc6a", "lat": 38.917865666666664, "is_reserved": 0, "fusion_lat": 0.0, "bike_id": "25a240e0383714c66fedd9f0683fcc6a", "type": "electric_scooter", "is_disabled": 0, "fusion_lon": 0.0}, {"rental_uris": {"android": "https://dc.lft.to/lastmile_qr_scan", "ios": "https://dc.lft.to/lastmile_qr_scan"}, "lon": -77.03333516666666, "name": "a57372591d7b88d72430d1c725f789f5", "lat": 38.913137166666665, "is_reserved": 0, "fusion_lat": 0.0, "bike_id": "a57372591d7b88d72430d1c725f789f5", "type": "electric_scooter", "is_disabled": 0, "fusion_lon": 0.0}, {"rental_uris": {"android": "https://dc.lft.to/lastmile_qr_scan", "ios": "https://dc.lft.to/lastmile_qr_scan"}, "lon": -77.07172683333333, "name": "33aa43df8e8dc88713fcdf3eb64be83a", "lat": 38.907771833333335, "is_reserved": 0, "fusion_lat": 0.0, "bike_id": "33aa43df8e8dc88713fcdf3eb64be83a", "type": "electric_scooter", "is_disabled": 0, "fusion_lon": 0.0}, {"rental_uris": {"android": "https://dc.lft.to/lastmile_qr_scan", "ios": "https://dc.lft.to/lastmile_qr_scan"}, "lon": -77.03607933333333, "name": "1dc2c4f6d54974e9cae978f863e8b8b7", "lat": 38.931529, "is_reserved": 0, "fusion_lat": 0.0, "bike_id": "1dc2c4f6d54974e9cae978f863e8b8b7", "type": "electric_scooter", "is_disabled": 0, "fusion_lon": 0.0}, {"rental_uris": {"android": "https://dc.lft.to/lastmile_qr_scan", "ios": "https://dc.lft.to/lastmile_qr_scan"}, "lon": -77.02413583333333, "name": "ace83dda55975519cd0c173e2a7652d4", "lat": 38.896913, "is_reserved": 0, "fusion_lat": 0.0, "bike_id": "ace83dda55975519cd0c173e2a7652d4", "type": "electric_scooter", "is_disabled": 0, "fusion_lon": 0.0}, {"rental_uris": {"android": "https://dc.lft.to/lastmile_qr_scan", "ios": "https://dc.lft.to/lastmile_qr_scan"}, "lon": -77.03414916666667, "name": "de747a64c9faa6a9004bdda95357d18f", "lat": 38.92862983333333, "is_reserved": 0, "fusion_lat": 0.0, "bike_id": "de747a64c9faa6a9004bdda95357d18f", "type": "electric_scooter", "is_disabled": 0, "fusion_lon": 0.0}, {"rental_uris": {"android": "https://dc.lft.to/lastmile_qr_scan", "ios": "https://dc.lft.to/lastmile_qr_scan"}, "lon": -76.99006633333333, "name": "aa21e8378ccf38a57a742d4ce1527081", "lat": 38.86509616666667, "is_reserved": 0, "fusion_lat": 0.0, "bike_id": "aa21e8378ccf38a57a742d4ce1527081", "type": "electric_scooter", "is_disabled": 0, "fusion_lon": 0.0}, {"rental_uris": {"android": "https://dc.lft.to/lastmile_qr_scan", "ios": "https://dc.lft.to/lastmile_qr_scan"}, "lon": -77.0322815, "name": "4e6ab597acc6204fe14536bd77c9056c", "lat": 38.896238, "is_reserved": 0, "fusion_lat": 0.0, "bike_id": "4e6ab597acc6204fe14536bd77c9056c", "type": "electric_scooter", "is_disabled": 0, "fusion_lon": 0.0}, {"rental_uris": {"android": "https://dc.lft.to/lastmile_qr_scan", "ios": "https://dc.lft.to/lastmile_qr_scan"}, "lon": -77.18746583333333, "name": "1132e6c0d4356907d4377195bf66c1e8", "lat": 38.8935045, "is_reserved": 0, "fusion_lat": 0.0, "bike_id": "1132e6c0d4356907d4377195bf66c1e8", "type": "electric_bike", "is_disabled": 0, "fusion_lon": 0.0}, {"rental_uris": {"android": "https://dc.lft.to/lastmile_qr_scan", "ios": "https://dc.lft.to/lastmile_qr_scan"}, "lon": -77.0110895, "name": "ca6ad048f964c1b68395bd0452403309", "lat": 38.96299833333333, "is_reserved": 0, "fusion_lat": 0.0, "bike_id": "ca6ad048f964c1b68395bd0452403309", "type": "electric_bike", "is_disabled": 0, "fusion_lon": 0.0}, {"rental_uris": {"android": "https://dc.lft.to/lastmile_qr_scan", "ios": "https://dc.lft.to/lastmile_qr_scan"}, "lon": -77.03713316666666, "name": "a9e9916d99b6100e71e1f6d79b4aff45", "lat": 38.92641066666667, "is_reserved": 0, "fusion_lat": 0.0, "bike_id": "a9e9916d99b6100e71e1f6d79b4aff45", "type": "electric_scooter", "is_disabled": 0, "fusion_lon": 0.0}, {"rental_uris": {"android": "https://dc.lft.to/lastmile_qr_scan", "ios": "https://dc.lft.to/lastmile_qr_scan"}, "lon": -77.01838666666667, "name": "e92ad965bf7b1d7cc7d0a13c62746073", "lat": 38.909504, "is_reserved": 0, "fusion_lat": 0.0, "bike_id": "e92ad965bf7b1d7cc7d0a13c62746073", "type": "electric_bike", "is_disabled": 0, "fusion_lon": 0.0}, {"rental_uris": {"android": "https://dc.lft.to/lastmile_qr_scan", "ios": "https://dc.lft.to/lastmile_qr_scan"}, "lon": -77.02402966666666, "name": "aadf192c0f827afbb3ab8b05359c7602", "lat": 38.900783833333335, "is_reserved": 0, "fusion_lat": 0.0, "bike_id": "aadf192c0f827afbb3ab8b05359c7602", "type": "electric_scooter", "is_disabled": 0, "fusion_lon": 0.0}, {"rental_uris": {"android": "https://dc.lft.to/lastmile_qr_scan", "ios": "https://dc.lft.to/lastmile_qr_scan"}, "lon": -77.00541916666667, "name": "35633685aa8e746099c39aae9e61a938", "lat": 38.92786616666667, "is_reserved": 0, "fusion_lat": 0.0, "bike_id": "35633685aa8e746099c39aae9e61a938", "type": "electric_scooter", "is_disabled": 0, "fusion_lon": 0.0}, {"rental_uris": {"android": "https://dc.lft.to/lastmile_qr_scan", "ios": "https://dc.lft.to/lastmile_qr_scan"}, "lon": -77.0371865, "name": "20f4d36f0c78f2bbcc9a32f29de3fb85", "lat": 38.926431, "is_reserved": 0, "fusion_lat": 0.0, "bike_id": "20f4d36f0c78f2bbcc9a32f29de3fb85", "type": "electric_scooter", "is_disabled": 0, "fusion_lon": 0.0}, {"rental_uris": {"android": "https://dc.lft.to/lastmile_qr_scan", "ios": "https://dc.lft.to/lastmile_qr_scan"}, "lon": -77.02125066666666, "name": "d671a6b448175d5fc2838ac45eafbd8f", "lat": 38.931079833333335, "is_reserved": 0, "fusion_lat": 0.0, "bike_id": "d671a6b448175d5fc2838ac45eafbd8f", "type": "electric_scooter", "is_disabled": 0, "fusion_lon": 0.0}, {"rental_uris": {"android": "https://dc.lft.to/lastmile_qr_scan", "ios": "https://dc.lft.to/lastmile_qr_scan"}, "lon": -77.00936033333333, "name": "3c956aeebb73d7ddb9ccdc5033ad0691", "lat": 38.876043, "is_reserved": 0, "fusion_lat": 0.0, "bike_id": "3c956aeebb73d7ddb9ccdc5033ad0691", "type": "electric_scooter", "is_disabled": 0, "fusion_lon": 0.0}, {"rental_uris": {"android": "https://dc.lft.to/lastmile_qr_scan", "ios": "https://dc.lft.to/lastmile_qr_scan"}, "lon": -77.023878, "name": "3b344a74b72fc154a73ed08086726fbc", "lat": 38.9265575, "is_reserved": 0, "fusion_lat": 0.0, "bike_id": "3b344a74b72fc154a73ed08086726fbc", "type": "electric_scooter", "is_disabled": 0, "fusion_lon": 0.0}, {"rental_uris": {"android": "https://dc.lft.to/lastmile_qr_scan", "ios": "https://dc.lft.to/lastmile_qr_scan"}, "lon": -77.04355533333333, "name": "31a48972f5110828426a147185556fea", "lat": 38.907172333333335, "is_reserved": 0, "fusion_lat": 0.0, "bike_id": "31a48972f5110828426a147185556fea", "type": "electric_scooter", "is_disabled": 0, "fusion_lon": 0.0}, {"rental_uris": {"android": "https://dc.lft.to/lastmile_qr_scan", "ios": "https://dc.lft.to/lastmile_qr_scan"}, "lon": -77.04998833333333, "name": "42f2bb4a34ced4b2a7862e278497d017", "lat": 38.89902566666667, "is_reserved": 0, "fusion_lat": 0.0, "bike_id": "42f2bb4a34ced4b2a7862e278497d017", "type": "electric_scooter", "is_disabled": 0, "fusion_lon": 0.0}, {"rental_uris": {"android": "https://dc.lft.to/lastmile_qr_scan", "ios": "https://dc.lft.to/lastmile_qr_scan"}, "lon": -77.04328233333334, "name": "f46a9fb615acf30d27bc211bc5ea8673", "lat": 38.90322166666667, "is_reserved": 0, "fusion_lat": 0.0, "bike_id": "f46a9fb615acf30d27bc211bc5ea8673", "type": "electric_scooter", "is_disabled": 0, "fusion_lon": 0.0}, {"rental_uris": {"android": "https://dc.lft.to/lastmile_qr_scan", "ios": "https://dc.lft.to/lastmile_qr_scan"}, "lon": -77.03065916666667, "name": "be09e75e2c351ed1e4d3a9f792a5659f", "lat": 38.922565, "is_reserved": 0, "fusion_lat": 0.0, "bike_id": "be09e75e2c351ed1e4d3a9f792a5659f", "type": "electric_scooter", "is_disabled": 0, "fusion_lon": 0.0}, {"rental_uris": {"android": "https://dc.lft.to/lastmile_qr_scan", "ios": "https://dc.lft.to/lastmile_qr_scan"}, "lon": -77.02284883333333, "name": "21156091636db5d95edfcccf588b1a9a", "lat": 38.9143135, "is_reserved": 0, "fusion_lat": 0.0, "bike_id": "21156091636db5d95edfcccf588b1a9a", "type": "electric_scooter", "is_disabled": 0, "fusion_lon": 0.0}, {"rental_uris": {"android": "https://dc.lft.to/lastmile_qr_scan", "ios": "https://dc.lft.to/lastmile_qr_scan"}, "lon": -77.0435295, "name": "2d1f4071acad7e3eb3bd307f3f143994", "lat": 38.908900333333335, "is_reserved": 0, "fusion_lat": 0.0, "bike_id": "2d1f4071acad7e3eb3bd307f3f143994", "type": "electric_scooter", "is_disabled": 0, "fusion_lon": 0.0}, {"rental_uris": {"android": "https://dc.lft.to/lastmile_qr_scan", "ios": "https://dc.lft.to/lastmile_qr_scan"}, "lon": -77.08199116666667, "name": "c876ea597064d915023d398e3bf0fad2", "lat": 38.933230333333334, "is_reserved": 0, "fusion_lat": 0.0, "bike_id": "c876ea597064d915023d398e3bf0fad2", "type": "electric_scooter", "is_disabled": 0, "fusion_lon": 0.0}, {"rental_uris": {"android": "https://dc.lft.to/lastmile_qr_scan", "ios": "https://dc.lft.to/lastmile_qr_scan"}, "lon": -77.03852833333333, "name": "fe5df0ff268adabb1c8f17ffc44d5aea", "lat": 38.91772316666667, "is_reserved": 0, "fusion_lat": 0.0, "bike_id": "fe5df0ff268adabb1c8f17ffc44d5aea", "type": "electric_scooter", "is_disabled": 0, "fusion_lon": 0.0}, {"rental_uris": {"android": "https://dc.lft.to/lastmile_qr_scan", "ios": "https://dc.lft.to/lastmile_qr_scan"}, "lon": -77.02624766666666, "name": "a43dc000912c87c54c26526d5a1f9b43", "lat": 38.89474416666667, "is_reserved": 0, "fusion_lat": 0.0, "bike_id": "a43dc000912c87c54c26526d5a1f9b43", "type": "electric_scooter", "is_disabled": 0, "fusion_lon": 0.0}, {"rental_uris": {"android": "https://dc.lft.to/lastmile_qr_scan", "ios": "https://dc.lft.to/lastmile_qr_scan"}, "lon": -76.99830683333333, "name": "d6331be9438af9b4a9f993dddb865603", "lat": 38.90378916666667, "is_reserved": 0, "fusion_lat": 0.0, "bike_id": "d6331be9438af9b4a9f993dddb865603", "type": "electric_scooter", "is_disabled": 0, "fusion_lon": 0.0}, {"rental_uris": {"android": "https://dc.lft.to/lastmile_qr_scan", "ios": "https://dc.lft.to/lastmile_qr_scan"}, "lon": -77.03188433333334, "name": "dece57cf79c974f35f212da2c8309fb3", "lat": 38.92062516666667, "is_reserved": 0, "fusion_lat": 0.0, "bike_id": "dece57cf79c974f35f212da2c8309fb3", "type": "electric_scooter", "is_disabled": 0, "fusion_lon": 0.0}, {"rental_uris": {"android": "https://dc.lft.to/lastmile_qr_scan", "ios": "https://dc.lft.to/lastmile_qr_scan"}, "lon": -77.00074383333333, "name": "4fd525aa8b8db6391832c631500cbcc5", "lat": 38.92555616666667, "is_reserved": 0, "fusion_lat": 0.0, "bike_id": "4fd525aa8b8db6391832c631500cbcc5", "type": "electric_scooter", "is_disabled": 0, "fusion_lon": 0.0}, {"rental_uris": {"android": "https://dc.lft.to/lastmile_qr_scan", "ios": "https://dc.lft.to/lastmile_qr_scan"}, "lon": -77.0148475, "name": "3f31f10ca75214ad7d7fa050d902ed88", "lat": 38.914164, "is_reserved": 0, "fusion_lat": 0.0, "bike_id": "3f31f10ca75214ad7d7fa050d902ed88", "type": "electric_scooter", "is_disabled": 0, "fusion_lon": 0.0}, {"rental_uris": {"android": "https://dc.lft.to/lastmile_qr_scan", "ios": "https://dc.lft.to/lastmile_qr_scan"}, "lon": -76.97256116666667, "name": "dd9dbd5da60e9793372dd6999a72a87f", "lat": 38.957481, "is_reserved": 0, "fusion_lat": 0.0, "bike_id": "dd9dbd5da60e9793372dd6999a72a87f", "type": "electric_bike", "is_disabled": 0, "fusion_lon": 0.0}, {"rental_uris": {"android": "https://dc.lft.to/lastmile_qr_scan", "ios": "https://dc.lft.to/lastmile_qr_scan"}, "lon": -76.99959466666667, "name": "396f0d1e93328ecd43be4ab3baaaf10c", "lat": 38.874199833333336, "is_reserved": 0, "fusion_lat": 0.0, "bike_id": "396f0d1e93328ecd43be4ab3baaaf10c", "type": "electric_scooter", "is_disabled": 0, "fusion_lon": 0.0}, {"rental_uris": {"android": "https://dc.lft.to/lastmile_qr_scan", "ios": "https://dc.lft.to/lastmile_qr_scan"}, "lon": -77.01079583333333, "name": "fabdfb4cb7d63437e4b6d784ef39b3a2", "lat": 38.909661666666665, "is_reserved": 0, "fusion_lat": 0.0, "bike_id": "fabdfb4cb7d63437e4b6d784ef39b3a2", "type": "electric_scooter", "is_disabled": 0, "fusion_lon": 0.0}, {"rental_uris": {"android": "https://dc.lft.to/lastmile_qr_scan", "ios": "https://dc.lft.to/lastmile_qr_scan"}, "lon": -77.03500716666667, "name": "e62fbd34c3a27fb569d92e1b1ca02c0e", "lat": 38.9215055, "is_reserved": 0, "fusion_lat": 0.0, "bike_id": "e62fbd34c3a27fb569d92e1b1ca02c0e", "type": "electric_scooter", "is_disabled": 0, "fusion_lon": 0.0}, {"rental_uris": {"android": "https://dc.lft.to/lastmile_qr_scan", "ios": "https://dc.lft.to/lastmile_qr_scan"}, "lon": -77.00800783333334, "name": "e1e5736db74e97c0b3de26625083e0de", "lat": 38.94924133333333, "is_reserved": 0, "fusion_lat": 0.0, "bike_id": "e1e5736db74e97c0b3de26625083e0de", "type": "electric_bike", "is_disabled": 0, "fusion_lon": 0.0}, {"rental_uris": {"android": "https://dc.lft.to/lastmile_qr_scan", "ios": "https://dc.lft.to/lastmile_qr_scan"}, "lon": -76.97255416666667, "name": "a1e69e0fcb9f7494b30ba1ccf0132908", "lat": 38.95741783333333, "is_reserved": 0, "fusion_lat": 0.0, "bike_id": "a1e69e0fcb9f7494b30ba1ccf0132908", "type": "electric_bike", "is_disabled": 0, "fusion_lon": 0.0}, {"rental_uris": {"android": "https://dc.lft.to/lastmile_qr_scan", "ios": "https://dc.lft.to/lastmile_qr_scan"}, "lon": -77.04344866666666, "name": "f4f746d35b84f5af7e8ccc624c891796", "lat": 38.908806166666665, "is_reserved": 0, "fusion_lat": 0.0, "bike_id": "f4f746d35b84f5af7e8ccc624c891796", "type": "electric_scooter", "is_disabled": 0, "fusion_lon": 0.0}, {"rental_uris": {"android": "https://dc.lft.to/lastmile_qr_scan", "ios": "https://dc.lft.to/lastmile_qr_scan"}, "lon": -77.00294216666667, "name": "0c0dc60b129eb6c6dedec0275d68ce4d", "lat": 38.87722216666667, "is_reserved": 0, "fusion_lat": 0.0, "bike_id": "0c0dc60b129eb6c6dedec0275d68ce4d", "type": "electric_scooter", "is_disabled": 0, "fusion_lon": 0.0}, {"rental_uris": {"android": "https://dc.lft.to/lastmile_qr_scan", "ios": "https://dc.lft.to/lastmile_qr_scan"}, "lon": -77.01224733333333, "name": "94827e79c2b47bb04f73f18af187a15c", "lat": 38.91346516666667, "is_reserved": 0, "fusion_lat": 0.0, "bike_id": "94827e79c2b47bb04f73f18af187a15c", "type": "electric_scooter", "is_disabled": 0, "fusion_lon": 0.0}, {"rental_uris": {"android": "https://dc.lft.to/lastmile_qr_scan", "ios": "https://dc.lft.to/lastmile_qr_scan"}, "lon": -77.05116133333334, "name": "16eb4b819c389a5f39baba103d148ba6", "lat": 38.81333016666667, "is_reserved": 0, "fusion_lat": 0.0, "bike_id": "16eb4b819c389a5f39baba103d148ba6", "type": "electric_bike", "is_disabled": 0, "fusion_lon": 0.0}, {"rental_uris": {"android": "https://dc.lft.to/lastmile_qr_scan", "ios": "https://dc.lft.to/lastmile_qr_scan"}, "lon": -77.04478583333334, "name": "bc926c663f4addd769adf32fc836862a", "lat": 38.918799, "is_reserved": 0, "fusion_lat": 0.0, "bike_id": "bc926c663f4addd769adf32fc836862a", "type": "electric_scooter", "is_disabled": 0, "fusion_lon": 0.0}, {"rental_uris": {"android": "https://dc.lft.to/lastmile_qr_scan", "ios": "https://dc.lft.to/lastmile_qr_scan"}, "lon": -76.9897865, "name": "7bd0c5f55597df43612e5ace68f29018", "lat": 38.882209833333334, "is_reserved": 0, "fusion_lat": 0.0, "bike_id": "7bd0c5f55597df43612e5ace68f29018", "type": "electric_scooter", "is_disabled": 0, "fusion_lon": 0.0}, {"rental_uris": {"android": "https://dc.lft.to/lastmile_qr_scan", "ios": "https://dc.lft.to/lastmile_qr_scan"}, "lon": -77.04674416666667, "name": "d5a4f71c0090cf9771c2b81347de09fb", "lat": 38.902955, "is_reserved": 0, "fusion_lat": 0.0, "bike_id": "d5a4f71c0090cf9771c2b81347de09fb", "type": "electric_scooter", "is_disabled": 0, "fusion_lon": 0.0}, {"rental_uris": {"android": "https://dc.lft.to/lastmile_qr_scan", "ios": "https://dc.lft.to/lastmile_qr_scan"}, "lon": -77.01462, "name": "115f0b78639fd2cca4b7fd542ac0df78", "lat": 38.879486666666665, "is_reserved": 0, "fusion_lat": 0.0, "bike_id": "115f0b78639fd2cca4b7fd542ac0df78", "type": "electric_scooter", "is_disabled": 0, "fusion_lon": 0.0}, {"rental_uris": {"android": "https://dc.lft.to/lastmile_qr_scan", "ios": "https://dc.lft.to/lastmile_qr_scan"}, "lon": -76.96261716666666, "name": "2a92dabc2cfd456abc7a13cbceae3ced", "lat": 38.8824735, "is_reserved": 0, "fusion_lat": 0.0, "bike_id": "2a92dabc2cfd456abc7a13cbceae3ced", "type": "electric_bike", "is_disabled": 0, "fusion_lon": 0.0}, {"rental_uris": {"android": "https://dc.lft.to/lastmile_qr_scan", "ios": "https://dc.lft.to/lastmile_qr_scan"}, "lon": -77.00934366666667, "name": "9f87a3707c9f7069056a326a7432c16e", "lat": 38.876245, "is_reserved": 0, "fusion_lat": 0.0, "bike_id": "9f87a3707c9f7069056a326a7432c16e", "type": "electric_scooter", "is_disabled": 0, "fusion_lon": 0.0}, {"rental_uris": {"android": "https://dc.lft.to/lastmile_qr_scan", "ios": "https://dc.lft.to/lastmile_qr_scan"}, "lon": -77.02294116666667, "name": "6a199d573fbce045d137081fe480efb2", "lat": 38.917109333333336, "is_reserved": 0, "fusion_lat": 0.0, "bike_id": "6a199d573fbce045d137081fe480efb2", "type": "electric_scooter", "is_disabled": 0, "fusion_lon": 0.0}, {"rental_uris": {"android": "https://dc.lft.to/lastmile_qr_scan", "ios": "https://dc.lft.to/lastmile_qr_scan"}, "lon": -77.0228665, "name": "d89f9ea51d06de2af87f135c6ec5de1d", "lat": 38.89520433333333, "is_reserved": 0, "fusion_lat": 0.0, "bike_id": "d89f9ea51d06de2af87f135c6ec5de1d", "type": "electric_scooter", "is_disabled": 0, "fusion_lon": 0.0}, {"rental_uris": {"android": "https://dc.lft.to/lastmile_qr_scan", "ios": "https://dc.lft.to/lastmile_qr_scan"}, "lon": -77.02283283333334, "name": "0b70874f925a3dc04d212b44ae349416", "lat": 38.91654183333333, "is_reserved": 0, "fusion_lat": 0.0, "bike_id": "0b70874f925a3dc04d212b44ae349416", "type": "electric_scooter", "is_disabled": 0, "fusion_lon": 0.0}, {"rental_uris": {"android": "https://dc.lft.to/lastmile_qr_scan", "ios": "https://dc.lft.to/lastmile_qr_scan"}, "lon": -77.04441266666667, "name": "14df52f744524a78a02de044148b0da4", "lat": 38.91252566666667, "is_reserved": 0, "fusion_lat": 0.0, "bike_id": "14df52f744524a78a02de044148b0da4", "type": "electric_scooter", "is_disabled": 0, "fusion_lon": 0.0}, {"rental_uris": {"android": "https://dc.lft.to/lastmile_qr_scan", "ios": "https://dc.lft.to/lastmile_qr_scan"}, "lon": -77.02520833333334, "name": "c4dcf5097720988829cc5e9afb799e2e", "lat": 38.9206175, "is_reserved": 0, "fusion_lat": 0.0, "bike_id": "c4dcf5097720988829cc5e9afb799e2e", "type": "electric_scooter", "is_disabled": 0, "fusion_lon": 0.0}, {"rental_uris": {"android": "https://dc.lft.to/lastmile_qr_scan", "ios": "https://dc.lft.to/lastmile_qr_scan"}, "lon": -77.03846566666667, "name": "c3d7c9802aadf45668975dd16a0d4227", "lat": 38.90794116666667, "is_reserved": 0, "fusion_lat": 0.0, "bike_id": "c3d7c9802aadf45668975dd16a0d4227", "type": "electric_scooter", "is_disabled": 0, "fusion_lon": 0.0}, {"rental_uris": {"android": "https://dc.lft.to/lastmile_qr_scan", "ios": "https://dc.lft.to/lastmile_qr_scan"}, "lon": -77.0186735, "name": "a452f8f8a22a9bdae689aaa3726e6090", "lat": 38.89882933333333, "is_reserved": 0, "fusion_lat": 0.0, "bike_id": "a452f8f8a22a9bdae689aaa3726e6090", "type": "electric_scooter", "is_disabled": 0, "fusion_lon": 0.0}, {"rental_uris": {"android": "https://dc.lft.to/lastmile_qr_scan", "ios": "https://dc.lft.to/lastmile_qr_scan"}, "lon": -76.97630683333334, "name": "e13863d9204563a53e7e6c65fe54cc16", "lat": 38.90156983333333, "is_reserved": 0, "fusion_lat": 0.0, "bike_id": "e13863d9204563a53e7e6c65fe54cc16", "type": "electric_scooter", "is_disabled": 0, "fusion_lon": 0.0}, {"rental_uris": {"android": "https://dc.lft.to/lastmile_qr_scan", "ios": "https://dc.lft.to/lastmile_qr_scan"}, "lon": -77.02282816666667, "name": "e6b7bc67b4c28d5663ae29719536e032", "lat": 38.91654616666667, "is_reserved": 0, "fusion_lat": 0.0, "bike_id": "e6b7bc67b4c28d5663ae29719536e032", "type": "electric_scooter", "is_disabled": 0, "fusion_lon": 0.0}, {"rental_uris": {"android": "https://dc.lft.to/lastmile_qr_scan", "ios": "https://dc.lft.to/lastmile_qr_scan"}, "lon": -77.03851366666666, "name": "953b53452ab86eacb99fc02a68fbf9fe", "lat": 38.906284666666664, "is_reserved": 0, "fusion_lat": 0.0, "bike_id": "953b53452ab86eacb99fc02a68fbf9fe", "type": "electric_scooter", "is_disabled": 0, "fusion_lon": 0.0}, {"rental_uris": {"android": "https://dc.lft.to/lastmile_qr_scan", "ios": "https://dc.lft.to/lastmile_qr_scan"}, "lon": -77.032245, "name": "ad256e9defed84aab20a85ee0dcc8d2a", "lat": 38.91630716666667, "is_reserved": 0, "fusion_lat": 0.0, "bike_id": "ad256e9defed84aab20a85ee0dcc8d2a", "type": "electric_scooter", "is_disabled": 0, "fusion_lon": 0.0}, {"rental_uris": {"android": "https://dc.lft.to/lastmile_qr_scan", "ios": "https://dc.lft.to/lastmile_qr_scan"}, "lon": -77.01189283333333, "name": "331b423b94dc6c6dbeb0e400fb216ab5", "lat": 38.9002495, "is_reserved": 0, "fusion_lat": 0.0, "bike_id": "331b423b94dc6c6dbeb0e400fb216ab5", "type": "electric_scooter", "is_disabled": 0, "fusion_lon": 0.0}, {"rental_uris": {"android": "https://dc.lft.to/lastmile_qr_scan", "ios": "https://dc.lft.to/lastmile_qr_scan"}, "lon": -76.98749816666667, "name": "11ccdbb58222e5e08644072c0343cb48", "lat": 38.857735166666664, "is_reserved": 0, "fusion_lat": 0.0, "bike_id": "11ccdbb58222e5e08644072c0343cb48", "type": "electric_bike", "is_disabled": 0, "fusion_lon": 0.0}, {"rental_uris": {"android": "https://dc.lft.to/lastmile_qr_scan", "ios": "https://dc.lft.to/lastmile_qr_scan"}, "lon": -77.007018, "name": "650abd4ff1f89f949256a8ab6aaa48e3", "lat": 38.95242183333333, "is_reserved": 0, "fusion_lat": 0.0, "bike_id": "650abd4ff1f89f949256a8ab6aaa48e3", "type": "electric_scooter", "is_disabled": 0, "fusion_lon": 0.0}, {"rental_uris": {"android": "https://dc.lft.to/lastmile_qr_scan", "ios": "https://dc.lft.to/lastmile_qr_scan"}, "lon": -77.02598733333333, "name": "855f29df8505994cd8e9873f3b65e32d", "lat": 38.9440895, "is_reserved": 0, "fusion_lat": 0.0, "bike_id": "855f29df8505994cd8e9873f3b65e32d", "type": "electric_scooter", "is_disabled": 0, "fusion_lon": 0.0}, {"rental_uris": {"android": "https://dc.lft.to/lastmile_qr_scan", "ios": "https://dc.lft.to/lastmile_qr_scan"}, "lon": -77.02705066666667, "name": "2b01f25298dd6c12a276148e3c887ec3", "lat": 38.925507833333334, "is_reserved": 0, "fusion_lat": 0.0, "bike_id": "2b01f25298dd6c12a276148e3c887ec3", "type": "electric_scooter", "is_disabled": 0, "fusion_lon": 0.0}, {"rental_uris": {"android": "https://dc.lft.to/lastmile_qr_scan", "ios": "https://dc.lft.to/lastmile_qr_scan"}, "lon": -76.99784816666667, "name": "95c42e5794cdec62b5752b38919de896", "lat": 38.8418375, "is_reserved": 0, "fusion_lat": 0.0, "bike_id": "95c42e5794cdec62b5752b38919de896", "type": "electric_scooter", "is_disabled": 0, "fusion_lon": 0.0}, {"rental_uris": {"android": "https://dc.lft.to/lastmile_qr_scan", "ios": "https://dc.lft.to/lastmile_qr_scan"}, "lon": -76.98893883333334, "name": "346f5924d5e147852c53f3e72aa91bc4", "lat": 38.86666366666667, "is_reserved": 0, "fusion_lat": 0.0, "bike_id": "346f5924d5e147852c53f3e72aa91bc4", "type": "electric_scooter", "is_disabled": 0, "fusion_lon": 0.0}, {"rental_uris": {"android": "https://dc.lft.to/lastmile_qr_scan", "ios": "https://dc.lft.to/lastmile_qr_scan"}, "lon": -77.02957733333334, "name": "ecd218dc544af1762b6ffa3e6df31fa5", "lat": 38.91685733333333, "is_reserved": 0, "fusion_lat": 0.0, "bike_id": "ecd218dc544af1762b6ffa3e6df31fa5", "type": "electric_scooter", "is_disabled": 0, "fusion_lon": 0.0}, {"rental_uris": {"android": "https://dc.lft.to/lastmile_qr_scan", "ios": "https://dc.lft.to/lastmile_qr_scan"}, "lon": -77.03475483333334, "name": "84efc412b49f7b5092d42ac806ee4560", "lat": 38.905483, "is_reserved": 0, "fusion_lat": 0.0, "bike_id": "84efc412b49f7b5092d42ac806ee4560", "type": "electric_scooter", "is_disabled": 0, "fusion_lon": 0.0}, {"rental_uris": {"android": "https://dc.lft.to/lastmile_qr_scan", "ios": "https://dc.lft.to/lastmile_qr_scan"}, "lon": -77.028302, "name": "0720221acb0fa074f88942cc7ade82a6", "lat": 38.88733466666667, "is_reserved": 0, "fusion_lat": 0.0, "bike_id": "0720221acb0fa074f88942cc7ade82a6", "type": "electric_scooter", "is_disabled": 0, "fusion_lon": 0.0}, {"rental_uris": {"android": "https://dc.lft.to/lastmile_qr_scan", "ios": "https://dc.lft.to/lastmile_qr_scan"}, "lon": -77.0239605, "name": "97946990386fea56850477057b5f32e1", "lat": 38.919801166666666, "is_reserved": 0, "fusion_lat": 0.0, "bike_id": "97946990386fea56850477057b5f32e1", "type": "electric_scooter", "is_disabled": 0, "fusion_lon": 0.0}, {"rental_uris": {"android": "https://dc.lft.to/lastmile_qr_scan", "ios": "https://dc.lft.to/lastmile_qr_scan"}, "lon": -77.0228115, "name": "eabeb0461729e535f0f73e57f853cf1e", "lat": 38.895266166666666, "is_reserved": 0, "fusion_lat": 0.0, "bike_id": "eabeb0461729e535f0f73e57f853cf1e", "type": "electric_scooter", "is_disabled": 0, "fusion_lon": 0.0}, {"rental_uris": {"android": "https://dc.lft.to/lastmile_qr_scan", "ios": "https://dc.lft.to/lastmile_qr_scan"}, "lon": -77.02235766666666, "name": "23a5ad6850ad17208a72f77428f1f8cb", "lat": 38.911123333333336, "is_reserved": 0, "fusion_lat": 0.0, "bike_id": "23a5ad6850ad17208a72f77428f1f8cb", "type": "electric_scooter", "is_disabled": 0, "fusion_lon": 0.0}, {"rental_uris": {"android": "https://dc.lft.to/lastmile_qr_scan", "ios": "https://dc.lft.to/lastmile_qr_scan"}, "lon": -77.01355933333333, "name": "459d6a9032997144201a75417cf6da8e", "lat": 38.912781, "is_reserved": 0, "fusion_lat": 0.0, "bike_id": "459d6a9032997144201a75417cf6da8e", "type": "electric_scooter", "is_disabled": 0, "fusion_lon": 0.0}, {"rental_uris": {"android": "https://dc.lft.to/lastmile_qr_scan", "ios": "https://dc.lft.to/lastmile_qr_scan"}, "lon": -77.04353133333333, "name": "dcf25abe70a030b48983dd4564b30ef2", "lat": 38.90367233333333, "is_reserved": 0, "fusion_lat": 0.0, "bike_id": "dcf25abe70a030b48983dd4564b30ef2", "type": "electric_scooter", "is_disabled": 0, "fusion_lon": 0.0}, {"rental_uris": {"android": "https://dc.lft.to/lastmile_qr_scan", "ios": "https://dc.lft.to/lastmile_qr_scan"}, "lon": -77.0260175, "name": "b998ef0f25ad8163c81955740cf66c0c", "lat": 38.9443505, "is_reserved": 0, "fusion_lat": 0.0, "bike_id": "b998ef0f25ad8163c81955740cf66c0c", "type": "electric_bike", "is_disabled": 0, "fusion_lon": 0.0}, {"rental_uris": {"android": "https://dc.lft.to/lastmile_qr_scan", "ios": "https://dc.lft.to/lastmile_qr_scan"}, "lon": -76.9772645, "name": "98cb45019ffeba22c4ce63b1c7d82d9d", "lat": 38.8724685, "is_reserved": 0, "fusion_lat": 0.0, "bike_id": "98cb45019ffeba22c4ce63b1c7d82d9d", "type": "electric_scooter", "is_disabled": 0, "fusion_lon": 0.0}, {"rental_uris": {"android": "https://dc.lft.to/lastmile_qr_scan", "ios": "https://dc.lft.to/lastmile_qr_scan"}, "lon": -77.0630685, "name": "0ce49c603fbd85e48af0796b1fadd604", "lat": 38.7985985, "is_reserved": 0, "fusion_lat": 0.0, "bike_id": "0ce49c603fbd85e48af0796b1fadd604", "type": "electric_bike", "is_disabled": 0, "fusion_lon": 0.0}, {"rental_uris": {"android": "https://dc.lft.to/lastmile_qr_scan", "ios": "https://dc.lft.to/lastmile_qr_scan"}, "lon": -77.01765433333334, "name": "0f108aa3e4cda48dd753b0ca13731a24", "lat": 38.87716016666667, "is_reserved": 0, "fusion_lat": 0.0, "bike_id": "0f108aa3e4cda48dd753b0ca13731a24", "type": "electric_scooter", "is_disabled": 0, "fusion_lon": 0.0}, {"rental_uris": {"android": "https://dc.lft.to/lastmile_qr_scan", "ios": "https://dc.lft.to/lastmile_qr_scan"}, "lon": -77.05124883333333, "name": "093311f65bcf646557dfbad88da3b6e6", "lat": 38.90575583333333, "is_reserved": 0, "fusion_lat": 0.0, "bike_id": "093311f65bcf646557dfbad88da3b6e6", "type": "electric_scooter", "is_disabled": 0, "fusion_lon": 0.0}, {"rental_uris": {"android": "https://dc.lft.to/lastmile_qr_scan", "ios": "https://dc.lft.to/lastmile_qr_scan"}, "lon": -77.01688166666666, "name": "aa89a1bdfd46748378d90754859bad09", "lat": 38.92054316666667, "is_reserved": 0, "fusion_lat": 0.0, "bike_id": "aa89a1bdfd46748378d90754859bad09", "type": "electric_scooter", "is_disabled": 0, "fusion_lon": 0.0}, {"rental_uris": {"android": "https://dc.lft.to/lastmile_qr_scan", "ios": "https://dc.lft.to/lastmile_qr_scan"}, "lon": -77.02692383333333, "name": "4e2ae1d5832bc5b243b7bc6353b265fe", "lat": 38.909523166666666, "is_reserved": 0, "fusion_lat": 0.0, "bike_id": "4e2ae1d5832bc5b243b7bc6353b265fe", "type": "electric_scooter", "is_disabled": 0, "fusion_lon": 0.0}, {"rental_uris": {"android": "https://dc.lft.to/lastmile_qr_scan", "ios": "https://dc.lft.to/lastmile_qr_scan"}, "lon": -77.003113, "name": "42887549280ad0c07f87c0ea96e80970", "lat": 38.89728316666667, "is_reserved": 0, "fusion_lat": 0.0, "bike_id": "42887549280ad0c07f87c0ea96e80970", "type": "electric_bike", "is_disabled": 0, "fusion_lon": 0.0}, {"rental_uris": {"android": "https://dc.lft.to/lastmile_qr_scan", "ios": "https://dc.lft.to/lastmile_qr_scan"}, "lon": -77.0574495, "name": "2c92ed89dae2bfba5c6fc140dc6ae813", "lat": 38.93402566666666, "is_reserved": 0, "fusion_lat": 0.0, "bike_id": "2c92ed89dae2bfba5c6fc140dc6ae813", "type": "electric_scooter", "is_disabled": 0, "fusion_lon": 0.0}, {"rental_uris": {"android": "https://dc.lft.to/lastmile_qr_scan", "ios": "https://dc.lft.to/lastmile_qr_scan"}, "lon": -77.02981433333333, "name": "60a50fb2d97df3b961ce902a1e7836ab", "lat": 38.90515083333333, "is_reserved": 0, "fusion_lat": 0.0, "bike_id": "60a50fb2d97df3b961ce902a1e7836ab", "type": "electric_scooter", "is_disabled": 0, "fusion_lon": 0.0}, {"rental_uris": {"android": "https://dc.lft.to/lastmile_qr_scan", "ios": "https://dc.lft.to/lastmile_qr_scan"}, "lon": -77.023353, "name": "cff2f1c95da58e0fd03ec2f056742971", "lat": 38.914130166666666, "is_reserved": 0, "fusion_lat": 0.0, "bike_id": "cff2f1c95da58e0fd03ec2f056742971", "type": "electric_scooter", "is_disabled": 0, "fusion_lon": 0.0}, {"rental_uris": {"android": "https://dc.lft.to/lastmile_qr_scan", "ios": "https://dc.lft.to/lastmile_qr_scan"}, "lon": -77.001167, "name": "cf5138ec90fbf9d343f0585f8b5fbf6f", "lat": 38.87364566666667, "is_reserved": 0, "fusion_lat": 0.0, "bike_id": "cf5138ec90fbf9d343f0585f8b5fbf6f", "type": "electric_scooter", "is_disabled": 0, "fusion_lon": 0.0}, {"rental_uris": {"android": "https://dc.lft.to/lastmile_qr_scan", "ios": "https://dc.lft.to/lastmile_qr_scan"}, "lon": -77.02822116666667, "name": "a5e0f1c760ed7109a98125633e01fd98", "lat": 38.917561666666664, "is_reserved": 0, "fusion_lat": 0.0, "bike_id": "a5e0f1c760ed7109a98125633e01fd98", "type": "electric_scooter", "is_disabled": 0, "fusion_lon": 0.0}, {"rental_uris": {"android": "https://dc.lft.to/lastmile_qr_scan", "ios": "https://dc.lft.to/lastmile_qr_scan"}, "lon": -77.0352765, "name": "6f00edb5af60481faad9449bfca3729a", "lat": 38.92543033333333, "is_reserved": 0, "fusion_lat": 0.0, "bike_id": "6f00edb5af60481faad9449bfca3729a", "type": "electric_scooter", "is_disabled": 0, "fusion_lon": 0.0}, {"rental_uris": {"android": "https://dc.lft.to/lastmile_qr_scan", "ios": "https://dc.lft.to/lastmile_qr_scan"}, "lon": -77.11739116666666, "name": "f8cadf34ce47343b026d3adcdde30269", "lat": 39.051012, "is_reserved": 0, "fusion_lat": 0.0, "bike_id": "f8cadf34ce47343b026d3adcdde30269", "type": "electric_bike", "is_disabled": 0, "fusion_lon": 0.0}, {"rental_uris": {"android": "https://dc.lft.to/lastmile_qr_scan", "ios": "https://dc.lft.to/lastmile_qr_scan"}, "lon": -77.04491066666667, "name": "453accb4b26033c9513bd7f9beec0289", "lat": 38.89747583333333, "is_reserved": 0, "fusion_lat": 0.0, "bike_id": "453accb4b26033c9513bd7f9beec0289", "type": "electric_scooter", "is_disabled": 0, "fusion_lon": 0.0}, {"rental_uris": {"android": "https://dc.lft.to/lastmile_qr_scan", "ios": "https://dc.lft.to/lastmile_qr_scan"}, "lon": -76.99041433333333, "name": "97ca6aedcfcb329433b2700c229e0410", "lat": 38.86391033333334, "is_reserved": 0, "fusion_lat": 0.0, "bike_id": "97ca6aedcfcb329433b2700c229e0410", "type": "electric_scooter", "is_disabled": 0, "fusion_lon": 0.0}, {"rental_uris": {"android": "https://dc.lft.to/lastmile_qr_scan", "ios": "https://dc.lft.to/lastmile_qr_scan"}, "lon": -76.9923345, "name": "d9799a31ebabebd7cd8ca1855a31f9a0", "lat": 38.907921, "is_reserved": 0, "fusion_lat": 0.0, "bike_id": "d9799a31ebabebd7cd8ca1855a31f9a0", "type": "electric_scooter", "is_disabled": 0, "fusion_lon": 0.0}, {"rental_uris": {"android": "https://dc.lft.to/lastmile_qr_scan", "ios": "https://dc.lft.to/lastmile_qr_scan"}, "lon": -76.9605705, "name": "dc875dc3c9825717d719af421a8822d8", "lat": 38.883937833333334, "is_reserved": 0, "fusion_lat": 0.0, "bike_id": "dc875dc3c9825717d719af421a8822d8", "type": "electric_bike", "is_disabled": 0, "fusion_lon": 0.0}, {"rental_uris": {"android": "https://dc.lft.to/lastmile_qr_scan", "ios": "https://dc.lft.to/lastmile_qr_scan"}, "lon": -77.02813383333333, "name": "ee8f5ec8e64ba8ae6f1e091bf553f056", "lat": 38.903577166666665, "is_reserved": 0, "fusion_lat": 0.0, "bike_id": "ee8f5ec8e64ba8ae6f1e091bf553f056", "type": "electric_scooter", "is_disabled": 0, "fusion_lon": 0.0}, {"rental_uris": {"android": "https://dc.lft.to/lastmile_qr_scan", "ios": "https://dc.lft.to/lastmile_qr_scan"}, "lon": -77.03854, "name": "f1f54df8f3c7c26b4610e9601383e5e8", "lat": 38.902672833333334, "is_reserved": 0, "fusion_lat": 0.0, "bike_id": "f1f54df8f3c7c26b4610e9601383e5e8", "type": "electric_scooter", "is_disabled": 0, "fusion_lon": 0.0}, {"rental_uris": {"android": "https://dc.lft.to/lastmile_qr_scan", "ios": "https://dc.lft.to/lastmile_qr_scan"}, "lon": -77.034982, "name": "0a4836de43c3b893851974d9878e09ad", "lat": 38.928653833333335, "is_reserved": 0, "fusion_lat": 0.0, "bike_id": "0a4836de43c3b893851974d9878e09ad", "type": "electric_scooter", "is_disabled": 0, "fusion_lon": 0.0}, {"rental_uris": {"android": "https://dc.lft.to/lastmile_qr_scan", "ios": "https://dc.lft.to/lastmile_qr_scan"}, "lon": -77.01204883333334, "name": "2a96046295b001f4c9774ac6faf81d6a", "lat": 38.915758333333336, "is_reserved": 0, "fusion_lat": 0.0, "bike_id": "2a96046295b001f4c9774ac6faf81d6a", "type": "electric_scooter", "is_disabled": 0, "fusion_lon": 0.0}, {"rental_uris": {"android": "https://dc.lft.to/lastmile_qr_scan", "ios": "https://dc.lft.to/lastmile_qr_scan"}, "lon": -76.9837455, "name": "7f379811516f995418d46cde1577fe08", "lat": 38.8602975, "is_reserved": 0, "fusion_lat": 0.0, "bike_id": "7f379811516f995418d46cde1577fe08", "type": "electric_scooter", "is_disabled": 0, "fusion_lon": 0.0}, {"rental_uris": {"android": "https://dc.lft.to/lastmile_qr_scan", "ios": "https://dc.lft.to/lastmile_qr_scan"}, "lon": -76.947016, "name": "bc409cda5a3f093865da94a786548cf0", "lat": 38.897285333333336, "is_reserved": 0, "fusion_lat": 0.0, "bike_id": "bc409cda5a3f093865da94a786548cf0", "type": "electric_scooter", "is_disabled": 0, "fusion_lon": 0.0}, {"rental_uris": {"android": "https://dc.lft.to/lastmile_qr_scan", "ios": "https://dc.lft.to/lastmile_qr_scan"}, "lon": -77.02931366666667, "name": "9a682b290000c7571d5f4235bf55e133", "lat": 38.89823883333333, "is_reserved": 0, "fusion_lat": 0.0, "bike_id": "9a682b290000c7571d5f4235bf55e133", "type": "electric_scooter", "is_disabled": 0, "fusion_lon": 0.0}, {"rental_uris": {"android": "https://dc.lft.to/lastmile_qr_scan", "ios": "https://dc.lft.to/lastmile_qr_scan"}, "lon": -77.03661633333333, "name": "e15e19b3f3cd40f1977be2c3ae5b4666", "lat": 38.92252216666667, "is_reserved": 0, "fusion_lat": 0.0, "bike_id": "e15e19b3f3cd40f1977be2c3ae5b4666", "type": "electric_scooter", "is_disabled": 0, "fusion_lon": 0.0}, {"rental_uris": {"android": "https://dc.lft.to/lastmile_qr_scan", "ios": "https://dc.lft.to/lastmile_qr_scan"}, "lon": -77.02183383333333, "name": "278604a084607af5a9b1514d8e8298c5", "lat": 38.899001, "is_reserved": 0, "fusion_lat": 0.0, "bike_id": "278604a084607af5a9b1514d8e8298c5", "type": "electric_scooter", "is_disabled": 0, "fusion_lon": 0.0}, {"rental_uris": {"android": "https://dc.lft.to/lastmile_qr_scan", "ios": "https://dc.lft.to/lastmile_qr_scan"}, "lon": -77.02355133333333, "name": "95d15f6ff589dba07f390ffd6b102b5f", "lat": 38.930001833333336, "is_reserved": 0, "fusion_lat": 0.0, "bike_id": "95d15f6ff589dba07f390ffd6b102b5f", "type": "electric_scooter", "is_disabled": 0, "fusion_lon": 0.0}, {"rental_uris": {"android": "https://dc.lft.to/lastmile_qr_scan", "ios": "https://dc.lft.to/lastmile_qr_scan"}, "lon": -77.04693883333333, "name": "eee809120682d58158685e14782f4529", "lat": 38.892267833333335, "is_reserved": 0, "fusion_lat": 0.0, "bike_id": "eee809120682d58158685e14782f4529", "type": "electric_scooter", "is_disabled": 0, "fusion_lon": 0.0}, {"rental_uris": {"android": "https://dc.lft.to/lastmile_qr_scan", "ios": "https://dc.lft.to/lastmile_qr_scan"}, "lon": -77.01137716666666, "name": "50ab972748e5cfecb9bc8a345cc21ef0", "lat": 38.89994383333333, "is_reserved": 0, "fusion_lat": 0.0, "bike_id": "50ab972748e5cfecb9bc8a345cc21ef0", "type": "electric_scooter", "is_disabled": 0, "fusion_lon": 0.0}, {"rental_uris": {"android": "https://dc.lft.to/lastmile_qr_scan", "ios": "https://dc.lft.to/lastmile_qr_scan"}, "lon": -76.99409616666667, "name": "1ff4a156611b86bbbcf9b9830217ba58", "lat": 38.9100485, "is_reserved": 0, "fusion_lat": 0.0, "bike_id": "1ff4a156611b86bbbcf9b9830217ba58", "type": "electric_scooter", "is_disabled": 0, "fusion_lon": 0.0}, {"rental_uris": {"android": "https://dc.lft.to/lastmile_qr_scan", "ios": "https://dc.lft.to/lastmile_qr_scan"}, "lon": -77.000642, "name": "576ec52e33dadb1b781fbb116d727b50", "lat": 38.88677166666667, "is_reserved": 0, "fusion_lat": 0.0, "bike_id": "576ec52e33dadb1b781fbb116d727b50", "type": "electric_scooter", "is_disabled": 0, "fusion_lon": 0.0}, {"rental_uris": {"android": "https://dc.lft.to/lastmile_qr_scan", "ios": "https://dc.lft.to/lastmile_qr_scan"}, "lon": -76.9425705, "name": "4b1df29fe7c4b1a153e677978e6bb646", "lat": 38.8984625, "is_reserved": 0, "fusion_lat": 0.0, "bike_id": "4b1df29fe7c4b1a153e677978e6bb646", "type": "electric_scooter", "is_disabled": 0, "fusion_lon": 0.0}, {"rental_uris": {"android": "https://dc.lft.to/lastmile_qr_scan", "ios": "https://dc.lft.to/lastmile_qr_scan"}, "lon": -77.0129405, "name": "f14ab067c395cdb6bc31987ca642b1fe", "lat": 38.930297, "is_reserved": 0, "fusion_lat": 0.0, "bike_id": "f14ab067c395cdb6bc31987ca642b1fe", "type": "electric_scooter", "is_disabled": 0, "fusion_lon": 0.0}, {"rental_uris": {"android": "https://dc.lft.to/lastmile_qr_scan", "ios": "https://dc.lft.to/lastmile_qr_scan"}, "lon": -77.00886216666666, "name": "9632aa420cee2fae68dece70cc2bda52", "lat": 38.876758, "is_reserved": 0, "fusion_lat": 0.0, "bike_id": "9632aa420cee2fae68dece70cc2bda52", "type": "electric_scooter", "is_disabled": 0, "fusion_lon": 0.0}, {"rental_uris": {"android": "https://dc.lft.to/lastmile_qr_scan", "ios": "https://dc.lft.to/lastmile_qr_scan"}, "lon": -77.01483466666667, "name": "62e1e61e233c9338dfd8e3850b57afee", "lat": 38.919223833333334, "is_reserved": 0, "fusion_lat": 0.0, "bike_id": "62e1e61e233c9338dfd8e3850b57afee", "type": "electric_scooter", "is_disabled": 0, "fusion_lon": 0.0}, {"rental_uris": {"android": "https://dc.lft.to/lastmile_qr_scan", "ios": "https://dc.lft.to/lastmile_qr_scan"}, "lon": -76.99452666666667, "name": "9d0a879be65ff342202ee9c063097458", "lat": 38.8776325, "is_reserved": 0, "fusion_lat": 0.0, "bike_id": "9d0a879be65ff342202ee9c063097458", "type": "electric_scooter", "is_disabled": 0, "fusion_lon": 0.0}, {"rental_uris": {"android": "https://dc.lft.to/lastmile_qr_scan", "ios": "https://dc.lft.to/lastmile_qr_scan"}, "lon": -77.036303, "name": "8d5343540cb0f11731eaa24355521336", "lat": 38.91686966666666, "is_reserved": 0, "fusion_lat": 0.0, "bike_id": "8d5343540cb0f11731eaa24355521336", "type": "electric_scooter", "is_disabled": 0, "fusion_lon": 0.0}, {"rental_uris": {"android": "https://dc.lft.to/lastmile_qr_scan", "ios": "https://dc.lft.to/lastmile_qr_scan"}, "lon": -77.02825683333333, "name": "5e930a546a52a6bc9cc0e3caab1c3216", "lat": 38.956189333333334, "is_reserved": 0, "fusion_lat": 0.0, "bike_id": "5e930a546a52a6bc9cc0e3caab1c3216", "type": "electric_scooter", "is_disabled": 0, "fusion_lon": 0.0}, {"rental_uris": {"android": "https://dc.lft.to/lastmile_qr_scan", "ios": "https://dc.lft.to/lastmile_qr_scan"}, "lon": -77.05508633333334, "name": "07fc993369f0da3f8c7676656606aaa4", "lat": 38.9295295, "is_reserved": 0, "fusion_lat": 0.0, "bike_id": "07fc993369f0da3f8c7676656606aaa4", "type": "electric_scooter", "is_disabled": 0, "fusion_lon": 0.0}, {"rental_uris": {"android": "https://dc.lft.to/lastmile_qr_scan", "ios": "https://dc.lft.to/lastmile_qr_scan"}, "lon": -77.18740316666667, "name": "f6c727987d41cdcc24d87b4480351e35", "lat": 38.893525833333335, "is_reserved": 0, "fusion_lat": 0.0, "bike_id": "f6c727987d41cdcc24d87b4480351e35", "type": "electric_bike", "is_disabled": 0, "fusion_lon": 0.0}, {"rental_uris": {"android": "https://dc.lft.to/lastmile_qr_scan", "ios": "https://dc.lft.to/lastmile_qr_scan"}, "lon": -76.99779566666666, "name": "0efe762a84c1fd08d8083c499c8cd149", "lat": 38.84436383333333, "is_reserved": 0, "fusion_lat": 0.0, "bike_id": "0efe762a84c1fd08d8083c499c8cd149", "type": "electric_scooter", "is_disabled": 0, "fusion_lon": 0.0}, {"rental_uris": {"android": "https://dc.lft.to/lastmile_qr_scan", "ios": "https://dc.lft.to/lastmile_qr_scan"}, "lon": -77.03961183333334, "name": "087be5890e23f3fe88f379436968b839", "lat": 38.9333485, "is_reserved": 0, "fusion_lat": 0.0, "bike_id": "087be5890e23f3fe88f379436968b839", "type": "electric_bike", "is_disabled": 0, "fusion_lon": 0.0}, {"rental_uris": {"android": "https://dc.lft.to/lastmile_qr_scan", "ios": "https://dc.lft.to/lastmile_qr_scan"}, "lon": -77.04447116666667, "name": "67a287354773b5bf56520d341aca81d6", "lat": 38.910998, "is_reserved": 0, "fusion_lat": 0.0, "bike_id": "67a287354773b5bf56520d341aca81d6", "type": "electric_scooter", "is_disabled": 0, "fusion_lon": 0.0}, {"rental_uris": {"android": "https://dc.lft.to/lastmile_qr_scan", "ios": "https://dc.lft.to/lastmile_qr_scan"}, "lon": -77.03840983333333, "name": "7b79cdffdfb093e51b54e891cfe33494", "lat": 38.90977566666667, "is_reserved": 0, "fusion_lat": 0.0, "bike_id": "7b79cdffdfb093e51b54e891cfe33494", "type": "electric_scooter", "is_disabled": 0, "fusion_lon": 0.0}, {"rental_uris": {"android": "https://dc.lft.to/lastmile_qr_scan", "ios": "https://dc.lft.to/lastmile_qr_scan"}, "lon": -77.0240055, "name": "ba50effd7b344702b60f5f8a4173d3df", "lat": 38.916716, "is_reserved": 0, "fusion_lat": 0.0, "bike_id": "ba50effd7b344702b60f5f8a4173d3df", "type": "electric_scooter", "is_disabled": 0, "fusion_lon": 0.0}, {"rental_uris": {"android": "https://dc.lft.to/lastmile_qr_scan", "ios": "https://dc.lft.to/lastmile_qr_scan"}, "lon": -76.95198116666667, "name": "541e659405f8b462fc6948c0f31f7685", "lat": 39.084497666666664, "is_reserved": 0, "fusion_lat": 0.0, "bike_id": "541e659405f8b462fc6948c0f31f7685", "type": "electric_bike", "is_disabled": 0, "fusion_lon": 0.0}, {"rental_uris": {"android": "https://dc.lft.to/lastmile_qr_scan", "ios": "https://dc.lft.to/lastmile_qr_scan"}, "lon": -77.04302183333333, "name": "4829f0caa82dd3fa82252e18f1e81d13", "lat": 38.926525, "is_reserved": 0, "fusion_lat": 0.0, "bike_id": "4829f0caa82dd3fa82252e18f1e81d13", "type": "electric_scooter", "is_disabled": 0, "fusion_lon": 0.0}, {"rental_uris": {"android": "https://dc.lft.to/lastmile_qr_scan", "ios": "https://dc.lft.to/lastmile_qr_scan"}, "lon": -77.0268205, "name": "4578f9832bd881469a3888bb5da4546a", "lat": 38.92392266666667, "is_reserved": 0, "fusion_lat": 0.0, "bike_id": "4578f9832bd881469a3888bb5da4546a", "type": "electric_scooter", "is_disabled": 0, "fusion_lon": 0.0}, {"rental_uris": {"android": "https://dc.lft.to/lastmile_qr_scan", "ios": "https://dc.lft.to/lastmile_qr_scan"}, "lon": -77.04478633333333, "name": "51087375e343f114c87af024d5625e85", "lat": 38.91863416666666, "is_reserved": 0, "fusion_lat": 0.0, "bike_id": "51087375e343f114c87af024d5625e85", "type": "electric_scooter", "is_disabled": 0, "fusion_lon": 0.0}, {"rental_uris": {"android": "https://dc.lft.to/lastmile_qr_scan", "ios": "https://dc.lft.to/lastmile_qr_scan"}, "lon": -77.00273633333333, "name": "35c71affa28558835cbb4aac5569051f", "lat": 38.952384333333335, "is_reserved": 0, "fusion_lat": 0.0, "bike_id": "35c71affa28558835cbb4aac5569051f", "type": "electric_bike", "is_disabled": 0, "fusion_lon": 0.0}, {"rental_uris": {"android": "https://dc.lft.to/lastmile_qr_scan", "ios": "https://dc.lft.to/lastmile_qr_scan"}, "lon": -77.02385066666666, "name": "291145fca10832b20e86f013c64bbd4e", "lat": 38.90892066666667, "is_reserved": 0, "fusion_lat": 0.0, "bike_id": "291145fca10832b20e86f013c64bbd4e", "type": "electric_scooter", "is_disabled": 0, "fusion_lon": 0.0}, {"rental_uris": {"android": "https://dc.lft.to/lastmile_qr_scan", "ios": "https://dc.lft.to/lastmile_qr_scan"}, "lon": -77.02799216666666, "name": "ddedb748e0e0c3e61ebcad3accd27a68", "lat": 38.917126833333334, "is_reserved": 0, "fusion_lat": 0.0, "bike_id": "ddedb748e0e0c3e61ebcad3accd27a68", "type": "electric_scooter", "is_disabled": 0, "fusion_lon": 0.0}, {"rental_uris": {"android": "https://dc.lft.to/lastmile_qr_scan", "ios": "https://dc.lft.to/lastmile_qr_scan"}, "lon": -77.062992, "name": "945105a87bc1c449fb5656da6ce1b58e", "lat": 38.943742666666665, "is_reserved": 0, "fusion_lat": 0.0, "bike_id": "945105a87bc1c449fb5656da6ce1b58e", "type": "electric_scooter", "is_disabled": 0, "fusion_lon": 0.0}, {"rental_uris": {"android": "https://dc.lft.to/lastmile_qr_scan", "ios": "https://dc.lft.to/lastmile_qr_scan"}, "lon": -76.98714716666667, "name": "069a16f82be0cc4d452a743564bcbb6f", "lat": 38.86631883333333, "is_reserved": 0, "fusion_lat": 0.0, "bike_id": "069a16f82be0cc4d452a743564bcbb6f", "type": "electric_scooter", "is_disabled": 0, "fusion_lon": 0.0}, {"rental_uris": {"android": "https://dc.lft.to/lastmile_qr_scan", "ios": "https://dc.lft.to/lastmile_qr_scan"}, "lon": -77.0171865, "name": "01d9209e1e6bd97eba684922ca9f07b9", "lat": 38.89230216666667, "is_reserved": 0, "fusion_lat": 0.0, "bike_id": "01d9209e1e6bd97eba684922ca9f07b9", "type": "electric_scooter", "is_disabled": 0, "fusion_lon": 0.0}, {"rental_uris": {"android": "https://dc.lft.to/lastmile_qr_scan", "ios": "https://dc.lft.to/lastmile_qr_scan"}, "lon": -77.0019655, "name": "db99a9eb871b2a7352d2cd508b178eae", "lat": 38.90591283333333, "is_reserved": 0, "fusion_lat": 0.0, "bike_id": "db99a9eb871b2a7352d2cd508b178eae", "type": "electric_scooter", "is_disabled": 0, "fusion_lon": 0.0}, {"rental_uris": {"android": "https://dc.lft.to/lastmile_qr_scan", "ios": "https://dc.lft.to/lastmile_qr_scan"}, "lon": -77.12489416666666, "name": "bbdda146b39cd6e94acb85e72641d179", "lat": 38.82793483333333, "is_reserved": 0, "fusion_lat": 0.0, "bike_id": "bbdda146b39cd6e94acb85e72641d179", "type": "electric_bike", "is_disabled": 0, "fusion_lon": 0.0}, {"rental_uris": {"android": "https://dc.lft.to/lastmile_qr_scan", "ios": "https://dc.lft.to/lastmile_qr_scan"}, "lon": -77.01572616666667, "name": "b0e337bca49fcc6f738958c75cc621a6", "lat": 38.9268595, "is_reserved": 0, "fusion_lat": 0.0, "bike_id": "b0e337bca49fcc6f738958c75cc621a6", "type": "electric_scooter", "is_disabled": 0, "fusion_lon": 0.0}, {"rental_uris": {"android": "https://dc.lft.to/lastmile_qr_scan", "ios": "https://dc.lft.to/lastmile_qr_scan"}, "lon": -77.0550975, "name": "19a1c684511ba08b67f9c66ceb9c5e80", "lat": 38.899653666666666, "is_reserved": 0, "fusion_lat": 0.0, "bike_id": "19a1c684511ba08b67f9c66ceb9c5e80", "type": "electric_scooter", "is_disabled": 0, "fusion_lon": 0.0}, {"rental_uris": {"android": "https://dc.lft.to/lastmile_qr_scan", "ios": "https://dc.lft.to/lastmile_qr_scan"}, "lon": -77.02952, "name": "74b5f3274a92d0c545fdfe1134932c88", "lat": 38.90501866666666, "is_reserved": 0, "fusion_lat": 0.0, "bike_id": "74b5f3274a92d0c545fdfe1134932c88", "type": "electric_scooter", "is_disabled": 0, "fusion_lon": 0.0}, {"rental_uris": {"android": "https://dc.lft.to/lastmile_qr_scan", "ios": "https://dc.lft.to/lastmile_qr_scan"}, "lon": -77.02694683333333, "name": "c02f40200c59fd1a56b98d2e67c256ab", "lat": 38.902403666666665, "is_reserved": 0, "fusion_lat": 0.0, "bike_id": "c02f40200c59fd1a56b98d2e67c256ab", "type": "electric_scooter", "is_disabled": 0, "fusion_lon": 0.0}, {"rental_uris": {"android": "https://dc.lft.to/lastmile_qr_scan", "ios": "https://dc.lft.to/lastmile_qr_scan"}, "lon": -76.9865475, "name": "b486c82e44c4a5960f1849e1644ef8d8", "lat": 38.858049333333334, "is_reserved": 0, "fusion_lat": 0.0, "bike_id": "b486c82e44c4a5960f1849e1644ef8d8", "type": "electric_scooter", "is_disabled": 0, "fusion_lon": 0.0}, {"rental_uris": {"android": "https://dc.lft.to/lastmile_qr_scan", "ios": "https://dc.lft.to/lastmile_qr_scan"}, "lon": -77.04864766666667, "name": "e13438c65d4b066ea3b526c4e95c4dc7", "lat": 38.909609, "is_reserved": 0, "fusion_lat": 0.0, "bike_id": "e13438c65d4b066ea3b526c4e95c4dc7", "type": "electric_scooter", "is_disabled": 0, "fusion_lon": 0.0}, {"rental_uris": {"android": "https://dc.lft.to/lastmile_qr_scan", "ios": "https://dc.lft.to/lastmile_qr_scan"}, "lon": -77.03716083333333, "name": "f3f49a9504a31e9374ed222c57dd378d", "lat": 38.92645566666667, "is_reserved": 0, "fusion_lat": 0.0, "bike_id": "f3f49a9504a31e9374ed222c57dd378d", "type": "electric_scooter", "is_disabled": 0, "fusion_lon": 0.0}, {"rental_uris": {"android": "https://dc.lft.to/lastmile_qr_scan", "ios": "https://dc.lft.to/lastmile_qr_scan"}, "lon": -77.01532966666667, "name": "e2be580b90664291af16665eb9f5f43b", "lat": 38.884, "is_reserved": 0, "fusion_lat": 0.0, "bike_id": "e2be580b90664291af16665eb9f5f43b", "type": "electric_scooter", "is_disabled": 0, "fusion_lon": 0.0}, {"rental_uris": {"android": "https://dc.lft.to/lastmile_qr_scan", "ios": "https://dc.lft.to/lastmile_qr_scan"}, "lon": -77.017673, "name": "1477bfba2032a55e69fb55bdc9ee5c46", "lat": 38.884127, "is_reserved": 0, "fusion_lat": 0.0, "bike_id": "1477bfba2032a55e69fb55bdc9ee5c46", "type": "electric_scooter", "is_disabled": 0, "fusion_lon": 0.0}, {"rental_uris": {"android": "https://dc.lft.to/lastmile_qr_scan", "ios": "https://dc.lft.to/lastmile_qr_scan"}, "lon": -77.02499666666667, "name": "4c59651a2050cd9dfb0d7ed827f2454c", "lat": 38.941747, "is_reserved": 0, "fusion_lat": 0.0, "bike_id": "4c59651a2050cd9dfb0d7ed827f2454c", "type": "electric_scooter", "is_disabled": 0, "fusion_lon": 0.0}, {"rental_uris": {"android": "https://dc.lft.to/lastmile_qr_scan", "ios": "https://dc.lft.to/lastmile_qr_scan"}, "lon": -76.99564883333333, "name": "c1908892f1f0713f9649f56d8f5b02fb", "lat": 38.920675833333334, "is_reserved": 0, "fusion_lat": 0.0, "bike_id": "c1908892f1f0713f9649f56d8f5b02fb", "type": "electric_scooter", "is_disabled": 0, "fusion_lon": 0.0}, {"rental_uris": {"android": "https://dc.lft.to/lastmile_qr_scan", "ios": "https://dc.lft.to/lastmile_qr_scan"}, "lon": -77.0324295, "name": "b46848c0887cc09bba43926b9980450b", "lat": 38.92728966666667, "is_reserved": 0, "fusion_lat": 0.0, "bike_id": "b46848c0887cc09bba43926b9980450b", "type": "electric_scooter", "is_disabled": 0, "fusion_lon": 0.0}, {"rental_uris": {"android": "https://dc.lft.to/lastmile_qr_scan", "ios": "https://dc.lft.to/lastmile_qr_scan"}, "lon": -77.03268083333333, "name": "d4fbf9d739917005ac5b9c81139ccb6d", "lat": 38.93255, "is_reserved": 0, "fusion_lat": 0.0, "bike_id": "d4fbf9d739917005ac5b9c81139ccb6d", "type": "electric_scooter", "is_disabled": 0, "fusion_lon": 0.0}, {"rental_uris": {"android": "https://dc.lft.to/lastmile_qr_scan", "ios": "https://dc.lft.to/lastmile_qr_scan"}, "lon": -77.03340816666666, "name": "76e02da7bfe5d8bdfecd32e99d6cf630", "lat": 38.898334166666665, "is_reserved": 0, "fusion_lat": 0.0, "bike_id": "76e02da7bfe5d8bdfecd32e99d6cf630", "type": "electric_scooter", "is_disabled": 0, "fusion_lon": 0.0}, {"rental_uris": {"android": "https://dc.lft.to/lastmile_qr_scan", "ios": "https://dc.lft.to/lastmile_qr_scan"}, "lon": -76.985752, "name": "2c8826feb856d4cb97cf8f1ec29c365a", "lat": 38.8668585, "is_reserved": 0, "fusion_lat": 0.0, "bike_id": "2c8826feb856d4cb97cf8f1ec29c365a", "type": "electric_scooter", "is_disabled": 0, "fusion_lon": 0.0}, {"rental_uris": {"android": "https://dc.lft.to/lastmile_qr_scan", "ios": "https://dc.lft.to/lastmile_qr_scan"}, "lon": -77.02979283333333, "name": "8b249aafa1b222811888b5f4e7b50058", "lat": 38.923594666666666, "is_reserved": 0, "fusion_lat": 0.0, "bike_id": "8b249aafa1b222811888b5f4e7b50058", "type": "electric_scooter", "is_disabled": 0, "fusion_lon": 0.0}, {"rental_uris": {"android": "https://dc.lft.to/lastmile_qr_scan", "ios": "https://dc.lft.to/lastmile_qr_scan"}, "lon": -77.02147966666666, "name": "4b90187882f45bbbe6ed0da91c1ac565", "lat": 38.923377333333335, "is_reserved": 0, "fusion_lat": 0.0, "bike_id": "4b90187882f45bbbe6ed0da91c1ac565", "type": "electric_scooter", "is_disabled": 0, "fusion_lon": 0.0}, {"rental_uris": {"android": "https://dc.lft.to/lastmile_qr_scan", "ios": "https://dc.lft.to/lastmile_qr_scan"}, "lon": -77.01462166666667, "name": "51d705106df4cd82b916c9343f795929", "lat": 38.97501533333333, "is_reserved": 0, "fusion_lat": 0.0, "bike_id": "51d705106df4cd82b916c9343f795929", "type": "electric_scooter", "is_disabled": 0, "fusion_lon": 0.0}, {"rental_uris": {"android": "https://dc.lft.to/lastmile_qr_scan", "ios": "https://dc.lft.to/lastmile_qr_scan"}, "lon": -77.017149, "name": "9ec1c93a286eebb37b500e4b5c6f4bd2", "lat": 38.90075983333333, "is_reserved": 0, "fusion_lat": 0.0, "bike_id": "9ec1c93a286eebb37b500e4b5c6f4bd2", "type": "electric_scooter", "is_disabled": 0, "fusion_lon": 0.0}, {"rental_uris": {"android": "https://dc.lft.to/lastmile_qr_scan", "ios": "https://dc.lft.to/lastmile_qr_scan"}, "lon": -76.9819675, "name": "db2ce4cebe357eb09d763fd7c60c1a20", "lat": 38.92062283333333, "is_reserved": 0, "fusion_lat": 0.0, "bike_id": "db2ce4cebe357eb09d763fd7c60c1a20", "type": "electric_scooter", "is_disabled": 0, "fusion_lon": 0.0}, {"rental_uris": {"android": "https://dc.lft.to/lastmile_qr_scan", "ios": "https://dc.lft.to/lastmile_qr_scan"}, "lon": -77.02481816666666, "name": "d43d9a8b1719caf59a720a7331965ade", "lat": 38.938834666666665, "is_reserved": 0, "fusion_lat": 0.0, "bike_id": "d43d9a8b1719caf59a720a7331965ade", "type": "electric_scooter", "is_disabled": 0, "fusion_lon": 0.0}, {"rental_uris": {"android": "https://dc.lft.to/lastmile_qr_scan", "ios": "https://dc.lft.to/lastmile_qr_scan"}, "lon": -77.00052866666667, "name": "af20bbc357a6924ac7c846708e7854e3", "lat": 38.894345, "is_reserved": 0, "fusion_lat": 0.0, "bike_id": "af20bbc357a6924ac7c846708e7854e3", "type": "electric_scooter", "is_disabled": 0, "fusion_lon": 0.0}, {"rental_uris": {"android": "https://dc.lft.to/lastmile_qr_scan", "ios": "https://dc.lft.to/lastmile_qr_scan"}, "lon": -77.03625733333334, "name": "5d5d7611800cd809f9b74f639764932b", "lat": 38.932854166666665, "is_reserved": 0, "fusion_lat": 0.0, "bike_id": "5d5d7611800cd809f9b74f639764932b", "type": "electric_bike", "is_disabled": 0, "fusion_lon": 0.0}, {"rental_uris": {"android": "https://dc.lft.to/lastmile_qr_scan", "ios": "https://dc.lft.to/lastmile_qr_scan"}, "lon": -76.9856475, "name": "25867e714b2a647195345777482b1135", "lat": 38.86685133333334, "is_reserved": 0, "fusion_lat": 0.0, "bike_id": "25867e714b2a647195345777482b1135", "type": "electric_scooter", "is_disabled": 0, "fusion_lon": 0.0}, {"rental_uris": {"android": "https://dc.lft.to/lastmile_qr_scan", "ios": "https://dc.lft.to/lastmile_qr_scan"}, "lon": -77.022071, "name": "dd3fafa33d0f2ad5f656ef79d59625bc", "lat": 38.892287833333334, "is_reserved": 0, "fusion_lat": 0.0, "bike_id": "dd3fafa33d0f2ad5f656ef79d59625bc", "type": "electric_scooter", "is_disabled": 0, "fusion_lon": 0.0}, {"rental_uris": {"android": "https://dc.lft.to/lastmile_qr_scan", "ios": "https://dc.lft.to/lastmile_qr_scan"}, "lon": -77.05028983333334, "name": "c5970fe81e7bd54e92e3c4aa8ab93b4b", "lat": 38.9236565, "is_reserved": 0, "fusion_lat": 0.0, "bike_id": "c5970fe81e7bd54e92e3c4aa8ab93b4b", "type": "electric_scooter", "is_disabled": 0, "fusion_lon": 0.0}, {"rental_uris": {"android": "https://dc.lft.to/lastmile_qr_scan", "ios": "https://dc.lft.to/lastmile_qr_scan"}, "lon": -77.018867, "name": "c5e2a9e41b6a1719f6e1f58482752b5b", "lat": 38.900558833333335, "is_reserved": 0, "fusion_lat": 0.0, "bike_id": "c5e2a9e41b6a1719f6e1f58482752b5b", "type": "electric_scooter", "is_disabled": 0, "fusion_lon": 0.0}, {"rental_uris": {"android": "https://dc.lft.to/lastmile_qr_scan", "ios": "https://dc.lft.to/lastmile_qr_scan"}, "lon": -77.00424833333334, "name": "9e5ecdf58985291e0f8c85c268f2b5d6", "lat": 38.87696283333333, "is_reserved": 0, "fusion_lat": 0.0, "bike_id": "9e5ecdf58985291e0f8c85c268f2b5d6", "type": "electric_scooter", "is_disabled": 0, "fusion_lon": 0.0}, {"rental_uris": {"android": "https://dc.lft.to/lastmile_qr_scan", "ios": "https://dc.lft.to/lastmile_qr_scan"}, "lon": -76.9937545, "name": "d5be058125c4f12bcf3132bf44e2fed8", "lat": 38.990989166666665, "is_reserved": 0, "fusion_lat": 0.0, "bike_id": "d5be058125c4f12bcf3132bf44e2fed8", "type": "electric_bike", "is_disabled": 0, "fusion_lon": 0.0}, {"rental_uris": {"android": "https://dc.lft.to/lastmile_qr_scan", "ios": "https://dc.lft.to/lastmile_qr_scan"}, "lon": -77.026649, "name": "79c4c2c5766c4d4990517bd2fb3e6ae2", "lat": 38.93101883333333, "is_reserved": 0, "fusion_lat": 0.0, "bike_id": "79c4c2c5766c4d4990517bd2fb3e6ae2", "type": "electric_scooter", "is_disabled": 0, "fusion_lon": 0.0}, {"rental_uris": {"android": "https://dc.lft.to/lastmile_qr_scan", "ios": "https://dc.lft.to/lastmile_qr_scan"}, "lon": -77.03332366666666, "name": "59e916c1ed318ebfa7e7fa5fc4e2852d", "lat": 38.97211183333334, "is_reserved": 0, "fusion_lat": 0.0, "bike_id": "59e916c1ed318ebfa7e7fa5fc4e2852d", "type": "electric_bike", "is_disabled": 0, "fusion_lon": 0.0}, {"rental_uris": {"android": "https://dc.lft.to/lastmile_qr_scan", "ios": "https://dc.lft.to/lastmile_qr_scan"}, "lon": -77.0278435, "name": "a07757d46a2f9f7f78c0dfef03cbf62e", "lat": 38.938659333333334, "is_reserved": 0, "fusion_lat": 0.0, "bike_id": "a07757d46a2f9f7f78c0dfef03cbf62e", "type": "electric_scooter", "is_disabled": 0, "fusion_lon": 0.0},