{"data": {"bikes": [{"name": "22b7eea0d9744f3b9c0ee635136aeb4d", "fusion_lat": 0.0, "type": "electric_scooter", "lat": 38.9019905, "is_reserved": 0, "is_disabled": 0, "fusion_lon": 0.0, "bike_id": "22b7eea0d9744f3b9c0ee635136aeb4d", "lon": -77.02176883333334, "rental_uris": {"ios": "https://dc.lft.to/lastmile_qr_scan", "android": "https://dc.lft.to/lastmile_qr_scan"}}, {"name": "e6fef3addceb444a408e011d71bb32a9", "fusion_lat": 0.0, "type": "electric_scooter", "lat": 38.884306333333335, "is_reserved": 0, "is_disabled": 0, "fusion_lon": 0.0, "bike_id": "e6fef3addceb444a408e011d71bb32a9", "lon": -77.019536, "rental_uris": {"ios": "https://dc.lft.to/lastmile_qr_scan", "android": "https://dc.lft.to/lastmile_qr_scan"}}, {"name": "a378d6ccc2e7e77507fbccc032045f21", "fusion_lat": 0.0, "type": "electric_scooter", "lat": 38.89970316666667, "is_reserved": 0, "is_disabled": 0, "fusion_lon": 0.0, "bike_id": "a378d6ccc2e7e77507fbccc032045f21", "lon": -77.0570325, "rental_uris": {"ios": "https://dc.lft.to/lastmile_qr_scan", "android": "https://dc.lft.to/lastmile_qr_scan"}}, {"name": "81f4e6a8bc66cdea60f02a1a8ed30a2a", "fusion_lat": 0.0, "type": "electric_scooter", "lat": 38.918009833333336, "is_reserved": 0, "is_disabled": 0, "fusion_lon": 0.0, "bike_id": "81f4e6a8bc66cdea60f02a1a8ed30a2a", "lon": -77.03443283333333, "rental_uris": {"ios": "https://dc.lft.to/lastmile_qr_scan", "android": "https://dc.lft.to/lastmile_qr_scan"}}, {"name": "192e08f750914c9767d099b7f4baeeea", "fusion_lat": 0.0, "type": "electric_scooter", "lat": 38.87652666666666, "is_reserved": 0, "is_disabled": 0, "fusion_lon": 0.0, "bike_id": "192e08f750914c9767d099b7f4baeeea", "lon": -77.00746133333334, "rental_uris": {"ios": "https://dc.lft.to/lastmile_qr_scan", "android": "https://dc.lft.to/lastmile_qr_scan"}}, {"name": "4794a06042daa48cdaf11e67a53bf4b7", "fusion_lat": 0.0, "type": "electric_bike", "lat": 38.8287815, "is_reserved": 0, "is_disabled": 0, "fusion_lon": 0.0, "bike_id": "4794a06042daa48cdaf11e67a53bf4b7", "lon": -77.11218583333333, "rental_uris": {"ios": "https://dc.lft.to/lastmile_qr_scan", "android": "https://dc.lft.to/lastmile_qr_scan"}}, {"name": "fb191baa45ba40463bf9512ff70c0a1e", "fusion_lat": 0.0, "type": "electric_scooter", "lat": 38.89601866666667, "is_reserved": 0, "is_disabled": 0, "fusion_lon": 0.0, "bike_id": "fb191baa45ba40463bf9512ff70c0a1e", "lon": -77.04751283333333, "rental_uris": {"ios": "https://dc.lft.to/lastmile_qr_scan", "android": "https://dc.lft.to/lastmile_qr_scan"}}, {"name": "efbb4e891b9997c0a5129bd3cbf519a4", "fusion_lat": 0.0, "type": "electric_scooter", "lat": 38.8765805, "is_reserved": 0, "is_disabled": 0, "fusion_lon": 0.0, "bike_id": "efbb4e891b9997c0a5129bd3cbf519a4", "lon": -77.00807933333333, "rental_uris": {"ios": "https://dc.lft.to/lastmile_qr_scan", "android": "https://dc.lft.to/lastmile_qr_scan"}}, {"name": "7dd8e0dc5e7dca04cef259ccdd06a448", "fusion_lat": 0.0, "type": "electric_scooter", "lat": 38.91804416666667, "is_reserved": 0, "is_disabled": 0, "fusion_lon": 0.0, "bike_id": "7dd8e0dc5e7dca04cef259ccdd06a448", "lon": -77.040002, "rental_uris": {"ios": "https://dc.lft.to/lastmile_qr_scan", "android": "https://dc.lft.to/lastmile_qr_scan"}}, {"name": "29e6eff32f32ecb52f2d16bf13b32e97", "fusion_lat": 0.0, "type": "electric_bike", "lat": 38.9909095, "is_reserved": 0, "is_disabled": 0, "fusion_lon": 0.0, "bike_id": "29e6eff32f32ecb52f2d16bf13b32e97", "lon": -76.87494966666667, "rental_uris": {"ios": "https://dc.lft.to/lastmile_qr_scan", "android": "https://dc.lft.to/lastmile_qr_scan"}}, {"name": "bf4a831479c844dfbde4bb4373f34536", "fusion_lat": 0.0, "type": "electric_scooter", "lat": 38.90963383333333, "is_reserved": 0, "is_disabled": 0, "fusion_lon": 0.0, "bike_id": "bf4a831479c844dfbde4bb4373f34536", "lon": -77.02746566666667, "rental_uris": {"ios": "https://dc.lft.to/lastmile_qr_scan", "android": "https://dc.lft.to/lastmile_qr_scan"}}, {"name": "5ba2a88723bc1246a0e98729e5e56da0", "fusion_lat": 0.0, "type": "electric_scooter", "lat": 38.936065, "is_reserved": 0, "is_disabled": 0, "fusion_lon": 0.0, "bike_id": "5ba2a88723bc1246a0e98729e5e56da0", "lon": -77.05586333333333, "rental_uris": {"ios": "https://dc.lft.to/lastmile_qr_scan", "android": "https://dc.lft.to/lastmile_qr_scan"}}, {"name": "ebc747b2e3943c27513fbd678726ef68", "fusion_lat": 0.0, "type": "electric_scooter", "lat": 38.90512583333334, "is_reserved": 0, "is_disabled": 0, "fusion_lon": 0.0, "bike_id": "ebc747b2e3943c27513fbd678726ef68", "lon": -77.06889683333333, "rental_uris": {"ios": "https://dc.lft.to/lastmile_qr_scan", "android": "https://dc.lft.to/lastmile_qr_scan"}}, {"name": "e92058965b7525871cea278b15423146", "fusion_lat": 0.0, "type": "electric_scooter", "lat": 38.938213166666664, "is_reserved": 0, "is_disabled": 0, "fusion_lon": 0.0, "bike_id": "e92058965b7525871cea278b15423146", "lon": -77.02467833333333, "rental_uris": {"ios": "https://dc.lft.to/lastmile_qr_scan", "android": "https://dc.lft.to/lastmile_qr_scan"}}, {"name": "cafb587a92e1a9a28a5a3daa6a775025", "fusion_lat": 0.0, "type": "electric_scooter", "lat": 38.926004666666664, "is_reserved": 0, "is_disabled": 0, "fusion_lon": 0.0, "bike_id": "cafb587a92e1a9a28a5a3daa6a775025", "lon": -77.02491133333334, "rental_uris": {"ios": "https://dc.lft.to/lastmile_qr_scan", "android": "https://dc.lft.to/lastmile_qr_scan"}}, {"name": "aacc26e0a9379de126310a304967841f", "fusion_lat": 0.0, "type": "electric_scooter", "lat": 38.863696833333336, "is_reserved": 0, "is_disabled": 0, "fusion_lon": 0.0, "bike_id": "aacc26e0a9379de126310a304967841f", "lon": -77.01366083333333, "rental_uris": {"ios": "https://dc.lft.to/lastmile_qr_scan", "android": "https://dc.lft.to/lastmile_qr_scan"}}, {"name": "e26638cf125b2b4a9d4cf0d4f167398a", "fusion_lat": 0.0, "type": "electric_scooter", "lat": 38.90091133333333, "is_reserved": 0, "is_disabled": 0, "fusion_lon": 0.0, "bike_id": "e26638cf125b2b4a9d4cf0d4f167398a", "lon": -77.017808, "rental_uris": {"ios": "https://dc.lft.to/lastmile_qr_scan", "android": "https://dc.lft.to/lastmile_qr_scan"}}, {"name": "ba03c3945da5d5c79e41b79ad23f4dd4", "fusion_lat": 0.0, "type": "electric_scooter", "lat": 38.9064065, "is_reserved": 0, "is_disabled": 0, "fusion_lon": 0.0, "bike_id": "ba03c3945da5d5c79e41b79ad23f4dd4", "lon": -77.013955, "rental_uris": {"ios": "https://dc.lft.to/lastmile_qr_scan", "android": "https://dc.lft.to/lastmile_qr_scan"}}, {"name": "502b006e4881491c1b97ad2ac47b1d07", "fusion_lat": 0.0, "type": "electric_scooter", "lat": 38.911936, "is_reserved": 0, "is_disabled": 0, "fusion_lon": 0.0, "bike_id": "502b006e4881491c1b97ad2ac47b1d07", "lon": -77.00218683333334, "rental_uris": {"ios": "https://dc.lft.to/lastmile_qr_scan", "android": "https://dc.lft.to/lastmile_qr_scan"}}, {"name": "0aa66916aa243b7079e94172a5f6e49b", "fusion_lat": 0.0, "type": "electric_scooter", "lat": 38.89978166666667, "is_reserved": 0, "is_disabled": 0, "fusion_lon": 0.0, "bike_id": "0aa66916aa243b7079e94172a5f6e49b", "lon": -77.03134850000001, "rental_uris": {"ios": "https://dc.lft.to/lastmile_qr_scan", "android": "https://dc.lft.to/lastmile_qr_scan"}}, {"name": "b8a945b67f09cd9901b6d5cb248fd0a6", "fusion_lat": 0.0, "type": "electric_scooter", "lat": 38.93064533333333, "is_reserved": 0, "is_disabled": 0, "fusion_lon": 0.0, "bike_id": "b8a945b67f09cd9901b6d5cb248fd0a6", "lon": -77.03954966666667, "rental_uris": {"ios": "https://dc.lft.to/lastmile_qr_scan", "android": "https://dc.lft.to/lastmile_qr_scan"}}, {"name": "12ac080968bfda1c507079566c0ec423", "fusion_lat": 0.0, "type": "electric_scooter", "lat": 38.903376, "is_reserved": 0, "is_disabled": 0, "fusion_lon": 0.0, "bike_id": "12ac080968bfda1c507079566c0ec423", "lon": -77.04160866666666, "rental_uris": {"ios": "https://dc.lft.to/lastmile_qr_scan", "android": "https://dc.lft.to/lastmile_qr_scan"}}, {"name": "31b2202fa0403ac5ba356ba284762cd7", "fusion_lat": 0.0, "type": "electric_scooter", "lat": 38.91333, "is_reserved": 0, "is_disabled": 0, "fusion_lon": 0.0, "bike_id": "31b2202fa0403ac5ba356ba284762cd7", "lon": -77.03129933333334, "rental_uris": {"ios": "https://dc.lft.to/lastmile_qr_scan", "android": "https://dc.lft.to/lastmile_qr_scan"}}, {"name": "796df59ff332a6790ccf7db5a462ea65", "fusion_lat": 0.0, "type": "electric_scooter", "lat": 38.896073, "is_reserved": 0, "is_disabled": 0, "fusion_lon": 0.0, "bike_id": "796df59ff332a6790ccf7db5a462ea65", "lon": -77.0468055, "rental_uris": {"ios": "https://dc.lft.to/lastmile_qr_scan", "android": "https://dc.lft.to/lastmile_qr_scan"}}, {"name": "8e0672ef6cead97462ae3af67e57d593", "fusion_lat": 0.0, "type": "electric_scooter", "lat": 38.90078533333333, "is_reserved": 0, "is_disabled": 0, "fusion_lon": 0.0, "bike_id": "8e0672ef6cead97462ae3af67e57d593", "lon": -77.051992, "rental_uris": {"ios": "https://dc.lft.to/lastmile_qr_scan", "android": "https://dc.lft.to/lastmile_qr_scan"}}, {"name": "a78cc3c071249e3c02fd8b2dc5c666b4", "fusion_lat": 0.0, "type": "electric_scooter", "lat": 38.917688, "is_reserved": 0, "is_disabled": 0, "fusion_lon": 0.0, "bike_id": "a78cc3c071249e3c02fd8b2dc5c666b4", "lon": -77.02951566666667, "rental_uris": {"ios": "https://dc.lft.to/lastmile_qr_scan", "android": "https://dc.lft.to/lastmile_qr_scan"}}, {"name": "32da3e6c7873de245104a1b8663cb5d5", "fusion_lat": 0.0, "type": "electric_bike", "lat": 38.96838266666666, "is_reserved": 0, "is_disabled": 0, "fusion_lon": 0.0, "bike_id": "32da3e6c7873de245104a1b8663cb5d5", "lon": -77.0333025, "rental_uris": {"ios": "https://dc.lft.to/lastmile_qr_scan", "android": "https://dc.lft.to/lastmile_qr_scan"}}, {"name": "310227973da5244eba8051fb4b0a4322", "fusion_lat": 0.0, "type": "electric_scooter", "lat": 38.8749705, "is_reserved": 0, "is_disabled": 0, "fusion_lon": 0.0, "bike_id": "310227973da5244eba8051fb4b0a4322", "lon": -77.00171433333334, "rental_uris": {"ios": "https://dc.lft.to/lastmile_qr_scan", "android": "https://dc.lft.to/lastmile_qr_scan"}}, {"name": "2265aec4437556c93410515c8bb9328c", "fusion_lat": 0.0, "type": "electric_scooter", "lat": 38.93208416666667, "is_reserved": 0, "is_disabled": 0, "fusion_lon": 0.0, "bike_id": "2265aec4437556c93410515c8bb9328c", "lon": -77.02729283333333, "rental_uris": {"ios": "https://dc.lft.to/lastmile_qr_scan", "android": "https://dc.lft.to/lastmile_qr_scan"}}, {"name": "39b46f7a180918af9abff0049b65e53d", "fusion_lat": 0.0, "type": "electric_scooter", "lat": 38.9122485, "is_reserved": 0, "is_disabled": 0, "fusion_lon": 0.0, "bike_id": "39b46f7a180918af9abff0049b65e53d", "lon": -77.04472166666666, "rental_uris": {"ios": "https://dc.lft.to/lastmile_qr_scan", "android": "https://dc.lft.to/lastmile_qr_scan"}}, {"name": "7a06e589fe48db5f6c1437ded921d456", "fusion_lat": 0.0, "type": "electric_scooter", "lat": 38.899106, "is_reserved": 0, "is_disabled": 0, "fusion_lon": 0.0, "bike_id": "7a06e589fe48db5f6c1437ded921d456", "lon": -77.039304, "rental_uris": {"ios": "https://dc.lft.to/lastmile_qr_scan", "android": "https://dc.lft.to/lastmile_qr_scan"}}, {"name": "53b1eaddc9c3c3a6066054c5a55934ac", "fusion_lat": 0.0, "type": "electric_scooter", "lat": 38.8953935, "is_reserved": 0, "is_disabled": 0, "fusion_lon": 0.0, "bike_id": "53b1eaddc9c3c3a6066054c5a55934ac", "lon": -77.01091583333333, "rental_uris": {"ios": "https://dc.lft.to/lastmile_qr_scan", "android": "https://dc.lft.to/lastmile_qr_scan"}}, {"name": "936abdbaf0eac0ffc581358b5af6da92", "fusion_lat": 0.0, "type": "electric_scooter", "lat": 38.89664883333333, "is_reserved": 0, "is_disabled": 0, "fusion_lon": 0.0, "bike_id": "936abdbaf0eac0ffc581358b5af6da92", "lon": -77.04870216666667, "rental_uris": {"ios": "https://dc.lft.to/lastmile_qr_scan", "android": "https://dc.lft.to/lastmile_qr_scan"}}, {"name": "8438f6497db6733d3279df3cf21e82e0", "fusion_lat": 0.0, "type": "electric_scooter", "lat": 38.924234, "is_reserved": 0, "is_disabled": 0, "fusion_lon": 0.0, "bike_id": "8438f6497db6733d3279df3cf21e82e0", "lon": -77.0518755, "rental_uris": {"ios": "https://dc.lft.to/lastmile_qr_scan", "android": "https://dc.lft.to/lastmile_qr_scan"}}, {"name": "4a4681555c257fdf8c6ab09a1a5d66cd", "fusion_lat": 0.0, "type": "electric_scooter", "lat": 38.892277666666665, "is_reserved": 0, "is_disabled": 0, "fusion_lon": 0.0, "bike_id": "4a4681555c257fdf8c6ab09a1a5d66cd", "lon": -77.04504316666667, "rental_uris": {"ios": "https://dc.lft.to/lastmile_qr_scan", "android": "https://dc.lft.to/lastmile_qr_scan"}}, {"name": "e2ea9b1a59e453b48feafc3affbba327", "fusion_lat": 0.0, "type": "electric_scooter", "lat": 38.9497765, "is_reserved": 0, "is_disabled": 0, "fusion_lon": 0.0, "bike_id": "e2ea9b1a59e453b48feafc3affbba327", "lon": -77.03500033333333, "rental_uris": {"ios": "https://dc.lft.to/lastmile_qr_scan", "android": "https://dc.lft.to/lastmile_qr_scan"}}, {"name": "b011af6325492b6ac68dea497adcfff1", "fusion_lat": 0.0, "type": "electric_bike", "lat": 38.95364633333333, "is_reserved": 0, "is_disabled": 0, "fusion_lon": 0.0, "bike_id": "b011af6325492b6ac68dea497adcfff1", "lon": -77.08857833333333, "rental_uris": {"ios": "https://dc.lft.to/lastmile_qr_scan", "android": "https://dc.lft.to/lastmile_qr_scan"}}, {"name": "e68c0e65eed50cca5beb7d2df29069e0", "fusion_lat": 0.0, "type": "electric_scooter", "lat": 38.9047045, "is_reserved": 0, "is_disabled": 0, "fusion_lon": 0.0, "bike_id": "e68c0e65eed50cca5beb7d2df29069e0", "lon": -77.0416055, "rental_uris": {"ios": "https://dc.lft.to/lastmile_qr_scan", "android": "https://dc.lft.to/lastmile_qr_scan"}}, {"name": "53b384a995eb6ce95b2fbca3014994d2", "fusion_lat": 0.0, "type": "electric_scooter", "lat": 38.89532066666666, "is_reserved": 0, "is_disabled": 0, "fusion_lon": 0.0, "bike_id": "53b384a995eb6ce95b2fbca3014994d2", "lon": -77.03096683333334, "rental_uris": {"ios": "https://dc.lft.to/lastmile_qr_scan", "android": "https://dc.lft.to/lastmile_qr_scan"}}, {"name": "8440d2595cea19470939b472e6f57303", "fusion_lat": 0.0, "type": "electric_scooter", "lat": 38.925109666666664, "is_reserved": 0, "is_disabled": 0, "fusion_lon": 0.0, "bike_id": "8440d2595cea19470939b472e6f57303", "lon": -77.02389633333334, "rental_uris": {"ios": "https://dc.lft.to/lastmile_qr_scan", "android": "https://dc.lft.to/lastmile_qr_scan"}}, {"name": "cace0acbd0ed7c30f4dc8a1474fa8473", "fusion_lat": 0.0, "type": "electric_scooter", "lat": 38.919412333333334, "is_reserved": 0, "is_disabled": 0, "fusion_lon": 0.0, "bike_id": "cace0acbd0ed7c30f4dc8a1474fa8473", "lon": -77.02353533333333, "rental_uris": {"ios": "https://dc.lft.to/lastmile_qr_scan", "android": "https://dc.lft.to/lastmile_qr_scan"}}, {"name": "745ff60a323ec26046bcea730178ded7", "fusion_lat": 0.0, "type": "electric_scooter", "lat": 38.909606333333336, "is_reserved": 0, "is_disabled": 0, "fusion_lon": 0.0, "bike_id": "745ff60a323ec26046bcea730178ded7", "lon": -77.04481366666667, "rental_uris": {"ios": "https://dc.lft.to/lastmile_qr_scan", "android": "https://dc.lft.to/lastmile_qr_scan"}}, {"name": "05cfbf369e5070316f39f0b5076e491b", "fusion_lat": 0.0, "type": "electric_scooter", "lat": 38.90466466666667, "is_reserved": 0, "is_disabled": 0, "fusion_lon": 0.0, "bike_id": "05cfbf369e5070316f39f0b5076e491b", "lon": -77.04172933333334, "rental_uris": {"ios": "https://dc.lft.to/lastmile_qr_scan", "android": "https://dc.lft.to/lastmile_qr_scan"}}, {"name": "101a9edc28f7dbec1a4ac7f91459b527", "fusion_lat": 0.0, "type": "electric_scooter", "lat": 38.90276166666666, "is_reserved": 0, "is_disabled": 0, "fusion_lon": 0.0, "bike_id": "101a9edc28f7dbec1a4ac7f91459b527", "lon": -77.032046, "rental_uris": {"ios": "https://dc.lft.to/lastmile_qr_scan", "android": "https://dc.lft.to/lastmile_qr_scan"}}, {"name": "c36831fbaa6ce0639cca33b37f1cbebf", "fusion_lat": 0.0, "type": "electric_scooter", "lat": 38.9180885, "is_reserved": 0, "is_disabled": 0, "fusion_lon": 0.0, "bike_id": "c36831fbaa6ce0639cca33b37f1cbebf", "lon": -77.01144733333334, "rental_uris": {"ios": "https://dc.lft.to/lastmile_qr_scan", "android": "https://dc.lft.to/lastmile_qr_scan"}}, {"name": "e7c79a7192a1c5a96c3546398a417443", "fusion_lat": 0.0, "type": "electric_scooter", "lat": 38.88837783333334, "is_reserved": 0, "is_disabled": 0, "fusion_lon": 0.0, "bike_id": "e7c79a7192a1c5a96c3546398a417443", "lon": -77.04901716666667, "rental_uris": {"ios": "https://dc.lft.to/lastmile_qr_scan", "android": "https://dc.lft.to/lastmile_qr_scan"}}, {"name": "97abee5ac5cbde610ce69586efb191ef", "fusion_lat": 0.0, "type": "electric_scooter", "lat": 38.89731316666666, "is_reserved": 0, "is_disabled": 0, "fusion_lon": 0.0, "bike_id": "97abee5ac5cbde610ce69586efb191ef", "lon": -77.046523, "rental_uris": {"ios": "https://dc.lft.to/lastmile_qr_scan", "android": "https://dc.lft.to/lastmile_qr_scan"}}, {"name": "c155735f2878e80fe765bdec58e6b86a", "fusion_lat": 0.0, "type": "electric_scooter", "lat": 38.91043966666667, "is_reserved": 0, "is_disabled": 0, "fusion_lon": 0.0, "bike_id": "c155735f2878e80fe765bdec58e6b86a", "lon": -77.04836283333333, "rental_uris": {"ios": "https://dc.lft.to/lastmile_qr_scan", "android": "https://dc.lft.to/lastmile_qr_scan"}}, {"name": "5aa8b248fb3f0f641cf4196433e75de8", "fusion_lat": 0.0, "type": "electric_scooter", "lat": 38.941226, "is_reserved": 0, "is_disabled": 0, "fusion_lon": 0.0, "bike_id": "5aa8b248fb3f0f641cf4196433e75de8", "lon": -77.02045883333334, "rental_uris": {"ios": "https://dc.lft.to/lastmile_qr_scan", "android": "https://dc.lft.to/lastmile_qr_scan"}}, {"name": "7efc0ad081e2c7b9ca2a87eb2a63286e", "fusion_lat": 0.0, "type": "electric_scooter", "lat": 38.863560166666666, "is_reserved": 0, "is_disabled": 0, "fusion_lon": 0.0, "bike_id": "7efc0ad081e2c7b9ca2a87eb2a63286e", "lon": -76.9905735, "rental_uris": {"ios": "https://dc.lft.to/lastmile_qr_scan", "android": "https://dc.lft.to/lastmile_qr_scan"}}, {"name": "ad390efd3c0f35bfacccc9415ee10eb7", "fusion_lat": 0.0, "type": "electric_bike", "lat": 38.94004416666667, "is_reserved": 0, "is_disabled": 0, "fusion_lon": 0.0, "bike_id": "ad390efd3c0f35bfacccc9415ee10eb7", "lon": -76.95452, "rental_uris": {"ios": "https://dc.lft.to/lastmile_qr_scan", "android": "https://dc.lft.to/lastmile_qr_scan"}}, {"name": "b012239320e3b8e6b3538a6638e29b38", "fusion_lat": 0.0, "type": "electric_scooter", "lat": 38.961414166666664, "is_reserved": 0, "is_disabled": 0, "fusion_lon": 0.0, "bike_id": "b012239320e3b8e6b3538a6638e29b38", "lon": -77.02806683333333, "rental_uris": {"ios": "https://dc.lft.to/lastmile_qr_scan", "android": "https://dc.lft.to/lastmile_qr_scan"}}, {"name": "da39e8d4789346c482bf7bd0daeb4830", "fusion_lat": 0.0, "type": "electric_scooter", "lat": 38.8899815, "is_reserved": 0, "is_disabled": 0, "fusion_lon": 0.0, "bike_id": "da39e8d4789346c482bf7bd0daeb4830", "lon": -76.9541535, "rental_uris": {"ios": "https://dc.lft.to/lastmile_qr_scan", "android": "https://dc.lft.to/lastmile_qr_scan"}}, {"name": "3d5f5a7311c32f98f1633ba65199d0e8", "fusion_lat": 0.0, "type": "electric_scooter", "lat": 38.935203, "is_reserved": 0, "is_disabled": 0, "fusion_lon": 0.0, "bike_id": "3d5f5a7311c32f98f1633ba65199d0e8", "lon": -77.0325985, "rental_uris": {"ios": "https://dc.lft.to/lastmile_qr_scan", "android": "https://dc.lft.to/lastmile_qr_scan"}}, {"name": "8a5cd81ec1a5421460f3a363f3bcd406", "fusion_lat": 0.0, "type": "electric_scooter", "lat": 38.920063166666665, "is_reserved": 0, "is_disabled": 0, "fusion_lon": 0.0, "bike_id": "8a5cd81ec1a5421460f3a363f3bcd406", "lon": -77.03178833333334, "rental_uris": {"ios": "https://dc.lft.to/lastmile_qr_scan", "android": "https://dc.lft.to/lastmile_qr_scan"}}, {"name": "b90ceb2f3661e45501f0b72f818d7990", "fusion_lat": 0.0, "type": "electric_scooter", "lat": 38.90973016666667, "is_reserved": 0, "is_disabled": 0, "fusion_lon": 0.0, "bike_id": "b90ceb2f3661e45501f0b72f818d7990", "lon": -77.04669866666667, "rental_uris": {"ios": "https://dc.lft.to/lastmile_qr_scan", "android": "https://dc.lft.to/lastmile_qr_scan"}}, {"name": "455daffa9cfd7a05e878691937634af4", "fusion_lat": 0.0, "type": "electric_scooter", "lat": 38.882200166666664, "is_reserved": 0, "is_disabled": 0, "fusion_lon": 0.0, "bike_id": "455daffa9cfd7a05e878691937634af4", "lon": -76.94179433333333, "rental_uris": {"ios": "https://dc.lft.to/lastmile_qr_scan", "android": "https://dc.lft.to/lastmile_qr_scan"}}, {"name": "28350e663046b63e4d54094b49287923", "fusion_lat": 0.0, "type": "electric_scooter", "lat": 38.92139183333333, "is_reserved": 0, "is_disabled": 0, "fusion_lon": 0.0, "bike_id": "28350e663046b63e4d54094b49287923", "lon": -77.0456265, "rental_uris": {"ios": "https://dc.lft.to/lastmile_qr_scan", "android": "https://dc.lft.to/lastmile_qr_scan"}}, {"name": "b9d57b9fbc90af169538455895c12dad", "fusion_lat": 0.0, "type": "electric_scooter", "lat": 38.87357433333333, "is_reserved": 0, "is_disabled": 0, "fusion_lon": 0.0, "bike_id": "b9d57b9fbc90af169538455895c12dad", "lon": -77.00091933333333, "rental_uris": {"ios": "https://dc.lft.to/lastmile_qr_scan", "android": "https://dc.lft.to/lastmile_qr_scan"}}, {"name": "141af1c4ce4e98b5de81228357fa8d08", "fusion_lat": 0.0, "type": "electric_scooter", "lat": 38.9210215, "is_reserved": 0, "is_disabled": 0, "fusion_lon": 0.0, "bike_id": "141af1c4ce4e98b5de81228357fa8d08", "lon": -77.05472033333334, "rental_uris": {"ios": "https://dc.lft.to/lastmile_qr_scan", "android": "https://dc.lft.to/lastmile_qr_scan"}}, {"name": "bf0a35fe19b45bfbdb8b2b81c54d1b1a", "fusion_lat": 0.0, "type": "electric_scooter", "lat": 38.90043466666667, "is_reserved": 0, "is_disabled": 0, "fusion_lon": 0.0, "bike_id": "bf0a35fe19b45bfbdb8b2b81c54d1b1a", "lon": -76.99140416666667, "rental_uris": {"ios": "https://dc.lft.to/lastmile_qr_scan", "android": "https://dc.lft.to/lastmile_qr_scan"}}, {"name": "1de8fd0b4c55050b7a7c2b463820c186", "fusion_lat": 0.0, "type": "electric_scooter", "lat": 38.92374516666667, "is_reserved": 0, "is_disabled": 0, "fusion_lon": 0.0, "bike_id": "1de8fd0b4c55050b7a7c2b463820c186", "lon": -77.04098816666666, "rental_uris": {"ios": "https://dc.lft.to/lastmile_qr_scan", "android": "https://dc.lft.to/lastmile_qr_scan"}}, {"name": "457443d2199543323533e16c348ef194", "fusion_lat": 0.0, "type": "electric_scooter", "lat": 38.86260866666667, "is_reserved": 0, "is_disabled": 0, "fusion_lon": 0.0, "bike_id": "457443d2199543323533e16c348ef194", "lon": -76.987126, "rental_uris": {"ios": "https://dc.lft.to/lastmile_qr_scan", "android": "https://dc.lft.to/lastmile_qr_scan"}}, {"name": "0748aa933c8ca4912b30771043b0b8fa", "fusion_lat": 0.0, "type": "electric_scooter", "lat": 38.91845416666666, "is_reserved": 0, "is_disabled": 0, "fusion_lon": 0.0, "bike_id": "0748aa933c8ca4912b30771043b0b8fa", "lon": -77.02285933333333, "rental_uris": {"ios": "https://dc.lft.to/lastmile_qr_scan", "android": "https://dc.lft.to/lastmile_qr_scan"}}, {"name": "9c26589e6f3222e125a94a4c5e896a9f", "fusion_lat": 0.0, "type": "electric_scooter", "lat": 38.90857033333333, "is_reserved": 0, "is_disabled": 0, "fusion_lon": 0.0, "bike_id": "9c26589e6f3222e125a94a4c5e896a9f", "lon": -77.04505983333334, "rental_uris": {"ios": "https://dc.lft.to/lastmile_qr_scan", "android": "https://dc.lft.to/lastmile_qr_scan"}}, {"name": "8ca4fe84337e8564cc15a1cac5a33555", "fusion_lat": 0.0, "type": "electric_scooter", "lat": 38.8909075, "is_reserved": 0, "is_disabled": 0, "fusion_lon": 0.0, "bike_id": "8ca4fe84337e8564cc15a1cac5a33555", "lon": -76.997862, "rental_uris": {"ios": "https://dc.lft.to/lastmile_qr_scan", "android": "https://dc.lft.to/lastmile_qr_scan"}}, {"name": "7106ec5893456cde4000a4f5405d7b83", "fusion_lat": 0.0, "type": "electric_scooter", "lat": 38.9003165, "is_reserved": 0, "is_disabled": 0, "fusion_lon": 0.0, "bike_id": "7106ec5893456cde4000a4f5405d7b83", "lon": -77.02982483333334, "rental_uris": {"ios": "https://dc.lft.to/lastmile_qr_scan", "android": "https://dc.lft.to/lastmile_qr_scan"}}, {"name": "a1e672a7bbce79bee80bcd89e556f192", "fusion_lat": 0.0, "type": "electric_bike", "lat": 38.92849916666667, "is_reserved": 0, "is_disabled": 0, "fusion_lon": 0.0, "bike_id": "a1e672a7bbce79bee80bcd89e556f192", "lon": -77.10506866666667, "rental_uris": {"ios": "https://dc.lft.to/lastmile_qr_scan", "android": "https://dc.lft.to/lastmile_qr_scan"}}, {"name": "9e280fc10120fe894fcb2b8ddc4eb8b3", "fusion_lat": 0.0, "type": "electric_scooter", "lat": 38.908463, "is_reserved": 0, "is_disabled": 0, "fusion_lon": 0.0, "bike_id": "9e280fc10120fe894fcb2b8ddc4eb8b3", "lon": -77.03286516666667, "rental_uris": {"ios": "https://dc.lft.to/lastmile_qr_scan", "android": "https://dc.lft.to/lastmile_qr_scan"}}, {"name": "5cefbc6a29328272a9e62d06c3e60d04", "fusion_lat": 0.0, "type": "electric_scooter", "lat": 38.89728816666667, "is_reserved": 0, "is_disabled": 0, "fusion_lon": 0.0, "bike_id": "5cefbc6a29328272a9e62d06c3e60d04", "lon": -77.0472695, "rental_uris": {"ios": "https://dc.lft.to/lastmile_qr_scan", "android": "https://dc.lft.to/lastmile_qr_scan"}}, {"name": "71f4c90b9991d53c4f0a0be088a6ecd6", "fusion_lat": 0.0, "type": "electric_scooter", "lat": 38.9311515, "is_reserved": 0, "is_disabled": 0, "fusion_lon": 0.0, "bike_id": "71f4c90b9991d53c4f0a0be088a6ecd6", "lon": -77.019995, "rental_uris": {"ios": "https://dc.lft.to/lastmile_qr_scan", "android": "https://dc.lft.to/lastmile_qr_scan"}}, {"name": "69ee9845189186ea5aa009f295f9ca89", "fusion_lat": 0.0, "type": "electric_scooter", "lat": 38.92434383333333, "is_reserved": 0, "is_disabled": 0, "fusion_lon": 0.0, "bike_id": "69ee9845189186ea5aa009f295f9ca89", "lon": -77.04128933333334, "rental_uris": {"ios": "https://dc.lft.to/lastmile_qr_scan", "android": "https://dc.lft.to/lastmile_qr_scan"}}, {"name": "85c8c4db19ff8b30c53ac61d429223a8", "fusion_lat": 0.0, "type": "electric_bike", "lat": 38.9654905, "is_reserved": 0, "is_disabled": 0, "fusion_lon": 0.0, "bike_id": "85c8c4db19ff8b30c53ac61d429223a8", "lon": -77.03509383333333, "rental_uris": {"ios": "https://dc.lft.to/lastmile_qr_scan", "android": "https://dc.lft.to/lastmile_qr_scan"}}, {"name": "9b5f7c6f4bc07b05fd5f6165c30116d8", "fusion_lat": 0.0, "type": "electric_scooter", "lat": 38.92065233333334, "is_reserved": 0, "is_disabled": 0, "fusion_lon": 0.0, "bike_id": "9b5f7c6f4bc07b05fd5f6165c30116d8", "lon": -77.04703216666667, "rental_uris": {"ios": "https://dc.lft.to/lastmile_qr_scan", "android": "https://dc.lft.to/lastmile_qr_scan"}}, {"name": "a59140ed2a40b0d8b67f37182e2fef66", "fusion_lat": 0.0, "type": "electric_scooter", "lat": 38.91989316666667, "is_reserved": 0, "is_disabled": 0, "fusion_lon": 0.0, "bike_id": "a59140ed2a40b0d8b67f37182e2fef66", "lon": -77.0331625, "rental_uris": {"ios": "https://dc.lft.to/lastmile_qr_scan", "android": "https://dc.lft.to/lastmile_qr_scan"}}, {"name": "970bdf8c4b7f486bc8c395736d3c7105", "fusion_lat": 0.0, "type": "electric_scooter", "lat": 38.86219783333333, "is_reserved": 0, "is_disabled": 0, "fusion_lon": 0.0, "bike_id": "970bdf8c4b7f486bc8c395736d3c7105", "lon": -76.9738025, "rental_uris": {"ios": "https://dc.lft.to/lastmile_qr_scan", "android": "https://dc.lft.to/lastmile_qr_scan"}}, {"name": "6958ede16b58846cca1372320399ea0e", "fusion_lat": 0.0, "type": "electric_scooter", "lat": 38.9317065, "is_reserved": 0, "is_disabled": 0, "fusion_lon": 0.0, "bike_id": "6958ede16b58846cca1372320399ea0e", "lon": -77.0561885, "rental_uris": {"ios": "https://dc.lft.to/lastmile_qr_scan", "android": "https://dc.lft.to/lastmile_qr_scan"}}, {"name": "6374369f8ad534178dc9134e114db4b4", "fusion_lat": 0.0, "type": "electric_scooter", "lat": 38.893289833333334, "is_reserved": 0, "is_disabled": 0, "fusion_lon": 0.0, "bike_id": "6374369f8ad534178dc9134e114db4b4", "lon": -76.92889966666667, "rental_uris": {"ios": "https://dc.lft.to/lastmile_qr_scan", "android": "https://dc.lft.to/lastmile_qr_scan"}}, {"name": "001663d2181b46965f246821a86a15bb", "fusion_lat": 0.0, "type": "electric_scooter", "lat": 38.899946166666666, "is_reserved": 0, "is_disabled": 0, "fusion_lon": 0.0, "bike_id": "001663d2181b46965f246821a86a15bb", "lon": -76.9969565, "rental_uris": {"ios": "https://dc.lft.to/lastmile_qr_scan", "android": "https://dc.lft.to/lastmile_qr_scan"}}, {"name": "b23b408ce8ccd3fcaa06754f92b97342", "fusion_lat": 0.0, "type": "electric_scooter", "lat": 38.88529233333333, "is_reserved": 0, "is_disabled": 0, "fusion_lon": 0.0, "bike_id": "b23b408ce8ccd3fcaa06754f92b97342", "lon": -77.0335195, "rental_uris": {"ios": "https://dc.lft.to/lastmile_qr_scan", "android": "https://dc.lft.to/lastmile_qr_scan"}}, {"name": "9dab67a21733ab02becb9095b2cda905", "fusion_lat": 0.0, "type": "electric_scooter", "lat": 38.9186265, "is_reserved": 0, "is_disabled": 0, "fusion_lon": 0.0, "bike_id": "9dab67a21733ab02becb9095b2cda905", "lon": -77.045924, "rental_uris": {"ios": "https://dc.lft.to/lastmile_qr_scan", "android": "https://dc.lft.to/lastmile_qr_scan"}}, {"name": "171588b42fac4b9cd6c840c566086293", "fusion_lat": 0.0, "type": "electric_bike", "lat": 38.941993, "is_reserved": 0, "is_disabled": 0, "fusion_lon": 0.0, "bike_id": "171588b42fac4b9cd6c840c566086293", "lon": -76.9662695, "rental_uris": {"ios": "https://dc.lft.to/lastmile_qr_scan", "android": "https://dc.lft.to/lastmile_qr_scan"}}, {"name": "081980e1180fc9dcd6612a68af218f38", "fusion_lat": 0.0, "type": "electric_scooter", "lat": 38.863713, "is_reserved": 0, "is_disabled": 0, "fusion_lon": 0.0, "bike_id": "081980e1180fc9dcd6612a68af218f38", "lon": -77.01360433333333, "rental_uris": {"ios": "https://dc.lft.to/lastmile_qr_scan", "android": "https://dc.lft.to/lastmile_qr_scan"}}, {"name": "1daf844732a7da4997b8ad1e1859b0b1", "fusion_lat": 0.0, "type": "electric_scooter", "lat": 38.87927, "is_reserved": 0, "is_disabled": 0, "fusion_lon": 0.0, "bike_id": "1daf844732a7da4997b8ad1e1859b0b1", "lon": -77.00749333333333, "rental_uris": {"ios": "https://dc.lft.to/lastmile_qr_scan", "android": "https://dc.lft.to/lastmile_qr_scan"}}, {"name": "bf08060de0f60b9fb3851b2d6e2fb6ef", "fusion_lat": 0.0, "type": "electric_scooter", "lat": 38.874252166666665, "is_reserved": 0, "is_disabled": 0, "fusion_lon": 0.0, "bike_id": "bf08060de0f60b9fb3851b2d6e2fb6ef", "lon": -77.02057366666666, "rental_uris": {"ios": "https://dc.lft.to/lastmile_qr_scan", "android": "https://dc.lft.to/lastmile_qr_scan"}}, {"name": "54c4aed56bacaf2935543cb4267e9bac", "fusion_lat": 0.0, "type": "electric_scooter", "lat": 38.931290833333335, "is_reserved": 0, "is_disabled": 0, "fusion_lon": 0.0, "bike_id": "54c4aed56bacaf2935543cb4267e9bac", "lon": -77.02819616666666, "rental_uris": {"ios": "https://dc.lft.to/lastmile_qr_scan", "android": "https://dc.lft.to/lastmile_qr_scan"}}, {"name": "10e4c30801928824457e566e956a4ddd", "fusion_lat": 0.0, "type": "electric_scooter", "lat": 38.91877866666667, "is_reserved": 0, "is_disabled": 0, "fusion_lon": 0.0, "bike_id": "10e4c30801928824457e566e956a4ddd", "lon": -77.03504133333334, "rental_uris": {"ios": "https://dc.lft.to/lastmile_qr_scan", "android": "https://dc.lft.to/lastmile_qr_scan"}}, {"name": "6dcc9531b241b7f734a7dd2146a4ac40", "fusion_lat": 0.0, "type": "electric_scooter", "lat": 38.905787, "is_reserved": 0, "is_disabled": 0, "fusion_lon": 0.0, "bike_id": "6dcc9531b241b7f734a7dd2146a4ac40", "lon": -77.02204883333333, "rental_uris": {"ios": "https://dc.lft.to/lastmile_qr_scan", "android": "https://dc.lft.to/lastmile_qr_scan"}}, {"name": "d615bc93cbd3fe37942393a91a2fbde6", "fusion_lat": 0.0, "type": "electric_scooter", "lat": 38.91799433333333, "is_reserved": 0, "is_disabled": 0, "fusion_lon": 0.0, "bike_id": "d615bc93cbd3fe37942393a91a2fbde6", "lon": -77.02819666666667, "rental_uris": {"ios": "https://dc.lft.to/lastmile_qr_scan", "android": "https://dc.lft.to/lastmile_qr_scan"}}, {"name": "c0d989d7811749693d965acf0ac702ec", "fusion_lat": 0.0, "type": "electric_scooter", "lat": 38.91540916666667, "is_reserved": 0, "is_disabled": 0, "fusion_lon": 0.0, "bike_id": "c0d989d7811749693d965acf0ac702ec", "lon": -77.01971333333333, "rental_uris": {"ios": "https://dc.lft.to/lastmile_qr_scan", "android": "https://dc.lft.to/lastmile_qr_scan"}}, {"name": "818892cb4a3b573e2302346e7568fe25", "fusion_lat": 0.0, "type": "electric_scooter", "lat": 38.90518566666667, "is_reserved": 0, "is_disabled": 0, "fusion_lon": 0.0, "bike_id": "818892cb4a3b573e2302346e7568fe25", "lon": -77.04992983333334, "rental_uris": {"ios": "https://dc.lft.to/lastmile_qr_scan", "android": "https://dc.lft.to/lastmile_qr_scan"}}, {"name": "7d2e99a8d28c5be197ac70aa2d519ba7", "fusion_lat": 0.0, "type": "electric_scooter", "lat": 38.8988245, "is_reserved": 0, "is_disabled": 0, "fusion_lon": 0.0, "bike_id": "7d2e99a8d28c5be197ac70aa2d519ba7", "lon": -76.9317495, "rental_uris": {"ios": "https://dc.lft.to/lastmile_qr_scan", "android": "https://dc.lft.to/lastmile_qr_scan"}}, {"name": "69d9211a9585ba251f2859c2807eeebd", "fusion_lat": 0.0, "type": "electric_scooter", "lat": 38.93389916666667, "is_reserved": 0, "is_disabled": 0, "fusion_lon": 0.0, "bike_id": "69d9211a9585ba251f2859c2807eeebd", "lon": -77.031556, "rental_uris": {"ios": "https://dc.lft.to/lastmile_qr_scan", "android": "https://dc.lft.to/lastmile_qr_scan"}}, {"name": "0745fe0ee2dad58889aceebefc23b27d", "fusion_lat": 0.0, "type": "electric_scooter", "lat": 38.878824, "is_reserved": 0, "is_disabled": 0, "fusion_lon": 0.0, "bike_id": "0745fe0ee2dad58889aceebefc23b27d", "lon": -76.965488, "rental_uris": {"ios": "https://dc.lft.to/lastmile_qr_scan", "android": "https://dc.lft.to/lastmile_qr_scan"}}, {"name": "226ec7e3d3e74e6cfd75824b5ba10e76", "fusion_lat": 0.0, "type": "electric_scooter", "lat": 38.926571833333334, "is_reserved": 0, "is_disabled": 0, "fusion_lon": 0.0, "bike_id": "226ec7e3d3e74e6cfd75824b5ba10e76", "lon": -77.02435733333333, "rental_uris": {"ios": "https://dc.lft.to/lastmile_qr_scan", "android": "https://dc.lft.to/lastmile_qr_scan"}}, {"name": "451ca5eba494ed760c456587cf341358", "fusion_lat": 0.0, "type": "electric_scooter", "lat": 38.9004045, "is_reserved": 0, "is_disabled": 0, "fusion_lon": 0.0, "bike_id": "451ca5eba494ed760c456587cf341358", "lon": -76.91915216666666, "rental_uris": {"ios": "https://dc.lft.to/lastmile_qr_scan", "android": "https://dc.lft.to/lastmile_qr_scan"}}, {"name": "efa784be5a634dee2693532b6ae55657", "fusion_lat": 0.0, "type": "electric_scooter", "lat": 38.920331166666664, "is_reserved": 0, "is_disabled": 0, "fusion_lon": 0.0, "bike_id": "efa784be5a634dee2693532b6ae55657", "lon": -77.025836, "rental_uris": {"ios": "https://dc.lft.to/lastmile_qr_scan", "android": "https://dc.lft.to/lastmile_qr_scan"}}, {"name": "a9aa5ac7acb7b42991049bf275ad79a1", "fusion_lat": 0.0, "type": "electric_scooter", "lat": 38.917036833333334, "is_reserved": 0, "is_disabled": 0, "fusion_lon": 0.0, "bike_id": "a9aa5ac7acb7b42991049bf275ad79a1", "lon": -77.02784433333333, "rental_uris": {"ios": "https://dc.lft.to/lastmile_qr_scan", "android": "https://dc.lft.to/lastmile_qr_scan"}}, {"name": "0028d1571a12d2c3d3d0930c6a082af4", "fusion_lat": 0.0, "type": "electric_scooter", "lat": 38.904804666666664, "is_reserved": 0, "is_disabled": 0, "fusion_lon": 0.0, "bike_id": "0028d1571a12d2c3d3d0930c6a082af4", "lon": -77.0653785, "rental_uris": {"ios": "https://dc.lft.to/lastmile_qr_scan", "android": "https://dc.lft.to/lastmile_qr_scan"}}, {"name": "64c17edcbc7bc29ca17a76eafeaf8dde", "fusion_lat": 0.0, "type": "electric_scooter", "lat": 38.8828195, "is_reserved": 0, "is_disabled": 0, "fusion_lon": 0.0, "bike_id": "64c17edcbc7bc29ca17a76eafeaf8dde", "lon": -76.99835216666666, "rental_uris": {"ios": "https://dc.lft.to/lastmile_qr_scan", "android": "https://dc.lft.to/lastmile_qr_scan"}}, {"name": "c160fb0db811a0a7b9493a1c87472468", "fusion_lat": 0.0, "type": "electric_scooter", "lat": 38.9095805, "is_reserved": 0, "is_disabled": 0, "fusion_lon": 0.0, "bike_id": "c160fb0db811a0a7b9493a1c87472468", "lon": -77.04595733333333, "rental_uris": {"ios": "https://dc.lft.to/lastmile_qr_scan", "android": "https://dc.lft.to/lastmile_qr_scan"}}, {"name": "7b365b9371e7455495a7a5d1c602abce", "fusion_lat": 0.0, "type": "electric_scooter", "lat": 38.90579833333334, "is_reserved": 0, "is_disabled": 0, "fusion_lon": 0.0, "bike_id": "7b365b9371e7455495a7a5d1c602abce", "lon": -77.04867983333334, "rental_uris": {"ios": "https://dc.lft.to/lastmile_qr_scan", "android": "https://dc.lft.to/lastmile_qr_scan"}}, {"name": "93513d9205fc2ccbc20ca70f1ef57d9b", "fusion_lat": 0.0, "type": "electric_scooter", "lat": 38.88686416666667, "is_reserved": 0, "is_disabled": 0, "fusion_lon": 0.0, "bike_id": "93513d9205fc2ccbc20ca70f1ef57d9b", "lon": -76.957567, "rental_uris": {"ios": "https://dc.lft.to/lastmile_qr_scan", "android": "https://dc.lft.to/lastmile_qr_scan"}}, {"name": "b8dc4bd0ac496e2c028ecb06e04358ed", "fusion_lat": 0.0, "type": "electric_scooter", "lat": 38.868893166666666, "is_reserved": 0, "is_disabled": 0, "fusion_lon": 0.0, "bike_id": "b8dc4bd0ac496e2c028ecb06e04358ed", "lon": -76.98308016666667, "rental_uris": {"ios": "https://dc.lft.to/lastmile_qr_scan", "android": "https://dc.lft.to/lastmile_qr_scan"}}, {"name": "7d43f8da42e62e953a78c00e28f9439d", "fusion_lat": 0.0, "type": "electric_bike", "lat": 38.94198883333333, "is_reserved": 0, "is_disabled": 0, "fusion_lon": 0.0, "bike_id": "7d43f8da42e62e953a78c00e28f9439d", "lon": -77.0327825, "rental_uris": {"ios": "https://dc.lft.to/lastmile_qr_scan", "android": "https://dc.lft.to/lastmile_qr_scan"}}, {"name": "156d25b6576c9cc1472d85619602dde8", "fusion_lat": 0.0, "type": "electric_scooter", "lat": 38.92035383333333, "is_reserved": 0, "is_disabled": 0, "fusion_lon": 0.0, "bike_id": "156d25b6576c9cc1472d85619602dde8", "lon": -77.02581216666667, "rental_uris": {"ios": "https://dc.lft.to/lastmile_qr_scan", "android": "https://dc.lft.to/lastmile_qr_scan"}}, {"name": "93340c2a620bd202e8908c5fb0ec24a1", "fusion_lat": 0.0, "type": "electric_scooter", "lat": 38.941767666666664, "is_reserved": 0, "is_disabled": 0, "fusion_lon": 0.0, "bike_id": "93340c2a620bd202e8908c5fb0ec24a1", "lon": -77.0251155, "rental_uris": {"ios": "https://dc.lft.to/lastmile_qr_scan", "android": "https://dc.lft.to/lastmile_qr_scan"}}, {"name": "67c1cd2273a2936c13a5c74167574469", "fusion_lat": 0.0, "type": "electric_scooter", "lat": 38.85850633333333, "is_reserved": 0, "is_disabled": 0, "fusion_lon": 0.0, "bike_id": "67c1cd2273a2936c13a5c74167574469", "lon": -76.95884683333334, "rental_uris": {"ios": "https://dc.lft.to/lastmile_qr_scan", "android": "https://dc.lft.to/lastmile_qr_scan"}}, {"name": "723f254ad6d81b1b601339af111f76cb", "fusion_lat": 0.0, "type": "electric_scooter", "lat": 38.880317166666664, "is_reserved": 0, "is_disabled": 0, "fusion_lon": 0.0, "bike_id": "723f254ad6d81b1b601339af111f76cb", "lon": -77.00516466666667, "rental_uris": {"ios": "https://dc.lft.to/lastmile_qr_scan", "android": "https://dc.lft.to/lastmile_qr_scan"}}, {"name": "e7a40cb200e42d5687bd5ff71e6348cd", "fusion_lat": 0.0, "type": "electric_scooter", "lat": 38.93872916666667, "is_reserved": 0, "is_disabled": 0, "fusion_lon": 0.0, "bike_id": "e7a40cb200e42d5687bd5ff71e6348cd", "lon": -77.0292015, "rental_uris": {"ios": "https://dc.lft.to/lastmile_qr_scan", "android": "https://dc.lft.to/lastmile_qr_scan"}}, {"name": "41845d42479fec4c18e2ab4758493825", "fusion_lat": 0.0, "type": "electric_scooter", "lat": 38.9057485, "is_reserved": 0, "is_disabled": 0, "fusion_lon": 0.0, "bike_id": "41845d42479fec4c18e2ab4758493825", "lon": -77.00710616666667, "rental_uris": {"ios": "https://dc.lft.to/lastmile_qr_scan", "android": "https://dc.lft.to/lastmile_qr_scan"}}, {"name": "a6088a4e8c60d72bd0ad1af6d05c1f80", "fusion_lat": 0.0, "type": "electric_scooter", "lat": 38.90250183333333, "is_reserved": 0, "is_disabled": 0, "fusion_lon": 0.0, "bike_id": "a6088a4e8c60d72bd0ad1af6d05c1f80", "lon": -77.04364783333334, "rental_uris": {"ios": "https://dc.lft.to/lastmile_qr_scan", "android": "https://dc.lft.to/lastmile_qr_scan"}}, {"name": "4ebc4320b41c0641831e54e07b3cbf50", "fusion_lat": 0.0, "type": "electric_scooter", "lat": 38.905754, "is_reserved": 0, "is_disabled": 0, "fusion_lon": 0.0, "bike_id": "4ebc4320b41c0641831e54e07b3cbf50", "lon": -77.02199116666667, "rental_uris": {"ios": "https://dc.lft.to/lastmile_qr_scan", "android": "https://dc.lft.to/lastmile_qr_scan"}}, {"name": "545ef6ad0af682653b37f6bfed34fc3a", "fusion_lat": 0.0, "type": "electric_scooter", "lat": 38.89650966666667, "is_reserved": 0, "is_disabled": 0, "fusion_lon": 0.0, "bike_id": "545ef6ad0af682653b37f6bfed34fc3a", "lon": -77.00924166666667, "rental_uris": {"ios": "https://dc.lft.to/lastmile_qr_scan", "android": "https://dc.lft.to/lastmile_qr_scan"}}, {"name": "6ff3006e2e14768f86a87819c2ecba67", "fusion_lat": 0.0, "type": "electric_scooter", "lat": 38.900274333333336, "is_reserved": 0, "is_disabled": 0, "fusion_lon": 0.0, "bike_id": "6ff3006e2e14768f86a87819c2ecba67", "lon": -76.99559733333334, "rental_uris": {"ios": "https://dc.lft.to/lastmile_qr_scan", "android": "https://dc.lft.to/lastmile_qr_scan"}}, {"name": "35a346f9f9b242ab4a1ced6c5261c147", "fusion_lat": 0.0, "type": "electric_scooter", "lat": 38.910579, "is_reserved": 0, "is_disabled": 0, "fusion_lon": 0.0, "bike_id": "35a346f9f9b242ab4a1ced6c5261c147", "lon": -77.05289933333333, "rental_uris": {"ios": "https://dc.lft.to/lastmile_qr_scan", "android": "https://dc.lft.to/lastmile_qr_scan"}}, {"name": "5f52f0245af5f576df7961009d17a1b1", "fusion_lat": 0.0, "type": "electric_bike", "lat": 38.945478666666666, "is_reserved": 0, "is_disabled": 0, "fusion_lon": 0.0, "bike_id": "5f52f0245af5f576df7961009d17a1b1", "lon": -76.895348, "rental_uris": {"ios": "https://dc.lft.to/lastmile_qr_scan", "android": "https://dc.lft.to/lastmile_qr_scan"}}, {"name": "ee39fd0396d0ff8b3c41ba6aff14300d", "fusion_lat": 0.0, "type": "electric_scooter", "lat": 38.872942, "is_reserved": 0, "is_disabled": 0, "fusion_lon": 0.0, "bike_id": "ee39fd0396d0ff8b3c41ba6aff14300d", "lon": -77.00154866666666, "rental_uris": {"ios": "https://dc.lft.to/lastmile_qr_scan", "android": "https://dc.lft.to/lastmile_qr_scan"}}, {"name": "19683bb1f40ea84405cbbf8f1b6173cf", "fusion_lat": 0.0, "type": "electric_bike", "lat": 38.973301, "is_reserved": 0, "is_disabled": 0, "fusion_lon": 0.0, "bike_id": "19683bb1f40ea84405cbbf8f1b6173cf", "lon": -77.02146933333333, "rental_uris": {"ios": "https://dc.lft.to/lastmile_qr_scan", "android": "https://dc.lft.to/lastmile_qr_scan"}}, {"name": "719fe0fd872245efe3257b037e1ac28f", "fusion_lat": 0.0, "type": "electric_scooter", "lat": 38.90116066666667, "is_reserved": 0, "is_disabled": 0, "fusion_lon": 0.0, "bike_id": "719fe0fd872245efe3257b037e1ac28f", "lon": -77.04631083333334, "rental_uris": {"ios": "https://dc.lft.to/lastmile_qr_scan", "android": "https://dc.lft.to/lastmile_qr_scan"}}, {"name": "db37876e388d86ef3b237b3d0ce2eb47", "fusion_lat": 0.0, "type": "electric_scooter", "lat": 38.89343933333333, "is_reserved": 0, "is_disabled": 0, "fusion_lon": 0.0, "bike_id": "db37876e388d86ef3b237b3d0ce2eb47", "lon": -76.99142433333333, "rental_uris": {"ios": "https://dc.lft.to/lastmile_qr_scan", "android": "https://dc.lft.to/lastmile_qr_scan"}}, {"name": "048039fb54845e1e15709936aebadb94", "fusion_lat": 0.0, "type": "electric_scooter", "lat": 38.894814, "is_reserved": 0, "is_disabled": 0, "fusion_lon": 0.0, "bike_id": "048039fb54845e1e15709936aebadb94", "lon": -76.94871683333334, "rental_uris": {"ios": "https://dc.lft.to/lastmile_qr_scan", "android": "https://dc.lft.to/lastmile_qr_scan"}}, {"name": "d8fc6f209aed83762b2b518e0c2f7775", "fusion_lat": 0.0, "type": "electric_scooter", "lat": 38.90383633333333, "is_reserved": 0, "is_disabled": 0, "fusion_lon": 0.0, "bike_id": "d8fc6f209aed83762b2b518e0c2f7775", "lon": -77.04541883333333, "rental_uris": {"ios": "https://dc.lft.to/lastmile_qr_scan", "android": "https://dc.lft.to/lastmile_qr_scan"}}, {"name": "85999c3c389af692cf1f8de409edec10", "fusion_lat": 0.0, "type": "electric_scooter", "lat": 38.91981116666667, "is_reserved": 0, "is_disabled": 0, "fusion_lon": 0.0, "bike_id": "85999c3c389af692cf1f8de409edec10", "lon": -77.03293516666666, "rental_uris": {"ios": "https://dc.lft.to/lastmile_qr_scan", "android": "https://dc.lft.to/lastmile_qr_scan"}}, {"name": "0ab78b914e2a224549af0e773b4433b6", "fusion_lat": 0.0, "type": "electric_scooter", "lat": 38.914050833333334, "is_reserved": 0, "is_disabled": 0, "fusion_lon": 0.0, "bike_id": "0ab78b914e2a224549af0e773b4433b6", "lon": -77.04562583333333, "rental_uris": {"ios": "https://dc.lft.to/lastmile_qr_scan", "android": "https://dc.lft.to/lastmile_qr_scan"}}, {"name": "b71424891817c92a0549273c30f47243", "fusion_lat": 0.0, "type": "electric_scooter", "lat": 38.904257666666666, "is_reserved": 0, "is_disabled": 0, "fusion_lon": 0.0, "bike_id": "b71424891817c92a0549273c30f47243", "lon": -77.02873083333333, "rental_uris": {"ios": "https://dc.lft.to/lastmile_qr_scan", "android": "https://dc.lft.to/lastmile_qr_scan"}}, {"name": "95753d957a5f0b6ef73213b4f16a6d4f", "fusion_lat": 0.0, "type": "electric_bike", "lat": 38.99453, "is_reserved": 0, "is_disabled": 0, "fusion_lon": 0.0, "bike_id": "95753d957a5f0b6ef73213b4f16a6d4f", "lon": -76.90816, "rental_uris": {"ios": "https://dc.lft.to/lastmile_qr_scan", "android": "https://dc.lft.to/lastmile_qr_scan"}}, {"name": "1bea3d8b277873e0968e6c8b821eae79", "fusion_lat": 0.0, "type": "electric_scooter", "lat": 38.9241305, "is_reserved": 0, "is_disabled": 0, "fusion_lon": 0.0, "bike_id": "1bea3d8b277873e0968e6c8b821eae79", "lon": -77.02268566666666, "rental_uris": {"ios": "https://dc.lft.to/lastmile_qr_scan", "android": "https://dc.lft.to/lastmile_qr_scan"}}, {"name": "ce2f598d020b8434c0a8908e4e58184f", "fusion_lat": 0.0, "type": "electric_bike", "lat": 38.8723765, "is_reserved": 0, "is_disabled": 0, "fusion_lon": 0.0, "bike_id": "ce2f598d020b8434c0a8908e4e58184f", "lon": -77.01167516666666, "rental_uris": {"ios": "https://dc.lft.to/lastmile_qr_scan", "android": "https://dc.lft.to/lastmile_qr_scan"}}, {"name": "c75c19de4237e83a6ee1c177f5efc8e2", "fusion_lat": 0.0, "type": "electric_scooter", "lat": 38.905137333333336, "is_reserved": 0, "is_disabled": 0, "fusion_lon": 0.0, "bike_id": "c75c19de4237e83a6ee1c177f5efc8e2", "lon": -77.05142183333334, "rental_uris": {"ios": "https://dc.lft.to/lastmile_qr_scan", "android": "https://dc.lft.to/lastmile_qr_scan"}}, {"name": "0465997f9e45d401ab81e1a8da2d1674", "fusion_lat": 0.0, "type": "electric_scooter", "lat": 38.905034, "is_reserved": 0, "is_disabled": 0, "fusion_lon": 0.0, "bike_id": "0465997f9e45d401ab81e1a8da2d1674", "lon": -77.027667, "rental_uris": {"ios": "https://dc.lft.to/lastmile_qr_scan", "android": "https://dc.lft.to/lastmile_qr_scan"}}, {"name": "535858ead8cec6d8e7e18ebe2edaf121", "fusion_lat": 0.0, "type": "electric_scooter", "lat": 38.90037783333333, "is_reserved": 0, "is_disabled": 0, "fusion_lon": 0.0, "bike_id": "535858ead8cec6d8e7e18ebe2edaf121", "lon": -77.00177266666667, "rental_uris": {"ios": "https://dc.lft.to/lastmile_qr_scan", "android": "https://dc.lft.to/lastmile_qr_scan"}}, {"name": "0c205e54f6a90da7315db248de67a1ad", "fusion_lat": 0.0, "type": "electric_scooter", "lat": 38.925764666666666, "is_reserved": 0, "is_disabled": 0, "fusion_lon": 0.0, "bike_id": "0c205e54f6a90da7315db248de67a1ad", "lon": -77.03752716666666, "rental_uris": {"ios": "https://dc.lft.to/lastmile_qr_scan", "android": "https://dc.lft.to/lastmile_qr_scan"}}, {"name": "5853526910f08834c653586ed2e1326d", "fusion_lat": 0.0, "type": "electric_scooter", "lat": 38.90868616666667, "is_reserved": 0, "is_disabled": 0, "fusion_lon": 0.0, "bike_id": "5853526910f08834c653586ed2e1326d", "lon": -76.99958783333334, "rental_uris": {"ios": "https://dc.lft.to/lastmile_qr_scan", "android": "https://dc.lft.to/lastmile_qr_scan"}}, {"name": "3ccb7e0f6048d3b8b5e218675ea5f1f0", "fusion_lat": 0.0, "type": "electric_scooter", "lat": 38.93726433333333, "is_reserved": 0, "is_disabled": 0, "fusion_lon": 0.0, "bike_id": "3ccb7e0f6048d3b8b5e218675ea5f1f0", "lon": -77.02015583333333, "rental_uris": {"ios": "https://dc.lft.to/lastmile_qr_scan", "android": "https://dc.lft.to/lastmile_qr_scan"}}, {"name": "fdeba61c33b1dd324c0d13581f05e572", "fusion_lat": 0.0, "type": "electric_scooter", "lat": 38.897327, "is_reserved": 0, "is_disabled": 0, "fusion_lon": 0.0, "bike_id": "fdeba61c33b1dd324c0d13581f05e572", "lon": -77.04647783333333, "rental_uris": {"ios": "https://dc.lft.to/lastmile_qr_scan", "android": "https://dc.lft.to/lastmile_qr_scan"}}, {"name": "5c9e2768145b42af81d834bc59a2c669", "fusion_lat": 0.0, "type": "electric_scooter", "lat": 38.942923, "is_reserved": 0, "is_disabled": 0, "fusion_lon": 0.0, "bike_id": "5c9e2768145b42af81d834bc59a2c669", "lon": -77.02168666666667, "rental_uris": {"ios": "https://dc.lft.to/lastmile_qr_scan", "android": "https://dc.lft.to/lastmile_qr_scan"}}, {"name": "bf3c25056bb4210d502363b11f36eb3a", "fusion_lat": 0.0, "type": "electric_bike", "lat": 38.92779933333333, "is_reserved": 0, "is_disabled": 0, "fusion_lon": 0.0, "bike_id": "bf3c25056bb4210d502363b11f36eb3a", "lon": -77.05267383333333, "rental_uris": {"ios": "https://dc.lft.to/lastmile_qr_scan", "android": "https://dc.lft.to/lastmile_qr_scan"}}, {"name": "626b6012eda5be483ebfde4ac30d3a2b", "fusion_lat": 0.0, "type": "electric_scooter", "lat": 38.87416783333333, "is_reserved": 0, "is_disabled": 0, "fusion_lon": 0.0, "bike_id": "626b6012eda5be483ebfde4ac30d3a2b", "lon": -76.96088016666667, "rental_uris": {"ios": "https://dc.lft.to/lastmile_qr_scan", "android": "https://dc.lft.to/lastmile_qr_scan"}}, {"name": "f0b9a725ddb4052955486f1b0f753b2f", "fusion_lat": 0.0, "type": "electric_scooter", "lat": 38.93323866666667, "is_reserved": 0, "is_disabled": 0, "fusion_lon": 0.0, "bike_id": "f0b9a725ddb4052955486f1b0f753b2f", "lon": -77.0508605, "rental_uris": {"ios": "https://dc.lft.to/lastmile_qr_scan", "android": "https://dc.lft.to/lastmile_qr_scan"}}, {"name": "343aee08436b59a4d66cb4b71cdab525", "fusion_lat": 0.0, "type": "electric_scooter", "lat": 38.882950666666666, "is_reserved": 0, "is_disabled": 0, "fusion_lon": 0.0, "bike_id": "343aee08436b59a4d66cb4b71cdab525", "lon": -76.9861475, "rental_uris": {"ios": "https://dc.lft.to/lastmile_qr_scan", "android": "https://dc.lft.to/lastmile_qr_scan"}}, {"name": "eea07c41d661d8105abb56872a0f4567", "fusion_lat": 0.0, "type": "electric_scooter", "lat": 38.90979083333333, "is_reserved": 0, "is_disabled": 0, "fusion_lon": 0.0, "bike_id": "eea07c41d661d8105abb56872a0f4567", "lon": -77.06713616666667, "rental_uris": {"ios": "https://dc.lft.to/lastmile_qr_scan", "android": "https://dc.lft.to/lastmile_qr_scan"}}, {"name": "19329f7851f8a5b8d77c612d32c02822", "fusion_lat": 0.0, "type": "electric_scooter", "lat": 38.91926766666667, "is_reserved": 0, "is_disabled": 0, "fusion_lon": 0.0, "bike_id": "19329f7851f8a5b8d77c612d32c02822", "lon": -77.031805, "rental_uris": {"ios": "https://dc.lft.to/lastmile_qr_scan", "android": "https://dc.lft.to/lastmile_qr_scan"}}, {"name": "1b29a2b7f62b2a139e515abd82ef2427", "fusion_lat": 0.0, "type": "electric_scooter", "lat": 38.90172283333333, "is_reserved": 0, "is_disabled": 0, "fusion_lon": 0.0, "bike_id": "1b29a2b7f62b2a139e515abd82ef2427", "lon": -77.01612816666666, "rental_uris": {"ios": "https://dc.lft.to/lastmile_qr_scan", "android": "https://dc.lft.to/lastmile_qr_scan"}}, {"name": "42409ddbc5108ddbd88685aa396e7454", "fusion_lat": 0.0, "type": "electric_scooter", "lat": 38.85834883333333, "is_reserved": 0, "is_disabled": 0, "fusion_lon": 0.0, "bike_id": "42409ddbc5108ddbd88685aa396e7454", "lon": -76.98893933333333, "rental_uris": {"ios": "https://dc.lft.to/lastmile_qr_scan", "android": "https://dc.lft.to/lastmile_qr_scan"}}, {"name": "732ccea6c6be435af18814995ce08c8a", "fusion_lat": 0.0, "type": "electric_scooter", "lat": 38.893731333333335, "is_reserved": 0, "is_disabled": 0, "fusion_lon": 0.0, "bike_id": "732ccea6c6be435af18814995ce08c8a", "lon": -76.94998283333334, "rental_uris": {"ios": "https://dc.lft.to/lastmile_qr_scan", "android": "https://dc.lft.to/lastmile_qr_scan"}}, {"name": "cf73408f329a2f44b2164d9bddc2acc2", "fusion_lat": 0.0, "type": "electric_scooter", "lat": 38.90970216666667, "is_reserved": 0, "is_disabled": 0, "fusion_lon": 0.0, "bike_id": "cf73408f329a2f44b2164d9bddc2acc2", "lon": -77.021798, "rental_uris": {"ios": "https://dc.lft.to/lastmile_qr_scan", "android": "https://dc.lft.to/lastmile_qr_scan"}}, {"name": "a727f4e38ff0fd71508f99aa417918c4", "fusion_lat": 0.0, "type": "electric_scooter", "lat": 38.925803333333334, "is_reserved": 0, "is_disabled": 0, "fusion_lon": 0.0, "bike_id": "a727f4e38ff0fd71508f99aa417918c4", "lon": -77.05281933333333, "rental_uris": {"ios": "https://dc.lft.to/lastmile_qr_scan", "android": "https://dc.lft.to/lastmile_qr_scan"}}, {"name": "6e63d89b9f3da56e19d2c35620a9f67b", "fusion_lat": 0.0, "type": "electric_bike", "lat": 38.827289, "is_reserved": 0, "is_disabled": 0, "fusion_lon": 0.0, "bike_id": "6e63d89b9f3da56e19d2c35620a9f67b", "lon": -77.0086255, "rental_uris": {"ios": "https://dc.lft.to/lastmile_qr_scan", "android": "https://dc.lft.to/lastmile_qr_scan"}}, {"name": "538ebe187f5c6c84fa337904949a70c8", "fusion_lat": 0.0, "type": "electric_scooter", "lat": 38.88669083333333, "is_reserved": 0, "is_disabled": 0, "fusion_lon": 0.0, "bike_id": "538ebe187f5c6c84fa337904949a70c8", "lon": -76.93612333333333, "rental_uris": {"ios": "https://dc.lft.to/lastmile_qr_scan", "android": "https://dc.lft.to/lastmile_qr_scan"}}, {"name": "3b91107e158549188ec5d1d4ee7d3e0e", "fusion_lat": 0.0, "type": "electric_bike", "lat": 38.903821, "is_reserved": 0, "is_disabled": 0, "fusion_lon": 0.0, "bike_id": "3b91107e158549188ec5d1d4ee7d3e0e", "lon": -77.01259066666667, "rental_uris": {"ios": "https://dc.lft.to/lastmile_qr_scan", "android": "https://dc.lft.to/lastmile_qr_scan"}}, {"name": "6bdf0a535c16056bdb5e3c9459709f5a", "fusion_lat": 0.0, "type": "electric_scooter", "lat": 38.923235166666664, "is_reserved": 0, "is_disabled": 0, "fusion_lon": 0.0, "bike_id": "6bdf0a535c16056bdb5e3c9459709f5a", "lon": -77.05431383333334, "rental_uris": {"ios": "https://dc.lft.to/lastmile_qr_scan", "android": "https://dc.lft.to/lastmile_qr_scan"}}, {"name": "a35198deafe65ea3b452285ed24f5c12", "fusion_lat": 0.0, "type": "electric_scooter", "lat": 38.901196666666664, "is_reserved": 0, "is_disabled": 0, "fusion_lon": 0.0, "bike_id": "a35198deafe65ea3b452285ed24f5c12", "lon": -77.03342966666666, "rental_uris": {"ios": "https://dc.lft.to/lastmile_qr_scan", "android": "https://dc.lft.to/lastmile_qr_scan"}}, {"name": "3552d360bc3d6ed148d9f00849aafb08", "fusion_lat": 0.0, "type": "electric_scooter", "lat": 38.952161333333336, "is_reserved": 0, "is_disabled": 0, "fusion_lon": 0.0, "bike_id": "3552d360bc3d6ed148d9f00849aafb08", "lon": -77.07066716666667, "rental_uris": {"ios": "https://dc.lft.to/lastmile_qr_scan", "android": "https://dc.lft.to/lastmile_qr_scan"}}, {"name": "5bf5a0e54e61f2c28e4c66dd2c9de00f", "fusion_lat": 0.0, "type": "electric_scooter", "lat": 38.902508166666664, "is_reserved": 0, "is_disabled": 0, "fusion_lon": 0.0, "bike_id": "5bf5a0e54e61f2c28e4c66dd2c9de00f", "lon": -77.0175085, "rental_uris": {"ios": "https://dc.lft.to/lastmile_qr_scan", "android": "https://dc.lft.to/lastmile_qr_scan"}}, {"name": "a12c77173b541b4b9ec99a3d6ec65496", "fusion_lat": 0.0, "type": "electric_scooter", "lat": 38.910583833333334, "is_reserved": 0, "is_disabled": 0, "fusion_lon": 0.0, "bike_id": "a12c77173b541b4b9ec99a3d6ec65496", "lon": -77.0458555, "rental_uris": {"ios": "https://dc.lft.to/lastmile_qr_scan", "android": "https://dc.lft.to/lastmile_qr_scan"}}, {"name": "f30018c365da5023275f672a29e07e41", "fusion_lat": 0.0, "type": "electric_scooter", "lat": 38.92271566666667, "is_reserved": 0, "is_disabled": 0, "fusion_lon": 0.0, "bike_id": "f30018c365da5023275f672a29e07e41", "lon": -77.03404066666667, "rental_uris": {"ios": "https://dc.lft.to/lastmile_qr_scan", "android": "https://dc.lft.to/lastmile_qr_scan"}}, {"name": "bed58db971979092753653d0c2d58325", "fusion_lat": 0.0, "type": "electric_scooter", "lat": 38.918961, "is_reserved": 0, "is_disabled": 0, "fusion_lon": 0.0, "bike_id": "bed58db971979092753653d0c2d58325", "lon": -77.0528935, "rental_uris": {"ios": "https://dc.lft.to/lastmile_qr_scan", "android": "https://dc.lft.to/lastmile_qr_scan"}}, {"name": "ab7ddc32b6827a87c458cb81100ed5e4", "fusion_lat": 0.0, "type": "electric_scooter", "lat": 38.894825166666664, "is_reserved": 0, "is_disabled": 0, "fusion_lon": 0.0, "bike_id": "ab7ddc32b6827a87c458cb81100ed5e4", "lon": -76.9487015, "rental_uris": {"ios": "https://dc.lft.to/lastmile_qr_scan", "android": "https://dc.lft.to/lastmile_qr_scan"}}, {"name": "04565706e349c3cdceec8dead1f09036", "fusion_lat": 0.0, "type": "electric_scooter", "lat": 38.86503416666667, "is_reserved": 0, "is_disabled": 0, "fusion_lon": 0.0, "bike_id": "04565706e349c3cdceec8dead1f09036", "lon": -76.99001133333333, "rental_uris": {"ios": "https://dc.lft.to/lastmile_qr_scan", "android": "https://dc.lft.to/lastmile_qr_scan"}}, {"name": "50f64fa55a59c3aaf9563e772df01d14", "fusion_lat": 0.0, "type": "electric_scooter", "lat": 38.89486216666667, "is_reserved": 0, "is_disabled": 0, "fusion_lon": 0.0, "bike_id": "50f64fa55a59c3aaf9563e772df01d14", "lon": -77.02415566666667, "rental_uris": {"ios": "https://dc.lft.to/lastmile_qr_scan", "android": "https://dc.lft.to/lastmile_qr_scan"}}, {"name": "1a58b532e1cae2166d5c1297b15bf961", "fusion_lat": 0.0, "type": "electric_scooter", "lat": 38.9089115, "is_reserved": 0, "is_disabled": 0, "fusion_lon": 0.0, "bike_id": "1a58b532e1cae2166d5c1297b15bf961", "lon": -77.04925516666667, "rental_uris": {"ios": "https://dc.lft.to/lastmile_qr_scan", "android": "https://dc.lft.to/lastmile_qr_scan"}}, {"name": "d61ccd4993f98600d0aa1354781c8da5", "fusion_lat": 0.0, "type": "electric_scooter", "lat": 38.92769916666666, "is_reserved": 0, "is_disabled": 0, "fusion_lon": 0.0, "bike_id": "d61ccd4993f98600d0aa1354781c8da5", "lon": -77.02783766666667, "rental_uris": {"ios": "https://dc.lft.to/lastmile_qr_scan", "android": "https://dc.lft.to/lastmile_qr_scan"}}, {"name": "a48aa8382a51063f8a52602e22f53c09", "fusion_lat": 0.0, "type": "electric_scooter", "lat": 38.92710616666667, "is_reserved": 0, "is_disabled": 0, "fusion_lon": 0.0, "bike_id": "a48aa8382a51063f8a52602e22f53c09", "lon": -77.03732566666666, "rental_uris": {"ios": "https://dc.lft.to/lastmile_qr_scan", "android": "https://dc.lft.to/lastmile_qr_scan"}}, {"name": "ef45e627f2d9ac3e82bb1b08aea4371f", "fusion_lat": 0.0, "type": "electric_scooter", "lat": 38.911261, "is_reserved": 0, "is_disabled": 0, "fusion_lon": 0.0, "bike_id": "ef45e627f2d9ac3e82bb1b08aea4371f", "lon": -77.04773016666667, "rental_uris": {"ios": "https://dc.lft.to/lastmile_qr_scan", "android": "https://dc.lft.to/lastmile_qr_scan"}}, {"name": "23918946d12a12f0bc508c9c3ff5741e", "fusion_lat": 0.0, "type": "electric_bike", "lat": 38.853194, "is_reserved": 0, "is_disabled": 0, "fusion_lon": 0.0, "bike_id": "23918946d12a12f0bc508c9c3ff5741e", "lon": -76.9801605, "rental_uris": {"ios": "https://dc.lft.to/lastmile_qr_scan", "android": "https://dc.lft.to/lastmile_qr_scan"}}, {"name": "33c12bc2f83e1e6659811e2d3d898d4e", "fusion_lat": 0.0, "type": "electric_scooter", "lat": 38.90025683333333, "is_reserved": 0, "is_disabled": 0, "fusion_lon": 0.0, "bike_id": "33c12bc2f83e1e6659811e2d3d898d4e", "lon": -76.99859783333333, "rental_uris": {"ios": "https://dc.lft.to/lastmile_qr_scan", "android": "https://dc.lft.to/lastmile_qr_scan"}}, {"name": "6ad2b5d2e87557fe6196f9fe3aa61c17", "fusion_lat": 0.0, "type": "electric_scooter", "lat": 38.9367245, "is_reserved": 0, "is_disabled": 0, "fusion_lon": 0.0, "bike_id": "6ad2b5d2e87557fe6196f9fe3aa61c17", "lon": -77.03636633333333, "rental_uris": {"ios": "https://dc.lft.to/lastmile_qr_scan", "android": "https://dc.lft.to/lastmile_qr_scan"}}, {"name": "f98457d593010f3ab18679bded2f34ab", "fusion_lat": 0.0, "type": "electric_scooter", "lat": 38.9051225, "is_reserved": 0, "is_disabled": 0, "fusion_lon": 0.0, "bike_id": "f98457d593010f3ab18679bded2f34ab", "lon": -77.06877966666667, "rental_uris": {"ios": "https://dc.lft.to/lastmile_qr_scan", "android": "https://dc.lft.to/lastmile_qr_scan"}}, {"name": "3d2bfd9a7b92c71172e2ef76a3104efd", "fusion_lat": 0.0, "type": "electric_scooter", "lat": 38.865550666666664, "is_reserved": 0, "is_disabled": 0, "fusion_lon": 0.0, "bike_id": "3d2bfd9a7b92c71172e2ef76a3104efd", "lon": -76.95990933333333, "rental_uris": {"ios": "https://dc.lft.to/lastmile_qr_scan", "android": "https://dc.lft.to/lastmile_qr_scan"}}, {"name": "02aed8d7aa661428bc687deb23a9cca7", "fusion_lat": 0.0, "type": "electric_scooter", "lat": 38.9310955, "is_reserved": 0, "is_disabled": 0, "fusion_lon": 0.0, "bike_id": "02aed8d7aa661428bc687deb23a9cca7", "lon": -77.03508133333334, "rental_uris": {"ios": "https://dc.lft.to/lastmile_qr_scan", "android": "https://dc.lft.to/lastmile_qr_scan"}}, {"name": "7bb5d1a1c4e0824154f4ade095fa1d22", "fusion_lat": 0.0, "type": "electric_scooter", "lat": 38.86246466666667, "is_reserved": 0, "is_disabled": 0, "fusion_lon": 0.0, "bike_id": "7bb5d1a1c4e0824154f4ade095fa1d22", "lon": -76.99495733333333, "rental_uris": {"ios": "https://dc.lft.to/lastmile_qr_scan", "android": "https://dc.lft.to/lastmile_qr_scan"}}, {"name": "3620f21f0568504345e0d9cbe9721cb8", "fusion_lat": 0.0, "type": "electric_scooter", "lat": 38.91015983333333, "is_reserved": 0, "is_disabled": 0, "fusion_lon": 0.0, "bike_id": "3620f21f0568504345e0d9cbe9721cb8", "lon": -76.99675316666666, "rental_uris": {"ios": "https://dc.lft.to/lastmile_qr_scan", "android": "https://dc.lft.to/lastmile_qr_scan"}}, {"name": "e99b0052f42667ff7467ae6b31880ab2", "fusion_lat": 0.0, "type": "electric_scooter", "lat": 38.937023333333336, "is_reserved": 0, "is_disabled": 0, "fusion_lon": 0.0, "bike_id": "e99b0052f42667ff7467ae6b31880ab2", "lon": -77.060979, "rental_uris": {"ios": "https://dc.lft.to/lastmile_qr_scan", "android": "https://dc.lft.to/lastmile_qr_scan"}}, {"name": "bf5fe031ea27fa9892d9343050e7bf60", "fusion_lat": 0.0, "type": "electric_scooter", "lat": 38.90044316666667, "is_reserved": 0, "is_disabled": 0, "fusion_lon": 0.0, "bike_id": "bf5fe031ea27fa9892d9343050e7bf60", "lon": -77.04879416666667, "rental_uris": {"ios": "https://dc.lft.to/lastmile_qr_scan", "android": "https://dc.lft.to/lastmile_qr_scan"}}, {"name": "e31757d59da44812807fe291dd496ada", "fusion_lat": 0.0, "type": "electric_scooter", "lat": 38.934304833333336, "is_reserved": 0, "is_disabled": 0, "fusion_lon": 0.0, "bike_id": "e31757d59da44812807fe291dd496ada", "lon": -77.02724416666666, "rental_uris": {"ios": "https://dc.lft.to/lastmile_qr_scan", "android": "https://dc.lft.to/lastmile_qr_scan"}}, {"name": "9000f8a67442abb92ac8e39d84f552ab", "fusion_lat": 0.0, "type": "electric_bike", "lat": 38.8840645, "is_reserved": 0, "is_disabled": 0, "fusion_lon": 0.0, "bike_id": "9000f8a67442abb92ac8e39d84f552ab", "lon": -76.9606015, "rental_uris": {"ios": "https://dc.lft.to/lastmile_qr_scan", "android": "https://dc.lft.to/lastmile_qr_scan"}}, {"name": "3705c4be3ede83c95a4890cc1126567a", "fusion_lat": 0.0, "type": "electric_scooter", "lat": 38.9003845, "is_reserved": 0, "is_disabled": 0, "fusion_lon": 0.0, "bike_id": "3705c4be3ede83c95a4890cc1126567a", "lon": -76.98837833333333, "rental_uris": {"ios": "https://dc.lft.to/lastmile_qr_scan", "android": "https://dc.lft.to/lastmile_qr_scan"}}, {"name": "889e43760ab37ce4e0dae44759d429b7", "fusion_lat": 0.0, "type": "electric_bike", "lat": 38.9117355, "is_reserved": 0, "is_disabled": 0, "fusion_lon": 0.0, "bike_id": "889e43760ab37ce4e0dae44759d429b7", "lon": -77.01147066666667, "rental_uris": {"ios": "https://dc.lft.to/lastmile_qr_scan", "android": "https://dc.lft.to/lastmile_qr_scan"}}, {"name": "22a0d99f8cdcb07dae87488e99d2471a", "fusion_lat": 0.0, "type": "electric_scooter", "lat": 38.92431716666667, "is_reserved": 0, "is_disabled": 0, "fusion_lon": 0.0, "bike_id": "22a0d99f8cdcb07dae87488e99d2471a", "lon": -77.04223033333334, "rental_uris": {"ios": "https://dc.lft.to/lastmile_qr_scan", "android": "https://dc.lft.to/lastmile_qr_scan"}}, {"name": "9bd3eaf229fa624c0a1515e78626c4f2", "fusion_lat": 0.0, "type": "electric_scooter", "lat": 38.917048333333334, "is_reserved": 0, "is_disabled": 0, "fusion_lon": 0.0, "bike_id": "9bd3eaf229fa624c0a1515e78626c4f2", "lon": -77.03072583333334, "rental_uris": {"ios": "https://dc.lft.to/lastmile_qr_scan", "android": "https://dc.lft.to/lastmile_qr_scan"}}, {"name": "e3626fa5560db6bf34acb314b561b9a0", "fusion_lat": 0.0, "type": "electric_bike", "lat": 38.928678166666664, "is_reserved": 0, "is_disabled": 0, "fusion_lon": 0.0, "bike_id": "e3626fa5560db6bf34acb314b561b9a0", "lon": -77.0325895, "rental_uris": {"ios": "https://dc.lft.to/lastmile_qr_scan", "android": "https://dc.lft.to/lastmile_qr_scan"}}, {"name": "6a4f64b56302cc83ee4f708e25eef9c2", "fusion_lat": 0.0, "type": "electric_scooter", "lat": 38.9189825, "is_reserved": 0, "is_disabled": 0, "fusion_lon": 0.0, "bike_id": "6a4f64b56302cc83ee4f708e25eef9c2", "lon": -77.00045433333334, "rental_uris": {"ios": "https://dc.lft.to/lastmile_qr_scan", "android": "https://dc.lft.to/lastmile_qr_scan"}}, {"name": "8a730f4bde352789cbc30fd966e6d984", "fusion_lat": 0.0, "type": "electric_scooter", "lat": 38.86658583333333, "is_reserved": 0, "is_disabled": 0, "fusion_lon": 0.0, "bike_id": "8a730f4bde352789cbc30fd966e6d984", "lon": -76.9888535, "rental_uris": {"ios": "https://dc.lft.to/lastmile_qr_scan", "android": "https://dc.lft.to/lastmile_qr_scan"}}, {"name": "e44c7da3e39d49aaa586bf0a6dcf6d82", "fusion_lat": 0.0, "type": "electric_scooter", "lat": 38.90038633333333, "is_reserved": 0, "is_disabled": 0, "fusion_lon": 0.0, "bike_id": "e44c7da3e39d49aaa586bf0a6dcf6d82", "lon": -77.00203266666666, "rental_uris": {"ios": "https://dc.lft.to/lastmile_qr_scan", "android": "https://dc.lft.to/lastmile_qr_scan"}}, {"name": "2e3c71d6a98edf597fb439357ff12465", "fusion_lat": 0.0, "type": "electric_scooter", "lat": 38.92426183333333, "is_reserved": 0, "is_disabled": 0, "fusion_lon": 0.0, "bike_id": "2e3c71d6a98edf597fb439357ff12465", "lon": -77.04243383333333, "rental_uris": {"ios": "https://dc.lft.to/lastmile_qr_scan", "android": "https://dc.lft.to/lastmile_qr_scan"}}, {"name": "3308f7eaa0208471550ebc77c6792e0e", "fusion_lat": 0.0, "type": "electric_scooter", "lat": 38.917169666666666, "is_reserved": 0, "is_disabled": 0, "fusion_lon": 0.0, "bike_id": "3308f7eaa0208471550ebc77c6792e0e", "lon": -77.0235575, "rental_uris": {"ios": "https://dc.lft.to/lastmile_qr_scan", "android": "https://dc.lft.to/lastmile_qr_scan"}}, {"name": "1407004e3cd04ad38c048e532610833f", "fusion_lat": 0.0, "type": "electric_bike", "lat": 39.05316283333333, "is_reserved": 0, "is_disabled": 0, "fusion_lon": 0.0, "bike_id": "1407004e3cd04ad38c048e532610833f", "lon": -77.0477835, "rental_uris": {"ios": "https://dc.lft.to/lastmile_qr_scan", "android": "https://dc.lft.to/lastmile_qr_scan"}}, {"name": "3293192a88622f3aebb7304c8f17df73", "fusion_lat": 0.0, "type": "electric_scooter", "lat": 38.86692133333333, "is_reserved": 0, "is_disabled": 0, "fusion_lon": 0.0, "bike_id": "3293192a88622f3aebb7304c8f17df73", "lon": -76.98900933333333, "rental_uris": {"ios": "https://dc.lft.to/lastmile_qr_scan", "android": "https://dc.lft.to/lastmile_qr_scan"}}, {"name": "2526105f99a3ca10805e69bded1e32f2", "fusion_lat": 0.0, "type": "electric_bike", "lat": 39.088603666666664, "is_reserved": 0, "is_disabled": 0, "fusion_lon": 0.0, "bike_id": "2526105f99a3ca10805e69bded1e32f2", "lon": -77.17843216666667, "rental_uris": {"ios": "https://dc.lft.to/lastmile_qr_scan", "android": "https://dc.lft.to/lastmile_qr_scan"}}, {"name": "9d3847136d82b0c065676fac50aa5f79", "fusion_lat": 0.0, "type": "electric_bike", "lat": 38.935222333333336, "is_reserved": 0, "is_disabled": 0, "fusion_lon": 0.0, "bike_id": "9d3847136d82b0c065676fac50aa5f79", "lon": -76.9506345, "rental_uris": {"ios": "https://dc.lft.to/lastmile_qr_scan", "android": "https://dc.lft.to/lastmile_qr_scan"}}, {"name": "04423ec02807f731ecbcb88d8e981c37", "fusion_lat": 0.0, "type": "electric_scooter", "lat": 38.86534866666667, "is_reserved": 0, "is_disabled": 0, "fusion_lon": 0.0, "bike_id": "04423ec02807f731ecbcb88d8e981c37", "lon": -76.987048, "rental_uris": {"ios": "https://dc.lft.to/lastmile_qr_scan", "android": "https://dc.lft.to/lastmile_qr_scan"}}, {"name": "f57842474b7c14d450a59dc8fbeaa30c", "fusion_lat": 0.0, "type": "electric_scooter", "lat": 38.90267, "is_reserved": 0, "is_disabled": 0, "fusion_lon": 0.0, "bike_id": "f57842474b7c14d450a59dc8fbeaa30c", "lon": -76.987146, "rental_uris": {"ios": "https://dc.lft.to/lastmile_qr_scan", "android": "https://dc.lft.to/lastmile_qr_scan"}}, {"name": "04a05bedb1168b2b05b458c696ab2833", "fusion_lat": 0.0, "type": "electric_scooter", "lat": 38.90701883333333, "is_reserved": 0, "is_disabled": 0, "fusion_lon": 0.0, "bike_id": "04a05bedb1168b2b05b458c696ab2833", "lon": -77.02973616666667, "rental_uris": {"ios": "https://dc.lft.to/lastmile_qr_scan", "android": "https://dc.lft.to/lastmile_qr_scan"}}, {"name": "82e8aef721e146bd4bd310738cb3921d", "fusion_lat": 0.0, "type": "electric_scooter", "lat": 38.905586, "is_reserved": 0, "is_disabled": 0, "fusion_lon": 0.0, "bike_id": "82e8aef721e146bd4bd310738cb3921d", "lon": -76.983807, "rental_uris": {"ios": "https://dc.lft.to/lastmile_qr_scan", "android": "https://dc.lft.to/lastmile_qr_scan"}}, {"name": "208af6d563ac26f91d81a5a7f25d4f2d", "fusion_lat": 0.0, "type": "electric_scooter", "lat": 38.912446833333334, "is_reserved": 0, "is_disabled": 0, "fusion_lon": 0.0, "bike_id": "208af6d563ac26f91d81a5a7f25d4f2d", "lon": -77.03215066666667, "rental_uris": {"ios": "https://dc.lft.to/lastmile_qr_scan", "android": "https://dc.lft.to/lastmile_qr_scan"}}, {"name": "674e5a36f73bd5f752db695d85a61bdf", "fusion_lat": 0.0, "type": "electric_bike", "lat": 38.915575, "is_reserved": 0, "is_disabled": 0, "fusion_lon": 0.0, "bike_id": "674e5a36f73bd5f752db695d85a61bdf", "lon": -77.06750633333333, "rental_uris": {"ios": "https://dc.lft.to/lastmile_qr_scan", "android": "https://dc.lft.to/lastmile_qr_scan"}}, {"name": "9f17099c7e750a48127ec313378909e2", "fusion_lat": 0.0, "type": "electric_scooter", "lat": 38.926211333333335, "is_reserved": 0, "is_disabled": 0, "fusion_lon": 0.0, "bike_id": "9f17099c7e750a48127ec313378909e2", "lon": -77.03782583333333, "rental_uris": {"ios": "https://dc.lft.to/lastmile_qr_scan", "android": "https://dc.lft.to/lastmile_qr_scan"}}, {"name": "22d5467bd6af6f17c47c3883dfe42e20", "fusion_lat": 0.0, "type": "electric_scooter", "lat": 38.917006666666666, "is_reserved": 0, "is_disabled": 0, "fusion_lon": 0.0, "bike_id": "22d5467bd6af6f17c47c3883dfe42e20", "lon": -77.02285483333333, "rental_uris": {"ios": "https://dc.lft.to/lastmile_qr_scan", "android": "https://dc.lft.to/lastmile_qr_scan"}}, {"name": "7325c67d8210a2f039a60177f6cdbaba", "fusion_lat": 0.0, "type": "electric_scooter", "lat": 38.888221, "is_reserved": 0, "is_disabled": 0, "fusion_lon": 0.0, "bike_id": "7325c67d8210a2f039a60177f6cdbaba", "lon": -77.04934016666667, "rental_uris": {"ios": "https://dc.lft.to/lastmile_qr_scan", "android": "https://dc.lft.to/lastmile_qr_scan"}}, {"name": "2cfde13be1a432eaff11fda45ad74ed3", "fusion_lat": 0.0, "type": "electric_bike", "lat": 38.86379083333333, "is_reserved": 0, "is_disabled": 0, "fusion_lon": 0.0, "bike_id": "2cfde13be1a432eaff11fda45ad74ed3", "lon": -77.12902133333333, "rental_uris": {"ios": "https://dc.lft.to/lastmile_qr_scan", "android": "https://dc.lft.to/lastmile_qr_scan"}}, {"name": "eeaddc39e3de3e63a1f1318117ed074c", "fusion_lat": 0.0, "type": "electric_bike", "lat": 38.927073666666665, "is_reserved": 0, "is_disabled": 0, "fusion_lon": 0.0, "bike_id": "eeaddc39e3de3e63a1f1318117ed074c", "lon": -77.02278216666667, "rental_uris": {"ios": "https://dc.lft.to/lastmile_qr_scan", "android": "https://dc.lft.to/lastmile_qr_scan"}}, {"name": "d1f1c96e132101ec8c9b9f5d2727fced", "fusion_lat": 0.0, "type": "electric_scooter", "lat": 38.91071866666667, "is_reserved": 0, "is_disabled": 0, "fusion_lon": 0.0, "bike_id": "d1f1c96e132101ec8c9b9f5d2727fced", "lon": -77.00848383333333, "rental_uris": {"ios": "https://dc.lft.to/lastmile_qr_scan", "android": "https://dc.lft.to/lastmile_qr_scan"}}, {"name": "3b0f3fc2662e2b7cfa161e590be3338f", "fusion_lat": 0.0, "type": "electric_scooter", "lat": 38.92021183333333, "is_reserved": 0, "is_disabled": 0, "fusion_lon": 0.0, "bike_id": "3b0f3fc2662e2b7cfa161e590be3338f", "lon": -77.03117283333333, "rental_uris": {"ios": "https://dc.lft.to/lastmile_qr_scan", "android": "https://dc.lft.to/lastmile_qr_scan"}}, {"name": "48353d2b1be86378c072ce22bb539251", "fusion_lat": 0.0, "type": "electric_bike", "lat": 38.970924, "is_reserved": 0, "is_disabled": 0, "fusion_lon": 0.0, "bike_id": "48353d2b1be86378c072ce22bb539251", "lon": -77.06966, "rental_uris": {"ios": "https://dc.lft.to/lastmile_qr_scan", "android": "https://dc.lft.to/lastmile_qr_scan"}}, {"name": "ab86264a16db8e2fef7708711ee64c97", "fusion_lat": 0.0, "type": "electric_scooter", "lat": 38.89243283333333, "is_reserved": 0, "is_disabled": 0, "fusion_lon": 0.0, "bike_id": "ab86264a16db8e2fef7708711ee64c97", "lon": -77.01521266666667, "rental_uris": {"ios": "https://dc.lft.to/lastmile_qr_scan", "android": "https://dc.lft.to/lastmile_qr_scan"}}, {"name": "8e3b325d02dd78e939e32356b77b623c", "fusion_lat": 0.0, "type": "electric_scooter", "lat": 38.87830233333333, "is_reserved": 0, "is_disabled": 0, "fusion_lon": 0.0, "bike_id": "8e3b325d02dd78e939e32356b77b623c", "lon": -77.02262733333333, "rental_uris": {"ios": "https://dc.lft.to/lastmile_qr_scan", "android": "https://dc.lft.to/lastmile_qr_scan"}}, {"name": "20f1cf6d7b91e3f941b68e174fccea98", "fusion_lat": 0.0, "type": "electric_scooter", "lat": 38.9391895, "is_reserved": 0, "is_disabled": 0, "fusion_lon": 0.0, "bike_id": "20f1cf6d7b91e3f941b68e174fccea98", "lon": -77.03658633333333, "rental_uris": {"ios": "https://dc.lft.to/lastmile_qr_scan", "android": "https://dc.lft.to/lastmile_qr_scan"}}, {"name": "6cdcce4ce44f97b156d4ede8aa48865e", "fusion_lat": 0.0, "type": "electric_bike", "lat": 38.98459866666666, "is_reserved": 0, "is_disabled": 0, "fusion_lon": 0.0, "bike_id": "6cdcce4ce44f97b156d4ede8aa48865e", "lon": -76.95528516666667, "rental_uris": {"ios": "https://dc.lft.to/lastmile_qr_scan", "android": "https://dc.lft.to/lastmile_qr_scan"}}, {"name": "ca40bd6d00cbb938d5f2215b6b3bdac6", "fusion_lat": 0.0, "type": "electric_scooter", "lat": 38.930575, "is_reserved": 0, "is_disabled": 0, "fusion_lon": 0.0, "bike_id": "ca40bd6d00cbb938d5f2215b6b3bdac6", "lon": -77.02320783333333, "rental_uris": {"ios": "https://dc.lft.to/lastmile_qr_scan", "android": "https://dc.lft.to/lastmile_qr_scan"}}, {"name": "7e681ae8067a7111ae773f2cf1f000dd", "fusion_lat": 0.0, "type": "electric_scooter", "lat": 38.90340966666667, "is_reserved": 0, "is_disabled": 0, "fusion_lon": 0.0, "bike_id": "7e681ae8067a7111ae773f2cf1f000dd", "lon": -76.971068, "rental_uris": {"ios": "https://dc.lft.to/lastmile_qr_scan", "android": "https://dc.lft.to/lastmile_qr_scan"}}, {"name": "837583bd380ae6c06fd5706edebb9453", "fusion_lat": 0.0, "type": "electric_scooter", "lat": 38.900357166666666, "is_reserved": 0, "is_disabled": 0, "fusion_lon": 0.0, "bike_id": "837583bd380ae6c06fd5706edebb9453", "lon": -77.00196683333333, "rental_uris": {"ios": "https://dc.lft.to/lastmile_qr_scan", "android": "https://dc.lft.to/lastmile_qr_scan"}}, {"name": "4119420e38aff1fd55ab2ffd4aa367d9", "fusion_lat": 0.0, "type": "electric_bike", "lat": 38.8659485, "is_reserved": 0, "is_disabled": 0, "fusion_lon": 0.0, "bike_id": "4119420e38aff1fd55ab2ffd4aa367d9", "lon": -76.93227483333334, "rental_uris": {"ios": "https://dc.lft.to/lastmile_qr_scan", "android": "https://dc.lft.to/lastmile_qr_scan"}}, {"name": "e8a41ed73bb24efbcb7a2dc2fac3fe86", "fusion_lat": 0.0, "type": "electric_bike", "lat": 38.8521585, "is_reserved": 0, "is_disabled": 0, "fusion_lon": 0.0, "bike_id": "e8a41ed73bb24efbcb7a2dc2fac3fe86", "lon": -77.12959783333334, "rental_uris": {"ios": "https://dc.lft.to/lastmile_qr_scan", "android": "https://dc.lft.to/lastmile_qr_scan"}}, {"name": "a952cdba471160c5022b1fa6b3e94c1a", "fusion_lat": 0.0, "type": "electric_scooter", "lat": 38.8784175, "is_reserved": 0, "is_disabled": 0, "fusion_lon": 0.0, "bike_id": "a952cdba471160c5022b1fa6b3e94c1a", "lon": -77.02281166666667, "rental_uris": {"ios": "https://dc.lft.to/lastmile_qr_scan", "android": "https://dc.lft.to/lastmile_qr_scan"}}, {"name": "fcdfa0b1ebc66268c106ea39da0e6c3e", "fusion_lat": 0.0, "type": "electric_scooter", "lat": 38.90054116666667, "is_reserved": 0, "is_disabled": 0, "fusion_lon": 0.0, "bike_id": "fcdfa0b1ebc66268c106ea39da0e6c3e", "lon": -76.94756383333333, "rental_uris": {"ios": "https://dc.lft.to/lastmile_qr_scan", "android": "https://dc.lft.to/lastmile_qr_scan"}}, {"name": "f0b510674287173a9fe6a1ea6997b6ed", "fusion_lat": 0.0, "type": "electric_scooter", "lat": 38.8839155, "is_reserved": 0, "is_disabled": 0, "fusion_lon": 0.0, "bike_id": "f0b510674287173a9fe6a1ea6997b6ed", "lon": -76.98509666666666, "rental_uris": {"ios": "https://dc.lft.to/lastmile_qr_scan", "android": "https://dc.lft.to/lastmile_qr_scan"}}, {"name": "0a11f6b2f9d0a5eaf7dab423014eed89", "fusion_lat": 0.0, "type": "electric_scooter", "lat": 38.893897833333334, "is_reserved": 0, "is_disabled": 0, "fusion_lon": 0.0, "bike_id": "0a11f6b2f9d0a5eaf7dab423014eed89", "lon": -77.05473933333333, "rental_uris": {"ios": "https://dc.lft.to/lastmile_qr_scan", "android": "https://dc.lft.to/lastmile_qr_scan"}}, {"name": "b33161abf962cc6648924934a958e342", "fusion_lat": 0.0, "type": "electric_scooter", "lat": 38.8955435, "is_reserved": 0, "is_disabled": 0, "fusion_lon": 0.0, "bike_id": "b33161abf962cc6648924934a958e342", "lon": -76.98373566666666, "rental_uris": {"ios": "https://dc.lft.to/lastmile_qr_scan", "android": "https://dc.lft.to/lastmile_qr_scan"}}, {"name": "11b34b8c34743f6c5c604775047d8560", "fusion_lat": 0.0, "type": "electric_scooter", "lat": 38.880429, "is_reserved": 0, "is_disabled": 0, "fusion_lon": 0.0, "bike_id": "11b34b8c34743f6c5c604775047d8560", "lon": -76.95987483333333, "rental_uris": {"ios": "https://dc.lft.to/lastmile_qr_scan", "android": "https://dc.lft.to/lastmile_qr_scan"}}, {"name": "6f485ce04213d46bb542b3e224b8f53f", "fusion_lat": 0.0, "type": "electric_scooter", "lat": 38.87898666666667, "is_reserved": 0, "is_disabled": 0, "fusion_lon": 0.0, "bike_id": "6f485ce04213d46bb542b3e224b8f53f", "lon": -77.0223985, "rental_uris": {"ios": "https://dc.lft.to/lastmile_qr_scan", "android": "https://dc.lft.to/lastmile_qr_scan"}}, {"name": "744897822ddf866df633f5001da8fe33", "fusion_lat": 0.0, "type": "electric_scooter", "lat": 38.910507, "is_reserved": 0, "is_disabled": 0, "fusion_lon": 0.0, "bike_id": "744897822ddf866df633f5001da8fe33", "lon": -77.04353383333333, "rental_uris": {"ios": "https://dc.lft.to/lastmile_qr_scan", "android": "https://dc.lft.to/lastmile_qr_scan"}}, {"name": "ed256c91d611e28681e78c2d6eb79b6f", "fusion_lat": 0.0, "type": "electric_scooter", "lat": 38.902946166666666, "is_reserved": 0, "is_disabled": 0, "fusion_lon": 0.0, "bike_id": "ed256c91d611e28681e78c2d6eb79b6f", "lon": -77.05804566666667, "rental_uris": {"ios": "https://dc.lft.to/lastmile_qr_scan", "android": "https://dc.lft.to/lastmile_qr_scan"}}, {"name": "94b3885c44ed0512f64a5863d123906b", "fusion_lat": 0.0, "type": "electric_bike", "lat": 38.824448833333335, "is_reserved": 0, "is_disabled": 0, "fusion_lon": 0.0, "bike_id": "94b3885c44ed0512f64a5863d123906b", "lon": -77.070408, "rental_uris": {"ios": "https://dc.lft.to/lastmile_qr_scan", "android": "https://dc.lft.to/lastmile_qr_scan"}}, {"name": "b9dcfb1d92cc3186d0452c006225e992", "fusion_lat": 0.0, "type": "electric_scooter", "lat": 38.842905, "is_reserved": 0, "is_disabled": 0, "fusion_lon": 0.0, "bike_id": "b9dcfb1d92cc3186d0452c006225e992", "lon": -76.99948033333334, "rental_uris": {"ios": "https://dc.lft.to/lastmile_qr_scan", "android": "https://dc.lft.to/lastmile_qr_scan"}}, {"name": "2baed581544e1989289ab8a62fde2a89", "fusion_lat": 0.0, "type": "electric_scooter", "lat": 38.884290666666665, "is_reserved": 0, "is_disabled": 0, "fusion_lon": 0.0, "bike_id": "2baed581544e1989289ab8a62fde2a89", "lon": -77.03045566666667, "rental_uris": {"ios": "https://dc.lft.to/lastmile_qr_scan", "android": "https://dc.lft.to/lastmile_qr_scan"}}, {"name": "fce0e20a9b99ca41f8b8d45e54ab1cad", "fusion_lat": 0.0, "type": "electric_scooter", "lat": 38.918085833333336, "is_reserved": 0, "is_disabled": 0, "fusion_lon": 0.0, "bike_id": "fce0e20a9b99ca41f8b8d45e54ab1cad", "lon": -77.03437166666667, "rental_uris": {"ios": "https://dc.lft.to/lastmile_qr_scan", "android": "https://dc.lft.to/lastmile_qr_scan"}}, {"name": "729b3d20fa669a19fd61afea9c45aed9", "fusion_lat": 0.0, "type": "electric_scooter", "lat": 38.9220285, "is_reserved": 0, "is_disabled": 0, "fusion_lon": 0.0, "bike_id": "729b3d20fa669a19fd61afea9c45aed9", "lon": -77.041238, "rental_uris": {"ios": "https://dc.lft.to/lastmile_qr_scan", "android": "https://dc.lft.to/lastmile_qr_scan"}}, {"name": "6a523fa31d5c62a13342a66c17e9be98", "fusion_lat": 0.0, "type": "electric_scooter", "lat": 38.9213595, "is_reserved": 0, "is_disabled": 0, "fusion_lon": 0.0, "bike_id": "6a523fa31d5c62a13342a66c17e9be98", "lon": -77.043706, "rental_uris": {"ios": "https://dc.lft.to/lastmile_qr_scan", "android": "https://dc.lft.to/lastmile_qr_scan"}}, {"name": "1b3252ee14e1fd0e0c809d43d7b49917", "fusion_lat": 0.0, "type": "electric_scooter", "lat": 38.906381333333336, "is_reserved": 0, "is_disabled": 0, "fusion_lon": 0.0, "bike_id": "1b3252ee14e1fd0e0c809d43d7b49917", "lon": -76.98572833333333, "rental_uris": {"ios": "https://dc.lft.to/lastmile_qr_scan", "android": "https://dc.lft.to/lastmile_qr_scan"}}, {"name": "219e0e9856f921988edbe0e7f70fd5fb", "fusion_lat": 0.0, "type": "electric_scooter", "lat": 38.923159166666665, "is_reserved": 0, "is_disabled": 0, "fusion_lon": 0.0, "bike_id": "219e0e9856f921988edbe0e7f70fd5fb", "lon": -77.02977883333334, "rental_uris": {"ios": "https://dc.lft.to/lastmile_qr_scan", "android": "https://dc.lft.to/lastmile_qr_scan"}}, {"name": "acb2663e4285e19dff51e8a2e64d5bad", "fusion_lat": 0.0, "type": "electric_bike", "lat": 38.91768066666667, "is_reserved": 0, "is_disabled": 0, "fusion_lon": 0.0, "bike_id": "acb2663e4285e19dff51e8a2e64d5bad", "lon": -76.973236, "rental_uris": {"ios": "https://dc.lft.to/lastmile_qr_scan", "android": "https://dc.lft.to/lastmile_qr_scan"}}, {"name": "c54b43ee7562f386e3d32a4f3e202bf7", "fusion_lat": 0.0, "type": "electric_scooter", "lat": 38.961749166666664, "is_reserved": 0, "is_disabled": 0, "fusion_lon": 0.0, "bike_id": "c54b43ee7562f386e3d32a4f3e202bf7", "lon": -77.03227433333333, "rental_uris": {"ios": "https://dc.lft.to/lastmile_qr_scan", "android": "https://dc.lft.to/lastmile_qr_scan"}}, {"name": "6984f9343f9e9a5e06c6dcd7aeea88d1", "fusion_lat": 0.0, "type": "electric_scooter", "lat": 38.896061833333334, "is_reserved": 0, "is_disabled": 0, "fusion_lon": 0.0, "bike_id": "6984f9343f9e9a5e06c6dcd7aeea88d1", "lon": -77.046842, "rental_uris": {"ios": "https://dc.lft.to/lastmile_qr_scan", "android": "https://dc.lft.to/lastmile_qr_scan"}}, {"name": "386f6126ba5e43a67d59b1b9c5b0817c", "fusion_lat": 0.0, "type": "electric_scooter", "lat": 38.90223533333333, "is_reserved": 0, "is_disabled": 0, "fusion_lon": 0.0, "bike_id": "386f6126ba5e43a67d59b1b9c5b0817c", "lon": -77.04593633333333, "rental_uris": {"ios": "https://dc.lft.to/lastmile_qr_scan", "android": "https://dc.lft.to/lastmile_qr_scan"}}, {"name": "06e6090aacfed98dc0748f1a0890a4a6", "fusion_lat": 0.0, "type": "electric_scooter", "lat": 38.925302, "is_reserved": 0, "is_disabled": 0, "fusion_lon": 0.0, "bike_id": "06e6090aacfed98dc0748f1a0890a4a6", "lon": -77.03213766666667, "rental_uris": {"ios": "https://dc.lft.to/lastmile_qr_scan", "android": "https://dc.lft.to/lastmile_qr_scan"}}, {"name": "d5d0b4f476edae3d8403ccbb7cd0cad0", "fusion_lat": 0.0, "type": "electric_scooter", "lat": 38.93684916666667, "is_reserved": 0, "is_disabled": 0, "fusion_lon": 0.0, "bike_id": "d5d0b4f476edae3d8403ccbb7cd0cad0", "lon": -77.03281533333333, "rental_uris": {"ios": "https://dc.lft.to/lastmile_qr_scan", "android": "https://dc.lft.to/lastmile_qr_scan"}}, {"name": "c6398d059b6bb211f209fdadaea1d84c", "fusion_lat": 0.0, "type": "electric_scooter", "lat": 38.89654983333333, "is_reserved": 0, "is_disabled": 0, "fusion_lon": 0.0, "bike_id": "c6398d059b6bb211f209fdadaea1d84c", "lon": -77.05032816666667, "rental_uris": {"ios": "https://dc.lft.to/lastmile_qr_scan", "android": "https://dc.lft.to/lastmile_qr_scan"}}, {"name": "12aa5a28347819a424a1e910775341f4", "fusion_lat": 0.0, "type": "electric_scooter", "lat": 38.9849505, "is_reserved": 0, "is_disabled": 0, "fusion_lon": 0.0, "bike_id": "12aa5a28347819a424a1e910775341f4", "lon": -77.02643683333334, "rental_uris": {"ios": "https://dc.lft.to/lastmile_qr_scan", "android": "https://dc.lft.to/lastmile_qr_scan"}}, {"name": "bf8928a14bbcb1d265cf2522c878518f", "fusion_lat": 0.0, "type": "electric_bike", "lat": 38.85063266666667, "is_reserved": 0, "is_disabled": 0, "fusion_lon": 0.0, "bike_id": "bf8928a14bbcb1d265cf2522c878518f", "lon": -76.97327966666667, "rental_uris": {"ios": "https://dc.lft.to/lastmile_qr_scan", "android": "https://dc.lft.to/lastmile_qr_scan"}}, {"name": "5be79e3fe1c7128e93b8a2de298231dd", "fusion_lat": 0.0, "type": "electric_scooter", "lat": 38.9076505, "is_reserved": 0, "is_disabled": 0, "fusion_lon": 0.0, "bike_id": "5be79e3fe1c7128e93b8a2de298231dd", "lon": -77.03581983333333, "rental_uris": {"ios": "https://dc.lft.to/lastmile_qr_scan", "android": "https://dc.lft.to/lastmile_qr_scan"}}, {"name": "04a0359a3370e674a2a113420358ae7a", "fusion_lat": 0.0, "type": "electric_scooter", "lat": 38.92019283333333, "is_reserved": 0, "is_disabled": 0, "fusion_lon": 0.0, "bike_id": "04a0359a3370e674a2a113420358ae7a", "lon": -77.034714, "rental_uris": {"ios": "https://dc.lft.to/lastmile_qr_scan", "android": "https://dc.lft.to/lastmile_qr_scan"}}, {"name": "727dc37abebaa3a1f6fc7ecb2808abf3", "fusion_lat": 0.0, "type": "electric_scooter", "lat": 38.921263, "is_reserved": 0, "is_disabled": 0, "fusion_lon": 0.0, "bike_id": "727dc37abebaa3a1f6fc7ecb2808abf3", "lon": -77.0411305, "rental_uris": {"ios": "https://dc.lft.to/lastmile_qr_scan", "android": "https://dc.lft.to/lastmile_qr_scan"}}, {"name": "7b2be60d822a56d645893a2d0ae97c21", "fusion_lat": 0.0, "type": "electric_scooter", "lat": 38.9073345, "is_reserved": 0, "is_disabled": 0, "fusion_lon": 0.0, "bike_id": "7b2be60d822a56d645893a2d0ae97c21", "lon": -77.03454783333333, "rental_uris": {"ios": "https://dc.lft.to/lastmile_qr_scan", "android": "https://dc.lft.to/lastmile_qr_scan"}}, {"name": "fd96e294b4db4597a3db00c05a896c49", "fusion_lat": 0.0, "type": "electric_scooter", "lat": 38.907107833333335, "is_reserved": 0, "is_disabled": 0, "fusion_lon": 0.0, "bike_id": "fd96e294b4db4597a3db00c05a896c49", "lon": -77.04159683333333, "rental_uris": {"ios": "https://dc.lft.to/lastmile_qr_scan", "android": "https://dc.lft.to/lastmile_qr_scan"}}, {"name": "7b06373ec0bfdce70ad61bea90d3dae0", "fusion_lat": 0.0, "type": "electric_scooter", "lat": 38.94233633333333, "is_reserved": 0, "is_disabled": 0, "fusion_lon": 0.0, "bike_id": "7b06373ec0bfdce70ad61bea90d3dae0", "lon": -77.0154495, "rental_uris": {"ios": "https://dc.lft.to/lastmile_qr_scan", "android": "https://dc.lft.to/lastmile_qr_scan"}}, {"name": "83d7870c57c608af21827533d081aa8f", "fusion_lat": 0.0, "type": "electric_scooter", "lat": 38.9026845, "is_reserved": 0, "is_disabled": 0, "fusion_lon": 0.0, "bike_id": "83d7870c57c608af21827533d081aa8f", "lon": -76.99847816666667, "rental_uris": {"ios": "https://dc.lft.to/lastmile_qr_scan", "android": "https://dc.lft.to/lastmile_qr_scan"}}, {"name": "a37ef222a51e0a5ed8ace99a2752b736", "fusion_lat": 0.0, "type": "electric_scooter", "lat": 38.897969333333336, "is_reserved": 0, "is_disabled": 0, "fusion_lon": 0.0, "bike_id": "a37ef222a51e0a5ed8ace99a2752b736", "lon": -76.94421516666667, "rental_uris": {"ios": "https://dc.lft.to/lastmile_qr_scan", "android": "https://dc.lft.to/lastmile_qr_scan"}}, {"name": "14cf68e03d39e66be755977dddc12006", "fusion_lat": 0.0, "type": "electric_scooter", "lat": 38.92601766666667, "is_reserved": 0, "is_disabled": 0, "fusion_lon": 0.0, "bike_id": "14cf68e03d39e66be755977dddc12006", "lon": -77.02350733333333, "rental_uris": {"ios": "https://dc.lft.to/lastmile_qr_scan", "android": "https://dc.lft.to/lastmile_qr_scan"}}, {"name": "8a73058f131dd4600a4e53cf309a96bc", "fusion_lat": 0.0, "type": "electric_scooter", "lat": 38.905315, "is_reserved": 0, "is_disabled": 0, "fusion_lon": 0.0, "bike_id": "8a73058f131dd4600a4e53cf309a96bc", "lon": -77.050097, "rental_uris": {"ios": "https://dc.lft.to/lastmile_qr_scan", "android": "https://dc.lft.to/lastmile_qr_scan"}}, {"name": "6b2abf7693db39e6bf3d64277ddfe31f", "fusion_lat": 0.0, "type": "electric_scooter", "lat": 38.9124015, "is_reserved": 0, "is_disabled": 0, "fusion_lon": 0.0, "bike_id": "6b2abf7693db39e6bf3d64277ddfe31f", "lon": -77.009179, "rental_uris": {"ios": "https://dc.lft.to/lastmile_qr_scan", "android": "https://dc.lft.to/lastmile_qr_scan"}}, {"name": "dfed8e3046731bd0ee748f2185bb062c", "fusion_lat": 0.0, "type": "electric_bike", "lat": 38.9649515, "is_reserved": 0, "is_disabled": 0, "fusion_lon": 0.0, "bike_id": "dfed8e3046731bd0ee748f2185bb062c", "lon": -77.06491683333333, "rental_uris": {"ios": "https://dc.lft.to/lastmile_qr_scan", "android": "https://dc.lft.to/lastmile_qr_scan"}}, {"name": "6a63a3e6a9362c457bb49339fbdc3734", "fusion_lat": 0.0, "type": "electric_scooter", "lat": 38.91564266666666, "is_reserved": 0, "is_disabled": 0, "fusion_lon": 0.0, "bike_id": "6a63a3e6a9362c457bb49339fbdc3734", "lon": -77.04277983333333, "rental_uris": {"ios": "https://dc.lft.to/lastmile_qr_scan", "android": "https://dc.lft.to/lastmile_qr_scan"}}, {"name": "cc7f0b11e9545c0d16b660ca38eaca32", "fusion_lat": 0.0, "type": "electric_scooter", "lat": 38.93902833333333, "is_reserved": 0, "is_disabled": 0, "fusion_lon": 0.0, "bike_id": "cc7f0b11e9545c0d16b660ca38eaca32", "lon": -77.03259383333334, "rental_uris": {"ios": "https://dc.lft.to/lastmile_qr_scan", "android": "https://dc.lft.to/lastmile_qr_scan"}}, {"name": "fcbd72617996f47d2902c44f13e37dbf", "fusion_lat": 0.0, "type": "electric_scooter", "lat": 38.903188, "is_reserved": 0, "is_disabled": 0, "fusion_lon": 0.0, "bike_id": "fcbd72617996f47d2902c44f13e37dbf", "lon": -77.05327433333333, "rental_uris": {"ios": "https://dc.lft.to/lastmile_qr_scan", "android": "https://dc.lft.to/lastmile_qr_scan"}}, {"name": "20df4500a54719017e52f47af490d07c", "fusion_lat": 0.0, "type": "electric_scooter", "lat": 38.88507466666667, "is_reserved": 0, "is_disabled": 0, "fusion_lon": 0.0, "bike_id": "20df4500a54719017e52f47af490d07c", "lon": -76.97875133333334, "rental_uris": {"ios": "https://dc.lft.to/lastmile_qr_scan", "android": "https://dc.lft.to/lastmile_qr_scan"}}, {"name": "8466d8622d7900a8f1765ea14d31869b", "fusion_lat": 0.0, "type": "electric_scooter", "lat": 38.91042933333333, "is_reserved": 0, "is_disabled": 0, "fusion_lon": 0.0, "bike_id": "8466d8622d7900a8f1765ea14d31869b", "lon": -77.02807166666666, "rental_uris": {"ios": "https://dc.lft.to/lastmile_qr_scan", "android": "https://dc.lft.to/lastmile_qr_scan"}}, {"name": "85544a5d44990be858bac6910a4f2566", "fusion_lat": 0.0, "type": "electric_scooter", "lat": 38.894387333333334, "is_reserved": 0, "is_disabled": 0, "fusion_lon": 0.0, "bike_id": "85544a5d44990be858bac6910a4f2566", "lon": -77.01093083333333, "rental_uris": {"ios": "https://dc.lft.to/lastmile_qr_scan", "android": "https://dc.lft.to/lastmile_qr_scan"}}, {"name": "588cb3db6b93cef410a9652e40c05715", "fusion_lat": 0.0, "type": "electric_scooter", "lat": 38.902824833333334, "is_reserved": 0, "is_disabled": 0, "fusion_lon": 0.0, "bike_id": "588cb3db6b93cef410a9652e40c05715", "lon": -77.04067216666667, "rental_uris": {"ios": "https://dc.lft.to/lastmile_qr_scan", "android": "https://dc.lft.to/lastmile_qr_scan"}}, {"name": "0516ef6ad4d7c9c2dd81eacf476bc22e", "fusion_lat": 0.0, "type": "electric_scooter", "lat": 38.906994833333336, "is_reserved": 0, "is_disabled": 0, "fusion_lon": 0.0, "bike_id": "0516ef6ad4d7c9c2dd81eacf476bc22e", "lon": -76.98699366666666, "rental_uris": {"ios": "https://dc.lft.to/lastmile_qr_scan", "android": "https://dc.lft.to/lastmile_qr_scan"}}, {"name": "729c9c7ddb8030b3d5f55a10c46b04d2", "fusion_lat": 0.0, "type": "electric_scooter", "lat": 38.89488933333333, "is_reserved": 0, "is_disabled": 0, "fusion_lon": 0.0, "bike_id": "729c9c7ddb8030b3d5f55a10c46b04d2", "lon": -77.01011916666667, "rental_uris": {"ios": "https://dc.lft.to/lastmile_qr_scan", "android": "https://dc.lft.to/lastmile_qr_scan"}}, {"name": "e6354551e083be80f053e426976deb15", "fusion_lat": 0.0, "type": "electric_bike", "lat": 38.81939116666667, "is_reserved": 0, "is_disabled": 0, "fusion_lon": 0.0, "bike_id": "e6354551e083be80f053e426976deb15", "lon": -77.0020545, "rental_uris": {"ios": "https://dc.lft.to/lastmile_qr_scan", "android": "https://dc.lft.to/lastmile_qr_scan"}}, {"name": "4342eecf669f09d16e4286fc4d0832cb", "fusion_lat": 0.0, "type": "electric_bike", "lat": 38.965349, "is_reserved": 0, "is_disabled": 0, "fusion_lon": 0.0, "bike_id": "4342eecf669f09d16e4286fc4d0832cb", "lon": -77.035184, "rental_uris": {"ios": "https://dc.lft.to/lastmile_qr_scan", "android": "https://dc.lft.to/lastmile_qr_scan"}}, {"name": "c47008cd40cc9098d3c7c5478967f506", "fusion_lat": 0.0, "type": "electric_scooter", "lat": 38.83231333333333, "is_reserved": 0, "is_disabled": 0, "fusion_lon": 0.0, "bike_id": "c47008cd40cc9098d3c7c5478967f506", "lon": -76.98888766666667, "rental_uris": {"ios": "https://dc.lft.to/lastmile_qr_scan", "android": "https://dc.lft.to/lastmile_qr_scan"}}, {"name": "e9e7cfac39c973aba319516c2eb5fde1", "fusion_lat": 0.0, "type": "electric_bike", "lat": 38.84348, "is_reserved": 0, "is_disabled": 0, "fusion_lon": 0.0, "bike_id": "e9e7cfac39c973aba319516c2eb5fde1", "lon": -77.06398783333333, "rental_uris": {"ios": "https://dc.lft.to/lastmile_qr_scan", "android": "https://dc.lft.to/lastmile_qr_scan"}}, {"name": "9f442232a97ee527ef533d9d2844cc0f", "fusion_lat": 0.0, "type": "electric_scooter", "lat": 38.895905666666664, "is_reserved": 0, "is_disabled": 0, "fusion_lon": 0.0, "bike_id": "9f442232a97ee527ef533d9d2844cc0f", "lon": -77.042681, "rental_uris": {"ios": "https://dc.lft.to/lastmile_qr_scan", "android": "https://dc.lft.to/lastmile_qr_scan"}}, {"name": "ba07ce72a635306a346bc82bac58616a", "fusion_lat": 0.0, "type": "electric_scooter", "lat": 38.927461, "is_reserved": 0, "is_disabled": 0, "fusion_lon": 0.0, "bike_id": "ba07ce72a635306a346bc82bac58616a", "lon": -77.0241865, "rental_uris": {"ios": "https://dc.lft.to/lastmile_qr_scan", "android": "https://dc.lft.to/lastmile_qr_scan"}}, {"name": "2ea7e508f4658cd3f76afeb93d74188b", "fusion_lat": 0.0, "type": "electric_scooter", "lat": 38.90255916666667, "is_reserved": 0, "is_disabled": 0, "fusion_lon": 0.0, "bike_id": "2ea7e508f4658cd3f76afeb93d74188b", "lon": -77.030013, "rental_uris": {"ios": "https://dc.lft.to/lastmile_qr_scan", "android": "https://dc.lft.to/lastmile_qr_scan"}}, {"name": "290b2d762ad772810941e5210bdebee2", "fusion_lat": 0.0, "type": "electric_bike", "lat": 38.975221166666664, "is_reserved": 0, "is_disabled": 0, "fusion_lon": 0.0, "bike_id": "290b2d762ad772810941e5210bdebee2", "lon": -77.01686366666667, "rental_uris": {"ios": "https://dc.lft.to/lastmile_qr_scan", "android": "https://dc.lft.to/lastmile_qr_scan"}}, {"name": "f70a7c78232d1ce0dfa423bb712f3966", "fusion_lat": 0.0, "type": "electric_scooter", "lat": 38.90261183333333, "is_reserved": 0, "is_disabled": 0, "fusion_lon": 0.0, "bike_id": "f70a7c78232d1ce0dfa423bb712f3966", "lon": -77.053855, "rental_uris": {"ios": "https://dc.lft.to/lastmile_qr_scan", "android": "https://dc.lft.to/lastmile_qr_scan"}}, {"name": "adc756a624f1dff2f9b6140a8a804878", "fusion_lat": 0.0, "type": "electric_scooter", "lat": 38.924669, "is_reserved": 0, "is_disabled": 0, "fusion_lon": 0.0, "bike_id": "adc756a624f1dff2f9b6140a8a804878", "lon": -77.027104, "rental_uris": {"ios": "https://dc.lft.to/lastmile_qr_scan", "android": "https://dc.lft.to/lastmile_qr_scan"}}, {"name": "3b778b1ac644f01097a0e4628f4af71d", "fusion_lat": 0.0, "type": "electric_scooter", "lat": 38.93056583333333, "is_reserved": 0, "is_disabled": 0, "fusion_lon": 0.0, "bike_id": "3b778b1ac644f01097a0e4628f4af71d", "lon": -77.02323883333334, "rental_uris": {"ios": "https://dc.lft.to/lastmile_qr_scan", "android": "https://dc.lft.to/lastmile_qr_scan"}}, {"name": "e672da4b86a378268af7140a0999630b", "fusion_lat": 0.0, "type": "electric_bike", "lat": 38.9358205, "is_reserved": 0, "is_disabled": 0, "fusion_lon": 0.0, "bike_id": "e672da4b86a378268af7140a0999630b", "lon": -77.10681616666666, "rental_uris": {"ios": "https://dc.lft.to/lastmile_qr_scan", "android": "https://dc.lft.to/lastmile_qr_scan"}}, {"name": "ebef6be17e13ae01ff61829bd621fbca", "fusion_lat": 0.0, "type": "electric_scooter", "lat": 38.937259, "is_reserved": 0, "is_disabled": 0, "fusion_lon": 0.0, "bike_id": "ebef6be17e13ae01ff61829bd621fbca", "lon": -77.03263933333334, "rental_uris": {"ios": "https://dc.lft.to/lastmile_qr_scan", "android": "https://dc.lft.to/lastmile_qr_scan"}}, {"name": "03bda30bddea62b8ddccb6fe55534be7", "fusion_lat": 0.0, "type": "electric_scooter", "lat": 38.89975416666667, "is_reserved": 0, "is_disabled": 0, "fusion_lon": 0.0, "bike_id": "03bda30bddea62b8ddccb6fe55534be7", "lon": -77.01907566666667, "rental_uris": {"ios": "https://dc.lft.to/lastmile_qr_scan", "android": "https://dc.lft.to/lastmile_qr_scan"}}, {"name": "b7f5d2532b9891d76899884f10f408b8", "fusion_lat": 0.0, "type": "electric_scooter", "lat": 38.91194483333334, "is_reserved": 0, "is_disabled": 0, "fusion_lon": 0.0, "bike_id": "b7f5d2532b9891d76899884f10f408b8", "lon": -77.03217533333333, "rental_uris": {"ios": "https://dc.lft.to/lastmile_qr_scan", "android": "https://dc.lft.to/lastmile_qr_scan"}}, {"name": "f2a9bb528e3a1150ba7b3c5c90300aeb", "fusion_lat": 0.0, "type": "electric_scooter", "lat": 38.92552366666666, "is_reserved": 0, "is_disabled": 0, "fusion_lon": 0.0, "bike_id": "f2a9bb528e3a1150ba7b3c5c90300aeb", "lon": -77.032663, "rental_uris": {"ios": "https://dc.lft.to/lastmile_qr_scan", "android": "https://dc.lft.to/lastmile_qr_scan"}}, {"name": "ea7d9256a2a7a8e68a66280e7e12525d", "fusion_lat": 0.0, "type": "electric_scooter", "lat": 38.9028215, "is_reserved": 0, "is_disabled": 0, "fusion_lon": 0.0, "bike_id": "ea7d9256a2a7a8e68a66280e7e12525d", "lon": -77.04269516666666, "rental_uris": {"ios": "https://dc.lft.to/lastmile_qr_scan", "android": "https://dc.lft.to/lastmile_qr_scan"}}, {"name": "eadc202f9710eaeebb2475767aef48c2", "fusion_lat": 0.0, "type": "electric_scooter", "lat": 38.912543, "is_reserved": 0, "is_disabled": 0, "fusion_lon": 0.0, "bike_id": "eadc202f9710eaeebb2475767aef48c2", "lon": -77.00764966666667, "rental_uris": {"ios": "https://dc.lft.to/lastmile_qr_scan", "android": "https://dc.lft.to/lastmile_qr_scan"}}, {"name": "7a5f03c158ef8478ea92c3ec73966bb1", "fusion_lat": 0.0, "type": "electric_scooter", "lat": 38.9050805, "is_reserved": 0, "is_disabled": 0, "fusion_lon": 0.0, "bike_id": "7a5f03c158ef8478ea92c3ec73966bb1", "lon": -77.06666, "rental_uris": {"ios": "https://dc.lft.to/lastmile_qr_scan", "android": "https://dc.lft.to/lastmile_qr_scan"}}, {"name": "fe9e5f6396e778ff1cecddebe4749fd5", "fusion_lat": 0.0, "type": "electric_scooter", "lat": 38.94462033333333, "is_reserved": 0, "is_disabled": 0, "fusion_lon": 0.0, "bike_id": "fe9e5f6396e778ff1cecddebe4749fd5", "lon": -77.00657116666666, "rental_uris": {"ios": "https://dc.lft.to/lastmile_qr_scan", "android": "https://dc.lft.to/lastmile_qr_scan"}}, {"name": "f3406dfccc8ea83ec4bd392e013c3a2d", "fusion_lat": 0.0, "type": "electric_scooter", "lat": 38.8993315, "is_reserved": 0, "is_disabled": 0, "fusion_lon": 0.0, "bike_id": "f3406dfccc8ea83ec4bd392e013c3a2d", "lon": -77.027943, "rental_uris": {"ios": "https://dc.lft.to/lastmile_qr_scan", "android": "https://dc.lft.to/lastmile_qr_scan"}},