{"data": {"bikes": [{"type": "electric_bike", "bike_id": "5cb35367b1a0beb4b74a8e1b90fc84cc", "is_disabled": 0, "name": "5cb35367b1a0beb4b74a8e1b90fc84cc", "lon": -77.03068283333333, "is_reserved": 0, "fusion_lon": 0.0, "lat": 38.92873733333333, "rental_uris": {"android": "https://dc.lft.to/lastmile_qr_scan", "ios": "https://dc.lft.to/lastmile_qr_scan"}, "fusion_lat": 0.0}, {"type": "electric_scooter", "bike_id": "0ee15aa0ddc03ce668c89f5e0872aef9", "is_disabled": 0, "name": "0ee15aa0ddc03ce668c89f5e0872aef9", "lon": -76.98115516666667, "is_reserved": 0, "fusion_lon": 0.0, "lat": 38.914695333333334, "rental_uris": {"android": "https://dc.lft.to/lastmile_qr_scan", "ios": "https://dc.lft.to/lastmile_qr_scan"}, "fusion_lat": 0.0}, {"type": "electric_bike", "bike_id": "cf02b4683ab615acf5c2d2b4028bfe1a", "is_disabled": 0, "name": "cf02b4683ab615acf5c2d2b4028bfe1a", "lon": -77.06533416666667, "is_reserved": 0, "fusion_lon": 0.0, "lat": 38.992279, "rental_uris": {"android": "https://dc.lft.to/lastmile_qr_scan", "ios": "https://dc.lft.to/lastmile_qr_scan"}, "fusion_lat": 0.0}, {"type": "electric_scooter", "bike_id": "c28bb79dd8a97c539f8117a81ee508a5", "is_disabled": 0, "name": "c28bb79dd8a97c539f8117a81ee508a5", "lon": -77.015522, "is_reserved": 0, "fusion_lon": 0.0, "lat": 38.875963, "rental_uris": {"android": "https://dc.lft.to/lastmile_qr_scan", "ios": "https://dc.lft.to/lastmile_qr_scan"}, "fusion_lat": 0.0}, {"type": "electric_scooter", "bike_id": "ee0cc89594f48882998ef1f35c5cc62c", "is_disabled": 0, "name": "ee0cc89594f48882998ef1f35c5cc62c", "lon": -77.04683616666667, "is_reserved": 0, "fusion_lon": 0.0, "lat": 38.9094375, "rental_uris": {"android": "https://dc.lft.to/lastmile_qr_scan", "ios": "https://dc.lft.to/lastmile_qr_scan"}, "fusion_lat": 0.0}, {"type": "electric_scooter", "bike_id": "9f1f70ad41e7c821d9fc9306678e9e1b", "is_disabled": 0, "name": "9f1f70ad41e7c821d9fc9306678e9e1b", "lon": -77.02655583333333, "is_reserved": 0, "fusion_lon": 0.0, "lat": 38.923813, "rental_uris": {"android": "https://dc.lft.to/lastmile_qr_scan", "ios": "https://dc.lft.to/lastmile_qr_scan"}, "fusion_lat": 0.0}, {"type": "electric_bike", "bike_id": "8e14235b53feb0eb5f2f769606dd21ef", "is_disabled": 0, "name": "8e14235b53feb0eb5f2f769606dd21ef", "lon": -76.98978283333334, "is_reserved": 0, "fusion_lon": 0.0, "lat": 38.937194166666664, "rental_uris": {"android": "https://dc.lft.to/lastmile_qr_scan", "ios": "https://dc.lft.to/lastmile_qr_scan"}, "fusion_lat": 0.0}, {"type": "electric_scooter", "bike_id": "ffc1a344ad9ef62a85d4212ef9ba0cff", "is_disabled": 0, "name": "ffc1a344ad9ef62a85d4212ef9ba0cff", "lon": -77.0450395, "is_reserved": 0, "fusion_lon": 0.0, "lat": 38.8922, "rental_uris": {"android": "https://dc.lft.to/lastmile_qr_scan", "ios": "https://dc.lft.to/lastmile_qr_scan"}, "fusion_lat": 0.0}, {"type": "electric_scooter", "bike_id": "eeb2de8fdf195982ac7f32afe4f32ab0", "is_disabled": 0, "name": "eeb2de8fdf195982ac7f32afe4f32ab0", "lon": -77.078504, "is_reserved": 0, "fusion_lon": 0.0, "lat": 38.94595983333333, "rental_uris": {"android": "https://dc.lft.to/lastmile_qr_scan", "ios": "https://dc.lft.to/lastmile_qr_scan"}, "fusion_lat": 0.0}, {"type": "electric_scooter", "bike_id": "d2fd470f67638a391bc8996dde868417", "is_disabled": 0, "name": "d2fd470f67638a391bc8996dde868417", "lon": -77.02401566666667, "is_reserved": 0, "fusion_lon": 0.0, "lat": 38.917100833333336, "rental_uris": {"android": "https://dc.lft.to/lastmile_qr_scan", "ios": "https://dc.lft.to/lastmile_qr_scan"}, "fusion_lat": 0.0}, {"type": "electric_scooter", "bike_id": "826500ebc82f3a65beb4360ccb144060", "is_disabled": 0, "name": "826500ebc82f3a65beb4360ccb144060", "lon": -77.04322466666666, "is_reserved": 0, "fusion_lon": 0.0, "lat": 38.9188355, "rental_uris": {"android": "https://dc.lft.to/lastmile_qr_scan", "ios": "https://dc.lft.to/lastmile_qr_scan"}, "fusion_lat": 0.0}, {"type": "electric_scooter", "bike_id": "0651a5f6f96e55ff0235d44f39526bfd", "is_disabled": 0, "name": "0651a5f6f96e55ff0235d44f39526bfd", "lon": -77.0117155, "is_reserved": 0, "fusion_lon": 0.0, "lat": 38.916980333333335, "rental_uris": {"android": "https://dc.lft.to/lastmile_qr_scan", "ios": "https://dc.lft.to/lastmile_qr_scan"}, "fusion_lat": 0.0}, {"type": "electric_scooter", "bike_id": "ad2003ab5657b4fbff820434c8f444ca", "is_disabled": 0, "name": "ad2003ab5657b4fbff820434c8f444ca", "lon": -77.0328745, "is_reserved": 0, "fusion_lon": 0.0, "lat": 38.936386, "rental_uris": {"android": "https://dc.lft.to/lastmile_qr_scan", "ios": "https://dc.lft.to/lastmile_qr_scan"}, "fusion_lat": 0.0}, {"type": "electric_scooter", "bike_id": "eb12e621f83ce47a7edc8a97484882f8", "is_disabled": 0, "name": "eb12e621f83ce47a7edc8a97484882f8", "lon": -77.08245816666667, "is_reserved": 0, "fusion_lon": 0.0, "lat": 38.907376666666664, "rental_uris": {"android": "https://dc.lft.to/lastmile_qr_scan", "ios": "https://dc.lft.to/lastmile_qr_scan"}, "fusion_lat": 0.0}, {"type": "electric_scooter", "bike_id": "cbe48a6b333feb51e7c7ddf1b831aff7", "is_disabled": 0, "name": "cbe48a6b333feb51e7c7ddf1b831aff7", "lon": -77.034457, "is_reserved": 0, "fusion_lon": 0.0, "lat": 38.91813416666667, "rental_uris": {"android": "https://dc.lft.to/lastmile_qr_scan", "ios": "https://dc.lft.to/lastmile_qr_scan"}, "fusion_lat": 0.0}, {"type": "electric_scooter", "bike_id": "b293c589e2faa47b6a00f98cd0c3a0d6", "is_disabled": 0, "name": "b293c589e2faa47b6a00f98cd0c3a0d6", "lon": -77.031967, "is_reserved": 0, "fusion_lon": 0.0, "lat": 38.91620733333333, "rental_uris": {"android": "https://dc.lft.to/lastmile_qr_scan", "ios": "https://dc.lft.to/lastmile_qr_scan"}, "fusion_lat": 0.0}, {"type": "electric_scooter", "bike_id": "6fec427b33d90dcabf3e59d5c27719be", "is_disabled": 0, "name": "6fec427b33d90dcabf3e59d5c27719be", "lon": -77.018274, "is_reserved": 0, "fusion_lon": 0.0, "lat": 38.92154466666667, "rental_uris": {"android": "https://dc.lft.to/lastmile_qr_scan", "ios": "https://dc.lft.to/lastmile_qr_scan"}, "fusion_lat": 0.0}, {"type": "electric_scooter", "bike_id": "9e46e897ae8b1b0a257e600853a03192", "is_disabled": 0, "name": "9e46e897ae8b1b0a257e600853a03192", "lon": -77.04865433333333, "is_reserved": 0, "fusion_lon": 0.0, "lat": 38.9065405, "rental_uris": {"android": "https://dc.lft.to/lastmile_qr_scan", "ios": "https://dc.lft.to/lastmile_qr_scan"}, "fusion_lat": 0.0}, {"type": "electric_scooter", "bike_id": "f073b29ede455dd436f0244dd9773c81", "is_disabled": 0, "name": "f073b29ede455dd436f0244dd9773c81", "lon": -77.0119865, "is_reserved": 0, "fusion_lon": 0.0, "lat": 38.91193966666667, "rental_uris": {"android": "https://dc.lft.to/lastmile_qr_scan", "ios": "https://dc.lft.to/lastmile_qr_scan"}, "fusion_lat": 0.0}, {"type": "electric_scooter", "bike_id": "bb401095297a228393b4f53d0cbb5a69", "is_disabled": 0, "name": "bb401095297a228393b4f53d0cbb5a69", "lon": -77.0273065, "is_reserved": 0, "fusion_lon": 0.0, "lat": 38.932513666666665, "rental_uris": {"android": "https://dc.lft.to/lastmile_qr_scan", "ios": "https://dc.lft.to/lastmile_qr_scan"}, "fusion_lat": 0.0}, {"type": "electric_scooter", "bike_id": "49af0b81f12af307fa8a5bd73c97625e", "is_disabled": 0, "name": "49af0b81f12af307fa8a5bd73c97625e", "lon": -76.983843, "is_reserved": 0, "fusion_lon": 0.0, "lat": 38.879418, "rental_uris": {"android": "https://dc.lft.to/lastmile_qr_scan", "ios": "https://dc.lft.to/lastmile_qr_scan"}, "fusion_lat": 0.0}, {"type": "electric_scooter", "bike_id": "a44ac2020c2a59945d3f80bcd9ff0c19", "is_disabled": 0, "name": "a44ac2020c2a59945d3f80bcd9ff0c19", "lon": -77.0402455, "is_reserved": 0, "fusion_lon": 0.0, "lat": 38.8982815, "rental_uris": {"android": "https://dc.lft.to/lastmile_qr_scan", "ios": "https://dc.lft.to/lastmile_qr_scan"}, "fusion_lat": 0.0}, {"type": "electric_bike", "bike_id": "2e5eec6406d343a44f6033882d80fc26", "is_disabled": 0, "name": "2e5eec6406d343a44f6033882d80fc26", "lon": -76.98115683333333, "is_reserved": 0, "fusion_lon": 0.0, "lat": 38.9456975, "rental_uris": {"android": "https://dc.lft.to/lastmile_qr_scan", "ios": "https://dc.lft.to/lastmile_qr_scan"}, "fusion_lat": 0.0}, {"type": "electric_scooter", "bike_id": "9e24eae39d798d31e160bf57af73eca7", "is_disabled": 0, "name": "9e24eae39d798d31e160bf57af73eca7", "lon": -77.03181866666667, "is_reserved": 0, "fusion_lon": 0.0, "lat": 38.90727916666667, "rental_uris": {"android": "https://dc.lft.to/lastmile_qr_scan", "ios": "https://dc.lft.to/lastmile_qr_scan"}, "fusion_lat": 0.0}, {"type": "electric_bike", "bike_id": "1139a6ffcb57f6cd68fcb538d8ba7a6b", "is_disabled": 0, "name": "1139a6ffcb57f6cd68fcb538d8ba7a6b", "lon": -76.95159733333334, "is_reserved": 0, "fusion_lon": 0.0, "lat": 39.0843725, "rental_uris": {"android": "https://dc.lft.to/lastmile_qr_scan", "ios": "https://dc.lft.to/lastmile_qr_scan"}, "fusion_lat": 0.0}, {"type": "electric_scooter", "bike_id": "386b81883eb1b4d1ce35f967293ddeef", "is_disabled": 0, "name": "386b81883eb1b4d1ce35f967293ddeef", "lon": -77.06429766666666, "is_reserved": 0, "fusion_lon": 0.0, "lat": 38.935635, "rental_uris": {"android": "https://dc.lft.to/lastmile_qr_scan", "ios": "https://dc.lft.to/lastmile_qr_scan"}, "fusion_lat": 0.0}, {"type": "electric_scooter", "bike_id": "8b2f6a9766148dc063d07b76a737e0cc", "is_disabled": 0, "name": "8b2f6a9766148dc063d07b76a737e0cc", "lon": -77.03073333333333, "is_reserved": 0, "fusion_lon": 0.0, "lat": 38.898328166666666, "rental_uris": {"android": "https://dc.lft.to/lastmile_qr_scan", "ios": "https://dc.lft.to/lastmile_qr_scan"}, "fusion_lat": 0.0}, {"type": "electric_scooter", "bike_id": "c483118ab45b1bd905c18b04a62978dc", "is_disabled": 0, "name": "c483118ab45b1bd905c18b04a62978dc", "lon": -77.03228533333333, "is_reserved": 0, "fusion_lon": 0.0, "lat": 38.92549483333333, "rental_uris": {"android": "https://dc.lft.to/lastmile_qr_scan", "ios": "https://dc.lft.to/lastmile_qr_scan"}, "fusion_lat": 0.0}, {"type": "electric_scooter", "bike_id": "2fc06e4af508efa2dffc3cb172ef7ad8", "is_disabled": 0, "name": "2fc06e4af508efa2dffc3cb172ef7ad8", "lon": -77.00919216666667, "is_reserved": 0, "fusion_lon": 0.0, "lat": 38.89548683333334, "rental_uris": {"android": "https://dc.lft.to/lastmile_qr_scan", "ios": "https://dc.lft.to/lastmile_qr_scan"}, "fusion_lat": 0.0}, {"type": "electric_scooter", "bike_id": "d46c79b4c51cced9dcd78d0687ddcc7a", "is_disabled": 0, "name": "d46c79b4c51cced9dcd78d0687ddcc7a", "lon": -77.0365275, "is_reserved": 0, "fusion_lon": 0.0, "lat": 38.90288833333334, "rental_uris": {"android": "https://dc.lft.to/lastmile_qr_scan", "ios": "https://dc.lft.to/lastmile_qr_scan"}, "fusion_lat": 0.0}, {"type": "electric_scooter", "bike_id": "de7e395485c648d7744d2731b5fd69f2", "is_disabled": 0, "name": "de7e395485c648d7744d2731b5fd69f2", "lon": -77.00159616666667, "is_reserved": 0, "fusion_lon": 0.0, "lat": 38.82132716666667, "rental_uris": {"android": "https://dc.lft.to/lastmile_qr_scan", "ios": "https://dc.lft.to/lastmile_qr_scan"}, "fusion_lat": 0.0}, {"type": "electric_scooter", "bike_id": "8cc8343d5ecd37f9c55c494c4618c2b2", "is_disabled": 0, "name": "8cc8343d5ecd37f9c55c494c4618c2b2", "lon": -77.00303466666666, "is_reserved": 0, "fusion_lon": 0.0, "lat": 38.89202516666667, "rental_uris": {"android": "https://dc.lft.to/lastmile_qr_scan", "ios": "https://dc.lft.to/lastmile_qr_scan"}, "fusion_lat": 0.0}, {"type": "electric_scooter", "bike_id": "3801939e2d1a4a99ad08070cb05d7cae", "is_disabled": 0, "name": "3801939e2d1a4a99ad08070cb05d7cae", "lon": -77.03197416666667, "is_reserved": 0, "fusion_lon": 0.0, "lat": 38.91845166666667, "rental_uris": {"android": "https://dc.lft.to/lastmile_qr_scan", "ios": "https://dc.lft.to/lastmile_qr_scan"}, "fusion_lat": 0.0}, {"type": "electric_scooter", "bike_id": "8f0f774efc033d54b28c615b1e145a96", "is_disabled": 0, "name": "8f0f774efc033d54b28c615b1e145a96", "lon": -77.023775, "is_reserved": 0, "fusion_lon": 0.0, "lat": 38.9206825, "rental_uris": {"android": "https://dc.lft.to/lastmile_qr_scan", "ios": "https://dc.lft.to/lastmile_qr_scan"}, "fusion_lat": 0.0}, {"type": "electric_bike", "bike_id": "ca11310a4b4459aece31cc40b5a57ea3", "is_disabled": 0, "name": "ca11310a4b4459aece31cc40b5a57ea3", "lon": -77.08566716666667, "is_reserved": 0, "fusion_lon": 0.0, "lat": 38.9331945, "rental_uris": {"android": "https://dc.lft.to/lastmile_qr_scan", "ios": "https://dc.lft.to/lastmile_qr_scan"}, "fusion_lat": 0.0}, {"type": "electric_scooter", "bike_id": "7d031cd34c16f2923753e0556bbb0bd6", "is_disabled": 0, "name": "7d031cd34c16f2923753e0556bbb0bd6", "lon": -76.93603883333333, "is_reserved": 0, "fusion_lon": 0.0, "lat": 38.90945716666667, "rental_uris": {"android": "https://dc.lft.to/lastmile_qr_scan", "ios": "https://dc.lft.to/lastmile_qr_scan"}, "fusion_lat": 0.0}, {"type": "electric_scooter", "bike_id": "8f007b5c622542e2bf28677145e191cc", "is_disabled": 0, "name": "8f007b5c622542e2bf28677145e191cc", "lon": -76.99825, "is_reserved": 0, "fusion_lon": 0.0, "lat": 38.90713783333333, "rental_uris": {"android": "https://dc.lft.to/lastmile_qr_scan", "ios": "https://dc.lft.to/lastmile_qr_scan"}, "fusion_lat": 0.0}, {"type": "electric_scooter", "bike_id": "e830ce7c2b8c628a259b18c1c6a94b2e", "is_disabled": 0, "name": "e830ce7c2b8c628a259b18c1c6a94b2e", "lon": -77.03641433333334, "is_reserved": 0, "fusion_lon": 0.0, "lat": 38.91738316666667, "rental_uris": {"android": "https://dc.lft.to/lastmile_qr_scan", "ios": "https://dc.lft.to/lastmile_qr_scan"}, "fusion_lat": 0.0}, {"type": "electric_scooter", "bike_id": "cdf0ab5cbe46538ed78021ba16249dcb", "is_disabled": 0, "name": "cdf0ab5cbe46538ed78021ba16249dcb", "lon": -77.02207, "is_reserved": 0, "fusion_lon": 0.0, "lat": 38.91084566666667, "rental_uris": {"android": "https://dc.lft.to/lastmile_qr_scan", "ios": "https://dc.lft.to/lastmile_qr_scan"}, "fusion_lat": 0.0}, {"type": "electric_scooter", "bike_id": "a00a7c0ebcd816f179cb305916cd99e3", "is_disabled": 0, "name": "a00a7c0ebcd816f179cb305916cd99e3", "lon": -77.031775, "is_reserved": 0, "fusion_lon": 0.0, "lat": 38.9182825, "rental_uris": {"android": "https://dc.lft.to/lastmile_qr_scan", "ios": "https://dc.lft.to/lastmile_qr_scan"}, "fusion_lat": 0.0}, {"type": "electric_scooter", "bike_id": "f93fbcdec67961410039037e2df16e16", "is_disabled": 0, "name": "f93fbcdec67961410039037e2df16e16", "lon": -77.020027, "is_reserved": 0, "fusion_lon": 0.0, "lat": 38.907379, "rental_uris": {"android": "https://dc.lft.to/lastmile_qr_scan", "ios": "https://dc.lft.to/lastmile_qr_scan"}, "fusion_lat": 0.0}, {"type": "electric_scooter", "bike_id": "f724be8ab9200c1ad7cac504511416cf", "is_disabled": 0, "name": "f724be8ab9200c1ad7cac504511416cf", "lon": -77.00803733333333, "is_reserved": 0, "fusion_lon": 0.0, "lat": 38.92667866666667, "rental_uris": {"android": "https://dc.lft.to/lastmile_qr_scan", "ios": "https://dc.lft.to/lastmile_qr_scan"}, "fusion_lat": 0.0}, {"type": "electric_scooter", "bike_id": "06d443c9391f6d410f5c4be885c17bb6", "is_disabled": 0, "name": "06d443c9391f6d410f5c4be885c17bb6", "lon": -77.04353416666666, "is_reserved": 0, "fusion_lon": 0.0, "lat": 38.89633366666666, "rental_uris": {"android": "https://dc.lft.to/lastmile_qr_scan", "ios": "https://dc.lft.to/lastmile_qr_scan"}, "fusion_lat": 0.0}, {"type": "electric_scooter", "bike_id": "691beca2b3c07225632b9e67678eb35d", "is_disabled": 0, "name": "691beca2b3c07225632b9e67678eb35d", "lon": -77.01970533333333, "is_reserved": 0, "fusion_lon": 0.0, "lat": 38.923246666666664, "rental_uris": {"android": "https://dc.lft.to/lastmile_qr_scan", "ios": "https://dc.lft.to/lastmile_qr_scan"}, "fusion_lat": 0.0}, {"type": "electric_scooter", "bike_id": "b43bda59e4e546e796d0a2f6ae42b196", "is_disabled": 0, "name": "b43bda59e4e546e796d0a2f6ae42b196", "lon": -77.0325975, "is_reserved": 0, "fusion_lon": 0.0, "lat": 38.9396975, "rental_uris": {"android": "https://dc.lft.to/lastmile_qr_scan", "ios": "https://dc.lft.to/lastmile_qr_scan"}, "fusion_lat": 0.0}, {"type": "electric_scooter", "bike_id": "963335409f1b8242416825c452ff79cb", "is_disabled": 0, "name": "963335409f1b8242416825c452ff79cb", "lon": -77.03633483333333, "is_reserved": 0, "fusion_lon": 0.0, "lat": 38.93673066666667, "rental_uris": {"android": "https://dc.lft.to/lastmile_qr_scan", "ios": "https://dc.lft.to/lastmile_qr_scan"}, "fusion_lat": 0.0}, {"type": "electric_scooter", "bike_id": "5fcd137e2d407b6111c1537b495b0aa9", "is_disabled": 0, "name": "5fcd137e2d407b6111c1537b495b0aa9", "lon": -77.0218565, "is_reserved": 0, "fusion_lon": 0.0, "lat": 38.90656883333333, "rental_uris": {"android": "https://dc.lft.to/lastmile_qr_scan", "ios": "https://dc.lft.to/lastmile_qr_scan"}, "fusion_lat": 0.0}, {"type": "electric_scooter", "bike_id": "3bb18b4e7d12d50141b225821e47838b", "is_disabled": 0, "name": "3bb18b4e7d12d50141b225821e47838b", "lon": -77.00223733333333, "is_reserved": 0, "fusion_lon": 0.0, "lat": 38.90029466666667, "rental_uris": {"android": "https://dc.lft.to/lastmile_qr_scan", "ios": "https://dc.lft.to/lastmile_qr_scan"}, "fusion_lat": 0.0}, {"type": "electric_scooter", "bike_id": "c5834f98e6a5f490e478f0401f616e4f", "is_disabled": 0, "name": "c5834f98e6a5f490e478f0401f616e4f", "lon": -77.005567, "is_reserved": 0, "fusion_lon": 0.0, "lat": 38.8804135, "rental_uris": {"android": "https://dc.lft.to/lastmile_qr_scan", "ios": "https://dc.lft.to/lastmile_qr_scan"}, "fusion_lat": 0.0}, {"type": "electric_scooter", "bike_id": "30cb4aa233a2ea56c721e8d1d4564688", "is_disabled": 0, "name": "30cb4aa233a2ea56c721e8d1d4564688", "lon": -77.06420933333334, "is_reserved": 0, "fusion_lon": 0.0, "lat": 38.91455833333333, "rental_uris": {"android": "https://dc.lft.to/lastmile_qr_scan", "ios": "https://dc.lft.to/lastmile_qr_scan"}, "fusion_lat": 0.0}, {"type": "electric_scooter", "bike_id": "efd28a2cb90726ad95cd49c857496222", "is_disabled": 0, "name": "efd28a2cb90726ad95cd49c857496222", "lon": -77.0005655, "is_reserved": 0, "fusion_lon": 0.0, "lat": 38.906935, "rental_uris": {"android": "https://dc.lft.to/lastmile_qr_scan", "ios": "https://dc.lft.to/lastmile_qr_scan"}, "fusion_lat": 0.0}, {"type": "electric_scooter", "bike_id": "549a82d1dd91e7b83c3968985e1d6a84", "is_disabled": 0, "name": "549a82d1dd91e7b83c3968985e1d6a84", "lon": -77.06454283333333, "is_reserved": 0, "fusion_lon": 0.0, "lat": 38.9487885, "rental_uris": {"android": "https://dc.lft.to/lastmile_qr_scan", "ios": "https://dc.lft.to/lastmile_qr_scan"}, "fusion_lat": 0.0}, {"type": "electric_scooter", "bike_id": "886872f3a1e799f4f7f5a75dc08ef163", "is_disabled": 0, "name": "886872f3a1e799f4f7f5a75dc08ef163", "lon": -77.02292483333333, "is_reserved": 0, "fusion_lon": 0.0, "lat": 38.89500683333333, "rental_uris": {"android": "https://dc.lft.to/lastmile_qr_scan", "ios": "https://dc.lft.to/lastmile_qr_scan"}, "fusion_lat": 0.0}, {"type": "electric_scooter", "bike_id": "4661b0c1a807e4864d19dff72c755737", "is_disabled": 0, "name": "4661b0c1a807e4864d19dff72c755737", "lon": -76.9250685, "is_reserved": 0, "fusion_lon": 0.0, "lat": 38.886013, "rental_uris": {"android": "https://dc.lft.to/lastmile_qr_scan", "ios": "https://dc.lft.to/lastmile_qr_scan"}, "fusion_lat": 0.0}, {"type": "electric_scooter", "bike_id": "6cbf868a63937f4763e855a1c9e39f42", "is_disabled": 0, "name": "6cbf868a63937f4763e855a1c9e39f42", "lon": -77.0468035, "is_reserved": 0, "fusion_lon": 0.0, "lat": 38.892217, "rental_uris": {"android": "https://dc.lft.to/lastmile_qr_scan", "ios": "https://dc.lft.to/lastmile_qr_scan"}, "fusion_lat": 0.0}, {"type": "electric_scooter", "bike_id": "14829ca8761a3a771b2fceaead7517af", "is_disabled": 0, "name": "14829ca8761a3a771b2fceaead7517af", "lon": -77.0169215, "is_reserved": 0, "fusion_lon": 0.0, "lat": 38.906443, "rental_uris": {"android": "https://dc.lft.to/lastmile_qr_scan", "ios": "https://dc.lft.to/lastmile_qr_scan"}, "fusion_lat": 0.0}, {"type": "electric_bike", "bike_id": "f75ec4857aa9166b880db2cc1a7abeb1", "is_disabled": 0, "name": "f75ec4857aa9166b880db2cc1a7abeb1", "lon": -76.99028366666667, "is_reserved": 0, "fusion_lon": 0.0, "lat": 38.835837166666664, "rental_uris": {"android": "https://dc.lft.to/lastmile_qr_scan", "ios": "https://dc.lft.to/lastmile_qr_scan"}, "fusion_lat": 0.0}, {"type": "electric_bike", "bike_id": "14b6e1c58f9e8dc2b8bc02008356c9ca", "is_disabled": 0, "name": "14b6e1c58f9e8dc2b8bc02008356c9ca", "lon": -76.97227733333334, "is_reserved": 0, "fusion_lon": 0.0, "lat": 38.90040166666667, "rental_uris": {"android": "https://dc.lft.to/lastmile_qr_scan", "ios": "https://dc.lft.to/lastmile_qr_scan"}, "fusion_lat": 0.0}, {"type": "electric_bike", "bike_id": "5f19c7acfb7780a7247a5bf99cf5adc7", "is_disabled": 0, "name": "5f19c7acfb7780a7247a5bf99cf5adc7", "lon": -77.0214305, "is_reserved": 0, "fusion_lon": 0.0, "lat": 38.948037666666664, "rental_uris": {"android": "https://dc.lft.to/lastmile_qr_scan", "ios": "https://dc.lft.to/lastmile_qr_scan"}, "fusion_lat": 0.0}, {"type": "electric_scooter", "bike_id": "50938497b262c5576ea8906c55edb04c", "is_disabled": 0, "name": "50938497b262c5576ea8906c55edb04c", "lon": -77.01968533333333, "is_reserved": 0, "fusion_lon": 0.0, "lat": 38.923205, "rental_uris": {"android": "https://dc.lft.to/lastmile_qr_scan", "ios": "https://dc.lft.to/lastmile_qr_scan"}, "fusion_lat": 0.0}, {"type": "electric_scooter", "bike_id": "dee2a678be8ea96ff8937af50c789730", "is_disabled": 0, "name": "dee2a678be8ea96ff8937af50c789730", "lon": -77.023837, "is_reserved": 0, "fusion_lon": 0.0, "lat": 38.9096185, "rental_uris": {"android": "https://dc.lft.to/lastmile_qr_scan", "ios": "https://dc.lft.to/lastmile_qr_scan"}, "fusion_lat": 0.0}, {"type": "electric_scooter", "bike_id": "081bbc9868af1330e257d87af68b6020", "is_disabled": 0, "name": "081bbc9868af1330e257d87af68b6020", "lon": -77.033762, "is_reserved": 0, "fusion_lon": 0.0, "lat": 38.899729666666666, "rental_uris": {"android": "https://dc.lft.to/lastmile_qr_scan", "ios": "https://dc.lft.to/lastmile_qr_scan"}, "fusion_lat": 0.0}, {"type": "electric_scooter", "bike_id": "c337f4d2dad738abd72f19e20e71cc47", "is_disabled": 0, "name": "c337f4d2dad738abd72f19e20e71cc47", "lon": -77.0171045, "is_reserved": 0, "fusion_lon": 0.0, "lat": 38.904754833333335, "rental_uris": {"android": "https://dc.lft.to/lastmile_qr_scan", "ios": "https://dc.lft.to/lastmile_qr_scan"}, "fusion_lat": 0.0}, {"type": "electric_scooter", "bike_id": "9e735c1f32361a6a898f7a3f93433676", "is_disabled": 0, "name": "9e735c1f32361a6a898f7a3f93433676", "lon": -77.0209335, "is_reserved": 0, "fusion_lon": 0.0, "lat": 38.921579333333334, "rental_uris": {"android": "https://dc.lft.to/lastmile_qr_scan", "ios": "https://dc.lft.to/lastmile_qr_scan"}, "fusion_lat": 0.0}, {"type": "electric_scooter", "bike_id": "d4f03d85964cdba2b64a2b49d0101f86", "is_disabled": 0, "name": "d4f03d85964cdba2b64a2b49d0101f86", "lon": -77.03456333333334, "is_reserved": 0, "fusion_lon": 0.0, "lat": 38.913957, "rental_uris": {"android": "https://dc.lft.to/lastmile_qr_scan", "ios": "https://dc.lft.to/lastmile_qr_scan"}, "fusion_lat": 0.0}, {"type": "electric_bike", "bike_id": "61f01a791011cab26f56a3633acd83a9", "is_disabled": 0, "name": "61f01a791011cab26f56a3633acd83a9", "lon": -77.02142466666666, "is_reserved": 0, "fusion_lon": 0.0, "lat": 38.94804383333334, "rental_uris": {"android": "https://dc.lft.to/lastmile_qr_scan", "ios": "https://dc.lft.to/lastmile_qr_scan"}, "fusion_lat": 0.0}, {"type": "electric_scooter", "bike_id": "b1f43ae0dff2bddc9499bba182b3c77b", "is_disabled": 0, "name": "b1f43ae0dff2bddc9499bba182b3c77b", "lon": -77.02569766666667, "is_reserved": 0, "fusion_lon": 0.0, "lat": 38.88741566666667, "rental_uris": {"android": "https://dc.lft.to/lastmile_qr_scan", "ios": "https://dc.lft.to/lastmile_qr_scan"}, "fusion_lat": 0.0}, {"type": "electric_scooter", "bike_id": "03e283bb7454f537d39956720cee1e19", "is_disabled": 0, "name": "03e283bb7454f537d39956720cee1e19", "lon": -77.0241075, "is_reserved": 0, "fusion_lon": 0.0, "lat": 38.920674, "rental_uris": {"android": "https://dc.lft.to/lastmile_qr_scan", "ios": "https://dc.lft.to/lastmile_qr_scan"}, "fusion_lat": 0.0}, {"type": "electric_scooter", "bike_id": "78831b87cc177bbe819ceca222de3b58", "is_disabled": 0, "name": "78831b87cc177bbe819ceca222de3b58", "lon": -76.9885815, "is_reserved": 0, "fusion_lon": 0.0, "lat": 38.84424166666667, "rental_uris": {"android": "https://dc.lft.to/lastmile_qr_scan", "ios": "https://dc.lft.to/lastmile_qr_scan"}, "fusion_lat": 0.0}, {"type": "electric_scooter", "bike_id": "09acc1b82d7a42d582544f0450157b04", "is_disabled": 0, "name": "09acc1b82d7a42d582544f0450157b04", "lon": -77.01948683333333, "is_reserved": 0, "fusion_lon": 0.0, "lat": 38.92268216666667, "rental_uris": {"android": "https://dc.lft.to/lastmile_qr_scan", "ios": "https://dc.lft.to/lastmile_qr_scan"}, "fusion_lat": 0.0}, {"type": "electric_scooter", "bike_id": "2c03248d4f2887d3f9c05eb93b710150", "is_disabled": 0, "name": "2c03248d4f2887d3f9c05eb93b710150", "lon": -77.025624, "is_reserved": 0, "fusion_lon": 0.0, "lat": 38.9419205, "rental_uris": {"android": "https://dc.lft.to/lastmile_qr_scan", "ios": "https://dc.lft.to/lastmile_qr_scan"}, "fusion_lat": 0.0}, {"type": "electric_scooter", "bike_id": "cf506ab057d0f2c1816431187d80b2ce", "is_disabled": 0, "name": "cf506ab057d0f2c1816431187d80b2ce", "lon": -77.02068983333334, "is_reserved": 0, "fusion_lon": 0.0, "lat": 38.923682, "rental_uris": {"android": "https://dc.lft.to/lastmile_qr_scan", "ios": "https://dc.lft.to/lastmile_qr_scan"}, "fusion_lat": 0.0}, {"type": "electric_bike", "bike_id": "dc98fb4c71cb096077f558e94ff5745e", "is_disabled": 0, "name": "dc98fb4c71cb096077f558e94ff5745e", "lon": -77.09700033333333, "is_reserved": 0, "fusion_lon": 0.0, "lat": 38.88684966666667, "rental_uris": {"android": "https://dc.lft.to/lastmile_qr_scan", "ios": "https://dc.lft.to/lastmile_qr_scan"}, "fusion_lat": 0.0}, {"type": "electric_scooter", "bike_id": "a21b16595ff57bec07e34b6a937ab4d6", "is_disabled": 0, "name": "a21b16595ff57bec07e34b6a937ab4d6", "lon": -77.04686116666667, "is_reserved": 0, "fusion_lon": 0.0, "lat": 38.90215766666667, "rental_uris": {"android": "https://dc.lft.to/lastmile_qr_scan", "ios": "https://dc.lft.to/lastmile_qr_scan"}, "fusion_lat": 0.0}, {"type": "electric_scooter", "bike_id": "d736e0d9393285d37f4e6094c1afe14a", "is_disabled": 0, "name": "d736e0d9393285d37f4e6094c1afe14a", "lon": -77.0532305, "is_reserved": 0, "fusion_lon": 0.0, "lat": 38.9155015, "rental_uris": {"android": "https://dc.lft.to/lastmile_qr_scan", "ios": "https://dc.lft.to/lastmile_qr_scan"}, "fusion_lat": 0.0}, {"type": "electric_scooter", "bike_id": "e56f158656e5da552290e741b99a4207", "is_disabled": 0, "name": "e56f158656e5da552290e741b99a4207", "lon": -77.03956466666666, "is_reserved": 0, "fusion_lon": 0.0, "lat": 38.89889066666667, "rental_uris": {"android": "https://dc.lft.to/lastmile_qr_scan", "ios": "https://dc.lft.to/lastmile_qr_scan"}, "fusion_lat": 0.0}, {"type": "electric_scooter", "bike_id": "7f3d09ffcdc10f6490a15bdbef4ee154", "is_disabled": 0, "name": "7f3d09ffcdc10f6490a15bdbef4ee154", "lon": -77.036457, "is_reserved": 0, "fusion_lon": 0.0, "lat": 38.927016333333334, "rental_uris": {"android": "https://dc.lft.to/lastmile_qr_scan", "ios": "https://dc.lft.to/lastmile_qr_scan"}, "fusion_lat": 0.0}, {"type": "electric_scooter", "bike_id": "98e28a8fc30a5b88dc98881f6111d821", "is_disabled": 0, "name": "98e28a8fc30a5b88dc98881f6111d821", "lon": -77.03261016666667, "is_reserved": 0, "fusion_lon": 0.0, "lat": 38.93303433333333, "rental_uris": {"android": "https://dc.lft.to/lastmile_qr_scan", "ios": "https://dc.lft.to/lastmile_qr_scan"}, "fusion_lat": 0.0}, {"type": "electric_scooter", "bike_id": "347185fa9da12e0e60e0f5d6cae1d5ee", "is_disabled": 0, "name": "347185fa9da12e0e60e0f5d6cae1d5ee", "lon": -77.03508283333333, "is_reserved": 0, "fusion_lon": 0.0, "lat": 38.918805166666665, "rental_uris": {"android": "https://dc.lft.to/lastmile_qr_scan", "ios": "https://dc.lft.to/lastmile_qr_scan"}, "fusion_lat": 0.0}, {"type": "electric_scooter", "bike_id": "ef25db55fb53dbe61c1f28c62d13a715", "is_disabled": 0, "name": "ef25db55fb53dbe61c1f28c62d13a715", "lon": -77.03853066666667, "is_reserved": 0, "fusion_lon": 0.0, "lat": 38.909825833333336, "rental_uris": {"android": "https://dc.lft.to/lastmile_qr_scan", "ios": "https://dc.lft.to/lastmile_qr_scan"}, "fusion_lat": 0.0}, {"type": "electric_scooter", "bike_id": "bd718f0210ee795cd0c361e864aa6178", "is_disabled": 0, "name": "bd718f0210ee795cd0c361e864aa6178", "lon": -77.014524, "is_reserved": 0, "fusion_lon": 0.0, "lat": 38.91777116666667, "rental_uris": {"android": "https://dc.lft.to/lastmile_qr_scan", "ios": "https://dc.lft.to/lastmile_qr_scan"}, "fusion_lat": 0.0}, {"type": "electric_scooter", "bike_id": "cb687deb032d6df22b39954c4820a9b6", "is_disabled": 0, "name": "cb687deb032d6df22b39954c4820a9b6", "lon": -77.0219995, "is_reserved": 0, "fusion_lon": 0.0, "lat": 38.911203, "rental_uris": {"android": "https://dc.lft.to/lastmile_qr_scan", "ios": "https://dc.lft.to/lastmile_qr_scan"}, "fusion_lat": 0.0}, {"type": "electric_scooter", "bike_id": "3776c31dbc66bc7ace69f1e6d66b3e6a", "is_disabled": 0, "name": "3776c31dbc66bc7ace69f1e6d66b3e6a", "lon": -77.0626745, "is_reserved": 0, "fusion_lon": 0.0, "lat": 38.90593233333333, "rental_uris": {"android": "https://dc.lft.to/lastmile_qr_scan", "ios": "https://dc.lft.to/lastmile_qr_scan"}, "fusion_lat": 0.0}, {"type": "electric_scooter", "bike_id": "4f81fa6f11ee3acb750ee1417077546d", "is_disabled": 0, "name": "4f81fa6f11ee3acb750ee1417077546d", "lon": -77.03669233333333, "is_reserved": 0, "fusion_lon": 0.0, "lat": 38.9227065, "rental_uris": {"android": "https://dc.lft.to/lastmile_qr_scan", "ios": "https://dc.lft.to/lastmile_qr_scan"}, "fusion_lat": 0.0}, {"type": "electric_scooter", "bike_id": "236df10b806e67f0dded196c3a840743", "is_disabled": 0, "name": "236df10b806e67f0dded196c3a840743", "lon": -77.04875383333334, "is_reserved": 0, "fusion_lon": 0.0, "lat": 38.90086633333333, "rental_uris": {"android": "https://dc.lft.to/lastmile_qr_scan", "ios": "https://dc.lft.to/lastmile_qr_scan"}, "fusion_lat": 0.0}, {"type": "electric_scooter", "bike_id": "4e94ad2f07e5f4572012879cc8cb2ed9", "is_disabled": 0, "name": "4e94ad2f07e5f4572012879cc8cb2ed9", "lon": -77.04558933333334, "is_reserved": 0, "fusion_lon": 0.0, "lat": 38.900747333333335, "rental_uris": {"android": "https://dc.lft.to/lastmile_qr_scan", "ios": "https://dc.lft.to/lastmile_qr_scan"}, "fusion_lat": 0.0}, {"type": "electric_scooter", "bike_id": "b1c858b70d43d1bd840f901269c647e7", "is_disabled": 0, "name": "b1c858b70d43d1bd840f901269c647e7", "lon": -77.01189133333334, "is_reserved": 0, "fusion_lon": 0.0, "lat": 38.9001235, "rental_uris": {"android": "https://dc.lft.to/lastmile_qr_scan", "ios": "https://dc.lft.to/lastmile_qr_scan"}, "fusion_lat": 0.0}, {"type": "electric_scooter", "bike_id": "e60dcc42448dc8127aa41a9290c2bc23", "is_disabled": 0, "name": "e60dcc42448dc8127aa41a9290c2bc23", "lon": -77.06985566666667, "is_reserved": 0, "fusion_lon": 0.0, "lat": 38.955282, "rental_uris": {"android": "https://dc.lft.to/lastmile_qr_scan", "ios": "https://dc.lft.to/lastmile_qr_scan"}, "fusion_lat": 0.0}, {"type": "electric_scooter", "bike_id": "14e540030892dd501aae72b7eece0abe", "is_disabled": 0, "name": "14e540030892dd501aae72b7eece0abe", "lon": -76.99665766666666, "is_reserved": 0, "fusion_lon": 0.0, "lat": 38.932429, "rental_uris": {"android": "https://dc.lft.to/lastmile_qr_scan", "ios": "https://dc.lft.to/lastmile_qr_scan"}, "fusion_lat": 0.0}, {"type": "electric_scooter", "bike_id": "4bd6d3ecaa49e918525fb9ce600c97e0", "is_disabled": 0, "name": "4bd6d3ecaa49e918525fb9ce600c97e0", "lon": -77.04735166666667, "is_reserved": 0, "fusion_lon": 0.0, "lat": 38.895498333333336, "rental_uris": {"android": "https://dc.lft.to/lastmile_qr_scan", "ios": "https://dc.lft.to/lastmile_qr_scan"}, "fusion_lat": 0.0}, {"type": "electric_scooter", "bike_id": "ff07e240eda6fdf0d17cfae6fe3db6a2", "is_disabled": 0, "name": "ff07e240eda6fdf0d17cfae6fe3db6a2", "lon": -77.04996833333334, "is_reserved": 0, "fusion_lon": 0.0, "lat": 38.905348833333335, "rental_uris": {"android": "https://dc.lft.to/lastmile_qr_scan", "ios": "https://dc.lft.to/lastmile_qr_scan"}, "fusion_lat": 0.0}, {"type": "electric_scooter", "bike_id": "509ef18f2c38031944d3d1205bed3a4b", "is_disabled": 0, "name": "509ef18f2c38031944d3d1205bed3a4b", "lon": -77.03211683333333, "is_reserved": 0, "fusion_lon": 0.0, "lat": 38.91851616666667, "rental_uris": {"android": "https://dc.lft.to/lastmile_qr_scan", "ios": "https://dc.lft.to/lastmile_qr_scan"}, "fusion_lat": 0.0}, {"type": "electric_scooter", "bike_id": "30d202ea3663acf896f190de038b0422", "is_disabled": 0, "name": "30d202ea3663acf896f190de038b0422", "lon": -76.93188333333333, "is_reserved": 0, "fusion_lon": 0.0, "lat": 38.89858866666667, "rental_uris": {"android": "https://dc.lft.to/lastmile_qr_scan", "ios": "https://dc.lft.to/lastmile_qr_scan"}, "fusion_lat": 0.0}, {"type": "electric_scooter", "bike_id": "a84c653880416b62bd574dd353c28ad1", "is_disabled": 0, "name": "a84c653880416b62bd574dd353c28ad1", "lon": -77.0101945, "is_reserved": 0, "fusion_lon": 0.0, "lat": 38.9125805, "rental_uris": {"android": "https://dc.lft.to/lastmile_qr_scan", "ios": "https://dc.lft.to/lastmile_qr_scan"}, "fusion_lat": 0.0}, {"type": "electric_scooter", "bike_id": "99d3d4f79f285e43ef73c8a5246c7b02", "is_disabled": 0, "name": "99d3d4f79f285e43ef73c8a5246c7b02", "lon": -77.057541, "is_reserved": 0, "fusion_lon": 0.0, "lat": 38.92447766666667, "rental_uris": {"android": "https://dc.lft.to/lastmile_qr_scan", "ios": "https://dc.lft.to/lastmile_qr_scan"}, "fusion_lat": 0.0}, {"type": "electric_scooter", "bike_id": "95d942694d39dc895ee9ddd0045aca67", "is_disabled": 0, "name": "95d942694d39dc895ee9ddd0045aca67", "lon": -77.0217685, "is_reserved": 0, "fusion_lon": 0.0, "lat": 38.942897333333335, "rental_uris": {"android": "https://dc.lft.to/lastmile_qr_scan", "ios": "https://dc.lft.to/lastmile_qr_scan"}, "fusion_lat": 0.0}, {"type": "electric_scooter", "bike_id": "7006955273249059c0b2b8d053043e83", "is_disabled": 0, "name": "7006955273249059c0b2b8d053043e83", "lon": -77.038632, "is_reserved": 0, "fusion_lon": 0.0, "lat": 38.909433666666665, "rental_uris": {"android": "https://dc.lft.to/lastmile_qr_scan", "ios": "https://dc.lft.to/lastmile_qr_scan"}, "fusion_lat": 0.0}, {"type": "electric_scooter", "bike_id": "5ad14fb731021c39099ff53b3f66f0bc", "is_disabled": 0, "name": "5ad14fb731021c39099ff53b3f66f0bc", "lon": -77.04623666666667, "is_reserved": 0, "fusion_lon": 0.0, "lat": 38.902767833333336, "rental_uris": {"android": "https://dc.lft.to/lastmile_qr_scan", "ios": "https://dc.lft.to/lastmile_qr_scan"}, "fusion_lat": 0.0}, {"type": "electric_scooter", "bike_id": "15a9d9ef0608e22b7733b6eed4a95bf9", "is_disabled": 0, "name": "15a9d9ef0608e22b7733b6eed4a95bf9", "lon": -77.0156435, "is_reserved": 0, "fusion_lon": 0.0, "lat": 38.88599883333333, "rental_uris": {"android": "https://dc.lft.to/lastmile_qr_scan", "ios": "https://dc.lft.to/lastmile_qr_scan"}, "fusion_lat": 0.0}, {"type": "electric_scooter", "bike_id": "aad93ca75e9dca6ffebcc009e376f175", "is_disabled": 0, "name": "aad93ca75e9dca6ffebcc009e376f175", "lon": -77.0689165, "is_reserved": 0, "fusion_lon": 0.0, "lat": 38.905262666666665, "rental_uris": {"android": "https://dc.lft.to/lastmile_qr_scan", "ios": "https://dc.lft.to/lastmile_qr_scan"}, "fusion_lat": 0.0}, {"type": "electric_scooter", "bike_id": "a6e00bed71163296411c78c9ab00bbb0", "is_disabled": 0, "name": "a6e00bed71163296411c78c9ab00bbb0", "lon": -77.03223366666667, "is_reserved": 0, "fusion_lon": 0.0, "lat": 38.92863966666667, "rental_uris": {"android": "https://dc.lft.to/lastmile_qr_scan", "ios": "https://dc.lft.to/lastmile_qr_scan"}, "fusion_lat": 0.0}, {"type": "electric_scooter", "bike_id": "ec20ba1e766f8d26b01aca244805a877", "is_disabled": 0, "name": "ec20ba1e766f8d26b01aca244805a877", "lon": -77.02115616666667, "is_reserved": 0, "fusion_lon": 0.0, "lat": 38.9236155, "rental_uris": {"android": "https://dc.lft.to/lastmile_qr_scan", "ios": "https://dc.lft.to/lastmile_qr_scan"}, "fusion_lat": 0.0}, {"type": "electric_bike", "bike_id": "045cd3c8fe06296a041c83d54a004fec", "is_disabled": 0, "name": "045cd3c8fe06296a041c83d54a004fec", "lon": -76.94231533333334, "is_reserved": 0, "fusion_lon": 0.0, "lat": 38.89047, "rental_uris": {"android": "https://dc.lft.to/lastmile_qr_scan", "ios": "https://dc.lft.to/lastmile_qr_scan"}, "fusion_lat": 0.0}, {"type": "electric_scooter", "bike_id": "4f84f0b05bcf9ea0193bb5bcb013dcc2", "is_disabled": 0, "name": "4f84f0b05bcf9ea0193bb5bcb013dcc2", "lon": -77.0222835, "is_reserved": 0, "fusion_lon": 0.0, "lat": 38.912735833333336, "rental_uris": {"android": "https://dc.lft.to/lastmile_qr_scan", "ios": "https://dc.lft.to/lastmile_qr_scan"}, "fusion_lat": 0.0}, {"type": "electric_scooter", "bike_id": "82990a955840c319ccd958d1d78ea34f", "is_disabled": 0, "name": "82990a955840c319ccd958d1d78ea34f", "lon": -77.04186733333333, "is_reserved": 0, "fusion_lon": 0.0, "lat": 38.920512, "rental_uris": {"android": "https://dc.lft.to/lastmile_qr_scan", "ios": "https://dc.lft.to/lastmile_qr_scan"}, "fusion_lat": 0.0}, {"type": "electric_scooter", "bike_id": "e2e231831582f31404fb57dfa91bcb2d", "is_disabled": 0, "name": "e2e231831582f31404fb57dfa91bcb2d", "lon": -77.03210716666666, "is_reserved": 0, "fusion_lon": 0.0, "lat": 38.910314666666665, "rental_uris": {"android": "https://dc.lft.to/lastmile_qr_scan", "ios": "https://dc.lft.to/lastmile_qr_scan"}, "fusion_lat": 0.0}, {"type": "electric_scooter", "bike_id": "6bea60c2215d2f60b02f5d111a1acccf", "is_disabled": 0, "name": "6bea60c2215d2f60b02f5d111a1acccf", "lon": -77.02290633333334, "is_reserved": 0, "fusion_lon": 0.0, "lat": 38.91675983333333, "rental_uris": {"android": "https://dc.lft.to/lastmile_qr_scan", "ios": "https://dc.lft.to/lastmile_qr_scan"}, "fusion_lat": 0.0}, {"type": "electric_bike", "bike_id": "58d01247d06702f8d4bbfc1a8ca9e055", "is_disabled": 0, "name": "58d01247d06702f8d4bbfc1a8ca9e055", "lon": -77.0669645, "is_reserved": 0, "fusion_lon": 0.0, "lat": 38.8316715, "rental_uris": {"android": "https://dc.lft.to/lastmile_qr_scan", "ios": "https://dc.lft.to/lastmile_qr_scan"}, "fusion_lat": 0.0}, {"type": "electric_scooter", "bike_id": "a8005e82936f8f0a9976c9208be49db5", "is_disabled": 0, "name": "a8005e82936f8f0a9976c9208be49db5", "lon": -77.01451783333333, "is_reserved": 0, "fusion_lon": 0.0, "lat": 38.90962433333333, "rental_uris": {"android": "https://dc.lft.to/lastmile_qr_scan", "ios": "https://dc.lft.to/lastmile_qr_scan"}, "fusion_lat": 0.0}, {"type": "electric_scooter", "bike_id": "da0cdfa4275f67700ba7883bcf4d851f", "is_disabled": 0, "name": "da0cdfa4275f67700ba7883bcf4d851f", "lon": -76.97041183333333, "is_reserved": 0, "fusion_lon": 0.0, "lat": 38.8731565, "rental_uris": {"android": "https://dc.lft.to/lastmile_qr_scan", "ios": "https://dc.lft.to/lastmile_qr_scan"}, "fusion_lat": 0.0}, {"type": "electric_scooter", "bike_id": "ace4b5602428a24317d9082eac4a7d6e", "is_disabled": 0, "name": "ace4b5602428a24317d9082eac4a7d6e", "lon": -77.0035055, "is_reserved": 0, "fusion_lon": 0.0, "lat": 38.87773283333333, "rental_uris": {"android": "https://dc.lft.to/lastmile_qr_scan", "ios": "https://dc.lft.to/lastmile_qr_scan"}, "fusion_lat": 0.0}, {"type": "electric_scooter", "bike_id": "d15782accb1f541b5a937cf8638ca450", "is_disabled": 0, "name": "d15782accb1f541b5a937cf8638ca450", "lon": -77.02788866666667, "is_reserved": 0, "fusion_lon": 0.0, "lat": 38.96192416666667, "rental_uris": {"android": "https://dc.lft.to/lastmile_qr_scan", "ios": "https://dc.lft.to/lastmile_qr_scan"}, "fusion_lat": 0.0}, {"type": "electric_scooter", "bike_id": "318b9aa187a989e6491dbbe6425a0750", "is_disabled": 0, "name": "318b9aa187a989e6491dbbe6425a0750", "lon": -77.0208315, "is_reserved": 0, "fusion_lon": 0.0, "lat": 38.88184666666667, "rental_uris": {"android": "https://dc.lft.to/lastmile_qr_scan", "ios": "https://dc.lft.to/lastmile_qr_scan"}, "fusion_lat": 0.0}, {"type": "electric_scooter", "bike_id": "78ecc56edbb5d6d260f49cf31b663c16", "is_disabled": 0, "name": "78ecc56edbb5d6d260f49cf31b663c16", "lon": -77.04002433333333, "is_reserved": 0, "fusion_lon": 0.0, "lat": 38.93426916666667, "rental_uris": {"android": "https://dc.lft.to/lastmile_qr_scan", "ios": "https://dc.lft.to/lastmile_qr_scan"}, "fusion_lat": 0.0}, {"type": "electric_scooter", "bike_id": "02c2a241ff94bdb9bcb2c526ddf3e77b", "is_disabled": 0, "name": "02c2a241ff94bdb9bcb2c526ddf3e77b", "lon": -76.9887325, "is_reserved": 0, "fusion_lon": 0.0, "lat": 38.94071316666667, "rental_uris": {"android": "https://dc.lft.to/lastmile_qr_scan", "ios": "https://dc.lft.to/lastmile_qr_scan"}, "fusion_lat": 0.0}, {"type": "electric_scooter", "bike_id": "e36ffb47f0c2f77b4c23267138966704", "is_disabled": 0, "name": "e36ffb47f0c2f77b4c23267138966704", "lon": -77.00831883333333, "is_reserved": 0, "fusion_lon": 0.0, "lat": 38.875975, "rental_uris": {"android": "https://dc.lft.to/lastmile_qr_scan", "ios": "https://dc.lft.to/lastmile_qr_scan"}, "fusion_lat": 0.0}, {"type": "electric_bike", "bike_id": "c6cbdf55f815b82a8ff6913f1585fc60", "is_disabled": 0, "name": "c6cbdf55f815b82a8ff6913f1585fc60", "lon": -76.99381916666667, "is_reserved": 0, "fusion_lon": 0.0, "lat": 38.990922166666664, "rental_uris": {"android": "https://dc.lft.to/lastmile_qr_scan", "ios": "https://dc.lft.to/lastmile_qr_scan"}, "fusion_lat": 0.0}, {"type": "electric_scooter", "bike_id": "18f8a9d12c71b91a19947df75c58c254", "is_disabled": 0, "name": "18f8a9d12c71b91a19947df75c58c254", "lon": -77.02699383333334, "is_reserved": 0, "fusion_lon": 0.0, "lat": 38.90243316666667, "rental_uris": {"android": "https://dc.lft.to/lastmile_qr_scan", "ios": "https://dc.lft.to/lastmile_qr_scan"}, "fusion_lat": 0.0}, {"type": "electric_scooter", "bike_id": "6591677d2f06be568439a1e10b7f2b1e", "is_disabled": 0, "name": "6591677d2f06be568439a1e10b7f2b1e", "lon": -76.9975405, "is_reserved": 0, "fusion_lon": 0.0, "lat": 38.922753, "rental_uris": {"android": "https://dc.lft.to/lastmile_qr_scan", "ios": "https://dc.lft.to/lastmile_qr_scan"}, "fusion_lat": 0.0}, {"type": "electric_scooter", "bike_id": "3050d8cb3c845a4a9f24c2b4ef8d50ac", "is_disabled": 0, "name": "3050d8cb3c845a4a9f24c2b4ef8d50ac", "lon": -77.014528, "is_reserved": 0, "fusion_lon": 0.0, "lat": 38.874236, "rental_uris": {"android": "https://dc.lft.to/lastmile_qr_scan", "ios": "https://dc.lft.to/lastmile_qr_scan"}, "fusion_lat": 0.0}, {"type": "electric_scooter", "bike_id": "2fa9f19ee84921ff66b2186ea2015c8c", "is_disabled": 0, "name": "2fa9f19ee84921ff66b2186ea2015c8c", "lon": -77.03860616666667, "is_reserved": 0, "fusion_lon": 0.0, "lat": 38.909785666666664, "rental_uris": {"android": "https://dc.lft.to/lastmile_qr_scan", "ios": "https://dc.lft.to/lastmile_qr_scan"}, "fusion_lat": 0.0}, {"type": "electric_scooter", "bike_id": "5d293145b06a37075497093301870b09", "is_disabled": 0, "name": "5d293145b06a37075497093301870b09", "lon": -77.01910516666666, "is_reserved": 0, "fusion_lon": 0.0, "lat": 38.9233925, "rental_uris": {"android": "https://dc.lft.to/lastmile_qr_scan", "ios": "https://dc.lft.to/lastmile_qr_scan"}, "fusion_lat": 0.0}, {"type": "electric_scooter", "bike_id": "765440e6701d51e0cf736703430845e2", "is_disabled": 0, "name": "765440e6701d51e0cf736703430845e2", "lon": -76.936326, "is_reserved": 0, "fusion_lon": 0.0, "lat": 38.8835105, "rental_uris": {"android": "https://dc.lft.to/lastmile_qr_scan", "ios": "https://dc.lft.to/lastmile_qr_scan"}, "fusion_lat": 0.0}, {"type": "electric_scooter", "bike_id": "e0ff5800f8fad001e64948cdaf3becc7", "is_disabled": 0, "name": "e0ff5800f8fad001e64948cdaf3becc7", "lon": -76.9308485, "is_reserved": 0, "fusion_lon": 0.0, "lat": 38.89558433333333, "rental_uris": {"android": "https://dc.lft.to/lastmile_qr_scan", "ios": "https://dc.lft.to/lastmile_qr_scan"}, "fusion_lat": 0.0}, {"type": "electric_bike", "bike_id": "ff8000ac2c7ab0a5d53356e1cddf184c", "is_disabled": 0, "name": "ff8000ac2c7ab0a5d53356e1cddf184c", "lon": -77.02435983333334, "is_reserved": 0, "fusion_lon": 0.0, "lat": 38.923012166666666, "rental_uris": {"android": "https://dc.lft.to/lastmile_qr_scan", "ios": "https://dc.lft.to/lastmile_qr_scan"}, "fusion_lat": 0.0}, {"type": "electric_scooter", "bike_id": "fc683f65cd1a4f1e60f17af58d3dfbee", "is_disabled": 0, "name": "fc683f65cd1a4f1e60f17af58d3dfbee", "lon": -77.00052983333333, "is_reserved": 0, "fusion_lon": 0.0, "lat": 38.87502933333333, "rental_uris": {"android": "https://dc.lft.to/lastmile_qr_scan", "ios": "https://dc.lft.to/lastmile_qr_scan"}, "fusion_lat": 0.0}, {"type": "electric_scooter", "bike_id": "2e6fea0cc06ffd38c9129d0250ae9bcf", "is_disabled": 0, "name": "2e6fea0cc06ffd38c9129d0250ae9bcf", "lon": -77.01995866666667, "is_reserved": 0, "fusion_lon": 0.0, "lat": 38.913628, "rental_uris": {"android": "https://dc.lft.to/lastmile_qr_scan", "ios": "https://dc.lft.to/lastmile_qr_scan"}, "fusion_lat": 0.0}, {"type": "electric_scooter", "bike_id": "1908279e5e63b20a2c321423e9aeca20", "is_disabled": 0, "name": "1908279e5e63b20a2c321423e9aeca20", "lon": -77.00799133333334, "is_reserved": 0, "fusion_lon": 0.0, "lat": 38.89717266666667, "rental_uris": {"android": "https://dc.lft.to/lastmile_qr_scan", "ios": "https://dc.lft.to/lastmile_qr_scan"}, "fusion_lat": 0.0}, {"type": "electric_scooter", "bike_id": "5788852fa925e02d9234ffd41eec4dcc", "is_disabled": 0, "name": "5788852fa925e02d9234ffd41eec4dcc", "lon": -77.03267866666667, "is_reserved": 0, "fusion_lon": 0.0, "lat": 38.9351795, "rental_uris": {"android": "https://dc.lft.to/lastmile_qr_scan", "ios": "https://dc.lft.to/lastmile_qr_scan"}, "fusion_lat": 0.0}, {"type": "electric_scooter", "bike_id": "d3ce05f14fca7957156c13e744ad4e35", "is_disabled": 0, "name": "d3ce05f14fca7957156c13e744ad4e35", "lon": -77.03860883333333, "is_reserved": 0, "fusion_lon": 0.0, "lat": 38.9097955, "rental_uris": {"android": "https://dc.lft.to/lastmile_qr_scan", "ios": "https://dc.lft.to/lastmile_qr_scan"}, "fusion_lat": 0.0}, {"type": "electric_scooter", "bike_id": "791aacec5d49ef94f63b8574a9d2fe1f", "is_disabled": 0, "name": "791aacec5d49ef94f63b8574a9d2fe1f", "lon": -77.04386916666667, "is_reserved": 0, "fusion_lon": 0.0, "lat": 38.91065183333333, "rental_uris": {"android": "https://dc.lft.to/lastmile_qr_scan", "ios": "https://dc.lft.to/lastmile_qr_scan"}, "fusion_lat": 0.0}, {"type": "electric_scooter", "bike_id": "4be28af40782e4129ca56c84aa1157b6", "is_disabled": 0, "name": "4be28af40782e4129ca56c84aa1157b6", "lon": -77.04532533333334, "is_reserved": 0, "fusion_lon": 0.0, "lat": 38.91827816666667, "rental_uris": {"android": "https://dc.lft.to/lastmile_qr_scan", "ios": "https://dc.lft.to/lastmile_qr_scan"}, "fusion_lat": 0.0}, {"type": "electric_scooter", "bike_id": "fde50dfc0dd93ca004e1f4aa6410b49f", "is_disabled": 0, "name": "fde50dfc0dd93ca004e1f4aa6410b49f", "lon": -77.02198233333333, "is_reserved": 0, "fusion_lon": 0.0, "lat": 38.910588833333335, "rental_uris": {"android": "https://dc.lft.to/lastmile_qr_scan", "ios": "https://dc.lft.to/lastmile_qr_scan"}, "fusion_lat": 0.0}, {"type": "electric_scooter", "bike_id": "aee11a668319e8a81f75bc42d5bdd880", "is_disabled": 0, "name": "aee11a668319e8a81f75bc42d5bdd880", "lon": -77.01861416666667, "is_reserved": 0, "fusion_lon": 0.0, "lat": 38.9149535, "rental_uris": {"android": "https://dc.lft.to/lastmile_qr_scan", "ios": "https://dc.lft.to/lastmile_qr_scan"}, "fusion_lat": 0.0}, {"type": "electric_bike", "bike_id": "fa7deef289199c36a220cf30c8d048f3", "is_disabled": 0, "name": "fa7deef289199c36a220cf30c8d048f3", "lon": -77.0791835, "is_reserved": 0, "fusion_lon": 0.0, "lat": 38.838258, "rental_uris": {"android": "https://dc.lft.to/lastmile_qr_scan", "ios": "https://dc.lft.to/lastmile_qr_scan"}, "fusion_lat": 0.0}, {"type": "electric_bike", "bike_id": "049500f1be19ddb0527ebd1e8e58ab73", "is_disabled": 0, "name": "049500f1be19ddb0527ebd1e8e58ab73", "lon": -77.10295333333333, "is_reserved": 0, "fusion_lon": 0.0, "lat": 38.852546833333335, "rental_uris": {"android": "https://dc.lft.to/lastmile_qr_scan", "ios": "https://dc.lft.to/lastmile_qr_scan"}, "fusion_lat": 0.0}, {"type": "electric_bike", "bike_id": "ecf8f0d49d30a492e0a2f1a2138358dc", "is_disabled": 0, "name": "ecf8f0d49d30a492e0a2f1a2138358dc", "lon": -76.97966633333333, "is_reserved": 0, "fusion_lon": 0.0, "lat": 38.920355, "rental_uris": {"android": "https://dc.lft.to/lastmile_qr_scan", "ios": "https://dc.lft.to/lastmile_qr_scan"}, "fusion_lat": 0.0}, {"type": "electric_scooter", "bike_id": "71cbca21887797a4589f73d3d5917090", "is_disabled": 0, "name": "71cbca21887797a4589f73d3d5917090", "lon": -77.03860366666666, "is_reserved": 0, "fusion_lon": 0.0, "lat": 38.91682683333333, "rental_uris": {"android": "https://dc.lft.to/lastmile_qr_scan", "ios": "https://dc.lft.to/lastmile_qr_scan"}, "fusion_lat": 0.0}, {"type": "electric_scooter", "bike_id": "c7349fb49cb90a0b2f68e46801c29649", "is_disabled": 0, "name": "c7349fb49cb90a0b2f68e46801c29649", "lon": -76.93367033333334, "is_reserved": 0, "fusion_lon": 0.0, "lat": 38.89832583333333, "rental_uris": {"android": "https://dc.lft.to/lastmile_qr_scan", "ios": "https://dc.lft.to/lastmile_qr_scan"}, "fusion_lat": 0.0}, {"type": "electric_scooter", "bike_id": "747ba4e6f7ff1b9db4c1bdcb44d09e69", "is_disabled": 0, "name": "747ba4e6f7ff1b9db4c1bdcb44d09e69", "lon": -77.03355883333333, "is_reserved": 0, "fusion_lon": 0.0, "lat": 38.9358495, "rental_uris": {"android": "https://dc.lft.to/lastmile_qr_scan", "ios": "https://dc.lft.to/lastmile_qr_scan"}, "fusion_lat": 0.0}, {"type": "electric_scooter", "bike_id": "4286aa144b1359a8da855e1dbb1321ea", "is_disabled": 0, "name": "4286aa144b1359a8da855e1dbb1321ea", "lon": -77.01947916666667, "is_reserved": 0, "fusion_lon": 0.0, "lat": 38.923363333333334, "rental_uris": {"android": "https://dc.lft.to/lastmile_qr_scan", "ios": "https://dc.lft.to/lastmile_qr_scan"}, "fusion_lat": 0.0}, {"type": "electric_scooter", "bike_id": "7575984c33f53d4ce4d989cea3633efe", "is_disabled": 0, "name": "7575984c33f53d4ce4d989cea3633efe", "lon": -77.02569266666667, "is_reserved": 0, "fusion_lon": 0.0, "lat": 38.948485166666664, "rental_uris": {"android": "https://dc.lft.to/lastmile_qr_scan", "ios": "https://dc.lft.to/lastmile_qr_scan"}, "fusion_lat": 0.0}, {"type": "electric_scooter", "bike_id": "fa10881da60531a6c55d94670c78e8d8", "is_disabled": 0, "name": "fa10881da60531a6c55d94670c78e8d8", "lon": -77.00667966666667, "is_reserved": 0, "fusion_lon": 0.0, "lat": 38.90978716666667, "rental_uris": {"android": "https://dc.lft.to/lastmile_qr_scan", "ios": "https://dc.lft.to/lastmile_qr_scan"}, "fusion_lat": 0.0}, {"type": "electric_scooter", "bike_id": "42000dd7eb8481d35ceff5fa023cd87f", "is_disabled": 0, "name": "42000dd7eb8481d35ceff5fa023cd87f", "lon": -77.02430433333333, "is_reserved": 0, "fusion_lon": 0.0, "lat": 38.9209565, "rental_uris": {"android": "https://dc.lft.to/lastmile_qr_scan", "ios": "https://dc.lft.to/lastmile_qr_scan"}, "fusion_lat": 0.0}, {"type": "electric_bike", "bike_id": "b9f6a637df3d060a97a2b056f4a45ce8", "is_disabled": 0, "name": "b9f6a637df3d060a97a2b056f4a45ce8", "lon": -77.23179383333333, "is_reserved": 0, "fusion_lon": 0.0, "lat": 38.9289275, "rental_uris": {"android": "https://dc.lft.to/lastmile_qr_scan", "ios": "https://dc.lft.to/lastmile_qr_scan"}, "fusion_lat": 0.0}, {"type": "electric_scooter", "bike_id": "6d570b5be383aa38866519cb3fce28bf", "is_disabled": 0, "name": "6d570b5be383aa38866519cb3fce28bf", "lon": -77.03249616666666, "is_reserved": 0, "fusion_lon": 0.0, "lat": 38.919917, "rental_uris": {"android": "https://dc.lft.to/lastmile_qr_scan", "ios": "https://dc.lft.to/lastmile_qr_scan"}, "fusion_lat": 0.0}, {"type": "electric_scooter", "bike_id": "53b3ee05f64f2c720bf569988ca173b7", "is_disabled": 0, "name": "53b3ee05f64f2c720bf569988ca173b7", "lon": -77.02388666666667, "is_reserved": 0, "fusion_lon": 0.0, "lat": 38.937121166666664, "rental_uris": {"android": "https://dc.lft.to/lastmile_qr_scan", "ios": "https://dc.lft.to/lastmile_qr_scan"}, "fusion_lat": 0.0}, {"type": "electric_scooter", "bike_id": "9e15509cfc5397cf46c64345d3342745", "is_disabled": 0, "name": "9e15509cfc5397cf46c64345d3342745", "lon": -77.02765183333334, "is_reserved": 0, "fusion_lon": 0.0, "lat": 38.9541735, "rental_uris": {"android": "https://dc.lft.to/lastmile_qr_scan", "ios": "https://dc.lft.to/lastmile_qr_scan"}, "fusion_lat": 0.0}, {"type": "electric_scooter", "bike_id": "ae62758e74107ad594fc3c4e601ff943", "is_disabled": 0, "name": "ae62758e74107ad594fc3c4e601ff943", "lon": -77.0652695, "is_reserved": 0, "fusion_lon": 0.0, "lat": 38.905306833333334, "rental_uris": {"android": "https://dc.lft.to/lastmile_qr_scan", "ios": "https://dc.lft.to/lastmile_qr_scan"}, "fusion_lat": 0.0}, {"type": "electric_scooter", "bike_id": "5cf1ca6d5a67b23f0b779476a5eb1b35", "is_disabled": 0, "name": "5cf1ca6d5a67b23f0b779476a5eb1b35", "lon": -77.04698183333333, "is_reserved": 0, "fusion_lon": 0.0, "lat": 38.902870666666665, "rental_uris": {"android": "https://dc.lft.to/lastmile_qr_scan", "ios": "https://dc.lft.to/lastmile_qr_scan"}, "fusion_lat": 0.0}, {"type": "electric_scooter", "bike_id": "ad22692058118dda9a52bc5446b5bd9d", "is_disabled": 0, "name": "ad22692058118dda9a52bc5446b5bd9d", "lon": -77.023644, "is_reserved": 0, "fusion_lon": 0.0, "lat": 38.90217666666667, "rental_uris": {"android": "https://dc.lft.to/lastmile_qr_scan", "ios": "https://dc.lft.to/lastmile_qr_scan"}, "fusion_lat": 0.0}, {"type": "electric_scooter", "bike_id": "5bd36fc5db9955b999b000b253f1c5b1", "is_disabled": 0, "name": "5bd36fc5db9955b999b000b253f1c5b1", "lon": -77.04253283333334, "is_reserved": 0, "fusion_lon": 0.0, "lat": 38.91781483333333, "rental_uris": {"android": "https://dc.lft.to/lastmile_qr_scan", "ios": "https://dc.lft.to/lastmile_qr_scan"}, "fusion_lat": 0.0}, {"type": "electric_scooter", "bike_id": "d8be841f7dea2ae5da3c4f18cc1d27be", "is_disabled": 0, "name": "d8be841f7dea2ae5da3c4f18cc1d27be", "lon": -77.0195675, "is_reserved": 0, "fusion_lon": 0.0, "lat": 38.923280166666665, "rental_uris": {"android": "https://dc.lft.to/lastmile_qr_scan", "ios": "https://dc.lft.to/lastmile_qr_scan"}, "fusion_lat": 0.0}, {"type": "electric_scooter", "bike_id": "638519186b3aa75a38bff91f4836fbe5", "is_disabled": 0, "name": "638519186b3aa75a38bff91f4836fbe5", "lon": -77.02714033333334, "is_reserved": 0, "fusion_lon": 0.0, "lat": 38.91658916666667, "rental_uris": {"android": "https://dc.lft.to/lastmile_qr_scan", "ios": "https://dc.lft.to/lastmile_qr_scan"}, "fusion_lat": 0.0}, {"type": "electric_scooter", "bike_id": "a154fd6ba861fa307d9766e3f1ef7c1d", "is_disabled": 0, "name": "a154fd6ba861fa307d9766e3f1ef7c1d", "lon": -76.9914885, "is_reserved": 0, "fusion_lon": 0.0, "lat": 38.87335733333333, "rental_uris": {"android": "https://dc.lft.to/lastmile_qr_scan", "ios": "https://dc.lft.to/lastmile_qr_scan"}, "fusion_lat": 0.0}, {"type": "electric_scooter", "bike_id": "5ed80de2947b388069bad64d33f4dcd7", "is_disabled": 0, "name": "5ed80de2947b388069bad64d33f4dcd7", "lon": -77.03185633333334, "is_reserved": 0, "fusion_lon": 0.0, "lat": 38.930605666666665, "rental_uris": {"android": "https://dc.lft.to/lastmile_qr_scan", "ios": "https://dc.lft.to/lastmile_qr_scan"}, "fusion_lat": 0.0}, {"type": "electric_bike", "bike_id": "95c3f7e352602ae304200c64920ecd4e", "is_disabled": 0, "name": "95c3f7e352602ae304200c64920ecd4e", "lon": -77.12889083333333, "is_reserved": 0, "fusion_lon": 0.0, "lat": 38.905963666666665, "rental_uris": {"android": "https://dc.lft.to/lastmile_qr_scan", "ios": "https://dc.lft.to/lastmile_qr_scan"}, "fusion_lat": 0.0}, {"type": "electric_scooter", "bike_id": "9cd6306dce596dea2176fcb827f73eda", "is_disabled": 0, "name": "9cd6306dce596dea2176fcb827f73eda", "lon": -76.99639383333333, "is_reserved": 0, "fusion_lon": 0.0, "lat": 38.87733016666667, "rental_uris": {"android": "https://dc.lft.to/lastmile_qr_scan", "ios": "https://dc.lft.to/lastmile_qr_scan"}, "fusion_lat": 0.0}, {"type": "electric_scooter", "bike_id": "f7dea5c248428f7021c921b011edb26d", "is_disabled": 0, "name": "f7dea5c248428f7021c921b011edb26d", "lon": -77.0093265, "is_reserved": 0, "fusion_lon": 0.0, "lat": 38.874450833333334, "rental_uris": {"android": "https://dc.lft.to/lastmile_qr_scan", "ios": "https://dc.lft.to/lastmile_qr_scan"}, "fusion_lat": 0.0}, {"type": "electric_bike", "bike_id": "cb6edaecab7a352a667527bf68a127e8", "is_disabled": 0, "name": "cb6edaecab7a352a667527bf68a127e8", "lon": -76.96890783333333, "is_reserved": 0, "fusion_lon": 0.0, "lat": 38.869847, "rental_uris": {"android": "https://dc.lft.to/lastmile_qr_scan", "ios": "https://dc.lft.to/lastmile_qr_scan"}, "fusion_lat": 0.0}, {"type": "electric_scooter", "bike_id": "a82249c4e13cfc763bde2c6760e7a8d2", "is_disabled": 0, "name": "a82249c4e13cfc763bde2c6760e7a8d2", "lon": -77.02032733333333, "is_reserved": 0, "fusion_lon": 0.0, "lat": 38.901449666666664, "rental_uris": {"android": "https://dc.lft.to/lastmile_qr_scan", "ios": "https://dc.lft.to/lastmile_qr_scan"}, "fusion_lat": 0.0}, {"type": "electric_scooter", "bike_id": "ba26575338c32c94e44dc8fa681eb608", "is_disabled": 0, "name": "ba26575338c32c94e44dc8fa681eb608", "lon": -77.02174383333333, "is_reserved": 0, "fusion_lon": 0.0, "lat": 38.9151565, "rental_uris": {"android": "https://dc.lft.to/lastmile_qr_scan", "ios": "https://dc.lft.to/lastmile_qr_scan"}, "fusion_lat": 0.0}, {"type": "electric_scooter", "bike_id": "b9d0171f67679af0d331bea84cebd7ab", "is_disabled": 0, "name": "b9d0171f67679af0d331bea84cebd7ab", "lon": -77.03999816666666, "is_reserved": 0, "fusion_lon": 0.0, "lat": 38.93427616666666, "rental_uris": {"android": "https://dc.lft.to/lastmile_qr_scan", "ios": "https://dc.lft.to/lastmile_qr_scan"}, "fusion_lat": 0.0}, {"type": "electric_scooter", "bike_id": "74d7c84162da3ede1e53545a858857a1", "is_disabled": 0, "name": "74d7c84162da3ede1e53545a858857a1", "lon": -77.01764233333333, "is_reserved": 0, "fusion_lon": 0.0, "lat": 38.8769595, "rental_uris": {"android": "https://dc.lft.to/lastmile_qr_scan", "ios": "https://dc.lft.to/lastmile_qr_scan"}, "fusion_lat": 0.0}, {"type": "electric_scooter", "bike_id": "c568f7d710a29a1185c102cf6408b951", "is_disabled": 0, "name": "c568f7d710a29a1185c102cf6408b951", "lon": -77.0280585, "is_reserved": 0, "fusion_lon": 0.0, "lat": 38.907324333333335, "rental_uris": {"android": "https://dc.lft.to/lastmile_qr_scan", "ios": "https://dc.lft.to/lastmile_qr_scan"}, "fusion_lat": 0.0}, {"type": "electric_scooter", "bike_id": "7412633518b14bd2092dfb3ad5c0a18a", "is_disabled": 0, "name": "7412633518b14bd2092dfb3ad5c0a18a", "lon": -77.07453466666666, "is_reserved": 0, "fusion_lon": 0.0, "lat": 38.937819166666664, "rental_uris": {"android": "https://dc.lft.to/lastmile_qr_scan", "ios": "https://dc.lft.to/lastmile_qr_scan"}, "fusion_lat": 0.0}, {"type": "electric_scooter", "bike_id": "9fa7dab03ff759a8e504ccce709d60e7", "is_disabled": 0, "name": "9fa7dab03ff759a8e504ccce709d60e7", "lon": -76.9731005, "is_reserved": 0, "fusion_lon": 0.0, "lat": 38.91990416666667, "rental_uris": {"android": "https://dc.lft.to/lastmile_qr_scan", "ios": "https://dc.lft.to/lastmile_qr_scan"}, "fusion_lat": 0.0}, {"type": "electric_scooter", "bike_id": "f2f7300da7c44b5b94d6e9cff4b1ab94", "is_disabled": 0, "name": "f2f7300da7c44b5b94d6e9cff4b1ab94", "lon": -77.01962716666667, "is_reserved": 0, "fusion_lon": 0.0, "lat": 38.923227833333335, "rental_uris": {"android": "https://dc.lft.to/lastmile_qr_scan", "ios": "https://dc.lft.to/lastmile_qr_scan"}, "fusion_lat": 0.0}, {"type": "electric_bike", "bike_id": "8bf38cfbc20d29145973dfc84eb8f2b6", "is_disabled": 0, "name": "8bf38cfbc20d29145973dfc84eb8f2b6", "lon": -77.04310766666667, "is_reserved": 0, "fusion_lon": 0.0, "lat": 39.0342665, "rental_uris": {"android": "https://dc.lft.to/lastmile_qr_scan", "ios": "https://dc.lft.to/lastmile_qr_scan"}, "fusion_lat": 0.0}, {"type": "electric_scooter", "bike_id": "e9c0899679f32c0d454d5da789cdfd57", "is_disabled": 0, "name": "e9c0899679f32c0d454d5da789cdfd57", "lon": -77.02953966666666, "is_reserved": 0, "fusion_lon": 0.0, "lat": 38.9050295, "rental_uris": {"android": "https://dc.lft.to/lastmile_qr_scan", "ios": "https://dc.lft.to/lastmile_qr_scan"}, "fusion_lat": 0.0}, {"type": "electric_scooter", "bike_id": "401b27c8fe9178d1c62708ae797b9e93", "is_disabled": 0, "name": "401b27c8fe9178d1c62708ae797b9e93", "lon": -77.0350525, "is_reserved": 0, "fusion_lon": 0.0, "lat": 38.9215085, "rental_uris": {"android": "https://dc.lft.to/lastmile_qr_scan", "ios": "https://dc.lft.to/lastmile_qr_scan"}, "fusion_lat": 0.0}, {"type": "electric_scooter", "bike_id": "9c5bdb39b4f2f5ecf93b6537c640cde4", "is_disabled": 0, "name": "9c5bdb39b4f2f5ecf93b6537c640cde4", "lon": -77.02817983333334, "is_reserved": 0, "fusion_lon": 0.0, "lat": 38.910432, "rental_uris": {"android": "https://dc.lft.to/lastmile_qr_scan", "ios": "https://dc.lft.to/lastmile_qr_scan"}, "fusion_lat": 0.0}, {"type": "electric_scooter", "bike_id": "81a693bcc0b4d6b4a26e58e0bcdcdfd1", "is_disabled": 0, "name": "81a693bcc0b4d6b4a26e58e0bcdcdfd1", "lon": -77.01792833333333, "is_reserved": 0, "fusion_lon": 0.0, "lat": 38.920344166666666, "rental_uris": {"android": "https://dc.lft.to/lastmile_qr_scan", "ios": "https://dc.lft.to/lastmile_qr_scan"}, "fusion_lat": 0.0}, {"type": "electric_scooter", "bike_id": "f0d5fa6164115fdc43fb1434dab1c0fa", "is_disabled": 0, "name": "f0d5fa6164115fdc43fb1434dab1c0fa", "lon": -77.04360483333333, "is_reserved": 0, "fusion_lon": 0.0, "lat": 38.90839033333334, "rental_uris": {"android": "https://dc.lft.to/lastmile_qr_scan", "ios": "https://dc.lft.to/lastmile_qr_scan"}, "fusion_lat": 0.0}, {"type": "electric_scooter", "bike_id": "dd1938eac6bd315a5cfb2ac4ead38ea0", "is_disabled": 0, "name": "dd1938eac6bd315a5cfb2ac4ead38ea0", "lon": -77.052915, "is_reserved": 0, "fusion_lon": 0.0, "lat": 38.910105, "rental_uris": {"android": "https://dc.lft.to/lastmile_qr_scan", "ios": "https://dc.lft.to/lastmile_qr_scan"}, "fusion_lat": 0.0}, {"type": "electric_scooter", "bike_id": "6d144ff22e51642a86c33a56f3f39d34", "is_disabled": 0, "name": "6d144ff22e51642a86c33a56f3f39d34", "lon": -77.0043535, "is_reserved": 0, "fusion_lon": 0.0, "lat": 38.911724666666665, "rental_uris": {"android": "https://dc.lft.to/lastmile_qr_scan", "ios": "https://dc.lft.to/lastmile_qr_scan"}, "fusion_lat": 0.0}, {"type": "electric_scooter", "bike_id": "fabfe6e77d8b0cb9a6fd13d76dca88e4", "is_disabled": 0, "name": "fabfe6e77d8b0cb9a6fd13d76dca88e4", "lon": -77.0191755, "is_reserved": 0, "fusion_lon": 0.0, "lat": 38.920237166666666, "rental_uris": {"android": "https://dc.lft.to/lastmile_qr_scan", "ios": "https://dc.lft.to/lastmile_qr_scan"}, "fusion_lat": 0.0}, {"type": "electric_scooter", "bike_id": "bd5cf55867b7526e7f0e6f870dd5b99d", "is_disabled": 0, "name": "bd5cf55867b7526e7f0e6f870dd5b99d", "lon": -77.03473583333333, "is_reserved": 0, "fusion_lon": 0.0, "lat": 38.901199, "rental_uris": {"android": "https://dc.lft.to/lastmile_qr_scan", "ios": "https://dc.lft.to/lastmile_qr_scan"}, "fusion_lat": 0.0}, {"type": "electric_bike", "bike_id": "4576591dffc9ec7739b6c90f660f3b3a", "is_disabled": 0, "name": "4576591dffc9ec7739b6c90f660f3b3a", "lon": -76.9735075, "is_reserved": 0, "fusion_lon": 0.0, "lat": 38.86562816666667, "rental_uris": {"android": "https://dc.lft.to/lastmile_qr_scan", "ios": "https://dc.lft.to/lastmile_qr_scan"}, "fusion_lat": 0.0}, {"type": "electric_scooter", "bike_id": "374db64135940197328884d2681148d4", "is_disabled": 0, "name": "374db64135940197328884d2681148d4", "lon": -77.04140366666667, "is_reserved": 0, "fusion_lon": 0.0, "lat": 38.930678, "rental_uris": {"android": "https://dc.lft.to/lastmile_qr_scan", "ios": "https://dc.lft.to/lastmile_qr_scan"}, "fusion_lat": 0.0}, {"type": "electric_scooter", "bike_id": "efded184955990661bbe4a787ace6623", "is_disabled": 0, "name": "efded184955990661bbe4a787ace6623", "lon": -77.03191016666666, "is_reserved": 0, "fusion_lon": 0.0, "lat": 38.903642833333336, "rental_uris": {"android": "https://dc.lft.to/lastmile_qr_scan", "ios": "https://dc.lft.to/lastmile_qr_scan"}, "fusion_lat": 0.0}, {"type": "electric_scooter", "bike_id": "83c83250ccb5da6aa9b9ec02e8328d11", "is_disabled": 0, "name": "83c83250ccb5da6aa9b9ec02e8328d11", "lon": -77.02990133333333, "is_reserved": 0, "fusion_lon": 0.0, "lat": 38.904995666666665, "rental_uris": {"android": "https://dc.lft.to/lastmile_qr_scan", "ios": "https://dc.lft.to/lastmile_qr_scan"}, "fusion_lat": 0.0}, {"type": "electric_scooter", "bike_id": "0fa48f83919067e6546e5f6163e6ee29", "is_disabled": 0, "name": "0fa48f83919067e6546e5f6163e6ee29", "lon": -77.04347383333334, "is_reserved": 0, "fusion_lon": 0.0, "lat": 38.904433833333336, "rental_uris": {"android": "https://dc.lft.to/lastmile_qr_scan", "ios": "https://dc.lft.to/lastmile_qr_scan"}, "fusion_lat": 0.0}, {"type": "electric_scooter", "bike_id": "55e9e81405a461a08ad5d68af10520b6", "is_disabled": 0, "name": "55e9e81405a461a08ad5d68af10520b6", "lon": -77.00071133333333, "is_reserved": 0, "fusion_lon": 0.0, "lat": 38.881137333333335, "rental_uris": {"android": "https://dc.lft.to/lastmile_qr_scan", "ios": "https://dc.lft.to/lastmile_qr_scan"}, "fusion_lat": 0.0}, {"type": "electric_scooter", "bike_id": "eed9ecf3a1885cea01f3bf20038b7158", "is_disabled": 0, "name": "eed9ecf3a1885cea01f3bf20038b7158", "lon": -77.02868566666666, "is_reserved": 0, "fusion_lon": 0.0, "lat": 38.9125735, "rental_uris": {"android": "https://dc.lft.to/lastmile_qr_scan", "ios": "https://dc.lft.to/lastmile_qr_scan"}, "fusion_lat": 0.0}, {"type": "electric_scooter", "bike_id": "24ba4d02a85da130adc41c32df0211fc", "is_disabled": 0, "name": "24ba4d02a85da130adc41c32df0211fc", "lon": -77.02256716666666, "is_reserved": 0, "fusion_lon": 0.0, "lat": 38.92823283333333, "rental_uris": {"android": "https://dc.lft.to/lastmile_qr_scan", "ios": "https://dc.lft.to/lastmile_qr_scan"}, "fusion_lat": 0.0}, {"type": "electric_scooter", "bike_id": "1fca2bfe95cb2fc5b0e18f942146528b", "is_disabled": 0, "name": "1fca2bfe95cb2fc5b0e18f942146528b", "lon": -77.03831516666666, "is_reserved": 0, "fusion_lon": 0.0, "lat": 38.911404166666664, "rental_uris": {"android": "https://dc.lft.to/lastmile_qr_scan", "ios": "https://dc.lft.to/lastmile_qr_scan"}, "fusion_lat": 0.0}, {"type": "electric_scooter", "bike_id": "ae0addf9c024b27436d48486cc0f2a65", "is_disabled": 0, "name": "ae0addf9c024b27436d48486cc0f2a65", "lon": -77.03805166666666, "is_reserved": 0, "fusion_lon": 0.0, "lat": 38.9206135, "rental_uris": {"android": "https://dc.lft.to/lastmile_qr_scan", "ios": "https://dc.lft.to/lastmile_qr_scan"}, "fusion_lat": 0.0}, {"type": "electric_scooter", "bike_id": "219f1cabaf3f5429e3429776b0b990c5", "is_disabled": 0, "name": "219f1cabaf3f5429e3429776b0b990c5", "lon": -77.04999166666667, "is_reserved": 0, "fusion_lon": 0.0, "lat": 38.8992105, "rental_uris": {"android": "https://dc.lft.to/lastmile_qr_scan", "ios": "https://dc.lft.to/lastmile_qr_scan"}, "fusion_lat": 0.0}, {"type": "electric_scooter", "bike_id": "769e6304bfcf8e092dd256675885fbe9", "is_disabled": 0, "name": "769e6304bfcf8e092dd256675885fbe9", "lon": -77.0035715, "is_reserved": 0, "fusion_lon": 0.0, "lat": 38.8926495, "rental_uris": {"android": "https://dc.lft.to/lastmile_qr_scan", "ios": "https://dc.lft.to/lastmile_qr_scan"}, "fusion_lat": 0.0}, {"type": "electric_scooter", "bike_id": "ef191f000a529f293442c38f168564f2", "is_disabled": 0, "name": "ef191f000a529f293442c38f168564f2", "lon": -77.02946116666666, "is_reserved": 0, "fusion_lon": 0.0, "lat": 38.897461, "rental_uris": {"android": "https://dc.lft.to/lastmile_qr_scan", "ios": "https://dc.lft.to/lastmile_qr_scan"}, "fusion_lat": 0.0}, {"type": "electric_scooter", "bike_id": "06fb3b2c56dd4cbec8c8ad52699a0805", "is_disabled": 0, "name": "06fb3b2c56dd4cbec8c8ad52699a0805", "lon": -77.05027733333333, "is_reserved": 0, "fusion_lon": 0.0, "lat": 38.9032555, "rental_uris": {"android": "https://dc.lft.to/lastmile_qr_scan", "ios": "https://dc.lft.to/lastmile_qr_scan"}, "fusion_lat": 0.0}, {"type": "electric_scooter", "bike_id": "5f8e469d6d66f6d91ddd8724ebafbece", "is_disabled": 0, "name": "5f8e469d6d66f6d91ddd8724ebafbece", "lon": -77.03201616666666, "is_reserved": 0, "fusion_lon": 0.0, "lat": 38.91465133333333, "rental_uris": {"android": "https://dc.lft.to/lastmile_qr_scan", "ios": "https://dc.lft.to/lastmile_qr_scan"}, "fusion_lat": 0.0}, {"type": "electric_scooter", "bike_id": "0a4116353e7573f2da1b35937b0981bc", "is_disabled": 0, "name": "0a4116353e7573f2da1b35937b0981bc", "lon": -77.0199265, "is_reserved": 0, "fusion_lon": 0.0, "lat": 38.91483516666667, "rental_uris": {"android": "https://dc.lft.to/lastmile_qr_scan", "ios": "https://dc.lft.to/lastmile_qr_scan"}, "fusion_lat": 0.0}, {"type": "electric_scooter", "bike_id": "10d6ef82dfc85407b5f34284f0aa122b", "is_disabled": 0, "name": "10d6ef82dfc85407b5f34284f0aa122b", "lon": -77.007292, "is_reserved": 0, "fusion_lon": 0.0, "lat": 38.911904666666665, "rental_uris": {"android": "https://dc.lft.to/lastmile_qr_scan", "ios": "https://dc.lft.to/lastmile_qr_scan"}, "fusion_lat": 0.0}, {"type": "electric_bike", "bike_id": "af8bd8d06836ee84daea82ce7d6e1f65", "is_disabled": 0, "name": "af8bd8d06836ee84daea82ce7d6e1f65", "lon": -77.09967766666666, "is_reserved": 0, "fusion_lon": 0.0, "lat": 38.857892666666665, "rental_uris": {"android": "https://dc.lft.to/lastmile_qr_scan", "ios": "https://dc.lft.to/lastmile_qr_scan"}, "fusion_lat": 0.0}, {"type": "electric_scooter", "bike_id": "19bf1fb183636570e6fff0ada70b81f9", "is_disabled": 0, "name": "19bf1fb183636570e6fff0ada70b81f9", "lon": -77.054249, "is_reserved": 0, "fusion_lon": 0.0, "lat": 38.923366, "rental_uris": {"android": "https://dc.lft.to/lastmile_qr_scan", "ios": "https://dc.lft.to/lastmile_qr_scan"}, "fusion_lat": 0.0}, {"type": "electric_scooter", "bike_id": "1732ca70c9998d0042365cb46463f4ee", "is_disabled": 0, "name": "1732ca70c9998d0042365cb46463f4ee", "lon": -77.02271283333333, "is_reserved": 0, "fusion_lon": 0.0, "lat": 38.89980166666667, "rental_uris": {"android": "https://dc.lft.to/lastmile_qr_scan", "ios": "https://dc.lft.to/lastmile_qr_scan"}, "fusion_lat": 0.0}, {"type": "electric_scooter", "bike_id": "30583eb5c913cc6ce17c7d24b240bc7b", "is_disabled": 0, "name": "30583eb5c913cc6ce17c7d24b240bc7b", "lon": -77.04409633333333, "is_reserved": 0, "fusion_lon": 0.0, "lat": 38.895916, "rental_uris": {"android": "https://dc.lft.to/lastmile_qr_scan", "ios": "https://dc.lft.to/lastmile_qr_scan"}, "fusion_lat": 0.0}, {"type": "electric_scooter", "bike_id": "02e67c787a05922b842a16915edb25cd", "is_disabled": 0, "name": "02e67c787a05922b842a16915edb25cd", "lon": -77.01981316666667, "is_reserved": 0, "fusion_lon": 0.0, "lat": 38.905035166666664, "rental_uris": {"android": "https://dc.lft.to/lastmile_qr_scan", "ios": "https://dc.lft.to/lastmile_qr_scan"}, "fusion_lat": 0.0}, {"type": "electric_scooter", "bike_id": "6a9e706d040b6a7246e6f7072b42daa1", "is_disabled": 0, "name": "6a9e706d040b6a7246e6f7072b42daa1", "lon": -77.0344345, "is_reserved": 0, "fusion_lon": 0.0, "lat": 38.91800383333333, "rental_uris": {"android": "https://dc.lft.to/lastmile_qr_scan", "ios": "https://dc.lft.to/lastmile_qr_scan"}, "fusion_lat": 0.0}, {"type": "electric_scooter", "bike_id": "1a7db2ef445ae4795292b527049f09b5", "is_disabled": 0, "name": "1a7db2ef445ae4795292b527049f09b5", "lon": -76.96093216666667, "is_reserved": 0, "fusion_lon": 0.0, "lat": 38.9185815, "rental_uris": {"android": "https://dc.lft.to/lastmile_qr_scan", "ios": "https://dc.lft.to/lastmile_qr_scan"}, "fusion_lat": 0.0}, {"type": "electric_scooter", "bike_id": "6f2976f3c7eaf0cb62794a32d70fc6c6", "is_disabled": 0, "name": "6f2976f3c7eaf0cb62794a32d70fc6c6", "lon": -77.02285133333334, "is_reserved": 0, "fusion_lon": 0.0, "lat": 38.9177505, "rental_uris": {"android": "https://dc.lft.to/lastmile_qr_scan", "ios": "https://dc.lft.to/lastmile_qr_scan"}, "fusion_lat": 0.0}, {"type": "electric_scooter", "bike_id": "50342856b91d40beb0b0cec00d31e12b", "is_disabled": 0, "name": "50342856b91d40beb0b0cec00d31e12b", "lon": -77.0515795, "is_reserved": 0, "fusion_lon": 0.0, "lat": 38.90619933333333, "rental_uris": {"android": "https://dc.lft.to/lastmile_qr_scan", "ios": "https://dc.lft.to/lastmile_qr_scan"}, "fusion_lat": 0.0}, {"type": "electric_bike", "bike_id": "03d6018296f3837255a7ed3a83de26a9", "is_disabled": 0, "name": "03d6018296f3837255a7ed3a83de26a9", "lon": -77.09458116666667, "is_reserved": 0, "fusion_lon": 0.0, "lat": 38.80756316666667, "rental_uris": {"android": "https://dc.lft.to/lastmile_qr_scan", "ios": "https://dc.lft.to/lastmile_qr_scan"}, "fusion_lat": 0.0}, {"type": "electric_scooter", "bike_id": "9e12c1611190fd2c6ef17212ce95b88b", "is_disabled": 0, "name": "9e12c1611190fd2c6ef17212ce95b88b", "lon": -76.92922916666667, "is_reserved": 0, "fusion_lon": 0.0, "lat": 38.89206016666667, "rental_uris": {"android": "https://dc.lft.to/lastmile_qr_scan", "ios": "https://dc.lft.to/lastmile_qr_scan"}, "fusion_lat": 0.0}, {"type": "electric_scooter", "bike_id": "f5c66fc7960b5f283d420582ba161d55", "is_disabled": 0, "name": "f5c66fc7960b5f283d420582ba161d55", "lon": -77.03875016666667, "is_reserved": 0, "fusion_lon": 0.0, "lat": 38.91712966666667, "rental_uris": {"android": "https://dc.lft.to/lastmile_qr_scan", "ios": "https://dc.lft.to/lastmile_qr_scan"}, "fusion_lat": 0.0}, {"type": "electric_scooter", "bike_id": "599c77fa0202bd91d8b138657103f622", "is_disabled": 0, "name": "599c77fa0202bd91d8b138657103f622", "lon": -77.04681616666667, "is_reserved": 0, "fusion_lon": 0.0, "lat": 38.8922, "rental_uris": {"android": "https://dc.lft.to/lastmile_qr_scan", "ios": "https://dc.lft.to/lastmile_qr_scan"}, "fusion_lat": 0.0}, {"type": "electric_scooter", "bike_id": "56790e8a45c381b260d1f3716870a46e", "is_disabled": 0, "name": "56790e8a45c381b260d1f3716870a46e", "lon": -77.03187783333334, "is_reserved": 0, "fusion_lon": 0.0, "lat": 38.910343166666664, "rental_uris": {"android": "https://dc.lft.to/lastmile_qr_scan", "ios": "https://dc.lft.to/lastmile_qr_scan"}, "fusion_lat": 0.0}, {"type": "electric_scooter", "bike_id": "b5aa3444b1806d64798db02ce8bb3978", "is_disabled": 0, "name": "b5aa3444b1806d64798db02ce8bb3978", "lon": -77.04358183333333, "is_reserved": 0, "fusion_lon": 0.0, "lat": 38.91126416666667, "rental_uris": {"android": "https://dc.lft.to/lastmile_qr_scan", "ios": "https://dc.lft.to/lastmile_qr_scan"}, "fusion_lat": 0.0}, {"type": "electric_scooter", "bike_id": "a73468e4e53a1d79be84696539db128a", "is_disabled": 0, "name": "a73468e4e53a1d79be84696539db128a", "lon": -77.06178366666667, "is_reserved": 0, "fusion_lon": 0.0, "lat": 38.941267333333336, "rental_uris": {"android": "https://dc.lft.to/lastmile_qr_scan", "ios": "https://dc.lft.to/lastmile_qr_scan"}, "fusion_lat": 0.0}, {"type": "electric_scooter", "bike_id": "8a289ce3841fdcc58b9c7169d4839543", "is_disabled": 0, "name": "8a289ce3841fdcc58b9c7169d4839543", "lon": -76.98859683333333, "is_reserved": 0, "fusion_lon": 0.0, "lat": 38.900302, "rental_uris": {"android": "https://dc.lft.to/lastmile_qr_scan", "ios": "https://dc.lft.to/lastmile_qr_scan"}, "fusion_lat": 0.0}, {"type": "electric_bike", "bike_id": "987dc33fe55d4fc88371e6016af498ea", "is_disabled": 0, "name": "987dc33fe55d4fc88371e6016af498ea", "lon": -77.23393133333333, "is_reserved": 0, "fusion_lon": 0.0, "lat": 38.87170966666667, "rental_uris": {"android": "https://dc.lft.to/lastmile_qr_scan", "ios": "https://dc.lft.to/lastmile_qr_scan"}, "fusion_lat": 0.0}, {"type": "electric_scooter", "bike_id": "d3fd2dd75730f32997d40e8ba04eaa82", "is_disabled": 0, "name": "d3fd2dd75730f32997d40e8ba04eaa82", "lon": -77.02975266666667, "is_reserved": 0, "fusion_lon": 0.0, "lat": 38.90719933333333, "rental_uris": {"android": "https://dc.lft.to/lastmile_qr_scan", "ios": "https://dc.lft.to/lastmile_qr_scan"}, "fusion_lat": 0.0}, {"type": "electric_scooter", "bike_id": "2b8845a4f2f5a36319c87af79514416c", "is_disabled": 0, "name": "2b8845a4f2f5a36319c87af79514416c", "lon": -77.043615, "is_reserved": 0, "fusion_lon": 0.0, "lat": 38.922492166666665, "rental_uris": {"android": "https://dc.lft.to/lastmile_qr_scan", "ios": "https://dc.lft.to/lastmile_qr_scan"}, "fusion_lat": 0.0}, {"type": "electric_scooter", "bike_id": "2635bda089738141eb03cce8bc0d71b3", "is_disabled": 0, "name": "2635bda089738141eb03cce8bc0d71b3", "lon": -77.01527883333333, "is_reserved": 0, "fusion_lon": 0.0, "lat": 38.8726585, "rental_uris": {"android": "https://dc.lft.to/lastmile_qr_scan", "ios": "https://dc.lft.to/lastmile_qr_scan"}, "fusion_lat": 0.0}, {"type": "electric_bike", "bike_id": "9e1afd667029f0d6bad2d40aa7fce6e6", "is_disabled": 0, "name": "9e1afd667029f0d6bad2d40aa7fce6e6", "lon": -77.09689466666667, "is_reserved": 0, "fusion_lon": 0.0, "lat": 38.8073675, "rental_uris": {"android": "https://dc.lft.to/lastmile_qr_scan", "ios": "https://dc.lft.to/lastmile_qr_scan"}, "fusion_lat": 0.0}, {"type": "electric_scooter", "bike_id": "6177488d8720af62f3ba911c17190891", "is_disabled": 0, "name": "6177488d8720af62f3ba911c17190891", "lon": -77.01954483333333, "is_reserved": 0, "fusion_lon": 0.0, "lat": 38.92439483333333, "rental_uris": {"android": "https://dc.lft.to/lastmile_qr_scan", "ios": "https://dc.lft.to/lastmile_qr_scan"}, "fusion_lat": 0.0}, {"type": "electric_scooter", "bike_id": "8d22e0706f8165fbcf6b68bf2afb2582", "is_disabled": 0, "name": "8d22e0706f8165fbcf6b68bf2afb2582", "lon": -77.03501783333333, "is_reserved": 0, "fusion_lon": 0.0, "lat": 38.918770333333335, "rental_uris": {"android": "https://dc.lft.to/lastmile_qr_scan", "ios": "https://dc.lft.to/lastmile_qr_scan"}, "fusion_lat": 0.0}, {"type": "electric_scooter", "bike_id": "623fcaec98fb6f6520d4145af382ec2b", "is_disabled": 0, "name": "623fcaec98fb6f6520d4145af382ec2b", "lon": -77.0131035, "is_reserved": 0, "fusion_lon": 0.0, "lat": 38.92103316666667, "rental_uris": {"android": "https://dc.lft.to/lastmile_qr_scan", "ios": "https://dc.lft.to/lastmile_qr_scan"}, "fusion_lat": 0.0}, {"type": "electric_scooter", "bike_id": "e57f9ac77be07f2d5865bfbd62e34687", "is_disabled": 0, "name": "e57f9ac77be07f2d5865bfbd62e34687", "lon": -77.01614683333334, "is_reserved": 0, "fusion_lon": 0.0, "lat": 38.9037275, "rental_uris": {"android": "https://dc.lft.to/lastmile_qr_scan", "ios": "https://dc.lft.to/lastmile_qr_scan"}, "fusion_lat": 0.0}, {"type": "electric_scooter", "bike_id": "adac28649061bbb98fbfa323625bdbd5", "is_disabled": 0, "name": "adac28649061bbb98fbfa323625bdbd5", "lon": -77.0176445, "is_reserved": 0, "fusion_lon": 0.0, "lat": 38.921019666666666, "rental_uris": {"android": "https://dc.lft.to/lastmile_qr_scan", "ios": "https://dc.lft.to/lastmile_qr_scan"}, "fusion_lat": 0.0}, {"type": "electric_scooter", "bike_id": "374055ac5549fc166e9dbaa251caef31", "is_disabled": 0, "name": "374055ac5549fc166e9dbaa251caef31", "lon": -77.03206483333334, "is_reserved": 0, "fusion_lon": 0.0, "lat": 38.9178145, "rental_uris": {"android": "https://dc.lft.to/lastmile_qr_scan", "ios": "https://dc.lft.to/lastmile_qr_scan"}, "fusion_lat": 0.0}, {"type": "electric_bike", "bike_id": "a5f0250431cf8530f47e457018dec3c1", "is_disabled": 0, "name": "a5f0250431cf8530f47e457018dec3c1", "lon": -77.0221055, "is_reserved": 0, "fusion_lon": 0.0, "lat": 38.964878, "rental_uris": {"android": "https://dc.lft.to/lastmile_qr_scan", "ios": "https://dc.lft.to/lastmile_qr_scan"}, "fusion_lat": 0.0}, {"type": "electric_scooter", "bike_id": "726b4370911871b6fb50845daf9c4c48", "is_disabled": 0, "name": "726b4370911871b6fb50845daf9c4c48", "lon": -77.01864666666667, "is_reserved": 0, "fusion_lon": 0.0, "lat": 38.95151966666667, "rental_uris": {"android": "https://dc.lft.to/lastmile_qr_scan", "ios": "https://dc.lft.to/lastmile_qr_scan"}, "fusion_lat": 0.0}, {"type": "electric_scooter", "bike_id": "a792f310090f96479827838d821c8a3f", "is_disabled": 0, "name": "a792f310090f96479827838d821c8a3f", "lon": -77.0465145, "is_reserved": 0, "fusion_lon": 0.0, "lat": 38.90064683333333, "rental_uris": {"android": "https://dc.lft.to/lastmile_qr_scan", "ios": "https://dc.lft.to/lastmile_qr_scan"}, "fusion_lat": 0.0}, {"type": "electric_scooter", "bike_id": "622ef9a7d007ce43a53ffedd72d473a4", "is_disabled": 0, "name": "622ef9a7d007ce43a53ffedd72d473a4", "lon": -77.022694, "is_reserved": 0, "fusion_lon": 0.0, "lat": 38.92098516666667, "rental_uris": {"android": "https://dc.lft.to/lastmile_qr_scan", "ios": "https://dc.lft.to/lastmile_qr_scan"}, "fusion_lat": 0.0}, {"type": "electric_scooter", "bike_id": "904ffc147ff2eef63566fb0a26c31b18", "is_disabled": 0, "name": "904ffc147ff2eef63566fb0a26c31b18", "lon": -77.05327016666666, "is_reserved": 0, "fusion_lon": 0.0, "lat": 38.90509866666667, "rental_uris": {"android": "https://dc.lft.to/lastmile_qr_scan", "ios": "https://dc.lft.to/lastmile_qr_scan"}, "fusion_lat": 0.0}, {"type": "electric_scooter", "bike_id": "a433987bc34a2f531c46e80183990959", "is_disabled": 0, "name": "a433987bc34a2f531c46e80183990959", "lon": -77.01851666666667, "is_reserved": 0, "fusion_lon": 0.0, "lat": 38.97369783333333, "rental_uris": {"android": "https://dc.lft.to/lastmile_qr_scan", "ios": "https://dc.lft.to/lastmile_qr_scan"}, "fusion_lat": 0.0}, {"type": "electric_scooter", "bike_id": "f4decc0dbd1c301073b741d09a82a9aa", "is_disabled": 0, "name": "f4decc0dbd1c301073b741d09a82a9aa", "lon": -77.02376733333334, "is_reserved": 0, "fusion_lon": 0.0, "lat": 38.95272933333333, "rental_uris": {"android": "https://dc.lft.to/lastmile_qr_scan", "ios": "https://dc.lft.to/lastmile_qr_scan"}, "fusion_lat": 0.0}, {"type": "electric_scooter", "bike_id": "b3a40e7679683ef869321d1daa8c82b3", "is_disabled": 0, "name": "b3a40e7679683ef869321d1daa8c82b3", "lon": -77.03810516666667, "is_reserved": 0, "fusion_lon": 0.0, "lat": 38.93068, "rental_uris": {"android": "https://dc.lft.to/lastmile_qr_scan", "ios": "https://dc.lft.to/lastmile_qr_scan"}, "fusion_lat": 0.0}, {"type": "electric_scooter", "bike_id": "a8804e871664e041fa8b1f58b20324a7", "is_disabled": 0, "name": "a8804e871664e041fa8b1f58b20324a7", "lon": -77.04164, "is_reserved": 0, "fusion_lon": 0.0, "lat": 38.90942866666666, "rental_uris": {"android": "https://dc.lft.to/lastmile_qr_scan", "ios": "https://dc.lft.to/lastmile_qr_scan"}, "fusion_lat": 0.0}, {"type": "electric_scooter", "bike_id": "6479250cccb470781b8675adfeac4647", "is_disabled": 0, "name": "6479250cccb470781b8675adfeac4647", "lon": -77.04062233333333, "is_reserved": 0, "fusion_lon": 0.0, "lat": 38.90373783333333, "rental_uris": {"android": "https://dc.lft.to/lastmile_qr_scan", "ios": "https://dc.lft.to/lastmile_qr_scan"}, "fusion_lat": 0.0}, {"type": "electric_scooter", "bike_id": "68e33e5e839f29c6c511f5772eb0610e", "is_disabled": 0, "name": "68e33e5e839f29c6c511f5772eb0610e", "lon": -77.034435, "is_reserved": 0, "fusion_lon": 0.0, "lat": 38.90270616666667, "rental_uris": {"android": "https://dc.lft.to/lastmile_qr_scan", "ios": "https://dc.lft.to/lastmile_qr_scan"}, "fusion_lat": 0.0}, {"type": "electric_scooter", "bike_id": "7c54fbf6f381fdecdb97691c61cf36da", "is_disabled": 0, "name": "7c54fbf6f381fdecdb97691c61cf36da", "lon": -77.04867433333334, "is_reserved": 0, "fusion_lon": 0.0, "lat": 38.90650816666667, "rental_uris": {"android": "https://dc.lft.to/lastmile_qr_scan", "ios": "https://dc.lft.to/lastmile_qr_scan"}, "fusion_lat": 0.0}, {"type": "electric_scooter", "bike_id": "34f918a023bb4fa890e38134f93bc139", "is_disabled": 0, "name": "34f918a023bb4fa890e38134f93bc139", "lon": -76.94089016666666, "is_reserved": 0, "fusion_lon": 0.0, "lat": 38.8912245, "rental_uris": {"android": "https://dc.lft.to/lastmile_qr_scan", "ios": "https://dc.lft.to/lastmile_qr_scan"}, "fusion_lat": 0.0}, {"type": "electric_scooter", "bike_id": "791a252edbbb2bcf27e33693844f0fb1", "is_disabled": 0, "name": "791a252edbbb2bcf27e33693844f0fb1", "lon": -77.03184233333333, "is_reserved": 0, "fusion_lon": 0.0, "lat": 38.9192435, "rental_uris": {"android": "https://dc.lft.to/lastmile_qr_scan", "ios": "https://dc.lft.to/lastmile_qr_scan"}, "fusion_lat": 0.0}, {"type": "electric_scooter", "bike_id": "0331d0e629322c0bbb42e1e231083e7d", "is_disabled": 0, "name": "0331d0e629322c0bbb42e1e231083e7d", "lon": -77.00331283333334, "is_reserved": 0, "fusion_lon": 0.0, "lat": 38.902656, "rental_uris": {"android": "https://dc.lft.to/lastmile_qr_scan", "ios": "https://dc.lft.to/lastmile_qr_scan"}, "fusion_lat": 0.0}, {"type": "electric_scooter", "bike_id": "1e14d94536da2cfb5118b9d1048c4c39", "is_disabled": 0, "name": "1e14d94536da2cfb5118b9d1048c4c39", "lon": -77.03272383333334, "is_reserved": 0, "fusion_lon": 0.0, "lat": 38.93737133333333, "rental_uris": {"android": "https://dc.lft.to/lastmile_qr_scan", "ios": "https://dc.lft.to/lastmile_qr_scan"}, "fusion_lat": 0.0}, {"type": "electric_scooter", "bike_id": "f3754a87dc63e373cec228d0ba6b3bd2", "is_disabled": 0, "name": "f3754a87dc63e373cec228d0ba6b3bd2", "lon": -77.02194383333334, "is_reserved": 0, "fusion_lon": 0.0, "lat": 38.90952333333333, "rental_uris": {"android": "https://dc.lft.to/lastmile_qr_scan", "ios": "https://dc.lft.to/lastmile_qr_scan"}, "fusion_lat": 0.0}, {"type": "electric_scooter", "bike_id": "c691fa73cf40dde6f0037f548012651e", "is_disabled": 0, "name": "c691fa73cf40dde6f0037f548012651e", "lon": -77.02698333333333, "is_reserved": 0, "fusion_lon": 0.0, "lat": 38.902444, "rental_uris": {"android": "https://dc.lft.to/lastmile_qr_scan", "ios": "https://dc.lft.to/lastmile_qr_scan"}, "fusion_lat": 0.0}, {"type": "electric_bike", "bike_id": "687a117e2632cabcc38035571ef3194d", "is_disabled": 0, "name": "687a117e2632cabcc38035571ef3194d", "lon": -76.99054883333334, "is_reserved": 0, "fusion_lon": 0.0, "lat": 38.898166, "rental_uris": {"android": "https://dc.lft.to/lastmile_qr_scan", "ios": "https://dc.lft.to/lastmile_qr_scan"}, "fusion_lat": 0.0}, {"type": "electric_scooter", "bike_id": "a83d74f966e51f755298f096a1cd486b", "is_disabled": 0, "name": "a83d74f966e51f755298f096a1cd486b", "lon": -77.04485983333333, "is_reserved": 0, "fusion_lon": 0.0, "lat": 38.9027625, "rental_uris": {"android": "https://dc.lft.to/lastmile_qr_scan", "ios": "https://dc.lft.to/lastmile_qr_scan"}, "fusion_lat": 0.0}, {"type": "electric_scooter", "bike_id": "f616b753d52f07e60124b46127402d5b", "is_disabled": 0, "name": "f616b753d52f07e60124b46127402d5b", "lon": -77.0068255, "is_reserved": 0, "fusion_lon": 0.0, "lat": 38.905988, "rental_uris": {"android": "https://dc.lft.to/lastmile_qr_scan", "ios": "https://dc.lft.to/lastmile_qr_scan"}, "fusion_lat": 0.0}, {"type": "electric_scooter", "bike_id": "947524610eea23067bd34a18fc927f03", "is_disabled": 0, "name": "947524610eea23067bd34a18fc927f03", "lon": -77.01877633333334, "is_reserved": 0, "fusion_lon": 0.0, "lat": 38.91415383333333, "rental_uris": {"android": "https://dc.lft.to/lastmile_qr_scan", "ios": "https://dc.lft.to/lastmile_qr_scan"}, "fusion_lat": 0.0}, {"type": "electric_scooter", "bike_id": "ade5250e9266be0379bb2db0708e64b0", "is_disabled": 0, "name": "ade5250e9266be0379bb2db0708e64b0", "lon": -77.04999283333333, "is_reserved": 0, "fusion_lon": 0.0, "lat": 38.90528833333333, "rental_uris": {"android": "https://dc.lft.to/lastmile_qr_scan", "ios": "https://dc.lft.to/lastmile_qr_scan"}, "fusion_lat": 0.0}, {"type": "electric_scooter", "bike_id": "15ea667432ee40df5f94ef6aefb48ac7", "is_disabled": 0, "name": "15ea667432ee40df5f94ef6aefb48ac7", "lon": -77.03187166666666, "is_reserved": 0, "fusion_lon": 0.0, "lat": 38.9098865, "rental_uris": {"android": "https://dc.lft.to/lastmile_qr_scan", "ios": "https://dc.lft.to/lastmile_qr_scan"}, "fusion_lat": 0.0}, {"type": "electric_scooter", "bike_id": "b6fea09b6113f3595bf2862a28a55f34", "is_disabled": 0, "name": "b6fea09b6113f3595bf2862a28a55f34", "lon": -77.02814716666667, "is_reserved": 0, "fusion_lon": 0.0, "lat": 38.896663833333335, "rental_uris": {"android": "https://dc.lft.to/lastmile_qr_scan", "ios": "https://dc.lft.to/lastmile_qr_scan"}, "fusion_lat": 0.0}, {"type": "electric_scooter", "bike_id": "95a0099aa8260b6e236e0694abeb9cef", "is_disabled": 0, "name": "95a0099aa8260b6e236e0694abeb9cef", "lon": -77.023028, "is_reserved": 0, "fusion_lon": 0.0, "lat": 38.917547666666664, "rental_uris": {"android": "https://dc.lft.to/lastmile_qr_scan", "ios": "https://dc.lft.to/lastmile_qr_scan"}, "fusion_lat": 0.0}, {"type": "electric_scooter", "bike_id": "6f1d27546b05cfdde1adc6c8c0923296", "is_disabled": 0, "name": "6f1d27546b05cfdde1adc6c8c0923296", "lon": -77.03189033333334, "is_reserved": 0, "fusion_lon": 0.0, "lat": 38.90732933333334, "rental_uris": {"android": "https://dc.lft.to/lastmile_qr_scan", "ios": "https://dc.lft.to/lastmile_qr_scan"}, "fusion_lat": 0.0}, {"type": "electric_scooter", "bike_id": "f29d9b4507a894f9a289512246962234", "is_disabled": 0, "name": "f29d9b4507a894f9a289512246962234", "lon": -77.04491166666666, "is_reserved": 0, "fusion_lon": 0.0, "lat": 38.897394, "rental_uris": {"android": "https://dc.lft.to/lastmile_qr_scan", "ios": "https://dc.lft.to/lastmile_qr_scan"}, "fusion_lat": 0.0}, {"type": "electric_scooter", "bike_id": "85fec59221f04f0269f8ada5dff123c4", "is_disabled": 0, "name": "85fec59221f04f0269f8ada5dff123c4", "lon": -77.03185516666667, "is_reserved": 0, "fusion_lon": 0.0, "lat": 38.903570333333334, "rental_uris": {"android": "https://dc.lft.to/lastmile_qr_scan", "ios": "https://dc.lft.to/lastmile_qr_scan"}, "fusion_lat": 0.0}, {"type": "electric_scooter", "bike_id": "259578136c704c0a645ba486c18fe6bd", "is_disabled": 0, "name": "259578136c704c0a645ba486c18fe6bd", "lon": -77.025087, "is_reserved": 0, "fusion_lon": 0.0, "lat": 38.92094433333333, "rental_uris": {"android": "https://dc.lft.to/lastmile_qr_scan", "ios": "https://dc.lft.to/lastmile_qr_scan"}, "fusion_lat": 0.0}, {"type": "electric_scooter", "bike_id": "2de1804bd032d3ba4828c63c70e3424c", "is_disabled": 0, "name": "2de1804bd032d3ba4828c63c70e3424c", "lon": -77.00337033333334, "is_reserved": 0, "fusion_lon": 0.0, "lat": 38.89355533333333, "rental_uris": {"android": "https://dc.lft.to/lastmile_qr_scan", "ios": "https://dc.lft.to/lastmile_qr_scan"}, "fusion_lat": 0.0}, {"type": "electric_scooter", "bike_id": "dab129d176f2d6ab1f5518fc1949bab1", "is_disabled": 0, "name": "dab129d176f2d6ab1f5518fc1949bab1", "lon": -77.025677, "is_reserved": 0, "fusion_lon": 0.0, "lat": 38.887481666666666, "rental_uris": {"android": "https://dc.lft.to/lastmile_qr_scan", "ios": "https://dc.lft.to/lastmile_qr_scan"}, "fusion_lat": 0.0}, {"type": "electric_scooter", "bike_id": "536b95656d59653bc9938d5773578cb8", "is_disabled": 0, "name": "536b95656d59653bc9938d5773578cb8", "lon": -77.04013483333334, "is_reserved": 0, "fusion_lon": 0.0, "lat": 38.918497, "rental_uris": {"android": "https://dc.lft.to/lastmile_qr_scan", "ios": "https://dc.lft.to/lastmile_qr_scan"}, "fusion_lat": 0.0}, {"type": "electric_scooter", "bike_id": "4350cb6f53a89f59103bead1f43e6ad7", "is_disabled": 0, "name": "4350cb6f53a89f59103bead1f43e6ad7", "lon": -77.02246233333334, "is_reserved": 0, "fusion_lon": 0.0, "lat": 38.898512333333336, "rental_uris": {"android": "https://dc.lft.to/lastmile_qr_scan", "ios": "https://dc.lft.to/lastmile_qr_scan"}, "fusion_lat": 0.0}, {"type": "electric_scooter", "bike_id": "4994dd7e6f5a7f935fb6dc363ac50ce8", "is_disabled": 0, "name": "4994dd7e6f5a7f935fb6dc363ac50ce8", "lon": -77.03001583333334, "is_reserved": 0, "fusion_lon": 0.0, "lat": 38.883249666666664, "rental_uris": {"android": "https://dc.lft.to/lastmile_qr_scan", "ios": "https://dc.lft.to/lastmile_qr_scan"}, "fusion_lat": 0.0}, {"type": "electric_scooter", "bike_id": "8297be78d296084347182e27bd09a0f8", "is_disabled": 0, "name": "8297be78d296084347182e27bd09a0f8", "lon": -77.02021183333333, "is_reserved": 0, "fusion_lon": 0.0, "lat": 38.92443433333333, "rental_uris": {"android": "https://dc.lft.to/lastmile_qr_scan", "ios": "https://dc.lft.to/lastmile_qr_scan"}, "fusion_lat": 0.0}, {"type": "electric_scooter", "bike_id": "85eeabc90f932469790dfe974a4aa58b", "is_disabled": 0, "name": "85eeabc90f932469790dfe974a4aa58b", "lon": -76.97899433333333, "is_reserved": 0, "fusion_lon": 0.0, "lat": 38.885444, "rental_uris": {"android": "https://dc.lft.to/lastmile_qr_scan", "ios": "https://dc.lft.to/lastmile_qr_scan"}, "fusion_lat": 0.0}, {"type": "electric_scooter", "bike_id": "5538c18aac9e220140e5c5f1ef6857c6", "is_disabled": 0, "name": "5538c18aac9e220140e5c5f1ef6857c6", "lon": -77.02018116666666, "is_reserved": 0, "fusion_lon": 0.0, "lat": 38.894286, "rental_uris": {"android": "https://dc.lft.to/lastmile_qr_scan", "ios": "https://dc.lft.to/lastmile_qr_scan"}, "fusion_lat": 0.0}, {"type": "electric_scooter", "bike_id": "73d5f7d8a3326c178eae645231192e22", "is_disabled": 0, "name": "73d5f7d8a3326c178eae645231192e22", "lon": -77.04524166666667, "is_reserved": 0, "fusion_lon": 0.0, "lat": 38.9182055, "rental_uris": {"android": "https://dc.lft.to/lastmile_qr_scan", "ios": "https://dc.lft.to/lastmile_qr_scan"}, "fusion_lat": 0.0}, {"type": "electric_scooter", "bike_id": "30ef83b74c1f3f9014392f9c8fe867c6", "is_disabled": 0, "name": "30ef83b74c1f3f9014392f9c8fe867c6", "lon": -77.00205283333334, "is_reserved": 0, "fusion_lon": 0.0, "lat": 38.9023785, "rental_uris": {"android": "https://dc.lft.to/lastmile_qr_scan", "ios": "https://dc.lft.to/lastmile_qr_scan"}, "fusion_lat": 0.0}, {"type": "electric_bike", "bike_id": "3a19ce73ed4cf13a7b3741b3d473ccac", "is_disabled": 0, "name": "3a19ce73ed4cf13a7b3741b3d473ccac", "lon": -77.05465166666667, "is_reserved": 0, "fusion_lon": 0.0, "lat": 38.86478283333334, "rental_uris": {"android": "https://dc.lft.to/lastmile_qr_scan", "ios": "https://dc.lft.to/lastmile_qr_scan"}, "fusion_lat": 0.0}, {"type": "electric_scooter", "bike_id": "38dc9fbf86619f54e2af77d3ebd499ac", "is_disabled": 0, "name": "38dc9fbf86619f54e2af77d3ebd499ac", "lon": -77.05044483333333, "is_reserved": 0, "fusion_lon": 0.0, "lat": 38.92361066666667, "rental_uris": {"android": "https://dc.lft.to/lastmile_qr_scan", "ios": "https://dc.lft.to/lastmile_qr_scan"}, "fusion_lat": 0.0}, {"type": "electric_scooter", "bike_id": "9c615028b3527995c0238f492fe03e63", "is_disabled": 0, "name": "9c615028b3527995c0238f492fe03e63", "lon": -76.99086333333334, "is_reserved": 0, "fusion_lon": 0.0, "lat": 38.855600333333335, "rental_uris": {"android": "https://dc.lft.to/lastmile_qr_scan", "ios": "https://dc.lft.to/lastmile_qr_scan"}, "fusion_lat": 0.0}, {"type": "electric_scooter", "bike_id": "eec10883839e65726b7f8d72cf2a1797", "is_disabled": 0, "name": "eec10883839e65726b7f8d72cf2a1797", "lon": -77.030811, "is_reserved": 0, "fusion_lon": 0.0, "lat": 38.898447166666664, "rental_uris": {"android": "https://dc.lft.to/lastmile_qr_scan", "ios": "https://dc.lft.to/lastmile_qr_scan"}, "fusion_lat": 0.0}, {"type": "electric_scooter", "bike_id": "c2d5f4337f0d8732eb5999e09f8512cd", "is_disabled": 0, "name": "c2d5f4337f0d8732eb5999e09f8512cd", "lon": -77.0267695, "is_reserved": 0, "fusion_lon": 0.0, "lat": 38.9223495, "rental_uris": {"android": "https://dc.lft.to/lastmile_qr_scan", "ios": "https://dc.lft.to/lastmile_qr_scan"}, "fusion_lat": 0.0}, {"type": "electric_scooter", "bike_id": "7568d1a3b4045d6094ab2f5a9f1d2e1d", "is_disabled": 0, "name": "7568d1a3b4045d6094ab2f5a9f1d2e1d", "lon": -77.028116, "is_reserved": 0, "fusion_lon": 0.0, "lat": 38.93081216666667, "rental_uris": {"android": "https://dc.lft.to/lastmile_qr_scan", "ios": "https://dc.lft.to/lastmile_qr_scan"}, "fusion_lat": 0.0}, {"type": "electric_scooter", "bike_id": "2bbcecd773b274e7191eb5265140c627", "is_disabled": 0, "name": "2bbcecd773b274e7191eb5265140c627", "lon": -77.02286566666666, "is_reserved": 0, "fusion_lon": 0.0, "lat": 38.91673983333333, "rental_uris": {"android": "https://dc.lft.to/lastmile_qr_scan", "ios": "https://dc.lft.to/lastmile_qr_scan"}, "fusion_lat": 0.0}, {"type": "electric_scooter", "bike_id": "4fe1a35ad4ea565247168a7e04bda464", "is_disabled": 0, "name": "4fe1a35ad4ea565247168a7e04bda464", "lon": -77.0330195, "is_reserved": 0, "fusion_lon": 0.0, "lat": 38.911157, "rental_uris": {"android": "https://dc.lft.to/lastmile_qr_scan", "ios": "https://dc.lft.to/lastmile_qr_scan"}, "fusion_lat": 0.0}, {"type": "electric_scooter", "bike_id": "3edc8f0f6229ceb708ba2ea7f9967dd4", "is_disabled": 0, "name": "3edc8f0f6229ceb708ba2ea7f9967dd4", "lon": -77.03663, "is_reserved": 0, "fusion_lon": 0.0, "lat": 38.91795883333333, "rental_uris": {"android": "https://dc.lft.to/lastmile_qr_scan", "ios": "https://dc.lft.to/lastmile_qr_scan"}, "fusion_lat": 0.0}, {"type": "electric_scooter", "bike_id": "b6bb237e5049c05b1b30a81adbd351c1", "is_disabled": 0, "name": "b6bb237e5049c05b1b30a81adbd351c1", "lon": -77.027786, "is_reserved": 0, "fusion_lon": 0.0, "lat": 38.930054, "rental_uris": {"android": "https://dc.lft.to/lastmile_qr_scan", "ios": "https://dc.lft.to/lastmile_qr_scan"}, "fusion_lat": 0.0}, {"type": "electric_scooter", "bike_id": "410c21c4823e03ca9374dc63e941a694", "is_disabled": 0, "name": "410c21c4823e03ca9374dc63e941a694", "lon": -77.04700633333333, "is_reserved": 0, "fusion_lon": 0.0, "lat": 38.9211085, "rental_uris": {"android": "https://dc.lft.to/lastmile_qr_scan", "ios": "https://dc.lft.to/lastmile_qr_scan"}, "fusion_lat": 0.0}, {"type": "electric_bike", "bike_id": "3f0e80b7209e767f98e28d011b8bbd47", "is_disabled": 0, "name": "3f0e80b7209e767f98e28d011b8bbd47", "lon": -77.09660383333333, "is_reserved": 0, "fusion_lon": 0.0, "lat": 38.95216966666667, "rental_uris": {"android": "https://dc.lft.to/lastmile_qr_scan", "ios": "https://dc.lft.to/lastmile_qr_scan"}, "fusion_lat": 0.0}, {"type": "electric_scooter", "bike_id": "7dcb2e72b22cd5c031bf55b320c35780", "is_disabled": 0, "name": "7dcb2e72b22cd5c031bf55b320c35780", "lon": -77.01959, "is_reserved": 0, "fusion_lon": 0.0, "lat": 38.9232915, "rental_uris": {"android": "https://dc.lft.to/lastmile_qr_scan", "ios": "https://dc.lft.to/lastmile_qr_scan"}, "fusion_lat": 0.0}, {"type": "electric_scooter", "bike_id": "b6bc53c87046c6502dad7240865b2bd8", "is_disabled": 0, "name": "b6bc53c87046c6502dad7240865b2bd8", "lon": -77.04846866666666, "is_reserved": 0, "fusion_lon": 0.0, "lat": 38.909659, "rental_uris": {"android": "https://dc.lft.to/lastmile_qr_scan", "ios": "https://dc.lft.to/lastmile_qr_scan"}, "fusion_lat": 0.0}, {"type": "electric_scooter", "bike_id": "bd511a0c5580c82ddb8f30bcc601e626", "is_disabled": 0, "name": "bd511a0c5580c82ddb8f30bcc601e626", "lon": -77.04146033333333, "is_reserved": 0, "fusion_lon": 0.0, "lat": 38.8934655, "rental_uris": {"android": "https://dc.lft.to/lastmile_qr_scan", "ios": "https://dc.lft.to/lastmile_qr_scan"}, "fusion_lat": 0.0}, {"type": "electric_scooter", "bike_id": "75e517a8301f85241f323ac822ba9183", "is_disabled": 0, "name": "75e517a8301f85241f323ac822ba9183", "lon": -76.932119, "is_reserved": 0, "fusion_lon": 0.0, "lat": 38.8803895, "rental_uris": {"android": "https://dc.lft.to/lastmile_qr_scan", "ios": "https://dc.lft.to/lastmile_qr_scan"}, "fusion_lat": 0.0}, {"type": "electric_scooter", "bike_id": "f20d59db81dcd7f95afe74716e3615d4", "is_disabled": 0, "name": "f20d59db81dcd7f95afe74716e3615d4", "lon": -77.02438766666667, "is_reserved": 0, "fusion_lon": 0.0, "lat": 38.898103666666664, "rental_uris": {"android": "https://dc.lft.to/lastmile_qr_scan", "ios": "https://dc.lft.to/lastmile_qr_scan"}, "fusion_lat": 0.0}, {"type": "electric_scooter", "bike_id": "807a2d959ae207c0e6d0c7c93181345f", "is_disabled": 0, "name": "807a2d959ae207c0e6d0c7c93181345f", "lon": -77.03210833333333, "is_reserved": 0, "fusion_lon": 0.0, "lat": 38.917292833333335, "rental_uris": {"android": "https://dc.lft.to/lastmile_qr_scan", "ios": "https://dc.lft.to/lastmile_qr_scan"}, "fusion_lat": 0.0}, {"type": "electric_scooter", "bike_id": "c6989cd0fb40ae03541f04959b7fd03e", "is_disabled": 0, "name": "c6989cd0fb40ae03541f04959b7fd03e", "lon": -77.03461, "is_reserved": 0, "fusion_lon": 0.0, "lat": 38.9074, "rental_uris": {"android": "https://dc.lft.to/lastmile_qr_scan", "ios": "https://dc.lft.to/lastmile_qr_scan"}, "fusion_lat": 0.0},