{"data": {"bikes": [{"is_reserved": 0, "type": "electric_scooter", "bike_id": "78dcbe8f69666099e409ee6b566e7971", "lat": 38.89546466666667, "lon": -76.98335216666666, "rental_uris": {"android": "https://dc.lft.to/lastmile_qr_scan", "ios": "https://dc.lft.to/lastmile_qr_scan"}, "is_disabled": 0, "fusion_lat": 0.0, "name": "78dcbe8f69666099e409ee6b566e7971", "fusion_lon": 0.0}, {"is_reserved": 0, "type": "electric_scooter", "bike_id": "2068fc4aef18ef2863bac460b1333701", "lat": 38.91119616666667, "lon": -77.00250016666666, "rental_uris": {"android": "https://dc.lft.to/lastmile_qr_scan", "ios": "https://dc.lft.to/lastmile_qr_scan"}, "is_disabled": 0, "fusion_lat": 0.0, "name": "2068fc4aef18ef2863bac460b1333701", "fusion_lon": 0.0}, {"is_reserved": 0, "type": "electric_scooter", "bike_id": "2657529c7d83c175b1872c4d23e4ec63", "lat": 38.911783, "lon": -77.0318995, "rental_uris": {"android": "https://dc.lft.to/lastmile_qr_scan", "ios": "https://dc.lft.to/lastmile_qr_scan"}, "is_disabled": 0, "fusion_lat": 0.0, "name": "2657529c7d83c175b1872c4d23e4ec63", "fusion_lon": 0.0}, {"is_reserved": 0, "type": "electric_scooter", "bike_id": "9b2c33348d530f3189ff82e1c35234c7", "lat": 38.9002935, "lon": -77.03622633333333, "rental_uris": {"android": "https://dc.lft.to/lastmile_qr_scan", "ios": "https://dc.lft.to/lastmile_qr_scan"}, "is_disabled": 0, "fusion_lat": 0.0, "name": "9b2c33348d530f3189ff82e1c35234c7", "fusion_lon": 0.0}, {"is_reserved": 0, "type": "electric_scooter", "bike_id": "2df5b7d69f4749e55e5e971eda325344", "lat": 38.906385, "lon": -77.0702635, "rental_uris": {"android": "https://dc.lft.to/lastmile_qr_scan", "ios": "https://dc.lft.to/lastmile_qr_scan"}, "is_disabled": 0, "fusion_lat": 0.0, "name": "2df5b7d69f4749e55e5e971eda325344", "fusion_lon": 0.0}, {"is_reserved": 0, "type": "electric_scooter", "bike_id": "3c258cb1b8f7cf320f8e572eda134ed0", "lat": 38.90813, "lon": -77.02958966666667, "rental_uris": {"android": "https://dc.lft.to/lastmile_qr_scan", "ios": "https://dc.lft.to/lastmile_qr_scan"}, "is_disabled": 0, "fusion_lat": 0.0, "name": "3c258cb1b8f7cf320f8e572eda134ed0", "fusion_lon": 0.0}, {"is_reserved": 0, "type": "electric_bike", "bike_id": "5971ae0a47d413b86639c9d794693ad8", "lat": 38.987177, "lon": -76.94584416666666, "rental_uris": {"android": "https://dc.lft.to/lastmile_qr_scan", "ios": "https://dc.lft.to/lastmile_qr_scan"}, "is_disabled": 0, "fusion_lat": 0.0, "name": "5971ae0a47d413b86639c9d794693ad8", "fusion_lon": 0.0}, {"is_reserved": 0, "type": "electric_scooter", "bike_id": "49ea1c7921ac0c3e3e51f794abe24443", "lat": 38.92261216666667, "lon": -77.03658816666666, "rental_uris": {"android": "https://dc.lft.to/lastmile_qr_scan", "ios": "https://dc.lft.to/lastmile_qr_scan"}, "is_disabled": 0, "fusion_lat": 0.0, "name": "49ea1c7921ac0c3e3e51f794abe24443", "fusion_lon": 0.0}, {"is_reserved": 0, "type": "electric_bike", "bike_id": "7f1fb115181f507f6d7cda0f6f73aa7a", "lat": 38.84456466666666, "lon": -76.93163866666667, "rental_uris": {"android": "https://dc.lft.to/lastmile_qr_scan", "ios": "https://dc.lft.to/lastmile_qr_scan"}, "is_disabled": 0, "fusion_lat": 0.0, "name": "7f1fb115181f507f6d7cda0f6f73aa7a", "fusion_lon": 0.0}, {"is_reserved": 0, "type": "electric_scooter", "bike_id": "511f15828bb61d3d2f922babb448f055", "lat": 38.905196833333335, "lon": -77.04737233333333, "rental_uris": {"android": "https://dc.lft.to/lastmile_qr_scan", "ios": "https://dc.lft.to/lastmile_qr_scan"}, "is_disabled": 0, "fusion_lat": 0.0, "name": "511f15828bb61d3d2f922babb448f055", "fusion_lon": 0.0}, {"is_reserved": 0, "type": "electric_bike", "bike_id": "c9a1a0ed09affe9089d965272dc2cb8d", "lat": 38.947994, "lon": -76.94249016666667, "rental_uris": {"android": "https://dc.lft.to/lastmile_qr_scan", "ios": "https://dc.lft.to/lastmile_qr_scan"}, "is_disabled": 0, "fusion_lat": 0.0, "name": "c9a1a0ed09affe9089d965272dc2cb8d", "fusion_lon": 0.0}, {"is_reserved": 0, "type": "electric_scooter", "bike_id": "ccea2e79a5584c6cea83de6030dea225", "lat": 38.91556966666667, "lon": -77.03119483333333, "rental_uris": {"android": "https://dc.lft.to/lastmile_qr_scan", "ios": "https://dc.lft.to/lastmile_qr_scan"}, "is_disabled": 0, "fusion_lat": 0.0, "name": "ccea2e79a5584c6cea83de6030dea225", "fusion_lon": 0.0}, {"is_reserved": 0, "type": "electric_scooter", "bike_id": "2981d28b31b8b13c73b3289507bb4202", "lat": 38.91631233333333, "lon": -77.032207, "rental_uris": {"android": "https://dc.lft.to/lastmile_qr_scan", "ios": "https://dc.lft.to/lastmile_qr_scan"}, "is_disabled": 0, "fusion_lat": 0.0, "name": "2981d28b31b8b13c73b3289507bb4202", "fusion_lon": 0.0}, {"is_reserved": 0, "type": "electric_scooter", "bike_id": "0f496593fcbd73b05f83e26720f88b5f", "lat": 38.926795166666665, "lon": -77.007411, "rental_uris": {"android": "https://dc.lft.to/lastmile_qr_scan", "ios": "https://dc.lft.to/lastmile_qr_scan"}, "is_disabled": 0, "fusion_lat": 0.0, "name": "0f496593fcbd73b05f83e26720f88b5f", "fusion_lon": 0.0}, {"is_reserved": 0, "type": "electric_scooter", "bike_id": "796c39c29291920d1f2eeb713be03143", "lat": 38.922213166666666, "lon": -77.02286066666667, "rental_uris": {"android": "https://dc.lft.to/lastmile_qr_scan", "ios": "https://dc.lft.to/lastmile_qr_scan"}, "is_disabled": 0, "fusion_lat": 0.0, "name": "796c39c29291920d1f2eeb713be03143", "fusion_lon": 0.0}, {"is_reserved": 0, "type": "electric_bike", "bike_id": "b47290df11a009b79179e01a675a628e", "lat": 38.803868333333334, "lon": -76.98810083333333, "rental_uris": {"android": "https://dc.lft.to/lastmile_qr_scan", "ios": "https://dc.lft.to/lastmile_qr_scan"}, "is_disabled": 0, "fusion_lat": 0.0, "name": "b47290df11a009b79179e01a675a628e", "fusion_lon": 0.0}, {"is_reserved": 0, "type": "electric_scooter", "bike_id": "0a8580589ea7420adaa7b058afee3f1b", "lat": 38.89688616666667, "lon": -77.00495633333334, "rental_uris": {"android": "https://dc.lft.to/lastmile_qr_scan", "ios": "https://dc.lft.to/lastmile_qr_scan"}, "is_disabled": 0, "fusion_lat": 0.0, "name": "0a8580589ea7420adaa7b058afee3f1b", "fusion_lon": 0.0}, {"is_reserved": 0, "type": "electric_bike", "bike_id": "05c5c994871b2f69297298b41e8e43a0", "lat": 38.923465666666665, "lon": -77.05362433333333, "rental_uris": {"android": "https://dc.lft.to/lastmile_qr_scan", "ios": "https://dc.lft.to/lastmile_qr_scan"}, "is_disabled": 0, "fusion_lat": 0.0, "name": "05c5c994871b2f69297298b41e8e43a0", "fusion_lon": 0.0}, {"is_reserved": 0, "type": "electric_scooter", "bike_id": "9a3825f24dfb1f894377439a57fb0032", "lat": 38.89792583333333, "lon": -77.05015216666666, "rental_uris": {"android": "https://dc.lft.to/lastmile_qr_scan", "ios": "https://dc.lft.to/lastmile_qr_scan"}, "is_disabled": 0, "fusion_lat": 0.0, "name": "9a3825f24dfb1f894377439a57fb0032", "fusion_lon": 0.0}, {"is_reserved": 0, "type": "electric_scooter", "bike_id": "eff70667c8b365d063efebf94e469ecf", "lat": 38.93987083333333, "lon": -77.02503616666667, "rental_uris": {"android": "https://dc.lft.to/lastmile_qr_scan", "ios": "https://dc.lft.to/lastmile_qr_scan"}, "is_disabled": 0, "fusion_lat": 0.0, "name": "eff70667c8b365d063efebf94e469ecf", "fusion_lon": 0.0}, {"is_reserved": 0, "type": "electric_scooter", "bike_id": "45e26f34ec0891ede5ed192dd0419aa9", "lat": 38.903903166666666, "lon": -77.0472025, "rental_uris": {"android": "https://dc.lft.to/lastmile_qr_scan", "ios": "https://dc.lft.to/lastmile_qr_scan"}, "is_disabled": 0, "fusion_lat": 0.0, "name": "45e26f34ec0891ede5ed192dd0419aa9", "fusion_lon": 0.0}, {"is_reserved": 0, "type": "electric_scooter", "bike_id": "676abe1337a4006b6458738386e2e488", "lat": 38.892603, "lon": -76.92764466666667, "rental_uris": {"android": "https://dc.lft.to/lastmile_qr_scan", "ios": "https://dc.lft.to/lastmile_qr_scan"}, "is_disabled": 0, "fusion_lat": 0.0, "name": "676abe1337a4006b6458738386e2e488", "fusion_lon": 0.0}, {"is_reserved": 0, "type": "electric_scooter", "bike_id": "cdb1c4fd85a0cbf69ef00b22ababfa95", "lat": 38.894590666666666, "lon": -77.0189665, "rental_uris": {"android": "https://dc.lft.to/lastmile_qr_scan", "ios": "https://dc.lft.to/lastmile_qr_scan"}, "is_disabled": 0, "fusion_lat": 0.0, "name": "cdb1c4fd85a0cbf69ef00b22ababfa95", "fusion_lon": 0.0}, {"is_reserved": 0, "type": "electric_scooter", "bike_id": "76fecf2c87d704522f782188c64cb0ea", "lat": 38.866957666666664, "lon": -76.978975, "rental_uris": {"android": "https://dc.lft.to/lastmile_qr_scan", "ios": "https://dc.lft.to/lastmile_qr_scan"}, "is_disabled": 0, "fusion_lat": 0.0, "name": "76fecf2c87d704522f782188c64cb0ea", "fusion_lon": 0.0}, {"is_reserved": 0, "type": "electric_scooter", "bike_id": "0f31a66379a0e26e79f24c1d462181e0", "lat": 38.883702666666665, "lon": -76.9414555, "rental_uris": {"android": "https://dc.lft.to/lastmile_qr_scan", "ios": "https://dc.lft.to/lastmile_qr_scan"}, "is_disabled": 0, "fusion_lat": 0.0, "name": "0f31a66379a0e26e79f24c1d462181e0", "fusion_lon": 0.0}, {"is_reserved": 0, "type": "electric_scooter", "bike_id": "6bdc7dcc73cc53ff12738b7ee5be8d98", "lat": 38.92651933333333, "lon": -77.03842066666667, "rental_uris": {"android": "https://dc.lft.to/lastmile_qr_scan", "ios": "https://dc.lft.to/lastmile_qr_scan"}, "is_disabled": 0, "fusion_lat": 0.0, "name": "6bdc7dcc73cc53ff12738b7ee5be8d98", "fusion_lon": 0.0}, {"is_reserved": 0, "type": "electric_scooter", "bike_id": "546063687566765bf08bebaca079e807", "lat": 38.92660516666667, "lon": -77.037094, "rental_uris": {"android": "https://dc.lft.to/lastmile_qr_scan", "ios": "https://dc.lft.to/lastmile_qr_scan"}, "is_disabled": 0, "fusion_lat": 0.0, "name": "546063687566765bf08bebaca079e807", "fusion_lon": 0.0}, {"is_reserved": 0, "type": "electric_scooter", "bike_id": "d51143b35b56cca52ef0a5bd4fdc7b25", "lat": 38.88289533333333, "lon": -76.92920933333333, "rental_uris": {"android": "https://dc.lft.to/lastmile_qr_scan", "ios": "https://dc.lft.to/lastmile_qr_scan"}, "is_disabled": 0, "fusion_lat": 0.0, "name": "d51143b35b56cca52ef0a5bd4fdc7b25", "fusion_lon": 0.0}, {"is_reserved": 0, "type": "electric_scooter", "bike_id": "d76b9347a0f4b3e824b9e3481777e4d5", "lat": 38.91498433333334, "lon": -77.0121265, "rental_uris": {"android": "https://dc.lft.to/lastmile_qr_scan", "ios": "https://dc.lft.to/lastmile_qr_scan"}, "is_disabled": 0, "fusion_lat": 0.0, "name": "d76b9347a0f4b3e824b9e3481777e4d5", "fusion_lon": 0.0}, {"is_reserved": 0, "type": "electric_scooter", "bike_id": "6018e46ed1d48f0a59f070d97d648e56", "lat": 38.913623666666666, "lon": -77.06558716666666, "rental_uris": {"android": "https://dc.lft.to/lastmile_qr_scan", "ios": "https://dc.lft.to/lastmile_qr_scan"}, "is_disabled": 0, "fusion_lat": 0.0, "name": "6018e46ed1d48f0a59f070d97d648e56", "fusion_lon": 0.0}, {"is_reserved": 0, "type": "electric_scooter", "bike_id": "b9668456f3af5e60eae54ac62e36a121", "lat": 38.90498383333333, "lon": -77.01983766666666, "rental_uris": {"android": "https://dc.lft.to/lastmile_qr_scan", "ios": "https://dc.lft.to/lastmile_qr_scan"}, "is_disabled": 0, "fusion_lat": 0.0, "name": "b9668456f3af5e60eae54ac62e36a121", "fusion_lon": 0.0}, {"is_reserved": 0, "type": "electric_scooter", "bike_id": "e2b2cb1dd1238c07ef67f8ccade0e218", "lat": 38.88749883333333, "lon": -77.0153655, "rental_uris": {"android": "https://dc.lft.to/lastmile_qr_scan", "ios": "https://dc.lft.to/lastmile_qr_scan"}, "is_disabled": 0, "fusion_lat": 0.0, "name": "e2b2cb1dd1238c07ef67f8ccade0e218", "fusion_lon": 0.0}, {"is_reserved": 0, "type": "electric_scooter", "bike_id": "43993f22ff29e632cac0abf01fcca7f6", "lat": 38.890082166666666, "lon": -76.9373955, "rental_uris": {"android": "https://dc.lft.to/lastmile_qr_scan", "ios": "https://dc.lft.to/lastmile_qr_scan"}, "is_disabled": 0, "fusion_lat": 0.0, "name": "43993f22ff29e632cac0abf01fcca7f6", "fusion_lon": 0.0}, {"is_reserved": 0, "type": "electric_bike", "bike_id": "80bd09fa83f74f06c7505a1776550759", "lat": 38.97336983333334, "lon": -76.99587533333333, "rental_uris": {"android": "https://dc.lft.to/lastmile_qr_scan", "ios": "https://dc.lft.to/lastmile_qr_scan"}, "is_disabled": 0, "fusion_lat": 0.0, "name": "80bd09fa83f74f06c7505a1776550759", "fusion_lon": 0.0}, {"is_reserved": 0, "type": "electric_bike", "bike_id": "c5906857a3c68a7bfc42072082391310", "lat": 38.93498983333333, "lon": -77.03615033333334, "rental_uris": {"android": "https://dc.lft.to/lastmile_qr_scan", "ios": "https://dc.lft.to/lastmile_qr_scan"}, "is_disabled": 0, "fusion_lat": 0.0, "name": "c5906857a3c68a7bfc42072082391310", "fusion_lon": 0.0}, {"is_reserved": 0, "type": "electric_scooter", "bike_id": "f7f5af60f6fcc3487bda475a14639450", "lat": 38.89729533333333, "lon": -77.0196025, "rental_uris": {"android": "https://dc.lft.to/lastmile_qr_scan", "ios": "https://dc.lft.to/lastmile_qr_scan"}, "is_disabled": 0, "fusion_lat": 0.0, "name": "f7f5af60f6fcc3487bda475a14639450", "fusion_lon": 0.0}, {"is_reserved": 0, "type": "electric_scooter", "bike_id": "7fdfa013550f2d1405ebd099ab306a79", "lat": 38.91030883333333, "lon": -77.0332815, "rental_uris": {"android": "https://dc.lft.to/lastmile_qr_scan", "ios": "https://dc.lft.to/lastmile_qr_scan"}, "is_disabled": 0, "fusion_lat": 0.0, "name": "7fdfa013550f2d1405ebd099ab306a79", "fusion_lon": 0.0}, {"is_reserved": 0, "type": "electric_scooter", "bike_id": "df89e738413981505f6aeac637c0d8c8", "lat": 38.952143666666665, "lon": -77.01600133333334, "rental_uris": {"android": "https://dc.lft.to/lastmile_qr_scan", "ios": "https://dc.lft.to/lastmile_qr_scan"}, "is_disabled": 0, "fusion_lat": 0.0, "name": "df89e738413981505f6aeac637c0d8c8", "fusion_lon": 0.0}, {"is_reserved": 0, "type": "electric_scooter", "bike_id": "6e4ecaa166c5ab2eff61dc5d3d38940a", "lat": 38.92781083333333, "lon": -77.025607, "rental_uris": {"android": "https://dc.lft.to/lastmile_qr_scan", "ios": "https://dc.lft.to/lastmile_qr_scan"}, "is_disabled": 0, "fusion_lat": 0.0, "name": "6e4ecaa166c5ab2eff61dc5d3d38940a", "fusion_lon": 0.0}, {"is_reserved": 0, "type": "electric_bike", "bike_id": "4d69bdbc1673e39cb52925781a22e020", "lat": 39.042400666666666, "lon": -76.997309, "rental_uris": {"android": "https://dc.lft.to/lastmile_qr_scan", "ios": "https://dc.lft.to/lastmile_qr_scan"}, "is_disabled": 0, "fusion_lat": 0.0, "name": "4d69bdbc1673e39cb52925781a22e020", "fusion_lon": 0.0}, {"is_reserved": 0, "type": "electric_scooter", "bike_id": "7fe53a22366127133d62d6e092ae7f92", "lat": 38.924997166666664, "lon": -77.0522955, "rental_uris": {"android": "https://dc.lft.to/lastmile_qr_scan", "ios": "https://dc.lft.to/lastmile_qr_scan"}, "is_disabled": 0, "fusion_lat": 0.0, "name": "7fe53a22366127133d62d6e092ae7f92", "fusion_lon": 0.0}, {"is_reserved": 0, "type": "electric_scooter", "bike_id": "652ec2beb4394819ef91ac78ab3c65bd", "lat": 38.921719833333334, "lon": -77.03208066666667, "rental_uris": {"android": "https://dc.lft.to/lastmile_qr_scan", "ios": "https://dc.lft.to/lastmile_qr_scan"}, "is_disabled": 0, "fusion_lat": 0.0, "name": "652ec2beb4394819ef91ac78ab3c65bd", "fusion_lon": 0.0}, {"is_reserved": 0, "type": "electric_scooter", "bike_id": "af12eb6655178359e56abec49eb62d6a", "lat": 38.94732666666667, "lon": -77.02454633333333, "rental_uris": {"android": "https://dc.lft.to/lastmile_qr_scan", "ios": "https://dc.lft.to/lastmile_qr_scan"}, "is_disabled": 0, "fusion_lat": 0.0, "name": "af12eb6655178359e56abec49eb62d6a", "fusion_lon": 0.0}, {"is_reserved": 0, "type": "electric_scooter", "bike_id": "e105079fbe73a7e37aa2ec316ffab687", "lat": 38.9208675, "lon": -77.02540583333334, "rental_uris": {"android": "https://dc.lft.to/lastmile_qr_scan", "ios": "https://dc.lft.to/lastmile_qr_scan"}, "is_disabled": 0, "fusion_lat": 0.0, "name": "e105079fbe73a7e37aa2ec316ffab687", "fusion_lon": 0.0}, {"is_reserved": 0, "type": "electric_scooter", "bike_id": "8bc54d1baed0dafc4dd8596cd5afd830", "lat": 38.92568283333333, "lon": -76.97005383333334, "rental_uris": {"android": "https://dc.lft.to/lastmile_qr_scan", "ios": "https://dc.lft.to/lastmile_qr_scan"}, "is_disabled": 0, "fusion_lat": 0.0, "name": "8bc54d1baed0dafc4dd8596cd5afd830", "fusion_lon": 0.0}, {"is_reserved": 0, "type": "electric_scooter", "bike_id": "91fbed72f0defc0c7b9978743cb6ac98", "lat": 38.929719, "lon": -77.0234165, "rental_uris": {"android": "https://dc.lft.to/lastmile_qr_scan", "ios": "https://dc.lft.to/lastmile_qr_scan"}, "is_disabled": 0, "fusion_lat": 0.0, "name": "91fbed72f0defc0c7b9978743cb6ac98", "fusion_lon": 0.0}, {"is_reserved": 0, "type": "electric_scooter", "bike_id": "a29424e5803b92398f10e1d68986688b", "lat": 38.908651, "lon": -77.021802, "rental_uris": {"android": "https://dc.lft.to/lastmile_qr_scan", "ios": "https://dc.lft.to/lastmile_qr_scan"}, "is_disabled": 0, "fusion_lat": 0.0, "name": "a29424e5803b92398f10e1d68986688b", "fusion_lon": 0.0}, {"is_reserved": 0, "type": "electric_scooter", "bike_id": "38bdc3e5e23648ed2545865d8c10b34c", "lat": 38.914054666666665, "lon": -77.03167583333334, "rental_uris": {"android": "https://dc.lft.to/lastmile_qr_scan", "ios": "https://dc.lft.to/lastmile_qr_scan"}, "is_disabled": 0, "fusion_lat": 0.0, "name": "38bdc3e5e23648ed2545865d8c10b34c", "fusion_lon": 0.0}, {"is_reserved": 0, "type": "electric_scooter", "bike_id": "b279b1eb60252172be89ad9a7364165b", "lat": 38.89221466666667, "lon": -77.03230516666666, "rental_uris": {"android": "https://dc.lft.to/lastmile_qr_scan", "ios": "https://dc.lft.to/lastmile_qr_scan"}, "is_disabled": 0, "fusion_lat": 0.0, "name": "b279b1eb60252172be89ad9a7364165b", "fusion_lon": 0.0}, {"is_reserved": 0, "type": "electric_scooter", "bike_id": "8242b3ce3360abde2c2c2b9c6860c57d", "lat": 38.88301333333333, "lon": -76.9485275, "rental_uris": {"android": "https://dc.lft.to/lastmile_qr_scan", "ios": "https://dc.lft.to/lastmile_qr_scan"}, "is_disabled": 0, "fusion_lat": 0.0, "name": "8242b3ce3360abde2c2c2b9c6860c57d", "fusion_lon": 0.0}, {"is_reserved": 0, "type": "electric_scooter", "bike_id": "dc37dff68a500ae891c8866cd5e080de", "lat": 38.90081516666667, "lon": -77.049608, "rental_uris": {"android": "https://dc.lft.to/lastmile_qr_scan", "ios": "https://dc.lft.to/lastmile_qr_scan"}, "is_disabled": 0, "fusion_lat": 0.0, "name": "dc37dff68a500ae891c8866cd5e080de", "fusion_lon": 0.0}, {"is_reserved": 0, "type": "electric_scooter", "bike_id": "39f1b4f599bc6c0481b4977c516e299f", "lat": 38.9387145, "lon": -77.0321375, "rental_uris": {"android": "https://dc.lft.to/lastmile_qr_scan", "ios": "https://dc.lft.to/lastmile_qr_scan"}, "is_disabled": 0, "fusion_lat": 0.0, "name": "39f1b4f599bc6c0481b4977c516e299f", "fusion_lon": 0.0}, {"is_reserved": 0, "type": "electric_scooter", "bike_id": "1da6c37dec5e26b11d298106df4269c6", "lat": 38.92491533333333, "lon": -77.02705483333334, "rental_uris": {"android": "https://dc.lft.to/lastmile_qr_scan", "ios": "https://dc.lft.to/lastmile_qr_scan"}, "is_disabled": 0, "fusion_lat": 0.0, "name": "1da6c37dec5e26b11d298106df4269c6", "fusion_lon": 0.0}, {"is_reserved": 0, "type": "electric_scooter", "bike_id": "1c7aa7e7b18614216c95b307f31dc469", "lat": 38.923103166666664, "lon": -77.03023566666667, "rental_uris": {"android": "https://dc.lft.to/lastmile_qr_scan", "ios": "https://dc.lft.to/lastmile_qr_scan"}, "is_disabled": 0, "fusion_lat": 0.0, "name": "1c7aa7e7b18614216c95b307f31dc469", "fusion_lon": 0.0}, {"is_reserved": 0, "type": "electric_bike", "bike_id": "a17f059534f2c21048a95a74cfcd711d", "lat": 38.90172883333334, "lon": -76.9766225, "rental_uris": {"android": "https://dc.lft.to/lastmile_qr_scan", "ios": "https://dc.lft.to/lastmile_qr_scan"}, "is_disabled": 0, "fusion_lat": 0.0, "name": "a17f059534f2c21048a95a74cfcd711d", "fusion_lon": 0.0}, {"is_reserved": 0, "type": "electric_scooter", "bike_id": "784a2a72b649aded3c66d58a739d7318", "lat": 38.91107083333333, "lon": -77.073495, "rental_uris": {"android": "https://dc.lft.to/lastmile_qr_scan", "ios": "https://dc.lft.to/lastmile_qr_scan"}, "is_disabled": 0, "fusion_lat": 0.0, "name": "784a2a72b649aded3c66d58a739d7318", "fusion_lon": 0.0}, {"is_reserved": 0, "type": "electric_scooter", "bike_id": "19c64b13986babef0aca31c89326b0b9", "lat": 38.922666166666666, "lon": -77.0196425, "rental_uris": {"android": "https://dc.lft.to/lastmile_qr_scan", "ios": "https://dc.lft.to/lastmile_qr_scan"}, "is_disabled": 0, "fusion_lat": 0.0, "name": "19c64b13986babef0aca31c89326b0b9", "fusion_lon": 0.0}, {"is_reserved": 0, "type": "electric_scooter", "bike_id": "634406626ddf887fbbc836014186b8bc", "lat": 38.9231685, "lon": -77.0413715, "rental_uris": {"android": "https://dc.lft.to/lastmile_qr_scan", "ios": "https://dc.lft.to/lastmile_qr_scan"}, "is_disabled": 0, "fusion_lat": 0.0, "name": "634406626ddf887fbbc836014186b8bc", "fusion_lon": 0.0}, {"is_reserved": 0, "type": "electric_scooter", "bike_id": "5df72b40f9dc24bb79ebbdc15261afb3", "lat": 38.9141665, "lon": -77.01874833333333, "rental_uris": {"android": "https://dc.lft.to/lastmile_qr_scan", "ios": "https://dc.lft.to/lastmile_qr_scan"}, "is_disabled": 0, "fusion_lat": 0.0, "name": "5df72b40f9dc24bb79ebbdc15261afb3", "fusion_lon": 0.0}, {"is_reserved": 0, "type": "electric_bike", "bike_id": "14019fb3420175bfe4f6932259300a75", "lat": 38.8768355, "lon": -77.02001916666667, "rental_uris": {"android": "https://dc.lft.to/lastmile_qr_scan", "ios": "https://dc.lft.to/lastmile_qr_scan"}, "is_disabled": 0, "fusion_lat": 0.0, "name": "14019fb3420175bfe4f6932259300a75", "fusion_lon": 0.0}, {"is_reserved": 0, "type": "electric_scooter", "bike_id": "9cd7c314dcc666de0a6d83b3f11bf974", "lat": 38.9216075, "lon": -77.03374683333334, "rental_uris": {"android": "https://dc.lft.to/lastmile_qr_scan", "ios": "https://dc.lft.to/lastmile_qr_scan"}, "is_disabled": 0, "fusion_lat": 0.0, "name": "9cd7c314dcc666de0a6d83b3f11bf974", "fusion_lon": 0.0}, {"is_reserved": 0, "type": "electric_scooter", "bike_id": "8375845f039c43235ad56399f9765442", "lat": 38.90269766666667, "lon": -77.01763883333334, "rental_uris": {"android": "https://dc.lft.to/lastmile_qr_scan", "ios": "https://dc.lft.to/lastmile_qr_scan"}, "is_disabled": 0, "fusion_lat": 0.0, "name": "8375845f039c43235ad56399f9765442", "fusion_lon": 0.0}, {"is_reserved": 0, "type": "electric_scooter", "bike_id": "3c730136a3730fcfe90fc97120cb7d6a", "lat": 38.87477483333333, "lon": -77.01743783333333, "rental_uris": {"android": "https://dc.lft.to/lastmile_qr_scan", "ios": "https://dc.lft.to/lastmile_qr_scan"}, "is_disabled": 0, "fusion_lat": 0.0, "name": "3c730136a3730fcfe90fc97120cb7d6a", "fusion_lon": 0.0}, {"is_reserved": 0, "type": "electric_scooter", "bike_id": "b0f8394281e26257f6635f52cd85024f", "lat": 38.924227333333334, "lon": -76.99670033333334, "rental_uris": {"android": "https://dc.lft.to/lastmile_qr_scan", "ios": "https://dc.lft.to/lastmile_qr_scan"}, "is_disabled": 0, "fusion_lat": 0.0, "name": "b0f8394281e26257f6635f52cd85024f", "fusion_lon": 0.0}, {"is_reserved": 0, "type": "electric_scooter", "bike_id": "ada94bf200857802bc52c0d47a40057f", "lat": 38.90569283333333, "lon": -77.04178833333333, "rental_uris": {"android": "https://dc.lft.to/lastmile_qr_scan", "ios": "https://dc.lft.to/lastmile_qr_scan"}, "is_disabled": 0, "fusion_lat": 0.0, "name": "ada94bf200857802bc52c0d47a40057f", "fusion_lon": 0.0}, {"is_reserved": 0, "type": "electric_scooter", "bike_id": "12d674642aba8582bf1fc682a00be2fa", "lat": 38.923312833333334, "lon": -77.0089065, "rental_uris": {"android": "https://dc.lft.to/lastmile_qr_scan", "ios": "https://dc.lft.to/lastmile_qr_scan"}, "is_disabled": 0, "fusion_lat": 0.0, "name": "12d674642aba8582bf1fc682a00be2fa", "fusion_lon": 0.0}, {"is_reserved": 0, "type": "electric_scooter", "bike_id": "de84fb0225c72f0aae0ced371cd2a2bd", "lat": 38.917103166666664, "lon": -77.041525, "rental_uris": {"android": "https://dc.lft.to/lastmile_qr_scan", "ios": "https://dc.lft.to/lastmile_qr_scan"}, "is_disabled": 0, "fusion_lat": 0.0, "name": "de84fb0225c72f0aae0ced371cd2a2bd", "fusion_lon": 0.0}, {"is_reserved": 0, "type": "electric_bike", "bike_id": "d8e8c6bdcea64c6fc808d2cf8d933b61", "lat": 38.84923916666666, "lon": -77.08363283333334, "rental_uris": {"android": "https://dc.lft.to/lastmile_qr_scan", "ios": "https://dc.lft.to/lastmile_qr_scan"}, "is_disabled": 0, "fusion_lat": 0.0, "name": "d8e8c6bdcea64c6fc808d2cf8d933b61", "fusion_lon": 0.0}, {"is_reserved": 0, "type": "electric_scooter", "bike_id": "01b3f2e19d0cca12d08887d9d39c5969", "lat": 38.940366166666664, "lon": -77.02919716666666, "rental_uris": {"android": "https://dc.lft.to/lastmile_qr_scan", "ios": "https://dc.lft.to/lastmile_qr_scan"}, "is_disabled": 0, "fusion_lat": 0.0, "name": "01b3f2e19d0cca12d08887d9d39c5969", "fusion_lon": 0.0}, {"is_reserved": 0, "type": "electric_scooter", "bike_id": "7adb969cd4392a93a1fd97753478e124", "lat": 38.91073083333333, "lon": -76.99132616666667, "rental_uris": {"android": "https://dc.lft.to/lastmile_qr_scan", "ios": "https://dc.lft.to/lastmile_qr_scan"}, "is_disabled": 0, "fusion_lat": 0.0, "name": "7adb969cd4392a93a1fd97753478e124", "fusion_lon": 0.0}, {"is_reserved": 0, "type": "electric_scooter", "bike_id": "69454fbf7175a93ab9613e0ad9450bba", "lat": 38.90213133333334, "lon": -77.04887566666666, "rental_uris": {"android": "https://dc.lft.to/lastmile_qr_scan", "ios": "https://dc.lft.to/lastmile_qr_scan"}, "is_disabled": 0, "fusion_lat": 0.0, "name": "69454fbf7175a93ab9613e0ad9450bba", "fusion_lon": 0.0}, {"is_reserved": 0, "type": "electric_scooter", "bike_id": "600fbf9c9a426be9c80bfaacfda34e77", "lat": 38.895641499999996, "lon": -76.98214366666667, "rental_uris": {"android": "https://dc.lft.to/lastmile_qr_scan", "ios": "https://dc.lft.to/lastmile_qr_scan"}, "is_disabled": 0, "fusion_lat": 0.0, "name": "600fbf9c9a426be9c80bfaacfda34e77", "fusion_lon": 0.0}, {"is_reserved": 0, "type": "electric_scooter", "bike_id": "e5c61e479efd4ac23e72101e338834c2", "lat": 38.91545433333334, "lon": -77.02082783333333, "rental_uris": {"android": "https://dc.lft.to/lastmile_qr_scan", "ios": "https://dc.lft.to/lastmile_qr_scan"}, "is_disabled": 0, "fusion_lat": 0.0, "name": "e5c61e479efd4ac23e72101e338834c2", "fusion_lon": 0.0}, {"is_reserved": 0, "type": "electric_scooter", "bike_id": "eda7ce81500e7b3afaf40d0c0a63517e", "lat": 38.89496783333333, "lon": -77.00196233333334, "rental_uris": {"android": "https://dc.lft.to/lastmile_qr_scan", "ios": "https://dc.lft.to/lastmile_qr_scan"}, "is_disabled": 0, "fusion_lat": 0.0, "name": "eda7ce81500e7b3afaf40d0c0a63517e", "fusion_lon": 0.0}, {"is_reserved": 0, "type": "electric_scooter", "bike_id": "76622bbb51febf05709291b56f2e2619", "lat": 38.934340166666665, "lon": -77.037547, "rental_uris": {"android": "https://dc.lft.to/lastmile_qr_scan", "ios": "https://dc.lft.to/lastmile_qr_scan"}, "is_disabled": 0, "fusion_lat": 0.0, "name": "76622bbb51febf05709291b56f2e2619", "fusion_lon": 0.0}, {"is_reserved": 0, "type": "electric_scooter", "bike_id": "ec8db494a910a19e244c63b00d4c7baa", "lat": 38.902610333333335, "lon": -77.01757383333333, "rental_uris": {"android": "https://dc.lft.to/lastmile_qr_scan", "ios": "https://dc.lft.to/lastmile_qr_scan"}, "is_disabled": 0, "fusion_lat": 0.0, "name": "ec8db494a910a19e244c63b00d4c7baa", "fusion_lon": 0.0}, {"is_reserved": 0, "type": "electric_scooter", "bike_id": "5fc718dd83bc0a40a785cfbdedb4bdfc", "lat": 38.92259516666667, "lon": -77.03654983333334, "rental_uris": {"android": "https://dc.lft.to/lastmile_qr_scan", "ios": "https://dc.lft.to/lastmile_qr_scan"}, "is_disabled": 0, "fusion_lat": 0.0, "name": "5fc718dd83bc0a40a785cfbdedb4bdfc", "fusion_lon": 0.0}, {"is_reserved": 0, "type": "electric_scooter", "bike_id": "a5b09d68955d29fa5f26f55d9f57605c", "lat": 38.9054565, "lon": -77.02210566666666, "rental_uris": {"android": "https://dc.lft.to/lastmile_qr_scan", "ios": "https://dc.lft.to/lastmile_qr_scan"}, "is_disabled": 0, "fusion_lat": 0.0, "name": "a5b09d68955d29fa5f26f55d9f57605c", "fusion_lon": 0.0}, {"is_reserved": 0, "type": "electric_scooter", "bike_id": "bde3b35a197ef050a83b04a4742baac5", "lat": 38.896415, "lon": -77.00912, "rental_uris": {"android": "https://dc.lft.to/lastmile_qr_scan", "ios": "https://dc.lft.to/lastmile_qr_scan"}, "is_disabled": 0, "fusion_lat": 0.0, "name": "bde3b35a197ef050a83b04a4742baac5", "fusion_lon": 0.0}, {"is_reserved": 0, "type": "electric_scooter", "bike_id": "1bb88e6458a684ce59057e1908eca8df", "lat": 38.9163735, "lon": -77.04622266666667, "rental_uris": {"android": "https://dc.lft.to/lastmile_qr_scan", "ios": "https://dc.lft.to/lastmile_qr_scan"}, "is_disabled": 0, "fusion_lat": 0.0, "name": "1bb88e6458a684ce59057e1908eca8df", "fusion_lon": 0.0}, {"is_reserved": 0, "type": "electric_scooter", "bike_id": "c99c090bc4149a518cb9bc8457b09841", "lat": 38.926148166666664, "lon": -77.02154783333333, "rental_uris": {"android": "https://dc.lft.to/lastmile_qr_scan", "ios": "https://dc.lft.to/lastmile_qr_scan"}, "is_disabled": 0, "fusion_lat": 0.0, "name": "c99c090bc4149a518cb9bc8457b09841", "fusion_lon": 0.0}, {"is_reserved": 0, "type": "electric_scooter", "bike_id": "6d1c4d9a4b39a4696269121fe51d2a27", "lat": 38.8863915, "lon": -76.99620033333333, "rental_uris": {"android": "https://dc.lft.to/lastmile_qr_scan", "ios": "https://dc.lft.to/lastmile_qr_scan"}, "is_disabled": 0, "fusion_lat": 0.0, "name": "6d1c4d9a4b39a4696269121fe51d2a27", "fusion_lon": 0.0}, {"is_reserved": 0, "type": "electric_scooter", "bike_id": "4ce5f19025aac8a633f12c13fd8a33f0", "lat": 38.90475266666667, "lon": -77.00720466666667, "rental_uris": {"android": "https://dc.lft.to/lastmile_qr_scan", "ios": "https://dc.lft.to/lastmile_qr_scan"}, "is_disabled": 0, "fusion_lat": 0.0, "name": "4ce5f19025aac8a633f12c13fd8a33f0", "fusion_lon": 0.0}, {"is_reserved": 0, "type": "electric_scooter", "bike_id": "89da4241ffb8c3c884e1f3ce017e1b7a", "lat": 38.900607666666666, "lon": -77.054307, "rental_uris": {"android": "https://dc.lft.to/lastmile_qr_scan", "ios": "https://dc.lft.to/lastmile_qr_scan"}, "is_disabled": 0, "fusion_lat": 0.0, "name": "89da4241ffb8c3c884e1f3ce017e1b7a", "fusion_lon": 0.0}, {"is_reserved": 0, "type": "electric_scooter", "bike_id": "802002fbc282f7f01f71d3b40e63948f", "lat": 38.88773066666667, "lon": -76.93261233333334, "rental_uris": {"android": "https://dc.lft.to/lastmile_qr_scan", "ios": "https://dc.lft.to/lastmile_qr_scan"}, "is_disabled": 0, "fusion_lat": 0.0, "name": "802002fbc282f7f01f71d3b40e63948f", "fusion_lon": 0.0}, {"is_reserved": 0, "type": "electric_scooter", "bike_id": "439ddd7534f30b4cebe59aab9fb80063", "lat": 38.905375166666666, "lon": -77.056958, "rental_uris": {"android": "https://dc.lft.to/lastmile_qr_scan", "ios": "https://dc.lft.to/lastmile_qr_scan"}, "is_disabled": 0, "fusion_lat": 0.0, "name": "439ddd7534f30b4cebe59aab9fb80063", "fusion_lon": 0.0}, {"is_reserved": 0, "type": "electric_scooter", "bike_id": "6f08e166cae9732680cab1fb3365926e", "lat": 38.92778916666666, "lon": -77.0279035, "rental_uris": {"android": "https://dc.lft.to/lastmile_qr_scan", "ios": "https://dc.lft.to/lastmile_qr_scan"}, "is_disabled": 0, "fusion_lat": 0.0, "name": "6f08e166cae9732680cab1fb3365926e", "fusion_lon": 0.0}, {"is_reserved": 0, "type": "electric_scooter", "bike_id": "e430ad65979d34a40019de1e02861b22", "lat": 38.90565183333333, "lon": -77.00582466666667, "rental_uris": {"android": "https://dc.lft.to/lastmile_qr_scan", "ios": "https://dc.lft.to/lastmile_qr_scan"}, "is_disabled": 0, "fusion_lat": 0.0, "name": "e430ad65979d34a40019de1e02861b22", "fusion_lon": 0.0}, {"is_reserved": 0, "type": "electric_scooter", "bike_id": "b73a3baf2520adf4f63a80532c2984c6", "lat": 38.88720466666667, "lon": -77.02202133333333, "rental_uris": {"android": "https://dc.lft.to/lastmile_qr_scan", "ios": "https://dc.lft.to/lastmile_qr_scan"}, "is_disabled": 0, "fusion_lat": 0.0, "name": "b73a3baf2520adf4f63a80532c2984c6", "fusion_lon": 0.0}, {"is_reserved": 0, "type": "electric_scooter", "bike_id": "646d7dcd8cb1ed8d1fc8ac13437620bf", "lat": 38.91935466666666, "lon": -77.041686, "rental_uris": {"android": "https://dc.lft.to/lastmile_qr_scan", "ios": "https://dc.lft.to/lastmile_qr_scan"}, "is_disabled": 0, "fusion_lat": 0.0, "name": "646d7dcd8cb1ed8d1fc8ac13437620bf", "fusion_lon": 0.0}, {"is_reserved": 0, "type": "electric_scooter", "bike_id": "4a83ac94caa8eb4cc814a6710bbd3194", "lat": 38.9119025, "lon": -77.04492266666666, "rental_uris": {"android": "https://dc.lft.to/lastmile_qr_scan", "ios": "https://dc.lft.to/lastmile_qr_scan"}, "is_disabled": 0, "fusion_lat": 0.0, "name": "4a83ac94caa8eb4cc814a6710bbd3194", "fusion_lon": 0.0}, {"is_reserved": 0, "type": "electric_scooter", "bike_id": "07a1d1c88f43318c2c1afe183c5f2fa9", "lat": 38.930832333333335, "lon": -77.0373105, "rental_uris": {"android": "https://dc.lft.to/lastmile_qr_scan", "ios": "https://dc.lft.to/lastmile_qr_scan"}, "is_disabled": 0, "fusion_lat": 0.0, "name": "07a1d1c88f43318c2c1afe183c5f2fa9", "fusion_lon": 0.0}, {"is_reserved": 0, "type": "electric_scooter", "bike_id": "a8425e41b9cfc99e756ea0d5934ee5b0", "lat": 38.918141, "lon": -77.04005333333333, "rental_uris": {"android": "https://dc.lft.to/lastmile_qr_scan", "ios": "https://dc.lft.to/lastmile_qr_scan"}, "is_disabled": 0, "fusion_lat": 0.0, "name": "a8425e41b9cfc99e756ea0d5934ee5b0", "fusion_lon": 0.0}, {"is_reserved": 0, "type": "electric_scooter", "bike_id": "af731bc9fcc5cce72a22b1a53f2c8a07", "lat": 38.900326166666666, "lon": -76.98876866666667, "rental_uris": {"android": "https://dc.lft.to/lastmile_qr_scan", "ios": "https://dc.lft.to/lastmile_qr_scan"}, "is_disabled": 0, "fusion_lat": 0.0, "name": "af731bc9fcc5cce72a22b1a53f2c8a07", "fusion_lon": 0.0}, {"is_reserved": 0, "type": "electric_scooter", "bike_id": "b61416fbadd2dab061ec3214780cd8c7", "lat": 38.8998645, "lon": -77.02696133333333, "rental_uris": {"android": "https://dc.lft.to/lastmile_qr_scan", "ios": "https://dc.lft.to/lastmile_qr_scan"}, "is_disabled": 0, "fusion_lat": 0.0, "name": "b61416fbadd2dab061ec3214780cd8c7", "fusion_lon": 0.0}, {"is_reserved": 0, "type": "electric_bike", "bike_id": "ed8a72d9082f402637862e6c72fd6dd8", "lat": 38.882116, "lon": -77.11157933333334, "rental_uris": {"android": "https://dc.lft.to/lastmile_qr_scan", "ios": "https://dc.lft.to/lastmile_qr_scan"}, "is_disabled": 0, "fusion_lat": 0.0, "name": "ed8a72d9082f402637862e6c72fd6dd8", "fusion_lon": 0.0}, {"is_reserved": 0, "type": "electric_scooter", "bike_id": "232f810edde28355622af59014325b75", "lat": 38.88786316666667, "lon": -76.97708466666667, "rental_uris": {"android": "https://dc.lft.to/lastmile_qr_scan", "ios": "https://dc.lft.to/lastmile_qr_scan"}, "is_disabled": 0, "fusion_lat": 0.0, "name": "232f810edde28355622af59014325b75", "fusion_lon": 0.0}, {"is_reserved": 0, "type": "electric_scooter", "bike_id": "c0988f9b966d63663515b211a356ba3e", "lat": 38.8729485, "lon": -77.01560633333334, "rental_uris": {"android": "https://dc.lft.to/lastmile_qr_scan", "ios": "https://dc.lft.to/lastmile_qr_scan"}, "is_disabled": 0, "fusion_lat": 0.0, "name": "c0988f9b966d63663515b211a356ba3e", "fusion_lon": 0.0}, {"is_reserved": 0, "type": "electric_scooter", "bike_id": "dcb7bde4385cab2c8913305311a5bdfd", "lat": 38.92853733333333, "lon": -77.03729866666667, "rental_uris": {"android": "https://dc.lft.to/lastmile_qr_scan", "ios": "https://dc.lft.to/lastmile_qr_scan"}, "is_disabled": 0, "fusion_lat": 0.0, "name": "dcb7bde4385cab2c8913305311a5bdfd", "fusion_lon": 0.0}, {"is_reserved": 0, "type": "electric_scooter", "bike_id": "e5c8c169b5afd8b2cd8bf6a64e373e86", "lat": 38.924630666666665, "lon": -77.03957866666667, "rental_uris": {"android": "https://dc.lft.to/lastmile_qr_scan", "ios": "https://dc.lft.to/lastmile_qr_scan"}, "is_disabled": 0, "fusion_lat": 0.0, "name": "e5c8c169b5afd8b2cd8bf6a64e373e86", "fusion_lon": 0.0}, {"is_reserved": 0, "type": "electric_scooter", "bike_id": "48ae5eb7a5b6aeeb1436c2984efe9b5d", "lat": 38.89715133333333, "lon": -77.02676516666666, "rental_uris": {"android": "https://dc.lft.to/lastmile_qr_scan", "ios": "https://dc.lft.to/lastmile_qr_scan"}, "is_disabled": 0, "fusion_lat": 0.0, "name": "48ae5eb7a5b6aeeb1436c2984efe9b5d", "fusion_lon": 0.0}, {"is_reserved": 0, "type": "electric_scooter", "bike_id": "74abff24c36175ecd9046e0189806f3b", "lat": 38.916964666666665, "lon": -77.0289655, "rental_uris": {"android": "https://dc.lft.to/lastmile_qr_scan", "ios": "https://dc.lft.to/lastmile_qr_scan"}, "is_disabled": 0, "fusion_lat": 0.0, "name": "74abff24c36175ecd9046e0189806f3b", "fusion_lon": 0.0}, {"is_reserved": 0, "type": "electric_scooter", "bike_id": "85a3cb73a083e60a19796d3d669bcf21", "lat": 38.93555116666667, "lon": -77.022178, "rental_uris": {"android": "https://dc.lft.to/lastmile_qr_scan", "ios": "https://dc.lft.to/lastmile_qr_scan"}, "is_disabled": 0, "fusion_lat": 0.0, "name": "85a3cb73a083e60a19796d3d669bcf21", "fusion_lon": 0.0}, {"is_reserved": 0, "type": "electric_bike", "bike_id": "5ca61a5756deec43173abe9d32a329e2", "lat": 38.93020416666667, "lon": -77.03308483333333, "rental_uris": {"android": "https://dc.lft.to/lastmile_qr_scan", "ios": "https://dc.lft.to/lastmile_qr_scan"}, "is_disabled": 0, "fusion_lat": 0.0, "name": "5ca61a5756deec43173abe9d32a329e2", "fusion_lon": 0.0}, {"is_reserved": 0, "type": "electric_scooter", "bike_id": "6069b1afbb9c88cca7e3ac564a59d437", "lat": 38.95627133333333, "lon": -77.02781566666667, "rental_uris": {"android": "https://dc.lft.to/lastmile_qr_scan", "ios": "https://dc.lft.to/lastmile_qr_scan"}, "is_disabled": 0, "fusion_lat": 0.0, "name": "6069b1afbb9c88cca7e3ac564a59d437", "fusion_lon": 0.0}, {"is_reserved": 0, "type": "electric_scooter", "bike_id": "25094f03c36854cd564d43be9b3e9d04", "lat": 38.91691566666667, "lon": -77.02952283333333, "rental_uris": {"android": "https://dc.lft.to/lastmile_qr_scan", "ios": "https://dc.lft.to/lastmile_qr_scan"}, "is_disabled": 0, "fusion_lat": 0.0, "name": "25094f03c36854cd564d43be9b3e9d04", "fusion_lon": 0.0}, {"is_reserved": 0, "type": "electric_scooter", "bike_id": "934298a4c763e90e4499f2b299c7f523", "lat": 38.91814266666667, "lon": -77.03296416666667, "rental_uris": {"android": "https://dc.lft.to/lastmile_qr_scan", "ios": "https://dc.lft.to/lastmile_qr_scan"}, "is_disabled": 0, "fusion_lat": 0.0, "name": "934298a4c763e90e4499f2b299c7f523", "fusion_lon": 0.0}, {"is_reserved": 0, "type": "electric_scooter", "bike_id": "2e104e3d7232f6f7bde0265dac23c57d", "lat": 38.89497033333333, "lon": -77.00200066666666, "rental_uris": {"android": "https://dc.lft.to/lastmile_qr_scan", "ios": "https://dc.lft.to/lastmile_qr_scan"}, "is_disabled": 0, "fusion_lat": 0.0, "name": "2e104e3d7232f6f7bde0265dac23c57d", "fusion_lon": 0.0}, {"is_reserved": 0, "type": "electric_scooter", "bike_id": "c8d0f916e057f3f1b4ff74b28e73b55b", "lat": 38.908605333333334, "lon": -77.02354266666667, "rental_uris": {"android": "https://dc.lft.to/lastmile_qr_scan", "ios": "https://dc.lft.to/lastmile_qr_scan"}, "is_disabled": 0, "fusion_lat": 0.0, "name": "c8d0f916e057f3f1b4ff74b28e73b55b", "fusion_lon": 0.0}, {"is_reserved": 0, "type": "electric_scooter", "bike_id": "8b24e2efecde7731408c490c611006a9", "lat": 38.924501666666664, "lon": -77.0438985, "rental_uris": {"android": "https://dc.lft.to/lastmile_qr_scan", "ios": "https://dc.lft.to/lastmile_qr_scan"}, "is_disabled": 0, "fusion_lat": 0.0, "name": "8b24e2efecde7731408c490c611006a9", "fusion_lon": 0.0}, {"is_reserved": 0, "type": "electric_scooter", "bike_id": "cbc0eb306a28cb47dbc611996b36aa1b", "lat": 38.905571, "lon": -77.00573183333333, "rental_uris": {"android": "https://dc.lft.to/lastmile_qr_scan", "ios": "https://dc.lft.to/lastmile_qr_scan"}, "is_disabled": 0, "fusion_lat": 0.0, "name": "cbc0eb306a28cb47dbc611996b36aa1b", "fusion_lon": 0.0}, {"is_reserved": 0, "type": "electric_scooter", "bike_id": "29b148d9e30a6f39a257dd52ecd08671", "lat": 38.90998883333334, "lon": -77.040051, "rental_uris": {"android": "https://dc.lft.to/lastmile_qr_scan", "ios": "https://dc.lft.to/lastmile_qr_scan"}, "is_disabled": 0, "fusion_lat": 0.0, "name": "29b148d9e30a6f39a257dd52ecd08671", "fusion_lon": 0.0}, {"is_reserved": 0, "type": "electric_scooter", "bike_id": "a547cba013702224e80f323a8b4d68cf", "lat": 38.91821133333333, "lon": -77.03020183333334, "rental_uris": {"android": "https://dc.lft.to/lastmile_qr_scan", "ios": "https://dc.lft.to/lastmile_qr_scan"}, "is_disabled": 0, "fusion_lat": 0.0, "name": "a547cba013702224e80f323a8b4d68cf", "fusion_lon": 0.0}, {"is_reserved": 0, "type": "electric_scooter", "bike_id": "1f592f0b93ad87dbc13d2ab241ca50e4", "lat": 38.90542533333333, "lon": -77.062767, "rental_uris": {"android": "https://dc.lft.to/lastmile_qr_scan", "ios": "https://dc.lft.to/lastmile_qr_scan"}, "is_disabled": 0, "fusion_lat": 0.0, "name": "1f592f0b93ad87dbc13d2ab241ca50e4", "fusion_lon": 0.0}, {"is_reserved": 0, "type": "electric_scooter", "bike_id": "5b2b5df674aea978b7cd1ef32447c99f", "lat": 38.905389, "lon": -77.00205733333334, "rental_uris": {"android": "https://dc.lft.to/lastmile_qr_scan", "ios": "https://dc.lft.to/lastmile_qr_scan"}, "is_disabled": 0, "fusion_lat": 0.0, "name": "5b2b5df674aea978b7cd1ef32447c99f", "fusion_lon": 0.0}, {"is_reserved": 0, "type": "electric_scooter", "bike_id": "92dbd7139fa2e3e95130d5fd2a445828", "lat": 38.913792666666666, "lon": -77.00036933333334, "rental_uris": {"android": "https://dc.lft.to/lastmile_qr_scan", "ios": "https://dc.lft.to/lastmile_qr_scan"}, "is_disabled": 0, "fusion_lat": 0.0, "name": "92dbd7139fa2e3e95130d5fd2a445828", "fusion_lon": 0.0}, {"is_reserved": 0, "type": "electric_scooter", "bike_id": "1d2a2ea20084cc33da74b22989b56c1f", "lat": 38.877622, "lon": -76.99422316666667, "rental_uris": {"android": "https://dc.lft.to/lastmile_qr_scan", "ios": "https://dc.lft.to/lastmile_qr_scan"}, "is_disabled": 0, "fusion_lat": 0.0, "name": "1d2a2ea20084cc33da74b22989b56c1f", "fusion_lon": 0.0}, {"is_reserved": 0, "type": "electric_scooter", "bike_id": "9cb904a48b1d82aff87d64f4f9355dd5", "lat": 38.93119733333333, "lon": -77.02084966666666, "rental_uris": {"android": "https://dc.lft.to/lastmile_qr_scan", "ios": "https://dc.lft.to/lastmile_qr_scan"}, "is_disabled": 0, "fusion_lat": 0.0, "name": "9cb904a48b1d82aff87d64f4f9355dd5", "fusion_lon": 0.0}, {"is_reserved": 0, "type": "electric_scooter", "bike_id": "08cd90f5252dbf1dcfb8e376ea3ee35f", "lat": 38.8888545, "lon": -76.99028683333333, "rental_uris": {"android": "https://dc.lft.to/lastmile_qr_scan", "ios": "https://dc.lft.to/lastmile_qr_scan"}, "is_disabled": 0, "fusion_lat": 0.0, "name": "08cd90f5252dbf1dcfb8e376ea3ee35f", "fusion_lon": 0.0}, {"is_reserved": 0, "type": "electric_scooter", "bike_id": "8ad505f1dd5cbc5e77656691f85858d9", "lat": 38.898866, "lon": -76.93176133333333, "rental_uris": {"android": "https://dc.lft.to/lastmile_qr_scan", "ios": "https://dc.lft.to/lastmile_qr_scan"}, "is_disabled": 0, "fusion_lat": 0.0, "name": "8ad505f1dd5cbc5e77656691f85858d9", "fusion_lon": 0.0}, {"is_reserved": 0, "type": "electric_scooter", "bike_id": "b6dcaea92a95d3ae3bdf623e9339c050", "lat": 38.8960585, "lon": -77.04408883333333, "rental_uris": {"android": "https://dc.lft.to/lastmile_qr_scan", "ios": "https://dc.lft.to/lastmile_qr_scan"}, "is_disabled": 0, "fusion_lat": 0.0, "name": "b6dcaea92a95d3ae3bdf623e9339c050", "fusion_lon": 0.0}, {"is_reserved": 0, "type": "electric_scooter", "bike_id": "3acc3e1cc1bf4107f167d7c7745f0a38", "lat": 38.929515, "lon": -77.00400133333333, "rental_uris": {"android": "https://dc.lft.to/lastmile_qr_scan", "ios": "https://dc.lft.to/lastmile_qr_scan"}, "is_disabled": 0, "fusion_lat": 0.0, "name": "3acc3e1cc1bf4107f167d7c7745f0a38", "fusion_lon": 0.0}, {"is_reserved": 0, "type": "electric_scooter", "bike_id": "0cbd2be6bad4aedec26f05d70a6a8e86", "lat": 38.94243983333333, "lon": -77.0357895, "rental_uris": {"android": "https://dc.lft.to/lastmile_qr_scan", "ios": "https://dc.lft.to/lastmile_qr_scan"}, "is_disabled": 0, "fusion_lat": 0.0, "name": "0cbd2be6bad4aedec26f05d70a6a8e86", "fusion_lon": 0.0}, {"is_reserved": 0, "type": "electric_scooter", "bike_id": "523e10a97e1b52d5856883b78f429bf7", "lat": 38.90069366666667, "lon": -76.9273955, "rental_uris": {"android": "https://dc.lft.to/lastmile_qr_scan", "ios": "https://dc.lft.to/lastmile_qr_scan"}, "is_disabled": 0, "fusion_lat": 0.0, "name": "523e10a97e1b52d5856883b78f429bf7", "fusion_lon": 0.0}, {"is_reserved": 0, "type": "electric_scooter", "bike_id": "5d2a0ec34454d53bafe4b73f0695c559", "lat": 38.92491, "lon": -77.04071616666667, "rental_uris": {"android": "https://dc.lft.to/lastmile_qr_scan", "ios": "https://dc.lft.to/lastmile_qr_scan"}, "is_disabled": 0, "fusion_lat": 0.0, "name": "5d2a0ec34454d53bafe4b73f0695c559", "fusion_lon": 0.0}, {"is_reserved": 0, "type": "electric_scooter", "bike_id": "749e37137a31660054c2d1a0dca0b67d", "lat": 38.92955233333333, "lon": -77.0233235, "rental_uris": {"android": "https://dc.lft.to/lastmile_qr_scan", "ios": "https://dc.lft.to/lastmile_qr_scan"}, "is_disabled": 0, "fusion_lat": 0.0, "name": "749e37137a31660054c2d1a0dca0b67d", "fusion_lon": 0.0}, {"is_reserved": 0, "type": "electric_scooter", "bike_id": "278fdae4af34e6d8da06d88594306287", "lat": 38.923932, "lon": -77.04454983333333, "rental_uris": {"android": "https://dc.lft.to/lastmile_qr_scan", "ios": "https://dc.lft.to/lastmile_qr_scan"}, "is_disabled": 0, "fusion_lat": 0.0, "name": "278fdae4af34e6d8da06d88594306287", "fusion_lon": 0.0}, {"is_reserved": 0, "type": "electric_scooter", "bike_id": "36de5ec2f72cbfbf55e36d2dc36149d8", "lat": 38.898152333333336, "lon": -77.030462, "rental_uris": {"android": "https://dc.lft.to/lastmile_qr_scan", "ios": "https://dc.lft.to/lastmile_qr_scan"}, "is_disabled": 0, "fusion_lat": 0.0, "name": "36de5ec2f72cbfbf55e36d2dc36149d8", "fusion_lon": 0.0}, {"is_reserved": 0, "type": "electric_scooter", "bike_id": "ff99fd12497d35063c598de15fe805a5", "lat": 38.895192, "lon": -77.03952833333334, "rental_uris": {"android": "https://dc.lft.to/lastmile_qr_scan", "ios": "https://dc.lft.to/lastmile_qr_scan"}, "is_disabled": 0, "fusion_lat": 0.0, "name": "ff99fd12497d35063c598de15fe805a5", "fusion_lon": 0.0}, {"is_reserved": 0, "type": "electric_scooter", "bike_id": "5f95fe0d4c9044a642a6c11d3c1cbd34", "lat": 38.912250666666665, "lon": -77.0268455, "rental_uris": {"android": "https://dc.lft.to/lastmile_qr_scan", "ios": "https://dc.lft.to/lastmile_qr_scan"}, "is_disabled": 0, "fusion_lat": 0.0, "name": "5f95fe0d4c9044a642a6c11d3c1cbd34", "fusion_lon": 0.0}, {"is_reserved": 0, "type": "electric_bike", "bike_id": "30333b58b12c1f2937511d98c8b9733c", "lat": 38.908461, "lon": -77.0635175, "rental_uris": {"android": "https://dc.lft.to/lastmile_qr_scan", "ios": "https://dc.lft.to/lastmile_qr_scan"}, "is_disabled": 0, "fusion_lat": 0.0, "name": "30333b58b12c1f2937511d98c8b9733c", "fusion_lon": 0.0}, {"is_reserved": 0, "type": "electric_scooter", "bike_id": "de65748269c1284022be76af9fcfd079", "lat": 38.89593816666667, "lon": -76.92981066666667, "rental_uris": {"android": "https://dc.lft.to/lastmile_qr_scan", "ios": "https://dc.lft.to/lastmile_qr_scan"}, "is_disabled": 0, "fusion_lat": 0.0, "name": "de65748269c1284022be76af9fcfd079", "fusion_lon": 0.0}, {"is_reserved": 0, "type": "electric_scooter", "bike_id": "cae42abdbb7f404afccd7dfd5db29599", "lat": 38.900359, "lon": -76.9984225, "rental_uris": {"android": "https://dc.lft.to/lastmile_qr_scan", "ios": "https://dc.lft.to/lastmile_qr_scan"}, "is_disabled": 0, "fusion_lat": 0.0, "name": "cae42abdbb7f404afccd7dfd5db29599", "fusion_lon": 0.0}, {"is_reserved": 0, "type": "electric_scooter", "bike_id": "a43088e9ce49d63831ae42d96dea047c", "lat": 38.892228, "lon": -77.0241615, "rental_uris": {"android": "https://dc.lft.to/lastmile_qr_scan", "ios": "https://dc.lft.to/lastmile_qr_scan"}, "is_disabled": 0, "fusion_lat": 0.0, "name": "a43088e9ce49d63831ae42d96dea047c", "fusion_lon": 0.0}, {"is_reserved": 0, "type": "electric_scooter", "bike_id": "59509b803f320cda07848aa87d2d432b", "lat": 38.89849, "lon": -77.022096, "rental_uris": {"android": "https://dc.lft.to/lastmile_qr_scan", "ios": "https://dc.lft.to/lastmile_qr_scan"}, "is_disabled": 0, "fusion_lat": 0.0, "name": "59509b803f320cda07848aa87d2d432b", "fusion_lon": 0.0}, {"is_reserved": 0, "type": "electric_scooter", "bike_id": "8393d31a16357f8036533a4f4a12c35a", "lat": 38.876582, "lon": -77.00812666666667, "rental_uris": {"android": "https://dc.lft.to/lastmile_qr_scan", "ios": "https://dc.lft.to/lastmile_qr_scan"}, "is_disabled": 0, "fusion_lat": 0.0, "name": "8393d31a16357f8036533a4f4a12c35a", "fusion_lon": 0.0}, {"is_reserved": 0, "type": "electric_scooter", "bike_id": "4b0dda756ff38fae17f1a6e0dc2a0da4", "lat": 38.92771316666666, "lon": -77.0278305, "rental_uris": {"android": "https://dc.lft.to/lastmile_qr_scan", "ios": "https://dc.lft.to/lastmile_qr_scan"}, "is_disabled": 0, "fusion_lat": 0.0, "name": "4b0dda756ff38fae17f1a6e0dc2a0da4", "fusion_lon": 0.0}, {"is_reserved": 0, "type": "electric_scooter", "bike_id": "157d289a27ba58251198734606e7021b", "lat": 38.893634666666664, "lon": -77.019627, "rental_uris": {"android": "https://dc.lft.to/lastmile_qr_scan", "ios": "https://dc.lft.to/lastmile_qr_scan"}, "is_disabled": 0, "fusion_lat": 0.0, "name": "157d289a27ba58251198734606e7021b", "fusion_lon": 0.0}, {"is_reserved": 0, "type": "electric_scooter", "bike_id": "9b86baaeafb9ecd295b75f9f84b6b499", "lat": 38.910179666666664, "lon": -76.99369016666667, "rental_uris": {"android": "https://dc.lft.to/lastmile_qr_scan", "ios": "https://dc.lft.to/lastmile_qr_scan"}, "is_disabled": 0, "fusion_lat": 0.0, "name": "9b86baaeafb9ecd295b75f9f84b6b499", "fusion_lon": 0.0}, {"is_reserved": 0, "type": "electric_scooter", "bike_id": "41e59aa8fad6734a27a1ccaa167c263e", "lat": 38.922062833333335, "lon": -77.02032683333333, "rental_uris": {"android": "https://dc.lft.to/lastmile_qr_scan", "ios": "https://dc.lft.to/lastmile_qr_scan"}, "is_disabled": 0, "fusion_lat": 0.0, "name": "41e59aa8fad6734a27a1ccaa167c263e", "fusion_lon": 0.0}, {"is_reserved": 0, "type": "electric_scooter", "bike_id": "b47bab1f1397855f9d4540f015dae517", "lat": 38.931197166666664, "lon": -77.02317583333334, "rental_uris": {"android": "https://dc.lft.to/lastmile_qr_scan", "ios": "https://dc.lft.to/lastmile_qr_scan"}, "is_disabled": 0, "fusion_lat": 0.0, "name": "b47bab1f1397855f9d4540f015dae517", "fusion_lon": 0.0}, {"is_reserved": 0, "type": "electric_scooter", "bike_id": "4528ea5151607eae04e64b2b10e334c8", "lat": 38.905026166666666, "lon": -77.02948383333333, "rental_uris": {"android": "https://dc.lft.to/lastmile_qr_scan", "ios": "https://dc.lft.to/lastmile_qr_scan"}, "is_disabled": 0, "fusion_lat": 0.0, "name": "4528ea5151607eae04e64b2b10e334c8", "fusion_lon": 0.0}, {"is_reserved": 0, "type": "electric_scooter", "bike_id": "56955e63a1b56a3a30498cb922e71684", "lat": 38.906177666666665, "lon": -77.0086935, "rental_uris": {"android": "https://dc.lft.to/lastmile_qr_scan", "ios": "https://dc.lft.to/lastmile_qr_scan"}, "is_disabled": 0, "fusion_lat": 0.0, "name": "56955e63a1b56a3a30498cb922e71684", "fusion_lon": 0.0}, {"is_reserved": 0, "type": "electric_scooter", "bike_id": "663e0789e012fb0c65ac5e765b585c9e", "lat": 38.90061733333334, "lon": -77.052932, "rental_uris": {"android": "https://dc.lft.to/lastmile_qr_scan", "ios": "https://dc.lft.to/lastmile_qr_scan"}, "is_disabled": 0, "fusion_lat": 0.0, "name": "663e0789e012fb0c65ac5e765b585c9e", "fusion_lon": 0.0}, {"is_reserved": 0, "type": "electric_scooter", "bike_id": "f9d31a5964fb4e6be10bb63559137ae2", "lat": 38.89742116666667, "lon": -77.02197366666667, "rental_uris": {"android": "https://dc.lft.to/lastmile_qr_scan", "ios": "https://dc.lft.to/lastmile_qr_scan"}, "is_disabled": 0, "fusion_lat": 0.0, "name": "f9d31a5964fb4e6be10bb63559137ae2", "fusion_lon": 0.0}, {"is_reserved": 0, "type": "electric_scooter", "bike_id": "4eae7e1649fde507d3e8b02ce23f96dd", "lat": 38.93470083333333, "lon": -77.0415965, "rental_uris": {"android": "https://dc.lft.to/lastmile_qr_scan", "ios": "https://dc.lft.to/lastmile_qr_scan"}, "is_disabled": 0, "fusion_lat": 0.0, "name": "4eae7e1649fde507d3e8b02ce23f96dd", "fusion_lon": 0.0}, {"is_reserved": 0, "type": "electric_scooter", "bike_id": "8161a2312c34db88ffba502992d57a5c", "lat": 38.958245833333336, "lon": -77.076482, "rental_uris": {"android": "https://dc.lft.to/lastmile_qr_scan", "ios": "https://dc.lft.to/lastmile_qr_scan"}, "is_disabled": 0, "fusion_lat": 0.0, "name": "8161a2312c34db88ffba502992d57a5c", "fusion_lon": 0.0}, {"is_reserved": 0, "type": "electric_scooter", "bike_id": "cb14b3546c9cca38a0dbddb100c35ca5", "lat": 38.921717, "lon": -77.03211016666667, "rental_uris": {"android": "https://dc.lft.to/lastmile_qr_scan", "ios": "https://dc.lft.to/lastmile_qr_scan"}, "is_disabled": 0, "fusion_lat": 0.0, "name": "cb14b3546c9cca38a0dbddb100c35ca5", "fusion_lon": 0.0}, {"is_reserved": 0, "type": "electric_scooter", "bike_id": "22ffcb7910bb616048e45a2f71c9c800", "lat": 38.914083833333336, "lon": -77.046773, "rental_uris": {"android": "https://dc.lft.to/lastmile_qr_scan", "ios": "https://dc.lft.to/lastmile_qr_scan"}, "is_disabled": 0, "fusion_lat": 0.0, "name": "22ffcb7910bb616048e45a2f71c9c800", "fusion_lon": 0.0}, {"is_reserved": 0, "type": "electric_scooter", "bike_id": "11d920b722f04e9e6a344d05fe305fa9", "lat": 38.88376133333333, "lon": -76.9951565, "rental_uris": {"android": "https://dc.lft.to/lastmile_qr_scan", "ios": "https://dc.lft.to/lastmile_qr_scan"}, "is_disabled": 0, "fusion_lat": 0.0, "name": "11d920b722f04e9e6a344d05fe305fa9", "fusion_lon": 0.0}, {"is_reserved": 0, "type": "electric_bike", "bike_id": "fdfabe8166923f27ee30fb38f91a09fb", "lat": 38.98909533333333, "lon": -77.0253725, "rental_uris": {"android": "https://dc.lft.to/lastmile_qr_scan", "ios": "https://dc.lft.to/lastmile_qr_scan"}, "is_disabled": 0, "fusion_lat": 0.0, "name": "fdfabe8166923f27ee30fb38f91a09fb", "fusion_lon": 0.0}, {"is_reserved": 0, "type": "electric_scooter", "bike_id": "99555665f2091572bc87251945d3730a", "lat": 38.92901066666667, "lon": -77.0374265, "rental_uris": {"android": "https://dc.lft.to/lastmile_qr_scan", "ios": "https://dc.lft.to/lastmile_qr_scan"}, "is_disabled": 0, "fusion_lat": 0.0, "name": "99555665f2091572bc87251945d3730a", "fusion_lon": 0.0}, {"is_reserved": 0, "type": "electric_scooter", "bike_id": "4ff6b209451d02e58475698bb6b8ebc9", "lat": 38.91804066666667, "lon": -77.03438, "rental_uris": {"android": "https://dc.lft.to/lastmile_qr_scan", "ios": "https://dc.lft.to/lastmile_qr_scan"}, "is_disabled": 0, "fusion_lat": 0.0, "name": "4ff6b209451d02e58475698bb6b8ebc9", "fusion_lon": 0.0}, {"is_reserved": 0, "type": "electric_scooter", "bike_id": "9e782d60d11c0cf431fe9a22a5e88cdc", "lat": 38.9152655, "lon": -77.01985633333334, "rental_uris": {"android": "https://dc.lft.to/lastmile_qr_scan", "ios": "https://dc.lft.to/lastmile_qr_scan"}, "is_disabled": 0, "fusion_lat": 0.0, "name": "9e782d60d11c0cf431fe9a22a5e88cdc", "fusion_lon": 0.0}, {"is_reserved": 0, "type": "electric_bike", "bike_id": "8d9cf4d194e3c5ddde927f9dcc9b73ef", "lat": 38.8984865, "lon": -77.11858816666667, "rental_uris": {"android": "https://dc.lft.to/lastmile_qr_scan", "ios": "https://dc.lft.to/lastmile_qr_scan"}, "is_disabled": 0, "fusion_lat": 0.0, "name": "8d9cf4d194e3c5ddde927f9dcc9b73ef", "fusion_lon": 0.0}, {"is_reserved": 0, "type": "electric_scooter", "bike_id": "1a116b176c95e0fc9fc53a2323153bcf", "lat": 38.927515666666665, "lon": -77.02103783333334, "rental_uris": {"android": "https://dc.lft.to/lastmile_qr_scan", "ios": "https://dc.lft.to/lastmile_qr_scan"}, "is_disabled": 0, "fusion_lat": 0.0, "name": "1a116b176c95e0fc9fc53a2323153bcf", "fusion_lon": 0.0}, {"is_reserved": 0, "type": "electric_scooter", "bike_id": "51d7caa40228e834a593cc406923de09", "lat": 38.923765333333336, "lon": -77.01916816666666, "rental_uris": {"android": "https://dc.lft.to/lastmile_qr_scan", "ios": "https://dc.lft.to/lastmile_qr_scan"}, "is_disabled": 0, "fusion_lat": 0.0, "name": "51d7caa40228e834a593cc406923de09", "fusion_lon": 0.0}, {"is_reserved": 0, "type": "electric_scooter", "bike_id": "12fcd339d153866c51edb2ed495ce3fd", "lat": 38.91771033333333, "lon": -77.04059083333334, "rental_uris": {"android": "https://dc.lft.to/lastmile_qr_scan", "ios": "https://dc.lft.to/lastmile_qr_scan"}, "is_disabled": 0, "fusion_lat": 0.0, "name": "12fcd339d153866c51edb2ed495ce3fd", "fusion_lon": 0.0}, {"is_reserved": 0, "type": "electric_bike", "bike_id": "d3590ef77bdb3a1c7a504b0449b13c56", "lat": 38.802504166666665, "lon": -77.114322, "rental_uris": {"android": "https://dc.lft.to/lastmile_qr_scan", "ios": "https://dc.lft.to/lastmile_qr_scan"}, "is_disabled": 0, "fusion_lat": 0.0, "name": "d3590ef77bdb3a1c7a504b0449b13c56", "fusion_lon": 0.0}, {"is_reserved": 0, "type": "electric_scooter", "bike_id": "8a7dac1de63904bb1a617f442b38122f", "lat": 38.905028, "lon": -77.04844883333334, "rental_uris": {"android": "https://dc.lft.to/lastmile_qr_scan", "ios": "https://dc.lft.to/lastmile_qr_scan"}, "is_disabled": 0, "fusion_lat": 0.0, "name": "8a7dac1de63904bb1a617f442b38122f", "fusion_lon": 0.0}, {"is_reserved": 0, "type": "electric_scooter", "bike_id": "ee222eb98be6ffdb1f05ab19cf2fcf8d", "lat": 38.92504183333333, "lon": -77.03873466666667, "rental_uris": {"android": "https://dc.lft.to/lastmile_qr_scan", "ios": "https://dc.lft.to/lastmile_qr_scan"}, "is_disabled": 0, "fusion_lat": 0.0, "name": "ee222eb98be6ffdb1f05ab19cf2fcf8d", "fusion_lon": 0.0}, {"is_reserved": 0, "type": "electric_scooter", "bike_id": "fe2edc6a0592b518b3896f51a2ba0e39", "lat": 38.915533, "lon": -77.03115616666666, "rental_uris": {"android": "https://dc.lft.to/lastmile_qr_scan", "ios": "https://dc.lft.to/lastmile_qr_scan"}, "is_disabled": 0, "fusion_lat": 0.0, "name": "fe2edc6a0592b518b3896f51a2ba0e39", "fusion_lon": 0.0}, {"is_reserved": 0, "type": "electric_scooter", "bike_id": "ea59572fb2271986af49d3b02f6d342c", "lat": 38.894234833333336, "lon": -77.05598116666667, "rental_uris": {"android": "https://dc.lft.to/lastmile_qr_scan", "ios": "https://dc.lft.to/lastmile_qr_scan"}, "is_disabled": 0, "fusion_lat": 0.0, "name": "ea59572fb2271986af49d3b02f6d342c", "fusion_lon": 0.0}, {"is_reserved": 0, "type": "electric_scooter", "bike_id": "7477a00eee2f7f7facfe9c9acf7325bf", "lat": 38.896118333333334, "lon": -77.04409333333334, "rental_uris": {"android": "https://dc.lft.to/lastmile_qr_scan", "ios": "https://dc.lft.to/lastmile_qr_scan"}, "is_disabled": 0, "fusion_lat": 0.0, "name": "7477a00eee2f7f7facfe9c9acf7325bf", "fusion_lon": 0.0}, {"is_reserved": 0, "type": "electric_scooter", "bike_id": "21e43b7be5a6ebc9067944f44090452e", "lat": 38.8936095, "lon": -77.0298415, "rental_uris": {"android": "https://dc.lft.to/lastmile_qr_scan", "ios": "https://dc.lft.to/lastmile_qr_scan"}, "is_disabled": 0, "fusion_lat": 0.0, "name": "21e43b7be5a6ebc9067944f44090452e", "fusion_lon": 0.0}, {"is_reserved": 0, "type": "electric_scooter", "bike_id": "eb1d71d40a14ae9465d95ca8cde05b59", "lat": 38.91879133333333, "lon": -77.04719666666666, "rental_uris": {"android": "https://dc.lft.to/lastmile_qr_scan", "ios": "https://dc.lft.to/lastmile_qr_scan"}, "is_disabled": 0, "fusion_lat": 0.0, "name": "eb1d71d40a14ae9465d95ca8cde05b59", "fusion_lon": 0.0}, {"is_reserved": 0, "type": "electric_scooter", "bike_id": "224154de644cb328d750d552650c4e1a", "lat": 38.86526583333333, "lon": -76.96903266666666, "rental_uris": {"android": "https://dc.lft.to/lastmile_qr_scan", "ios": "https://dc.lft.to/lastmile_qr_scan"}, "is_disabled": 0, "fusion_lat": 0.0, "name": "224154de644cb328d750d552650c4e1a", "fusion_lon": 0.0}, {"is_reserved": 0, "type": "electric_scooter", "bike_id": "79534b910b3c4bc21a95ea52c2ace05a", "lat": 38.916821666666664, "lon": -77.02969416666667, "rental_uris": {"android": "https://dc.lft.to/lastmile_qr_scan", "ios": "https://dc.lft.to/lastmile_qr_scan"}, "is_disabled": 0, "fusion_lat": 0.0, "name": "79534b910b3c4bc21a95ea52c2ace05a", "fusion_lon": 0.0}, {"is_reserved": 0, "type": "electric_scooter", "bike_id": "15940923570f864900af9312ba65dcf3", "lat": 38.92769833333333, "lon": -77.02783483333333, "rental_uris": {"android": "https://dc.lft.to/lastmile_qr_scan", "ios": "https://dc.lft.to/lastmile_qr_scan"}, "is_disabled": 0, "fusion_lat": 0.0, "name": "15940923570f864900af9312ba65dcf3", "fusion_lon": 0.0}, {"is_reserved": 0, "type": "electric_scooter", "bike_id": "10815637d75f3180258606246225af2a", "lat": 38.89599616666667, "lon": -77.0261565, "rental_uris": {"android": "https://dc.lft.to/lastmile_qr_scan", "ios": "https://dc.lft.to/lastmile_qr_scan"}, "is_disabled": 0, "fusion_lat": 0.0, "name": "10815637d75f3180258606246225af2a", "fusion_lon": 0.0}, {"is_reserved": 0, "type": "electric_scooter", "bike_id": "4ab522bd826c9b2200b2d229072d45c1", "lat": 38.9119205, "lon": -77.007224, "rental_uris": {"android": "https://dc.lft.to/lastmile_qr_scan", "ios": "https://dc.lft.to/lastmile_qr_scan"}, "is_disabled": 0, "fusion_lat": 0.0, "name": "4ab522bd826c9b2200b2d229072d45c1", "fusion_lon": 0.0}, {"is_reserved": 0, "type": "electric_scooter", "bike_id": "62e115ecf0d9e72b4a68b67eb9013c27", "lat": 38.9596025, "lon": -77.07260016666666, "rental_uris": {"android": "https://dc.lft.to/lastmile_qr_scan", "ios": "https://dc.lft.to/lastmile_qr_scan"}, "is_disabled": 0, "fusion_lat": 0.0, "name": "62e115ecf0d9e72b4a68b67eb9013c27", "fusion_lon": 0.0}, {"is_reserved": 0, "type": "electric_scooter", "bike_id": "6489d4a11c366ce280e9dd9ec691a524", "lat": 38.887327, "lon": -77.02200233333333, "rental_uris": {"android": "https://dc.lft.to/lastmile_qr_scan", "ios": "https://dc.lft.to/lastmile_qr_scan"}, "is_disabled": 0, "fusion_lat": 0.0, "name": "6489d4a11c366ce280e9dd9ec691a524", "fusion_lon": 0.0}, {"is_reserved": 0, "type": "electric_scooter", "bike_id": "8bff387850db44a97ae357980e5e1bb3", "lat": 38.9248865, "lon": -77.02706916666666, "rental_uris": {"android": "https://dc.lft.to/lastmile_qr_scan", "ios": "https://dc.lft.to/lastmile_qr_scan"}, "is_disabled": 0, "fusion_lat": 0.0, "name": "8bff387850db44a97ae357980e5e1bb3", "fusion_lon": 0.0}, {"is_reserved": 0, "type": "electric_scooter", "bike_id": "66eb9b327b5de948af91450e94326128", "lat": 38.895444499999996, "lon": -76.98488366666666, "rental_uris": {"android": "https://dc.lft.to/lastmile_qr_scan", "ios": "https://dc.lft.to/lastmile_qr_scan"}, "is_disabled": 0, "fusion_lat": 0.0, "name": "66eb9b327b5de948af91450e94326128", "fusion_lon": 0.0}, {"is_reserved": 0, "type": "electric_scooter", "bike_id": "0cebebad2862be151fc13281fe79dcb7", "lat": 38.900001833333334, "lon": -77.01036616666667, "rental_uris": {"android": "https://dc.lft.to/lastmile_qr_scan", "ios": "https://dc.lft.to/lastmile_qr_scan"}, "is_disabled": 0, "fusion_lat": 0.0, "name": "0cebebad2862be151fc13281fe79dcb7", "fusion_lon": 0.0}, {"is_reserved": 0, "type": "electric_scooter", "bike_id": "7ebefa2229865c37ea56940098c43e8d", "lat": 38.89997733333333, "lon": -76.99875233333333, "rental_uris": {"android": "https://dc.lft.to/lastmile_qr_scan", "ios": "https://dc.lft.to/lastmile_qr_scan"}, "is_disabled": 0, "fusion_lat": 0.0, "name": "7ebefa2229865c37ea56940098c43e8d", "fusion_lon": 0.0}, {"is_reserved": 0, "type": "electric_scooter", "bike_id": "2a61b5056dd72e57419e0550c517366e", "lat": 38.906079, "lon": -77.04672433333333, "rental_uris": {"android": "https://dc.lft.to/lastmile_qr_scan", "ios": "https://dc.lft.to/lastmile_qr_scan"}, "is_disabled": 0, "fusion_lat": 0.0, "name": "2a61b5056dd72e57419e0550c517366e", "fusion_lon": 0.0}, {"is_reserved": 0, "type": "electric_scooter", "bike_id": "053fb7bdefcb64f1177302f010246655", "lat": 38.86573, "lon": -76.99032383333333, "rental_uris": {"android": "https://dc.lft.to/lastmile_qr_scan", "ios": "https://dc.lft.to/lastmile_qr_scan"}, "is_disabled": 0, "fusion_lat": 0.0, "name": "053fb7bdefcb64f1177302f010246655", "fusion_lon": 0.0}, {"is_reserved": 0, "type": "electric_scooter", "bike_id": "fe7a200d739a8eaac7f7fe7823afeee3", "lat": 38.9167395, "lon": -77.02979433333333, "rental_uris": {"android": "https://dc.lft.to/lastmile_qr_scan", "ios": "https://dc.lft.to/lastmile_qr_scan"}, "is_disabled": 0, "fusion_lat": 0.0, "name": "fe7a200d739a8eaac7f7fe7823afeee3", "fusion_lon": 0.0}, {"is_reserved": 0, "type": "electric_scooter", "bike_id": "3cce1c33a2493b78a3b8308c514ee8b3", "lat": 38.912898, "lon": -76.98539666666667, "rental_uris": {"android": "https://dc.lft.to/lastmile_qr_scan", "ios": "https://dc.lft.to/lastmile_qr_scan"}, "is_disabled": 0, "fusion_lat": 0.0, "name": "3cce1c33a2493b78a3b8308c514ee8b3", "fusion_lon": 0.0}, {"is_reserved": 0, "type": "electric_scooter", "bike_id": "181eea4548f70fdb8a0b6b915b4f8114", "lat": 38.9287265, "lon": -77.02707933333333, "rental_uris": {"android": "https://dc.lft.to/lastmile_qr_scan", "ios": "https://dc.lft.to/lastmile_qr_scan"}, "is_disabled": 0, "fusion_lat": 0.0, "name": "181eea4548f70fdb8a0b6b915b4f8114", "fusion_lon": 0.0}, {"is_reserved": 0, "type": "electric_scooter", "bike_id": "1127628121820970d97a85ce77b4e03b", "lat": 38.90979466666667, "lon": -77.03292533333334, "rental_uris": {"android": "https://dc.lft.to/lastmile_qr_scan", "ios": "https://dc.lft.to/lastmile_qr_scan"}, "is_disabled": 0, "fusion_lat": 0.0, "name": "1127628121820970d97a85ce77b4e03b", "fusion_lon": 0.0}, {"is_reserved": 0, "type": "electric_scooter", "bike_id": "8a6560374884500e365ee75d9def91e7", "lat": 38.89703033333333, "lon": -77.02269683333333, "rental_uris": {"android": "https://dc.lft.to/lastmile_qr_scan", "ios": "https://dc.lft.to/lastmile_qr_scan"}, "is_disabled": 0, "fusion_lat": 0.0, "name": "8a6560374884500e365ee75d9def91e7", "fusion_lon": 0.0}, {"is_reserved": 0, "type": "electric_scooter", "bike_id": "28660cca2a7cc71bc45513ec9578526b", "lat": 38.93701816666667, "lon": -77.02117416666667, "rental_uris": {"android": "https://dc.lft.to/lastmile_qr_scan", "ios": "https://dc.lft.to/lastmile_qr_scan"}, "is_disabled": 0, "fusion_lat": 0.0, "name": "28660cca2a7cc71bc45513ec9578526b", "fusion_lon": 0.0}, {"is_reserved": 0, "type": "electric_scooter", "bike_id": "4c289f26fc48995b677fb27e3488a041", "lat": 38.88738333333333, "lon": -77.03168166666667, "rental_uris": {"android": "https://dc.lft.to/lastmile_qr_scan", "ios": "https://dc.lft.to/lastmile_qr_scan"}, "is_disabled": 0, "fusion_lat": 0.0, "name": "4c289f26fc48995b677fb27e3488a041", "fusion_lon": 0.0}, {"is_reserved": 0, "type": "electric_scooter", "bike_id": "0e96fe2967121e012d86f2faf70aa5c4", "lat": 38.91171633333333, "lon": -77.02696083333333, "rental_uris": {"android": "https://dc.lft.to/lastmile_qr_scan", "ios": "https://dc.lft.to/lastmile_qr_scan"}, "is_disabled": 0, "fusion_lat": 0.0, "name": "0e96fe2967121e012d86f2faf70aa5c4", "fusion_lon": 0.0}, {"is_reserved": 0, "type": "electric_scooter", "bike_id": "531d3ce68cf68197bfb961beafad0a5d", "lat": 38.899248, "lon": -76.97833583333333, "rental_uris": {"android": "https://dc.lft.to/lastmile_qr_scan", "ios": "https://dc.lft.to/lastmile_qr_scan"}, "is_disabled": 0, "fusion_lat": 0.0, "name": "531d3ce68cf68197bfb961beafad0a5d", "fusion_lon": 0.0}, {"is_reserved": 0, "type": "electric_scooter", "bike_id": "7349dc80494c322e0c3c41c2590d9485", "lat": 38.92687083333333, "lon": -77.03758033333334, "rental_uris": {"android": "https://dc.lft.to/lastmile_qr_scan", "ios": "https://dc.lft.to/lastmile_qr_scan"}, "is_disabled": 0, "fusion_lat": 0.0, "name": "7349dc80494c322e0c3c41c2590d9485", "fusion_lon": 0.0}, {"is_reserved": 0, "type": "electric_scooter", "bike_id": "777ef2b99164c76f7d53bedfaa745bc4", "lat": 38.918174666666665, "lon": -77.02473483333333, "rental_uris": {"android": "https://dc.lft.to/lastmile_qr_scan", "ios": "https://dc.lft.to/lastmile_qr_scan"}, "is_disabled": 0, "fusion_lat": 0.0, "name": "777ef2b99164c76f7d53bedfaa745bc4", "fusion_lon": 0.0}, {"is_reserved": 0, "type": "electric_scooter", "bike_id": "77145ba5bf5045a5af5d80e0acf49d95", "lat": 38.896768, "lon": -77.05031266666667, "rental_uris": {"android": "https://dc.lft.to/lastmile_qr_scan", "ios": "https://dc.lft.to/lastmile_qr_scan"}, "is_disabled": 0, "fusion_lat": 0.0, "name": "77145ba5bf5045a5af5d80e0acf49d95", "fusion_lon": 0.0}, {"is_reserved": 0, "type": "electric_scooter", "bike_id": "543f3e962bcd4516cff7c1e7d90da23a", "lat": 38.9061525, "lon": -77.02000766666667, "rental_uris": {"android": "https://dc.lft.to/lastmile_qr_scan", "ios": "https://dc.lft.to/lastmile_qr_scan"}, "is_disabled": 0, "fusion_lat": 0.0, "name": "543f3e962bcd4516cff7c1e7d90da23a", "fusion_lon": 0.0}, {"is_reserved": 0, "type": "electric_scooter", "bike_id": "38d8dafda437d6745319ce76151bd3f9", "lat": 38.9007725, "lon": -77.04874066666666, "rental_uris": {"android": "https://dc.lft.to/lastmile_qr_scan", "ios": "https://dc.lft.to/lastmile_qr_scan"}, "is_disabled": 0, "fusion_lat": 0.0, "name": "38d8dafda437d6745319ce76151bd3f9", "fusion_lon": 0.0}, {"is_reserved": 0, "type": "electric_scooter", "bike_id": "e5ee4259062c99e12c65a56d3900479b", "lat": 38.926136166666666, "lon": -77.02161, "rental_uris": {"android": "https://dc.lft.to/lastmile_qr_scan", "ios": "https://dc.lft.to/lastmile_qr_scan"}, "is_disabled": 0, "fusion_lat": 0.0, "name": "e5ee4259062c99e12c65a56d3900479b", "fusion_lon": 0.0}, {"is_reserved": 0, "type": "electric_scooter", "bike_id": "5e5d4fa699b558f509c1d920943d24ea", "lat": 38.92268633333333, "lon": -77.0197555, "rental_uris": {"android": "https://dc.lft.to/lastmile_qr_scan", "ios": "https://dc.lft.to/lastmile_qr_scan"}, "is_disabled": 0, "fusion_lat": 0.0, "name": "5e5d4fa699b558f509c1d920943d24ea", "fusion_lon": 0.0}, {"is_reserved": 0, "type": "electric_bike", "bike_id": "762e63e894e659a67f75b4f410da97af", "lat": 38.84532316666667, "lon": -77.07635316666666, "rental_uris": {"android": "https://dc.lft.to/lastmile_qr_scan", "ios": "https://dc.lft.to/lastmile_qr_scan"}, "is_disabled": 0, "fusion_lat": 0.0, "name": "762e63e894e659a67f75b4f410da97af", "fusion_lon": 0.0}, {"is_reserved": 0, "type": "electric_bike", "bike_id": "3d5d459bab36817fe147eaf281019021", "lat": 38.941547666666665, "lon": -77.00192683333333, "rental_uris": {"android": "https://dc.lft.to/lastmile_qr_scan", "ios": "https://dc.lft.to/lastmile_qr_scan"}, "is_disabled": 0, "fusion_lat": 0.0, "name": "3d5d459bab36817fe147eaf281019021", "fusion_lon": 0.0}, {"is_reserved": 0, "type": "electric_scooter", "bike_id": "6aa85ac3ada1f47179a09da794e8a810", "lat": 38.9269475, "lon": -77.0257835, "rental_uris": {"android": "https://dc.lft.to/lastmile_qr_scan", "ios": "https://dc.lft.to/lastmile_qr_scan"}, "is_disabled": 0, "fusion_lat": 0.0, "name": "6aa85ac3ada1f47179a09da794e8a810", "fusion_lon": 0.0}, {"is_reserved": 0, "type": "electric_scooter", "bike_id": "a9b875b93e378454467cce8e9ca0b00f", "lat": 38.89709116666667, "lon": -77.0048535, "rental_uris": {"android": "https://dc.lft.to/lastmile_qr_scan", "ios": "https://dc.lft.to/lastmile_qr_scan"}, "is_disabled": 0, "fusion_lat": 0.0, "name": "a9b875b93e378454467cce8e9ca0b00f", "fusion_lon": 0.0}, {"is_reserved": 0, "type": "electric_scooter", "bike_id": "982754b4cbba8810fe677d6b1df421c4", "lat": 38.926030833333336, "lon": -77.024889, "rental_uris": {"android": "https://dc.lft.to/lastmile_qr_scan", "ios": "https://dc.lft.to/lastmile_qr_scan"}, "is_disabled": 0, "fusion_lat": 0.0, "name": "982754b4cbba8810fe677d6b1df421c4", "fusion_lon": 0.0}, {"is_reserved": 0, "type": "electric_bike", "bike_id": "5de22008284066ad9d3ade9febdaf7af", "lat": 38.8824775, "lon": -76.96257116666666, "rental_uris": {"android": "https://dc.lft.to/lastmile_qr_scan", "ios": "https://dc.lft.to/lastmile_qr_scan"}, "is_disabled": 0, "fusion_lat": 0.0, "name": "5de22008284066ad9d3ade9febdaf7af", "fusion_lon": 0.0}, {"is_reserved": 0, "type": "electric_scooter", "bike_id": "ed611d2a149d764d7825836a159914ac", "lat": 38.91468733333333, "lon": -77.032185, "rental_uris": {"android": "https://dc.lft.to/lastmile_qr_scan", "ios": "https://dc.lft.to/lastmile_qr_scan"}, "is_disabled": 0, "fusion_lat": 0.0, "name": "ed611d2a149d764d7825836a159914ac", "fusion_lon": 0.0}, {"is_reserved": 0, "type": "electric_scooter", "bike_id": "f3cfc6224655801f42db3616196d5d67", "lat": 38.89675966666667, "lon": -77.00516016666667, "rental_uris": {"android": "https://dc.lft.to/lastmile_qr_scan", "ios": "https://dc.lft.to/lastmile_qr_scan"}, "is_disabled": 0, "fusion_lat": 0.0, "name": "f3cfc6224655801f42db3616196d5d67", "fusion_lon": 0.0}, {"is_reserved": 0, "type": "electric_bike", "bike_id": "58a457365b8241fbe4f742d8b6f1dcbc", "lat": 38.8801725, "lon": -77.1095635, "rental_uris": {"android": "https://dc.lft.to/lastmile_qr_scan", "ios": "https://dc.lft.to/lastmile_qr_scan"}, "is_disabled": 0, "fusion_lat": 0.0, "name": "58a457365b8241fbe4f742d8b6f1dcbc", "fusion_lon": 0.0}, {"is_reserved": 0, "type": "electric_scooter", "bike_id": "652209a35b16dfabb66a48c90478f09b", "lat": 38.918013333333334, "lon": -77.0269835, "rental_uris": {"android": "https://dc.lft.to/lastmile_qr_scan", "ios": "https://dc.lft.to/lastmile_qr_scan"}, "is_disabled": 0, "fusion_lat": 0.0, "name": "652209a35b16dfabb66a48c90478f09b", "fusion_lon": 0.0}, {"is_reserved": 0, "type": "electric_scooter", "bike_id": "cb426dff923103981963cfc1318e8634", "lat": 38.88336783333333, "lon": -76.94288283333333, "rental_uris": {"android": "https://dc.lft.to/lastmile_qr_scan", "ios": "https://dc.lft.to/lastmile_qr_scan"}, "is_disabled": 0, "fusion_lat": 0.0, "name": "cb426dff923103981963cfc1318e8634", "fusion_lon": 0.0}, {"is_reserved": 0, "type": "electric_scooter", "bike_id": "193a6cd9411413870de4f885157a0131", "lat": 38.88730316666667, "lon": -77.02818916666666, "rental_uris": {"android": "https://dc.lft.to/lastmile_qr_scan", "ios": "https://dc.lft.to/lastmile_qr_scan"}, "is_disabled": 0, "fusion_lat": 0.0, "name": "193a6cd9411413870de4f885157a0131", "fusion_lon": 0.0}, {"is_reserved": 0, "type": "electric_scooter", "bike_id": "a3ad20dfbd13296e73739b4fb017b8cb", "lat": 38.8839535, "lon": -77.02591583333333, "rental_uris": {"android": "https://dc.lft.to/lastmile_qr_scan", "ios": "https://dc.lft.to/lastmile_qr_scan"}, "is_disabled": 0, "fusion_lat": 0.0, "name": "a3ad20dfbd13296e73739b4fb017b8cb", "fusion_lon": 0.0}, {"is_reserved": 0, "type": "electric_scooter", "bike_id": "3c83e0b86790c744e1229ee2f2c6101b", "lat": 38.892486, "lon": -76.99486533333334, "rental_uris": {"android": "https://dc.lft.to/lastmile_qr_scan", "ios": "https://dc.lft.to/lastmile_qr_scan"}, "is_disabled": 0, "fusion_lat": 0.0, "name": "3c83e0b86790c744e1229ee2f2c6101b", "fusion_lon": 0.0}, {"is_reserved": 0, "type": "electric_scooter", "bike_id": "d9a45f6a5eaf8accaf6b697f5849034c", "lat": 38.918027333333335, "lon": -77.03437716666667, "rental_uris": {"android": "https://dc.lft.to/lastmile_qr_scan", "ios": "https://dc.lft.to/lastmile_qr_scan"}, "is_disabled": 0, "fusion_lat": 0.0, "name": "d9a45f6a5eaf8accaf6b697f5849034c", "fusion_lon": 0.0}, {"is_reserved": 0, "type": "electric_scooter", "bike_id": "4aaacf8c067bd3c45180a960633b0c92", "lat": 38.88493033333334, "lon": -77.0071555, "rental_uris": {"android": "https://dc.lft.to/lastmile_qr_scan", "ios": "https://dc.lft.to/lastmile_qr_scan"}, "is_disabled": 0, "fusion_lat": 0.0, "name": "4aaacf8c067bd3c45180a960633b0c92", "fusion_lon": 0.0}, {"is_reserved": 0, "type": "electric_scooter", "bike_id": "87f8236ecb479d6c8f96508644302874", "lat": 38.9245225, "lon": -77.034031, "rental_uris": {"android": "https://dc.lft.to/lastmile_qr_scan", "ios": "https://dc.lft.to/lastmile_qr_scan"}, "is_disabled": 0, "fusion_lat": 0.0, "name": "87f8236ecb479d6c8f96508644302874", "fusion_lon": 0.0}, {"is_reserved": 0, "type": "electric_scooter", "bike_id": "41b99e342e60554c07b196f63ba8b41c", "lat": 38.89222916666667, "lon": -77.0279835, "rental_uris": {"android": "https://dc.lft.to/lastmile_qr_scan", "ios": "https://dc.lft.to/lastmile_qr_scan"}, "is_disabled": 0, "fusion_lat": 0.0, "name": "41b99e342e60554c07b196f63ba8b41c", "fusion_lon": 0.0}, {"is_reserved": 0, "type": "electric_scooter", "bike_id": "71655b47967864720bd7fd6475b7e08d", "lat": 38.90958783333333, "lon": -76.98534933333333, "rental_uris": {"android": "https://dc.lft.to/lastmile_qr_scan", "ios": "https://dc.lft.to/lastmile_qr_scan"}, "is_disabled": 0, "fusion_lat": 0.0, "name": "71655b47967864720bd7fd6475b7e08d", "fusion_lon": 0.0}, {"is_reserved": 0, "type": "electric_scooter", "bike_id": "1614903aeff532a8c86a79f6552a5b1c", "lat": 38.91351983333333, "lon": -77.03183183333333, "rental_uris": {"android": "https://dc.lft.to/lastmile_qr_scan", "ios": "https://dc.lft.to/lastmile_qr_scan"}, "is_disabled": 0, "fusion_lat": 0.0, "name": "1614903aeff532a8c86a79f6552a5b1c", "fusion_lon": 0.0}, {"is_reserved": 0, "type": "electric_scooter", "bike_id": "64cc0bce4c088feea0acb16a836c478a", "lat": 38.8922165, "lon": -77.03300283333333, "rental_uris": {"android": "https://dc.lft.to/lastmile_qr_scan", "ios": "https://dc.lft.to/lastmile_qr_scan"}, "is_disabled": 0, "fusion_lat": 0.0, "name": "64cc0bce4c088feea0acb16a836c478a", "fusion_lon": 0.0}, {"is_reserved": 0, "type": "electric_scooter", "bike_id": "ea1e867b6a5bfbc2bb2d6671928df2de", "lat": 38.90687283333333, "lon": -77.06259966666667, "rental_uris": {"android": "https://dc.lft.to/lastmile_qr_scan", "ios": "https://dc.lft.to/lastmile_qr_scan"}, "is_disabled": 0, "fusion_lat": 0.0, "name": "ea1e867b6a5bfbc2bb2d6671928df2de", "fusion_lon": 0.0}, {"is_reserved": 0, "type": "electric_scooter", "bike_id": "6f3716b2e38aa2efd21c3a96166f1831", "lat": 38.90285016666667, "lon": -77.0226925, "rental_uris": {"android": "https://dc.lft.to/lastmile_qr_scan", "ios": "https://dc.lft.to/lastmile_qr_scan"}, "is_disabled": 0, "fusion_lat": 0.0, "name": "6f3716b2e38aa2efd21c3a96166f1831", "fusion_lon": 0.0}, {"is_reserved": 0, "type": "electric_scooter", "bike_id": "124f1e61181af4ba143647303ef75993", "lat": 38.88614333333334, "lon": -76.99651983333334, "rental_uris": {"android": "https://dc.lft.to/lastmile_qr_scan", "ios": "https://dc.lft.to/lastmile_qr_scan"}, "is_disabled": 0, "fusion_lat": 0.0, "name": "124f1e61181af4ba143647303ef75993", "fusion_lon": 0.0}, {"is_reserved": 0, "type": "electric_bike", "bike_id": "03898facd3dd8e0aab4c97f53c854ab7", "lat": 39.03812033333333, "lon": -77.04224883333333, "rental_uris": {"android": "https://dc.lft.to/lastmile_qr_scan", "ios": "https://dc.lft.to/lastmile_qr_scan"}, "is_disabled": 0, "fusion_lat": 0.0, "name": "03898facd3dd8e0aab4c97f53c854ab7", "fusion_lon": 0.0}, {"is_reserved": 0, "type": "electric_scooter", "bike_id": "52b8b5426a2f6a980c888beba8c227bc", "lat": 38.88989883333333, "lon": -77.00300616666667, "rental_uris": {"android": "https://dc.lft.to/lastmile_qr_scan", "ios": "https://dc.lft.to/lastmile_qr_scan"}, "is_disabled": 0, "fusion_lat": 0.0, "name": "52b8b5426a2f6a980c888beba8c227bc", "fusion_lon": 0.0}, {"is_reserved": 0, "type": "electric_scooter", "bike_id": "4f637f1ae2bdd1ac2ab69f55e3ad35b9", "lat": 38.8934845, "lon": -77.04869533333333, "rental_uris": {"android": "https://dc.lft.to/lastmile_qr_scan", "ios": "https://dc.lft.to/lastmile_qr_scan"}, "is_disabled": 0, "fusion_lat": 0.0, "name": "4f637f1ae2bdd1ac2ab69f55e3ad35b9", "fusion_lon": 0.0}, {"is_reserved": 0, "type": "electric_scooter", "bike_id": "ec4f8f31c17bba0f9df84a5d8e955d76", "lat": 38.92676016666667, "lon": -77.02592083333333, "rental_uris": {"android": "https://dc.lft.to/lastmile_qr_scan", "ios": "https://dc.lft.to/lastmile_qr_scan"}, "is_disabled": 0, "fusion_lat": 0.0, "name": "ec4f8f31c17bba0f9df84a5d8e955d76", "fusion_lon": 0.0}, {"is_reserved": 0, "type": "electric_scooter", "bike_id": "f29db86e4dd3735a2128ae4ffa77d96d", "lat": 38.894251833333335, "lon": -77.05598766666667, "rental_uris": {"android": "https://dc.lft.to/lastmile_qr_scan", "ios": "https://dc.lft.to/lastmile_qr_scan"}, "is_disabled": 0, "fusion_lat": 0.0, "name": "f29db86e4dd3735a2128ae4ffa77d96d", "fusion_lon": 0.0}, {"is_reserved": 0, "type": "electric_bike", "bike_id": "54739c1e61128b6caa334b021e37edbe", "lat": 38.896164, "lon": -76.9073065, "rental_uris": {"android": "https://dc.lft.to/lastmile_qr_scan", "ios": "https://dc.lft.to/lastmile_qr_scan"}, "is_disabled": 0, "fusion_lat": 0.0, "name": "54739c1e61128b6caa334b021e37edbe", "fusion_lon": 0.0}, {"is_reserved": 0, "type": "electric_scooter", "bike_id": "7128bdc63a012db357f265df7bbf1b8a", "lat": 38.893550166666664, "lon": -77.017299, "rental_uris": {"android": "https://dc.lft.to/lastmile_qr_scan", "ios": "https://dc.lft.to/lastmile_qr_scan"}, "is_disabled": 0, "fusion_lat": 0.0, "name": "7128bdc63a012db357f265df7bbf1b8a", "fusion_lon": 0.0}, {"is_reserved": 0, "type": "electric_scooter", "bike_id": "9033f50eaf125641d57655f36d5f9ce5", "lat": 38.92050416666667, "lon": -77.025712, "rental_uris": {"android": "https://dc.lft.to/lastmile_qr_scan", "ios": "https://dc.lft.to/lastmile_qr_scan"}, "is_disabled": 0, "fusion_lat": 0.0, "name": "9033f50eaf125641d57655f36d5f9ce5", "fusion_lon": 0.0}, {"is_reserved": 0, "type": "electric_scooter", "bike_id": "b0101fbb2649c8a7bd1f96c08ce01cf7", "lat": 38.90876016666667, "lon": -77.00242816666666, "rental_uris": {"android": "https://dc.lft.to/lastmile_qr_scan", "ios": "https://dc.lft.to/lastmile_qr_scan"}, "is_disabled": 0, "fusion_lat": 0.0, "name": "b0101fbb2649c8a7bd1f96c08ce01cf7", "fusion_lon": 0.0}, {"is_reserved": 0, "type": "electric_scooter", "bike_id": "a89f8105ff0cf6d1868af4e31fe58752", "lat": 38.923464, "lon": -77.03510383333334, "rental_uris": {"android": "https://dc.lft.to/lastmile_qr_scan", "ios": "https://dc.lft.to/lastmile_qr_scan"}, "is_disabled": 0, "fusion_lat": 0.0, "name": "a89f8105ff0cf6d1868af4e31fe58752", "fusion_lon": 0.0}, {"is_reserved": 0, "type": "electric_scooter", "bike_id": "20d493cd2890275e45a7231b2e189fca", "lat": 38.89481, "lon": -76.99574516666667, "rental_uris": {"android": "https://dc.lft.to/lastmile_qr_scan", "ios": "https://dc.lft.to/lastmile_qr_scan"}, "is_disabled": 0, "fusion_lat": 0.0, "name": "20d493cd2890275e45a7231b2e189fca", "fusion_lon": 0.0}, {"is_reserved": 0, "type": "electric_scooter", "bike_id": "99748b91f73d32d12ff31789282df05b", "lat": 38.918445166666665, "lon": -77.03637733333333, "rental_uris": {"android": "https://dc.lft.to/lastmile_qr_scan", "ios": "https://dc.lft.to/lastmile_qr_scan"}, "is_disabled": 0, "fusion_lat": 0.0, "name": "99748b91f73d32d12ff31789282df05b", "fusion_lon": 0.0}, {"is_reserved": 0, "type": "electric_scooter", "bike_id": "bde7e5dde1d3f76c0a31e4965c7e0b6d", "lat": 38.864912, "lon": -76.977429, "rental_uris": {"android": "https://dc.lft.to/lastmile_qr_scan", "ios": "https://dc.lft.to/lastmile_qr_scan"}, "is_disabled": 0, "fusion_lat": 0.0, "name": "bde7e5dde1d3f76c0a31e4965c7e0b6d", "fusion_lon": 0.0}, {"is_reserved": 0, "type": "electric_scooter", "bike_id": "28e098776c58d292ddfdbecd33040d9a", "lat": 38.921957166666665, "lon": -77.02403166666667, "rental_uris": {"android": "https://dc.lft.to/lastmile_qr_scan", "ios": "https://dc.lft.to/lastmile_qr_scan"}, "is_disabled": 0, "fusion_lat": 0.0, "name": "28e098776c58d292ddfdbecd33040d9a", "fusion_lon": 0.0}, {"is_reserved": 0, "type": "electric_bike", "bike_id": "dbd1195d9d1fbab2ceaaf1547aed2ac8", "lat": 38.998871666666666, "lon": -76.90858633333333, "rental_uris": {"android": "https://dc.lft.to/lastmile_qr_scan", "ios": "https://dc.lft.to/lastmile_qr_scan"}, "is_disabled": 0, "fusion_lat": 0.0, "name": "dbd1195d9d1fbab2ceaaf1547aed2ac8", "fusion_lon": 0.0}, {"is_reserved": 0, "type": "electric_scooter", "bike_id": "0bfcea4661b4bcf4468e2a20f4392d18", "lat": 38.897170833333334, "lon": -77.02774633333334, "rental_uris": {"android": "https://dc.lft.to/lastmile_qr_scan", "ios": "https://dc.lft.to/lastmile_qr_scan"}, "is_disabled": 0, "fusion_lat": 0.0, "name": "0bfcea4661b4bcf4468e2a20f4392d18", "fusion_lon": 0.0}, {"is_reserved": 0, "type": "electric_bike", "bike_id": "85de92f2ec45f012d2ef6b36cb2daec1", "lat": 38.87039383333333, "lon": -77.229006, "rental_uris": {"android": "https://dc.lft.to/lastmile_qr_scan", "ios": "https://dc.lft.to/lastmile_qr_scan"}, "is_disabled": 0, "fusion_lat": 0.0, "name": "85de92f2ec45f012d2ef6b36cb2daec1", "fusion_lon": 0.0}, {"is_reserved": 0, "type": "electric_scooter", "bike_id": "def4b22edbcf8131e178977d146ea4de", "lat": 38.878832333333335, "lon": -77.0058275, "rental_uris": {"android": "https://dc.lft.to/lastmile_qr_scan", "ios": "https://dc.lft.to/lastmile_qr_scan"}, "is_disabled": 0, "fusion_lat": 0.0, "name": "def4b22edbcf8131e178977d146ea4de", "fusion_lon": 0.0}, {"is_reserved": 0, "type": "electric_scooter", "bike_id": "62e6e30f34015eef8d5ea19b7c92f95c", "lat": 38.921701166666665, "lon": -77.03209816666667, "rental_uris": {"android": "https://dc.lft.to/lastmile_qr_scan", "ios": "https://dc.lft.to/lastmile_qr_scan"}, "is_disabled": 0, "fusion_lat": 0.0, "name": "62e6e30f34015eef8d5ea19b7c92f95c", "fusion_lon": 0.0}, {"is_reserved": 0, "type": "electric_scooter", "bike_id": "f1366eea8b86b47244b63d128ffaa1aa", "lat": 38.91363233333333, "lon": -77.01990983333333, "rental_uris": {"android": "https://dc.lft.to/lastmile_qr_scan", "ios": "https://dc.lft.to/lastmile_qr_scan"}, "is_disabled": 0, "fusion_lat": 0.0, "name": "f1366eea8b86b47244b63d128ffaa1aa", "fusion_lon": 0.0}, {"is_reserved": 0, "type": "electric_scooter", "bike_id": "2c17f0cd680f6d0ba6c03f8bd0e8fee6", "lat": 38.92345233333333, "lon": -77.04882266666667, "rental_uris": {"android": "https://dc.lft.to/lastmile_qr_scan", "ios": "https://dc.lft.to/lastmile_qr_scan"}, "is_disabled": 0, "fusion_lat": 0.0, "name": "2c17f0cd680f6d0ba6c03f8bd0e8fee6", "fusion_lon": 0.0}, {"is_reserved": 0, "type": "electric_bike", "bike_id": "9c06f7cc99ff09bfffa5f8c648227a36", "lat": 38.85421, "lon": -77.08363116666666, "rental_uris": {"android": "https://dc.lft.to/lastmile_qr_scan", "ios": "https://dc.lft.to/lastmile_qr_scan"}, "is_disabled": 0, "fusion_lat": 0.0, "name": "9c06f7cc99ff09bfffa5f8c648227a36", "fusion_lon": 0.0}, {"is_reserved": 0, "type": "electric_scooter", "bike_id": "ff9e2c6916ac218f0678ba7aa85095a4", "lat": 38.924171333333334, "lon": -77.019454, "rental_uris": {"android": "https://dc.lft.to/lastmile_qr_scan", "ios": "https://dc.lft.to/lastmile_qr_scan"}, "is_disabled": 0, "fusion_lat": 0.0, "name": "ff9e2c6916ac218f0678ba7aa85095a4", "fusion_lon": 0.0}, {"is_reserved": 0, "type": "electric_scooter", "bike_id": "749916a60c5cae4047ce497ddc99d4cd", "lat": 38.9245255, "lon": -77.02032966666667, "rental_uris": {"android": "https://dc.lft.to/lastmile_qr_scan", "ios": "https://dc.lft.to/lastmile_qr_scan"}, "is_disabled": 0, "fusion_lat": 0.0, "name": "749916a60c5cae4047ce497ddc99d4cd", "fusion_lon": 0.0}, {"is_reserved": 0, "type": "electric_scooter", "bike_id": "251a273b58af64dba5ba9871d890720b", "lat": 38.89388433333333, "lon": -76.92300816666666, "rental_uris": {"android": "https://dc.lft.to/lastmile_qr_scan", "ios": "https://dc.lft.to/lastmile_qr_scan"}, "is_disabled": 0, "fusion_lat": 0.0, "name": "251a273b58af64dba5ba9871d890720b", "fusion_lon": 0.0}, {"is_reserved": 0, "type": "electric_scooter", "bike_id": "4cb563bebfbf132559c8edfef9bf5268", "lat": 38.8942335, "lon": -76.9982175, "rental_uris": {"android": "https://dc.lft.to/lastmile_qr_scan", "ios": "https://dc.lft.to/lastmile_qr_scan"}, "is_disabled": 0, "fusion_lat": 0.0, "name": "4cb563bebfbf132559c8edfef9bf5268", "fusion_lon": 0.0}, {"is_reserved": 0, "type": "electric_scooter", "bike_id": "9ab57ab9b2c65fb32607b25cf29788fc", "lat": 38.921217666666664, "lon": -77.0442325, "rental_uris": {"android": "https://dc.lft.to/lastmile_qr_scan", "ios": "https://dc.lft.to/lastmile_qr_scan"}, "is_disabled": 0, "fusion_lat": 0.0, "name": "9ab57ab9b2c65fb32607b25cf29788fc", "fusion_lon": 0.0}, {"is_reserved": 0, "type": "electric_scooter", "bike_id": "47fa98f654c96739d57777dee22c6c48", "lat": 38.9422775, "lon": -77.029651, "rental_uris": {"android": "https://dc.lft.to/lastmile_qr_scan", "ios": "https://dc.lft.to/lastmile_qr_scan"}, "is_disabled": 0, "fusion_lat": 0.0, "name": "47fa98f654c96739d57777dee22c6c48", "fusion_lon": 0.0}, {"is_reserved": 0, "type": "electric_bike", "bike_id": "50ae8237754d8fe1e204c8af1337c01a", "lat": 38.92625666666667, "lon": -77.00584583333334, "rental_uris": {"android": "https://dc.lft.to/lastmile_qr_scan", "ios": "https://dc.lft.to/lastmile_qr_scan"}, "is_disabled": 0, "fusion_lat": 0.0, "name": "50ae8237754d8fe1e204c8af1337c01a", "fusion_lon": 0.0}, {"is_reserved": 0, "type": "electric_scooter", "bike_id": "1513040f84390a31fde16b6df6c834e7", "lat": 38.892225333333336, "lon": -77.02414783333333, "rental_uris": {"android": "https://dc.lft.to/lastmile_qr_scan", "ios": "https://dc.lft.to/lastmile_qr_scan"}, "is_disabled": 0, "fusion_lat": 0.0, "name": "1513040f84390a31fde16b6df6c834e7", "fusion_lon": 0.0}, {"is_reserved": 0, "type": "electric_scooter", "bike_id": "da8c628113ba0218825bb9c958e80471", "lat": 38.91600733333333, "lon": -77.02386983333334, "rental_uris": {"android": "https://dc.lft.to/lastmile_qr_scan", "ios": "https://dc.lft.to/lastmile_qr_scan"}, "is_disabled": 0, "fusion_lat": 0.0, "name": "da8c628113ba0218825bb9c958e80471", "fusion_lon": 0.0}, {"is_reserved": 0, "type": "electric_scooter", "bike_id": "a0b7e9e9ba054d843270b669d292e532", "lat": 38.9184435, "lon": -77.038997, "rental_uris": {"android": "https://dc.lft.to/lastmile_qr_scan", "ios": "https://dc.lft.to/lastmile_qr_scan"}, "is_disabled": 0, "fusion_lat": 0.0, "name": "a0b7e9e9ba054d843270b669d292e532", "fusion_lon": 0.0}, {"is_reserved": 0, "type": "electric_scooter", "bike_id": "bed399e58734518688d103050368eb33", "lat": 38.93646483333333, "lon": -77.024351, "rental_uris": {"android": "https://dc.lft.to/lastmile_qr_scan", "ios": "https://dc.lft.to/lastmile_qr_scan"}, "is_disabled": 0, "fusion_lat": 0.0, "name": "bed399e58734518688d103050368eb33", "fusion_lon": 0.0}, {"is_reserved": 0, "type": "electric_scooter", "bike_id": "6e47d6f05c5350ef0cb91813fa885b30", "lat": 38.90520516666667, "lon": -77.06528716666666, "rental_uris": {"android": "https://dc.lft.to/lastmile_qr_scan", "ios": "https://dc.lft.to/lastmile_qr_scan"}, "is_disabled": 0, "fusion_lat": 0.0, "name": "6e47d6f05c5350ef0cb91813fa885b30", "fusion_lon": 0.0}, {"is_reserved": 0, "type": "electric_scooter", "bike_id": "931f1c28e9916aace44bdab939640dc5", "lat": 38.92257083333333, "lon": -77.0352075, "rental_uris": {"android": "https://dc.lft.to/lastmile_qr_scan", "ios": "https://dc.lft.to/lastmile_qr_scan"}, "is_disabled": 0, "fusion_lat": 0.0, "name": "931f1c28e9916aace44bdab939640dc5", "fusion_lon": 0.0}, {"is_reserved": 0, "type": "electric_scooter", "bike_id": "cedf365faca4a970b0ff4222d22b086b", "lat": 38.89760483333333, "lon": -77.02673716666666, "rental_uris": {"android": "https://dc.lft.to/lastmile_qr_scan", "ios": "https://dc.lft.to/lastmile_qr_scan"}, "is_disabled": 0, "fusion_lat": 0.0, "name": "cedf365faca4a970b0ff4222d22b086b", "fusion_lon": 0.0}, {"is_reserved": 0, "type": "electric_scooter", "bike_id": "2c7a98303d353535ab9c235b532a2e71", "lat": 38.88509116666667, "lon": -77.01110233333333, "rental_uris": {"android": "https://dc.lft.to/lastmile_qr_scan", "ios": "https://dc.lft.to/lastmile_qr_scan"}, "is_disabled": 0, "fusion_lat": 0.0, "name": "2c7a98303d353535ab9c235b532a2e71", "fusion_lon": 0.0}, {"is_reserved": 0, "type": "electric_scooter", "bike_id": "f85bc5f0871c3931e12caaf8f7105a44", "lat": 38.9469155, "lon": -77.022425, "rental_uris": {"android": "https://dc.lft.to/lastmile_qr_scan", "ios": "https://dc.lft.to/lastmile_qr_scan"}, "is_disabled": 0, "fusion_lat": 0.0, "name": "f85bc5f0871c3931e12caaf8f7105a44", "fusion_lon": 0.0}, {"is_reserved": 0, "type": "electric_scooter", "bike_id": "e38358b8d2cf094841d9f164dc851b5f", "lat": 38.9156425, "lon": -77.02968133333333, "rental_uris": {"android": "https://dc.lft.to/lastmile_qr_scan", "ios": "https://dc.lft.to/lastmile_qr_scan"}, "is_disabled": 0, "fusion_lat": 0.0, "name": "e38358b8d2cf094841d9f164dc851b5f", "fusion_lon": 0.0}, {"is_reserved": 0, "type": "electric_scooter", "bike_id": "59de93bf94e7340848f5c5695e3c4f2c", "lat": 38.9127015, "lon": -77.0124735, "rental_uris": {"android": "https://dc.lft.to/lastmile_qr_scan", "ios": "https://dc.lft.to/lastmile_qr_scan"}, "is_disabled": 0, "fusion_lat": 0.0, "name": "59de93bf94e7340848f5c5695e3c4f2c", "fusion_lon": 0.0}, {"is_reserved": 0, "type": "electric_scooter", "bike_id": "a71441e1d3b3864f5127c2b8dfc00bba", "lat": 38.903858166666666, "lon": -77.04178983333334, "rental_uris": {"android": "https://dc.lft.to/lastmile_qr_scan", "ios": "https://dc.lft.to/lastmile_qr_scan"}, "is_disabled": 0, "fusion_lat": 0.0, "name": "a71441e1d3b3864f5127c2b8dfc00bba", "fusion_lon": 0.0}, {"is_reserved": 0, "type": "electric_scooter", "bike_id": "8648666eade23404cd1d5c28ec496cf3", "lat": 38.91778766666667, "lon": -77.04095633333333, "rental_uris": {"android": "https://dc.lft.to/lastmile_qr_scan", "ios": "https://dc.lft.to/lastmile_qr_scan"}, "is_disabled": 0, "fusion_lat": 0.0, "name": "8648666eade23404cd1d5c28ec496cf3", "fusion_lon": 0.0}, {"is_reserved": 0, "type": "electric_scooter", "bike_id": "fa3738560805b395850de7fd3df44450", "lat": 38.91050416666667, "lon": -77.041012, "rental_uris": {"android": "https://dc.lft.to/lastmile_qr_scan", "ios": "https://dc.lft.to/lastmile_qr_scan"}, "is_disabled": 0, "fusion_lat": 0.0, "name": "fa3738560805b395850de7fd3df44450", "fusion_lon": 0.0}, {"is_reserved": 0, "type": "electric_scooter", "bike_id": "a0e95bc15b83235260397c6663896878", "lat": 38.920732666666666, "lon": -77.02312516666667, "rental_uris": {"android": "https://dc.lft.to/lastmile_qr_scan", "ios": "https://dc.lft.to/lastmile_qr_scan"}, "is_disabled": 0, "fusion_lat": 0.0, "name": "a0e95bc15b83235260397c6663896878", "fusion_lon": 0.0}, {"is_reserved": 0, "type": "electric_scooter", "bike_id": "5ceffcd88df6f58295ada6a44060b7ac", "lat": 38.92105016666667, "lon": -77.03167383333333, "rental_uris": {"android": "https://dc.lft.to/lastmile_qr_scan", "ios": "https://dc.lft.to/lastmile_qr_scan"}, "is_disabled": 0, "fusion_lat": 0.0, "name": "5ceffcd88df6f58295ada6a44060b7ac", "fusion_lon": 0.0}, {"is_reserved": 0, "type": "electric_scooter", "bike_id": "a5c8fbc695e1a260e48d8853aa45efe7", "lat": 38.906863333333334, "lon": -77.0153645, "rental_uris": {"android": "https://dc.lft.to/lastmile_qr_scan", "ios": "https://dc.lft.to/lastmile_qr_scan"}, "is_disabled": 0, "fusion_lat": 0.0, "name": "a5c8fbc695e1a260e48d8853aa45efe7", "fusion_lon": 0.0}, {"is_reserved": 0, "type": "electric_scooter", "bike_id": "fa55833cb077e5cccdaca1c336841fa4", "lat": 38.92606516666667, "lon": -77.0216235, "rental_uris": {"android": "https://dc.lft.to/lastmile_qr_scan", "ios": "https://dc.lft.to/lastmile_qr_scan"}, "is_disabled": 0, "fusion_lat": 0.0, "name": "fa55833cb077e5cccdaca1c336841fa4", "fusion_lon": 0.0}, {"is_reserved": 0, "type": "electric_scooter", "bike_id": "b4a628595741af1e34b24078f4bca941", "lat": 38.9041085, "lon": -76.97327, "rental_uris": {"android": "https://dc.lft.to/lastmile_qr_scan", "ios": "https://dc.lft.to/lastmile_qr_scan"}, "is_disabled": 0, "fusion_lat": 0.0, "name": "b4a628595741af1e34b24078f4bca941", "fusion_lon": 0.0}, {"is_reserved": 0, "type": "electric_scooter", "bike_id": "4315beae03f8ce94ffe1107aaafee784", "lat": 38.864344, "lon": -76.99859766666667, "rental_uris": {"android": "https://dc.lft.to/lastmile_qr_scan", "ios": "https://dc.lft.to/lastmile_qr_scan"}, "is_disabled": 0, "fusion_lat": 0.0, "name": "4315beae03f8ce94ffe1107aaafee784", "fusion_lon": 0.0}, {"is_reserved": 0, "type": "electric_scooter", "bike_id": "c745e434b440e95956536f3440473bde", "lat": 38.93460616666667, "lon": -77.02237883333333, "rental_uris": {"android": "https://dc.lft.to/lastmile_qr_scan", "ios": "https://dc.lft.to/lastmile_qr_scan"}, "is_disabled": 0, "fusion_lat": 0.0, "name": "c745e434b440e95956536f3440473bde", "fusion_lon": 0.0}, {"is_reserved": 0, "type": "electric_scooter", "bike_id": "c12d34cad8557cd9e751b25490433fe7", "lat": 38.91258916666666, "lon": -77.00149216666667, "rental_uris": {"android": "https://dc.lft.to/lastmile_qr_scan", "ios": "https://dc.lft.to/lastmile_qr_scan"}, "is_disabled": 0, "fusion_lat": 0.0, "name": "c12d34cad8557cd9e751b25490433fe7", "fusion_lon": 0.0}, {"is_reserved": 0, "type": "electric_scooter", "bike_id": "02e54c349abac3e19660074d3b9c83e9", "lat": 38.900616, "lon": -76.98681416666666, "rental_uris": {"android": "https://dc.lft.to/lastmile_qr_scan", "ios": "https://dc.lft.to/lastmile_qr_scan"}, "is_disabled": 0, "fusion_lat": 0.0, "name": "02e54c349abac3e19660074d3b9c83e9", "fusion_lon": 0.0}, {"is_reserved": 0, "type": "electric_bike", "bike_id": "84eaacf12556155a591731574bd2702c", "lat": 38.895674166666666, "lon": -77.12733616666667, "rental_uris": {"android": "https://dc.lft.to/lastmile_qr_scan", "ios": "https://dc.lft.to/lastmile_qr_scan"}, "is_disabled": 0, "fusion_lat": 0.0, "name": "84eaacf12556155a591731574bd2702c", "fusion_lon": 0.0}, {"is_reserved": 0, "type": "electric_scooter", "bike_id": "d058392b62ad450d3ecf8a8475072db7", "lat": 38.90353733333333, "lon": -77.01094866666666, "rental_uris": {"android": "https://dc.lft.to/lastmile_qr_scan", "ios": "https://dc.lft.to/lastmile_qr_scan"}, "is_disabled": 0, "fusion_lat": 0.0, "name": "d058392b62ad450d3ecf8a8475072db7", "fusion_lon": 0.0}, {"is_reserved": 0, "type": "electric_scooter", "bike_id": "1b486a3b04db4faa735373990b9215b6", "lat": 38.94032116666666, "lon": -77.0264195, "rental_uris": {"android": "https://dc.lft.to/lastmile_qr_scan", "ios": "https://dc.lft.to/lastmile_qr_scan"}, "is_disabled": 0, "fusion_lat": 0.0, "name": "1b486a3b04db4faa735373990b9215b6", "fusion_lon": 0.0}, {"is_reserved": 0, "type": "electric_scooter", "bike_id": "330cc1f7d9dbd57afa37068a28d871d2", "lat": 38.93755816666667, "lon": -77.031479, "rental_uris": {"android": "https://dc.lft.to/lastmile_qr_scan", "ios": "https://dc.lft.to/lastmile_qr_scan"}, "is_disabled": 0, "fusion_lat": 0.0, "name": "330cc1f7d9dbd57afa37068a28d871d2", "fusion_lon": 0.0}, {"is_reserved": 0, "type": "electric_scooter", "bike_id": "ed7b3880a4f4c7cba66788520e5c07c3", "lat": 38.93005933333333, "lon": -77.0230705, "rental_uris": {"android": "https://dc.lft.to/lastmile_qr_scan", "ios": "https://dc.lft.to/lastmile_qr_scan"}, "is_disabled": 0, "fusion_lat": 0.0, "name": "ed7b3880a4f4c7cba66788520e5c07c3", "fusion_lon": 0.0}, {"is_reserved": 0, "type": "electric_scooter", "bike_id": "2684d0274f1e65b85d5545bd8fa4af0a", "lat": 38.915332166666666, "lon": -77.01992483333333, "rental_uris": {"android": "https://dc.lft.to/lastmile_qr_scan", "ios": "https://dc.lft.to/lastmile_qr_scan"}, "is_disabled": 0, "fusion_lat": 0.0, "name": "2684d0274f1e65b85d5545bd8fa4af0a", "fusion_lon": 0.0}, {"is_reserved": 0, "type": "electric_scooter", "bike_id": "479574c1a2a592ed0358565601e0db02", "lat": 38.91734683333333, "lon": -77.0416845, "rental_uris": {"android": "https://dc.lft.to/lastmile_qr_scan", "ios": "https://dc.lft.to/lastmile_qr_scan"}, "is_disabled": 0, "fusion_lat": 0.0, "name": "479574c1a2a592ed0358565601e0db02", "fusion_lon": 0.0}, {"is_reserved": 0, "type": "electric_scooter", "bike_id": "f2b634e005a07aeee0f2457fe53029ae", "lat": 38.9001595, "lon": -76.9990535, "rental_uris": {"android": "https://dc.lft.to/lastmile_qr_scan", "ios": "https://dc.lft.to/lastmile_qr_scan"}, "is_disabled": 0, "fusion_lat": 0.0, "name": "f2b634e005a07aeee0f2457fe53029ae", "fusion_lon": 0.0}, {"is_reserved": 0, "type": "electric_scooter", "bike_id": "583593cc4c5443134edacea162d652c8", "lat": 38.9065955, "lon": -77.03895316666667, "rental_uris": {"android": "https://dc.lft.to/lastmile_qr_scan", "ios": "https://dc.lft.to/lastmile_qr_scan"}, "is_disabled": 0, "fusion_lat": 0.0, "name": "583593cc4c5443134edacea162d652c8", "fusion_lon": 0.0}, {"is_reserved": 0, "type": "electric_scooter", "bike_id": "a8c7b997f93a2bc210ea7313eb39ffcc", "lat": 38.892555333333334, "lon": -76.94134566666666, "rental_uris": {"android": "https://dc.lft.to/lastmile_qr_scan", "ios": "https://dc.lft.to/lastmile_qr_scan"}, "is_disabled": 0, "fusion_lat": 0.0, "name": "a8c7b997f93a2bc210ea7313eb39ffcc", "fusion_lon": 0.0}, {"is_reserved": 0, "type": "electric_scooter", "bike_id": "1c1985b6fb59c2c1328653961d4e6e61", "lat": 38.897198833333334, "lon": -77.007504, "rental_uris": {"android": "https://dc.lft.to/lastmile_qr_scan", "ios": "https://dc.lft.to/lastmile_qr_scan"}, "is_disabled": 0, "fusion_lat": 0.0, "name": "1c1985b6fb59c2c1328653961d4e6e61", "fusion_lon": 0.0},