{"data": {"bikes": [{"rental_uris": {"ios": "https://dc.lft.to/lastmile_qr_scan", "android": "https://dc.lft.to/lastmile_qr_scan"}, "type": "electric_scooter", "name": "9bd7f30e6a72ef936c58eb64c5fcf105", "is_reserved": 0, "lon": -77.03173183333334, "is_disabled": 0, "fusion_lat": 0.0, "lat": 38.914188333333335, "bike_id": "9bd7f30e6a72ef936c58eb64c5fcf105", "fusion_lon": 0.0}, {"rental_uris": {"ios": "https://dc.lft.to/lastmile_qr_scan", "android": "https://dc.lft.to/lastmile_qr_scan"}, "type": "electric_scooter", "name": "f4bd77b34a903335dedf59cbb42eaafd", "is_reserved": 0, "lon": -77.044774, "is_disabled": 0, "fusion_lat": 0.0, "lat": 38.90053566666667, "bike_id": "f4bd77b34a903335dedf59cbb42eaafd", "fusion_lon": 0.0}, {"rental_uris": {"ios": "https://dc.lft.to/lastmile_qr_scan", "android": "https://dc.lft.to/lastmile_qr_scan"}, "type": "electric_scooter", "name": "0e4550225d2b44c4407f072a371b8e7c", "is_reserved": 0, "lon": -77.032198, "is_disabled": 0, "fusion_lat": 0.0, "lat": 38.89840016666667, "bike_id": "0e4550225d2b44c4407f072a371b8e7c", "fusion_lon": 0.0}, {"rental_uris": {"ios": "https://dc.lft.to/lastmile_qr_scan", "android": "https://dc.lft.to/lastmile_qr_scan"}, "type": "electric_scooter", "name": "3a58397ba576d7f06a291b4727d28aa8", "is_reserved": 0, "lon": -77.03942916666666, "is_disabled": 0, "fusion_lat": 0.0, "lat": 38.90179716666667, "bike_id": "3a58397ba576d7f06a291b4727d28aa8", "fusion_lon": 0.0}, {"rental_uris": {"ios": "https://dc.lft.to/lastmile_qr_scan", "android": "https://dc.lft.to/lastmile_qr_scan"}, "type": "electric_scooter", "name": "fbabc6c0746762c3df3c7404193c6f4f", "is_reserved": 0, "lon": -77.06768266666667, "is_disabled": 0, "fusion_lat": 0.0, "lat": 38.90403383333334, "bike_id": "fbabc6c0746762c3df3c7404193c6f4f", "fusion_lon": 0.0}, {"rental_uris": {"ios": "https://dc.lft.to/lastmile_qr_scan", "android": "https://dc.lft.to/lastmile_qr_scan"}, "type": "electric_scooter", "name": "7d8fb49e92bdf3ec5ceda5aee1d5bc81", "is_reserved": 0, "lon": -77.03225983333333, "is_disabled": 0, "fusion_lat": 0.0, "lat": 38.90964483333333, "bike_id": "7d8fb49e92bdf3ec5ceda5aee1d5bc81", "fusion_lon": 0.0}, {"rental_uris": {"ios": "https://dc.lft.to/lastmile_qr_scan", "android": "https://dc.lft.to/lastmile_qr_scan"}, "type": "electric_scooter", "name": "8142869db2cd4dd64e1a12a09c3acdc3", "is_reserved": 0, "lon": -77.04461066666667, "is_disabled": 0, "fusion_lat": 0.0, "lat": 38.914328166666664, "bike_id": "8142869db2cd4dd64e1a12a09c3acdc3", "fusion_lon": 0.0}, {"rental_uris": {"ios": "https://dc.lft.to/lastmile_qr_scan", "android": "https://dc.lft.to/lastmile_qr_scan"}, "type": "electric_scooter", "name": "1f152fd34d49be19e743f66a1b1625a0", "is_reserved": 0, "lon": -77.02419633333334, "is_disabled": 0, "fusion_lat": 0.0, "lat": 38.897257, "bike_id": "1f152fd34d49be19e743f66a1b1625a0", "fusion_lon": 0.0}, {"rental_uris": {"ios": "https://dc.lft.to/lastmile_qr_scan", "android": "https://dc.lft.to/lastmile_qr_scan"}, "type": "electric_scooter", "name": "1d5ec0ecf1295715cf02731465afdb6c", "is_reserved": 0, "lon": -77.03456933333334, "is_disabled": 0, "fusion_lat": 0.0, "lat": 38.908325, "bike_id": "1d5ec0ecf1295715cf02731465afdb6c", "fusion_lon": 0.0}, {"rental_uris": {"ios": "https://dc.lft.to/lastmile_qr_scan", "android": "https://dc.lft.to/lastmile_qr_scan"}, "type": "electric_scooter", "name": "f383d31f71321e8386d89d19c91f7943", "is_reserved": 0, "lon": -77.01769766666666, "is_disabled": 0, "fusion_lat": 0.0, "lat": 38.8872365, "bike_id": "f383d31f71321e8386d89d19c91f7943", "fusion_lon": 0.0}, {"rental_uris": {"ios": "https://dc.lft.to/lastmile_qr_scan", "android": "https://dc.lft.to/lastmile_qr_scan"}, "type": "electric_scooter", "name": "44fb5dec8599ac8278c47becad9dee12", "is_reserved": 0, "lon": -77.04873316666666, "is_disabled": 0, "fusion_lat": 0.0, "lat": 38.892152833333334, "bike_id": "44fb5dec8599ac8278c47becad9dee12", "fusion_lon": 0.0}, {"rental_uris": {"ios": "https://dc.lft.to/lastmile_qr_scan", "android": "https://dc.lft.to/lastmile_qr_scan"}, "type": "electric_scooter", "name": "145842b47a1c5635bafe3d5e38c46038", "is_reserved": 0, "lon": -77.03859566666667, "is_disabled": 0, "fusion_lat": 0.0, "lat": 38.90732583333333, "bike_id": "145842b47a1c5635bafe3d5e38c46038", "fusion_lon": 0.0}, {"rental_uris": {"ios": "https://dc.lft.to/lastmile_qr_scan", "android": "https://dc.lft.to/lastmile_qr_scan"}, "type": "electric_scooter", "name": "8fda24418c5962a9a9f9fb1f8160cab7", "is_reserved": 0, "lon": -77.04598533333333, "is_disabled": 0, "fusion_lat": 0.0, "lat": 38.91858233333333, "bike_id": "8fda24418c5962a9a9f9fb1f8160cab7", "fusion_lon": 0.0}, {"rental_uris": {"ios": "https://dc.lft.to/lastmile_qr_scan", "android": "https://dc.lft.to/lastmile_qr_scan"}, "type": "electric_scooter", "name": "c602178a8a85ee41ac1c720d6b20c6c9", "is_reserved": 0, "lon": -77.02818433333333, "is_disabled": 0, "fusion_lat": 0.0, "lat": 38.92367983333333, "bike_id": "c602178a8a85ee41ac1c720d6b20c6c9", "fusion_lon": 0.0}, {"rental_uris": {"ios": "https://dc.lft.to/lastmile_qr_scan", "android": "https://dc.lft.to/lastmile_qr_scan"}, "type": "electric_bike", "name": "426fdf6bdbd177e77281f6a94a8911e2", "is_reserved": 0, "lon": -77.012152, "is_disabled": 0, "fusion_lat": 0.0, "lat": 38.87078066666667, "bike_id": "426fdf6bdbd177e77281f6a94a8911e2", "fusion_lon": 0.0}, {"rental_uris": {"ios": "https://dc.lft.to/lastmile_qr_scan", "android": "https://dc.lft.to/lastmile_qr_scan"}, "type": "electric_scooter", "name": "17f3c30e7b2872b7947ce0eb74abe7d7", "is_reserved": 0, "lon": -77.052302, "is_disabled": 0, "fusion_lat": 0.0, "lat": 38.89849916666667, "bike_id": "17f3c30e7b2872b7947ce0eb74abe7d7", "fusion_lon": 0.0}, {"rental_uris": {"ios": "https://dc.lft.to/lastmile_qr_scan", "android": "https://dc.lft.to/lastmile_qr_scan"}, "type": "electric_scooter", "name": "0e990a6372167e2f16f8e738bb847d30", "is_reserved": 0, "lon": -77.02622733333334, "is_disabled": 0, "fusion_lat": 0.0, "lat": 38.884051666666664, "bike_id": "0e990a6372167e2f16f8e738bb847d30", "fusion_lon": 0.0}, {"rental_uris": {"ios": "https://dc.lft.to/lastmile_qr_scan", "android": "https://dc.lft.to/lastmile_qr_scan"}, "type": "electric_bike", "name": "eaab937c3aadf1b8f7e8b6faacc2dd79", "is_reserved": 0, "lon": -77.01652883333334, "is_disabled": 0, "fusion_lat": 0.0, "lat": 38.88126833333333, "bike_id": "eaab937c3aadf1b8f7e8b6faacc2dd79", "fusion_lon": 0.0}, {"rental_uris": {"ios": "https://dc.lft.to/lastmile_qr_scan", "android": "https://dc.lft.to/lastmile_qr_scan"}, "type": "electric_bike", "name": "64098e954c4a58d55da69556df306629", "is_reserved": 0, "lon": -76.98819066666667, "is_disabled": 0, "fusion_lat": 0.0, "lat": 38.8427055, "bike_id": "64098e954c4a58d55da69556df306629", "fusion_lon": 0.0}, {"rental_uris": {"ios": "https://dc.lft.to/lastmile_qr_scan", "android": "https://dc.lft.to/lastmile_qr_scan"}, "type": "electric_scooter", "name": "ba7a74b2f59f2d178a58aa44bd6395f6", "is_reserved": 0, "lon": -77.03702566666666, "is_disabled": 0, "fusion_lat": 0.0, "lat": 38.93277633333334, "bike_id": "ba7a74b2f59f2d178a58aa44bd6395f6", "fusion_lon": 0.0}, {"rental_uris": {"ios": "https://dc.lft.to/lastmile_qr_scan", "android": "https://dc.lft.to/lastmile_qr_scan"}, "type": "electric_scooter", "name": "07c71c2c44516ea000e69b9c77e58e9e", "is_reserved": 0, "lon": -77.02432116666667, "is_disabled": 0, "fusion_lat": 0.0, "lat": 38.93289083333333, "bike_id": "07c71c2c44516ea000e69b9c77e58e9e", "fusion_lon": 0.0}, {"rental_uris": {"ios": "https://dc.lft.to/lastmile_qr_scan", "android": "https://dc.lft.to/lastmile_qr_scan"}, "type": "electric_bike", "name": "fc31ec777d7cd6731c6500b76d03c63b", "is_reserved": 0, "lon": -77.040729, "is_disabled": 0, "fusion_lat": 0.0, "lat": 38.99378566666667, "bike_id": "fc31ec777d7cd6731c6500b76d03c63b", "fusion_lon": 0.0}, {"rental_uris": {"ios": "https://dc.lft.to/lastmile_qr_scan", "android": "https://dc.lft.to/lastmile_qr_scan"}, "type": "electric_scooter", "name": "99349c46e01354fb58b2b1a27bd8566f", "is_reserved": 0, "lon": -77.05341216666666, "is_disabled": 0, "fusion_lat": 0.0, "lat": 38.90457, "bike_id": "99349c46e01354fb58b2b1a27bd8566f", "fusion_lon": 0.0}, {"rental_uris": {"ios": "https://dc.lft.to/lastmile_qr_scan", "android": "https://dc.lft.to/lastmile_qr_scan"}, "type": "electric_scooter", "name": "99aa30b24e8a9271828ba9385d2293e8", "is_reserved": 0, "lon": -76.97983116666667, "is_disabled": 0, "fusion_lat": 0.0, "lat": 38.897341833333336, "bike_id": "99aa30b24e8a9271828ba9385d2293e8", "fusion_lon": 0.0}, {"rental_uris": {"ios": "https://dc.lft.to/lastmile_qr_scan", "android": "https://dc.lft.to/lastmile_qr_scan"}, "type": "electric_scooter", "name": "184f8603fdaf39ef857e013b97a1491d", "is_reserved": 0, "lon": -77.05791333333333, "is_disabled": 0, "fusion_lat": 0.0, "lat": 38.93475516666667, "bike_id": "184f8603fdaf39ef857e013b97a1491d", "fusion_lon": 0.0}, {"rental_uris": {"ios": "https://dc.lft.to/lastmile_qr_scan", "android": "https://dc.lft.to/lastmile_qr_scan"}, "type": "electric_scooter", "name": "aa76d566b6f5d6c7f4ff6631c2ad52d2", "is_reserved": 0, "lon": -77.00740166666667, "is_disabled": 0, "fusion_lat": 0.0, "lat": 38.89897066666666, "bike_id": "aa76d566b6f5d6c7f4ff6631c2ad52d2", "fusion_lon": 0.0}, {"rental_uris": {"ios": "https://dc.lft.to/lastmile_qr_scan", "android": "https://dc.lft.to/lastmile_qr_scan"}, "type": "electric_scooter", "name": "f113a9433d841454fd730892b6b0c30c", "is_reserved": 0, "lon": -77.02162966666667, "is_disabled": 0, "fusion_lat": 0.0, "lat": 38.92443166666666, "bike_id": "f113a9433d841454fd730892b6b0c30c", "fusion_lon": 0.0}, {"rental_uris": {"ios": "https://dc.lft.to/lastmile_qr_scan", "android": "https://dc.lft.to/lastmile_qr_scan"}, "type": "electric_scooter", "name": "ebd156b2c5202c9c29df3e1cf56d4acb", "is_reserved": 0, "lon": -77.0333355, "is_disabled": 0, "fusion_lat": 0.0, "lat": 38.887757, "bike_id": "ebd156b2c5202c9c29df3e1cf56d4acb", "fusion_lon": 0.0}, {"rental_uris": {"ios": "https://dc.lft.to/lastmile_qr_scan", "android": "https://dc.lft.to/lastmile_qr_scan"}, "type": "electric_scooter", "name": "1651aa5295128f5aa10a9d856d9a1961", "is_reserved": 0, "lon": -77.04571966666667, "is_disabled": 0, "fusion_lat": 0.0, "lat": 38.91412016666666, "bike_id": "1651aa5295128f5aa10a9d856d9a1961", "fusion_lon": 0.0}, {"rental_uris": {"ios": "https://dc.lft.to/lastmile_qr_scan", "android": "https://dc.lft.to/lastmile_qr_scan"}, "type": "electric_bike", "name": "a19f81f1798d9411e1c787dd03f1adda", "is_reserved": 0, "lon": -76.9949955, "is_disabled": 0, "fusion_lat": 0.0, "lat": 38.862156666666664, "bike_id": "a19f81f1798d9411e1c787dd03f1adda", "fusion_lon": 0.0}, {"rental_uris": {"ios": "https://dc.lft.to/lastmile_qr_scan", "android": "https://dc.lft.to/lastmile_qr_scan"}, "type": "electric_scooter", "name": "db432b434dc6610dc55086bde59b2a8a", "is_reserved": 0, "lon": -77.031634, "is_disabled": 0, "fusion_lat": 0.0, "lat": 38.901048, "bike_id": "db432b434dc6610dc55086bde59b2a8a", "fusion_lon": 0.0}, {"rental_uris": {"ios": "https://dc.lft.to/lastmile_qr_scan", "android": "https://dc.lft.to/lastmile_qr_scan"}, "type": "electric_bike", "name": "f68fa1e94d2dd0fc921c945b1a44a4ac", "is_reserved": 0, "lon": -76.90742316666666, "is_disabled": 0, "fusion_lat": 0.0, "lat": 38.8961885, "bike_id": "f68fa1e94d2dd0fc921c945b1a44a4ac", "fusion_lon": 0.0}, {"rental_uris": {"ios": "https://dc.lft.to/lastmile_qr_scan", "android": "https://dc.lft.to/lastmile_qr_scan"}, "type": "electric_scooter", "name": "5bb50a4900058b77e1d5bf10351c9958", "is_reserved": 0, "lon": -77.03069016666667, "is_disabled": 0, "fusion_lat": 0.0, "lat": 38.926830333333335, "bike_id": "5bb50a4900058b77e1d5bf10351c9958", "fusion_lon": 0.0}, {"rental_uris": {"ios": "https://dc.lft.to/lastmile_qr_scan", "android": "https://dc.lft.to/lastmile_qr_scan"}, "type": "electric_scooter", "name": "cc7d8c193e64e9b470d146bbbae15c24", "is_reserved": 0, "lon": -77.03779766666666, "is_disabled": 0, "fusion_lat": 0.0, "lat": 38.915778833333334, "bike_id": "cc7d8c193e64e9b470d146bbbae15c24", "fusion_lon": 0.0}, {"rental_uris": {"ios": "https://dc.lft.to/lastmile_qr_scan", "android": "https://dc.lft.to/lastmile_qr_scan"}, "type": "electric_scooter", "name": "cf367984eb7ecda3182fa3bbb6d65436", "is_reserved": 0, "lon": -77.04436566666666, "is_disabled": 0, "fusion_lat": 0.0, "lat": 38.8974305, "bike_id": "cf367984eb7ecda3182fa3bbb6d65436", "fusion_lon": 0.0}, {"rental_uris": {"ios": "https://dc.lft.to/lastmile_qr_scan", "android": "https://dc.lft.to/lastmile_qr_scan"}, "type": "electric_scooter", "name": "b2d8a4f22d36c461d004449cc141209e", "is_reserved": 0, "lon": -77.04056933333334, "is_disabled": 0, "fusion_lat": 0.0, "lat": 38.93010683333333, "bike_id": "b2d8a4f22d36c461d004449cc141209e", "fusion_lon": 0.0}, {"rental_uris": {"ios": "https://dc.lft.to/lastmile_qr_scan", "android": "https://dc.lft.to/lastmile_qr_scan"}, "type": "electric_scooter", "name": "978ff5f9ddb4d6cef474197194bec00f", "is_reserved": 0, "lon": -77.03349666666666, "is_disabled": 0, "fusion_lat": 0.0, "lat": 38.897437, "bike_id": "978ff5f9ddb4d6cef474197194bec00f", "fusion_lon": 0.0}, {"rental_uris": {"ios": "https://dc.lft.to/lastmile_qr_scan", "android": "https://dc.lft.to/lastmile_qr_scan"}, "type": "electric_scooter", "name": "88dd7928d9c5ea3d11caaead50bd3529", "is_reserved": 0, "lon": -77.05741816666666, "is_disabled": 0, "fusion_lat": 0.0, "lat": 38.933363166666666, "bike_id": "88dd7928d9c5ea3d11caaead50bd3529", "fusion_lon": 0.0}, {"rental_uris": {"ios": "https://dc.lft.to/lastmile_qr_scan", "android": "https://dc.lft.to/lastmile_qr_scan"}, "type": "electric_scooter", "name": "65f12a6507a6baa9b2ee3cc4281c6fae", "is_reserved": 0, "lon": -77.00427333333333, "is_disabled": 0, "fusion_lat": 0.0, "lat": 38.88512733333334, "bike_id": "65f12a6507a6baa9b2ee3cc4281c6fae", "fusion_lon": 0.0}, {"rental_uris": {"ios": "https://dc.lft.to/lastmile_qr_scan", "android": "https://dc.lft.to/lastmile_qr_scan"}, "type": "electric_scooter", "name": "c66bac763bfeb422634f85510f821467", "is_reserved": 0, "lon": -77.03193116666667, "is_disabled": 0, "fusion_lat": 0.0, "lat": 38.93057733333333, "bike_id": "c66bac763bfeb422634f85510f821467", "fusion_lon": 0.0}, {"rental_uris": {"ios": "https://dc.lft.to/lastmile_qr_scan", "android": "https://dc.lft.to/lastmile_qr_scan"}, "type": "electric_scooter", "name": "4b7f01b40620acadc2f8a27370789116", "is_reserved": 0, "lon": -77.0397685, "is_disabled": 0, "fusion_lat": 0.0, "lat": 38.9315245, "bike_id": "4b7f01b40620acadc2f8a27370789116", "fusion_lon": 0.0}, {"rental_uris": {"ios": "https://dc.lft.to/lastmile_qr_scan", "android": "https://dc.lft.to/lastmile_qr_scan"}, "type": "electric_scooter", "name": "98c6affab81b3643d77b90d14f430a65", "is_reserved": 0, "lon": -77.0243435, "is_disabled": 0, "fusion_lat": 0.0, "lat": 38.9169625, "bike_id": "98c6affab81b3643d77b90d14f430a65", "fusion_lon": 0.0}, {"rental_uris": {"ios": "https://dc.lft.to/lastmile_qr_scan", "android": "https://dc.lft.to/lastmile_qr_scan"}, "type": "electric_scooter", "name": "e85adc7e8a2f73e9d5bd0989bf43e665", "is_reserved": 0, "lon": -77.0248715, "is_disabled": 0, "fusion_lat": 0.0, "lat": 38.9238945, "bike_id": "e85adc7e8a2f73e9d5bd0989bf43e665", "fusion_lon": 0.0}, {"rental_uris": {"ios": "https://dc.lft.to/lastmile_qr_scan", "android": "https://dc.lft.to/lastmile_qr_scan"}, "type": "electric_scooter", "name": "89c864529b84b6baac9158f29907dec2", "is_reserved": 0, "lon": -76.973303, "is_disabled": 0, "fusion_lat": 0.0, "lat": 38.904093833333334, "bike_id": "89c864529b84b6baac9158f29907dec2", "fusion_lon": 0.0}, {"rental_uris": {"ios": "https://dc.lft.to/lastmile_qr_scan", "android": "https://dc.lft.to/lastmile_qr_scan"}, "type": "electric_scooter", "name": "14ced427064ef9c6cd41e0f583db8346", "is_reserved": 0, "lon": -76.99712016666666, "is_disabled": 0, "fusion_lat": 0.0, "lat": 38.908188, "bike_id": "14ced427064ef9c6cd41e0f583db8346", "fusion_lon": 0.0}, {"rental_uris": {"ios": "https://dc.lft.to/lastmile_qr_scan", "android": "https://dc.lft.to/lastmile_qr_scan"}, "type": "electric_scooter", "name": "9223ebdf171bb8f19e37bb2b07719334", "is_reserved": 0, "lon": -77.0450595, "is_disabled": 0, "fusion_lat": 0.0, "lat": 38.892201, "bike_id": "9223ebdf171bb8f19e37bb2b07719334", "fusion_lon": 0.0}, {"rental_uris": {"ios": "https://dc.lft.to/lastmile_qr_scan", "android": "https://dc.lft.to/lastmile_qr_scan"}, "type": "electric_scooter", "name": "241db4514a87526925840a070517a3bc", "is_reserved": 0, "lon": -77.0070405, "is_disabled": 0, "fusion_lat": 0.0, "lat": 38.8769475, "bike_id": "241db4514a87526925840a070517a3bc", "fusion_lon": 0.0}, {"rental_uris": {"ios": "https://dc.lft.to/lastmile_qr_scan", "android": "https://dc.lft.to/lastmile_qr_scan"}, "type": "electric_scooter", "name": "a37a934fd71198c8c91828a870464fcc", "is_reserved": 0, "lon": -77.02358166666667, "is_disabled": 0, "fusion_lat": 0.0, "lat": 38.902097833333336, "bike_id": "a37a934fd71198c8c91828a870464fcc", "fusion_lon": 0.0}, {"rental_uris": {"ios": "https://dc.lft.to/lastmile_qr_scan", "android": "https://dc.lft.to/lastmile_qr_scan"}, "type": "electric_scooter", "name": "f71f481ac242f9271c2704678758df04", "is_reserved": 0, "lon": -77.06112716666667, "is_disabled": 0, "fusion_lat": 0.0, "lat": 38.90472583333333, "bike_id": "f71f481ac242f9271c2704678758df04", "fusion_lon": 0.0}, {"rental_uris": {"ios": "https://dc.lft.to/lastmile_qr_scan", "android": "https://dc.lft.to/lastmile_qr_scan"}, "type": "electric_scooter", "name": "1cd9ea2773c81e11d14775889eb264b9", "is_reserved": 0, "lon": -77.04821733333333, "is_disabled": 0, "fusion_lat": 0.0, "lat": 38.914873166666666, "bike_id": "1cd9ea2773c81e11d14775889eb264b9", "fusion_lon": 0.0}, {"rental_uris": {"ios": "https://dc.lft.to/lastmile_qr_scan", "android": "https://dc.lft.to/lastmile_qr_scan"}, "type": "electric_scooter", "name": "381c96c9bc5d8bac5d36c81eb5851540", "is_reserved": 0, "lon": -76.99587933333333, "is_disabled": 0, "fusion_lat": 0.0, "lat": 38.909421, "bike_id": "381c96c9bc5d8bac5d36c81eb5851540", "fusion_lon": 0.0}, {"rental_uris": {"ios": "https://dc.lft.to/lastmile_qr_scan", "android": "https://dc.lft.to/lastmile_qr_scan"}, "type": "electric_bike", "name": "f2ba42fce91fdca46f81a301c9f89d0a", "is_reserved": 0, "lon": -77.06953883333334, "is_disabled": 0, "fusion_lat": 0.0, "lat": 38.83626783333333, "bike_id": "f2ba42fce91fdca46f81a301c9f89d0a", "fusion_lon": 0.0}, {"rental_uris": {"ios": "https://dc.lft.to/lastmile_qr_scan", "android": "https://dc.lft.to/lastmile_qr_scan"}, "type": "electric_scooter", "name": "ebd7dbb8f83ffebda3711f3b93004769", "is_reserved": 0, "lon": -77.04677466666666, "is_disabled": 0, "fusion_lat": 0.0, "lat": 38.892306166666664, "bike_id": "ebd7dbb8f83ffebda3711f3b93004769", "fusion_lon": 0.0}, {"rental_uris": {"ios": "https://dc.lft.to/lastmile_qr_scan", "android": "https://dc.lft.to/lastmile_qr_scan"}, "type": "electric_scooter", "name": "4cd77e83f251493079d13d76b22421bb", "is_reserved": 0, "lon": -77.02751, "is_disabled": 0, "fusion_lat": 0.0, "lat": 38.91205583333333, "bike_id": "4cd77e83f251493079d13d76b22421bb", "fusion_lon": 0.0}, {"rental_uris": {"ios": "https://dc.lft.to/lastmile_qr_scan", "android": "https://dc.lft.to/lastmile_qr_scan"}, "type": "electric_scooter", "name": "456d66b6578ecaf7f387e47c0b40d872", "is_reserved": 0, "lon": -77.02715466666666, "is_disabled": 0, "fusion_lat": 0.0, "lat": 38.91807583333333, "bike_id": "456d66b6578ecaf7f387e47c0b40d872", "fusion_lon": 0.0}, {"rental_uris": {"ios": "https://dc.lft.to/lastmile_qr_scan", "android": "https://dc.lft.to/lastmile_qr_scan"}, "type": "electric_scooter", "name": "0fb0206384146053e732c36ce46a520d", "is_reserved": 0, "lon": -77.02020716666667, "is_disabled": 0, "fusion_lat": 0.0, "lat": 38.89860933333333, "bike_id": "0fb0206384146053e732c36ce46a520d", "fusion_lon": 0.0}, {"rental_uris": {"ios": "https://dc.lft.to/lastmile_qr_scan", "android": "https://dc.lft.to/lastmile_qr_scan"}, "type": "electric_scooter", "name": "73055105d892232545893d5e2f91162a", "is_reserved": 0, "lon": -77.02808933333333, "is_disabled": 0, "fusion_lat": 0.0, "lat": 38.90612383333333, "bike_id": "73055105d892232545893d5e2f91162a", "fusion_lon": 0.0}, {"rental_uris": {"ios": "https://dc.lft.to/lastmile_qr_scan", "android": "https://dc.lft.to/lastmile_qr_scan"}, "type": "electric_scooter", "name": "f84a3471af813ed271fa54f1e4166755", "is_reserved": 0, "lon": -77.04563383333333, "is_disabled": 0, "fusion_lat": 0.0, "lat": 38.917766, "bike_id": "f84a3471af813ed271fa54f1e4166755", "fusion_lon": 0.0}, {"rental_uris": {"ios": "https://dc.lft.to/lastmile_qr_scan", "android": "https://dc.lft.to/lastmile_qr_scan"}, "type": "electric_scooter", "name": "2e48025ccb1ecc625c03eb8c402a5955", "is_reserved": 0, "lon": -77.037854, "is_disabled": 0, "fusion_lat": 0.0, "lat": 38.925957, "bike_id": "2e48025ccb1ecc625c03eb8c402a5955", "fusion_lon": 0.0}, {"rental_uris": {"ios": "https://dc.lft.to/lastmile_qr_scan", "android": "https://dc.lft.to/lastmile_qr_scan"}, "type": "electric_scooter", "name": "e3c13c1a0c1dbdd8a1c68cec8a442da4", "is_reserved": 0, "lon": -77.03476666666667, "is_disabled": 0, "fusion_lat": 0.0, "lat": 38.9057145, "bike_id": "e3c13c1a0c1dbdd8a1c68cec8a442da4", "fusion_lon": 0.0}, {"rental_uris": {"ios": "https://dc.lft.to/lastmile_qr_scan", "android": "https://dc.lft.to/lastmile_qr_scan"}, "type": "electric_scooter", "name": "a1bc479b65448187b2544153857842e3", "is_reserved": 0, "lon": -77.038425, "is_disabled": 0, "fusion_lat": 0.0, "lat": 38.931100666666666, "bike_id": "a1bc479b65448187b2544153857842e3", "fusion_lon": 0.0}, {"rental_uris": {"ios": "https://dc.lft.to/lastmile_qr_scan", "android": "https://dc.lft.to/lastmile_qr_scan"}, "type": "electric_scooter", "name": "d2c4f510879bb8ea53176a317eda9826", "is_reserved": 0, "lon": -77.03642516666666, "is_disabled": 0, "fusion_lat": 0.0, "lat": 38.906820833333335, "bike_id": "d2c4f510879bb8ea53176a317eda9826", "fusion_lon": 0.0}, {"rental_uris": {"ios": "https://dc.lft.to/lastmile_qr_scan", "android": "https://dc.lft.to/lastmile_qr_scan"}, "type": "electric_scooter", "name": "33c8f2af549061841f8551133dcbbffa", "is_reserved": 0, "lon": -76.96506166666667, "is_disabled": 0, "fusion_lat": 0.0, "lat": 38.87647316666666, "bike_id": "33c8f2af549061841f8551133dcbbffa", "fusion_lon": 0.0}, {"rental_uris": {"ios": "https://dc.lft.to/lastmile_qr_scan", "android": "https://dc.lft.to/lastmile_qr_scan"}, "type": "electric_scooter", "name": "28bf23c39c54979d63d72bfeba2b5cbf", "is_reserved": 0, "lon": -77.04946216666667, "is_disabled": 0, "fusion_lat": 0.0, "lat": 38.92018733333333, "bike_id": "28bf23c39c54979d63d72bfeba2b5cbf", "fusion_lon": 0.0}, {"rental_uris": {"ios": "https://dc.lft.to/lastmile_qr_scan", "android": "https://dc.lft.to/lastmile_qr_scan"}, "type": "electric_scooter", "name": "8240c6fc85411736b31f370f5498482b", "is_reserved": 0, "lon": -77.026084, "is_disabled": 0, "fusion_lat": 0.0, "lat": 38.89826583333333, "bike_id": "8240c6fc85411736b31f370f5498482b", "fusion_lon": 0.0}, {"rental_uris": {"ios": "https://dc.lft.to/lastmile_qr_scan", "android": "https://dc.lft.to/lastmile_qr_scan"}, "type": "electric_scooter", "name": "cc4edcb1fb5ce08113585ca3cb5b0efc", "is_reserved": 0, "lon": -77.06278483333334, "is_disabled": 0, "fusion_lat": 0.0, "lat": 38.94417716666667, "bike_id": "cc4edcb1fb5ce08113585ca3cb5b0efc", "fusion_lon": 0.0}, {"rental_uris": {"ios": "https://dc.lft.to/lastmile_qr_scan", "android": "https://dc.lft.to/lastmile_qr_scan"}, "type": "electric_scooter", "name": "0375beb87da55472544cb7f4b599c121", "is_reserved": 0, "lon": -77.03501083333333, "is_disabled": 0, "fusion_lat": 0.0, "lat": 38.93262633333333, "bike_id": "0375beb87da55472544cb7f4b599c121", "fusion_lon": 0.0}, {"rental_uris": {"ios": "https://dc.lft.to/lastmile_qr_scan", "android": "https://dc.lft.to/lastmile_qr_scan"}, "type": "electric_bike", "name": "21ecf43f362a6b176d440233ad5ba4f7", "is_reserved": 0, "lon": -77.23415116666666, "is_disabled": 0, "fusion_lat": 0.0, "lat": 38.87582783333333, "bike_id": "21ecf43f362a6b176d440233ad5ba4f7", "fusion_lon": 0.0}, {"rental_uris": {"ios": "https://dc.lft.to/lastmile_qr_scan", "android": "https://dc.lft.to/lastmile_qr_scan"}, "type": "electric_scooter", "name": "78604329bb58d301edad7185ea1490cc", "is_reserved": 0, "lon": -77.03180883333333, "is_disabled": 0, "fusion_lat": 0.0, "lat": 38.914287333333334, "bike_id": "78604329bb58d301edad7185ea1490cc", "fusion_lon": 0.0}, {"rental_uris": {"ios": "https://dc.lft.to/lastmile_qr_scan", "android": "https://dc.lft.to/lastmile_qr_scan"}, "type": "electric_scooter", "name": "c621bca312a3d4ad92398a6750feabaa", "is_reserved": 0, "lon": -77.02976133333334, "is_disabled": 0, "fusion_lat": 0.0, "lat": 38.932515, "bike_id": "c621bca312a3d4ad92398a6750feabaa", "fusion_lon": 0.0}, {"rental_uris": {"ios": "https://dc.lft.to/lastmile_qr_scan", "android": "https://dc.lft.to/lastmile_qr_scan"}, "type": "electric_scooter", "name": "4336b2be610f10191aff65cfdc7a1ad5", "is_reserved": 0, "lon": -76.97623083333333, "is_disabled": 0, "fusion_lat": 0.0, "lat": 38.905683, "bike_id": "4336b2be610f10191aff65cfdc7a1ad5", "fusion_lon": 0.0}, {"rental_uris": {"ios": "https://dc.lft.to/lastmile_qr_scan", "android": "https://dc.lft.to/lastmile_qr_scan"}, "type": "electric_scooter", "name": "3dd6921eab17245d66c332ae73371ac3", "is_reserved": 0, "lon": -77.02330966666666, "is_disabled": 0, "fusion_lat": 0.0, "lat": 38.91667283333334, "bike_id": "3dd6921eab17245d66c332ae73371ac3", "fusion_lon": 0.0}, {"rental_uris": {"ios": "https://dc.lft.to/lastmile_qr_scan", "android": "https://dc.lft.to/lastmile_qr_scan"}, "type": "electric_scooter", "name": "a1931c9b43fe9325dc16ac97ceea0e98", "is_reserved": 0, "lon": -77.073047, "is_disabled": 0, "fusion_lat": 0.0, "lat": 38.9302155, "bike_id": "a1931c9b43fe9325dc16ac97ceea0e98", "fusion_lon": 0.0}, {"rental_uris": {"ios": "https://dc.lft.to/lastmile_qr_scan", "android": "https://dc.lft.to/lastmile_qr_scan"}, "type": "electric_scooter", "name": "76c1056670118d8590873af9784466b7", "is_reserved": 0, "lon": -76.93425833333333, "is_disabled": 0, "fusion_lat": 0.0, "lat": 38.893409166666665, "bike_id": "76c1056670118d8590873af9784466b7", "fusion_lon": 0.0}, {"rental_uris": {"ios": "https://dc.lft.to/lastmile_qr_scan", "android": "https://dc.lft.to/lastmile_qr_scan"}, "type": "electric_scooter", "name": "aa2c60702864af01b56c9dd20723b3bc", "is_reserved": 0, "lon": -77.0416415, "is_disabled": 0, "fusion_lat": 0.0, "lat": 38.919796833333336, "bike_id": "aa2c60702864af01b56c9dd20723b3bc", "fusion_lon": 0.0}, {"rental_uris": {"ios": "https://dc.lft.to/lastmile_qr_scan", "android": "https://dc.lft.to/lastmile_qr_scan"}, "type": "electric_scooter", "name": "b71ab12539beac0468d13726efd29fd6", "is_reserved": 0, "lon": -77.0200855, "is_disabled": 0, "fusion_lat": 0.0, "lat": 38.91629483333333, "bike_id": "b71ab12539beac0468d13726efd29fd6", "fusion_lon": 0.0}, {"rental_uris": {"ios": "https://dc.lft.to/lastmile_qr_scan", "android": "https://dc.lft.to/lastmile_qr_scan"}, "type": "electric_scooter", "name": "7908cdd5bac3ce2d7edbb1f20b8062a3", "is_reserved": 0, "lon": -77.03474883333334, "is_disabled": 0, "fusion_lat": 0.0, "lat": 38.9181935, "bike_id": "7908cdd5bac3ce2d7edbb1f20b8062a3", "fusion_lon": 0.0}, {"rental_uris": {"ios": "https://dc.lft.to/lastmile_qr_scan", "android": "https://dc.lft.to/lastmile_qr_scan"}, "type": "electric_bike", "name": "452b5f7cfb3a442cd31656c7e2c256be", "is_reserved": 0, "lon": -77.01224166666667, "is_disabled": 0, "fusion_lat": 0.0, "lat": 38.950743833333334, "bike_id": "452b5f7cfb3a442cd31656c7e2c256be", "fusion_lon": 0.0}, {"rental_uris": {"ios": "https://dc.lft.to/lastmile_qr_scan", "android": "https://dc.lft.to/lastmile_qr_scan"}, "type": "electric_scooter", "name": "52a9fbb8470b30bbf50c5e9205ea8314", "is_reserved": 0, "lon": -77.031931, "is_disabled": 0, "fusion_lat": 0.0, "lat": 38.909817, "bike_id": "52a9fbb8470b30bbf50c5e9205ea8314", "fusion_lon": 0.0}, {"rental_uris": {"ios": "https://dc.lft.to/lastmile_qr_scan", "android": "https://dc.lft.to/lastmile_qr_scan"}, "type": "electric_bike", "name": "f55aac5013f921b6e99440572d94a79a", "is_reserved": 0, "lon": -77.04054616666667, "is_disabled": 0, "fusion_lat": 0.0, "lat": 38.9085285, "bike_id": "f55aac5013f921b6e99440572d94a79a", "fusion_lon": 0.0}, {"rental_uris": {"ios": "https://dc.lft.to/lastmile_qr_scan", "android": "https://dc.lft.to/lastmile_qr_scan"}, "type": "electric_scooter", "name": "c3e3c5285f09b00431923857651fd8a3", "is_reserved": 0, "lon": -77.04181066666666, "is_disabled": 0, "fusion_lat": 0.0, "lat": 38.90731866666667, "bike_id": "c3e3c5285f09b00431923857651fd8a3", "fusion_lon": 0.0}, {"rental_uris": {"ios": "https://dc.lft.to/lastmile_qr_scan", "android": "https://dc.lft.to/lastmile_qr_scan"}, "type": "electric_bike", "name": "562cfc48950a6e109318280f21c8fa11", "is_reserved": 0, "lon": -76.9968115, "is_disabled": 0, "fusion_lat": 0.0, "lat": 38.83813516666667, "bike_id": "562cfc48950a6e109318280f21c8fa11", "fusion_lon": 0.0}, {"rental_uris": {"ios": "https://dc.lft.to/lastmile_qr_scan", "android": "https://dc.lft.to/lastmile_qr_scan"}, "type": "electric_scooter", "name": "245a8f6478810c2422397b88de0f4659", "is_reserved": 0, "lon": -77.02372816666667, "is_disabled": 0, "fusion_lat": 0.0, "lat": 38.9169945, "bike_id": "245a8f6478810c2422397b88de0f4659", "fusion_lon": 0.0}, {"rental_uris": {"ios": "https://dc.lft.to/lastmile_qr_scan", "android": "https://dc.lft.to/lastmile_qr_scan"}, "type": "electric_scooter", "name": "8591af52f05f2b92f42575c05ead3e80", "is_reserved": 0, "lon": -77.033816, "is_disabled": 0, "fusion_lat": 0.0, "lat": 38.88756866666667, "bike_id": "8591af52f05f2b92f42575c05ead3e80", "fusion_lon": 0.0}, {"rental_uris": {"ios": "https://dc.lft.to/lastmile_qr_scan", "android": "https://dc.lft.to/lastmile_qr_scan"}, "type": "electric_scooter", "name": "08a42dfdf6dfae736ead52991139030c", "is_reserved": 0, "lon": -77.0302755, "is_disabled": 0, "fusion_lat": 0.0, "lat": 38.922455666666664, "bike_id": "08a42dfdf6dfae736ead52991139030c", "fusion_lon": 0.0}, {"rental_uris": {"ios": "https://dc.lft.to/lastmile_qr_scan", "android": "https://dc.lft.to/lastmile_qr_scan"}, "type": "electric_scooter", "name": "eedded488a04cab0cb4199011a583331", "is_reserved": 0, "lon": -77.02371383333333, "is_disabled": 0, "fusion_lat": 0.0, "lat": 38.89853166666666, "bike_id": "eedded488a04cab0cb4199011a583331", "fusion_lon": 0.0}, {"rental_uris": {"ios": "https://dc.lft.to/lastmile_qr_scan", "android": "https://dc.lft.to/lastmile_qr_scan"}, "type": "electric_scooter", "name": "de4baa417af80554ba3decc3da1f0af4", "is_reserved": 0, "lon": -77.03836433333333, "is_disabled": 0, "fusion_lat": 0.0, "lat": 38.910440333333334, "bike_id": "de4baa417af80554ba3decc3da1f0af4", "fusion_lon": 0.0}, {"rental_uris": {"ios": "https://dc.lft.to/lastmile_qr_scan", "android": "https://dc.lft.to/lastmile_qr_scan"}, "type": "electric_scooter", "name": "d3b67b268a5f9858850d89f629b4e7cf", "is_reserved": 0, "lon": -77.0339195, "is_disabled": 0, "fusion_lat": 0.0, "lat": 38.88659766666667, "bike_id": "d3b67b268a5f9858850d89f629b4e7cf", "fusion_lon": 0.0}, {"rental_uris": {"ios": "https://dc.lft.to/lastmile_qr_scan", "android": "https://dc.lft.to/lastmile_qr_scan"}, "type": "electric_scooter", "name": "9564bdec688c35fcd7943cef75187561", "is_reserved": 0, "lon": -76.99591383333333, "is_disabled": 0, "fusion_lat": 0.0, "lat": 38.90028866666667, "bike_id": "9564bdec688c35fcd7943cef75187561", "fusion_lon": 0.0}, {"rental_uris": {"ios": "https://dc.lft.to/lastmile_qr_scan", "android": "https://dc.lft.to/lastmile_qr_scan"}, "type": "electric_scooter", "name": "fea7d35c8acba0f5388f2cce7886deb2", "is_reserved": 0, "lon": -77.01126383333333, "is_disabled": 0, "fusion_lat": 0.0, "lat": 38.91615, "bike_id": "fea7d35c8acba0f5388f2cce7886deb2", "fusion_lon": 0.0}, {"rental_uris": {"ios": "https://dc.lft.to/lastmile_qr_scan", "android": "https://dc.lft.to/lastmile_qr_scan"}, "type": "electric_scooter", "name": "31b84dcd9031ade1dae960d25ad79cae", "is_reserved": 0, "lon": -77.00929166666667, "is_disabled": 0, "fusion_lat": 0.0, "lat": 38.896105666666664, "bike_id": "31b84dcd9031ade1dae960d25ad79cae", "fusion_lon": 0.0}, {"rental_uris": {"ios": "https://dc.lft.to/lastmile_qr_scan", "android": "https://dc.lft.to/lastmile_qr_scan"}, "type": "electric_scooter", "name": "d5d16b88c5541ab9d1a001283c5bc134", "is_reserved": 0, "lon": -77.02702533333333, "is_disabled": 0, "fusion_lat": 0.0, "lat": 38.90569816666667, "bike_id": "d5d16b88c5541ab9d1a001283c5bc134", "fusion_lon": 0.0}, {"rental_uris": {"ios": "https://dc.lft.to/lastmile_qr_scan", "android": "https://dc.lft.to/lastmile_qr_scan"}, "type": "electric_scooter", "name": "dc22b13817f763623e6c7eb5eba88fe2", "is_reserved": 0, "lon": -77.029475, "is_disabled": 0, "fusion_lat": 0.0, "lat": 38.915525833333334, "bike_id": "dc22b13817f763623e6c7eb5eba88fe2", "fusion_lon": 0.0}, {"rental_uris": {"ios": "https://dc.lft.to/lastmile_qr_scan", "android": "https://dc.lft.to/lastmile_qr_scan"}, "type": "electric_scooter", "name": "67cc9ca1f812c5988d1b4803fbbd6930", "is_reserved": 0, "lon": -77.0145765, "is_disabled": 0, "fusion_lat": 0.0, "lat": 38.926629, "bike_id": "67cc9ca1f812c5988d1b4803fbbd6930", "fusion_lon": 0.0}, {"rental_uris": {"ios": "https://dc.lft.to/lastmile_qr_scan", "android": "https://dc.lft.to/lastmile_qr_scan"}, "type": "electric_scooter", "name": "fea30050188a232d81fb10d61632d295", "is_reserved": 0, "lon": -77.02519466666666, "is_disabled": 0, "fusion_lat": 0.0, "lat": 38.920738, "bike_id": "fea30050188a232d81fb10d61632d295", "fusion_lon": 0.0}, {"rental_uris": {"ios": "https://dc.lft.to/lastmile_qr_scan", "android": "https://dc.lft.to/lastmile_qr_scan"}, "type": "electric_scooter", "name": "da0872cc12d04b7278d311587c7ce172", "is_reserved": 0, "lon": -77.06257866666667, "is_disabled": 0, "fusion_lat": 0.0, "lat": 38.90518316666667, "bike_id": "da0872cc12d04b7278d311587c7ce172", "fusion_lon": 0.0}, {"rental_uris": {"ios": "https://dc.lft.to/lastmile_qr_scan", "android": "https://dc.lft.to/lastmile_qr_scan"}, "type": "electric_scooter", "name": "434ba159032468f1554e7e0a5d15c7db", "is_reserved": 0, "lon": -77.0612085, "is_disabled": 0, "fusion_lat": 0.0, "lat": 38.902431666666665, "bike_id": "434ba159032468f1554e7e0a5d15c7db", "fusion_lon": 0.0}, {"rental_uris": {"ios": "https://dc.lft.to/lastmile_qr_scan", "android": "https://dc.lft.to/lastmile_qr_scan"}, "type": "electric_scooter", "name": "b97d1bdb0eb7d3bf2a828a0f706046d2", "is_reserved": 0, "lon": -77.05475066666666, "is_disabled": 0, "fusion_lat": 0.0, "lat": 38.89728016666667, "bike_id": "b97d1bdb0eb7d3bf2a828a0f706046d2", "fusion_lon": 0.0}, {"rental_uris": {"ios": "https://dc.lft.to/lastmile_qr_scan", "android": "https://dc.lft.to/lastmile_qr_scan"}, "type": "electric_scooter", "name": "a2a771f229764bee327f4d09e40ac70e", "is_reserved": 0, "lon": -77.0435345, "is_disabled": 0, "fusion_lat": 0.0, "lat": 38.9105195, "bike_id": "a2a771f229764bee327f4d09e40ac70e", "fusion_lon": 0.0}, {"rental_uris": {"ios": "https://dc.lft.to/lastmile_qr_scan", "android": "https://dc.lft.to/lastmile_qr_scan"}, "type": "electric_scooter", "name": "5f4f5723085fa6e75c4f71e0e11d7541", "is_reserved": 0, "lon": -77.05026716666667, "is_disabled": 0, "fusion_lat": 0.0, "lat": 38.923540833333334, "bike_id": "5f4f5723085fa6e75c4f71e0e11d7541", "fusion_lon": 0.0}, {"rental_uris": {"ios": "https://dc.lft.to/lastmile_qr_scan", "android": "https://dc.lft.to/lastmile_qr_scan"}, "type": "electric_scooter", "name": "e1894711501e09500ffefc55f08dc59c", "is_reserved": 0, "lon": -77.04439566666667, "is_disabled": 0, "fusion_lat": 0.0, "lat": 38.90130583333333, "bike_id": "e1894711501e09500ffefc55f08dc59c", "fusion_lon": 0.0}, {"rental_uris": {"ios": "https://dc.lft.to/lastmile_qr_scan", "android": "https://dc.lft.to/lastmile_qr_scan"}, "type": "electric_scooter", "name": "17057c75320193b265bedc5aeb756072", "is_reserved": 0, "lon": -77.03358516666667, "is_disabled": 0, "fusion_lat": 0.0, "lat": 38.95473616666666, "bike_id": "17057c75320193b265bedc5aeb756072", "fusion_lon": 0.0}, {"rental_uris": {"ios": "https://dc.lft.to/lastmile_qr_scan", "android": "https://dc.lft.to/lastmile_qr_scan"}, "type": "electric_scooter", "name": "353624d6353781cc64e2932eba786c6d", "is_reserved": 0, "lon": -77.0358935, "is_disabled": 0, "fusion_lat": 0.0, "lat": 38.9056875, "bike_id": "353624d6353781cc64e2932eba786c6d", "fusion_lon": 0.0}, {"rental_uris": {"ios": "https://dc.lft.to/lastmile_qr_scan", "android": "https://dc.lft.to/lastmile_qr_scan"}, "type": "electric_scooter", "name": "315f6522dddb54c15e7366768f84a08b", "is_reserved": 0, "lon": -77.03868033333333, "is_disabled": 0, "fusion_lat": 0.0, "lat": 38.911182833333335, "bike_id": "315f6522dddb54c15e7366768f84a08b", "fusion_lon": 0.0}, {"rental_uris": {"ios": "https://dc.lft.to/lastmile_qr_scan", "android": "https://dc.lft.to/lastmile_qr_scan"}, "type": "electric_scooter", "name": "7889f576ed3c750ac084934a94d7da9f", "is_reserved": 0, "lon": -77.021915, "is_disabled": 0, "fusion_lat": 0.0, "lat": 38.89488766666667, "bike_id": "7889f576ed3c750ac084934a94d7da9f", "fusion_lon": 0.0}, {"rental_uris": {"ios": "https://dc.lft.to/lastmile_qr_scan", "android": "https://dc.lft.to/lastmile_qr_scan"}, "type": "electric_scooter", "name": "1c43e4b849cf698fa52beaad4027a37d", "is_reserved": 0, "lon": -77.04807316666667, "is_disabled": 0, "fusion_lat": 0.0, "lat": 38.89764183333333, "bike_id": "1c43e4b849cf698fa52beaad4027a37d", "fusion_lon": 0.0}, {"rental_uris": {"ios": "https://dc.lft.to/lastmile_qr_scan", "android": "https://dc.lft.to/lastmile_qr_scan"}, "type": "electric_scooter", "name": "d2ffe3c552ee3faaf22326e1e6f11fe6", "is_reserved": 0, "lon": -76.94912183333334, "is_disabled": 0, "fusion_lat": 0.0, "lat": 38.89543333333334, "bike_id": "d2ffe3c552ee3faaf22326e1e6f11fe6", "fusion_lon": 0.0}, {"rental_uris": {"ios": "https://dc.lft.to/lastmile_qr_scan", "android": "https://dc.lft.to/lastmile_qr_scan"}, "type": "electric_scooter", "name": "138d711756d843a6639169f27eb7b653", "is_reserved": 0, "lon": -76.99619066666666, "is_disabled": 0, "fusion_lat": 0.0, "lat": 38.887560666666666, "bike_id": "138d711756d843a6639169f27eb7b653", "fusion_lon": 0.0}, {"rental_uris": {"ios": "https://dc.lft.to/lastmile_qr_scan", "android": "https://dc.lft.to/lastmile_qr_scan"}, "type": "electric_scooter", "name": "6d6bed2ee27e59e9db01e24fca688f8e", "is_reserved": 0, "lon": -77.04276416666667, "is_disabled": 0, "fusion_lat": 0.0, "lat": 38.91775783333333, "bike_id": "6d6bed2ee27e59e9db01e24fca688f8e", "fusion_lon": 0.0}, {"rental_uris": {"ios": "https://dc.lft.to/lastmile_qr_scan", "android": "https://dc.lft.to/lastmile_qr_scan"}, "type": "electric_scooter", "name": "841be705fdc5ed331f4f7692dbc21c28", "is_reserved": 0, "lon": -77.03339116666666, "is_disabled": 0, "fusion_lat": 0.0, "lat": 38.9140815, "bike_id": "841be705fdc5ed331f4f7692dbc21c28", "fusion_lon": 0.0}, {"rental_uris": {"ios": "https://dc.lft.to/lastmile_qr_scan", "android": "https://dc.lft.to/lastmile_qr_scan"}, "type": "electric_bike", "name": "cc6ca518c93ca52fe106759d5edb7f3b", "is_reserved": 0, "lon": -77.01084816666666, "is_disabled": 0, "fusion_lat": 0.0, "lat": 38.87162883333333, "bike_id": "cc6ca518c93ca52fe106759d5edb7f3b", "fusion_lon": 0.0}, {"rental_uris": {"ios": "https://dc.lft.to/lastmile_qr_scan", "android": "https://dc.lft.to/lastmile_qr_scan"}, "type": "electric_scooter", "name": "b763b835a62572676dca72d284548ff2", "is_reserved": 0, "lon": -77.01217533333333, "is_disabled": 0, "fusion_lat": 0.0, "lat": 38.9167785, "bike_id": "b763b835a62572676dca72d284548ff2", "fusion_lon": 0.0}, {"rental_uris": {"ios": "https://dc.lft.to/lastmile_qr_scan", "android": "https://dc.lft.to/lastmile_qr_scan"}, "type": "electric_scooter", "name": "59b7b222d5326b4807b4a5e49190934b", "is_reserved": 0, "lon": -77.0323745, "is_disabled": 0, "fusion_lat": 0.0, "lat": 38.915622166666665, "bike_id": "59b7b222d5326b4807b4a5e49190934b", "fusion_lon": 0.0}, {"rental_uris": {"ios": "https://dc.lft.to/lastmile_qr_scan", "android": "https://dc.lft.to/lastmile_qr_scan"}, "type": "electric_scooter", "name": "5a66d4b5a24353309690660460709f23", "is_reserved": 0, "lon": -77.0396345, "is_disabled": 0, "fusion_lat": 0.0, "lat": 38.89233183333333, "bike_id": "5a66d4b5a24353309690660460709f23", "fusion_lon": 0.0}, {"rental_uris": {"ios": "https://dc.lft.to/lastmile_qr_scan", "android": "https://dc.lft.to/lastmile_qr_scan"}, "type": "electric_scooter", "name": "f43b7239a402314fbdbf860a9b40803a", "is_reserved": 0, "lon": -77.0189905, "is_disabled": 0, "fusion_lat": 0.0, "lat": 38.897959666666665, "bike_id": "f43b7239a402314fbdbf860a9b40803a", "fusion_lon": 0.0}, {"rental_uris": {"ios": "https://dc.lft.to/lastmile_qr_scan", "android": "https://dc.lft.to/lastmile_qr_scan"}, "type": "electric_scooter", "name": "d8d372e2ff5da21a1cb7d30d81a5f533", "is_reserved": 0, "lon": -77.0338665, "is_disabled": 0, "fusion_lat": 0.0, "lat": 38.899252833333335, "bike_id": "d8d372e2ff5da21a1cb7d30d81a5f533", "fusion_lon": 0.0}, {"rental_uris": {"ios": "https://dc.lft.to/lastmile_qr_scan", "android": "https://dc.lft.to/lastmile_qr_scan"}, "type": "electric_scooter", "name": "9eafc658c216383f38a9fe48278c894a", "is_reserved": 0, "lon": -77.03290666666666, "is_disabled": 0, "fusion_lat": 0.0, "lat": 38.956283, "bike_id": "9eafc658c216383f38a9fe48278c894a", "fusion_lon": 0.0}, {"rental_uris": {"ios": "https://dc.lft.to/lastmile_qr_scan", "android": "https://dc.lft.to/lastmile_qr_scan"}, "type": "electric_scooter", "name": "057e8a581380184952c66adf79236134", "is_reserved": 0, "lon": -77.02905266666667, "is_disabled": 0, "fusion_lat": 0.0, "lat": 38.94039, "bike_id": "057e8a581380184952c66adf79236134", "fusion_lon": 0.0}, {"rental_uris": {"ios": "https://dc.lft.to/lastmile_qr_scan", "android": "https://dc.lft.to/lastmile_qr_scan"}, "type": "electric_scooter", "name": "9d3b0396847f229c34db041b762a041c", "is_reserved": 0, "lon": -77.024124, "is_disabled": 0, "fusion_lat": 0.0, "lat": 38.909589, "bike_id": "9d3b0396847f229c34db041b762a041c", "fusion_lon": 0.0}, {"rental_uris": {"ios": "https://dc.lft.to/lastmile_qr_scan", "android": "https://dc.lft.to/lastmile_qr_scan"}, "type": "electric_scooter", "name": "b20cab9c70786e9fbc134a859790fa56", "is_reserved": 0, "lon": -76.9959805, "is_disabled": 0, "fusion_lat": 0.0, "lat": 38.88430983333333, "bike_id": "b20cab9c70786e9fbc134a859790fa56", "fusion_lon": 0.0}, {"rental_uris": {"ios": "https://dc.lft.to/lastmile_qr_scan", "android": "https://dc.lft.to/lastmile_qr_scan"}, "type": "electric_scooter", "name": "e63ee918e7837d42b7f5e7ec21f4005d", "is_reserved": 0, "lon": -77.02625866666666, "is_disabled": 0, "fusion_lat": 0.0, "lat": 38.89218966666667, "bike_id": "e63ee918e7837d42b7f5e7ec21f4005d", "fusion_lon": 0.0}, {"rental_uris": {"ios": "https://dc.lft.to/lastmile_qr_scan", "android": "https://dc.lft.to/lastmile_qr_scan"}, "type": "electric_scooter", "name": "cc37c33470f822553a84f26d04c552a6", "is_reserved": 0, "lon": -76.97045916666667, "is_disabled": 0, "fusion_lat": 0.0, "lat": 38.87318366666667, "bike_id": "cc37c33470f822553a84f26d04c552a6", "fusion_lon": 0.0}, {"rental_uris": {"ios": "https://dc.lft.to/lastmile_qr_scan", "android": "https://dc.lft.to/lastmile_qr_scan"}, "type": "electric_scooter", "name": "98b726ed987630be9aead4d8ac0108d3", "is_reserved": 0, "lon": -77.03822433333333, "is_disabled": 0, "fusion_lat": 0.0, "lat": 38.90372083333333, "bike_id": "98b726ed987630be9aead4d8ac0108d3", "fusion_lon": 0.0}, {"rental_uris": {"ios": "https://dc.lft.to/lastmile_qr_scan", "android": "https://dc.lft.to/lastmile_qr_scan"}, "type": "electric_scooter", "name": "b6af2d054b335f06a268bea07f615bd7", "is_reserved": 0, "lon": -77.0132965, "is_disabled": 0, "fusion_lat": 0.0, "lat": 38.91038616666667, "bike_id": "b6af2d054b335f06a268bea07f615bd7", "fusion_lon": 0.0}, {"rental_uris": {"ios": "https://dc.lft.to/lastmile_qr_scan", "android": "https://dc.lft.to/lastmile_qr_scan"}, "type": "electric_bike", "name": "5dcb752508af9b4ce9be53a4df80f148", "is_reserved": 0, "lon": -77.06701383333333, "is_disabled": 0, "fusion_lat": 0.0, "lat": 38.8317005, "bike_id": "5dcb752508af9b4ce9be53a4df80f148", "fusion_lon": 0.0}, {"rental_uris": {"ios": "https://dc.lft.to/lastmile_qr_scan", "android": "https://dc.lft.to/lastmile_qr_scan"}, "type": "electric_scooter", "name": "ceff0ed56c033385765d761f617e97fb", "is_reserved": 0, "lon": -76.99340533333333, "is_disabled": 0, "fusion_lat": 0.0, "lat": 38.881170166666664, "bike_id": "ceff0ed56c033385765d761f617e97fb", "fusion_lon": 0.0}, {"rental_uris": {"ios": "https://dc.lft.to/lastmile_qr_scan", "android": "https://dc.lft.to/lastmile_qr_scan"}, "type": "electric_scooter", "name": "d8675b62ce161be812d7e549ed8d7a28", "is_reserved": 0, "lon": -77.01917366666666, "is_disabled": 0, "fusion_lat": 0.0, "lat": 38.89728183333333, "bike_id": "d8675b62ce161be812d7e549ed8d7a28", "fusion_lon": 0.0}, {"rental_uris": {"ios": "https://dc.lft.to/lastmile_qr_scan", "android": "https://dc.lft.to/lastmile_qr_scan"}, "type": "electric_scooter", "name": "476090f264c3e74b6a479dfaad323795", "is_reserved": 0, "lon": -76.98267866666667, "is_disabled": 0, "fusion_lat": 0.0, "lat": 38.866253, "bike_id": "476090f264c3e74b6a479dfaad323795", "fusion_lon": 0.0}, {"rental_uris": {"ios": "https://dc.lft.to/lastmile_qr_scan", "android": "https://dc.lft.to/lastmile_qr_scan"}, "type": "electric_scooter", "name": "d6e6f6f56c134d02b5f0da2a39c5e08d", "is_reserved": 0, "lon": -77.01858, "is_disabled": 0, "fusion_lat": 0.0, "lat": 38.9488475, "bike_id": "d6e6f6f56c134d02b5f0da2a39c5e08d", "fusion_lon": 0.0}, {"rental_uris": {"ios": "https://dc.lft.to/lastmile_qr_scan", "android": "https://dc.lft.to/lastmile_qr_scan"}, "type": "electric_scooter", "name": "ea22afee62eae2d6f241f2a44ef957cf", "is_reserved": 0, "lon": -77.02045883333334, "is_disabled": 0, "fusion_lat": 0.0, "lat": 38.922421666666665, "bike_id": "ea22afee62eae2d6f241f2a44ef957cf", "fusion_lon": 0.0}, {"rental_uris": {"ios": "https://dc.lft.to/lastmile_qr_scan", "android": "https://dc.lft.to/lastmile_qr_scan"}, "type": "electric_bike", "name": "ca6b39bb02c5622da9183ef7c2be2e34", "is_reserved": 0, "lon": -77.02016116666667, "is_disabled": 0, "fusion_lat": 0.0, "lat": 38.96437066666667, "bike_id": "ca6b39bb02c5622da9183ef7c2be2e34", "fusion_lon": 0.0}, {"rental_uris": {"ios": "https://dc.lft.to/lastmile_qr_scan", "android": "https://dc.lft.to/lastmile_qr_scan"}, "type": "electric_scooter", "name": "81e2413e691e43c30e1fad1e48e12e10", "is_reserved": 0, "lon": -77.0438215, "is_disabled": 0, "fusion_lat": 0.0, "lat": 38.92061183333333, "bike_id": "81e2413e691e43c30e1fad1e48e12e10", "fusion_lon": 0.0}, {"rental_uris": {"ios": "https://dc.lft.to/lastmile_qr_scan", "android": "https://dc.lft.to/lastmile_qr_scan"}, "type": "electric_scooter", "name": "cd856f50b0f819d05c0d9689231ca974", "is_reserved": 0, "lon": -77.0233375, "is_disabled": 0, "fusion_lat": 0.0, "lat": 38.922979, "bike_id": "cd856f50b0f819d05c0d9689231ca974", "fusion_lon": 0.0}, {"rental_uris": {"ios": "https://dc.lft.to/lastmile_qr_scan", "android": "https://dc.lft.to/lastmile_qr_scan"}, "type": "electric_scooter", "name": "a57d469f46b0b71f935543cf24175cac", "is_reserved": 0, "lon": -77.01971433333334, "is_disabled": 0, "fusion_lat": 0.0, "lat": 38.89934866666667, "bike_id": "a57d469f46b0b71f935543cf24175cac", "fusion_lon": 0.0}, {"rental_uris": {"ios": "https://dc.lft.to/lastmile_qr_scan", "android": "https://dc.lft.to/lastmile_qr_scan"}, "type": "electric_scooter", "name": "a620dc4f4a1a95bbf83e71a8a745944b", "is_reserved": 0, "lon": -77.04216083333333, "is_disabled": 0, "fusion_lat": 0.0, "lat": 38.921289, "bike_id": "a620dc4f4a1a95bbf83e71a8a745944b", "fusion_lon": 0.0}, {"rental_uris": {"ios": "https://dc.lft.to/lastmile_qr_scan", "android": "https://dc.lft.to/lastmile_qr_scan"}, "type": "electric_scooter", "name": "3fb42b2bda6904484afc4adfac56088b", "is_reserved": 0, "lon": -77.00105683333334, "is_disabled": 0, "fusion_lat": 0.0, "lat": 38.88122516666667, "bike_id": "3fb42b2bda6904484afc4adfac56088b", "fusion_lon": 0.0}, {"rental_uris": {"ios": "https://dc.lft.to/lastmile_qr_scan", "android": "https://dc.lft.to/lastmile_qr_scan"}, "type": "electric_bike", "name": "411e6c2dca9643193a3f0ab7fc9ad62a", "is_reserved": 0, "lon": -77.0795025, "is_disabled": 0, "fusion_lat": 0.0, "lat": 38.8489895, "bike_id": "411e6c2dca9643193a3f0ab7fc9ad62a", "fusion_lon": 0.0}, {"rental_uris": {"ios": "https://dc.lft.to/lastmile_qr_scan", "android": "https://dc.lft.to/lastmile_qr_scan"}, "type": "electric_scooter", "name": "da5229f87fb323a4bb268bfd18fd21f2", "is_reserved": 0, "lon": -77.026121, "is_disabled": 0, "fusion_lat": 0.0, "lat": 38.897591166666665, "bike_id": "da5229f87fb323a4bb268bfd18fd21f2", "fusion_lon": 0.0}, {"rental_uris": {"ios": "https://dc.lft.to/lastmile_qr_scan", "android": "https://dc.lft.to/lastmile_qr_scan"}, "type": "electric_scooter", "name": "71151f38450d5ed69826c07a400a4ab4", "is_reserved": 0, "lon": -77.017701, "is_disabled": 0, "fusion_lat": 0.0, "lat": 38.90268183333333, "bike_id": "71151f38450d5ed69826c07a400a4ab4", "fusion_lon": 0.0}, {"rental_uris": {"ios": "https://dc.lft.to/lastmile_qr_scan", "android": "https://dc.lft.to/lastmile_qr_scan"}, "type": "electric_scooter", "name": "53b9df34038407258378a0e13bdfe75f", "is_reserved": 0, "lon": -77.024792, "is_disabled": 0, "fusion_lat": 0.0, "lat": 38.918122833333335, "bike_id": "53b9df34038407258378a0e13bdfe75f", "fusion_lon": 0.0}, {"rental_uris": {"ios": "https://dc.lft.to/lastmile_qr_scan", "android": "https://dc.lft.to/lastmile_qr_scan"}, "type": "electric_scooter", "name": "d731f1f3acbacb61ca1478319c3bc9a8", "is_reserved": 0, "lon": -76.99238183333334, "is_disabled": 0, "fusion_lat": 0.0, "lat": 38.88751383333334, "bike_id": "d731f1f3acbacb61ca1478319c3bc9a8", "fusion_lon": 0.0}, {"rental_uris": {"ios": "https://dc.lft.to/lastmile_qr_scan", "android": "https://dc.lft.to/lastmile_qr_scan"}, "type": "electric_scooter", "name": "51a3f4b522cfbc274d6513d61b01ab73", "is_reserved": 0, "lon": -77.021941, "is_disabled": 0, "fusion_lat": 0.0, "lat": 38.9101025, "bike_id": "51a3f4b522cfbc274d6513d61b01ab73", "fusion_lon": 0.0}, {"rental_uris": {"ios": "https://dc.lft.to/lastmile_qr_scan", "android": "https://dc.lft.to/lastmile_qr_scan"}, "type": "electric_scooter", "name": "8afbfaaebb5525e673582d9ed9a5e2e4", "is_reserved": 0, "lon": -77.0220135, "is_disabled": 0, "fusion_lat": 0.0, "lat": 38.9035765, "bike_id": "8afbfaaebb5525e673582d9ed9a5e2e4", "fusion_lon": 0.0}, {"rental_uris": {"ios": "https://dc.lft.to/lastmile_qr_scan", "android": "https://dc.lft.to/lastmile_qr_scan"}, "type": "electric_scooter", "name": "dd221b641e51b3c87ae1cfd4df4aef3f", "is_reserved": 0, "lon": -76.9962505, "is_disabled": 0, "fusion_lat": 0.0, "lat": 38.885253666666664, "bike_id": "dd221b641e51b3c87ae1cfd4df4aef3f", "fusion_lon": 0.0}, {"rental_uris": {"ios": "https://dc.lft.to/lastmile_qr_scan", "android": "https://dc.lft.to/lastmile_qr_scan"}, "type": "electric_bike", "name": "838ac312d66602d936602ccbdfd3cd82", "is_reserved": 0, "lon": -76.90736433333333, "is_disabled": 0, "fusion_lat": 0.0, "lat": 38.89614566666667, "bike_id": "838ac312d66602d936602ccbdfd3cd82", "fusion_lon": 0.0}, {"rental_uris": {"ios": "https://dc.lft.to/lastmile_qr_scan", "android": "https://dc.lft.to/lastmile_qr_scan"}, "type": "electric_scooter", "name": "9a75a93bc57238e9ed1ae20059edcf04", "is_reserved": 0, "lon": -77.0562505, "is_disabled": 0, "fusion_lat": 0.0, "lat": 38.906816, "bike_id": "9a75a93bc57238e9ed1ae20059edcf04", "fusion_lon": 0.0}, {"rental_uris": {"ios": "https://dc.lft.to/lastmile_qr_scan", "android": "https://dc.lft.to/lastmile_qr_scan"}, "type": "electric_scooter", "name": "f07573fe5e5578fb4dd31fa23fbe3fcc", "is_reserved": 0, "lon": -77.02396233333333, "is_disabled": 0, "fusion_lat": 0.0, "lat": 38.9067075, "bike_id": "f07573fe5e5578fb4dd31fa23fbe3fcc", "fusion_lon": 0.0}, {"rental_uris": {"ios": "https://dc.lft.to/lastmile_qr_scan", "android": "https://dc.lft.to/lastmile_qr_scan"}, "type": "electric_scooter", "name": "8a22b2a8ada426a4537c895561806d39", "is_reserved": 0, "lon": -77.053317, "is_disabled": 0, "fusion_lat": 0.0, "lat": 38.90266, "bike_id": "8a22b2a8ada426a4537c895561806d39", "fusion_lon": 0.0}, {"rental_uris": {"ios": "https://dc.lft.to/lastmile_qr_scan", "android": "https://dc.lft.to/lastmile_qr_scan"}, "type": "electric_scooter", "name": "a036881e3692118b31289d771b4b9f5a", "is_reserved": 0, "lon": -77.03174966666667, "is_disabled": 0, "fusion_lat": 0.0, "lat": 38.88737583333333, "bike_id": "a036881e3692118b31289d771b4b9f5a", "fusion_lon": 0.0}, {"rental_uris": {"ios": "https://dc.lft.to/lastmile_qr_scan", "android": "https://dc.lft.to/lastmile_qr_scan"}, "type": "electric_scooter", "name": "ea8c56414327af59c7fcc56601b7ffbe", "is_reserved": 0, "lon": -77.04762583333333, "is_disabled": 0, "fusion_lat": 0.0, "lat": 38.9409705, "bike_id": "ea8c56414327af59c7fcc56601b7ffbe", "fusion_lon": 0.0}, {"rental_uris": {"ios": "https://dc.lft.to/lastmile_qr_scan", "android": "https://dc.lft.to/lastmile_qr_scan"}, "type": "electric_scooter", "name": "232b2400bf0c890b44f2d5e8bfd71b26", "is_reserved": 0, "lon": -77.039898, "is_disabled": 0, "fusion_lat": 0.0, "lat": 38.90286283333333, "bike_id": "232b2400bf0c890b44f2d5e8bfd71b26", "fusion_lon": 0.0}, {"rental_uris": {"ios": "https://dc.lft.to/lastmile_qr_scan", "android": "https://dc.lft.to/lastmile_qr_scan"}, "type": "electric_scooter", "name": "3e98121c0a5b7ae805efaa2c48db22a1", "is_reserved": 0, "lon": -77.0083305, "is_disabled": 0, "fusion_lat": 0.0, "lat": 38.913639833333335, "bike_id": "3e98121c0a5b7ae805efaa2c48db22a1", "fusion_lon": 0.0}, {"rental_uris": {"ios": "https://dc.lft.to/lastmile_qr_scan", "android": "https://dc.lft.to/lastmile_qr_scan"}, "type": "electric_scooter", "name": "13aad60e2c79dfba107baf8c460878b8", "is_reserved": 0, "lon": -77.010208, "is_disabled": 0, "fusion_lat": 0.0, "lat": 38.914029666666664, "bike_id": "13aad60e2c79dfba107baf8c460878b8", "fusion_lon": 0.0}, {"rental_uris": {"ios": "https://dc.lft.to/lastmile_qr_scan", "android": "https://dc.lft.to/lastmile_qr_scan"}, "type": "electric_scooter", "name": "43ed0dbf77347555a0e94595fb4d98b3", "is_reserved": 0, "lon": -77.042382, "is_disabled": 0, "fusion_lat": 0.0, "lat": 38.92187783333333, "bike_id": "43ed0dbf77347555a0e94595fb4d98b3", "fusion_lon": 0.0}, {"rental_uris": {"ios": "https://dc.lft.to/lastmile_qr_scan", "android": "https://dc.lft.to/lastmile_qr_scan"}, "type": "electric_scooter", "name": "ec0940045b7eb7656d3d2c1645b9c04c", "is_reserved": 0, "lon": -77.0135635, "is_disabled": 0, "fusion_lat": 0.0, "lat": 38.919367666666666, "bike_id": "ec0940045b7eb7656d3d2c1645b9c04c", "fusion_lon": 0.0}, {"rental_uris": {"ios": "https://dc.lft.to/lastmile_qr_scan", "android": "https://dc.lft.to/lastmile_qr_scan"}, "type": "electric_scooter", "name": "89eca95907fa783e35fe5ac19fa6b59d", "is_reserved": 0, "lon": -77.03245883333334, "is_disabled": 0, "fusion_lat": 0.0, "lat": 38.931329833333336, "bike_id": "89eca95907fa783e35fe5ac19fa6b59d", "fusion_lon": 0.0}, {"rental_uris": {"ios": "https://dc.lft.to/lastmile_qr_scan", "android": "https://dc.lft.to/lastmile_qr_scan"}, "type": "electric_scooter", "name": "4f09987bdfdbc37d722fe108e0322651", "is_reserved": 0, "lon": -77.0336635, "is_disabled": 0, "fusion_lat": 0.0, "lat": 38.93045733333334, "bike_id": "4f09987bdfdbc37d722fe108e0322651", "fusion_lon": 0.0}, {"rental_uris": {"ios": "https://dc.lft.to/lastmile_qr_scan", "android": "https://dc.lft.to/lastmile_qr_scan"}, "type": "electric_scooter", "name": "0de38c8d72ffd8db4c4ee8b3cd401a78", "is_reserved": 0, "lon": -77.02002716666667, "is_disabled": 0, "fusion_lat": 0.0, "lat": 38.930213, "bike_id": "0de38c8d72ffd8db4c4ee8b3cd401a78", "fusion_lon": 0.0}, {"rental_uris": {"ios": "https://dc.lft.to/lastmile_qr_scan", "android": "https://dc.lft.to/lastmile_qr_scan"}, "type": "electric_scooter", "name": "15de7a6cbfb78f178e12a26825fa65e8", "is_reserved": 0, "lon": -77.03296416666667, "is_disabled": 0, "fusion_lat": 0.0, "lat": 38.924463333333335, "bike_id": "15de7a6cbfb78f178e12a26825fa65e8", "fusion_lon": 0.0}, {"rental_uris": {"ios": "https://dc.lft.to/lastmile_qr_scan", "android": "https://dc.lft.to/lastmile_qr_scan"}, "type": "electric_scooter", "name": "8a98d68f850911f5e147e39f802e1dc4", "is_reserved": 0, "lon": -77.02078183333333, "is_disabled": 0, "fusion_lat": 0.0, "lat": 38.927163166666666, "bike_id": "8a98d68f850911f5e147e39f802e1dc4", "fusion_lon": 0.0}, {"rental_uris": {"ios": "https://dc.lft.to/lastmile_qr_scan", "android": "https://dc.lft.to/lastmile_qr_scan"}, "type": "electric_scooter", "name": "86cfa3dd6b5d69053ab689a0f9de0a56", "is_reserved": 0, "lon": -77.021355, "is_disabled": 0, "fusion_lat": 0.0, "lat": 38.913199666666664, "bike_id": "86cfa3dd6b5d69053ab689a0f9de0a56", "fusion_lon": 0.0}, {"rental_uris": {"ios": "https://dc.lft.to/lastmile_qr_scan", "android": "https://dc.lft.to/lastmile_qr_scan"}, "type": "electric_scooter", "name": "8c0f8bd153565ccf4d422d1aaa76a6b1", "is_reserved": 0, "lon": -76.991547, "is_disabled": 0, "fusion_lat": 0.0, "lat": 38.9003825, "bike_id": "8c0f8bd153565ccf4d422d1aaa76a6b1", "fusion_lon": 0.0}, {"rental_uris": {"ios": "https://dc.lft.to/lastmile_qr_scan", "android": "https://dc.lft.to/lastmile_qr_scan"}, "type": "electric_scooter", "name": "c4bb5e2d59976eb8306f62a982ebab22", "is_reserved": 0, "lon": -77.02228066666666, "is_disabled": 0, "fusion_lat": 0.0, "lat": 38.892201, "bike_id": "c4bb5e2d59976eb8306f62a982ebab22", "fusion_lon": 0.0}, {"rental_uris": {"ios": "https://dc.lft.to/lastmile_qr_scan", "android": "https://dc.lft.to/lastmile_qr_scan"}, "type": "electric_scooter", "name": "b45602ee6ffd12d74ea19a3b1837b66d", "is_reserved": 0, "lon": -77.03465916666667, "is_disabled": 0, "fusion_lat": 0.0, "lat": 38.910200833333334, "bike_id": "b45602ee6ffd12d74ea19a3b1837b66d", "fusion_lon": 0.0}, {"rental_uris": {"ios": "https://dc.lft.to/lastmile_qr_scan", "android": "https://dc.lft.to/lastmile_qr_scan"}, "type": "electric_scooter", "name": "998cd73266fedcbeeb2edd3fc9150f83", "is_reserved": 0, "lon": -77.05601066666667, "is_disabled": 0, "fusion_lat": 0.0, "lat": 38.894222666666664, "bike_id": "998cd73266fedcbeeb2edd3fc9150f83", "fusion_lon": 0.0}, {"rental_uris": {"ios": "https://dc.lft.to/lastmile_qr_scan", "android": "https://dc.lft.to/lastmile_qr_scan"}, "type": "electric_scooter", "name": "0461de271649419a16859c7c28dc5895", "is_reserved": 0, "lon": -77.03698416666667, "is_disabled": 0, "fusion_lat": 0.0, "lat": 38.932812166666665, "bike_id": "0461de271649419a16859c7c28dc5895", "fusion_lon": 0.0}, {"rental_uris": {"ios": "https://dc.lft.to/lastmile_qr_scan", "android": "https://dc.lft.to/lastmile_qr_scan"}, "type": "electric_scooter", "name": "86f667eef7cb7d4639957b31bd70b423", "is_reserved": 0, "lon": -77.002187, "is_disabled": 0, "fusion_lat": 0.0, "lat": 38.9077585, "bike_id": "86f667eef7cb7d4639957b31bd70b423", "fusion_lon": 0.0}, {"rental_uris": {"ios": "https://dc.lft.to/lastmile_qr_scan", "android": "https://dc.lft.to/lastmile_qr_scan"}, "type": "electric_scooter", "name": "89c191e99d2bd5b3fa1554ce2139c89b", "is_reserved": 0, "lon": -77.04947416666667, "is_disabled": 0, "fusion_lat": 0.0, "lat": 38.90514833333334, "bike_id": "89c191e99d2bd5b3fa1554ce2139c89b", "fusion_lon": 0.0}, {"rental_uris": {"ios": "https://dc.lft.to/lastmile_qr_scan", "android": "https://dc.lft.to/lastmile_qr_scan"}, "type": "electric_scooter", "name": "dcce73638d6fcc13792847f3d1d03471", "is_reserved": 0, "lon": -77.03174266666667, "is_disabled": 0, "fusion_lat": 0.0, "lat": 38.90106433333333, "bike_id": "dcce73638d6fcc13792847f3d1d03471", "fusion_lon": 0.0}, {"rental_uris": {"ios": "https://dc.lft.to/lastmile_qr_scan", "android": "https://dc.lft.to/lastmile_qr_scan"}, "type": "electric_scooter", "name": "254907ebcb8e05ff78b69965796139ce", "is_reserved": 0, "lon": -76.928939, "is_disabled": 0, "fusion_lat": 0.0, "lat": 38.87940316666667, "bike_id": "254907ebcb8e05ff78b69965796139ce", "fusion_lon": 0.0}, {"rental_uris": {"ios": "https://dc.lft.to/lastmile_qr_scan", "android": "https://dc.lft.to/lastmile_qr_scan"}, "type": "electric_scooter", "name": "1c7f7a2cb6ac842b5a90c4f3feb169b8", "is_reserved": 0, "lon": -77.00987816666667, "is_disabled": 0, "fusion_lat": 0.0, "lat": 38.905585333333335, "bike_id": "1c7f7a2cb6ac842b5a90c4f3feb169b8", "fusion_lon": 0.0}, {"rental_uris": {"ios": "https://dc.lft.to/lastmile_qr_scan", "android": "https://dc.lft.to/lastmile_qr_scan"}, "type": "electric_scooter", "name": "e0417c4b45d6073a58b306fc66444f98", "is_reserved": 0, "lon": -77.0056085, "is_disabled": 0, "fusion_lat": 0.0, "lat": 38.874685666666664, "bike_id": "e0417c4b45d6073a58b306fc66444f98", "fusion_lon": 0.0}, {"rental_uris": {"ios": "https://dc.lft.to/lastmile_qr_scan", "android": "https://dc.lft.to/lastmile_qr_scan"}, "type": "electric_scooter", "name": "3919c404112ec8ebddbe9ae303470e4b", "is_reserved": 0, "lon": -77.0732745, "is_disabled": 0, "fusion_lat": 0.0, "lat": 38.91363666666667, "bike_id": "3919c404112ec8ebddbe9ae303470e4b", "fusion_lon": 0.0}, {"rental_uris": {"ios": "https://dc.lft.to/lastmile_qr_scan", "android": "https://dc.lft.to/lastmile_qr_scan"}, "type": "electric_scooter", "name": "97d87f6d36affc720267b96628660583", "is_reserved": 0, "lon": -77.03202216666666, "is_disabled": 0, "fusion_lat": 0.0, "lat": 38.919131166666666, "bike_id": "97d87f6d36affc720267b96628660583", "fusion_lon": 0.0}, {"rental_uris": {"ios": "https://dc.lft.to/lastmile_qr_scan", "android": "https://dc.lft.to/lastmile_qr_scan"}, "type": "electric_scooter", "name": "1c7217111887756f29d43329c88fb4b0", "is_reserved": 0, "lon": -77.0415515, "is_disabled": 0, "fusion_lat": 0.0, "lat": 38.9234855, "bike_id": "1c7217111887756f29d43329c88fb4b0", "fusion_lon": 0.0}, {"rental_uris": {"ios": "https://dc.lft.to/lastmile_qr_scan", "android": "https://dc.lft.to/lastmile_qr_scan"}, "type": "electric_scooter", "name": "d8c712bed1d75185ee39d6fcd2553822", "is_reserved": 0, "lon": -77.04505283333333, "is_disabled": 0, "fusion_lat": 0.0, "lat": 38.9001005, "bike_id": "d8c712bed1d75185ee39d6fcd2553822", "fusion_lon": 0.0}, {"rental_uris": {"ios": "https://dc.lft.to/lastmile_qr_scan", "android": "https://dc.lft.to/lastmile_qr_scan"}, "type": "electric_scooter", "name": "fcdfd243e5a926df148a69efd796f28c", "is_reserved": 0, "lon": -77.03068383333333, "is_disabled": 0, "fusion_lat": 0.0, "lat": 38.93464983333333, "bike_id": "fcdfd243e5a926df148a69efd796f28c", "fusion_lon": 0.0}, {"rental_uris": {"ios": "https://dc.lft.to/lastmile_qr_scan", "android": "https://dc.lft.to/lastmile_qr_scan"}, "type": "electric_scooter", "name": "70361b265592d7820e8f1b2a768e9671", "is_reserved": 0, "lon": -77.03468066666667, "is_disabled": 0, "fusion_lat": 0.0, "lat": 38.9073385, "bike_id": "70361b265592d7820e8f1b2a768e9671", "fusion_lon": 0.0}, {"rental_uris": {"ios": "https://dc.lft.to/lastmile_qr_scan", "android": "https://dc.lft.to/lastmile_qr_scan"}, "type": "electric_scooter", "name": "173e97e7673637750d0f3ce586969388", "is_reserved": 0, "lon": -77.0383695, "is_disabled": 0, "fusion_lat": 0.0, "lat": 38.91230483333333, "bike_id": "173e97e7673637750d0f3ce586969388", "fusion_lon": 0.0}, {"rental_uris": {"ios": "https://dc.lft.to/lastmile_qr_scan", "android": "https://dc.lft.to/lastmile_qr_scan"}, "type": "electric_scooter", "name": "c36e01e32a4d3f42bd2eca6ea1be32e1", "is_reserved": 0, "lon": -76.99627083333333, "is_disabled": 0, "fusion_lat": 0.0, "lat": 38.877331, "bike_id": "c36e01e32a4d3f42bd2eca6ea1be32e1", "fusion_lon": 0.0}, {"rental_uris": {"ios": "https://dc.lft.to/lastmile_qr_scan", "android": "https://dc.lft.to/lastmile_qr_scan"}, "type": "electric_bike", "name": "393b9edd773326ae187500985fa9e4cb", "is_reserved": 0, "lon": -76.93328933333333, "is_disabled": 0, "fusion_lat": 0.0, "lat": 38.95149383333333, "bike_id": "393b9edd773326ae187500985fa9e4cb", "fusion_lon": 0.0}, {"rental_uris": {"ios": "https://dc.lft.to/lastmile_qr_scan", "android": "https://dc.lft.to/lastmile_qr_scan"}, "type": "electric_scooter", "name": "4cea131626abafc9778dfae7c07a7ec9", "is_reserved": 0, "lon": -77.0238125, "is_disabled": 0, "fusion_lat": 0.0, "lat": 38.90958, "bike_id": "4cea131626abafc9778dfae7c07a7ec9", "fusion_lon": 0.0}, {"rental_uris": {"ios": "https://dc.lft.to/lastmile_qr_scan", "android": "https://dc.lft.to/lastmile_qr_scan"}, "type": "electric_scooter", "name": "ba8ec355b234cfa60578ff9f6c18007f", "is_reserved": 0, "lon": -77.03650866666666, "is_disabled": 0, "fusion_lat": 0.0, "lat": 38.95595566666667, "bike_id": "ba8ec355b234cfa60578ff9f6c18007f", "fusion_lon": 0.0}, {"rental_uris": {"ios": "https://dc.lft.to/lastmile_qr_scan", "android": "https://dc.lft.to/lastmile_qr_scan"}, "type": "electric_scooter", "name": "95b30fbcdd1d5a2729ebc9af491a4a4f", "is_reserved": 0, "lon": -77.032117, "is_disabled": 0, "fusion_lat": 0.0, "lat": 38.892297, "bike_id": "95b30fbcdd1d5a2729ebc9af491a4a4f", "fusion_lon": 0.0}, {"rental_uris": {"ios": "https://dc.lft.to/lastmile_qr_scan", "android": "https://dc.lft.to/lastmile_qr_scan"}, "type": "electric_scooter", "name": "b37941104414a6fb60b3d94e8dd8c8d4", "is_reserved": 0, "lon": -77.022173, "is_disabled": 0, "fusion_lat": 0.0, "lat": 38.92467366666666, "bike_id": "b37941104414a6fb60b3d94e8dd8c8d4", "fusion_lon": 0.0}, {"rental_uris": {"ios": "https://dc.lft.to/lastmile_qr_scan", "android": "https://dc.lft.to/lastmile_qr_scan"}, "type": "electric_bike", "name": "37f963915f952f1325dd99ac229eb682", "is_reserved": 0, "lon": -77.01590166666666, "is_disabled": 0, "fusion_lat": 0.0, "lat": 38.95272933333333, "bike_id": "37f963915f952f1325dd99ac229eb682", "fusion_lon": 0.0}, {"rental_uris": {"ios": "https://dc.lft.to/lastmile_qr_scan", "android": "https://dc.lft.to/lastmile_qr_scan"}, "type": "electric_scooter", "name": "ea3806e4bf57dd73b1cc7ec33c87f990", "is_reserved": 0, "lon": -76.99564266666667, "is_disabled": 0, "fusion_lat": 0.0, "lat": 38.926659, "bike_id": "ea3806e4bf57dd73b1cc7ec33c87f990", "fusion_lon": 0.0}, {"rental_uris": {"ios": "https://dc.lft.to/lastmile_qr_scan", "android": "https://dc.lft.to/lastmile_qr_scan"}, "type": "electric_scooter", "name": "f4ed71a9c9d2718e35a8d30b555c0760", "is_reserved": 0, "lon": -77.03661366666667, "is_disabled": 0, "fusion_lat": 0.0, "lat": 38.913856333333335, "bike_id": "f4ed71a9c9d2718e35a8d30b555c0760", "fusion_lon": 0.0}, {"rental_uris": {"ios": "https://dc.lft.to/lastmile_qr_scan", "android": "https://dc.lft.to/lastmile_qr_scan"}, "type": "electric_scooter", "name": "aff0657ba709b0dc921df2738100bca4", "is_reserved": 0, "lon": -77.0520675, "is_disabled": 0, "fusion_lat": 0.0, "lat": 38.90272733333333, "bike_id": "aff0657ba709b0dc921df2738100bca4", "fusion_lon": 0.0}, {"rental_uris": {"ios": "https://dc.lft.to/lastmile_qr_scan", "android": "https://dc.lft.to/lastmile_qr_scan"}, "type": "electric_scooter", "name": "9911e177622aad740bd5e09bc618d5ef", "is_reserved": 0, "lon": -77.0561975, "is_disabled": 0, "fusion_lat": 0.0, "lat": 38.92427033333333, "bike_id": "9911e177622aad740bd5e09bc618d5ef", "fusion_lon": 0.0}, {"rental_uris": {"ios": "https://dc.lft.to/lastmile_qr_scan", "android": "https://dc.lft.to/lastmile_qr_scan"}, "type": "electric_scooter", "name": "a6b4a97f9fefe673d3077c0faa526d5e", "is_reserved": 0, "lon": -77.04181183333333, "is_disabled": 0, "fusion_lat": 0.0, "lat": 38.9219965, "bike_id": "a6b4a97f9fefe673d3077c0faa526d5e", "fusion_lon": 0.0}, {"rental_uris": {"ios": "https://dc.lft.to/lastmile_qr_scan", "android": "https://dc.lft.to/lastmile_qr_scan"}, "type": "electric_scooter", "name": "abad770f7d0749b07bdae15a4cb6732b", "is_reserved": 0, "lon": -76.98733516666667, "is_disabled": 0, "fusion_lat": 0.0, "lat": 38.842242166666665, "bike_id": "abad770f7d0749b07bdae15a4cb6732b", "fusion_lon": 0.0}, {"rental_uris": {"ios": "https://dc.lft.to/lastmile_qr_scan", "android": "https://dc.lft.to/lastmile_qr_scan"}, "type": "electric_scooter", "name": "16a7999ac636eaea4325c20ee6d57062", "is_reserved": 0, "lon": -77.04044366666666, "is_disabled": 0, "fusion_lat": 0.0, "lat": 38.918692, "bike_id": "16a7999ac636eaea4325c20ee6d57062", "fusion_lon": 0.0}, {"rental_uris": {"ios": "https://dc.lft.to/lastmile_qr_scan", "android": "https://dc.lft.to/lastmile_qr_scan"}, "type": "electric_scooter", "name": "e23d17b9852a5816c19092dde2a4ad87", "is_reserved": 0, "lon": -77.0587715, "is_disabled": 0, "fusion_lat": 0.0, "lat": 38.942447333333334, "bike_id": "e23d17b9852a5816c19092dde2a4ad87", "fusion_lon": 0.0}, {"rental_uris": {"ios": "https://dc.lft.to/lastmile_qr_scan", "android": "https://dc.lft.to/lastmile_qr_scan"}, "type": "electric_scooter", "name": "2d3d3df9c3192b382f5d13969e68fcb2", "is_reserved": 0, "lon": -76.92920366666667, "is_disabled": 0, "fusion_lat": 0.0, "lat": 38.886571333333336, "bike_id": "2d3d3df9c3192b382f5d13969e68fcb2", "fusion_lon": 0.0}, {"rental_uris": {"ios": "https://dc.lft.to/lastmile_qr_scan", "android": "https://dc.lft.to/lastmile_qr_scan"}, "type": "electric_scooter", "name": "451992785b0a4f46a91fbb7d508e336e", "is_reserved": 0, "lon": -76.99163216666666, "is_disabled": 0, "fusion_lat": 0.0, "lat": 38.9003835, "bike_id": "451992785b0a4f46a91fbb7d508e336e", "fusion_lon": 0.0}, {"rental_uris": {"ios": "https://dc.lft.to/lastmile_qr_scan", "android": "https://dc.lft.to/lastmile_qr_scan"}, "type": "electric_scooter", "name": "9e112c9a50d405759e8e6543e2e888ce", "is_reserved": 0, "lon": -77.0300075, "is_disabled": 0, "fusion_lat": 0.0, "lat": 38.916967, "bike_id": "9e112c9a50d405759e8e6543e2e888ce", "fusion_lon": 0.0}, {"rental_uris": {"ios": "https://dc.lft.to/lastmile_qr_scan", "android": "https://dc.lft.to/lastmile_qr_scan"}, "type": "electric_scooter", "name": "53fc5699a6148b0e6a30aa41a1e64cef", "is_reserved": 0, "lon": -77.02102483333333, "is_disabled": 0, "fusion_lat": 0.0, "lat": 38.966732, "bike_id": "53fc5699a6148b0e6a30aa41a1e64cef", "fusion_lon": 0.0}, {"rental_uris": {"ios": "https://dc.lft.to/lastmile_qr_scan", "android": "https://dc.lft.to/lastmile_qr_scan"}, "type": "electric_scooter", "name": "f99fba71dfebb408117a9113d5628a1a", "is_reserved": 0, "lon": -76.99031016666666, "is_disabled": 0, "fusion_lat": 0.0, "lat": 38.88876116666667, "bike_id": "f99fba71dfebb408117a9113d5628a1a", "fusion_lon": 0.0}, {"rental_uris": {"ios": "https://dc.lft.to/lastmile_qr_scan", "android": "https://dc.lft.to/lastmile_qr_scan"}, "type": "electric_scooter", "name": "cd609da07ba1fb96007490d9ae29d0bf", "is_reserved": 0, "lon": -77.04162183333334, "is_disabled": 0, "fusion_lat": 0.0, "lat": 38.9184305, "bike_id": "cd609da07ba1fb96007490d9ae29d0bf", "fusion_lon": 0.0}, {"rental_uris": {"ios": "https://dc.lft.to/lastmile_qr_scan", "android": "https://dc.lft.to/lastmile_qr_scan"}, "type": "electric_scooter", "name": "2d5bc5d9f208487f8a3e5c40526342e3", "is_reserved": 0, "lon": -77.0075075, "is_disabled": 0, "fusion_lat": 0.0, "lat": 38.91120933333333, "bike_id": "2d5bc5d9f208487f8a3e5c40526342e3", "fusion_lon": 0.0}, {"rental_uris": {"ios": "https://dc.lft.to/lastmile_qr_scan", "android": "https://dc.lft.to/lastmile_qr_scan"}, "type": "electric_scooter", "name": "6f8c24a1246008f618f2184bef5854ab", "is_reserved": 0, "lon": -76.9882315, "is_disabled": 0, "fusion_lat": 0.0, "lat": 38.900179333333334, "bike_id": "6f8c24a1246008f618f2184bef5854ab", "fusion_lon": 0.0}, {"rental_uris": {"ios": "https://dc.lft.to/lastmile_qr_scan", "android": "https://dc.lft.to/lastmile_qr_scan"}, "type": "electric_scooter", "name": "d2bbe93aedb615a30824c85dde42e0bc", "is_reserved": 0, "lon": -76.98543466666666, "is_disabled": 0, "fusion_lat": 0.0, "lat": 38.91455583333333, "bike_id": "d2bbe93aedb615a30824c85dde42e0bc", "fusion_lon": 0.0}, {"rental_uris": {"ios": "https://dc.lft.to/lastmile_qr_scan", "android": "https://dc.lft.to/lastmile_qr_scan"}, "type": "electric_bike", "name": "2d17745f196c9ad18431e60aae403771", "is_reserved": 0, "lon": -76.99367833333334, "is_disabled": 0, "fusion_lat": 0.0, "lat": 38.92728733333333, "bike_id": "2d17745f196c9ad18431e60aae403771", "fusion_lon": 0.0}, {"rental_uris": {"ios": "https://dc.lft.to/lastmile_qr_scan", "android": "https://dc.lft.to/lastmile_qr_scan"}, "type": "electric_bike", "name": "df787251d2057d4bb02005434f61db17", "is_reserved": 0, "lon": -77.01917116666667, "is_disabled": 0, "fusion_lat": 0.0, "lat": 38.97677133333333, "bike_id": "df787251d2057d4bb02005434f61db17", "fusion_lon": 0.0}, {"rental_uris": {"ios": "https://dc.lft.to/lastmile_qr_scan", "android": "https://dc.lft.to/lastmile_qr_scan"}, "type": "electric_scooter", "name": "c4a679f82c321f6b2ccc1b1ce8d421b7", "is_reserved": 0, "lon": -77.02404083333333, "is_disabled": 0, "fusion_lat": 0.0, "lat": 38.917137, "bike_id": "c4a679f82c321f6b2ccc1b1ce8d421b7", "fusion_lon": 0.0}, {"rental_uris": {"ios": "https://dc.lft.to/lastmile_qr_scan", "android": "https://dc.lft.to/lastmile_qr_scan"}, "type": "electric_scooter", "name": "7514664b787d9ba23e8aa04858684564", "is_reserved": 0, "lon": -77.02738516666666, "is_disabled": 0, "fusion_lat": 0.0, "lat": 38.91704133333333, "bike_id": "7514664b787d9ba23e8aa04858684564", "fusion_lon": 0.0}, {"rental_uris": {"ios": "https://dc.lft.to/lastmile_qr_scan", "android": "https://dc.lft.to/lastmile_qr_scan"}, "type": "electric_scooter", "name": "7de7577d9bb5885b6bd695444fa9a2cf", "is_reserved": 0, "lon": -77.03623816666666, "is_disabled": 0, "fusion_lat": 0.0, "lat": 38.9428945, "bike_id": "7de7577d9bb5885b6bd695444fa9a2cf", "fusion_lon": 0.0}, {"rental_uris": {"ios": "https://dc.lft.to/lastmile_qr_scan", "android": "https://dc.lft.to/lastmile_qr_scan"}, "type": "electric_scooter", "name": "116e17d643eac2b080f242c6a9382a6c", "is_reserved": 0, "lon": -77.03464866666667, "is_disabled": 0, "fusion_lat": 0.0, "lat": 38.92041666666667, "bike_id": "116e17d643eac2b080f242c6a9382a6c", "fusion_lon": 0.0}, {"rental_uris": {"ios": "https://dc.lft.to/lastmile_qr_scan", "android": "https://dc.lft.to/lastmile_qr_scan"}, "type": "electric_scooter", "name": "07a46a812886d799b9668cf9e7e0be4c", "is_reserved": 0, "lon": -77.02648833333333, "is_disabled": 0, "fusion_lat": 0.0, "lat": 38.896407833333335, "bike_id": "07a46a812886d799b9668cf9e7e0be4c", "fusion_lon": 0.0}, {"rental_uris": {"ios": "https://dc.lft.to/lastmile_qr_scan", "android": "https://dc.lft.to/lastmile_qr_scan"}, "type": "electric_bike", "name": "31a66c7f6bd0eb85b00a9b8b3c2d1a27", "is_reserved": 0, "lon": -77.0207035, "is_disabled": 0, "fusion_lat": 0.0, "lat": 38.96438216666667, "bike_id": "31a66c7f6bd0eb85b00a9b8b3c2d1a27", "fusion_lon": 0.0}, {"rental_uris": {"ios": "https://dc.lft.to/lastmile_qr_scan", "android": "https://dc.lft.to/lastmile_qr_scan"}, "type": "electric_bike", "name": "fe38b05c7cea10aa2677a41ae660ced2", "is_reserved": 0, "lon": -77.01272183333333, "is_disabled": 0, "fusion_lat": 0.0, "lat": 38.8695455, "bike_id": "fe38b05c7cea10aa2677a41ae660ced2", "fusion_lon": 0.0}, {"rental_uris": {"ios": "https://dc.lft.to/lastmile_qr_scan", "android": "https://dc.lft.to/lastmile_qr_scan"}, "type": "electric_scooter", "name": "d4aff132b0a587ccf4ef5fe952643d77", "is_reserved": 0, "lon": -77.03084916666667, "is_disabled": 0, "fusion_lat": 0.0, "lat": 38.92252966666667, "bike_id": "d4aff132b0a587ccf4ef5fe952643d77", "fusion_lon": 0.0}, {"rental_uris": {"ios": "https://dc.lft.to/lastmile_qr_scan", "android": "https://dc.lft.to/lastmile_qr_scan"}, "type": "electric_scooter", "name": "90a70631778f8bca1c5def2f24159a0e", "is_reserved": 0, "lon": -77.04409533333333, "is_disabled": 0, "fusion_lat": 0.0, "lat": 38.929472833333335, "bike_id": "90a70631778f8bca1c5def2f24159a0e", "fusion_lon": 0.0}, {"rental_uris": {"ios": "https://dc.lft.to/lastmile_qr_scan", "android": "https://dc.lft.to/lastmile_qr_scan"}, "type": "electric_scooter", "name": "39916900ecc9efbd9f8f77d0413ffa0f", "is_reserved": 0, "lon": -77.013647, "is_disabled": 0, "fusion_lat": 0.0, "lat": 38.89592866666667, "bike_id": "39916900ecc9efbd9f8f77d0413ffa0f", "fusion_lon": 0.0}, {"rental_uris": {"ios": "https://dc.lft.to/lastmile_qr_scan", "android": "https://dc.lft.to/lastmile_qr_scan"}, "type": "electric_scooter", "name": "50d49a3067b11f3823d8bd29232aa918", "is_reserved": 0, "lon": -77.049403, "is_disabled": 0, "fusion_lat": 0.0, "lat": 38.899612166666664, "bike_id": "50d49a3067b11f3823d8bd29232aa918", "fusion_lon": 0.0}, {"rental_uris": {"ios": "https://dc.lft.to/lastmile_qr_scan", "android": "https://dc.lft.to/lastmile_qr_scan"}, "type": "electric_scooter", "name": "42e6ec6786946d5fece879d6dabf97d4", "is_reserved": 0, "lon": -77.04281416666667, "is_disabled": 0, "fusion_lat": 0.0, "lat": 38.904271, "bike_id": "42e6ec6786946d5fece879d6dabf97d4", "fusion_lon": 0.0}, {"rental_uris": {"ios": "https://dc.lft.to/lastmile_qr_scan", "android": "https://dc.lft.to/lastmile_qr_scan"}, "type": "electric_scooter", "name": "d0de439a4b13382f4be19918b255568d", "is_reserved": 0, "lon": -76.99929333333333, "is_disabled": 0, "fusion_lat": 0.0, "lat": 38.95758883333333, "bike_id": "d0de439a4b13382f4be19918b255568d", "fusion_lon": 0.0}, {"rental_uris": {"ios": "https://dc.lft.to/lastmile_qr_scan", "android": "https://dc.lft.to/lastmile_qr_scan"}, "type": "electric_scooter", "name": "1ce96435bfea60bd79f9111350d666d4", "is_reserved": 0, "lon": -77.00781883333333, "is_disabled": 0, "fusion_lat": 0.0, "lat": 38.897322333333335, "bike_id": "1ce96435bfea60bd79f9111350d666d4", "fusion_lon": 0.0}, {"rental_uris": {"ios": "https://dc.lft.to/lastmile_qr_scan", "android": "https://dc.lft.to/lastmile_qr_scan"}, "type": "electric_bike", "name": "e6893f8e9ccb98f9f776d3c57658a2db", "is_reserved": 0, "lon": -76.9967515, "is_disabled": 0, "fusion_lat": 0.0, "lat": 38.932433, "bike_id": "e6893f8e9ccb98f9f776d3c57658a2db", "fusion_lon": 0.0}, {"rental_uris": {"ios": "https://dc.lft.to/lastmile_qr_scan", "android": "https://dc.lft.to/lastmile_qr_scan"}, "type": "electric_scooter", "name": "ea106ce3f44509e0f9f98e7ac8d2a7ef", "is_reserved": 0, "lon": -76.95192816666666, "is_disabled": 0, "fusion_lat": 0.0, "lat": 38.90507983333333, "bike_id": "ea106ce3f44509e0f9f98e7ac8d2a7ef", "fusion_lon": 0.0}, {"rental_uris": {"ios": "https://dc.lft.to/lastmile_qr_scan", "android": "https://dc.lft.to/lastmile_qr_scan"}, "type": "electric_bike", "name": "6405c7c9dc2b41afa5b0a9395674848f", "is_reserved": 0, "lon": -77.1268935, "is_disabled": 0, "fusion_lat": 0.0, "lat": 38.895608333333335, "bike_id": "6405c7c9dc2b41afa5b0a9395674848f", "fusion_lon": 0.0}, {"rental_uris": {"ios": "https://dc.lft.to/lastmile_qr_scan", "android": "https://dc.lft.to/lastmile_qr_scan"}, "type": "electric_scooter", "name": "b3423e0355d7f09a4752a133726d6fa4", "is_reserved": 0, "lon": -77.02068883333334, "is_disabled": 0, "fusion_lat": 0.0, "lat": 38.923912333333334, "bike_id": "b3423e0355d7f09a4752a133726d6fa4", "fusion_lon": 0.0}, {"rental_uris": {"ios": "https://dc.lft.to/lastmile_qr_scan", "android": "https://dc.lft.to/lastmile_qr_scan"}, "type": "electric_scooter", "name": "dd9dbbd047aa586f9c5f5a5c1b8d2724", "is_reserved": 0, "lon": -77.02937283333333, "is_disabled": 0, "fusion_lat": 0.0, "lat": 38.89986016666667, "bike_id": "dd9dbbd047aa586f9c5f5a5c1b8d2724", "fusion_lon": 0.0}, {"rental_uris": {"ios": "https://dc.lft.to/lastmile_qr_scan", "android": "https://dc.lft.to/lastmile_qr_scan"}, "type": "electric_scooter", "name": "681a504add55f099f9b93a0230785fa9", "is_reserved": 0, "lon": -77.034802, "is_disabled": 0, "fusion_lat": 0.0, "lat": 38.907956166666665, "bike_id": "681a504add55f099f9b93a0230785fa9", "fusion_lon": 0.0}, {"rental_uris": {"ios": "https://dc.lft.to/lastmile_qr_scan", "android": "https://dc.lft.to/lastmile_qr_scan"}, "type": "electric_scooter", "name": "02d2ef8f5fd95d670a3c9726909bf64a", "is_reserved": 0, "lon": -77.046728, "is_disabled": 0, "fusion_lat": 0.0, "lat": 38.89280133333333, "bike_id": "02d2ef8f5fd95d670a3c9726909bf64a", "fusion_lon": 0.0}, {"rental_uris": {"ios": "https://dc.lft.to/lastmile_qr_scan", "android": "https://dc.lft.to/lastmile_qr_scan"}, "type": "electric_scooter", "name": "ae1b501d1aafa9f4335cd96112b26078", "is_reserved": 0, "lon": -77.05122883333334, "is_disabled": 0, "fusion_lat": 0.0, "lat": 38.9252845, "bike_id": "ae1b501d1aafa9f4335cd96112b26078", "fusion_lon": 0.0}, {"rental_uris": {"ios": "https://dc.lft.to/lastmile_qr_scan", "android": "https://dc.lft.to/lastmile_qr_scan"}, "type": "electric_bike", "name": "941297066e7fcdfe7d926a656832f796", "is_reserved": 0, "lon": -76.99925316666666, "is_disabled": 0, "fusion_lat": 0.0, "lat": 38.9946675, "bike_id": "941297066e7fcdfe7d926a656832f796", "fusion_lon": 0.0}, {"rental_uris": {"ios": "https://dc.lft.to/lastmile_qr_scan", "android": "https://dc.lft.to/lastmile_qr_scan"}, "type": "electric_scooter", "name": "589d8d07bfdaf37229a760cec8cb5000", "is_reserved": 0, "lon": -77.02314583333333, "is_disabled": 0, "fusion_lat": 0.0, "lat": 38.91788866666667, "bike_id": "589d8d07bfdaf37229a760cec8cb5000", "fusion_lon": 0.0}, {"rental_uris": {"ios": "https://dc.lft.to/lastmile_qr_scan", "android": "https://dc.lft.to/lastmile_qr_scan"}, "type": "electric_scooter", "name": "d14b035aff2ccb492e60c0f560fb75fe", "is_reserved": 0, "lon": -77.0394995, "is_disabled": 0, "fusion_lat": 0.0, "lat": 38.89231616666667, "bike_id": "d14b035aff2ccb492e60c0f560fb75fe", "fusion_lon": 0.0}, {"rental_uris": {"ios": "https://dc.lft.to/lastmile_qr_scan", "android": "https://dc.lft.to/lastmile_qr_scan"}, "type": "electric_bike", "name": "0ff9665064819af8f7be39730f57e98c", "is_reserved": 0, "lon": -77.05519616666666, "is_disabled": 0, "fusion_lat": 0.0, "lat": 38.944114666666664, "bike_id": "0ff9665064819af8f7be39730f57e98c", "fusion_lon": 0.0}, {"rental_uris": {"ios": "https://dc.lft.to/lastmile_qr_scan", "android": "https://dc.lft.to/lastmile_qr_scan"}, "type": "electric_scooter", "name": "ad7b82a4cb47f5b6af02ad46281f6fd4", "is_reserved": 0, "lon": -77.0447545, "is_disabled": 0, "fusion_lat": 0.0, "lat": 38.922881333333336, "bike_id": "ad7b82a4cb47f5b6af02ad46281f6fd4", "fusion_lon": 0.0}, {"rental_uris": {"ios": "https://dc.lft.to/lastmile_qr_scan", "android": "https://dc.lft.to/lastmile_qr_scan"}, "type": "electric_scooter", "name": "92c862a66b03319479628decd999d4b5", "is_reserved": 0, "lon": -77.0141585, "is_disabled": 0, "fusion_lat": 0.0, "lat": 38.91322616666667, "bike_id": "92c862a66b03319479628decd999d4b5", "fusion_lon": 0.0}, {"rental_uris": {"ios": "https://dc.lft.to/lastmile_qr_scan", "android": "https://dc.lft.to/lastmile_qr_scan"}, "type": "electric_scooter", "name": "202d31851d1283d94a97fabbadd948c5", "is_reserved": 0, "lon": -77.02916233333333, "is_disabled": 0, "fusion_lat": 0.0, "lat": 38.94433216666667, "bike_id": "202d31851d1283d94a97fabbadd948c5", "fusion_lon": 0.0}, {"rental_uris": {"ios": "https://dc.lft.to/lastmile_qr_scan", "android": "https://dc.lft.to/lastmile_qr_scan"}, "type": "electric_scooter", "name": "9eb09e33f70cbb2ae55d3af92a227ecf", "is_reserved": 0, "lon": -77.0393055, "is_disabled": 0, "fusion_lat": 0.0, "lat": 38.90076166666667, "bike_id": "9eb09e33f70cbb2ae55d3af92a227ecf", "fusion_lon": 0.0}, {"rental_uris": {"ios": "https://dc.lft.to/lastmile_qr_scan", "android": "https://dc.lft.to/lastmile_qr_scan"}, "type": "electric_scooter", "name": "a957fbf19d98d31e42e033714759963b", "is_reserved": 0, "lon": -77.00238916666666, "is_disabled": 0, "fusion_lat": 0.0, "lat": 38.940833833333336, "bike_id": "a957fbf19d98d31e42e033714759963b", "fusion_lon": 0.0}, {"rental_uris": {"ios": "https://dc.lft.to/lastmile_qr_scan", "android": "https://dc.lft.to/lastmile_qr_scan"}, "type": "electric_scooter", "name": "24edc945a710964137eb7a52620de5a1", "is_reserved": 0, "lon": -77.0661125, "is_disabled": 0, "fusion_lat": 0.0, "lat": 38.91103783333333, "bike_id": "24edc945a710964137eb7a52620de5a1", "fusion_lon": 0.0}, {"rental_uris": {"ios": "https://dc.lft.to/lastmile_qr_scan", "android": "https://dc.lft.to/lastmile_qr_scan"}, "type": "electric_scooter", "name": "18aa346bf3d1c12d2f74138f47a9c552", "is_reserved": 0, "lon": -77.03697266666667, "is_disabled": 0, "fusion_lat": 0.0, "lat": 38.92650233333333, "bike_id": "18aa346bf3d1c12d2f74138f47a9c552", "fusion_lon": 0.0}, {"rental_uris": {"ios": "https://dc.lft.to/lastmile_qr_scan", "android": "https://dc.lft.to/lastmile_qr_scan"}, "type": "electric_bike", "name": "d40a1adf2c4ae13a07be62752ee383d9", "is_reserved": 0, "lon": -77.12657483333334, "is_disabled": 0, "fusion_lat": 0.0, "lat": 38.81909916666667, "bike_id": "d40a1adf2c4ae13a07be62752ee383d9", "fusion_lon": 0.0}, {"rental_uris": {"ios": "https://dc.lft.to/lastmile_qr_scan", "android": "https://dc.lft.to/lastmile_qr_scan"}, "type": "electric_bike", "name": "7e0dfc0513d5e7e90735d08beb4fb6d2", "is_reserved": 0, "lon": -77.0853265, "is_disabled": 0, "fusion_lat": 0.0, "lat": 38.856464333333335, "bike_id": "7e0dfc0513d5e7e90735d08beb4fb6d2", "fusion_lon": 0.0}, {"rental_uris": {"ios": "https://dc.lft.to/lastmile_qr_scan", "android": "https://dc.lft.to/lastmile_qr_scan"}, "type": "electric_scooter", "name": "c42db3a998d3e2ecdf507b5707aacfc9", "is_reserved": 0, "lon": -77.04157533333333, "is_disabled": 0, "fusion_lat": 0.0, "lat": 38.901443666666665, "bike_id": "c42db3a998d3e2ecdf507b5707aacfc9", "fusion_lon": 0.0}, {"rental_uris": {"ios": "https://dc.lft.to/lastmile_qr_scan", "android": "https://dc.lft.to/lastmile_qr_scan"}, "type": "electric_scooter", "name": "677a14a5dab3339ee731ea0a3ed0b9c7", "is_reserved": 0, "lon": -77.01947683333333, "is_disabled": 0, "fusion_lat": 0.0, "lat": 38.92418166666667, "bike_id": "677a14a5dab3339ee731ea0a3ed0b9c7", "fusion_lon": 0.0}, {"rental_uris": {"ios": "https://dc.lft.to/lastmile_qr_scan", "android": "https://dc.lft.to/lastmile_qr_scan"}, "type": "electric_scooter", "name": "b13266560961c63bc3f675d9f5eb9e4a", "is_reserved": 0, "lon": -77.04869816666667, "is_disabled": 0, "fusion_lat": 0.0, "lat": 38.892198, "bike_id": "b13266560961c63bc3f675d9f5eb9e4a", "fusion_lon": 0.0}, {"rental_uris": {"ios": "https://dc.lft.to/lastmile_qr_scan", "android": "https://dc.lft.to/lastmile_qr_scan"}, "type": "electric_scooter", "name": "023c76f3fa8fc1778f84f7f6a3b2f581", "is_reserved": 0, "lon": -77.03849333333334, "is_disabled": 0, "fusion_lat": 0.0, "lat": 38.932490666666666, "bike_id": "023c76f3fa8fc1778f84f7f6a3b2f581", "fusion_lon": 0.0}, {"rental_uris": {"ios": "https://dc.lft.to/lastmile_qr_scan", "android": "https://dc.lft.to/lastmile_qr_scan"}, "type": "electric_scooter", "name": "4d950c063b8f4d3e3989b3cffdddbda0", "is_reserved": 0, "lon": -77.04507966666667, "is_disabled": 0, "fusion_lat": 0.0, "lat": 38.9050395, "bike_id": "4d950c063b8f4d3e3989b3cffdddbda0", "fusion_lon": 0.0}, {"rental_uris": {"ios": "https://dc.lft.to/lastmile_qr_scan", "android": "https://dc.lft.to/lastmile_qr_scan"}, "type": "electric_scooter", "name": "559165d0976bf682c1e114fa859ab7b8", "is_reserved": 0, "lon": -77.09038183333334, "is_disabled": 0, "fusion_lat": 0.0, "lat": 38.956027166666665, "bike_id": "559165d0976bf682c1e114fa859ab7b8", "fusion_lon": 0.0}, {"rental_uris": {"ios": "https://dc.lft.to/lastmile_qr_scan", "android": "https://dc.lft.to/lastmile_qr_scan"}, "type": "electric_scooter", "name": "485a0e1c6a984c409f5be88c2a955388", "is_reserved": 0, "lon": -76.96976533333333, "is_disabled": 0, "fusion_lat": 0.0, "lat": 38.86143, "bike_id": "485a0e1c6a984c409f5be88c2a955388", "fusion_lon": 0.0}, {"rental_uris": {"ios": "https://dc.lft.to/lastmile_qr_scan", "android": "https://dc.lft.to/lastmile_qr_scan"}, "type": "electric_scooter", "name": "dae550b2c732585c0a32aa1c69695441", "is_reserved": 0, "lon": -77.03420483333333, "is_disabled": 0, "fusion_lat": 0.0, "lat": 38.92202066666667, "bike_id": "dae550b2c732585c0a32aa1c69695441", "fusion_lon": 0.0}, {"rental_uris": {"ios": "https://dc.lft.to/lastmile_qr_scan", "android": "https://dc.lft.to/lastmile_qr_scan"}, "type": "electric_scooter", "name": "1fddef4d71c0fc48e4def83b5c0a0b9d", "is_reserved": 0, "lon": -77.03382983333333, "is_disabled": 0, "fusion_lat": 0.0, "lat": 38.89917783333333, "bike_id": "1fddef4d71c0fc48e4def83b5c0a0b9d", "fusion_lon": 0.0}, {"rental_uris": {"ios": "https://dc.lft.to/lastmile_qr_scan", "android": "https://dc.lft.to/lastmile_qr_scan"}, "type": "electric_scooter", "name": "c0194d2d0ffb25642e2d0c1040670a9e", "is_reserved": 0, "lon": -76.96545733333333, "is_disabled": 0, "fusion_lat": 0.0, "lat": 38.8788785, "bike_id": "c0194d2d0ffb25642e2d0c1040670a9e", "fusion_lon": 0.0}, {"rental_uris": {"ios": "https://dc.lft.to/lastmile_qr_scan", "android": "https://dc.lft.to/lastmile_qr_scan"}, "type": "electric_scooter", "name": "8f4c10368047bf5f44f1a42751c756eb", "is_reserved": 0, "lon": -77.0049865, "is_disabled": 0, "fusion_lat": 0.0, "lat": 38.879254333333336, "bike_id": "8f4c10368047bf5f44f1a42751c756eb", "fusion_lon": 0.0}, {"rental_uris": {"ios": "https://dc.lft.to/lastmile_qr_scan", "android": "https://dc.lft.to/lastmile_qr_scan"}, "type": "electric_scooter", "name": "f8e73bdad84d63ffa591d6ea6f75b98e", "is_reserved": 0, "lon": -77.03642183333334, "is_disabled": 0, "fusion_lat": 0.0, "lat": 38.9201785, "bike_id": "f8e73bdad84d63ffa591d6ea6f75b98e", "fusion_lon": 0.0}, {"rental_uris": {"ios": "https://dc.lft.to/lastmile_qr_scan", "android": "https://dc.lft.to/lastmile_qr_scan"}, "type": "electric_scooter", "name": "2e1a150467bf5369688aaa225cf012d7", "is_reserved": 0, "lon": -77.04659, "is_disabled": 0, "fusion_lat": 0.0, "lat": 38.91050383333334, "bike_id": "2e1a150467bf5369688aaa225cf012d7", "fusion_lon": 0.0}, {"rental_uris": {"ios": "https://dc.lft.to/lastmile_qr_scan", "android": "https://dc.lft.to/lastmile_qr_scan"}, "type": "electric_scooter", "name": "e067d9bc348462174f185a20c259abf6", "is_reserved": 0, "lon": -77.02957616666667, "is_disabled": 0, "fusion_lat": 0.0, "lat": 38.9169945, "bike_id": "e067d9bc348462174f185a20c259abf6", "fusion_lon": 0.0}, {"rental_uris": {"ios": "https://dc.lft.to/lastmile_qr_scan", "android": "https://dc.lft.to/lastmile_qr_scan"}, "type": "electric_bike", "name": "6e09e22eaccc148185127056f0abf15e", "is_reserved": 0, "lon": -77.08368566666667, "is_disabled": 0, "fusion_lat": 0.0, "lat": 38.8541565, "bike_id": "6e09e22eaccc148185127056f0abf15e", "fusion_lon": 0.0}, {"rental_uris": {"ios": "https://dc.lft.to/lastmile_qr_scan", "android": "https://dc.lft.to/lastmile_qr_scan"}, "type": "electric_scooter", "name": "dc061582e309919875f3b7a5b9ccc76c", "is_reserved": 0, "lon": -77.04627483333333, "is_disabled": 0, "fusion_lat": 0.0, "lat": 38.91908033333333, "bike_id": "dc061582e309919875f3b7a5b9ccc76c", "fusion_lon": 0.0}, {"rental_uris": {"ios": "https://dc.lft.to/lastmile_qr_scan", "android": "https://dc.lft.to/lastmile_qr_scan"}, "type": "electric_scooter", "name": "2290e4ed2738d7ee4089454690479021", "is_reserved": 0, "lon": -77.04686183333334, "is_disabled": 0, "fusion_lat": 0.0, "lat": 38.892218166666666, "bike_id": "2290e4ed2738d7ee4089454690479021", "fusion_lon": 0.0}, {"rental_uris": {"ios": "https://dc.lft.to/lastmile_qr_scan", "android": "https://dc.lft.to/lastmile_qr_scan"}, "type": "electric_scooter", "name": "ac28a903194ccfef0103d6ea3b8cff50", "is_reserved": 0, "lon": -76.997416, "is_disabled": 0, "fusion_lat": 0.0, "lat": 38.92035716666667, "bike_id": "ac28a903194ccfef0103d6ea3b8cff50", "fusion_lon": 0.0}, {"rental_uris": {"ios": "https://dc.lft.to/lastmile_qr_scan", "android": "https://dc.lft.to/lastmile_qr_scan"}, "type": "electric_scooter", "name": "6703f05ddd9d54c72973dd42b763e622", "is_reserved": 0, "lon": -77.0144675, "is_disabled": 0, "fusion_lat": 0.0, "lat": 38.911055166666664, "bike_id": "6703f05ddd9d54c72973dd42b763e622", "fusion_lon": 0.0}, {"rental_uris": {"ios": "https://dc.lft.to/lastmile_qr_scan", "android": "https://dc.lft.to/lastmile_qr_scan"}, "type": "electric_scooter", "name": "727ef0cbf9a68bb139aaf5528c8c5057", "is_reserved": 0, "lon": -77.037976, "is_disabled": 0, "fusion_lat": 0.0, "lat": 38.93115866666667, "bike_id": "727ef0cbf9a68bb139aaf5528c8c5057", "fusion_lon": 0.0}, {"rental_uris": {"ios": "https://dc.lft.to/lastmile_qr_scan", "android": "https://dc.lft.to/lastmile_qr_scan"}, "type": "electric_bike", "name": "f006b8417dc20f1d9204e15657d91e84", "is_reserved": 0, "lon": -76.95245216666666, "is_disabled": 0, "fusion_lat": 0.0, "lat": 38.884657, "bike_id": "f006b8417dc20f1d9204e15657d91e84", "fusion_lon": 0.0}, {"rental_uris": {"ios": "https://dc.lft.to/lastmile_qr_scan", "android": "https://dc.lft.to/lastmile_qr_scan"}, "type": "electric_bike", "name": "dc47f3cd3c3f080dd47a90971bfa5e3b", "is_reserved": 0, "lon": -77.07370633333333, "is_disabled": 0, "fusion_lat": 0.0, "lat": 38.9614435, "bike_id": "dc47f3cd3c3f080dd47a90971bfa5e3b", "fusion_lon": 0.0}, {"rental_uris": {"ios": "https://dc.lft.to/lastmile_qr_scan", "android": "https://dc.lft.to/lastmile_qr_scan"}, "type": "electric_bike", "name": "ac96f7fa43ef0485ec4af20487b7d593", "is_reserved": 0, "lon": -76.94549416666666, "is_disabled": 0, "fusion_lat": 0.0, "lat": 38.982908, "bike_id": "ac96f7fa43ef0485ec4af20487b7d593", "fusion_lon": 0.0}, {"rental_uris": {"ios": "https://dc.lft.to/lastmile_qr_scan", "android": "https://dc.lft.to/lastmile_qr_scan"}, "type": "electric_scooter", "name": "6afb22b5d19f8ed0e27c53e482a644a3", "is_reserved": 0, "lon": -77.03276816666667, "is_disabled": 0, "fusion_lat": 0.0, "lat": 38.918329166666666, "bike_id": "6afb22b5d19f8ed0e27c53e482a644a3", "fusion_lon": 0.0}, {"rental_uris": {"ios": "https://dc.lft.to/lastmile_qr_scan", "android": "https://dc.lft.to/lastmile_qr_scan"}, "type": "electric_scooter", "name": "b19f9d8011842397daa680df557e010c", "is_reserved": 0, "lon": -77.08402816666667, "is_disabled": 0, "fusion_lat": 0.0, "lat": 38.90807183333333, "bike_id": "b19f9d8011842397daa680df557e010c", "fusion_lon": 0.0}, {"rental_uris": {"ios": "https://dc.lft.to/lastmile_qr_scan", "android": "https://dc.lft.to/lastmile_qr_scan"}, "type": "electric_scooter", "name": "d34906d918d882aeeada3acef2651b03", "is_reserved": 0, "lon": -77.04381, "is_disabled": 0, "fusion_lat": 0.0, "lat": 38.934921333333335, "bike_id": "d34906d918d882aeeada3acef2651b03", "fusion_lon": 0.0}, {"rental_uris": {"ios": "https://dc.lft.to/lastmile_qr_scan", "android": "https://dc.lft.to/lastmile_qr_scan"}, "type": "electric_scooter", "name": "a9072843f76c5dcbd177c228449d0962", "is_reserved": 0, "lon": -77.07357516666667, "is_disabled": 0, "fusion_lat": 0.0, "lat": 38.937435, "bike_id": "a9072843f76c5dcbd177c228449d0962", "fusion_lon": 0.0}, {"rental_uris": {"ios": "https://dc.lft.to/lastmile_qr_scan", "android": "https://dc.lft.to/lastmile_qr_scan"}, "type": "electric_scooter", "name": "ae4d3fe9ea1c84f9d67cadd180f4aafe", "is_reserved": 0, "lon": -77.0671015, "is_disabled": 0, "fusion_lat": 0.0, "lat": 38.94796633333333, "bike_id": "ae4d3fe9ea1c84f9d67cadd180f4aafe", "fusion_lon": 0.0}, {"rental_uris": {"ios": "https://dc.lft.to/lastmile_qr_scan", "android": "https://dc.lft.to/lastmile_qr_scan"}, "type": "electric_bike", "name": "b1a4a54c744e523d01eb23dca2b168aa", "is_reserved": 0, "lon": -77.07525983333333, "is_disabled": 0, "fusion_lat": 0.0, "lat": 38.842806833333334, "bike_id": "b1a4a54c744e523d01eb23dca2b168aa", "fusion_lon": 0.0}, {"rental_uris": {"ios": "https://dc.lft.to/lastmile_qr_scan", "android": "https://dc.lft.to/lastmile_qr_scan"}, "type": "electric_scooter", "name": "5088c424f38800d385589adf8ac2b340", "is_reserved": 0, "lon": -77.032625, "is_disabled": 0, "fusion_lat": 0.0, "lat": 38.91977583333333, "bike_id": "5088c424f38800d385589adf8ac2b340", "fusion_lon": 0.0}, {"rental_uris": {"ios": "https://dc.lft.to/lastmile_qr_scan", "android": "https://dc.lft.to/lastmile_qr_scan"}, "type": "electric_scooter", "name": "8b1ece6f49e9c3f13fd3751b5fa58086", "is_reserved": 0, "lon": -77.01220133333334, "is_disabled": 0, "fusion_lat": 0.0, "lat": 38.92037883333333, "bike_id": "8b1ece6f49e9c3f13fd3751b5fa58086", "fusion_lon": 0.0}, {"rental_uris": {"ios": "https://dc.lft.to/lastmile_qr_scan", "android": "https://dc.lft.to/lastmile_qr_scan"}, "type": "electric_scooter", "name": "001e9bbad5797fac32ef56c13ad225ca", "is_reserved": 0, "lon": -77.020919, "is_disabled": 0, "fusion_lat": 0.0, "lat": 38.8818705, "bike_id": "001e9bbad5797fac32ef56c13ad225ca", "fusion_lon": 0.0}, {"rental_uris": {"ios": "https://dc.lft.to/lastmile_qr_scan", "android": "https://dc.lft.to/lastmile_qr_scan"}, "type": "electric_scooter", "name": "16fc6bfdc272943aaf9af07fa655c1b1", "is_reserved": 0, "lon": -77.021214, "is_disabled": 0, "fusion_lat": 0.0, "lat": 38.9247065, "bike_id": "16fc6bfdc272943aaf9af07fa655c1b1", "fusion_lon": 0.0}, {"rental_uris": {"ios": "https://dc.lft.to/lastmile_qr_scan", "android": "https://dc.lft.to/lastmile_qr_scan"}, "type": "electric_scooter", "name": "ac44795ecc3581ea5a7668d1147b7c89", "is_reserved": 0, "lon": -77.04642633333333, "is_disabled": 0, "fusion_lat": 0.0, "lat": 38.919641, "bike_id": "ac44795ecc3581ea5a7668d1147b7c89", "fusion_lon": 0.0}, {"rental_uris": {"ios": "https://dc.lft.to/lastmile_qr_scan", "android": "https://dc.lft.to/lastmile_qr_scan"}, "type": "electric_scooter", "name": "03e8ee87910c58fc29afebd9b53687a2", "is_reserved": 0, "lon": -77.02148416666667, "is_disabled": 0, "fusion_lat": 0.0, "lat": 38.92394133333333, "bike_id": "03e8ee87910c58fc29afebd9b53687a2", "fusion_lon": 0.0}, {"rental_uris": {"ios": "https://dc.lft.to/lastmile_qr_scan", "android": "https://dc.lft.to/lastmile_qr_scan"}, "type": "electric_bike", "name": "7ffc94039fc8548db6839e5abf951a87", "is_reserved": 0, "lon": -76.98501983333334, "is_disabled": 0, "fusion_lat": 0.0, "lat": 38.899394666666666, "bike_id": "7ffc94039fc8548db6839e5abf951a87", "fusion_lon": 0.0}, {"rental_uris": {"ios": "https://dc.lft.to/lastmile_qr_scan", "android": "https://dc.lft.to/lastmile_qr_scan"}, "type": "electric_scooter", "name": "7cd491c669833be5170e70228cb7ca1f", "is_reserved": 0, "lon": -77.04025533333333, "is_disabled": 0, "fusion_lat": 0.0, "lat": 38.903847166666665, "bike_id": "7cd491c669833be5170e70228cb7ca1f", "fusion_lon": 0.0}, {"rental_uris": {"ios": "https://dc.lft.to/lastmile_qr_scan", "android": "https://dc.lft.to/lastmile_qr_scan"}, "type": "electric_scooter", "name": "21d25906594572645908841201d96a40", "is_reserved": 0, "lon": -77.0091925, "is_disabled": 0, "fusion_lat": 0.0, "lat": 38.88191783333333, "bike_id": "21d25906594572645908841201d96a40", "fusion_lon": 0.0}, {"rental_uris": {"ios": "https://dc.lft.to/lastmile_qr_scan", "android": "https://dc.lft.to/lastmile_qr_scan"}, "type": "electric_scooter", "name": "9fcbfa928e9c67d63e0a821ba59495c1", "is_reserved": 0, "lon": -77.0467725, "is_disabled": 0, "fusion_lat": 0.0, "lat": 38.892313, "bike_id": "9fcbfa928e9c67d63e0a821ba59495c1", "fusion_lon": 0.0}, {"rental_uris": {"ios": "https://dc.lft.to/lastmile_qr_scan", "android": "https://dc.lft.to/lastmile_qr_scan"}, "type": "electric_scooter", "name": "3a663f44d1065094925db841d61447f0", "is_reserved": 0, "lon": -76.96983433333334, "is_disabled": 0, "fusion_lat": 0.0, "lat": 38.87402016666667, "bike_id": "3a663f44d1065094925db841d61447f0", "fusion_lon": 0.0}, {"rental_uris": {"ios": "https://dc.lft.to/lastmile_qr_scan", "android": "https://dc.lft.to/lastmile_qr_scan"}, "type": "electric_scooter", "name": "10abf9260f4b3ef80d017a50e2b24c87", "is_reserved": 0, "lon": -77.03475583333334, "is_disabled": 0, "fusion_lat": 0.0, "lat": 38.91710583333333, "bike_id": "10abf9260f4b3ef80d017a50e2b24c87", "fusion_lon": 0.0}, {"rental_uris": {"ios": "https://dc.lft.to/lastmile_qr_scan", "android": "https://dc.lft.to/lastmile_qr_scan"}, "type": "electric_scooter", "name": "15bf4ace30abcc120defd6672958b945", "is_reserved": 0, "lon": -77.029799, "is_disabled": 0, "fusion_lat": 0.0, "lat": 38.92371466666667, "bike_id": "15bf4ace30abcc120defd6672958b945", "fusion_lon": 0.0}, {"rental_uris": {"ios": "https://dc.lft.to/lastmile_qr_scan", "android": "https://dc.lft.to/lastmile_qr_scan"},