{"data": {"bikes": [{"is_reserved": 0, "type": "electric_scooter", "bike_id": "9ef7b5c0550b1680a4813ed9bf27e2f1", "lat": 38.96645916666667, "lon": -77.0089185, "rental_uris": {"android": "https://dc.lft.to/lastmile_qr_scan", "ios": "https://dc.lft.to/lastmile_qr_scan"}, "is_disabled": 0, "fusion_lat": 0.0, "name": "9ef7b5c0550b1680a4813ed9bf27e2f1", "fusion_lon": 0.0}, {"is_reserved": 0, "type": "electric_scooter", "bike_id": "307cacede8cb779f9f1e3c3ab9898dc2", "lat": 38.92611683333333, "lon": -77.021558, "rental_uris": {"android": "https://dc.lft.to/lastmile_qr_scan", "ios": "https://dc.lft.to/lastmile_qr_scan"}, "is_disabled": 0, "fusion_lat": 0.0, "name": "307cacede8cb779f9f1e3c3ab9898dc2", "fusion_lon": 0.0}, {"is_reserved": 0, "type": "electric_scooter", "bike_id": "1f2ffc63bd7c7ba6847c0a221e15030f", "lat": 38.90021933333333, "lon": -77.04498333333333, "rental_uris": {"android": "https://dc.lft.to/lastmile_qr_scan", "ios": "https://dc.lft.to/lastmile_qr_scan"}, "is_disabled": 0, "fusion_lat": 0.0, "name": "1f2ffc63bd7c7ba6847c0a221e15030f", "fusion_lon": 0.0}, {"is_reserved": 0, "type": "electric_scooter", "bike_id": "8b501100bf76496ae2bc28b3419afa63", "lat": 38.89994, "lon": -77.02707883333333, "rental_uris": {"android": "https://dc.lft.to/lastmile_qr_scan", "ios": "https://dc.lft.to/lastmile_qr_scan"}, "is_disabled": 0, "fusion_lat": 0.0, "name": "8b501100bf76496ae2bc28b3419afa63", "fusion_lon": 0.0}, {"is_reserved": 0, "type": "electric_bike", "bike_id": "f65e0a5efa94e397d5feae758a138ca9", "lat": 38.99546266666667, "lon": -77.074438, "rental_uris": {"android": "https://dc.lft.to/lastmile_qr_scan", "ios": "https://dc.lft.to/lastmile_qr_scan"}, "is_disabled": 0, "fusion_lat": 0.0, "name": "f65e0a5efa94e397d5feae758a138ca9", "fusion_lon": 0.0}, {"is_reserved": 0, "type": "electric_scooter", "bike_id": "e0541718c36ef7de58aedc598758c5ae", "lat": 38.9207525, "lon": -77.02397116666667, "rental_uris": {"android": "https://dc.lft.to/lastmile_qr_scan", "ios": "https://dc.lft.to/lastmile_qr_scan"}, "is_disabled": 0, "fusion_lat": 0.0, "name": "e0541718c36ef7de58aedc598758c5ae", "fusion_lon": 0.0}, {"is_reserved": 0, "type": "electric_scooter", "bike_id": "384499825e3b4379d3ee66a517f37214", "lat": 38.9524715, "lon": -77.02389633333334, "rental_uris": {"android": "https://dc.lft.to/lastmile_qr_scan", "ios": "https://dc.lft.to/lastmile_qr_scan"}, "is_disabled": 0, "fusion_lat": 0.0, "name": "384499825e3b4379d3ee66a517f37214", "fusion_lon": 0.0}, {"is_reserved": 0, "type": "electric_scooter", "bike_id": "2c7a114d870ccd3884e3a3935b1f3413", "lat": 38.905874833333336, "lon": -77.036473, "rental_uris": {"android": "https://dc.lft.to/lastmile_qr_scan", "ios": "https://dc.lft.to/lastmile_qr_scan"}, "is_disabled": 0, "fusion_lat": 0.0, "name": "2c7a114d870ccd3884e3a3935b1f3413", "fusion_lon": 0.0}, {"is_reserved": 0, "type": "electric_scooter", "bike_id": "8b6a1721a396c890e9b4b58308a7a525", "lat": 38.91712316666667, "lon": -77.03215733333333, "rental_uris": {"android": "https://dc.lft.to/lastmile_qr_scan", "ios": "https://dc.lft.to/lastmile_qr_scan"}, "is_disabled": 0, "fusion_lat": 0.0, "name": "8b6a1721a396c890e9b4b58308a7a525", "fusion_lon": 0.0}, {"is_reserved": 0, "type": "electric_scooter", "bike_id": "6b3533c50c190413bad4a54d19bbccff", "lat": 38.918631833333336, "lon": -77.01355083333333, "rental_uris": {"android": "https://dc.lft.to/lastmile_qr_scan", "ios": "https://dc.lft.to/lastmile_qr_scan"}, "is_disabled": 0, "fusion_lat": 0.0, "name": "6b3533c50c190413bad4a54d19bbccff", "fusion_lon": 0.0}, {"is_reserved": 0, "type": "electric_scooter", "bike_id": "d95fb999602186a12eb31a79b8d9ff6b", "lat": 38.92265316666666, "lon": -77.03662416666667, "rental_uris": {"android": "https://dc.lft.to/lastmile_qr_scan", "ios": "https://dc.lft.to/lastmile_qr_scan"}, "is_disabled": 0, "fusion_lat": 0.0, "name": "d95fb999602186a12eb31a79b8d9ff6b", "fusion_lon": 0.0}, {"is_reserved": 0, "type": "electric_scooter", "bike_id": "b21d6bac6e7f21afe707b3cd5e419030", "lat": 38.89543483333333, "lon": -76.98336433333333, "rental_uris": {"android": "https://dc.lft.to/lastmile_qr_scan", "ios": "https://dc.lft.to/lastmile_qr_scan"}, "is_disabled": 0, "fusion_lat": 0.0, "name": "b21d6bac6e7f21afe707b3cd5e419030", "fusion_lon": 0.0}, {"is_reserved": 0, "type": "electric_scooter", "bike_id": "0e2c6f3adb289428bda9351b093028b5", "lat": 38.92022133333333, "lon": -76.99550516666666, "rental_uris": {"android": "https://dc.lft.to/lastmile_qr_scan", "ios": "https://dc.lft.to/lastmile_qr_scan"}, "is_disabled": 0, "fusion_lat": 0.0, "name": "0e2c6f3adb289428bda9351b093028b5", "fusion_lon": 0.0}, {"is_reserved": 0, "type": "electric_scooter", "bike_id": "b05ace220dcceadfff4044587b58107e", "lat": 38.860167, "lon": -76.96999466666666, "rental_uris": {"android": "https://dc.lft.to/lastmile_qr_scan", "ios": "https://dc.lft.to/lastmile_qr_scan"}, "is_disabled": 0, "fusion_lat": 0.0, "name": "b05ace220dcceadfff4044587b58107e", "fusion_lon": 0.0}, {"is_reserved": 0, "type": "electric_scooter", "bike_id": "7fe736e40f6042875b98926765c714c6", "lat": 38.95176416666666, "lon": -77.01261916666667, "rental_uris": {"android": "https://dc.lft.to/lastmile_qr_scan", "ios": "https://dc.lft.to/lastmile_qr_scan"}, "is_disabled": 0, "fusion_lat": 0.0, "name": "7fe736e40f6042875b98926765c714c6", "fusion_lon": 0.0}, {"is_reserved": 0, "type": "electric_scooter", "bike_id": "2458ad6fc2041c3d197d28399e815bc1", "lat": 38.924164833333336, "lon": -77.020037, "rental_uris": {"android": "https://dc.lft.to/lastmile_qr_scan", "ios": "https://dc.lft.to/lastmile_qr_scan"}, "is_disabled": 0, "fusion_lat": 0.0, "name": "2458ad6fc2041c3d197d28399e815bc1", "fusion_lon": 0.0}, {"is_reserved": 0, "type": "electric_scooter", "bike_id": "3552a927c2f7e307f5b2772b8249d06e", "lat": 38.90971366666667, "lon": -77.01104616666667, "rental_uris": {"android": "https://dc.lft.to/lastmile_qr_scan", "ios": "https://dc.lft.to/lastmile_qr_scan"}, "is_disabled": 0, "fusion_lat": 0.0, "name": "3552a927c2f7e307f5b2772b8249d06e", "fusion_lon": 0.0}, {"is_reserved": 0, "type": "electric_scooter", "bike_id": "813f39a67fb29121a696fa064e21252d", "lat": 38.93074133333333, "lon": -77.02816016666667, "rental_uris": {"android": "https://dc.lft.to/lastmile_qr_scan", "ios": "https://dc.lft.to/lastmile_qr_scan"}, "is_disabled": 0, "fusion_lat": 0.0, "name": "813f39a67fb29121a696fa064e21252d", "fusion_lon": 0.0}, {"is_reserved": 0, "type": "electric_scooter", "bike_id": "f72adbe64412c1c3edae1c5dc9bbb1fc", "lat": 38.93591083333333, "lon": -77.05711133333334, "rental_uris": {"android": "https://dc.lft.to/lastmile_qr_scan", "ios": "https://dc.lft.to/lastmile_qr_scan"}, "is_disabled": 0, "fusion_lat": 0.0, "name": "f72adbe64412c1c3edae1c5dc9bbb1fc", "fusion_lon": 0.0}, {"is_reserved": 0, "type": "electric_scooter", "bike_id": "0be36f250a2c59cc032c414b95940e6b", "lat": 38.9109435, "lon": -77.02380283333333, "rental_uris": {"android": "https://dc.lft.to/lastmile_qr_scan", "ios": "https://dc.lft.to/lastmile_qr_scan"}, "is_disabled": 0, "fusion_lat": 0.0, "name": "0be36f250a2c59cc032c414b95940e6b", "fusion_lon": 0.0}, {"is_reserved": 0, "type": "electric_scooter", "bike_id": "9a9d3dbf606a59dd312c83aaf7012a11", "lat": 38.9314055, "lon": -77.03823883333334, "rental_uris": {"android": "https://dc.lft.to/lastmile_qr_scan", "ios": "https://dc.lft.to/lastmile_qr_scan"}, "is_disabled": 0, "fusion_lat": 0.0, "name": "9a9d3dbf606a59dd312c83aaf7012a11", "fusion_lon": 0.0}, {"is_reserved": 0, "type": "electric_scooter", "bike_id": "488ff1562818200f18d572bb1af28217", "lat": 38.90613166666667, "lon": -77.02591683333333, "rental_uris": {"android": "https://dc.lft.to/lastmile_qr_scan", "ios": "https://dc.lft.to/lastmile_qr_scan"}, "is_disabled": 0, "fusion_lat": 0.0, "name": "488ff1562818200f18d572bb1af28217", "fusion_lon": 0.0}, {"is_reserved": 0, "type": "electric_scooter", "bike_id": "84bfb5c616e1bd0f7512730b99f700ab", "lat": 38.9613785, "lon": -77.028179, "rental_uris": {"android": "https://dc.lft.to/lastmile_qr_scan", "ios": "https://dc.lft.to/lastmile_qr_scan"}, "is_disabled": 0, "fusion_lat": 0.0, "name": "84bfb5c616e1bd0f7512730b99f700ab", "fusion_lon": 0.0}, {"is_reserved": 0, "type": "electric_scooter", "bike_id": "46f9e208180f38957b073593ee374c8b", "lat": 38.91124116666667, "lon": -77.0374645, "rental_uris": {"android": "https://dc.lft.to/lastmile_qr_scan", "ios": "https://dc.lft.to/lastmile_qr_scan"}, "is_disabled": 0, "fusion_lat": 0.0, "name": "46f9e208180f38957b073593ee374c8b", "fusion_lon": 0.0}, {"is_reserved": 0, "type": "electric_scooter", "bike_id": "6f9f4f11f780f26e6f4af6f422493578", "lat": 38.919216, "lon": -77.00971916666667, "rental_uris": {"android": "https://dc.lft.to/lastmile_qr_scan", "ios": "https://dc.lft.to/lastmile_qr_scan"}, "is_disabled": 0, "fusion_lat": 0.0, "name": "6f9f4f11f780f26e6f4af6f422493578", "fusion_lon": 0.0}, {"is_reserved": 0, "type": "electric_scooter", "bike_id": "0f9fcbd6a18aedc8826c4768cdd1efdd", "lat": 38.906026833333335, "lon": -77.0468215, "rental_uris": {"android": "https://dc.lft.to/lastmile_qr_scan", "ios": "https://dc.lft.to/lastmile_qr_scan"}, "is_disabled": 0, "fusion_lat": 0.0, "name": "0f9fcbd6a18aedc8826c4768cdd1efdd", "fusion_lon": 0.0}, {"is_reserved": 0, "type": "electric_scooter", "bike_id": "ae1d4f4d4a21524dc6ffe878f59aba63", "lat": 38.86576216666667, "lon": -76.99019366666667, "rental_uris": {"android": "https://dc.lft.to/lastmile_qr_scan", "ios": "https://dc.lft.to/lastmile_qr_scan"}, "is_disabled": 0, "fusion_lat": 0.0, "name": "ae1d4f4d4a21524dc6ffe878f59aba63", "fusion_lon": 0.0}, {"is_reserved": 0, "type": "electric_scooter", "bike_id": "938cf9ac9a983ab2574e1d0765ccbc36", "lat": 38.924054166666664, "lon": -77.0297765, "rental_uris": {"android": "https://dc.lft.to/lastmile_qr_scan", "ios": "https://dc.lft.to/lastmile_qr_scan"}, "is_disabled": 0, "fusion_lat": 0.0, "name": "938cf9ac9a983ab2574e1d0765ccbc36", "fusion_lon": 0.0}, {"is_reserved": 0, "type": "electric_scooter", "bike_id": "a475507280f27fde0e555c0f1e166051", "lat": 38.9128845, "lon": -76.9854385, "rental_uris": {"android": "https://dc.lft.to/lastmile_qr_scan", "ios": "https://dc.lft.to/lastmile_qr_scan"}, "is_disabled": 0, "fusion_lat": 0.0, "name": "a475507280f27fde0e555c0f1e166051", "fusion_lon": 0.0}, {"is_reserved": 0, "type": "electric_scooter", "bike_id": "5925f5a8857b4497db11cefb1db9ad40", "lat": 38.928679833333334, "lon": -77.02707583333333, "rental_uris": {"android": "https://dc.lft.to/lastmile_qr_scan", "ios": "https://dc.lft.to/lastmile_qr_scan"}, "is_disabled": 0, "fusion_lat": 0.0, "name": "5925f5a8857b4497db11cefb1db9ad40", "fusion_lon": 0.0}, {"is_reserved": 0, "type": "electric_scooter", "bike_id": "3d9efcb23c9ed4428751f3affbf7abac", "lat": 38.90552533333333, "lon": -77.02688066666667, "rental_uris": {"android": "https://dc.lft.to/lastmile_qr_scan", "ios": "https://dc.lft.to/lastmile_qr_scan"}, "is_disabled": 0, "fusion_lat": 0.0, "name": "3d9efcb23c9ed4428751f3affbf7abac", "fusion_lon": 0.0}, {"is_reserved": 0, "type": "electric_scooter", "bike_id": "cd0f8523e892b6ce703f73e4dacad857", "lat": 38.93719333333333, "lon": -77.03258716666667, "rental_uris": {"android": "https://dc.lft.to/lastmile_qr_scan", "ios": "https://dc.lft.to/lastmile_qr_scan"}, "is_disabled": 0, "fusion_lat": 0.0, "name": "cd0f8523e892b6ce703f73e4dacad857", "fusion_lon": 0.0}, {"is_reserved": 0, "type": "electric_bike", "bike_id": "3bafbaa0479df5866f5d119096a277e6", "lat": 38.891069, "lon": -77.18305366666667, "rental_uris": {"android": "https://dc.lft.to/lastmile_qr_scan", "ios": "https://dc.lft.to/lastmile_qr_scan"}, "is_disabled": 0, "fusion_lat": 0.0, "name": "3bafbaa0479df5866f5d119096a277e6", "fusion_lon": 0.0}, {"is_reserved": 0, "type": "electric_scooter", "bike_id": "69fcab704cf8e2e12192a507fbb5b1ad", "lat": 38.91806716666667, "lon": -77.03302533333333, "rental_uris": {"android": "https://dc.lft.to/lastmile_qr_scan", "ios": "https://dc.lft.to/lastmile_qr_scan"}, "is_disabled": 0, "fusion_lat": 0.0, "name": "69fcab704cf8e2e12192a507fbb5b1ad", "fusion_lon": 0.0}, {"is_reserved": 0, "type": "electric_scooter", "bike_id": "b64e0b752a521c3571ec62949c035270", "lat": 38.902618, "lon": -77.00330116666666, "rental_uris": {"android": "https://dc.lft.to/lastmile_qr_scan", "ios": "https://dc.lft.to/lastmile_qr_scan"}, "is_disabled": 0, "fusion_lat": 0.0, "name": "b64e0b752a521c3571ec62949c035270", "fusion_lon": 0.0}, {"is_reserved": 0, "type": "electric_scooter", "bike_id": "efdedbd341cbc845755d2a4079482047", "lat": 38.92043566666667, "lon": -77.04195066666666, "rental_uris": {"android": "https://dc.lft.to/lastmile_qr_scan", "ios": "https://dc.lft.to/lastmile_qr_scan"}, "is_disabled": 0, "fusion_lat": 0.0, "name": "efdedbd341cbc845755d2a4079482047", "fusion_lon": 0.0}, {"is_reserved": 0, "type": "electric_scooter", "bike_id": "01ce31479082d62107b377125400bc9f", "lat": 38.920426166666665, "lon": -77.04823516666667, "rental_uris": {"android": "https://dc.lft.to/lastmile_qr_scan", "ios": "https://dc.lft.to/lastmile_qr_scan"}, "is_disabled": 0, "fusion_lat": 0.0, "name": "01ce31479082d62107b377125400bc9f", "fusion_lon": 0.0}, {"is_reserved": 0, "type": "electric_scooter", "bike_id": "40ec7d9cf85d3ad1136dd26f944b5af3", "lat": 38.9276135, "lon": -77.03274183333333, "rental_uris": {"android": "https://dc.lft.to/lastmile_qr_scan", "ios": "https://dc.lft.to/lastmile_qr_scan"}, "is_disabled": 0, "fusion_lat": 0.0, "name": "40ec7d9cf85d3ad1136dd26f944b5af3", "fusion_lon": 0.0}, {"is_reserved": 0, "type": "electric_scooter", "bike_id": "38231b3f9943fb82cbcab6d0f74576fe", "lat": 38.90575183333333, "lon": -77.00595216666666, "rental_uris": {"android": "https://dc.lft.to/lastmile_qr_scan", "ios": "https://dc.lft.to/lastmile_qr_scan"}, "is_disabled": 0, "fusion_lat": 0.0, "name": "38231b3f9943fb82cbcab6d0f74576fe", "fusion_lon": 0.0}, {"is_reserved": 0, "type": "electric_scooter", "bike_id": "21dda14a14ef8f0540c10644420cfad4", "lat": 38.8972745, "lon": -77.02488516666666, "rental_uris": {"android": "https://dc.lft.to/lastmile_qr_scan", "ios": "https://dc.lft.to/lastmile_qr_scan"}, "is_disabled": 0, "fusion_lat": 0.0, "name": "21dda14a14ef8f0540c10644420cfad4", "fusion_lon": 0.0}, {"is_reserved": 0, "type": "electric_scooter", "bike_id": "92ca3e97a45008c20af1e21bf427bc36", "lat": 38.919209, "lon": -77.0481325, "rental_uris": {"android": "https://dc.lft.to/lastmile_qr_scan", "ios": "https://dc.lft.to/lastmile_qr_scan"}, "is_disabled": 0, "fusion_lat": 0.0, "name": "92ca3e97a45008c20af1e21bf427bc36", "fusion_lon": 0.0}, {"is_reserved": 0, "type": "electric_scooter", "bike_id": "01dfb39af25e0ec9dc2ebbe9446c804a", "lat": 38.9441195, "lon": -77.06322133333333, "rental_uris": {"android": "https://dc.lft.to/lastmile_qr_scan", "ios": "https://dc.lft.to/lastmile_qr_scan"}, "is_disabled": 0, "fusion_lat": 0.0, "name": "01dfb39af25e0ec9dc2ebbe9446c804a", "fusion_lon": 0.0}, {"is_reserved": 0, "type": "electric_scooter", "bike_id": "0290e056e2b9c383663c883ed315d227", "lat": 38.91677383333333, "lon": -77.02402683333334, "rental_uris": {"android": "https://dc.lft.to/lastmile_qr_scan", "ios": "https://dc.lft.to/lastmile_qr_scan"}, "is_disabled": 0, "fusion_lat": 0.0, "name": "0290e056e2b9c383663c883ed315d227", "fusion_lon": 0.0}, {"is_reserved": 0, "type": "electric_scooter", "bike_id": "47e0f57444ff0343c456fc9edd9c593a", "lat": 38.924907166666664, "lon": -77.03931616666667, "rental_uris": {"android": "https://dc.lft.to/lastmile_qr_scan", "ios": "https://dc.lft.to/lastmile_qr_scan"}, "is_disabled": 0, "fusion_lat": 0.0, "name": "47e0f57444ff0343c456fc9edd9c593a", "fusion_lon": 0.0}, {"is_reserved": 0, "type": "electric_scooter", "bike_id": "7c20563cc9a9aec4b9bb81f8458543dd", "lat": 38.8532435, "lon": -76.9800315, "rental_uris": {"android": "https://dc.lft.to/lastmile_qr_scan", "ios": "https://dc.lft.to/lastmile_qr_scan"}, "is_disabled": 0, "fusion_lat": 0.0, "name": "7c20563cc9a9aec4b9bb81f8458543dd", "fusion_lon": 0.0}, {"is_reserved": 0, "type": "electric_bike", "bike_id": "19e5cab64a5c14296ee86f7592bd5093", "lat": 38.86448216666667, "lon": -76.98985383333333, "rental_uris": {"android": "https://dc.lft.to/lastmile_qr_scan", "ios": "https://dc.lft.to/lastmile_qr_scan"}, "is_disabled": 0, "fusion_lat": 0.0, "name": "19e5cab64a5c14296ee86f7592bd5093", "fusion_lon": 0.0}, {"is_reserved": 0, "type": "electric_scooter", "bike_id": "e0eb0e82cc9cfd0631f3905e288b3601", "lat": 38.9072125, "lon": -77.01680833333333, "rental_uris": {"android": "https://dc.lft.to/lastmile_qr_scan", "ios": "https://dc.lft.to/lastmile_qr_scan"}, "is_disabled": 0, "fusion_lat": 0.0, "name": "e0eb0e82cc9cfd0631f3905e288b3601", "fusion_lon": 0.0}, {"is_reserved": 0, "type": "electric_scooter", "bike_id": "4f30520663ee5bf08f91c19a1f56ab92", "lat": 38.89219933333333, "lon": -77.01558233333333, "rental_uris": {"android": "https://dc.lft.to/lastmile_qr_scan", "ios": "https://dc.lft.to/lastmile_qr_scan"}, "is_disabled": 0, "fusion_lat": 0.0, "name": "4f30520663ee5bf08f91c19a1f56ab92", "fusion_lon": 0.0}, {"is_reserved": 0, "type": "electric_scooter", "bike_id": "dfea4bbfeede7908fc351f6e0455e28d", "lat": 38.892223333333334, "lon": -77.03177833333334, "rental_uris": {"android": "https://dc.lft.to/lastmile_qr_scan", "ios": "https://dc.lft.to/lastmile_qr_scan"}, "is_disabled": 0, "fusion_lat": 0.0, "name": "dfea4bbfeede7908fc351f6e0455e28d", "fusion_lon": 0.0}, {"is_reserved": 0, "type": "electric_scooter", "bike_id": "2315115fd736b1f9f2e00fb64a52b664", "lat": 38.935972166666666, "lon": -77.05871716666667, "rental_uris": {"android": "https://dc.lft.to/lastmile_qr_scan", "ios": "https://dc.lft.to/lastmile_qr_scan"}, "is_disabled": 0, "fusion_lat": 0.0, "name": "2315115fd736b1f9f2e00fb64a52b664", "fusion_lon": 0.0}, {"is_reserved": 0, "type": "electric_scooter", "bike_id": "79683b1c115210021ba3c05cb145ec92", "lat": 38.92394, "lon": -77.05058933333333, "rental_uris": {"android": "https://dc.lft.to/lastmile_qr_scan", "ios": "https://dc.lft.to/lastmile_qr_scan"}, "is_disabled": 0, "fusion_lat": 0.0, "name": "79683b1c115210021ba3c05cb145ec92", "fusion_lon": 0.0}, {"is_reserved": 0, "type": "electric_scooter", "bike_id": "1fdcd6d2d8d0bdd03c597c7bd7193ec3", "lat": 38.8922115, "lon": -77.03109266666667, "rental_uris": {"android": "https://dc.lft.to/lastmile_qr_scan", "ios": "https://dc.lft.to/lastmile_qr_scan"}, "is_disabled": 0, "fusion_lat": 0.0, "name": "1fdcd6d2d8d0bdd03c597c7bd7193ec3", "fusion_lon": 0.0}, {"is_reserved": 0, "type": "electric_scooter", "bike_id": "e58c0fdf5ecc25c0a25c9f4fe18ab037", "lat": 38.90052433333334, "lon": -77.025813, "rental_uris": {"android": "https://dc.lft.to/lastmile_qr_scan", "ios": "https://dc.lft.to/lastmile_qr_scan"}, "is_disabled": 0, "fusion_lat": 0.0, "name": "e58c0fdf5ecc25c0a25c9f4fe18ab037", "fusion_lon": 0.0}, {"is_reserved": 0, "type": "electric_scooter", "bike_id": "47aaf61dfee97dc251bb4ebc70a6c2d8", "lat": 38.924338, "lon": -77.0031975, "rental_uris": {"android": "https://dc.lft.to/lastmile_qr_scan", "ios": "https://dc.lft.to/lastmile_qr_scan"}, "is_disabled": 0, "fusion_lat": 0.0, "name": "47aaf61dfee97dc251bb4ebc70a6c2d8", "fusion_lon": 0.0}, {"is_reserved": 0, "type": "electric_scooter", "bike_id": "a62d1ee9a8715631781a192e06dcc3f3", "lat": 38.90905266666667, "lon": -77.03956583333333, "rental_uris": {"android": "https://dc.lft.to/lastmile_qr_scan", "ios": "https://dc.lft.to/lastmile_qr_scan"}, "is_disabled": 0, "fusion_lat": 0.0, "name": "a62d1ee9a8715631781a192e06dcc3f3", "fusion_lon": 0.0}, {"is_reserved": 0, "type": "electric_scooter", "bike_id": "30bc3f46dd793d5fcaae1d6622f138ac", "lat": 38.89719866666667, "lon": -77.02144266666667, "rental_uris": {"android": "https://dc.lft.to/lastmile_qr_scan", "ios": "https://dc.lft.to/lastmile_qr_scan"}, "is_disabled": 0, "fusion_lat": 0.0, "name": "30bc3f46dd793d5fcaae1d6622f138ac", "fusion_lon": 0.0}, {"is_reserved": 0, "type": "electric_scooter", "bike_id": "abef7b152a300ed22d7950bbaac1c830", "lat": 38.917326, "lon": -77.02782716666667, "rental_uris": {"android": "https://dc.lft.to/lastmile_qr_scan", "ios": "https://dc.lft.to/lastmile_qr_scan"}, "is_disabled": 0, "fusion_lat": 0.0, "name": "abef7b152a300ed22d7950bbaac1c830", "fusion_lon": 0.0}, {"is_reserved": 0, "type": "electric_scooter", "bike_id": "9fc96248d87cb53948b7bf9717e19e82", "lat": 38.928382166666665, "lon": -77.0550315, "rental_uris": {"android": "https://dc.lft.to/lastmile_qr_scan", "ios": "https://dc.lft.to/lastmile_qr_scan"}, "is_disabled": 0, "fusion_lat": 0.0, "name": "9fc96248d87cb53948b7bf9717e19e82", "fusion_lon": 0.0}, {"is_reserved": 0, "type": "electric_scooter", "bike_id": "29b60f4d6f523f404ca69aad28d63dfd", "lat": 38.9020735, "lon": -77.048795, "rental_uris": {"android": "https://dc.lft.to/lastmile_qr_scan", "ios": "https://dc.lft.to/lastmile_qr_scan"}, "is_disabled": 0, "fusion_lat": 0.0, "name": "29b60f4d6f523f404ca69aad28d63dfd", "fusion_lon": 0.0}, {"is_reserved": 0, "type": "electric_scooter", "bike_id": "60ccfc864882a38929c67b398fcc1977", "lat": 38.891882, "lon": -76.99847366666667, "rental_uris": {"android": "https://dc.lft.to/lastmile_qr_scan", "ios": "https://dc.lft.to/lastmile_qr_scan"}, "is_disabled": 0, "fusion_lat": 0.0, "name": "60ccfc864882a38929c67b398fcc1977", "fusion_lon": 0.0}, {"is_reserved": 0, "type": "electric_scooter", "bike_id": "e9dd0f6bbe6a3bdb67b7073d4ffb8d1a", "lat": 38.903973666666666, "lon": -77.06298883333334, "rental_uris": {"android": "https://dc.lft.to/lastmile_qr_scan", "ios": "https://dc.lft.to/lastmile_qr_scan"}, "is_disabled": 0, "fusion_lat": 0.0, "name": "e9dd0f6bbe6a3bdb67b7073d4ffb8d1a", "fusion_lon": 0.0}, {"is_reserved": 0, "type": "electric_scooter", "bike_id": "6f77ce3d18aa3722e9cf0f5c8dfd7cf4", "lat": 38.8986895, "lon": -76.94663783333333, "rental_uris": {"android": "https://dc.lft.to/lastmile_qr_scan", "ios": "https://dc.lft.to/lastmile_qr_scan"}, "is_disabled": 0, "fusion_lat": 0.0, "name": "6f77ce3d18aa3722e9cf0f5c8dfd7cf4", "fusion_lon": 0.0}, {"is_reserved": 0, "type": "electric_scooter", "bike_id": "30a649e21b61951f07014f5be5d92177", "lat": 38.92887733333333, "lon": -77.013682, "rental_uris": {"android": "https://dc.lft.to/lastmile_qr_scan", "ios": "https://dc.lft.to/lastmile_qr_scan"}, "is_disabled": 0, "fusion_lat": 0.0, "name": "30a649e21b61951f07014f5be5d92177", "fusion_lon": 0.0}, {"is_reserved": 0, "type": "electric_bike", "bike_id": "881b3d61ace95210234301b236c20b4b", "lat": 39.010749, "lon": -76.91063083333333, "rental_uris": {"android": "https://dc.lft.to/lastmile_qr_scan", "ios": "https://dc.lft.to/lastmile_qr_scan"}, "is_disabled": 0, "fusion_lat": 0.0, "name": "881b3d61ace95210234301b236c20b4b", "fusion_lon": 0.0}, {"is_reserved": 0, "type": "electric_scooter", "bike_id": "6f6d5239eefb9c4a9f913806932ce5c3", "lat": 38.918493, "lon": -76.96543616666666, "rental_uris": {"android": "https://dc.lft.to/lastmile_qr_scan", "ios": "https://dc.lft.to/lastmile_qr_scan"}, "is_disabled": 0, "fusion_lat": 0.0, "name": "6f6d5239eefb9c4a9f913806932ce5c3", "fusion_lon": 0.0}, {"is_reserved": 0, "type": "electric_scooter", "bike_id": "0a96fcb3523ff48d850535113346e628", "lat": 38.91957283333333, "lon": -77.0178545, "rental_uris": {"android": "https://dc.lft.to/lastmile_qr_scan", "ios": "https://dc.lft.to/lastmile_qr_scan"}, "is_disabled": 0, "fusion_lat": 0.0, "name": "0a96fcb3523ff48d850535113346e628", "fusion_lon": 0.0}, {"is_reserved": 0, "type": "electric_bike", "bike_id": "d4825d43497992d29e7e40013f1dab95", "lat": 38.9234325, "lon": -77.03505933333334, "rental_uris": {"android": "https://dc.lft.to/lastmile_qr_scan", "ios": "https://dc.lft.to/lastmile_qr_scan"}, "is_disabled": 0, "fusion_lat": 0.0, "name": "d4825d43497992d29e7e40013f1dab95", "fusion_lon": 0.0}, {"is_reserved": 0, "type": "electric_scooter", "bike_id": "2a69f810cf0b4021d35cb75aa377c254", "lat": 38.94612716666666, "lon": -77.03054666666667, "rental_uris": {"android": "https://dc.lft.to/lastmile_qr_scan", "ios": "https://dc.lft.to/lastmile_qr_scan"}, "is_disabled": 0, "fusion_lat": 0.0, "name": "2a69f810cf0b4021d35cb75aa377c254", "fusion_lon": 0.0}, {"is_reserved": 0, "type": "electric_scooter", "bike_id": "6bc92bf16d4d26cbe0dbba0d0cf0165a", "lat": 38.949761333333335, "lon": -77.02451466666666, "rental_uris": {"android": "https://dc.lft.to/lastmile_qr_scan", "ios": "https://dc.lft.to/lastmile_qr_scan"}, "is_disabled": 0, "fusion_lat": 0.0, "name": "6bc92bf16d4d26cbe0dbba0d0cf0165a", "fusion_lon": 0.0}, {"is_reserved": 0, "type": "electric_scooter", "bike_id": "713da0a90ef3e64da6695c6d03338e43", "lat": 38.90805016666667, "lon": -77.03640583333333, "rental_uris": {"android": "https://dc.lft.to/lastmile_qr_scan", "ios": "https://dc.lft.to/lastmile_qr_scan"}, "is_disabled": 0, "fusion_lat": 0.0, "name": "713da0a90ef3e64da6695c6d03338e43", "fusion_lon": 0.0}, {"is_reserved": 0, "type": "electric_scooter", "bike_id": "ed6cb45d60563fd5fe833331ea1ebb8a", "lat": 38.90830666666667, "lon": -76.98718883333333, "rental_uris": {"android": "https://dc.lft.to/lastmile_qr_scan", "ios": "https://dc.lft.to/lastmile_qr_scan"}, "is_disabled": 0, "fusion_lat": 0.0, "name": "ed6cb45d60563fd5fe833331ea1ebb8a", "fusion_lon": 0.0}, {"is_reserved": 0, "type": "electric_scooter", "bike_id": "694086dd2e225cd2113bfc831da8c144", "lat": 38.900157, "lon": -76.996236, "rental_uris": {"android": "https://dc.lft.to/lastmile_qr_scan", "ios": "https://dc.lft.to/lastmile_qr_scan"}, "is_disabled": 0, "fusion_lat": 0.0, "name": "694086dd2e225cd2113bfc831da8c144", "fusion_lon": 0.0}, {"is_reserved": 0, "type": "electric_scooter", "bike_id": "7c2aacbc296e7ba06053de439480846c", "lat": 38.926911, "lon": -77.02977516666667, "rental_uris": {"android": "https://dc.lft.to/lastmile_qr_scan", "ios": "https://dc.lft.to/lastmile_qr_scan"}, "is_disabled": 0, "fusion_lat": 0.0, "name": "7c2aacbc296e7ba06053de439480846c", "fusion_lon": 0.0}, {"is_reserved": 0, "type": "electric_scooter", "bike_id": "bd065ea5fba98e4875d165472dcbddf8", "lat": 38.90093433333333, "lon": -77.02209516666667, "rental_uris": {"android": "https://dc.lft.to/lastmile_qr_scan", "ios": "https://dc.lft.to/lastmile_qr_scan"}, "is_disabled": 0, "fusion_lat": 0.0, "name": "bd065ea5fba98e4875d165472dcbddf8", "fusion_lon": 0.0}, {"is_reserved": 0, "type": "electric_scooter", "bike_id": "09560a73cadb79b3169714cca8ef2ad9", "lat": 38.9130085, "lon": -76.9847405, "rental_uris": {"android": "https://dc.lft.to/lastmile_qr_scan", "ios": "https://dc.lft.to/lastmile_qr_scan"}, "is_disabled": 0, "fusion_lat": 0.0, "name": "09560a73cadb79b3169714cca8ef2ad9", "fusion_lon": 0.0}, {"is_reserved": 0, "type": "electric_scooter", "bike_id": "f1452caab693249a0e017beb9f469d52", "lat": 38.914056333333335, "lon": -77.02834166666666, "rental_uris": {"android": "https://dc.lft.to/lastmile_qr_scan", "ios": "https://dc.lft.to/lastmile_qr_scan"}, "is_disabled": 0, "fusion_lat": 0.0, "name": "f1452caab693249a0e017beb9f469d52", "fusion_lon": 0.0}, {"is_reserved": 0, "type": "electric_scooter", "bike_id": "0ff8e9a2818ab6e959ee525ac9445027", "lat": 38.926981833333336, "lon": -77.02415233333333, "rental_uris": {"android": "https://dc.lft.to/lastmile_qr_scan", "ios": "https://dc.lft.to/lastmile_qr_scan"}, "is_disabled": 0, "fusion_lat": 0.0, "name": "0ff8e9a2818ab6e959ee525ac9445027", "fusion_lon": 0.0}, {"is_reserved": 0, "type": "electric_scooter", "bike_id": "4f702ec02d1a166bb32879c088447bae", "lat": 38.91563716666667, "lon": -77.03667883333334, "rental_uris": {"android": "https://dc.lft.to/lastmile_qr_scan", "ios": "https://dc.lft.to/lastmile_qr_scan"}, "is_disabled": 0, "fusion_lat": 0.0, "name": "4f702ec02d1a166bb32879c088447bae", "fusion_lon": 0.0}, {"is_reserved": 0, "type": "electric_scooter", "bike_id": "898b406c4d5a032339bf9211ef0094b4", "lat": 38.886019833333336, "lon": -77.00396683333334, "rental_uris": {"android": "https://dc.lft.to/lastmile_qr_scan", "ios": "https://dc.lft.to/lastmile_qr_scan"}, "is_disabled": 0, "fusion_lat": 0.0, "name": "898b406c4d5a032339bf9211ef0094b4", "fusion_lon": 0.0}, {"is_reserved": 0, "type": "electric_scooter", "bike_id": "848a15d407b0795374f3fdf0e98e67c1", "lat": 38.92681233333333, "lon": -76.9955415, "rental_uris": {"android": "https://dc.lft.to/lastmile_qr_scan", "ios": "https://dc.lft.to/lastmile_qr_scan"}, "is_disabled": 0, "fusion_lat": 0.0, "name": "848a15d407b0795374f3fdf0e98e67c1", "fusion_lon": 0.0}, {"is_reserved": 0, "type": "electric_scooter", "bike_id": "3688e730fa3f86e86eb79c8e8147b51b", "lat": 38.92366833333333, "lon": -77.0194895, "rental_uris": {"android": "https://dc.lft.to/lastmile_qr_scan", "ios": "https://dc.lft.to/lastmile_qr_scan"}, "is_disabled": 0, "fusion_lat": 0.0, "name": "3688e730fa3f86e86eb79c8e8147b51b", "fusion_lon": 0.0}, {"is_reserved": 0, "type": "electric_scooter", "bike_id": "33b84a9caf8c5f7dd6e1a35f8d635a53", "lat": 38.926307666666666, "lon": -77.035336, "rental_uris": {"android": "https://dc.lft.to/lastmile_qr_scan", "ios": "https://dc.lft.to/lastmile_qr_scan"}, "is_disabled": 0, "fusion_lat": 0.0, "name": "33b84a9caf8c5f7dd6e1a35f8d635a53", "fusion_lon": 0.0}, {"is_reserved": 0, "type": "electric_scooter", "bike_id": "0c10cfcc8464d9db881353cee764c5eb", "lat": 38.949038, "lon": -77.03184333333333, "rental_uris": {"android": "https://dc.lft.to/lastmile_qr_scan", "ios": "https://dc.lft.to/lastmile_qr_scan"}, "is_disabled": 0, "fusion_lat": 0.0, "name": "0c10cfcc8464d9db881353cee764c5eb", "fusion_lon": 0.0}, {"is_reserved": 0, "type": "electric_scooter", "bike_id": "e661bba9ddb27753e3157d8f8aaee300", "lat": 38.91617383333333, "lon": -77.022998, "rental_uris": {"android": "https://dc.lft.to/lastmile_qr_scan", "ios": "https://dc.lft.to/lastmile_qr_scan"}, "is_disabled": 0, "fusion_lat": 0.0, "name": "e661bba9ddb27753e3157d8f8aaee300", "fusion_lon": 0.0}, {"is_reserved": 0, "type": "electric_scooter", "bike_id": "e9dc0d3e8d61de5109095c82acadcba8", "lat": 38.8747095, "lon": -77.005567, "rental_uris": {"android": "https://dc.lft.to/lastmile_qr_scan", "ios": "https://dc.lft.to/lastmile_qr_scan"}, "is_disabled": 0, "fusion_lat": 0.0, "name": "e9dc0d3e8d61de5109095c82acadcba8", "fusion_lon": 0.0}, {"is_reserved": 0, "type": "electric_scooter", "bike_id": "7bbc9234fe6e1ca870be1ccc95fe1813", "lat": 38.90496866666667, "lon": -77.0258615, "rental_uris": {"android": "https://dc.lft.to/lastmile_qr_scan", "ios": "https://dc.lft.to/lastmile_qr_scan"}, "is_disabled": 0, "fusion_lat": 0.0, "name": "7bbc9234fe6e1ca870be1ccc95fe1813", "fusion_lon": 0.0}, {"is_reserved": 0, "type": "electric_scooter", "bike_id": "f670de45b2395366bf567f29908ac765", "lat": 38.9822745, "lon": -77.02642116666667, "rental_uris": {"android": "https://dc.lft.to/lastmile_qr_scan", "ios": "https://dc.lft.to/lastmile_qr_scan"}, "is_disabled": 0, "fusion_lat": 0.0, "name": "f670de45b2395366bf567f29908ac765", "fusion_lon": 0.0}, {"is_reserved": 0, "type": "electric_scooter", "bike_id": "c53720eb5b259bc5f6d8974599cf7101", "lat": 38.88512883333333, "lon": -76.99673766666666, "rental_uris": {"android": "https://dc.lft.to/lastmile_qr_scan", "ios": "https://dc.lft.to/lastmile_qr_scan"}, "is_disabled": 0, "fusion_lat": 0.0, "name": "c53720eb5b259bc5f6d8974599cf7101", "fusion_lon": 0.0}, {"is_reserved": 0, "type": "electric_scooter", "bike_id": "56ca252bd764cb564aec1890fa4cadf7", "lat": 38.922401, "lon": -77.0390095, "rental_uris": {"android": "https://dc.lft.to/lastmile_qr_scan", "ios": "https://dc.lft.to/lastmile_qr_scan"}, "is_disabled": 0, "fusion_lat": 0.0, "name": "56ca252bd764cb564aec1890fa4cadf7", "fusion_lon": 0.0}, {"is_reserved": 0, "type": "electric_scooter", "bike_id": "3badaa78b93432983ecfa040fa2f37dc", "lat": 38.914345, "lon": -77.02390366666667, "rental_uris": {"android": "https://dc.lft.to/lastmile_qr_scan", "ios": "https://dc.lft.to/lastmile_qr_scan"}, "is_disabled": 0, "fusion_lat": 0.0, "name": "3badaa78b93432983ecfa040fa2f37dc", "fusion_lon": 0.0}, {"is_reserved": 0, "type": "electric_scooter", "bike_id": "f04d5e7f421dd5696d0d01aa9bc6467a", "lat": 38.918806833333335, "lon": -77.0417115, "rental_uris": {"android": "https://dc.lft.to/lastmile_qr_scan", "ios": "https://dc.lft.to/lastmile_qr_scan"}, "is_disabled": 0, "fusion_lat": 0.0, "name": "f04d5e7f421dd5696d0d01aa9bc6467a", "fusion_lon": 0.0}, {"is_reserved": 0, "type": "electric_scooter", "bike_id": "df6861ac841d8259ca8f409092d9f758", "lat": 38.92602733333333, "lon": -77.02155033333334, "rental_uris": {"android": "https://dc.lft.to/lastmile_qr_scan", "ios": "https://dc.lft.to/lastmile_qr_scan"}, "is_disabled": 0, "fusion_lat": 0.0, "name": "df6861ac841d8259ca8f409092d9f758", "fusion_lon": 0.0}, {"is_reserved": 0, "type": "electric_scooter", "bike_id": "648428181d15ca125dfcd35a80a7bd68", "lat": 38.90845816666667, "lon": -77.04327216666667, "rental_uris": {"android": "https://dc.lft.to/lastmile_qr_scan", "ios": "https://dc.lft.to/lastmile_qr_scan"}, "is_disabled": 0, "fusion_lat": 0.0, "name": "648428181d15ca125dfcd35a80a7bd68", "fusion_lon": 0.0}, {"is_reserved": 0, "type": "electric_scooter", "bike_id": "1f2898b5eda0e28ec0c7def8066d250a", "lat": 38.907721333333335, "lon": -77.04519516666667, "rental_uris": {"android": "https://dc.lft.to/lastmile_qr_scan", "ios": "https://dc.lft.to/lastmile_qr_scan"}, "is_disabled": 0, "fusion_lat": 0.0, "name": "1f2898b5eda0e28ec0c7def8066d250a", "fusion_lon": 0.0}, {"is_reserved": 0, "type": "electric_scooter", "bike_id": "0664457f8bc9faa3b6879db5d93d4189", "lat": 38.892442, "lon": -77.03955183333333, "rental_uris": {"android": "https://dc.lft.to/lastmile_qr_scan", "ios": "https://dc.lft.to/lastmile_qr_scan"}, "is_disabled": 0, "fusion_lat": 0.0, "name": "0664457f8bc9faa3b6879db5d93d4189", "fusion_lon": 0.0}, {"is_reserved": 0, "type": "electric_scooter", "bike_id": "4d11f44e25d4643f8be4fec911c9de01", "lat": 38.917361166666666, "lon": -77.036361, "rental_uris": {"android": "https://dc.lft.to/lastmile_qr_scan", "ios": "https://dc.lft.to/lastmile_qr_scan"}, "is_disabled": 0, "fusion_lat": 0.0, "name": "4d11f44e25d4643f8be4fec911c9de01", "fusion_lon": 0.0}, {"is_reserved": 0, "type": "electric_scooter", "bike_id": "f87cdb52e8e0260a1a94dcf279d13df8", "lat": 38.914828166666666, "lon": -77.0217625, "rental_uris": {"android": "https://dc.lft.to/lastmile_qr_scan", "ios": "https://dc.lft.to/lastmile_qr_scan"}, "is_disabled": 0, "fusion_lat": 0.0, "name": "f87cdb52e8e0260a1a94dcf279d13df8", "fusion_lon": 0.0}, {"is_reserved": 0, "type": "electric_scooter", "bike_id": "7baa9ef0e99cca8868f7002ded34dcc3", "lat": 38.92053383333333, "lon": -77.04186866666667, "rental_uris": {"android": "https://dc.lft.to/lastmile_qr_scan", "ios": "https://dc.lft.to/lastmile_qr_scan"}, "is_disabled": 0, "fusion_lat": 0.0, "name": "7baa9ef0e99cca8868f7002ded34dcc3", "fusion_lon": 0.0}, {"is_reserved": 0, "type": "electric_bike", "bike_id": "1ebc58cc08c8de164523c34ef40ba12e", "lat": 39.08595033333334, "lon": -77.12276833333334, "rental_uris": {"android": "https://dc.lft.to/lastmile_qr_scan", "ios": "https://dc.lft.to/lastmile_qr_scan"}, "is_disabled": 0, "fusion_lat": 0.0, "name": "1ebc58cc08c8de164523c34ef40ba12e", "fusion_lon": 0.0}, {"is_reserved": 0, "type": "electric_scooter", "bike_id": "73b832f63a85524d08fd9c4b7c0125c4", "lat": 38.905106, "lon": -77.04191616666667, "rental_uris": {"android": "https://dc.lft.to/lastmile_qr_scan", "ios": "https://dc.lft.to/lastmile_qr_scan"}, "is_disabled": 0, "fusion_lat": 0.0, "name": "73b832f63a85524d08fd9c4b7c0125c4", "fusion_lon": 0.0}, {"is_reserved": 0, "type": "electric_scooter", "bike_id": "4245ecebf66b1a39e24587e7415936e2", "lat": 38.933026166666664, "lon": -77.02134616666666, "rental_uris": {"android": "https://dc.lft.to/lastmile_qr_scan", "ios": "https://dc.lft.to/lastmile_qr_scan"}, "is_disabled": 0, "fusion_lat": 0.0, "name": "4245ecebf66b1a39e24587e7415936e2", "fusion_lon": 0.0}, {"is_reserved": 0, "type": "electric_scooter", "bike_id": "dee83d38d1d357bbf9223a13b3af9d3d", "lat": 38.927116166666664, "lon": -77.04046333333334, "rental_uris": {"android": "https://dc.lft.to/lastmile_qr_scan", "ios": "https://dc.lft.to/lastmile_qr_scan"}, "is_disabled": 0, "fusion_lat": 0.0, "name": "dee83d38d1d357bbf9223a13b3af9d3d", "fusion_lon": 0.0}, {"is_reserved": 0, "type": "electric_bike", "bike_id": "7a9e15df0c5e4808f3907e4a81d30219", "lat": 38.9742025, "lon": -77.01257066666666, "rental_uris": {"android": "https://dc.lft.to/lastmile_qr_scan", "ios": "https://dc.lft.to/lastmile_qr_scan"}, "is_disabled": 0, "fusion_lat": 0.0, "name": "7a9e15df0c5e4808f3907e4a81d30219", "fusion_lon": 0.0}, {"is_reserved": 0, "type": "electric_scooter", "bike_id": "23c144da6e2ee87bf06f2d870d500910", "lat": 38.90083216666667, "lon": -77.0474755, "rental_uris": {"android": "https://dc.lft.to/lastmile_qr_scan", "ios": "https://dc.lft.to/lastmile_qr_scan"}, "is_disabled": 0, "fusion_lat": 0.0, "name": "23c144da6e2ee87bf06f2d870d500910", "fusion_lon": 0.0}, {"is_reserved": 0, "type": "electric_scooter", "bike_id": "b60aa871055a7593eacf0e97641a8b96", "lat": 38.92538916666667, "lon": -77.029751, "rental_uris": {"android": "https://dc.lft.to/lastmile_qr_scan", "ios": "https://dc.lft.to/lastmile_qr_scan"}, "is_disabled": 0, "fusion_lat": 0.0, "name": "b60aa871055a7593eacf0e97641a8b96", "fusion_lon": 0.0}, {"is_reserved": 0, "type": "electric_scooter", "bike_id": "6a459dc8846a8e750e9475e1c08ca364", "lat": 38.89727216666667, "lon": -77.00371266666667, "rental_uris": {"android": "https://dc.lft.to/lastmile_qr_scan", "ios": "https://dc.lft.to/lastmile_qr_scan"}, "is_disabled": 0, "fusion_lat": 0.0, "name": "6a459dc8846a8e750e9475e1c08ca364", "fusion_lon": 0.0}, {"is_reserved": 0, "type": "electric_scooter", "bike_id": "f7a305dfd9afdaab167bbc7df7b27c41", "lat": 38.9156135, "lon": -77.02114866666666, "rental_uris": {"android": "https://dc.lft.to/lastmile_qr_scan", "ios": "https://dc.lft.to/lastmile_qr_scan"}, "is_disabled": 0, "fusion_lat": 0.0, "name": "f7a305dfd9afdaab167bbc7df7b27c41", "fusion_lon": 0.0}, {"is_reserved": 0, "type": "electric_scooter", "bike_id": "104f2adce75d0b2d0ac7ce42ccb43dfd", "lat": 38.912617, "lon": -77.001504, "rental_uris": {"android": "https://dc.lft.to/lastmile_qr_scan", "ios": "https://dc.lft.to/lastmile_qr_scan"}, "is_disabled": 0, "fusion_lat": 0.0, "name": "104f2adce75d0b2d0ac7ce42ccb43dfd", "fusion_lon": 0.0}, {"is_reserved": 0, "type": "electric_scooter", "bike_id": "2aa98fbd3bdc20f7be58fb0e3c14b6d4", "lat": 38.931995666666666, "lon": -77.03748083333333, "rental_uris": {"android": "https://dc.lft.to/lastmile_qr_scan", "ios": "https://dc.lft.to/lastmile_qr_scan"}, "is_disabled": 0, "fusion_lat": 0.0, "name": "2aa98fbd3bdc20f7be58fb0e3c14b6d4", "fusion_lon": 0.0}, {"is_reserved": 0, "type": "electric_scooter", "bike_id": "574a798cb99fed8e8221204e9ec9a126", "lat": 38.92561116666667, "lon": -76.969977, "rental_uris": {"android": "https://dc.lft.to/lastmile_qr_scan", "ios": "https://dc.lft.to/lastmile_qr_scan"}, "is_disabled": 0, "fusion_lat": 0.0, "name": "574a798cb99fed8e8221204e9ec9a126", "fusion_lon": 0.0}, {"is_reserved": 0, "type": "electric_scooter", "bike_id": "677c9b350b5da9dc461ac74fc8663a34", "lat": 38.90724683333333, "lon": -77.02580666666667, "rental_uris": {"android": "https://dc.lft.to/lastmile_qr_scan", "ios": "https://dc.lft.to/lastmile_qr_scan"}, "is_disabled": 0, "fusion_lat": 0.0, "name": "677c9b350b5da9dc461ac74fc8663a34", "fusion_lon": 0.0}, {"is_reserved": 0, "type": "electric_scooter", "bike_id": "f0b14947dd377380338dc78b9dc786ec", "lat": 38.944413833333336, "lon": -77.02909616666666, "rental_uris": {"android": "https://dc.lft.to/lastmile_qr_scan", "ios": "https://dc.lft.to/lastmile_qr_scan"}, "is_disabled": 0, "fusion_lat": 0.0, "name": "f0b14947dd377380338dc78b9dc786ec", "fusion_lon": 0.0}, {"is_reserved": 0, "type": "electric_scooter", "bike_id": "d725f0846734d960d9f21d20645c3187", "lat": 38.898517, "lon": -76.92752566666667, "rental_uris": {"android": "https://dc.lft.to/lastmile_qr_scan", "ios": "https://dc.lft.to/lastmile_qr_scan"}, "is_disabled": 0, "fusion_lat": 0.0, "name": "d725f0846734d960d9f21d20645c3187", "fusion_lon": 0.0}, {"is_reserved": 0, "type": "electric_scooter", "bike_id": "4e8f150566ef4b05aec74482a8f9a210", "lat": 38.906989833333334, "lon": -77.03100933333333, "rental_uris": {"android": "https://dc.lft.to/lastmile_qr_scan", "ios": "https://dc.lft.to/lastmile_qr_scan"}, "is_disabled": 0, "fusion_lat": 0.0, "name": "4e8f150566ef4b05aec74482a8f9a210", "fusion_lon": 0.0}, {"is_reserved": 0, "type": "electric_scooter", "bike_id": "6cc02f2b24a26168999c4bfac6d8f20a", "lat": 38.90669183333333, "lon": -76.9801875, "rental_uris": {"android": "https://dc.lft.to/lastmile_qr_scan", "ios": "https://dc.lft.to/lastmile_qr_scan"}, "is_disabled": 0, "fusion_lat": 0.0, "name": "6cc02f2b24a26168999c4bfac6d8f20a", "fusion_lon": 0.0}, {"is_reserved": 0, "type": "electric_bike", "bike_id": "b349c20b544638cd778e71f7f1929002", "lat": 38.9555135, "lon": -76.96904833333333, "rental_uris": {"android": "https://dc.lft.to/lastmile_qr_scan", "ios": "https://dc.lft.to/lastmile_qr_scan"}, "is_disabled": 0, "fusion_lat": 0.0, "name": "b349c20b544638cd778e71f7f1929002", "fusion_lon": 0.0}, {"is_reserved": 0, "type": "electric_scooter", "bike_id": "6e33a5e80fdf6a389b55aff047dc1ae9", "lat": 38.87160866666667, "lon": -77.01353766666666, "rental_uris": {"android": "https://dc.lft.to/lastmile_qr_scan", "ios": "https://dc.lft.to/lastmile_qr_scan"}, "is_disabled": 0, "fusion_lat": 0.0, "name": "6e33a5e80fdf6a389b55aff047dc1ae9", "fusion_lon": 0.0}, {"is_reserved": 0, "type": "electric_scooter", "bike_id": "0a18b9714c0e3110afcff801d25a68d4", "lat": 38.907193166666666, "lon": -77.025499, "rental_uris": {"android": "https://dc.lft.to/lastmile_qr_scan", "ios": "https://dc.lft.to/lastmile_qr_scan"}, "is_disabled": 0, "fusion_lat": 0.0, "name": "0a18b9714c0e3110afcff801d25a68d4", "fusion_lon": 0.0}, {"is_reserved": 0, "type": "electric_scooter", "bike_id": "11da68737079ffc48237d3e560307e1c", "lat": 38.910035666666666, "lon": -77.03202383333333, "rental_uris": {"android": "https://dc.lft.to/lastmile_qr_scan", "ios": "https://dc.lft.to/lastmile_qr_scan"}, "is_disabled": 0, "fusion_lat": 0.0, "name": "11da68737079ffc48237d3e560307e1c", "fusion_lon": 0.0}, {"is_reserved": 0, "type": "electric_scooter", "bike_id": "fac1e727025f35e85ad0b6bd673c4673", "lat": 38.936949, "lon": -77.02717833333334, "rental_uris": {"android": "https://dc.lft.to/lastmile_qr_scan", "ios": "https://dc.lft.to/lastmile_qr_scan"}, "is_disabled": 0, "fusion_lat": 0.0, "name": "fac1e727025f35e85ad0b6bd673c4673", "fusion_lon": 0.0}, {"is_reserved": 0, "type": "electric_scooter", "bike_id": "0898917d976259d9ab2428ecf593cbfe", "lat": 38.899644333333335, "lon": -77.01617583333334, "rental_uris": {"android": "https://dc.lft.to/lastmile_qr_scan", "ios": "https://dc.lft.to/lastmile_qr_scan"}, "is_disabled": 0, "fusion_lat": 0.0, "name": "0898917d976259d9ab2428ecf593cbfe", "fusion_lon": 0.0}, {"is_reserved": 0, "type": "electric_scooter", "bike_id": "59156028b5c6c4e68270c148b2e6862f", "lat": 38.897412333333335, "lon": -77.02200083333334, "rental_uris": {"android": "https://dc.lft.to/lastmile_qr_scan", "ios": "https://dc.lft.to/lastmile_qr_scan"}, "is_disabled": 0, "fusion_lat": 0.0, "name": "59156028b5c6c4e68270c148b2e6862f", "fusion_lon": 0.0}, {"is_reserved": 0, "type": "electric_scooter", "bike_id": "44fae6182fe0a934f8bfe8a889c2af99", "lat": 38.93469233333333, "lon": -77.0415815, "rental_uris": {"android": "https://dc.lft.to/lastmile_qr_scan", "ios": "https://dc.lft.to/lastmile_qr_scan"}, "is_disabled": 0, "fusion_lat": 0.0, "name": "44fae6182fe0a934f8bfe8a889c2af99", "fusion_lon": 0.0}, {"is_reserved": 0, "type": "electric_scooter", "bike_id": "5069fbc71ceff78801e1389d24a62552", "lat": 38.892505666666665, "lon": -77.03958933333334, "rental_uris": {"android": "https://dc.lft.to/lastmile_qr_scan", "ios": "https://dc.lft.to/lastmile_qr_scan"}, "is_disabled": 0, "fusion_lat": 0.0, "name": "5069fbc71ceff78801e1389d24a62552", "fusion_lon": 0.0}, {"is_reserved": 0, "type": "electric_scooter", "bike_id": "60f17c5500c742617adfe4b3f035edd0", "lat": 38.95823, "lon": -77.07643633333333, "rental_uris": {"android": "https://dc.lft.to/lastmile_qr_scan", "ios": "https://dc.lft.to/lastmile_qr_scan"}, "is_disabled": 0, "fusion_lat": 0.0, "name": "60f17c5500c742617adfe4b3f035edd0", "fusion_lon": 0.0}, {"is_reserved": 0, "type": "electric_bike", "bike_id": "635724d1dba186aa08de8db95d0e0105", "lat": 38.98913983333333, "lon": -77.02533416666667, "rental_uris": {"android": "https://dc.lft.to/lastmile_qr_scan", "ios": "https://dc.lft.to/lastmile_qr_scan"}, "is_disabled": 0, "fusion_lat": 0.0, "name": "635724d1dba186aa08de8db95d0e0105", "fusion_lon": 0.0}, {"is_reserved": 0, "type": "electric_scooter", "bike_id": "5aa413a5b185e70dbbf58debcc938079", "lat": 38.9140485, "lon": -77.04679283333333, "rental_uris": {"android": "https://dc.lft.to/lastmile_qr_scan", "ios": "https://dc.lft.to/lastmile_qr_scan"}, "is_disabled": 0, "fusion_lat": 0.0, "name": "5aa413a5b185e70dbbf58debcc938079", "fusion_lon": 0.0}, {"is_reserved": 0, "type": "electric_scooter", "bike_id": "801e5a1a7fa04198c687352f7dc6660d", "lat": 38.892219, "lon": -77.03335866666667, "rental_uris": {"android": "https://dc.lft.to/lastmile_qr_scan", "ios": "https://dc.lft.to/lastmile_qr_scan"}, "is_disabled": 0, "fusion_lat": 0.0, "name": "801e5a1a7fa04198c687352f7dc6660d", "fusion_lon": 0.0}, {"is_reserved": 0, "type": "electric_bike", "bike_id": "c444311f1aaf5160229b620d8941065b", "lat": 38.89846633333333, "lon": -77.11857283333333, "rental_uris": {"android": "https://dc.lft.to/lastmile_qr_scan", "ios": "https://dc.lft.to/lastmile_qr_scan"}, "is_disabled": 0, "fusion_lat": 0.0, "name": "c444311f1aaf5160229b620d8941065b", "fusion_lon": 0.0}, {"is_reserved": 0, "type": "electric_scooter", "bike_id": "ea9a9043816e6f790e53a5760f906334", "lat": 38.928945, "lon": -77.0375105, "rental_uris": {"android": "https://dc.lft.to/lastmile_qr_scan", "ios": "https://dc.lft.to/lastmile_qr_scan"}, "is_disabled": 0, "fusion_lat": 0.0, "name": "ea9a9043816e6f790e53a5760f906334", "fusion_lon": 0.0}, {"is_reserved": 0, "type": "electric_scooter", "bike_id": "a76363b23e825d8673fdd9085a7204de", "lat": 38.9152815, "lon": -77.01995433333333, "rental_uris": {"android": "https://dc.lft.to/lastmile_qr_scan", "ios": "https://dc.lft.to/lastmile_qr_scan"}, "is_disabled": 0, "fusion_lat": 0.0, "name": "a76363b23e825d8673fdd9085a7204de", "fusion_lon": 0.0}, {"is_reserved": 0, "type": "electric_scooter", "bike_id": "1ac1edea9d6b7b2ed12b1ae30d5955cb", "lat": 38.918012, "lon": -77.0343805, "rental_uris": {"android": "https://dc.lft.to/lastmile_qr_scan", "ios": "https://dc.lft.to/lastmile_qr_scan"}, "is_disabled": 0, "fusion_lat": 0.0, "name": "1ac1edea9d6b7b2ed12b1ae30d5955cb", "fusion_lon": 0.0}, {"is_reserved": 0, "type": "electric_scooter", "bike_id": "582cf45f47055aa3f3e06c29b6a173e5", "lat": 38.9275135, "lon": -77.02105216666666, "rental_uris": {"android": "https://dc.lft.to/lastmile_qr_scan", "ios": "https://dc.lft.to/lastmile_qr_scan"}, "is_disabled": 0, "fusion_lat": 0.0, "name": "582cf45f47055aa3f3e06c29b6a173e5", "fusion_lon": 0.0}, {"is_reserved": 0, "type": "electric_scooter", "bike_id": "1f6334b2a61a972f70791c3e3e63a81c", "lat": 38.883706, "lon": -76.99515883333333, "rental_uris": {"android": "https://dc.lft.to/lastmile_qr_scan", "ios": "https://dc.lft.to/lastmile_qr_scan"}, "is_disabled": 0, "fusion_lat": 0.0, "name": "1f6334b2a61a972f70791c3e3e63a81c", "fusion_lon": 0.0}, {"is_reserved": 0, "type": "electric_scooter", "bike_id": "02831d0888815508085c378d16d1cb38", "lat": 38.92611566666667, "lon": -77.0216035, "rental_uris": {"android": "https://dc.lft.to/lastmile_qr_scan", "ios": "https://dc.lft.to/lastmile_qr_scan"}, "is_disabled": 0, "fusion_lat": 0.0, "name": "02831d0888815508085c378d16d1cb38", "fusion_lon": 0.0}, {"is_reserved": 0, "type": "electric_bike", "bike_id": "6b4e8281f83309f32496f51376ad3e1f", "lat": 38.941529, "lon": -77.0019275, "rental_uris": {"android": "https://dc.lft.to/lastmile_qr_scan", "ios": "https://dc.lft.to/lastmile_qr_scan"}, "is_disabled": 0, "fusion_lat": 0.0, "name": "6b4e8281f83309f32496f51376ad3e1f", "fusion_lon": 0.0}, {"is_reserved": 0, "type": "electric_scooter", "bike_id": "1e484c85a4c78eeedd225ae98a4ff02d", "lat": 38.90075566666667, "lon": -77.04872116666667, "rental_uris": {"android": "https://dc.lft.to/lastmile_qr_scan", "ios": "https://dc.lft.to/lastmile_qr_scan"}, "is_disabled": 0, "fusion_lat": 0.0, "name": "1e484c85a4c78eeedd225ae98a4ff02d", "fusion_lon": 0.0}, {"is_reserved": 0, "type": "electric_scooter", "bike_id": "ba20fde972637345b6f9389a0cd3fe30", "lat": 38.912596, "lon": -77.00156266666667, "rental_uris": {"android": "https://dc.lft.to/lastmile_qr_scan", "ios": "https://dc.lft.to/lastmile_qr_scan"}, "is_disabled": 0, "fusion_lat": 0.0, "name": "ba20fde972637345b6f9389a0cd3fe30", "fusion_lon": 0.0}, {"is_reserved": 0, "type": "electric_scooter", "bike_id": "962df9efd3d6d01ae5706549b8cb364e", "lat": 38.92603733333333, "lon": -77.0249215, "rental_uris": {"android": "https://dc.lft.to/lastmile_qr_scan", "ios": "https://dc.lft.to/lastmile_qr_scan"}, "is_disabled": 0, "fusion_lat": 0.0, "name": "962df9efd3d6d01ae5706549b8cb364e", "fusion_lon": 0.0}, {"is_reserved": 0, "type": "electric_scooter", "bike_id": "3be4b8c6c947b03f774ef390bab45cac", "lat": 38.9269145, "lon": -77.0257695, "rental_uris": {"android": "https://dc.lft.to/lastmile_qr_scan", "ios": "https://dc.lft.to/lastmile_qr_scan"}, "is_disabled": 0, "fusion_lat": 0.0, "name": "3be4b8c6c947b03f774ef390bab45cac", "fusion_lon": 0.0}, {"is_reserved": 0, "type": "electric_bike", "bike_id": "4b5f6976cdee76e73e472ca24af372ef", "lat": 38.882440333333335, "lon": -76.96258283333333, "rental_uris": {"android": "https://dc.lft.to/lastmile_qr_scan", "ios": "https://dc.lft.to/lastmile_qr_scan"}, "is_disabled": 0, "fusion_lat": 0.0, "name": "4b5f6976cdee76e73e472ca24af372ef", "fusion_lon": 0.0}, {"is_reserved": 0, "type": "electric_scooter", "bike_id": "e134bf832ab16e25f5bbaef0e2416e93", "lat": 38.896773, "lon": -77.05043, "rental_uris": {"android": "https://dc.lft.to/lastmile_qr_scan", "ios": "https://dc.lft.to/lastmile_qr_scan"}, "is_disabled": 0, "fusion_lat": 0.0, "name": "e134bf832ab16e25f5bbaef0e2416e93", "fusion_lon": 0.0}, {"is_reserved": 0, "type": "electric_scooter", "bike_id": "d8dcd69c945ab99dfda6283a1d2ac041", "lat": 38.89706366666667, "lon": -77.004949, "rental_uris": {"android": "https://dc.lft.to/lastmile_qr_scan", "ios": "https://dc.lft.to/lastmile_qr_scan"}, "is_disabled": 0, "fusion_lat": 0.0, "name": "d8dcd69c945ab99dfda6283a1d2ac041", "fusion_lon": 0.0}, {"is_reserved": 0, "type": "electric_scooter", "bike_id": "a85113a932a548d08df7c8d685d6ee1d", "lat": 38.89324366666666, "lon": -77.02977783333333, "rental_uris": {"android": "https://dc.lft.to/lastmile_qr_scan", "ios": "https://dc.lft.to/lastmile_qr_scan"}, "is_disabled": 0, "fusion_lat": 0.0, "name": "a85113a932a548d08df7c8d685d6ee1d", "fusion_lon": 0.0}, {"is_reserved": 0, "type": "electric_bike", "bike_id": "2d6f1e147680685e5aaa2a3a5a96fc22", "lat": 38.838123833333334, "lon": -77.09522083333333, "rental_uris": {"android": "https://dc.lft.to/lastmile_qr_scan", "ios": "https://dc.lft.to/lastmile_qr_scan"}, "is_disabled": 0, "fusion_lat": 0.0, "name": "2d6f1e147680685e5aaa2a3a5a96fc22", "fusion_lon": 0.0}, {"is_reserved": 0, "type": "electric_scooter", "bike_id": "c3488e1e1346e930b17d6cc0f8a9a53d", "lat": 38.901755, "lon": -77.0011765, "rental_uris": {"android": "https://dc.lft.to/lastmile_qr_scan", "ios": "https://dc.lft.to/lastmile_qr_scan"}, "is_disabled": 0, "fusion_lat": 0.0, "name": "c3488e1e1346e930b17d6cc0f8a9a53d", "fusion_lon": 0.0}, {"is_reserved": 0, "type": "electric_scooter", "bike_id": "5e958b491bd8853e9472be17c752bdcc", "lat": 38.93199233333333, "lon": -76.996178, "rental_uris": {"android": "https://dc.lft.to/lastmile_qr_scan", "ios": "https://dc.lft.to/lastmile_qr_scan"}, "is_disabled": 0, "fusion_lat": 0.0, "name": "5e958b491bd8853e9472be17c752bdcc", "fusion_lon": 0.0}, {"is_reserved": 0, "type": "electric_bike", "bike_id": "9e9245b5bd27b82cbd65ecc870f111ab", "lat": 38.84034066666667, "lon": -76.97619216666666, "rental_uris": {"android": "https://dc.lft.to/lastmile_qr_scan", "ios": "https://dc.lft.to/lastmile_qr_scan"}, "is_disabled": 0, "fusion_lat": 0.0, "name": "9e9245b5bd27b82cbd65ecc870f111ab", "fusion_lon": 0.0}, {"is_reserved": 0, "type": "electric_scooter", "bike_id": "03575a51e7d03e42367fcbcd2b8f1054", "lat": 38.902506833333334, "lon": -77.027343, "rental_uris": {"android": "https://dc.lft.to/lastmile_qr_scan", "ios": "https://dc.lft.to/lastmile_qr_scan"}, "is_disabled": 0, "fusion_lat": 0.0, "name": "03575a51e7d03e42367fcbcd2b8f1054", "fusion_lon": 0.0}, {"is_reserved": 0, "type": "electric_scooter", "bike_id": "c7604a6b8ae2dafea32f8f1d02564844", "lat": 38.9365835, "lon": -77.0549215, "rental_uris": {"android": "https://dc.lft.to/lastmile_qr_scan", "ios": "https://dc.lft.to/lastmile_qr_scan"}, "is_disabled": 0, "fusion_lat": 0.0, "name": "c7604a6b8ae2dafea32f8f1d02564844", "fusion_lon": 0.0}, {"is_reserved": 0, "type": "electric_scooter", "bike_id": "cfc6ad3bfbe97447036e5a35e9cfece3", "lat": 38.90501183333333, "lon": -77.02934, "rental_uris": {"android": "https://dc.lft.to/lastmile_qr_scan", "ios": "https://dc.lft.to/lastmile_qr_scan"}, "is_disabled": 0, "fusion_lat": 0.0, "name": "cfc6ad3bfbe97447036e5a35e9cfece3", "fusion_lon": 0.0}, {"is_reserved": 0, "type": "electric_scooter", "bike_id": "60f3d3709192af65e5dbd3f5c4aa4234", "lat": 38.91704, "lon": -77.038978, "rental_uris": {"android": "https://dc.lft.to/lastmile_qr_scan", "ios": "https://dc.lft.to/lastmile_qr_scan"}, "is_disabled": 0, "fusion_lat": 0.0, "name": "60f3d3709192af65e5dbd3f5c4aa4234", "fusion_lon": 0.0}, {"is_reserved": 0, "type": "electric_scooter", "bike_id": "2f081cc5677c9301e9921ffc761db6f3", "lat": 38.9350145, "lon": -77.02008033333334, "rental_uris": {"android": "https://dc.lft.to/lastmile_qr_scan", "ios": "https://dc.lft.to/lastmile_qr_scan"}, "is_disabled": 0, "fusion_lat": 0.0, "name": "2f081cc5677c9301e9921ffc761db6f3", "fusion_lon": 0.0}, {"is_reserved": 0, "type": "electric_scooter", "bike_id": "9807eb5226038fc88aa6ae85b7359795", "lat": 38.8922185, "lon": -77.02620033333334, "rental_uris": {"android": "https://dc.lft.to/lastmile_qr_scan", "ios": "https://dc.lft.to/lastmile_qr_scan"}, "is_disabled": 0, "fusion_lat": 0.0, "name": "9807eb5226038fc88aa6ae85b7359795", "fusion_lon": 0.0}, {"is_reserved": 0, "type": "electric_scooter", "bike_id": "73ab2022883ec5c8c2f405ed7a656658", "lat": 38.8956995, "lon": -77.02969616666667, "rental_uris": {"android": "https://dc.lft.to/lastmile_qr_scan", "ios": "https://dc.lft.to/lastmile_qr_scan"}, "is_disabled": 0, "fusion_lat": 0.0, "name": "73ab2022883ec5c8c2f405ed7a656658", "fusion_lon": 0.0}, {"is_reserved": 0, "type": "electric_scooter", "bike_id": "24676ed934fade174f642e97b775e7c1", "lat": 38.9193935, "lon": -77.0417295, "rental_uris": {"android": "https://dc.lft.to/lastmile_qr_scan", "ios": "https://dc.lft.to/lastmile_qr_scan"}, "is_disabled": 0, "fusion_lat": 0.0, "name": "24676ed934fade174f642e97b775e7c1", "fusion_lon": 0.0}, {"is_reserved": 0, "type": "electric_scooter", "bike_id": "edbda83a5f723df19bc8d93a60e5b6aa", "lat": 38.91929583333334, "lon": -77.03423216666667, "rental_uris": {"android": "https://dc.lft.to/lastmile_qr_scan", "ios": "https://dc.lft.to/lastmile_qr_scan"}, "is_disabled": 0, "fusion_lat": 0.0, "name": "edbda83a5f723df19bc8d93a60e5b6aa", "fusion_lon": 0.0}, {"is_reserved": 0, "type": "electric_scooter", "bike_id": "97ae688b5b8cea77fd119ea5366c4be1", "lat": 38.9296845, "lon": -77.03267983333333, "rental_uris": {"android": "https://dc.lft.to/lastmile_qr_scan", "ios": "https://dc.lft.to/lastmile_qr_scan"}, "is_disabled": 0, "fusion_lat": 0.0, "name": "97ae688b5b8cea77fd119ea5366c4be1", "fusion_lon": 0.0}, {"is_reserved": 0, "type": "electric_scooter", "bike_id": "a68cb8b471814ca678d75f87deda95cc", "lat": 38.920594, "lon": -77.02509866666666, "rental_uris": {"android": "https://dc.lft.to/lastmile_qr_scan", "ios": "https://dc.lft.to/lastmile_qr_scan"}, "is_disabled": 0, "fusion_lat": 0.0, "name": "a68cb8b471814ca678d75f87deda95cc", "fusion_lon": 0.0}, {"is_reserved": 0, "type": "electric_scooter", "bike_id": "667081841c87707eb664eda0124aaeb1", "lat": 38.923611666666666, "lon": -77.05105033333334, "rental_uris": {"android": "https://dc.lft.to/lastmile_qr_scan", "ios": "https://dc.lft.to/lastmile_qr_scan"}, "is_disabled": 0, "fusion_lat": 0.0, "name": "667081841c87707eb664eda0124aaeb1", "fusion_lon": 0.0}, {"is_reserved": 0, "type": "electric_scooter", "bike_id": "6d3b6b10d733b8ea2916ddd21932dfc1", "lat": 38.897256166666665, "lon": -77.02767533333333, "rental_uris": {"android": "https://dc.lft.to/lastmile_qr_scan", "ios": "https://dc.lft.to/lastmile_qr_scan"}, "is_disabled": 0, "fusion_lat": 0.0, "name": "6d3b6b10d733b8ea2916ddd21932dfc1", "fusion_lon": 0.0}, {"is_reserved": 0, "type": "electric_scooter", "bike_id": "9ebef1131451e43c88366685ea8d66eb", "lat": 38.9179985, "lon": -77.027054, "rental_uris": {"android": "https://dc.lft.to/lastmile_qr_scan", "ios": "https://dc.lft.to/lastmile_qr_scan"}, "is_disabled": 0, "fusion_lat": 0.0, "name": "9ebef1131451e43c88366685ea8d66eb", "fusion_lon": 0.0}, {"is_reserved": 0, "type": "electric_scooter", "bike_id": "a3827f3a0f14a1c1d618c54452c5e3de", "lat": 38.930737666666666, "lon": -77.02814283333333, "rental_uris": {"android": "https://dc.lft.to/lastmile_qr_scan", "ios": "https://dc.lft.to/lastmile_qr_scan"}, "is_disabled": 0, "fusion_lat": 0.0, "name": "a3827f3a0f14a1c1d618c54452c5e3de", "fusion_lon": 0.0}, {"is_reserved": 0, "type": "electric_scooter", "bike_id": "b5f22676149ac130adebb5b5ee886e12", "lat": 38.9073135, "lon": -77.008014, "rental_uris": {"android": "https://dc.lft.to/lastmile_qr_scan", "ios": "https://dc.lft.to/lastmile_qr_scan"}, "is_disabled": 0, "fusion_lat": 0.0, "name": "b5f22676149ac130adebb5b5ee886e12", "fusion_lon": 0.0}, {"is_reserved": 0, "type": "electric_bike", "bike_id": "fa85af670a7e8da4d83542fd758917f4", "lat": 38.945648, "lon": -76.95836383333334, "rental_uris": {"android": "https://dc.lft.to/lastmile_qr_scan", "ios": "https://dc.lft.to/lastmile_qr_scan"}, "is_disabled": 0, "fusion_lat": 0.0, "name": "fa85af670a7e8da4d83542fd758917f4", "fusion_lon": 0.0}, {"is_reserved": 0, "type": "electric_scooter", "bike_id": "d81301280dbfc5af082bca7340287c49", "lat": 38.91686883333333, "lon": -77.03623566666667, "rental_uris": {"android": "https://dc.lft.to/lastmile_qr_scan", "ios": "https://dc.lft.to/lastmile_qr_scan"}, "is_disabled": 0, "fusion_lat": 0.0, "name": "d81301280dbfc5af082bca7340287c49", "fusion_lon": 0.0}, {"is_reserved": 0, "type": "electric_bike", "bike_id": "8e6fd68d58cf2199426978a203551652", "lat": 38.958701833333336, "lon": -76.97049816666667, "rental_uris": {"android": "https://dc.lft.to/lastmile_qr_scan", "ios": "https://dc.lft.to/lastmile_qr_scan"}, "is_disabled": 0, "fusion_lat": 0.0, "name": "8e6fd68d58cf2199426978a203551652", "fusion_lon": 0.0}, {"is_reserved": 0, "type": "electric_scooter", "bike_id": "4bf987f5cf370f68067443108427fbc5", "lat": 38.9056935, "lon": -77.00426516666667, "rental_uris": {"android": "https://dc.lft.to/lastmile_qr_scan", "ios": "https://dc.lft.to/lastmile_qr_scan"}, "is_disabled": 0, "fusion_lat": 0.0, "name": "4bf987f5cf370f68067443108427fbc5", "fusion_lon": 0.0}, {"is_reserved": 0, "type": "electric_scooter", "bike_id": "f1d729e53fa95b621c7a2a847ee47f08", "lat": 38.893716833333336, "lon": -76.9479575, "rental_uris": {"android": "https://dc.lft.to/lastmile_qr_scan", "ios": "https://dc.lft.to/lastmile_qr_scan"}, "is_disabled": 0, "fusion_lat": 0.0, "name": "f1d729e53fa95b621c7a2a847ee47f08", "fusion_lon": 0.0}, {"is_reserved": 0, "type": "electric_scooter", "bike_id": "4d244d7c0a55d56e0010c516ca532ee3", "lat": 38.93231016666667, "lon": -76.9975215, "rental_uris": {"android": "https://dc.lft.to/lastmile_qr_scan", "ios": "https://dc.lft.to/lastmile_qr_scan"}, "is_disabled": 0, "fusion_lat": 0.0, "name": "4d244d7c0a55d56e0010c516ca532ee3", "fusion_lon": 0.0}, {"is_reserved": 0, "type": "electric_scooter", "bike_id": "722d49db9f4d8c13176c4d7b7c004850", "lat": 38.874694166666664, "lon": -77.00543533333334, "rental_uris": {"android": "https://dc.lft.to/lastmile_qr_scan", "ios": "https://dc.lft.to/lastmile_qr_scan"}, "is_disabled": 0, "fusion_lat": 0.0, "name": "722d49db9f4d8c13176c4d7b7c004850", "fusion_lon": 0.0}, {"is_reserved": 0, "type": "electric_scooter", "bike_id": "55067456208ce5cd03b1650ecf37c0b2", "lat": 38.896171, "lon": -76.99729883333333, "rental_uris": {"android": "https://dc.lft.to/lastmile_qr_scan", "ios": "https://dc.lft.to/lastmile_qr_scan"}, "is_disabled": 0, "fusion_lat": 0.0, "name": "55067456208ce5cd03b1650ecf37c0b2", "fusion_lon": 0.0}, {"is_reserved": 0, "type": "electric_scooter", "bike_id": "57f1a1a7683dcba2d50e11c74255d547", "lat": 38.89227416666667, "lon": -77.03185616666667, "rental_uris": {"android": "https://dc.lft.to/lastmile_qr_scan", "ios": "https://dc.lft.to/lastmile_qr_scan"}, "is_disabled": 0, "fusion_lat": 0.0, "name": "57f1a1a7683dcba2d50e11c74255d547", "fusion_lon": 0.0}, {"is_reserved": 0, "type": "electric_scooter", "bike_id": "a895e50eaf1f2c1c63346728ca46eb51", "lat": 38.91648283333333, "lon": -77.02175616666666, "rental_uris": {"android": "https://dc.lft.to/lastmile_qr_scan", "ios": "https://dc.lft.to/lastmile_qr_scan"}, "is_disabled": 0, "fusion_lat": 0.0, "name": "a895e50eaf1f2c1c63346728ca46eb51", "fusion_lon": 0.0}, {"is_reserved": 0, "type": "electric_bike", "bike_id": "4263488d6ca5a15a5ad43c929f402a20", "lat": 38.85789233333333, "lon": -77.09960033333333, "rental_uris": {"android": "https://dc.lft.to/lastmile_qr_scan", "ios": "https://dc.lft.to/lastmile_qr_scan"}, "is_disabled": 0, "fusion_lat": 0.0, "name": "4263488d6ca5a15a5ad43c929f402a20", "fusion_lon": 0.0}, {"is_reserved": 0, "type": "electric_scooter", "bike_id": "dfd04a038c5c3d261c14099727c36369", "lat": 38.92397716666667, "lon": -77.05055366666667, "rental_uris": {"android": "https://dc.lft.to/lastmile_qr_scan", "ios": "https://dc.lft.to/lastmile_qr_scan"}, "is_disabled": 0, "fusion_lat": 0.0, "name": "dfd04a038c5c3d261c14099727c36369", "fusion_lon": 0.0}, {"is_reserved": 0, "type": "electric_scooter", "bike_id": "1b986f7093f8a4d2cc52f937263b94d8", "lat": 38.883708666666664, "lon": -76.9951525, "rental_uris": {"android": "https://dc.lft.to/lastmile_qr_scan", "ios": "https://dc.lft.to/lastmile_qr_scan"}, "is_disabled": 0, "fusion_lat": 0.0, "name": "1b986f7093f8a4d2cc52f937263b94d8", "fusion_lon": 0.0}, {"is_reserved": 0, "type": "electric_scooter", "bike_id": "e17b0d1d09333d60f61ce2d0d68b624a", "lat": 38.9242575, "lon": -77.01939483333334, "rental_uris": {"android": "https://dc.lft.to/lastmile_qr_scan", "ios": "https://dc.lft.to/lastmile_qr_scan"}, "is_disabled": 0, "fusion_lat": 0.0, "name": "e17b0d1d09333d60f61ce2d0d68b624a", "fusion_lon": 0.0}, {"is_reserved": 0, "type": "electric_scooter", "bike_id": "fb4ece7396a35613975083bb1da0afcc", "lat": 38.88754483333334, "lon": -76.9961065, "rental_uris": {"android": "https://dc.lft.to/lastmile_qr_scan", "ios": "https://dc.lft.to/lastmile_qr_scan"}, "is_disabled": 0, "fusion_lat": 0.0, "name": "fb4ece7396a35613975083bb1da0afcc", "fusion_lon": 0.0}, {"is_reserved": 0, "type": "electric_scooter", "bike_id": "7c01734a4fcb13e290f18d6d3b3d16e8", "lat": 38.89787883333333, "lon": -77.01612483333334, "rental_uris": {"android": "https://dc.lft.to/lastmile_qr_scan", "ios": "https://dc.lft.to/lastmile_qr_scan"}, "is_disabled": 0, "fusion_lat": 0.0, "name": "7c01734a4fcb13e290f18d6d3b3d16e8", "fusion_lon": 0.0}, {"is_reserved": 0, "type": "electric_scooter", "bike_id": "7b4abbc2869042866aa1bd5a96a6fcf5", "lat": 38.92236066666667, "lon": -77.0351995, "rental_uris": {"android": "https://dc.lft.to/lastmile_qr_scan", "ios": "https://dc.lft.to/lastmile_qr_scan"}, "is_disabled": 0, "fusion_lat": 0.0, "name": "7b4abbc2869042866aa1bd5a96a6fcf5", "fusion_lon": 0.0}, {"is_reserved": 0, "type": "electric_scooter", "bike_id": "bd965bf6fb4a60eafbbaaa6cf621c185", "lat": 38.941806166666666, "lon": -77.025648, "rental_uris": {"android": "https://dc.lft.to/lastmile_qr_scan", "ios": "https://dc.lft.to/lastmile_qr_scan"}, "is_disabled": 0, "fusion_lat": 0.0, "name": "bd965bf6fb4a60eafbbaaa6cf621c185", "fusion_lon": 0.0}, {"is_reserved": 0, "type": "electric_scooter", "bike_id": "aaed6a9d6cbe94d1a6015a3c295c3874", "lat": 38.878691, "lon": -76.962557, "rental_uris": {"android": "https://dc.lft.to/lastmile_qr_scan", "ios": "https://dc.lft.to/lastmile_qr_scan"}, "is_disabled": 0, "fusion_lat": 0.0, "name": "aaed6a9d6cbe94d1a6015a3c295c3874", "fusion_lon": 0.0}, {"is_reserved": 0, "type": "electric_scooter", "bike_id": "b5256f13dd073464eafda9540deaccac", "lat": 38.9243525, "lon": -77.02029433333334, "rental_uris": {"android": "https://dc.lft.to/lastmile_qr_scan", "ios": "https://dc.lft.to/lastmile_qr_scan"}, "is_disabled": 0, "fusion_lat": 0.0, "name": "b5256f13dd073464eafda9540deaccac", "fusion_lon": 0.0}, {"is_reserved": 0, "type": "electric_scooter", "bike_id": "bf068e1333de92b46d0443be76ec3827", "lat": 38.900532, "lon": -77.00751433333333, "rental_uris": {"android": "https://dc.lft.to/lastmile_qr_scan", "ios": "https://dc.lft.to/lastmile_qr_scan"}, "is_disabled": 0, "fusion_lat": 0.0, "name": "bf068e1333de92b46d0443be76ec3827", "fusion_lon": 0.0}, {"is_reserved": 0, "type": "electric_bike", "bike_id": "329b40ff7d8e466dc9ffc4e28c9aaeba", "lat": 38.958441, "lon": -76.98604866666666, "rental_uris": {"android": "https://dc.lft.to/lastmile_qr_scan", "ios": "https://dc.lft.to/lastmile_qr_scan"}, "is_disabled": 0, "fusion_lat": 0.0, "name": "329b40ff7d8e466dc9ffc4e28c9aaeba", "fusion_lon": 0.0}, {"is_reserved": 0, "type": "electric_scooter", "bike_id": "86de3ec452868e3211783915e8604ee4", "lat": 38.90241133333333, "lon": -77.059812, "rental_uris": {"android": "https://dc.lft.to/lastmile_qr_scan", "ios": "https://dc.lft.to/lastmile_qr_scan"}, "is_disabled": 0, "fusion_lat": 0.0, "name": "86de3ec452868e3211783915e8604ee4", "fusion_lon": 0.0}, {"is_reserved": 0, "type": "electric_scooter", "bike_id": "139f301c73eb8acbe7e45192c75efb70", "lat": 38.924209, "lon": -77.02010983333334, "rental_uris": {"android": "https://dc.lft.to/lastmile_qr_scan", "ios": "https://dc.lft.to/lastmile_qr_scan"}, "is_disabled": 0, "fusion_lat": 0.0, "name": "139f301c73eb8acbe7e45192c75efb70", "fusion_lon": 0.0}, {"is_reserved": 0, "type": "electric_scooter", "bike_id": "a401a42ab479d3dade90645e63fc5f45", "lat": 38.933599, "lon": -77.02478816666667, "rental_uris": {"android": "https://dc.lft.to/lastmile_qr_scan", "ios": "https://dc.lft.to/lastmile_qr_scan"}, "is_disabled": 0, "fusion_lat": 0.0, "name": "a401a42ab479d3dade90645e63fc5f45", "fusion_lon": 0.0}, {"is_reserved": 0, "type": "electric_scooter", "bike_id": "4613cf946221496a7d4b252d0a86c01d", "lat": 38.9217395, "lon": -77.04231033333333, "rental_uris": {"android": "https://dc.lft.to/lastmile_qr_scan", "ios": "https://dc.lft.to/lastmile_qr_scan"}, "is_disabled": 0, "fusion_lat": 0.0, "name": "4613cf946221496a7d4b252d0a86c01d", "fusion_lon": 0.0}, {"is_reserved": 0, "type": "electric_scooter", "bike_id": "5d8fc65a0b7ee7fedc15144c060a18a1", "lat": 38.9006405, "lon": -77.04931983333333, "rental_uris": {"android": "https://dc.lft.to/lastmile_qr_scan", "ios": "https://dc.lft.to/lastmile_qr_scan"}, "is_disabled": 0, "fusion_lat": 0.0, "name": "5d8fc65a0b7ee7fedc15144c060a18a1", "fusion_lon": 0.0}, {"is_reserved": 0, "type": "electric_scooter", "bike_id": "569a1c80b78b57e6e350720630180465", "lat": 38.95322916666667, "lon": -77.06927283333333, "rental_uris": {"android": "https://dc.lft.to/lastmile_qr_scan", "ios": "https://dc.lft.to/lastmile_qr_scan"}, "is_disabled": 0, "fusion_lat": 0.0, "name": "569a1c80b78b57e6e350720630180465", "fusion_lon": 0.0}, {"is_reserved": 0, "type": "electric_scooter", "bike_id": "97763016773adccc1bd9a4a6f974705f", "lat": 38.901708, "lon": -77.03858733333334, "rental_uris": {"android": "https://dc.lft.to/lastmile_qr_scan", "ios": "https://dc.lft.to/lastmile_qr_scan"}, "is_disabled": 0, "fusion_lat": 0.0, "name": "97763016773adccc1bd9a4a6f974705f", "fusion_lon": 0.0}, {"is_reserved": 0, "type": "electric_scooter", "bike_id": "e3644a3d0b5d43eff0969d02ce8a3c3e", "lat": 38.92549366666667, "lon": -77.02277216666667, "rental_uris": {"android": "https://dc.lft.to/lastmile_qr_scan", "ios": "https://dc.lft.to/lastmile_qr_scan"}, "is_disabled": 0, "fusion_lat": 0.0, "name": "e3644a3d0b5d43eff0969d02ce8a3c3e", "fusion_lon": 0.0}, {"is_reserved": 0, "type": "electric_scooter", "bike_id": "52f1bd58e3f98a049935842eddcf9ae7", "lat": 38.89527966666667, "lon": -77.02960583333333, "rental_uris": {"android": "https://dc.lft.to/lastmile_qr_scan", "ios": "https://dc.lft.to/lastmile_qr_scan"}, "is_disabled": 0, "fusion_lat": 0.0, "name": "52f1bd58e3f98a049935842eddcf9ae7", "fusion_lon": 0.0}, {"is_reserved": 0, "type": "electric_scooter", "bike_id": "1e74ccc0b208dd99cc86298192e36515", "lat": 38.92373516666667, "lon": -77.05753966666667, "rental_uris": {"android": "https://dc.lft.to/lastmile_qr_scan", "ios": "https://dc.lft.to/lastmile_qr_scan"}, "is_disabled": 0, "fusion_lat": 0.0, "name": "1e74ccc0b208dd99cc86298192e36515", "fusion_lon": 0.0}, {"is_reserved": 0, "type": "electric_scooter", "bike_id": "eb13e6273119a0db336a08f8d114c8eb", "lat": 38.896947, "lon": -77.00494583333334, "rental_uris": {"android": "https://dc.lft.to/lastmile_qr_scan", "ios": "https://dc.lft.to/lastmile_qr_scan"}, "is_disabled": 0, "fusion_lat": 0.0, "name": "eb13e6273119a0db336a08f8d114c8eb", "fusion_lon": 0.0}, {"is_reserved": 0, "type": "electric_scooter", "bike_id": "8062f1569747af73c967a0c130529de6", "lat": 38.90184216666667, "lon": -76.93002333333334, "rental_uris": {"android": "https://dc.lft.to/lastmile_qr_scan", "ios": "https://dc.lft.to/lastmile_qr_scan"}, "is_disabled": 0, "fusion_lat": 0.0, "name": "8062f1569747af73c967a0c130529de6", "fusion_lon": 0.0}, {"is_reserved": 0, "type": "electric_bike", "bike_id": "d1a50ce12ad8103c416e4a21feca208a", "lat": 38.8587505, "lon": -77.09556366666666, "rental_uris": {"android": "https://dc.lft.to/lastmile_qr_scan", "ios": "https://dc.lft.to/lastmile_qr_scan"}, "is_disabled": 0, "fusion_lat": 0.0, "name": "d1a50ce12ad8103c416e4a21feca208a", "fusion_lon": 0.0}, {"is_reserved": 0, "type": "electric_scooter", "bike_id": "a0b627e3890b5f49db8c3234bcc7f771", "lat": 38.93356583333333, "lon": -77.05723116666667, "rental_uris": {"android": "https://dc.lft.to/lastmile_qr_scan", "ios": "https://dc.lft.to/lastmile_qr_scan"}, "is_disabled": 0, "fusion_lat": 0.0, "name": "a0b627e3890b5f49db8c3234bcc7f771", "fusion_lon": 0.0}, {"is_reserved": 0, "type": "electric_scooter", "bike_id": "b06a5a935e7ec9abf60fe3166d006668", "lat": 38.9112555, "lon": -77.02195466666667, "rental_uris": {"android": "https://dc.lft.to/lastmile_qr_scan", "ios": "https://dc.lft.to/lastmile_qr_scan"}, "is_disabled": 0, "fusion_lat": 0.0, "name": "b06a5a935e7ec9abf60fe3166d006668", "fusion_lon": 0.0}, {"is_reserved": 0, "type": "electric_scooter", "bike_id": "e4a74357a2224b371b42d7e5a41533be", "lat": 38.932464333333336, "lon": -77.02936083333333, "rental_uris": {"android": "https://dc.lft.to/lastmile_qr_scan", "ios": "https://dc.lft.to/lastmile_qr_scan"}, "is_disabled": 0, "fusion_lat": 0.0, "name": "e4a74357a2224b371b42d7e5a41533be", "fusion_lon": 0.0}, {"is_reserved": 0, "type": "electric_scooter", "bike_id": "d63f8be32cabecdfe8dddb291598a7b6", "lat": 38.879570666666666, "lon": -77.02369016666667, "rental_uris": {"android": "https://dc.lft.to/lastmile_qr_scan", "ios": "https://dc.lft.to/lastmile_qr_scan"}, "is_disabled": 0, "fusion_lat": 0.0, "name": "d63f8be32cabecdfe8dddb291598a7b6", "fusion_lon": 0.0}, {"is_reserved": 0, "type": "electric_scooter", "bike_id": "93f41f28567b7efb62be151b649da95e", "lat": 38.92422, "lon": -77.02012133333334, "rental_uris": {"android": "https://dc.lft.to/lastmile_qr_scan", "ios": "https://dc.lft.to/lastmile_qr_scan"}, "is_disabled": 0, "fusion_lat": 0.0, "name": "93f41f28567b7efb62be151b649da95e", "fusion_lon": 0.0}, {"is_reserved": 0, "type": "electric_scooter", "bike_id": "463360c5454cf685604517f1475a553c", "lat": 38.93954433333333, "lon": -77.02757166666666, "rental_uris": {"android": "https://dc.lft.to/lastmile_qr_scan", "ios": "https://dc.lft.to/lastmile_qr_scan"}, "is_disabled": 0, "fusion_lat": 0.0, "name": "463360c5454cf685604517f1475a553c", "fusion_lon": 0.0}, {"is_reserved": 0, "type": "electric_scooter", "bike_id": "585712caae5e6e82baab8123e80a3731", "lat": 38.9055605, "lon": -77.03273833333333, "rental_uris": {"android": "https://dc.lft.to/lastmile_qr_scan", "ios": "https://dc.lft.to/lastmile_qr_scan"}, "is_disabled": 0, "fusion_lat": 0.0, "name": "585712caae5e6e82baab8123e80a3731", "fusion_lon": 0.0}, {"is_reserved": 0, "type": "electric_scooter", "bike_id": "a78d15913ba156ffbd6e2458caf88a32", "lat": 38.9079515, "lon": -77.0424535, "rental_uris": {"android": "https://dc.lft.to/lastmile_qr_scan", "ios": "https://dc.lft.to/lastmile_qr_scan"}, "is_disabled": 0, "fusion_lat": 0.0, "name": "a78d15913ba156ffbd6e2458caf88a32", "fusion_lon": 0.0}, {"is_reserved": 0, "type": "electric_scooter", "bike_id": "62427fb9710db8ff5e91d9afd96167e2", "lat": 38.9196515, "lon": -77.02224766666667, "rental_uris": {"android": "https://dc.lft.to/lastmile_qr_scan", "ios": "https://dc.lft.to/lastmile_qr_scan"}, "is_disabled": 0, "fusion_lat": 0.0, "name": "62427fb9710db8ff5e91d9afd96167e2", "fusion_lon": 0.0}, {"is_reserved": 0, "type": "electric_scooter", "bike_id": "f0dfc3d34bc933d76f1c53e5fbac78af", "lat": 38.905679166666665, "lon": -77.02410133333333, "rental_uris": {"android": "https://dc.lft.to/lastmile_qr_scan", "ios": "https://dc.lft.to/lastmile_qr_scan"}, "is_disabled": 0, "fusion_lat": 0.0, "name": "f0dfc3d34bc933d76f1c53e5fbac78af", "fusion_lon": 0.0}, {"is_reserved": 0, "type": "electric_scooter", "bike_id": "4b60f1c1c86d4c52ff6720ba0e54b5ab", "lat": 38.914916, "lon": -77.01999483333333, "rental_uris": {"android": "https://dc.lft.to/lastmile_qr_scan", "ios": "https://dc.lft.to/lastmile_qr_scan"}, "is_disabled": 0, "fusion_lat": 0.0, "name": "4b60f1c1c86d4c52ff6720ba0e54b5ab", "fusion_lon": 0.0}, {"is_reserved": 0, "type": "electric_scooter", "bike_id": "3476a1f42989e1823be47081561f5b50", "lat": 38.8969525, "lon": -77.0502765, "rental_uris": {"android": "https://dc.lft.to/lastmile_qr_scan", "ios": "https://dc.lft.to/lastmile_qr_scan"}, "is_disabled": 0, "fusion_lat": 0.0, "name": "3476a1f42989e1823be47081561f5b50", "fusion_lon": 0.0}, {"is_reserved": 0, "type": "electric_scooter", "bike_id": "79f559d8090307a1e89d4eaada6a6c20", "lat": 38.9125655, "lon": -77.03862583333333, "rental_uris": {"android": "https://dc.lft.to/lastmile_qr_scan", "ios": "https://dc.lft.to/lastmile_qr_scan"}, "is_disabled": 0, "fusion_lat": 0.0, "name": "79f559d8090307a1e89d4eaada6a6c20", "fusion_lon": 0.0}, {"is_reserved": 0, "type": "electric_scooter", "bike_id": "e3e84dde421c8fc5b2f7d9946fe9c3f9", "lat": 38.924200666666664, "lon": -77.019413, "rental_uris": {"android": "https://dc.lft.to/lastmile_qr_scan", "ios": "https://dc.lft.to/lastmile_qr_scan"}, "is_disabled": 0, "fusion_lat": 0.0, "name": "e3e84dde421c8fc5b2f7d9946fe9c3f9", "fusion_lon": 0.0}, {"is_reserved": 0, "type": "electric_bike", "bike_id": "7252fca0dd8b294ccb04748c9920d541", "lat": 38.85420033333333, "lon": -77.08364566666667, "rental_uris": {"android": "https://dc.lft.to/lastmile_qr_scan", "ios": "https://dc.lft.to/lastmile_qr_scan"}, "is_disabled": 0, "fusion_lat": 0.0, "name": "7252fca0dd8b294ccb04748c9920d541", "fusion_lon": 0.0}, {"is_reserved": 0, "type": "electric_bike", "bike_id": "46ad8092a2f0f9534e55818838558a6f", "lat": 38.96441183333334, "lon": -77.03158566666667, "rental_uris": {"android": "https://dc.lft.to/lastmile_qr_scan", "ios": "https://dc.lft.to/lastmile_qr_scan"}, "is_disabled": 0, "fusion_lat": 0.0, "name": "46ad8092a2f0f9534e55818838558a6f", "fusion_lon": 0.0}, {"is_reserved": 0, "type": "electric_scooter", "bike_id": "79fb768fca46c88955435902d7601767", "lat": 38.90773333333333, "lon": -77.04514433333334, "rental_uris": {"android": "https://dc.lft.to/lastmile_qr_scan", "ios": "https://dc.lft.to/lastmile_qr_scan"}, "is_disabled": 0, "fusion_lat": 0.0, "name": "79fb768fca46c88955435902d7601767", "fusion_lon": 0.0}, {"is_reserved": 0, "type": "electric_scooter", "bike_id": "7e418b7dcff1e218c38a214036ca46eb", "lat": 38.91361233333333, "lon": -77.019981, "rental_uris": {"android": "https://dc.lft.to/lastmile_qr_scan", "ios": "https://dc.lft.to/lastmile_qr_scan"}, "is_disabled": 0, "fusion_lat": 0.0, "name": "7e418b7dcff1e218c38a214036ca46eb", "fusion_lon": 0.0}, {"is_reserved": 0, "type": "electric_scooter", "bike_id": "46d7fec644f05aeaf39bcd0c6706795d", "lat": 38.89722183333333, "lon": -77.02763233333333, "rental_uris": {"android": "https://dc.lft.to/lastmile_qr_scan", "ios": "https://dc.lft.to/lastmile_qr_scan"}, "is_disabled": 0, "fusion_lat": 0.0, "name": "46d7fec644f05aeaf39bcd0c6706795d", "fusion_lon": 0.0}, {"is_reserved": 0, "type": "electric_scooter", "bike_id": "29d4b754dac21d00989ea452e464e9e3", "lat": 38.922304, "lon": -77.04380416666666, "rental_uris": {"android": "https://dc.lft.to/lastmile_qr_scan", "ios": "https://dc.lft.to/lastmile_qr_scan"}, "is_disabled": 0, "fusion_lat": 0.0, "name": "29d4b754dac21d00989ea452e464e9e3", "fusion_lon": 0.0}, {"is_reserved": 0, "type": "electric_scooter", "bike_id": "8e15581ab7856fbd8ad849e161da179a", "lat": 38.9138475, "lon": -77.0260625, "rental_uris": {"android": "https://dc.lft.to/lastmile_qr_scan", "ios": "https://dc.lft.to/lastmile_qr_scan"}, "is_disabled": 0, "fusion_lat": 0.0, "name": "8e15581ab7856fbd8ad849e161da179a", "fusion_lon": 0.0}, {"is_reserved": 0, "type": "electric_bike", "bike_id": "265c978f3681e59bf93176f45bcc4e97", "lat": 38.87036033333333, "lon": -77.22905183333333, "rental_uris": {"android": "https://dc.lft.to/lastmile_qr_scan", "ios": "https://dc.lft.to/lastmile_qr_scan"}, "is_disabled": 0, "fusion_lat": 0.0, "name": "265c978f3681e59bf93176f45bcc4e97", "fusion_lon": 0.0}, {"is_reserved": 0, "type": "electric_scooter", "bike_id": "348390fd7ca452de34e2d099ddee59f9", "lat": 38.92447033333333, "lon": -77.02030966666666, "rental_uris": {"android": "https://dc.lft.to/lastmile_qr_scan", "ios": "https://dc.lft.to/lastmile_qr_scan"}, "is_disabled": 0, "fusion_lat": 0.0, "name": "348390fd7ca452de34e2d099ddee59f9", "fusion_lon": 0.0}, {"is_reserved": 0, "type": "electric_scooter", "bike_id": "b843831bb450d048e34644b47cda148c", "lat": 38.89421183333333, "lon": -76.998226, "rental_uris": {"android": "https://dc.lft.to/lastmile_qr_scan", "ios": "https://dc.lft.to/lastmile_qr_scan"}, "is_disabled": 0, "fusion_lat": 0.0, "name": "b843831bb450d048e34644b47cda148c", "fusion_lon": 0.0}, {"is_reserved": 0, "type": "electric_scooter", "bike_id": "8f88915c223ce30bcefc90e86c05360a", "lat": 38.8900815, "lon": -76.937399, "rental_uris": {"android": "https://dc.lft.to/lastmile_qr_scan", "ios": "https://dc.lft.to/lastmile_qr_scan"}, "is_disabled": 0, "fusion_lat": 0.0, "name": "8f88915c223ce30bcefc90e86c05360a", "fusion_lon": 0.0}, {"is_reserved": 0, "type": "electric_scooter", "bike_id": "5c115d46bafd71f2f0d729b313c0afc8", "lat": 38.87659766666667, "lon": -77.00060783333333, "rental_uris": {"android": "https://dc.lft.to/lastmile_qr_scan", "ios": "https://dc.lft.to/lastmile_qr_scan"}, "is_disabled": 0, "fusion_lat": 0.0, "name": "5c115d46bafd71f2f0d729b313c0afc8", "fusion_lon": 0.0}, {"is_reserved": 0, "type": "electric_scooter", "bike_id": "d2065602b18699433f9ddd963acae225", "lat": 38.94218866666667, "lon": -77.02962, "rental_uris": {"android": "https://dc.lft.to/lastmile_qr_scan", "ios": "https://dc.lft.to/lastmile_qr_scan"}, "is_disabled": 0, "fusion_lat": 0.0, "name": "d2065602b18699433f9ddd963acae225", "fusion_lon": 0.0}, {"is_reserved": 0, "type": "electric_scooter", "bike_id": "c7d04d610a8e497c4c76183b766bf4e4", "lat": 38.92195816666667, "lon": -77.02408533333333, "rental_uris": {"android": "https://dc.lft.to/lastmile_qr_scan", "ios": "https://dc.lft.to/lastmile_qr_scan"}, "is_disabled": 0, "fusion_lat": 0.0, "name": "c7d04d610a8e497c4c76183b766bf4e4", "fusion_lon": 0.0}, {"is_reserved": 0, "type": "electric_scooter", "bike_id": "3973a5cf210416158439d479f41a7490", "lat": 38.9212065, "lon": -77.04426416666666, "rental_uris": {"android": "https://dc.lft.to/lastmile_qr_scan", "ios": "https://dc.lft.to/lastmile_qr_scan"}, "is_disabled": 0, "fusion_lat": 0.0, "name": "3973a5cf210416158439d479f41a7490", "fusion_lon": 0.0}, {"is_reserved": 0, "type": "electric_bike", "bike_id": "502296c4a42e0dfba62cbd6af8431a30", "lat": 38.99883633333334, "lon": -76.90858983333334, "rental_uris": {"android": "https://dc.lft.to/lastmile_qr_scan", "ios": "https://dc.lft.to/lastmile_qr_scan"}, "is_disabled": 0, "fusion_lat": 0.0, "name": "502296c4a42e0dfba62cbd6af8431a30", "fusion_lon": 0.0}, {"is_reserved": 0, "type": "electric_scooter", "bike_id": "a67ea407bb89bab8368c0b63ebf32dc2", "lat": 38.905932666666665, "lon": -76.95049766666666, "rental_uris": {"android": "https://dc.lft.to/lastmile_qr_scan", "ios": "https://dc.lft.to/lastmile_qr_scan"}, "is_disabled": 0, "fusion_lat": 0.0, "name": "a67ea407bb89bab8368c0b63ebf32dc2", "fusion_lon": 0.0}, {"is_reserved": 0, "type": "electric_scooter", "bike_id": "91f34d85346422bd7617a79972671c33", "lat": 38.9064075, "lon": -77.011368, "rental_uris": {"android": "https://dc.lft.to/lastmile_qr_scan", "ios": "https://dc.lft.to/lastmile_qr_scan"}, "is_disabled": 0, "fusion_lat": 0.0, "name": "91f34d85346422bd7617a79972671c33", "fusion_lon": 0.0}, {"is_reserved": 0, "type": "electric_bike", "bike_id": "024f28cec28de33092a0ca92b269929d", "lat": 38.8945205, "lon": -77.19130716666666, "rental_uris": {"android": "https://dc.lft.to/lastmile_qr_scan", "ios": "https://dc.lft.to/lastmile_qr_scan"}, "is_disabled": 0, "fusion_lat": 0.0, "name": "024f28cec28de33092a0ca92b269929d", "fusion_lon": 0.0}, {"is_reserved": 0, "type": "electric_scooter", "bike_id": "e1ed26e8957196a527291c6cef2f546a", "lat": 38.94436416666667, "lon": -77.06350016666667, "rental_uris": {"android": "https://dc.lft.to/lastmile_qr_scan", "ios": "https://dc.lft.to/lastmile_qr_scan"}, "is_disabled": 0, "fusion_lat": 0.0, "name": "e1ed26e8957196a527291c6cef2f546a", "fusion_lon": 0.0}, {"is_reserved": 0, "type": "electric_scooter", "bike_id": "f0a2073a99337bb315492978e020292d", "lat": 38.91414, "lon": -77.02609516666666, "rental_uris": {"android": "https://dc.lft.to/lastmile_qr_scan", "ios": "https://dc.lft.to/lastmile_qr_scan"}, "is_disabled": 0, "fusion_lat": 0.0, "name": "f0a2073a99337bb315492978e020292d", "fusion_lon": 0.0}, {"is_reserved": 0, "type": "electric_scooter", "bike_id": "578301a7f48ff8d8158df659bf29a615", "lat": 38.908681666666666, "lon": -77.03459583333333, "rental_uris": {"android": "https://dc.lft.to/lastmile_qr_scan", "ios": "https://dc.lft.to/lastmile_qr_scan"}, "is_disabled": 0, "fusion_lat": 0.0, "name": "578301a7f48ff8d8158df659bf29a615", "fusion_lon": 0.0}, {"is_reserved": 0, "type": "electric_scooter", "bike_id": "af1d140f7aabd6c2358912a7a14d763f", "lat": 38.883945833333335, "lon": -76.930359, "rental_uris": {"android": "https://dc.lft.to/lastmile_qr_scan", "ios": "https://dc.lft.to/lastmile_qr_scan"}, "is_disabled": 0, "fusion_lat": 0.0, "name": "af1d140f7aabd6c2358912a7a14d763f", "fusion_lon": 0.0}, {"is_reserved": 0, "type": "electric_scooter", "bike_id": "0ff80be4db9723866188e287f9bb68d9", "lat": 38.9320905, "lon": -77.03894216666667, "rental_uris": {"android": "https://dc.lft.to/lastmile_qr_scan", "ios": "https://dc.lft.to/lastmile_qr_scan"}, "is_disabled": 0, "fusion_lat": 0.0, "name": "0ff80be4db9723866188e287f9bb68d9", "fusion_lon": 0.0}, {"is_reserved": 0, "type": "electric_scooter", "bike_id": "b4822bb95c2b95c78446c2e81c70c2d0", "lat": 38.925538833333334, "lon": -76.981457, "rental_uris": {"android": "https://dc.lft.to/lastmile_qr_scan", "ios": "https://dc.lft.to/lastmile_qr_scan"}, "is_disabled": 0, "fusion_lat": 0.0, "name": "b4822bb95c2b95c78446c2e81c70c2d0", "fusion_lon": 0.0}, {"is_reserved": 0, "type": "electric_scooter", "bike_id": "13f3dfdd625e3c88873e2ddba24edc61", "lat": 38.943203, "lon": -77.0652665, "rental_uris": {"android": "https://dc.lft.to/lastmile_qr_scan", "ios": "https://dc.lft.to/lastmile_qr_scan"}, "is_disabled": 0, "fusion_lat": 0.0, "name": "13f3dfdd625e3c88873e2ddba24edc61", "fusion_lon": 0.0}, {"is_reserved": 0, "type": "electric_scooter", "bike_id": "5aae090007491a804998e76662f7dce0", "lat": 38.892282, "lon": -77.049989, "rental_uris": {"android": "https://dc.lft.to/lastmile_qr_scan", "ios": "https://dc.lft.to/lastmile_qr_scan"}, "is_disabled": 0, "fusion_lat": 0.0, "name": "5aae090007491a804998e76662f7dce0", "fusion_lon": 0.0}, {"is_reserved": 0, "type": "electric_scooter", "bike_id": "2898e368f729bd06bf04b51ec86d6781", "lat": 38.9336935, "lon": -77.02029116666667, "rental_uris": {"android": "https://dc.lft.to/lastmile_qr_scan", "ios": "https://dc.lft.to/lastmile_qr_scan"}, "is_disabled": 0, "fusion_lat": 0.0, "name": "2898e368f729bd06bf04b51ec86d6781", "fusion_lon": 0.0}, {"is_reserved": 0, "type": "electric_scooter", "bike_id": "e7d868da0a5ad7cf0e7dfa50e1f3b707", "lat": 38.872861666666665, "lon": -77.00984933333334, "rental_uris": {"android": "https://dc.lft.to/lastmile_qr_scan", "ios": "https://dc.lft.to/lastmile_qr_scan"}, "is_disabled": 0, "fusion_lat": 0.0, "name": "e7d868da0a5ad7cf0e7dfa50e1f3b707", "fusion_lon": 0.0}, {"is_reserved": 0, "type": "electric_scooter", "bike_id": "4e7ea45d27187cd6d14b1fbf0873ddbe", "lat": 38.912214666666664, "lon": -77.011208, "rental_uris": {"android": "https://dc.lft.to/lastmile_qr_scan", "ios": "https://dc.lft.to/lastmile_qr_scan"}, "is_disabled": 0, "fusion_lat": 0.0, "name": "4e7ea45d27187cd6d14b1fbf0873ddbe", "fusion_lon": 0.0}, {"is_reserved": 0, "type": "electric_scooter", "bike_id": "5fdffa7041c7e37fcb35585001c2c9e8", "lat": 38.904461, "lon": -77.06265366666666, "rental_uris": {"android": "https://dc.lft.to/lastmile_qr_scan", "ios": "https://dc.lft.to/lastmile_qr_scan"}, "is_disabled": 0, "fusion_lat": 0.0, "name": "5fdffa7041c7e37fcb35585001c2c9e8", "fusion_lon": 0.0}, {"is_reserved": 0, "type": "electric_scooter", "bike_id": "3de63cb4694b4b8542dc03e2e9246fa8", "lat": 38.91816166666667, "lon": -77.05892266666666, "rental_uris": {"android": "https://dc.lft.to/lastmile_qr_scan", "ios": "https://dc.lft.to/lastmile_qr_scan"}, "is_disabled": 0, "fusion_lat": 0.0, "name": "3de63cb4694b4b8542dc03e2e9246fa8", "fusion_lon": 0.0}, {"is_reserved": 0, "type": "electric_scooter", "bike_id": "89a806b8dff9d9cf3a5301e75b0541b3", "lat": 38.89220516666666, "lon": -77.02218233333333, "rental_uris": {"android": "https://dc.lft.to/lastmile_qr_scan", "ios": "https://dc.lft.to/lastmile_qr_scan"}, "is_disabled": 0, "fusion_lat": 0.0, "name": "89a806b8dff9d9cf3a5301e75b0541b3", "fusion_lon": 0.0}, {"is_reserved": 0, "type": "electric_scooter", "bike_id": "c7b0fee1292fa14847256f2f732eb8e4", "lat": 38.9025205, "lon": -77.0167715, "rental_uris": {"android": "https://dc.lft.to/lastmile_qr_scan", "ios": "https://dc.lft.to/lastmile_qr_scan"}, "is_disabled": 0, "fusion_lat": 0.0, "name": "c7b0fee1292fa14847256f2f732eb8e4", "fusion_lon": 0.0}, {"is_reserved": 0, "type": "electric_scooter", "bike_id": "320f86f64bbd9502d1078375ff18e1b9", "lat": 38.916494166666666, "lon": -77.021777, "rental_uris": {"android": "https://dc.lft.to/lastmile_qr_scan", "ios": "https://dc.lft.to/lastmile_qr_scan"}, "is_disabled": 0, "fusion_lat": 0.0, "name": "320f86f64bbd9502d1078375ff18e1b9", "fusion_lon": 0.0}, {"is_reserved": 0, "type": "electric_scooter", "bike_id": "de78a1ce00ae516e22d1bbd505dac78a", "lat": 38.9087475, "lon": -77.0019965, "rental_uris": {"android": "https://dc.lft.to/lastmile_qr_scan", "ios": "https://dc.lft.to/lastmile_qr_scan"}, "is_disabled": 0, "fusion_lat": 0.0, "name": "de78a1ce00ae516e22d1bbd505dac78a", "fusion_lon": 0.0}, {"is_reserved": 0, "type": "electric_scooter", "bike_id": "e45e3e53351764f99e7123b0d4345937", "lat": 38.92448316666667, "lon": -77.02029866666666, "rental_uris": {"android": "https://dc.lft.to/lastmile_qr_scan", "ios": "https://dc.lft.to/lastmile_qr_scan"}, "is_disabled": 0, "fusion_lat": 0.0, "name": "e45e3e53351764f99e7123b0d4345937", "fusion_lon": 0.0}, {"is_reserved": 0, "type": "electric_scooter", "bike_id": "8af6249680dc4f4b9595e5e36b4ee371", "lat": 38.89895933333333, "lon": -77.0396705, "rental_uris": {"android": "https://dc.lft.to/lastmile_qr_scan", "ios": "https://dc.lft.to/lastmile_qr_scan"}, "is_disabled": 0, "fusion_lat": 0.0, "name": "8af6249680dc4f4b9595e5e36b4ee371", "fusion_lon": 0.0}, {"is_reserved": 0, "type": "electric_scooter", "bike_id": "0cded765b48a96b3e585d62531852ec3", "lat": 38.9180135, "lon": -77.031915, "rental_uris": {"android": "https://dc.lft.to/lastmile_qr_scan", "ios": "https://dc.lft.to/lastmile_qr_scan"}, "is_disabled": 0, "fusion_lat": 0.0, "name": "0cded765b48a96b3e585d62531852ec3", "fusion_lon": 0.0}, {"is_reserved": 0, "type": "electric_scooter", "bike_id": "ce1eb85d3705814e426345686871346f", "lat": 38.91118216666667, "lon": -77.03292433333333, "rental_uris": {"android": "https://dc.lft.to/lastmile_qr_scan", "ios": "https://dc.lft.to/lastmile_qr_scan"}, "is_disabled": 0, "fusion_lat": 0.0, "name": "ce1eb85d3705814e426345686871346f", "fusion_lon": 0.0}, {"is_reserved": 0, "type": "electric_scooter", "bike_id": "a9a1034c1f905ed9a28db424b811d8d2", "lat": 38.905021, "lon": -77.0293955, "rental_uris": {"android": "https://dc.lft.to/lastmile_qr_scan", "ios": "https://dc.lft.to/lastmile_qr_scan"}, "is_disabled": 0, "fusion_lat": 0.0, "name": "a9a1034c1f905ed9a28db424b811d8d2", "fusion_lon": 0.0}, {"is_reserved": 0, "type": "electric_scooter", "bike_id": "43285640eb434632ac74741ef1e05a3b", "lat": 38.892200833333334, "lon": -77.03186633333334, "rental_uris": {"android": "https://dc.lft.to/lastmile_qr_scan", "ios": "https://dc.lft.to/lastmile_qr_scan"}, "is_disabled": 0, "fusion_lat": 0.0, "name": "43285640eb434632ac74741ef1e05a3b", "fusion_lon": 0.0}, {"is_reserved": 0, "type": "electric_scooter", "bike_id": "d5b05a12a98f9cfbcbfc7db71c77659a", "lat": 38.899243, "lon": -76.94577, "rental_uris": {"android": "https://dc.lft.to/lastmile_qr_scan", "ios": "https://dc.lft.to/lastmile_qr_scan"}, "is_disabled": 0, "fusion_lat": 0.0, "name": "d5b05a12a98f9cfbcbfc7db71c77659a", "fusion_lon": 0.0}, {"is_reserved": 0, "type": "electric_scooter", "bike_id": "dde3c83438e572872b21bb367add873d", "lat": 38.904431333333335, "lon": -77.05846783333334, "rental_uris": {"android": "https://dc.lft.to/lastmile_qr_scan", "ios": "https://dc.lft.to/lastmile_qr_scan"}, "is_disabled": 0, "fusion_lat": 0.0, "name": "dde3c83438e572872b21bb367add873d", "fusion_lon": 0.0}, {"is_reserved": 0, "type": "electric_scooter", "bike_id": "346a01bd1ca365256e829561d728d4e8", "lat": 38.92435183333333, "lon": -77.0403815, "rental_uris": {"android": "https://dc.lft.to/lastmile_qr_scan", "ios": "https://dc.lft.to/lastmile_qr_scan"}, "is_disabled": 0, "fusion_lat": 0.0, "name": "346a01bd1ca365256e829561d728d4e8", "fusion_lon": 0.0}, {"is_reserved": 0, "type": "electric_scooter", "bike_id": "27e076fc17bebbe56661fceff047bc40", "lat": 38.89948583333333, "lon": -77.04664266666667, "rental_uris": {"android": "https://dc.lft.to/lastmile_qr_scan", "ios": "https://dc.lft.to/lastmile_qr_scan"}, "is_disabled": 0, "fusion_lat": 0.0, "name": "27e076fc17bebbe56661fceff047bc40", "fusion_lon": 0.0}, {"is_reserved": 0, "type": "electric_scooter", "bike_id": "24c9a00104bc4051c1a5fd30a8a7eccb", "lat": 38.899936333333336, "lon": -76.99012233333333, "rental_uris": {"android": "https://dc.lft.to/lastmile_qr_scan", "ios": "https://dc.lft.to/lastmile_qr_scan"}, "is_disabled": 0, "fusion_lat": 0.0, "name": "24c9a00104bc4051c1a5fd30a8a7eccb", "fusion_lon": 0.0}, {"is_reserved": 0, "type": "electric_scooter", "bike_id": "2eead3c6e90784c42cf8523bcba6a59d", "lat": 38.874697166666664, "lon": -77.00553166666667, "rental_uris": {"android": "https://dc.lft.to/lastmile_qr_scan", "ios": "https://dc.lft.to/lastmile_qr_scan"}, "is_disabled": 0, "fusion_lat": 0.0, "name": "2eead3c6e90784c42cf8523bcba6a59d", "fusion_lon": 0.0}, {"is_reserved": 0, "type": "electric_scooter", "bike_id": "e3c5fdfb290b09432a586d74d92fa1d0", "lat": 38.90519033333333, "lon": -77.04017633333333, "rental_uris": {"android": "https://dc.lft.to/lastmile_qr_scan", "ios": "https://dc.lft.to/lastmile_qr_scan"}, "is_disabled": 0, "fusion_lat": 0.0, "name": "e3c5fdfb290b09432a586d74d92fa1d0", "fusion_lon": 0.0}, {"is_reserved": 0, "type": "electric_scooter", "bike_id": "e460673766559b3f7efe0c7c1c2ce04d", "lat": 38.86120016666667, "lon": -76.98372816666667, "rental_uris": {"android": "https://dc.lft.to/lastmile_qr_scan", "ios": "https://dc.lft.to/lastmile_qr_scan"}, "is_disabled": 0, "fusion_lat": 0.0, "name": "e460673766559b3f7efe0c7c1c2ce04d", "fusion_lon": 0.0}, {"is_reserved": 0, "type": "electric_scooter", "bike_id": "c885c24587ddcffc90e4ab8137fe5522", "lat": 38.924537, "lon": -77.02156683333334, "rental_uris": {"android": "https://dc.lft.to/lastmile_qr_scan", "ios": "https://dc.lft.to/lastmile_qr_scan"}, "is_disabled": 0, "fusion_lat": 0.0, "name": "c885c24587ddcffc90e4ab8137fe5522", "fusion_lon": 0.0}, {"is_reserved": 0, "type": "electric_scooter", "bike_id": "c13302cd95abb1342b1aaf8186e19712", "lat": 38.908893166666665, "lon": -77.044033, "rental_uris": {"android": "https://dc.lft.to/lastmile_qr_scan", "ios": "https://dc.lft.to/lastmile_qr_scan"}, "is_disabled": 0, "fusion_lat": 0.0, "name": "c13302cd95abb1342b1aaf8186e19712", "fusion_lon": 0.0}, {"is_reserved": 0, "type": "electric_scooter", "bike_id": "bf25034a7d9776b868504cee54ddf527", "lat": 38.941823666666664, "lon": -77.0248745, "rental_uris": {"android": "https://dc.lft.to/lastmile_qr_scan", "ios": "https://dc.lft.to/lastmile_qr_scan"}, "is_disabled": 0, "fusion_lat": 0.0, "name": "bf25034a7d9776b868504cee54ddf527", "fusion_lon": 0.0}, {"is_reserved": 0, "type": "electric_scooter", "bike_id": "f94a7925b8642df103f9254727f65183", "lat": 38.896027333333336, "lon": -77.00925733333334, "rental_uris": {"android": "https://dc.lft.to/lastmile_qr_scan", "ios": "https://dc.lft.to/lastmile_qr_scan"}, "is_disabled": 0, "fusion_lat": 0.0, "name": "f94a7925b8642df103f9254727f65183", "fusion_lon": 0.0}, {"is_reserved": 0, "type": "electric_scooter", "bike_id": "a11511bc898eed4cc856e5302bd350ec", "lat": 38.9387755, "lon": -77.0247885, "rental_uris": {"android": "https://dc.lft.to/lastmile_qr_scan", "ios": "https://dc.lft.to/lastmile_qr_scan"}, "is_disabled": 0, "fusion_lat": 0.0, "name": "a11511bc898eed4cc856e5302bd350ec", "fusion_lon": 0.0}, {"is_reserved": 0, "type": "electric_bike", "bike_id": "eddd6b409fc722485060f586fb4b9fa6", "lat": 38.8354375, "lon": -77.00747533333333, "rental_uris": {"android": "https://dc.lft.to/lastmile_qr_scan", "ios": "https://dc.lft.to/lastmile_qr_scan"}, "is_disabled": 0, "fusion_lat": 0.0, "name": "eddd6b409fc722485060f586fb4b9fa6", "fusion_lon": 0.0}, {"is_reserved": 0, "type": "electric_scooter", "bike_id": "6c600bdf91b4bf7be43c1f897be02b1b", "lat": 38.92422666666667, "lon": -77.0225595, "rental_uris": {"android": "https://dc.lft.to/lastmile_qr_scan", "ios": "https://dc.lft.to/lastmile_qr_scan"}, "is_disabled": 0, "fusion_lat": 0.0, "name": "6c600bdf91b4bf7be43c1f897be02b1b", "fusion_lon": 0.0}, {"is_reserved": 0, "type": "electric_scooter", "bike_id": "2be6b71045ad10475693ff24f280eb66", "lat": 38.932028833333334, "lon": -77.03856816666666, "rental_uris": {"android": "https://dc.lft.to/lastmile_qr_scan", "ios": "https://dc.lft.to/lastmile_qr_scan"}, "is_disabled": 0, "fusion_lat": 0.0, "name": "2be6b71045ad10475693ff24f280eb66", "fusion_lon": 0.0}, {"is_reserved": 0, "type": "electric_bike", "bike_id": "4c3cf3b9d5a72f1309dd3d7d43f0b5e5", "lat": 38.94540516666667, "lon": -77.3446165, "rental_uris": {"android": "https://dc.lft.to/lastmile_qr_scan", "ios": "https://dc.lft.to/lastmile_qr_scan"}, "is_disabled": 0, "fusion_lat": 0.0, "name": "4c3cf3b9d5a72f1309dd3d7d43f0b5e5", "fusion_lon": 0.0}, {"is_reserved": 0, "type": "electric_scooter", "bike_id": "40e4c2335b126861cb1eb9a0ec465d5d", "lat": 38.886587, "lon": -76.93675833333333, "rental_uris": {"android": "https://dc.lft.to/lastmile_qr_scan", "ios": "https://dc.lft.to/lastmile_qr_scan"}, "is_disabled": 0, "fusion_lat": 0.0, "name": "40e4c2335b126861cb1eb9a0ec465d5d", "fusion_lon": 0.0}, {"is_reserved": 0, "type": "electric_scooter", "bike_id": "dd796ad3007f657a14e143caad18c6fa", "lat": 38.89704483333333, "lon": -77.02270583333333, "rental_uris": {"android": "https://dc.lft.to/lastmile_qr_scan", "ios": "https://dc.lft.to/lastmile_qr_scan"}, "is_disabled": 0, "fusion_lat": 0.0, "name": "dd796ad3007f657a14e143caad18c6fa", "fusion_lon": 0.0}, {"is_reserved": 0, "type": "electric_scooter", "bike_id": "b7473aca9625f290c6868dff468eadc3", "lat": 38.88267316666666, "lon": -77.00358716666666, "rental_uris": {"android": "https://dc.lft.to/lastmile_qr_scan", "ios": "https://dc.lft.to/lastmile_qr_scan"}, "is_disabled": 0, "fusion_lat": 0.0, "name": "b7473aca9625f290c6868dff468eadc3", "fusion_lon": 0.0}, {"is_reserved": 0, "type": "electric_scooter", "bike_id": "370b68eef67ccc49f18e3d6911f447dd", "lat": 38.931282333333336, "lon": -77.03850616666666, "rental_uris": {"android": "https://dc.lft.to/lastmile_qr_scan", "ios": "https://dc.lft.to/lastmile_qr_scan"}, "is_disabled": 0, "fusion_lat": 0.0, "name": "370b68eef67ccc49f18e3d6911f447dd", "fusion_lon": 0.0}, {"is_reserved": 0, "type": "electric_scooter", "bike_id": "b86e64e89e67c5c7cb3858a1f824afe8", "lat": 38.91800833333333, "lon": -77.03443833333333, "rental_uris": {"android": "https://dc.lft.to/lastmile_qr_scan", "ios": "https://dc.lft.to/lastmile_qr_scan"}, "is_disabled": 0, "fusion_lat": 0.0, "name": "b86e64e89e67c5c7cb3858a1f824afe8", "fusion_lon": 0.0}, {"is_reserved": 0, "type": "electric_scooter", "bike_id": "e1ad8a3479a2e7faa3ba9a455ce4a829", "lat": 38.89538016666667, "lon": -77.030098, "rental_uris": {"android": "https://dc.lft.to/lastmile_qr_scan", "ios": "https://dc.lft.to/lastmile_qr_scan"}, "is_disabled": 0, "fusion_lat": 0.0, "name": "e1ad8a3479a2e7faa3ba9a455ce4a829", "fusion_lon": 0.0}, {"is_reserved": 0, "type": "electric_scooter", "bike_id": "e02afed19b3326a1ae01f79d8ce00bce", "lat": 38.93702616666667, "lon": -77.02116166666667, "rental_uris": {"android": "https://dc.lft.to/lastmile_qr_scan", "ios": "https://dc.lft.to/lastmile_qr_scan"}, "is_disabled": 0, "fusion_lat": 0.0, "name": "e02afed19b3326a1ae01f79d8ce00bce", "fusion_lon": 0.0}, {"is_reserved": 0, "type": "electric_scooter", "bike_id": "1dbd8930cd3eb23a269837832c14f818", "lat": 38.92358883333333, "lon": -77.05029016666667, "rental_uris": {"android": "https://dc.lft.to/lastmile_qr_scan", "ios": "https://dc.lft.to/lastmile_qr_scan"}, "is_disabled": 0, "fusion_lat": 0.0, "name": "1dbd8930cd3eb23a269837832c14f818", "fusion_lon": 0.0}, {"is_reserved": 0, "type": "electric_scooter", "bike_id": "285ec7e26d7ea92bc1609eda2e545da8", "lat": 38.89914533333334, "lon": -76.9783385, "rental_uris": {"android": "https://dc.lft.to/lastmile_qr_scan", "ios": "https://dc.lft.to/lastmile_qr_scan"}, "is_disabled": 0, "fusion_lat": 0.0, "name": "285ec7e26d7ea92bc1609eda2e545da8", "fusion_lon": 0.0}, {"is_reserved": 0, "type": "electric_scooter", "bike_id": "73f996ab2bfaf9cac9cf60a73bca76ff", "lat": 38.9157865, "lon": -76.98387516666666, "rental_uris": {"android": "https://dc.lft.to/lastmile_qr_scan", "ios": "https://dc.lft.to/lastmile_qr_scan"}, "is_disabled": 0, "fusion_lat": 0.0, "name": "73f996ab2bfaf9cac9cf60a73bca76ff", "fusion_lon": 0.0}, {"is_reserved": 0, "type": "electric_scooter", "bike_id": "538197e1e3676f5b0f91252ed618f770", "lat": 38.892260666666665, "lon": -77.04350816666667, "rental_uris": {"android": "https://dc.lft.to/lastmile_qr_scan", "ios": "https://dc.lft.to/lastmile_qr_scan"},