{"data": {"bikes": [{"type": "electric_bike", "fusion_lon": 0.0, "name": "b1bf2b2e0510fb24ddcdba915ad96ae7", "lon": -77.07751, "fusion_lat": 0.0, "is_disabled": 0, "is_reserved": 0, "rental_uris": {"ios": "https://dc.lft.to/lastmile_qr_scan", "android": "https://dc.lft.to/lastmile_qr_scan"}, "bike_id": "b1bf2b2e0510fb24ddcdba915ad96ae7", "lat": 38.84193783333333}, {"type": "electric_scooter", "fusion_lon": 0.0, "name": "8bfeeba43b61ac594e6f843b455fdde4", "lon": -76.94932566666667, "fusion_lat": 0.0, "is_disabled": 0, "is_reserved": 0, "rental_uris": {"ios": "https://dc.lft.to/lastmile_qr_scan", "android": "https://dc.lft.to/lastmile_qr_scan"}, "bike_id": "8bfeeba43b61ac594e6f843b455fdde4", "lat": 38.895323833333336}, {"type": "electric_scooter", "fusion_lon": 0.0, "name": "adfd4e3072160ace04a84e8b43d6dcd1", "lon": -77.02954616666666, "fusion_lat": 0.0, "is_disabled": 0, "is_reserved": 0, "rental_uris": {"ios": "https://dc.lft.to/lastmile_qr_scan", "android": "https://dc.lft.to/lastmile_qr_scan"}, "bike_id": "adfd4e3072160ace04a84e8b43d6dcd1", "lat": 38.899898}, {"type": "electric_scooter", "fusion_lon": 0.0, "name": "2daab538c69e85772266152d222e039f", "lon": -77.0423935, "fusion_lat": 0.0, "is_disabled": 0, "is_reserved": 0, "rental_uris": {"ios": "https://dc.lft.to/lastmile_qr_scan", "android": "https://dc.lft.to/lastmile_qr_scan"}, "bike_id": "2daab538c69e85772266152d222e039f", "lat": 38.92222966666667}, {"type": "electric_scooter", "fusion_lon": 0.0, "name": "34d6e85892ecd30ff664f3374d8eccbd", "lon": -76.987755, "fusion_lat": 0.0, "is_disabled": 0, "is_reserved": 0, "rental_uris": {"ios": "https://dc.lft.to/lastmile_qr_scan", "android": "https://dc.lft.to/lastmile_qr_scan"}, "bike_id": "34d6e85892ecd30ff664f3374d8eccbd", "lat": 38.91202166666667}, {"type": "electric_scooter", "fusion_lon": 0.0, "name": "76b22eab417bac773d56ee4d71ddafa3", "lon": -77.04131183333334, "fusion_lat": 0.0, "is_disabled": 0, "is_reserved": 0, "rental_uris": {"ios": "https://dc.lft.to/lastmile_qr_scan", "android": "https://dc.lft.to/lastmile_qr_scan"}, "bike_id": "76b22eab417bac773d56ee4d71ddafa3", "lat": 38.914924666666664}, {"type": "electric_scooter", "fusion_lon": 0.0, "name": "a256960aba133efc30a3b6ff410f33b2", "lon": -77.01982233333334, "fusion_lat": 0.0, "is_disabled": 0, "is_reserved": 0, "rental_uris": {"ios": "https://dc.lft.to/lastmile_qr_scan", "android": "https://dc.lft.to/lastmile_qr_scan"}, "bike_id": "a256960aba133efc30a3b6ff410f33b2", "lat": 38.885822166666664}, {"type": "electric_scooter", "fusion_lon": 0.0, "name": "8d4ccf6bfb70ee6f630261ed767aa1ef", "lon": -77.06612083333333, "fusion_lat": 0.0, "is_disabled": 0, "is_reserved": 0, "rental_uris": {"ios": "https://dc.lft.to/lastmile_qr_scan", "android": "https://dc.lft.to/lastmile_qr_scan"}, "bike_id": "8d4ccf6bfb70ee6f630261ed767aa1ef", "lat": 38.9052125}, {"type": "electric_scooter", "fusion_lon": 0.0, "name": "ce9d4043b521eab58e28d037f2ed9f3e", "lon": -77.02273366666667, "fusion_lat": 0.0, "is_disabled": 0, "is_reserved": 0, "rental_uris": {"ios": "https://dc.lft.to/lastmile_qr_scan", "android": "https://dc.lft.to/lastmile_qr_scan"}, "bike_id": "ce9d4043b521eab58e28d037f2ed9f3e", "lat": 38.88134}, {"type": "electric_scooter", "fusion_lon": 0.0, "name": "8926869d68b195fc4d9b8c6de913c469", "lon": -77.0386945, "fusion_lat": 0.0, "is_disabled": 0, "is_reserved": 0, "rental_uris": {"ios": "https://dc.lft.to/lastmile_qr_scan", "android": "https://dc.lft.to/lastmile_qr_scan"}, "bike_id": "8926869d68b195fc4d9b8c6de913c469", "lat": 38.9215385}, {"type": "electric_scooter", "fusion_lon": 0.0, "name": "01ceb0b42a4a09e98bfc82d373a20873", "lon": -77.037531, "fusion_lat": 0.0, "is_disabled": 0, "is_reserved": 0, "rental_uris": {"ios": "https://dc.lft.to/lastmile_qr_scan", "android": "https://dc.lft.to/lastmile_qr_scan"}, "bike_id": "01ceb0b42a4a09e98bfc82d373a20873", "lat": 38.91683666666667}, {"type": "electric_scooter", "fusion_lon": 0.0, "name": "243d3ddc3c3d69bd5d73c1cd066829b0", "lon": -77.04660316666667, "fusion_lat": 0.0, "is_disabled": 0, "is_reserved": 0, "rental_uris": {"ios": "https://dc.lft.to/lastmile_qr_scan", "android": "https://dc.lft.to/lastmile_qr_scan"}, "bike_id": "243d3ddc3c3d69bd5d73c1cd066829b0", "lat": 38.9077095}, {"type": "electric_scooter", "fusion_lon": 0.0, "name": "797a7597eb88f7eb4f10c65c9224dae3", "lon": -77.0156965, "fusion_lat": 0.0, "is_disabled": 0, "is_reserved": 0, "rental_uris": {"ios": "https://dc.lft.to/lastmile_qr_scan", "android": "https://dc.lft.to/lastmile_qr_scan"}, "bike_id": "797a7597eb88f7eb4f10c65c9224dae3", "lat": 38.891763}, {"type": "electric_scooter", "fusion_lon": 0.0, "name": "00f4701ee022916c74d64f66f3dbafd6", "lon": -77.03191966666667, "fusion_lat": 0.0, "is_disabled": 0, "is_reserved": 0, "rental_uris": {"ios": "https://dc.lft.to/lastmile_qr_scan", "android": "https://dc.lft.to/lastmile_qr_scan"}, "bike_id": "00f4701ee022916c74d64f66f3dbafd6", "lat": 38.920959333333336}, {"type": "electric_scooter", "fusion_lon": 0.0, "name": "8b9178ae6f8da3fb9aac12077f8703d3", "lon": -76.99918966666667, "fusion_lat": 0.0, "is_disabled": 0, "is_reserved": 0, "rental_uris": {"ios": "https://dc.lft.to/lastmile_qr_scan", "android": "https://dc.lft.to/lastmile_qr_scan"}, "bike_id": "8b9178ae6f8da3fb9aac12077f8703d3", "lat": 38.900133333333336}, {"type": "electric_scooter", "fusion_lon": 0.0, "name": "af2bd1446f045679f1af7eb8718d49fe", "lon": -77.07018433333333, "fusion_lat": 0.0, "is_disabled": 0, "is_reserved": 0, "rental_uris": {"ios": "https://dc.lft.to/lastmile_qr_scan", "android": "https://dc.lft.to/lastmile_qr_scan"}, "bike_id": "af2bd1446f045679f1af7eb8718d49fe", "lat": 38.9051065}, {"type": "electric_scooter", "fusion_lon": 0.0, "name": "9721c854c19e62a889c0deda1aa93778", "lon": -77.0083495, "fusion_lat": 0.0, "is_disabled": 0, "is_reserved": 0, "rental_uris": {"ios": "https://dc.lft.to/lastmile_qr_scan", "android": "https://dc.lft.to/lastmile_qr_scan"}, "bike_id": "9721c854c19e62a889c0deda1aa93778", "lat": 38.898896666666666}, {"type": "electric_scooter", "fusion_lon": 0.0, "name": "58446311fb916660120cf75c5aac3786", "lon": -77.03871016666666, "fusion_lat": 0.0, "is_disabled": 0, "is_reserved": 0, "rental_uris": {"ios": "https://dc.lft.to/lastmile_qr_scan", "android": "https://dc.lft.to/lastmile_qr_scan"}, "bike_id": "58446311fb916660120cf75c5aac3786", "lat": 38.9362785}, {"type": "electric_scooter", "fusion_lon": 0.0, "name": "15bd71c8e51eb533247f70c0df099ec1", "lon": -77.0246625, "fusion_lat": 0.0, "is_disabled": 0, "is_reserved": 0, "rental_uris": {"ios": "https://dc.lft.to/lastmile_qr_scan", "android": "https://dc.lft.to/lastmile_qr_scan"}, "bike_id": "15bd71c8e51eb533247f70c0df099ec1", "lat": 38.906416}, {"type": "electric_scooter", "fusion_lon": 0.0, "name": "fbf11400dd2b7b62e0d929e0977f49a8", "lon": -77.01780433333333, "fusion_lat": 0.0, "is_disabled": 0, "is_reserved": 0, "rental_uris": {"ios": "https://dc.lft.to/lastmile_qr_scan", "android": "https://dc.lft.to/lastmile_qr_scan"}, "bike_id": "fbf11400dd2b7b62e0d929e0977f49a8", "lat": 38.89859333333333}, {"type": "electric_scooter", "fusion_lon": 0.0, "name": "93c5cecbf9e663f4fd0875768a88f2c9", "lon": -77.04186166666666, "fusion_lat": 0.0, "is_disabled": 0, "is_reserved": 0, "rental_uris": {"ios": "https://dc.lft.to/lastmile_qr_scan", "android": "https://dc.lft.to/lastmile_qr_scan"}, "bike_id": "93c5cecbf9e663f4fd0875768a88f2c9", "lat": 38.905182333333336}, {"type": "electric_bike", "fusion_lon": 0.0, "name": "2f195f7ae7e03a365ba51a5be711c85f", "lon": -76.99037083333333, "fusion_lat": 0.0, "is_disabled": 0, "is_reserved": 0, "rental_uris": {"ios": "https://dc.lft.to/lastmile_qr_scan", "android": "https://dc.lft.to/lastmile_qr_scan"}, "bike_id": "2f195f7ae7e03a365ba51a5be711c85f", "lat": 38.835803166666665}, {"type": "electric_bike", "fusion_lon": 0.0, "name": "176a9e55090ba57ec386e619e2277e65", "lon": -77.101843, "fusion_lat": 0.0, "is_disabled": 0, "is_reserved": 0, "rental_uris": {"ios": "https://dc.lft.to/lastmile_qr_scan", "android": "https://dc.lft.to/lastmile_qr_scan"}, "bike_id": "176a9e55090ba57ec386e619e2277e65", "lat": 38.919102333333335}, {"type": "electric_scooter", "fusion_lon": 0.0, "name": "a6c1e059adb2b8e09af60b31509482be", "lon": -77.03428233333334, "fusion_lat": 0.0, "is_disabled": 0, "is_reserved": 0, "rental_uris": {"ios": "https://dc.lft.to/lastmile_qr_scan", "android": "https://dc.lft.to/lastmile_qr_scan"}, "bike_id": "a6c1e059adb2b8e09af60b31509482be", "lat": 38.919167}, {"type": "electric_scooter", "fusion_lon": 0.0, "name": "c08f3ce717b5eabefa98ea71499c61d2", "lon": -77.0304605, "fusion_lat": 0.0, "is_disabled": 0, "is_reserved": 0, "rental_uris": {"ios": "https://dc.lft.to/lastmile_qr_scan", "android": "https://dc.lft.to/lastmile_qr_scan"}, "bike_id": "c08f3ce717b5eabefa98ea71499c61d2", "lat": 38.938629}, {"type": "electric_bike", "fusion_lon": 0.0, "name": "0f13e2fe2ec650c28910f013cda8fdd5", "lon": -76.99375716666667, "fusion_lat": 0.0, "is_disabled": 0, "is_reserved": 0, "rental_uris": {"ios": "https://dc.lft.to/lastmile_qr_scan", "android": "https://dc.lft.to/lastmile_qr_scan"}, "bike_id": "0f13e2fe2ec650c28910f013cda8fdd5", "lat": 38.852218666666666}, {"type": "electric_bike", "fusion_lon": 0.0, "name": "6b9e513771aac3f8834e208553c7979b", "lon": -76.93237, "fusion_lat": 0.0, "is_disabled": 0, "is_reserved": 0, "rental_uris": {"ios": "https://dc.lft.to/lastmile_qr_scan", "android": "https://dc.lft.to/lastmile_qr_scan"}, "bike_id": "6b9e513771aac3f8834e208553c7979b", "lat": 38.882780333333336}, {"type": "electric_scooter", "fusion_lon": 0.0, "name": "0051775f1d77694328c052d3a57e38f9", "lon": -77.0614365, "fusion_lat": 0.0, "is_disabled": 0, "is_reserved": 0, "rental_uris": {"ios": "https://dc.lft.to/lastmile_qr_scan", "android": "https://dc.lft.to/lastmile_qr_scan"}, "bike_id": "0051775f1d77694328c052d3a57e38f9", "lat": 38.90240566666667}, {"type": "electric_scooter", "fusion_lon": 0.0, "name": "45937a53857147ee39cba25de9ebeb4c", "lon": -77.02348883333333, "fusion_lat": 0.0, "is_disabled": 0, "is_reserved": 0, "rental_uris": {"ios": "https://dc.lft.to/lastmile_qr_scan", "android": "https://dc.lft.to/lastmile_qr_scan"}, "bike_id": "45937a53857147ee39cba25de9ebeb4c", "lat": 38.935306833333335}, {"type": "electric_scooter", "fusion_lon": 0.0, "name": "f17e12e13030274a9fbf541f56aeed6a", "lon": -77.05330016666667, "fusion_lat": 0.0, "is_disabled": 0, "is_reserved": 0, "rental_uris": {"ios": "https://dc.lft.to/lastmile_qr_scan", "android": "https://dc.lft.to/lastmile_qr_scan"}, "bike_id": "f17e12e13030274a9fbf541f56aeed6a", "lat": 38.906911666666666}, {"type": "electric_scooter", "fusion_lon": 0.0, "name": "c0deee0947be52343d22dc65e39c9385", "lon": -77.026334, "fusion_lat": 0.0, "is_disabled": 0, "is_reserved": 0, "rental_uris": {"ios": "https://dc.lft.to/lastmile_qr_scan", "android": "https://dc.lft.to/lastmile_qr_scan"}, "bike_id": "c0deee0947be52343d22dc65e39c9385", "lat": 38.89734883333333}, {"type": "electric_scooter", "fusion_lon": 0.0, "name": "635ddf86da04ac11fd327d50c79eb58c", "lon": -77.050137, "fusion_lat": 0.0, "is_disabled": 0, "is_reserved": 0, "rental_uris": {"ios": "https://dc.lft.to/lastmile_qr_scan", "android": "https://dc.lft.to/lastmile_qr_scan"}, "bike_id": "635ddf86da04ac11fd327d50c79eb58c", "lat": 38.901882666666666}, {"type": "electric_scooter", "fusion_lon": 0.0, "name": "d3e401a86fcb7ca5a565945b1b65bd7f", "lon": -77.00919183333333, "fusion_lat": 0.0, "is_disabled": 0, "is_reserved": 0, "rental_uris": {"ios": "https://dc.lft.to/lastmile_qr_scan", "android": "https://dc.lft.to/lastmile_qr_scan"}, "bike_id": "d3e401a86fcb7ca5a565945b1b65bd7f", "lat": 38.89643}, {"type": "electric_scooter", "fusion_lon": 0.0, "name": "802033c6ba1c762e1196d31fae434474", "lon": -77.02542033333333, "fusion_lat": 0.0, "is_disabled": 0, "is_reserved": 0, "rental_uris": {"ios": "https://dc.lft.to/lastmile_qr_scan", "android": "https://dc.lft.to/lastmile_qr_scan"}, "bike_id": "802033c6ba1c762e1196d31fae434474", "lat": 38.9482305}, {"type": "electric_scooter", "fusion_lon": 0.0, "name": "50613800e35c4fe64d290a18a0a82a43", "lon": -77.0282945, "fusion_lat": 0.0, "is_disabled": 0, "is_reserved": 0, "rental_uris": {"ios": "https://dc.lft.to/lastmile_qr_scan", "android": "https://dc.lft.to/lastmile_qr_scan"}, "bike_id": "50613800e35c4fe64d290a18a0a82a43", "lat": 38.929719}, {"type": "electric_scooter", "fusion_lon": 0.0, "name": "be704c1fd39d4a062e0b441d0b2d1385", "lon": -77.04488966666666, "fusion_lat": 0.0, "is_disabled": 0, "is_reserved": 0, "rental_uris": {"ios": "https://dc.lft.to/lastmile_qr_scan", "android": "https://dc.lft.to/lastmile_qr_scan"}, "bike_id": "be704c1fd39d4a062e0b441d0b2d1385", "lat": 38.904708166666666}, {"type": "electric_bike", "fusion_lon": 0.0, "name": "26818e8a837af30119a924bf28d4c928", "lon": -76.9547655, "fusion_lat": 0.0, "is_disabled": 0, "is_reserved": 0, "rental_uris": {"ios": "https://dc.lft.to/lastmile_qr_scan", "android": "https://dc.lft.to/lastmile_qr_scan"}, "bike_id": "26818e8a837af30119a924bf28d4c928", "lat": 38.8908435}, {"type": "electric_scooter", "fusion_lon": 0.0, "name": "e002ad18b9d3769d48e6cf14bb56db24", "lon": -77.03632666666667, "fusion_lat": 0.0, "is_disabled": 0, "is_reserved": 0, "rental_uris": {"ios": "https://dc.lft.to/lastmile_qr_scan", "android": "https://dc.lft.to/lastmile_qr_scan"}, "bike_id": "e002ad18b9d3769d48e6cf14bb56db24", "lat": 38.95637166666667}, {"type": "electric_scooter", "fusion_lon": 0.0, "name": "116930ea0862107294b136c20d673cbc", "lon": -77.019541, "fusion_lat": 0.0, "is_disabled": 0, "is_reserved": 0, "rental_uris": {"ios": "https://dc.lft.to/lastmile_qr_scan", "android": "https://dc.lft.to/lastmile_qr_scan"}, "bike_id": "116930ea0862107294b136c20d673cbc", "lat": 38.92256016666666}, {"type": "electric_scooter", "fusion_lon": 0.0, "name": "3acf66e81300df1e2f8553099baf1d81", "lon": -77.04249966666667, "fusion_lat": 0.0, "is_disabled": 0, "is_reserved": 0, "rental_uris": {"ios": "https://dc.lft.to/lastmile_qr_scan", "android": "https://dc.lft.to/lastmile_qr_scan"}, "bike_id": "3acf66e81300df1e2f8553099baf1d81", "lat": 38.92238533333333}, {"type": "electric_scooter", "fusion_lon": 0.0, "name": "73466215fb04160677bde810cf19d095", "lon": -77.02628966666667, "fusion_lat": 0.0, "is_disabled": 0, "is_reserved": 0, "rental_uris": {"ios": "https://dc.lft.to/lastmile_qr_scan", "android": "https://dc.lft.to/lastmile_qr_scan"}, "bike_id": "73466215fb04160677bde810cf19d095", "lat": 38.88370333333334}, {"type": "electric_scooter", "fusion_lon": 0.0, "name": "ebb381a619e83e0a669760c40515031b", "lon": -77.01863466666667, "fusion_lat": 0.0, "is_disabled": 0, "is_reserved": 0, "rental_uris": {"ios": "https://dc.lft.to/lastmile_qr_scan", "android": "https://dc.lft.to/lastmile_qr_scan"}, "bike_id": "ebb381a619e83e0a669760c40515031b", "lat": 38.931991}, {"type": "electric_scooter", "fusion_lon": 0.0, "name": "7d717300040a91ecb610d8897484d419", "lon": -77.000868, "fusion_lat": 0.0, "is_disabled": 0, "is_reserved": 0, "rental_uris": {"ios": "https://dc.lft.to/lastmile_qr_scan", "android": "https://dc.lft.to/lastmile_qr_scan"}, "bike_id": "7d717300040a91ecb610d8897484d419", "lat": 38.921390833333334}, {"type": "electric_scooter", "fusion_lon": 0.0, "name": "149d583d14f0b67241eeeaf93062361b", "lon": -76.97311466666666, "fusion_lat": 0.0, "is_disabled": 0, "is_reserved": 0, "rental_uris": {"ios": "https://dc.lft.to/lastmile_qr_scan", "android": "https://dc.lft.to/lastmile_qr_scan"}, "bike_id": "149d583d14f0b67241eeeaf93062361b", "lat": 38.904456333333336}, {"type": "electric_scooter", "fusion_lon": 0.0, "name": "155939a0f1a72f6147fe2f19077a0918", "lon": -77.02449666666666, "fusion_lat": 0.0, "is_disabled": 0, "is_reserved": 0, "rental_uris": {"ios": "https://dc.lft.to/lastmile_qr_scan", "android": "https://dc.lft.to/lastmile_qr_scan"}, "bike_id": "155939a0f1a72f6147fe2f19077a0918", "lat": 38.901082}, {"type": "electric_scooter", "fusion_lon": 0.0, "name": "bc35422bac08de0a5789c9e2eada04f2", "lon": -77.019771, "fusion_lat": 0.0, "is_disabled": 0, "is_reserved": 0, "rental_uris": {"ios": "https://dc.lft.to/lastmile_qr_scan", "android": "https://dc.lft.to/lastmile_qr_scan"}, "bike_id": "bc35422bac08de0a5789c9e2eada04f2", "lat": 38.8987325}, {"type": "electric_scooter", "fusion_lon": 0.0, "name": "2106191a5c2af52859d4194a3f7e9d19", "lon": -77.0344435, "fusion_lat": 0.0, "is_disabled": 0, "is_reserved": 0, "rental_uris": {"ios": "https://dc.lft.to/lastmile_qr_scan", "android": "https://dc.lft.to/lastmile_qr_scan"}, "bike_id": "2106191a5c2af52859d4194a3f7e9d19", "lat": 38.9635665}, {"type": "electric_scooter", "fusion_lon": 0.0, "name": "618249fdd803341fd60f932e46fcf111", "lon": -77.02101, "fusion_lat": 0.0, "is_disabled": 0, "is_reserved": 0, "rental_uris": {"ios": "https://dc.lft.to/lastmile_qr_scan", "android": "https://dc.lft.to/lastmile_qr_scan"}, "bike_id": "618249fdd803341fd60f932e46fcf111", "lat": 38.89498233333333}, {"type": "electric_scooter", "fusion_lon": 0.0, "name": "2a8ef1d974a28fbcd4eb1ddff68b6680", "lon": -77.0601765, "fusion_lat": 0.0, "is_disabled": 0, "is_reserved": 0, "rental_uris": {"ios": "https://dc.lft.to/lastmile_qr_scan", "android": "https://dc.lft.to/lastmile_qr_scan"}, "bike_id": "2a8ef1d974a28fbcd4eb1ddff68b6680", "lat": 38.93873116666666}, {"type": "electric_scooter", "fusion_lon": 0.0, "name": "c728507c29c9591a663fb43031efd58a", "lon": -77.0433085, "fusion_lat": 0.0, "is_disabled": 0, "is_reserved": 0, "rental_uris": {"ios": "https://dc.lft.to/lastmile_qr_scan", "android": "https://dc.lft.to/lastmile_qr_scan"}, "bike_id": "c728507c29c9591a663fb43031efd58a", "lat": 38.93058083333333}, {"type": "electric_scooter", "fusion_lon": 0.0, "name": "1c10288f75c77940be8a133604238235", "lon": -77.03426783333333, "fusion_lat": 0.0, "is_disabled": 0, "is_reserved": 0, "rental_uris": {"ios": "https://dc.lft.to/lastmile_qr_scan", "android": "https://dc.lft.to/lastmile_qr_scan"}, "bike_id": "1c10288f75c77940be8a133604238235", "lat": 38.9191675}, {"type": "electric_scooter", "fusion_lon": 0.0, "name": "ba6c203c3cb5f30116cac701b865a09e", "lon": -77.00507733333333, "fusion_lat": 0.0, "is_disabled": 0, "is_reserved": 0, "rental_uris": {"ios": "https://dc.lft.to/lastmile_qr_scan", "android": "https://dc.lft.to/lastmile_qr_scan"}, "bike_id": "ba6c203c3cb5f30116cac701b865a09e", "lat": 38.96048583333334}, {"type": "electric_scooter", "fusion_lon": 0.0, "name": "3a4f95fa3e2220d6532364b09e096af5", "lon": -77.02688816666667, "fusion_lat": 0.0, "is_disabled": 0, "is_reserved": 0, "rental_uris": {"ios": "https://dc.lft.to/lastmile_qr_scan", "android": "https://dc.lft.to/lastmile_qr_scan"}, "bike_id": "3a4f95fa3e2220d6532364b09e096af5", "lat": 38.89485066666667}, {"type": "electric_scooter", "fusion_lon": 0.0, "name": "ab6a3883b853d08e8a5120dd523e63c7", "lon": -77.04335916666666, "fusion_lat": 0.0, "is_disabled": 0, "is_reserved": 0, "rental_uris": {"ios": "https://dc.lft.to/lastmile_qr_scan", "android": "https://dc.lft.to/lastmile_qr_scan"}, "bike_id": "ab6a3883b853d08e8a5120dd523e63c7", "lat": 38.892288}, {"type": "electric_scooter", "fusion_lon": 0.0, "name": "a330dd8698c0dd402f93d9f3e3e277ee", "lon": -77.03434383333334, "fusion_lat": 0.0, "is_disabled": 0, "is_reserved": 0, "rental_uris": {"ios": "https://dc.lft.to/lastmile_qr_scan", "android": "https://dc.lft.to/lastmile_qr_scan"}, "bike_id": "a330dd8698c0dd402f93d9f3e3e277ee", "lat": 38.919219166666664}, {"type": "electric_scooter", "fusion_lon": 0.0, "name": "63414416234803a879c6b1d3ed2a7738", "lon": -77.02689383333333, "fusion_lat": 0.0, "is_disabled": 0, "is_reserved": 0, "rental_uris": {"ios": "https://dc.lft.to/lastmile_qr_scan", "android": "https://dc.lft.to/lastmile_qr_scan"}, "bike_id": "63414416234803a879c6b1d3ed2a7738", "lat": 38.913292166666665}, {"type": "electric_scooter", "fusion_lon": 0.0, "name": "34f5d48dd78147ea390d7204fa87a454", "lon": -77.0007985, "fusion_lat": 0.0, "is_disabled": 0, "is_reserved": 0, "rental_uris": {"ios": "https://dc.lft.to/lastmile_qr_scan", "android": "https://dc.lft.to/lastmile_qr_scan"}, "bike_id": "34f5d48dd78147ea390d7204fa87a454", "lat": 38.9156685}, {"type": "electric_bike", "fusion_lon": 0.0, "name": "08d8cc873e4875def2c15c3566f398fe", "lon": -76.95255433333334, "fusion_lat": 0.0, "is_disabled": 0, "is_reserved": 0, "rental_uris": {"ios": "https://dc.lft.to/lastmile_qr_scan", "android": "https://dc.lft.to/lastmile_qr_scan"}, "bike_id": "08d8cc873e4875def2c15c3566f398fe", "lat": 38.906946}, {"type": "electric_bike", "fusion_lon": 0.0, "name": "4bcdba5d68feb1b7304bf5b82cce0200", "lon": -76.977034, "fusion_lat": 0.0, "is_disabled": 0, "is_reserved": 0, "rental_uris": {"ios": "https://dc.lft.to/lastmile_qr_scan", "android": "https://dc.lft.to/lastmile_qr_scan"}, "bike_id": "4bcdba5d68feb1b7304bf5b82cce0200", "lat": 38.82209683333333}, {"type": "electric_bike", "fusion_lon": 0.0, "name": "23f29185e29219d0d4a3c9a79176128e", "lon": -77.01008966666667, "fusion_lat": 0.0, "is_disabled": 0, "is_reserved": 0, "rental_uris": {"ios": "https://dc.lft.to/lastmile_qr_scan", "android": "https://dc.lft.to/lastmile_qr_scan"}, "bike_id": "23f29185e29219d0d4a3c9a79176128e", "lat": 38.955967333333334}, {"type": "electric_scooter", "fusion_lon": 0.0, "name": "12cc4f7ff90c7699aac01f95057ecc91", "lon": -77.02953933333333, "fusion_lat": 0.0, "is_disabled": 0, "is_reserved": 0, "rental_uris": {"ios": "https://dc.lft.to/lastmile_qr_scan", "android": "https://dc.lft.to/lastmile_qr_scan"}, "bike_id": "12cc4f7ff90c7699aac01f95057ecc91", "lat": 38.905055}, {"type": "electric_scooter", "fusion_lon": 0.0, "name": "47a26b491ded1cd5f155a3908f8d210a", "lon": -77.0440985, "fusion_lat": 0.0, "is_disabled": 0, "is_reserved": 0, "rental_uris": {"ios": "https://dc.lft.to/lastmile_qr_scan", "android": "https://dc.lft.to/lastmile_qr_scan"}, "bike_id": "47a26b491ded1cd5f155a3908f8d210a", "lat": 38.9258545}, {"type": "electric_scooter", "fusion_lon": 0.0, "name": "fa42441c5cfb588eaddc7e3f3e0c4a00", "lon": -77.07712383333333, "fusion_lat": 0.0, "is_disabled": 0, "is_reserved": 0, "rental_uris": {"ios": "https://dc.lft.to/lastmile_qr_scan", "android": "https://dc.lft.to/lastmile_qr_scan"}, "bike_id": "fa42441c5cfb588eaddc7e3f3e0c4a00", "lat": 38.93557916666666}, {"type": "electric_scooter", "fusion_lon": 0.0, "name": "db22592fc48782ebaa072175613237d2", "lon": -77.040514, "fusion_lat": 0.0, "is_disabled": 0, "is_reserved": 0, "rental_uris": {"ios": "https://dc.lft.to/lastmile_qr_scan", "android": "https://dc.lft.to/lastmile_qr_scan"}, "bike_id": "db22592fc48782ebaa072175613237d2", "lat": 38.899033}, {"type": "electric_scooter", "fusion_lon": 0.0, "name": "3c9cb176220114c57c01007b14e9fac5", "lon": -77.0317475, "fusion_lat": 0.0, "is_disabled": 0, "is_reserved": 0, "rental_uris": {"ios": "https://dc.lft.to/lastmile_qr_scan", "android": "https://dc.lft.to/lastmile_qr_scan"}, "bike_id": "3c9cb176220114c57c01007b14e9fac5", "lat": 38.91418516666667}, {"type": "electric_scooter", "fusion_lon": 0.0, "name": "7a4f9296d49337ad2c59aac3fae52531", "lon": -77.035417, "fusion_lat": 0.0, "is_disabled": 0, "is_reserved": 0, "rental_uris": {"ios": "https://dc.lft.to/lastmile_qr_scan", "android": "https://dc.lft.to/lastmile_qr_scan"}, "bike_id": "7a4f9296d49337ad2c59aac3fae52531", "lat": 38.924629333333336}, {"type": "electric_scooter", "fusion_lon": 0.0, "name": "58a637a3fd64368eb1b631cdd9cdc611", "lon": -76.99438366666666, "fusion_lat": 0.0, "is_disabled": 0, "is_reserved": 0, "rental_uris": {"ios": "https://dc.lft.to/lastmile_qr_scan", "android": "https://dc.lft.to/lastmile_qr_scan"}, "bike_id": "58a637a3fd64368eb1b631cdd9cdc611", "lat": 38.93856366666667}, {"type": "electric_scooter", "fusion_lon": 0.0, "name": "eb28aab2bb96e27993ca649b72685a1c", "lon": -77.03799616666667, "fusion_lat": 0.0, "is_disabled": 0, "is_reserved": 0, "rental_uris": {"ios": "https://dc.lft.to/lastmile_qr_scan", "android": "https://dc.lft.to/lastmile_qr_scan"}, "bike_id": "eb28aab2bb96e27993ca649b72685a1c", "lat": 38.91691516666667}, {"type": "electric_scooter", "fusion_lon": 0.0, "name": "dd6364abcdc2c1ce5b0e6bbf4547f977", "lon": -77.02359866666667, "fusion_lat": 0.0, "is_disabled": 0, "is_reserved": 0, "rental_uris": {"ios": "https://dc.lft.to/lastmile_qr_scan", "android": "https://dc.lft.to/lastmile_qr_scan"}, "bike_id": "dd6364abcdc2c1ce5b0e6bbf4547f977", "lat": 38.908772666666664}, {"type": "electric_scooter", "fusion_lon": 0.0, "name": "72b037d31a19ea261a018dc7e86edb9e", "lon": -77.00983133333334, "fusion_lat": 0.0, "is_disabled": 0, "is_reserved": 0, "rental_uris": {"ios": "https://dc.lft.to/lastmile_qr_scan", "android": "https://dc.lft.to/lastmile_qr_scan"}, "bike_id": "72b037d31a19ea261a018dc7e86edb9e", "lat": 38.8721355}, {"type": "electric_scooter", "fusion_lon": 0.0, "name": "d93f1a00534b95a43d984620cf299f4f", "lon": -77.03440583333334, "fusion_lat": 0.0, "is_disabled": 0, "is_reserved": 0, "rental_uris": {"ios": "https://dc.lft.to/lastmile_qr_scan", "android": "https://dc.lft.to/lastmile_qr_scan"}, "bike_id": "d93f1a00534b95a43d984620cf299f4f", "lat": 38.902458833333334}, {"type": "electric_scooter", "fusion_lon": 0.0, "name": "bcd4ce4dea343f00786ef6dd2d3d9d1b", "lon": -77.0568695, "fusion_lat": 0.0, "is_disabled": 0, "is_reserved": 0, "rental_uris": {"ios": "https://dc.lft.to/lastmile_qr_scan", "android": "https://dc.lft.to/lastmile_qr_scan"}, "bike_id": "bcd4ce4dea343f00786ef6dd2d3d9d1b", "lat": 38.92322166666667}, {"type": "electric_scooter", "fusion_lon": 0.0, "name": "3c4260b58d492a30b36a748c77fc19b4", "lon": -77.02303, "fusion_lat": 0.0, "is_disabled": 0, "is_reserved": 0, "rental_uris": {"ios": "https://dc.lft.to/lastmile_qr_scan", "android": "https://dc.lft.to/lastmile_qr_scan"}, "bike_id": "3c4260b58d492a30b36a748c77fc19b4", "lat": 38.9105005}, {"type": "electric_scooter", "fusion_lon": 0.0, "name": "7c11afbd154aed80371c822e4c491be6", "lon": -77.00958316666667, "fusion_lat": 0.0, "is_disabled": 0, "is_reserved": 0, "rental_uris": {"ios": "https://dc.lft.to/lastmile_qr_scan", "android": "https://dc.lft.to/lastmile_qr_scan"}, "bike_id": "7c11afbd154aed80371c822e4c491be6", "lat": 38.87633233333333}, {"type": "electric_scooter", "fusion_lon": 0.0, "name": "d9a855fe76a3daab1f3ff0fad3f9967d", "lon": -77.04663266666667, "fusion_lat": 0.0, "is_disabled": 0, "is_reserved": 0, "rental_uris": {"ios": "https://dc.lft.to/lastmile_qr_scan", "android": "https://dc.lft.to/lastmile_qr_scan"}, "bike_id": "d9a855fe76a3daab1f3ff0fad3f9967d", "lat": 38.89389883333333}, {"type": "electric_scooter", "fusion_lon": 0.0, "name": "9dd40259874c602f288c69489adc3348", "lon": -77.03925416666667, "fusion_lat": 0.0, "is_disabled": 0, "is_reserved": 0, "rental_uris": {"ios": "https://dc.lft.to/lastmile_qr_scan", "android": "https://dc.lft.to/lastmile_qr_scan"}, "bike_id": "9dd40259874c602f288c69489adc3348", "lat": 38.902594666666666}, {"type": "electric_scooter", "fusion_lon": 0.0, "name": "ff798442eaf864f52b40ad07fff30789", "lon": -77.01759833333334, "fusion_lat": 0.0, "is_disabled": 0, "is_reserved": 0, "rental_uris": {"ios": "https://dc.lft.to/lastmile_qr_scan", "android": "https://dc.lft.to/lastmile_qr_scan"}, "bike_id": "ff798442eaf864f52b40ad07fff30789", "lat": 38.876726833333336}, {"type": "electric_scooter", "fusion_lon": 0.0, "name": "684662b9c9398ba0592e0512883db445", "lon": -77.046587, "fusion_lat": 0.0, "is_disabled": 0, "is_reserved": 0, "rental_uris": {"ios": "https://dc.lft.to/lastmile_qr_scan", "android": "https://dc.lft.to/lastmile_qr_scan"}, "bike_id": "684662b9c9398ba0592e0512883db445", "lat": 38.90322583333333}, {"type": "electric_scooter", "fusion_lon": 0.0, "name": "2ffc2fb86d348d251482994e3033c708", "lon": -77.03988966666667, "fusion_lat": 0.0, "is_disabled": 0, "is_reserved": 0, "rental_uris": {"ios": "https://dc.lft.to/lastmile_qr_scan", "android": "https://dc.lft.to/lastmile_qr_scan"}, "bike_id": "2ffc2fb86d348d251482994e3033c708", "lat": 38.900264666666665}, {"type": "electric_scooter", "fusion_lon": 0.0, "name": "b05df22a020089e1ff6f2de9d76bc8f8", "lon": -77.03181233333333, "fusion_lat": 0.0, "is_disabled": 0, "is_reserved": 0, "rental_uris": {"ios": "https://dc.lft.to/lastmile_qr_scan", "android": "https://dc.lft.to/lastmile_qr_scan"}, "bike_id": "b05df22a020089e1ff6f2de9d76bc8f8", "lat": 38.9035135}, {"type": "electric_scooter", "fusion_lon": 0.0, "name": "5ca8c87f51f84b5f3e651567d30217ed", "lon": -77.03162316666666, "fusion_lat": 0.0, "is_disabled": 0, "is_reserved": 0, "rental_uris": {"ios": "https://dc.lft.to/lastmile_qr_scan", "android": "https://dc.lft.to/lastmile_qr_scan"}, "bike_id": "5ca8c87f51f84b5f3e651567d30217ed", "lat": 38.89796783333333}, {"type": "electric_scooter", "fusion_lon": 0.0, "name": "fad76408a988fcc9fe1260f02692c377", "lon": -77.022515, "fusion_lat": 0.0, "is_disabled": 0, "is_reserved": 0, "rental_uris": {"ios": "https://dc.lft.to/lastmile_qr_scan", "android": "https://dc.lft.to/lastmile_qr_scan"}, "bike_id": "fad76408a988fcc9fe1260f02692c377", "lat": 38.92452433333333}, {"type": "electric_scooter", "fusion_lon": 0.0, "name": "0edbb72874aaaafc8a24d10b512a7886", "lon": -77.00203383333333, "fusion_lat": 0.0, "is_disabled": 0, "is_reserved": 0, "rental_uris": {"ios": "https://dc.lft.to/lastmile_qr_scan", "android": "https://dc.lft.to/lastmile_qr_scan"}, "bike_id": "0edbb72874aaaafc8a24d10b512a7886", "lat": 38.90240766666667}, {"type": "electric_scooter", "fusion_lon": 0.0, "name": "0e7e5e524dcbc44013ebf37d69787298", "lon": -77.00222616666667, "fusion_lat": 0.0, "is_disabled": 0, "is_reserved": 0, "rental_uris": {"ios": "https://dc.lft.to/lastmile_qr_scan", "android": "https://dc.lft.to/lastmile_qr_scan"}, "bike_id": "0e7e5e524dcbc44013ebf37d69787298", "lat": 38.900294}, {"type": "electric_bike", "fusion_lon": 0.0, "name": "29a69c124efba1f18b71086c48ec55e0", "lon": -76.97746016666666, "fusion_lat": 0.0, "is_disabled": 0, "is_reserved": 0, "rental_uris": {"ios": "https://dc.lft.to/lastmile_qr_scan", "android": "https://dc.lft.to/lastmile_qr_scan"}, "bike_id": "29a69c124efba1f18b71086c48ec55e0", "lat": 38.86489133333333}, {"type": "electric_scooter", "fusion_lon": 0.0, "name": "2e58ebaac3c55564f681bfc9661fa100", "lon": -77.05417316666667, "fusion_lat": 0.0, "is_disabled": 0, "is_reserved": 0, "rental_uris": {"ios": "https://dc.lft.to/lastmile_qr_scan", "android": "https://dc.lft.to/lastmile_qr_scan"}, "bike_id": "2e58ebaac3c55564f681bfc9661fa100", "lat": 38.92838366666667}, {"type": "electric_scooter", "fusion_lon": 0.0, "name": "17088b50546dd2d11631aa29bba12d38", "lon": -77.00840216666667, "fusion_lat": 0.0, "is_disabled": 0, "is_reserved": 0, "rental_uris": {"ios": "https://dc.lft.to/lastmile_qr_scan", "android": "https://dc.lft.to/lastmile_qr_scan"}, "bike_id": "17088b50546dd2d11631aa29bba12d38", "lat": 38.87640916666667}, {"type": "electric_scooter", "fusion_lon": 0.0, "name": "b64165698a9744e18a2c959b0c3cf120", "lon": -77.02715716666667, "fusion_lat": 0.0, "is_disabled": 0, "is_reserved": 0, "rental_uris": {"ios": "https://dc.lft.to/lastmile_qr_scan", "android": "https://dc.lft.to/lastmile_qr_scan"}, "bike_id": "b64165698a9744e18a2c959b0c3cf120", "lat": 38.9181965}, {"type": "electric_scooter", "fusion_lon": 0.0, "name": "3d6b1cb76cdad8dbbab0c29414ec5082", "lon": -77.045482, "fusion_lat": 0.0, "is_disabled": 0, "is_reserved": 0, "rental_uris": {"ios": "https://dc.lft.to/lastmile_qr_scan", "android": "https://dc.lft.to/lastmile_qr_scan"}, "bike_id": "3d6b1cb76cdad8dbbab0c29414ec5082", "lat": 38.916126}, {"type": "electric_scooter", "fusion_lon": 0.0, "name": "87b07ff269fd53bb7dd2513044cf0ffc", "lon": -76.98261883333333, "fusion_lat": 0.0, "is_disabled": 0, "is_reserved": 0, "rental_uris": {"ios": "https://dc.lft.to/lastmile_qr_scan", "android": "https://dc.lft.to/lastmile_qr_scan"}, "bike_id": "87b07ff269fd53bb7dd2513044cf0ffc", "lat": 38.932281333333336}, {"type": "electric_scooter", "fusion_lon": 0.0, "name": "5a75dc10e143adf1ff4b352e51a947ff", "lon": -77.032098, "fusion_lat": 0.0, "is_disabled": 0, "is_reserved": 0, "rental_uris": {"ios": "https://dc.lft.to/lastmile_qr_scan", "android": "https://dc.lft.to/lastmile_qr_scan"}, "bike_id": "5a75dc10e143adf1ff4b352e51a947ff", "lat": 38.925835666666664}, {"type": "electric_scooter", "fusion_lon": 0.0, "name": "b9a91de1d6664f0a61c31a35b2a031aa", "lon": -77.04234433333333, "fusion_lat": 0.0, "is_disabled": 0, "is_reserved": 0, "rental_uris": {"ios": "https://dc.lft.to/lastmile_qr_scan", "android": "https://dc.lft.to/lastmile_qr_scan"}, "bike_id": "b9a91de1d6664f0a61c31a35b2a031aa", "lat": 38.922762666666664}, {"type": "electric_scooter", "fusion_lon": 0.0, "name": "25636b2940049855cd034758fea0fbdb", "lon": -77.01598716666666, "fusion_lat": 0.0, "is_disabled": 0, "is_reserved": 0, "rental_uris": {"ios": "https://dc.lft.to/lastmile_qr_scan", "android": "https://dc.lft.to/lastmile_qr_scan"}, "bike_id": "25636b2940049855cd034758fea0fbdb", "lat": 38.90389916666667}, {"type": "electric_scooter", "fusion_lon": 0.0, "name": "a0610beeedeba772b2bfb1428589b05c", "lon": -77.02844133333333, "fusion_lat": 0.0, "is_disabled": 0, "is_reserved": 0, "rental_uris": {"ios": "https://dc.lft.to/lastmile_qr_scan", "android": "https://dc.lft.to/lastmile_qr_scan"}, "bike_id": "a0610beeedeba772b2bfb1428589b05c", "lat": 38.887501666666665}, {"type": "electric_scooter", "fusion_lon": 0.0, "name": "a7406abd4c92589f01375ee70ad33aaa", "lon": -77.04270966666667, "fusion_lat": 0.0, "is_disabled": 0, "is_reserved": 0, "rental_uris": {"ios": "https://dc.lft.to/lastmile_qr_scan", "android": "https://dc.lft.to/lastmile_qr_scan"}, "bike_id": "a7406abd4c92589f01375ee70ad33aaa", "lat": 38.89551383333333}, {"type": "electric_scooter", "fusion_lon": 0.0, "name": "c0870e7731ad641279b2793c823b7989", "lon": -77.05704116666666, "fusion_lat": 0.0, "is_disabled": 0, "is_reserved": 0, "rental_uris": {"ios": "https://dc.lft.to/lastmile_qr_scan", "android": "https://dc.lft.to/lastmile_qr_scan"}, "bike_id": "c0870e7731ad641279b2793c823b7989", "lat": 38.90546916666667}, {"type": "electric_scooter", "fusion_lon": 0.0, "name": "97f2b8ed64d166c4209ff824cbf36d09", "lon": -77.026092, "fusion_lat": 0.0, "is_disabled": 0, "is_reserved": 0, "rental_uris": {"ios": "https://dc.lft.to/lastmile_qr_scan", "android": "https://dc.lft.to/lastmile_qr_scan"}, "bike_id": "97f2b8ed64d166c4209ff824cbf36d09", "lat": 38.920687}, {"type": "electric_scooter", "fusion_lon": 0.0, "name": "604358181f81822fca566a917dcc9127", "lon": -77.0657225, "fusion_lat": 0.0, "is_disabled": 0, "is_reserved": 0, "rental_uris": {"ios": "https://dc.lft.to/lastmile_qr_scan", "android": "https://dc.lft.to/lastmile_qr_scan"}, "bike_id": "604358181f81822fca566a917dcc9127", "lat": 38.90502266666667}, {"type": "electric_scooter", "fusion_lon": 0.0, "name": "8292a80bce327c3b13caeaf2654f9cd6", "lon": -77.01847183333334, "fusion_lat": 0.0, "is_disabled": 0, "is_reserved": 0, "rental_uris": {"ios": "https://dc.lft.to/lastmile_qr_scan", "android": "https://dc.lft.to/lastmile_qr_scan"}, "bike_id": "8292a80bce327c3b13caeaf2654f9cd6", "lat": 38.915206166666664}, {"type": "electric_scooter", "fusion_lon": 0.0, "name": "9432e0fc23594452d2a23bef4df0171a", "lon": -76.99948966666666, "fusion_lat": 0.0, "is_disabled": 0, "is_reserved": 0, "rental_uris": {"ios": "https://dc.lft.to/lastmile_qr_scan", "android": "https://dc.lft.to/lastmile_qr_scan"}, "bike_id": "9432e0fc23594452d2a23bef4df0171a", "lat": 38.8912915}, {"type": "electric_scooter", "fusion_lon": 0.0, "name": "2fe9ce796e00f5832033af66401ec58d", "lon": -77.02795016666667, "fusion_lat": 0.0, "is_disabled": 0, "is_reserved": 0, "rental_uris": {"ios": "https://dc.lft.to/lastmile_qr_scan", "android": "https://dc.lft.to/lastmile_qr_scan"}, "bike_id": "2fe9ce796e00f5832033af66401ec58d", "lat": 38.89884433333334}, {"type": "electric_scooter", "fusion_lon": 0.0, "name": "e8f7f5c3aa352bdca4b2a90847b5f1b0", "lon": -77.0142215, "fusion_lat": 0.0, "is_disabled": 0, "is_reserved": 0, "rental_uris": {"ios": "https://dc.lft.to/lastmile_qr_scan", "android": "https://dc.lft.to/lastmile_qr_scan"}, "bike_id": "e8f7f5c3aa352bdca4b2a90847b5f1b0", "lat": 38.906397}, {"type": "electric_scooter", "fusion_lon": 0.0, "name": "cda92ca840ddf0858c318433ae3da821", "lon": -77.01584016666666, "fusion_lat": 0.0, "is_disabled": 0, "is_reserved": 0, "rental_uris": {"ios": "https://dc.lft.to/lastmile_qr_scan", "android": "https://dc.lft.to/lastmile_qr_scan"}, "bike_id": "cda92ca840ddf0858c318433ae3da821", "lat": 38.9021935}, {"type": "electric_scooter", "fusion_lon": 0.0, "name": "4bac917fdef99323651b3456aea10713", "lon": -76.9929725, "fusion_lat": 0.0, "is_disabled": 0, "is_reserved": 0, "rental_uris": {"ios": "https://dc.lft.to/lastmile_qr_scan", "android": "https://dc.lft.to/lastmile_qr_scan"}, "bike_id": "4bac917fdef99323651b3456aea10713", "lat": 38.87641933333333}, {"type": "electric_scooter", "fusion_lon": 0.0, "name": "f9efa82cb8ece903cc36b509d22d9145", "lon": -77.06537133333333, "fusion_lat": 0.0, "is_disabled": 0, "is_reserved": 0, "rental_uris": {"ios": "https://dc.lft.to/lastmile_qr_scan", "android": "https://dc.lft.to/lastmile_qr_scan"}, "bike_id": "f9efa82cb8ece903cc36b509d22d9145", "lat": 38.90594983333333}, {"type": "electric_scooter", "fusion_lon": 0.0, "name": "9cc685d81b6110c12ba37e5a26b01690", "lon": -77.03175316666666, "fusion_lat": 0.0, "is_disabled": 0, "is_reserved": 0, "rental_uris": {"ios": "https://dc.lft.to/lastmile_qr_scan", "android": "https://dc.lft.to/lastmile_qr_scan"}, "bike_id": "9cc685d81b6110c12ba37e5a26b01690", "lat": 38.914216833333334}, {"type": "electric_scooter", "fusion_lon": 0.0, "name": "5a8204b027735e530737548619ee728b", "lon": -77.04664916666667, "fusion_lat": 0.0, "is_disabled": 0, "is_reserved": 0, "rental_uris": {"ios": "https://dc.lft.to/lastmile_qr_scan", "android": "https://dc.lft.to/lastmile_qr_scan"}, "bike_id": "5a8204b027735e530737548619ee728b", "lat": 38.91266616666667}, {"type": "electric_scooter", "fusion_lon": 0.0, "name": "23027bbadbd2b474d33454ab55880275", "lon": -77.03860233333333, "fusion_lat": 0.0, "is_disabled": 0, "is_reserved": 0, "rental_uris": {"ios": "https://dc.lft.to/lastmile_qr_scan", "android": "https://dc.lft.to/lastmile_qr_scan"}, "bike_id": "23027bbadbd2b474d33454ab55880275", "lat": 38.91177366666667}, {"type": "electric_scooter", "fusion_lon": 0.0, "name": "0f4382ece27944dd388ad0b4ee8a4d8f", "lon": -77.02599566666666, "fusion_lat": 0.0, "is_disabled": 0, "is_reserved": 0, "rental_uris": {"ios": "https://dc.lft.to/lastmile_qr_scan", "android": "https://dc.lft.to/lastmile_qr_scan"}, "bike_id": "0f4382ece27944dd388ad0b4ee8a4d8f", "lat": 38.92091283333333}, {"type": "electric_scooter", "fusion_lon": 0.0, "name": "dc1b943a2afd7a408954c4a2e6e5331d", "lon": -77.04680233333333, "fusion_lat": 0.0, "is_disabled": 0, "is_reserved": 0, "rental_uris": {"ios": "https://dc.lft.to/lastmile_qr_scan", "android": "https://dc.lft.to/lastmile_qr_scan"}, "bike_id": "dc1b943a2afd7a408954c4a2e6e5331d", "lat": 38.91667233333333}, {"type": "electric_bike", "fusion_lon": 0.0, "name": "103f2ba38e907ddef009707be68ba9e6", "lon": -77.00797466666667, "fusion_lat": 0.0, "is_disabled": 0, "is_reserved": 0, "rental_uris": {"ios": "https://dc.lft.to/lastmile_qr_scan", "android": "https://dc.lft.to/lastmile_qr_scan"}, "bike_id": "103f2ba38e907ddef009707be68ba9e6", "lat": 38.9492365}, {"type": "electric_scooter", "fusion_lon": 0.0, "name": "30145d865d97c79333bb40bf493414b3", "lon": -77.034416, "fusion_lat": 0.0, "is_disabled": 0, "is_reserved": 0, "rental_uris": {"ios": "https://dc.lft.to/lastmile_qr_scan", "android": "https://dc.lft.to/lastmile_qr_scan"}, "bike_id": "30145d865d97c79333bb40bf493414b3", "lat": 38.91908166666666}, {"type": "electric_scooter", "fusion_lon": 0.0, "name": "2cb42d286452e397ae21e769f2c0f8b9", "lon": -77.02796966666666, "fusion_lat": 0.0, "is_disabled": 0, "is_reserved": 0, "rental_uris": {"ios": "https://dc.lft.to/lastmile_qr_scan", "android": "https://dc.lft.to/lastmile_qr_scan"}, "bike_id": "2cb42d286452e397ae21e769f2c0f8b9", "lat": 38.90719816666667}, {"type": "electric_scooter", "fusion_lon": 0.0, "name": "fdc07cc1c77e3ea9dc1c7cf71ca38366", "lon": -77.0019015, "fusion_lat": 0.0, "is_disabled": 0, "is_reserved": 0, "rental_uris": {"ios": "https://dc.lft.to/lastmile_qr_scan", "android": "https://dc.lft.to/lastmile_qr_scan"}, "bike_id": "fdc07cc1c77e3ea9dc1c7cf71ca38366", "lat": 38.8876745}, {"type": "electric_scooter", "fusion_lon": 0.0, "name": "fe50872d93fabb8c9e303f9e048303b1", "lon": -77.02811766666666, "fusion_lat": 0.0, "is_disabled": 0, "is_reserved": 0, "rental_uris": {"ios": "https://dc.lft.to/lastmile_qr_scan", "android": "https://dc.lft.to/lastmile_qr_scan"}, "bike_id": "fe50872d93fabb8c9e303f9e048303b1", "lat": 38.903523666666665}, {"type": "electric_scooter", "fusion_lon": 0.0, "name": "9baab6abf2c77de493225e1ca0080722", "lon": -77.02979516666667, "fusion_lat": 0.0, "is_disabled": 0, "is_reserved": 0, "rental_uris": {"ios": "https://dc.lft.to/lastmile_qr_scan", "android": "https://dc.lft.to/lastmile_qr_scan"}, "bike_id": "9baab6abf2c77de493225e1ca0080722", "lat": 38.934488}, {"type": "electric_scooter", "fusion_lon": 0.0, "name": "3cf04ed0c3e9fa673d0262af80284fdc", "lon": -77.03982866666666, "fusion_lat": 0.0, "is_disabled": 0, "is_reserved": 0, "rental_uris": {"ios": "https://dc.lft.to/lastmile_qr_scan", "android": "https://dc.lft.to/lastmile_qr_scan"}, "bike_id": "3cf04ed0c3e9fa673d0262af80284fdc", "lat": 38.90268733333333}, {"type": "electric_scooter", "fusion_lon": 0.0, "name": "21c92b86b0d67a68e43da4401ec37722", "lon": -77.05145966666667, "fusion_lat": 0.0, "is_disabled": 0, "is_reserved": 0, "rental_uris": {"ios": "https://dc.lft.to/lastmile_qr_scan", "android": "https://dc.lft.to/lastmile_qr_scan"}, "bike_id": "21c92b86b0d67a68e43da4401ec37722", "lat": 38.9052185}, {"type": "electric_scooter", "fusion_lon": 0.0, "name": "9b3b964a86298e8ed31fff6322d1324e", "lon": -77.02419033333334, "fusion_lat": 0.0, "is_disabled": 0, "is_reserved": 0, "rental_uris": {"ios": "https://dc.lft.to/lastmile_qr_scan", "android": "https://dc.lft.to/lastmile_qr_scan"}, "bike_id": "9b3b964a86298e8ed31fff6322d1324e", "lat": 38.89221716666667}, {"type": "electric_scooter", "fusion_lon": 0.0, "name": "ad27b69495dace2e1d0085ab95df1492", "lon": -77.03163933333333, "fusion_lat": 0.0, "is_disabled": 0, "is_reserved": 0, "rental_uris": {"ios": "https://dc.lft.to/lastmile_qr_scan", "android": "https://dc.lft.to/lastmile_qr_scan"}, "bike_id": "ad27b69495dace2e1d0085ab95df1492", "lat": 38.920151833333335}, {"type": "electric_scooter", "fusion_lon": 0.0, "name": "cd787a3a368653d13800657d28a85b13", "lon": -77.03437866666667, "fusion_lat": 0.0, "is_disabled": 0, "is_reserved": 0, "rental_uris": {"ios": "https://dc.lft.to/lastmile_qr_scan", "android": "https://dc.lft.to/lastmile_qr_scan"}, "bike_id": "cd787a3a368653d13800657d28a85b13", "lat": 38.918129666666665}, {"type": "electric_scooter", "fusion_lon": 0.0, "name": "e29006c34ecb927d2d2426b203412543", "lon": -77.01975283333333, "fusion_lat": 0.0, "is_disabled": 0, "is_reserved": 0, "rental_uris": {"ios": "https://dc.lft.to/lastmile_qr_scan", "android": "https://dc.lft.to/lastmile_qr_scan"}, "bike_id": "e29006c34ecb927d2d2426b203412543", "lat": 38.895124833333334}, {"type": "electric_bike", "fusion_lon": 0.0, "name": "b255c57d9e7a634c92f310bfe5400a7e", "lon": -77.128871, "fusion_lat": 0.0, "is_disabled": 0, "is_reserved": 0, "rental_uris": {"ios": "https://dc.lft.to/lastmile_qr_scan", "android": "https://dc.lft.to/lastmile_qr_scan"}, "bike_id": "b255c57d9e7a634c92f310bfe5400a7e", "lat": 38.906042}, {"type": "electric_scooter", "fusion_lon": 0.0, "name": "2e8126391a7ce527e52d9c89652d8649", "lon": -77.00569233333333, "fusion_lat": 0.0, "is_disabled": 0, "is_reserved": 0, "rental_uris": {"ios": "https://dc.lft.to/lastmile_qr_scan", "android": "https://dc.lft.to/lastmile_qr_scan"}, "bike_id": "2e8126391a7ce527e52d9c89652d8649", "lat": 38.88504433333333}, {"type": "electric_scooter", "fusion_lon": 0.0, "name": "805b4597115bc9e0e0c500f0845c89e3", "lon": -77.04050466666666, "fusion_lat": 0.0, "is_disabled": 0, "is_reserved": 0, "rental_uris": {"ios": "https://dc.lft.to/lastmile_qr_scan", "android": "https://dc.lft.to/lastmile_qr_scan"}, "bike_id": "805b4597115bc9e0e0c500f0845c89e3", "lat": 38.8961425}, {"type": "electric_scooter", "fusion_lon": 0.0, "name": "7d729bed502ea75e1cf41fccaaa4810a", "lon": -77.03737, "fusion_lat": 0.0, "is_disabled": 0, "is_reserved": 0, "rental_uris": {"ios": "https://dc.lft.to/lastmile_qr_scan", "android": "https://dc.lft.to/lastmile_qr_scan"}, "bike_id": "7d729bed502ea75e1cf41fccaaa4810a", "lat": 38.92566516666667}, {"type": "electric_scooter", "fusion_lon": 0.0, "name": "f6d913811a6c1037862d5604f35dc3a8", "lon": -77.01903516666667, "fusion_lat": 0.0, "is_disabled": 0, "is_reserved": 0, "rental_uris": {"ios": "https://dc.lft.to/lastmile_qr_scan", "android": "https://dc.lft.to/lastmile_qr_scan"}, "bike_id": "f6d913811a6c1037862d5604f35dc3a8", "lat": 38.92345383333333}, {"type": "electric_scooter", "fusion_lon": 0.0, "name": "cc81cffcd5231dad7fd1544bb4270e73", "lon": -77.029738, "fusion_lat": 0.0, "is_disabled": 0, "is_reserved": 0, "rental_uris": {"ios": "https://dc.lft.to/lastmile_qr_scan", "android": "https://dc.lft.to/lastmile_qr_scan"}, "bike_id": "cc81cffcd5231dad7fd1544bb4270e73", "lat": 38.925631833333334}, {"type": "electric_scooter", "fusion_lon": 0.0, "name": "2d046eb205ff5f1f033128f3e950c91d", "lon": -77.02955633333333, "fusion_lat": 0.0, "is_disabled": 0, "is_reserved": 0, "rental_uris": {"ios": "https://dc.lft.to/lastmile_qr_scan", "android": "https://dc.lft.to/lastmile_qr_scan"}, "bike_id": "2d046eb205ff5f1f033128f3e950c91d", "lat": 38.9190715}, {"type": "electric_scooter", "fusion_lon": 0.0, "name": "4536c2082e345f036d10e1baec523e69", "lon": -77.0320995, "fusion_lat": 0.0, "is_disabled": 0, "is_reserved": 0, "rental_uris": {"ios": "https://dc.lft.to/lastmile_qr_scan", "android": "https://dc.lft.to/lastmile_qr_scan"}, "bike_id": "4536c2082e345f036d10e1baec523e69", "lat": 38.8924145}, {"type": "electric_bike", "fusion_lon": 0.0, "name": "93223364961648635c4ba74c9e321c52", "lon": -76.98860633333334, "fusion_lat": 0.0, "is_disabled": 0, "is_reserved": 0, "rental_uris": {"ios": "https://dc.lft.to/lastmile_qr_scan", "android": "https://dc.lft.to/lastmile_qr_scan"}, "bike_id": "93223364961648635c4ba74c9e321c52", "lat": 38.84029983333333}, {"type": "electric_scooter", "fusion_lon": 0.0, "name": "890e3b60f05ba8668a8ea159d0d62156", "lon": -77.00299916666667, "fusion_lat": 0.0, "is_disabled": 0, "is_reserved": 0, "rental_uris": {"ios": "https://dc.lft.to/lastmile_qr_scan", "android": "https://dc.lft.to/lastmile_qr_scan"}, "bike_id": "890e3b60f05ba8668a8ea159d0d62156", "lat": 38.891996}, {"type": "electric_bike", "fusion_lon": 0.0, "name": "89783ebeaf99ba95a5d1d4654c68330e", "lon": -77.007888, "fusion_lat": 0.0, "is_disabled": 0, "is_reserved": 0, "rental_uris": {"ios": "https://dc.lft.to/lastmile_qr_scan", "android": "https://dc.lft.to/lastmile_qr_scan"}, "bike_id": "89783ebeaf99ba95a5d1d4654c68330e", "lat": 38.87573016666666}, {"type": "electric_bike", "fusion_lon": 0.0, "name": "315f3b13c8d0bdcec85d07be226e9fb0", "lon": -77.11694683333333, "fusion_lat": 0.0, "is_disabled": 0, "is_reserved": 0, "rental_uris": {"ios": "https://dc.lft.to/lastmile_qr_scan", "android": "https://dc.lft.to/lastmile_qr_scan"}, "bike_id": "315f3b13c8d0bdcec85d07be226e9fb0", "lat": 38.885422}, {"type": "electric_scooter", "fusion_lon": 0.0, "name": "091a654d38d4340a124ed2ce604a28b1", "lon": -77.002115, "fusion_lat": 0.0, "is_disabled": 0, "is_reserved": 0, "rental_uris": {"ios": "https://dc.lft.to/lastmile_qr_scan", "android": "https://dc.lft.to/lastmile_qr_scan"}, "bike_id": "091a654d38d4340a124ed2ce604a28b1", "lat": 38.900747333333335}, {"type": "electric_scooter", "fusion_lon": 0.0, "name": "49365d2134e9bdf2730a100d832c43e7", "lon": -77.03294583333333, "fusion_lat": 0.0, "is_disabled": 0, "is_reserved": 0, "rental_uris": {"ios": "https://dc.lft.to/lastmile_qr_scan", "android": "https://dc.lft.to/lastmile_qr_scan"}, "bike_id": "49365d2134e9bdf2730a100d832c43e7", "lat": 38.92875033333333}, {"type": "electric_scooter", "fusion_lon": 0.0, "name": "b9c332af6e52f81d98b88ea3b2ddc209", "lon": -77.0205675, "fusion_lat": 0.0, "is_disabled": 0, "is_reserved": 0, "rental_uris": {"ios": "https://dc.lft.to/lastmile_qr_scan", "android": "https://dc.lft.to/lastmile_qr_scan"}, "bike_id": "b9c332af6e52f81d98b88ea3b2ddc209", "lat": 38.9136195}, {"type": "electric_scooter", "fusion_lon": 0.0, "name": "498b6bfb6db068d1c8beffd342b8473a", "lon": -77.04726233333334, "fusion_lat": 0.0, "is_disabled": 0, "is_reserved": 0, "rental_uris": {"ios": "https://dc.lft.to/lastmile_qr_scan", "android": "https://dc.lft.to/lastmile_qr_scan"}, "bike_id": "498b6bfb6db068d1c8beffd342b8473a", "lat": 38.899593833333334}, {"type": "electric_scooter", "fusion_lon": 0.0, "name": "7f5eba59b1e4e0028d2c2d8288fc0ba4", "lon": -77.01199716666666, "fusion_lat": 0.0, "is_disabled": 0, "is_reserved": 0, "rental_uris": {"ios": "https://dc.lft.to/lastmile_qr_scan", "android": "https://dc.lft.to/lastmile_qr_scan"}, "bike_id": "7f5eba59b1e4e0028d2c2d8288fc0ba4", "lat": 38.89785416666667}, {"type": "electric_scooter", "fusion_lon": 0.0, "name": "e1c0669580b8627e4f963c4e11145b3e", "lon": -76.94323333333334, "fusion_lat": 0.0, "is_disabled": 0, "is_reserved": 0, "rental_uris": {"ios": "https://dc.lft.to/lastmile_qr_scan", "android": "https://dc.lft.to/lastmile_qr_scan"}, "bike_id": "e1c0669580b8627e4f963c4e11145b3e", "lat": 38.88023966666667}, {"type": "electric_scooter", "fusion_lon": 0.0, "name": "b031e3fac58b899847aa5812aa3d1f29", "lon": -77.03191683333333, "fusion_lat": 0.0, "is_disabled": 0, "is_reserved": 0, "rental_uris": {"ios": "https://dc.lft.to/lastmile_qr_scan", "android": "https://dc.lft.to/lastmile_qr_scan"}, "bike_id": "b031e3fac58b899847aa5812aa3d1f29", "lat": 38.91311483333333}, {"type": "electric_scooter", "fusion_lon": 0.0, "name": "6bbea7eef1e76cf3ab2148b273003a67", "lon": -76.98344166666666, "fusion_lat": 0.0, "is_disabled": 0, "is_reserved": 0, "rental_uris": {"ios": "https://dc.lft.to/lastmile_qr_scan", "android": "https://dc.lft.to/lastmile_qr_scan"}, "bike_id": "6bbea7eef1e76cf3ab2148b273003a67", "lat": 38.88714783333333}, {"type": "electric_scooter", "fusion_lon": 0.0, "name": "5b0d31ab8e0c985993617c5bf9752164", "lon": -77.017722, "fusion_lat": 0.0, "is_disabled": 0, "is_reserved": 0, "rental_uris": {"ios": "https://dc.lft.to/lastmile_qr_scan", "android": "https://dc.lft.to/lastmile_qr_scan"}, "bike_id": "5b0d31ab8e0c985993617c5bf9752164", "lat": 38.90034466666667}, {"type": "electric_scooter", "fusion_lon": 0.0, "name": "4a39051a55a1eb63d8a717a4be3d4ff4", "lon": -77.0389325, "fusion_lat": 0.0, "is_disabled": 0, "is_reserved": 0, "rental_uris": {"ios": "https://dc.lft.to/lastmile_qr_scan", "android": "https://dc.lft.to/lastmile_qr_scan"}, "bike_id": "4a39051a55a1eb63d8a717a4be3d4ff4", "lat": 38.922328666666665}, {"type": "electric_bike", "fusion_lon": 0.0, "name": "03d47d6ca347c59e61d5518450d86c8f", "lon": -77.133335, "fusion_lat": 0.0, "is_disabled": 0, "is_reserved": 0, "rental_uris": {"ios": "https://dc.lft.to/lastmile_qr_scan", "android": "https://dc.lft.to/lastmile_qr_scan"}, "bike_id": "03d47d6ca347c59e61d5518450d86c8f", "lat": 38.8709}, {"type": "electric_scooter", "fusion_lon": 0.0, "name": "f918b092abd1f45dd6cbcd3278d1fbd1", "lon": -77.03388633333333, "fusion_lat": 0.0, "is_disabled": 0, "is_reserved": 0, "rental_uris": {"ios": "https://dc.lft.to/lastmile_qr_scan", "android": "https://dc.lft.to/lastmile_qr_scan"}, "bike_id": "f918b092abd1f45dd6cbcd3278d1fbd1", "lat": 38.9020705}, {"type": "electric_scooter", "fusion_lon": 0.0, "name": "425f6765047e896fa76104ab9d0d5789", "lon": -77.02146183333333, "fusion_lat": 0.0, "is_disabled": 0, "is_reserved": 0, "rental_uris": {"ios": "https://dc.lft.to/lastmile_qr_scan", "android": "https://dc.lft.to/lastmile_qr_scan"}, "bike_id": "425f6765047e896fa76104ab9d0d5789", "lat": 38.925025}, {"type": "electric_scooter", "fusion_lon": 0.0, "name": "a94a26cd218867fd5843392e28659b32", "lon": -77.006045, "fusion_lat": 0.0, "is_disabled": 0, "is_reserved": 0, "rental_uris": {"ios": "https://dc.lft.to/lastmile_qr_scan", "android": "https://dc.lft.to/lastmile_qr_scan"}, "bike_id": "a94a26cd218867fd5843392e28659b32", "lat": 38.91118066666667}, {"type": "electric_bike", "fusion_lon": 0.0, "name": "e6aca255e6c0e4e8426fdd07df4e6415", "lon": -77.03249266666667, "fusion_lat": 0.0, "is_disabled": 0, "is_reserved": 0, "rental_uris": {"ios": "https://dc.lft.to/lastmile_qr_scan", "android": "https://dc.lft.to/lastmile_qr_scan"}, "bike_id": "e6aca255e6c0e4e8426fdd07df4e6415", "lat": 38.929338}, {"type": "electric_bike", "fusion_lon": 0.0, "name": "9eed02fc5fe2d02442bdac89aec2e613", "lon": -76.9958015, "fusion_lat": 0.0, "is_disabled": 0, "is_reserved": 0, "rental_uris": {"ios": "https://dc.lft.to/lastmile_qr_scan", "android": "https://dc.lft.to/lastmile_qr_scan"}, "bike_id": "9eed02fc5fe2d02442bdac89aec2e613", "lat": 38.83154783333333}, {"type": "electric_scooter", "fusion_lon": 0.0, "name": "5844866ced2b450ca273379322ba4e8e", "lon": -77.00369366666666, "fusion_lat": 0.0, "is_disabled": 0, "is_reserved": 0, "rental_uris": {"ios": "https://dc.lft.to/lastmile_qr_scan", "android": "https://dc.lft.to/lastmile_qr_scan"}, "bike_id": "5844866ced2b450ca273379322ba4e8e", "lat": 38.8464745}, {"type": "electric_bike", "fusion_lon": 0.0, "name": "f8fd102be84cfd116cb31795226f518a", "lon": -76.945259, "fusion_lat": 0.0, "is_disabled": 0, "is_reserved": 0, "rental_uris": {"ios": "https://dc.lft.to/lastmile_qr_scan", "android": "https://dc.lft.to/lastmile_qr_scan"}, "bike_id": "f8fd102be84cfd116cb31795226f518a", "lat": 38.862858}, {"type": "electric_scooter", "fusion_lon": 0.0, "name": "4b6ba4c448de15d16d4e81107d60b0d1", "lon": -77.0231795, "fusion_lat": 0.0, "is_disabled": 0, "is_reserved": 0, "rental_uris": {"ios": "https://dc.lft.to/lastmile_qr_scan", "android": "https://dc.lft.to/lastmile_qr_scan"}, "bike_id": "4b6ba4c448de15d16d4e81107d60b0d1", "lat": 38.9190485}, {"type": "electric_scooter", "fusion_lon": 0.0, "name": "f8ab39abe5c8c2b7c1af11f4f4e5aba2", "lon": -77.03045366666667, "fusion_lat": 0.0, "is_disabled": 0, "is_reserved": 0, "rental_uris": {"ios": "https://dc.lft.to/lastmile_qr_scan", "android": "https://dc.lft.to/lastmile_qr_scan"}, "bike_id": "f8ab39abe5c8c2b7c1af11f4f4e5aba2", "lat": 38.91269833333333}, {"type": "electric_scooter", "fusion_lon": 0.0, "name": "df95e3ffe1b607c41f06e68f2d91961c", "lon": -76.99144833333334, "fusion_lat": 0.0, "is_disabled": 0, "is_reserved": 0, "rental_uris": {"ios": "https://dc.lft.to/lastmile_qr_scan", "android": "https://dc.lft.to/lastmile_qr_scan"}, "bike_id": "df95e3ffe1b607c41f06e68f2d91961c", "lat": 38.900572}, {"type": "electric_scooter", "fusion_lon": 0.0, "name": "ff737649a9e27338b14c482055ad5b06", "lon": -77.02669666666667, "fusion_lat": 0.0, "is_disabled": 0, "is_reserved": 0, "rental_uris": {"ios": "https://dc.lft.to/lastmile_qr_scan", "android": "https://dc.lft.to/lastmile_qr_scan"}, "bike_id": "ff737649a9e27338b14c482055ad5b06", "lat": 38.896237}, {"type": "electric_scooter", "fusion_lon": 0.0, "name": "2a8f511d267bcd2e804ae8033a3378bf", "lon": -76.984931, "fusion_lat": 0.0, "is_disabled": 0, "is_reserved": 0, "rental_uris": {"ios": "https://dc.lft.to/lastmile_qr_scan", "android": "https://dc.lft.to/lastmile_qr_scan"}, "bike_id": "2a8f511d267bcd2e804ae8033a3378bf", "lat": 38.90993116666667}, {"type": "electric_scooter", "fusion_lon": 0.0, "name": "500fe544ab19bbc4fd1dffb0936709be", "lon": -77.021789, "fusion_lat": 0.0, "is_disabled": 0, "is_reserved": 0, "rental_uris": {"ios": "https://dc.lft.to/lastmile_qr_scan", "android": "https://dc.lft.to/lastmile_qr_scan"}, "bike_id": "500fe544ab19bbc4fd1dffb0936709be", "lat": 38.898544666666666}, {"type": "electric_scooter", "fusion_lon": 0.0, "name": "b0c67a4402b1a3cc9755de62e7de3f3c", "lon": -77.04205533333334, "fusion_lat": 0.0, "is_disabled": 0, "is_reserved": 0, "rental_uris": {"ios": "https://dc.lft.to/lastmile_qr_scan", "android": "https://dc.lft.to/lastmile_qr_scan"}, "bike_id": "b0c67a4402b1a3cc9755de62e7de3f3c", "lat": 38.9091025}, {"type": "electric_scooter", "fusion_lon": 0.0, "name": "95f6522b5dd620496212e5e0d916aa1b", "lon": -77.032233, "fusion_lat": 0.0, "is_disabled": 0, "is_reserved": 0, "rental_uris": {"ios": "https://dc.lft.to/lastmile_qr_scan", "android": "https://dc.lft.to/lastmile_qr_scan"}, "bike_id": "95f6522b5dd620496212e5e0d916aa1b", "lat": 38.89918566666667}, {"type": "electric_scooter", "fusion_lon": 0.0, "name": "4fd6a3ab9653a674ba3748ea7c3c1ae9", "lon": -77.03674066666666, "fusion_lat": 0.0, "is_disabled": 0, "is_reserved": 0, "rental_uris": {"ios": "https://dc.lft.to/lastmile_qr_scan", "android": "https://dc.lft.to/lastmile_qr_scan"}, "bike_id": "4fd6a3ab9653a674ba3748ea7c3c1ae9", "lat": 38.915613}, {"type": "electric_scooter", "fusion_lon": 0.0, "name": "a0f7a7b3c7451e7a0a2612aa7531f4f1", "lon": -77.0143715, "fusion_lat": 0.0, "is_disabled": 0, "is_reserved": 0, "rental_uris": {"ios": "https://dc.lft.to/lastmile_qr_scan", "android": "https://dc.lft.to/lastmile_qr_scan"}, "bike_id": "a0f7a7b3c7451e7a0a2612aa7531f4f1", "lat": 38.91314416666667}, {"type": "electric_scooter", "fusion_lon": 0.0, "name": "773944d5524cd3993cc8711169f96547", "lon": -76.98704133333334, "fusion_lat": 0.0, "is_disabled": 0, "is_reserved": 0, "rental_uris": {"ios": "https://dc.lft.to/lastmile_qr_scan", "android": "https://dc.lft.to/lastmile_qr_scan"}, "bike_id": "773944d5524cd3993cc8711169f96547", "lat": 38.900617}, {"type": "electric_bike", "fusion_lon": 0.0, "name": "a07480b76a629aa02a96b44157a54e55", "lon": -77.08575083333334, "fusion_lat": 0.0, "is_disabled": 0, "is_reserved": 0, "rental_uris": {"ios": "https://dc.lft.to/lastmile_qr_scan", "android": "https://dc.lft.to/lastmile_qr_scan"}, "bike_id": "a07480b76a629aa02a96b44157a54e55", "lat": 38.87417966666667}, {"type": "electric_scooter", "fusion_lon": 0.0, "name": "c8aa0229bf5200704de93f6effcf5328", "lon": -77.04243116666666, "fusion_lat": 0.0, "is_disabled": 0, "is_reserved": 0, "rental_uris": {"ios": "https://dc.lft.to/lastmile_qr_scan", "android": "https://dc.lft.to/lastmile_qr_scan"}, "bike_id": "c8aa0229bf5200704de93f6effcf5328", "lat": 38.921935833333336}, {"type": "electric_scooter", "fusion_lon": 0.0, "name": "be727051d66f8ddc624d008c7a54061d", "lon": -77.04473983333334, "fusion_lat": 0.0, "is_disabled": 0, "is_reserved": 0, "rental_uris": {"ios": "https://dc.lft.to/lastmile_qr_scan", "android": "https://dc.lft.to/lastmile_qr_scan"}, "bike_id": "be727051d66f8ddc624d008c7a54061d", "lat": 38.902987333333336}, {"type": "electric_scooter", "fusion_lon": 0.0, "name": "e4815a47c6870db2e74826d4e701c11f", "lon": -76.99520616666666, "fusion_lat": 0.0, "is_disabled": 0, "is_reserved": 0, "rental_uris": {"ios": "https://dc.lft.to/lastmile_qr_scan", "android": "https://dc.lft.to/lastmile_qr_scan"}, "bike_id": "e4815a47c6870db2e74826d4e701c11f", "lat": 38.88378566666667}, {"type": "electric_bike", "fusion_lon": 0.0, "name": "3c4fabac70ad3f911b0731152fbdffb4", "lon": -77.11326333333334, "fusion_lat": 0.0, "is_disabled": 0, "is_reserved": 0, "rental_uris": {"ios": "https://dc.lft.to/lastmile_qr_scan", "android": "https://dc.lft.to/lastmile_qr_scan"}, "bike_id": "3c4fabac70ad3f911b0731152fbdffb4", "lat": 38.80405366666667}, {"type": "electric_scooter", "fusion_lon": 0.0, "name": "cd9c10176fe9531562bed254a6161c9b", "lon": -77.02520166666666, "fusion_lat": 0.0, "is_disabled": 0, "is_reserved": 0, "rental_uris": {"ios": "https://dc.lft.to/lastmile_qr_scan", "android": "https://dc.lft.to/lastmile_qr_scan"}, "bike_id": "cd9c10176fe9531562bed254a6161c9b", "lat": 38.89751066666667}, {"type": "electric_scooter", "fusion_lon": 0.0, "name": "0b6a330d092532d922e9673551009793", "lon": -77.02808983333334, "fusion_lat": 0.0, "is_disabled": 0, "is_reserved": 0, "rental_uris": {"ios": "https://dc.lft.to/lastmile_qr_scan", "android": "https://dc.lft.to/lastmile_qr_scan"}, "bike_id": "0b6a330d092532d922e9673551009793", "lat": 38.95590416666667}, {"type": "electric_bike", "fusion_lon": 0.0, "name": "71975a74e21896312ca81b7884647ac6", "lon": -76.96620816666666, "fusion_lat": 0.0, "is_disabled": 0, "is_reserved": 0, "rental_uris": {"ios": "https://dc.lft.to/lastmile_qr_scan", "android": "https://dc.lft.to/lastmile_qr_scan"}, "bike_id": "71975a74e21896312ca81b7884647ac6", "lat": 38.95146233333333}, {"type": "electric_scooter", "fusion_lon": 0.0, "name": "d55c1a4e3b6500e747df9c8bff4ef2cf", "lon": -77.02729616666667, "fusion_lat": 0.0, "is_disabled": 0, "is_reserved": 0, "rental_uris": {"ios": "https://dc.lft.to/lastmile_qr_scan", "android": "https://dc.lft.to/lastmile_qr_scan"}, "bike_id": "d55c1a4e3b6500e747df9c8bff4ef2cf", "lat": 38.9073815}, {"type": "electric_bike", "fusion_lon": 0.0, "name": "9515f1781f0c457f4be8dade6a0bfd38", "lon": -77.099606, "fusion_lat": 0.0, "is_disabled": 0, "is_reserved": 0, "rental_uris": {"ios": "https://dc.lft.to/lastmile_qr_scan", "android": "https://dc.lft.to/lastmile_qr_scan"}, "bike_id": "9515f1781f0c457f4be8dade6a0bfd38", "lat": 38.85792166666667}, {"type": "electric_scooter", "fusion_lon": 0.0, "name": "6ff8740f8c765be371819699ae9a37c3", "lon": -76.9833495, "fusion_lat": 0.0, "is_disabled": 0, "is_reserved": 0, "rental_uris": {"ios": "https://dc.lft.to/lastmile_qr_scan", "android": "https://dc.lft.to/lastmile_qr_scan"}, "bike_id": "6ff8740f8c765be371819699ae9a37c3", "lat": 38.900907333333336}, {"type": "electric_scooter", "fusion_lon": 0.0, "name": "f2fd6b4140485ee4e1e1d0a6abceb91e", "lon": -77.0381885, "fusion_lat": 0.0, "is_disabled": 0, "is_reserved": 0, "rental_uris": {"ios": "https://dc.lft.to/lastmile_qr_scan", "android": "https://dc.lft.to/lastmile_qr_scan"}, "bike_id": "f2fd6b4140485ee4e1e1d0a6abceb91e", "lat": 38.90288783333333}, {"type": "electric_scooter", "fusion_lon": 0.0, "name": "8ac0f1006b0fe6ddd56b9cfcc64f4845", "lon": -76.92554833333334, "fusion_lat": 0.0, "is_disabled": 0, "is_reserved": 0, "rental_uris": {"ios": "https://dc.lft.to/lastmile_qr_scan", "android": "https://dc.lft.to/lastmile_qr_scan"}, "bike_id": "8ac0f1006b0fe6ddd56b9cfcc64f4845", "lat": 38.8925045}, {"type": "electric_scooter", "fusion_lon": 0.0, "name": "69f7ba16965d12d611a5067ef6208438", "lon": -76.9608965, "fusion_lat": 0.0, "is_disabled": 0, "is_reserved": 0, "rental_uris": {"ios": "https://dc.lft.to/lastmile_qr_scan", "android": "https://dc.lft.to/lastmile_qr_scan"}, "bike_id": "69f7ba16965d12d611a5067ef6208438", "lat": 38.91856666666666}, {"type": "electric_scooter", "fusion_lon": 0.0, "name": "e903cb2a24bf7c210ae0b53a62521e97", "lon": -77.01774633333333, "fusion_lat": 0.0, "is_disabled": 0, "is_reserved": 0, "rental_uris": {"ios": "https://dc.lft.to/lastmile_qr_scan", "android": "https://dc.lft.to/lastmile_qr_scan"}, "bike_id": "e903cb2a24bf7c210ae0b53a62521e97", "lat": 38.876992}, {"type": "electric_scooter", "fusion_lon": 0.0, "name": "7b962cf33fd876305b85ba97cab6cca2", "lon": -77.036634, "fusion_lat": 0.0, "is_disabled": 0, "is_reserved": 0, "rental_uris": {"ios": "https://dc.lft.to/lastmile_qr_scan", "android": "https://dc.lft.to/lastmile_qr_scan"}, "bike_id": "7b962cf33fd876305b85ba97cab6cca2", "lat": 38.91835666666667}, {"type": "electric_scooter", "fusion_lon": 0.0, "name": "11424973e09089e07ab85d117cb0f2b2", "lon": -77.01364, "fusion_lat": 0.0, "is_disabled": 0, "is_reserved": 0, "rental_uris": {"ios": "https://dc.lft.to/lastmile_qr_scan", "android": "https://dc.lft.to/lastmile_qr_scan"}, "bike_id": "11424973e09089e07ab85d117cb0f2b2", "lat": 38.91935616666667}, {"type": "electric_scooter", "fusion_lon": 0.0, "name": "66a0b650d2ff822effb757d9cdce6fe8", "lon": -77.00203566666667, "fusion_lat": 0.0, "is_disabled": 0, "is_reserved": 0, "rental_uris": {"ios": "https://dc.lft.to/lastmile_qr_scan", "android": "https://dc.lft.to/lastmile_qr_scan"}, "bike_id": "66a0b650d2ff822effb757d9cdce6fe8", "lat": 38.9024105}, {"type": "electric_scooter", "fusion_lon": 0.0, "name": "335639bfa4357be92b2b8545f869392a", "lon": -77.02225166666666, "fusion_lat": 0.0, "is_disabled": 0, "is_reserved": 0, "rental_uris": {"ios": "https://dc.lft.to/lastmile_qr_scan", "android": "https://dc.lft.to/lastmile_qr_scan"}, "bike_id": "335639bfa4357be92b2b8545f869392a", "lat": 38.9246855}, {"type": "electric_scooter", "fusion_lon": 0.0, "name": "414a933bc5b9c618bc61379949a92226", "lon": -77.03946016666667, "fusion_lat": 0.0, "is_disabled": 0, "is_reserved": 0, "rental_uris": {"ios": "https://dc.lft.to/lastmile_qr_scan", "android": "https://dc.lft.to/lastmile_qr_scan"}, "bike_id": "414a933bc5b9c618bc61379949a92226", "lat": 38.930567333333336}, {"type": "electric_scooter", "fusion_lon": 0.0, "name": "12ea5fda30ac8e49726c2f11a6111d9f", "lon": -77.00887816666666, "fusion_lat": 0.0, "is_disabled": 0, "is_reserved": 0, "rental_uris": {"ios": "https://dc.lft.to/lastmile_qr_scan", "android": "https://dc.lft.to/lastmile_qr_scan"}, "bike_id": "12ea5fda30ac8e49726c2f11a6111d9f", "lat": 38.92479383333333}, {"type": "electric_scooter", "fusion_lon": 0.0, "name": "84ad627c6f6966c3757439a55a8a3d52", "lon": -76.9915445, "fusion_lat": 0.0, "is_disabled": 0, "is_reserved": 0, "rental_uris": {"ios": "https://dc.lft.to/lastmile_qr_scan", "android": "https://dc.lft.to/lastmile_qr_scan"}, "bike_id": "84ad627c6f6966c3757439a55a8a3d52", "lat": 38.90050466666667}, {"type": "electric_scooter", "fusion_lon": 0.0, "name": "761a145afad3f48d865651619bacbe16", "lon": -76.98535083333333, "fusion_lat": 0.0, "is_disabled": 0, "is_reserved": 0, "rental_uris": {"ios": "https://dc.lft.to/lastmile_qr_scan", "android": "https://dc.lft.to/lastmile_qr_scan"}, "bike_id": "761a145afad3f48d865651619bacbe16", "lat": 38.89948833333333}, {"type": "electric_scooter", "fusion_lon": 0.0, "name": "5f83a876ad86984f8f43ac84d9fc805b", "lon": -76.995182, "fusion_lat": 0.0, "is_disabled": 0, "is_reserved": 0, "rental_uris": {"ios": "https://dc.lft.to/lastmile_qr_scan", "android": "https://dc.lft.to/lastmile_qr_scan"}, "bike_id": "5f83a876ad86984f8f43ac84d9fc805b", "lat": 38.883768833333335}, {"type": "electric_scooter", "fusion_lon": 0.0, "name": "fbf5d7927ed32ce33912102d8c7b8d11", "lon": -77.020096, "fusion_lat": 0.0, "is_disabled": 0, "is_reserved": 0, "rental_uris": {"ios": "https://dc.lft.to/lastmile_qr_scan", "android": "https://dc.lft.to/lastmile_qr_scan"}, "bike_id": "fbf5d7927ed32ce33912102d8c7b8d11", "lat": 38.91578883333333}, {"type": "electric_scooter", "fusion_lon": 0.0, "name": "b6b4abd260b43159c3a9ca072f94c6db", "lon": -77.03903066666666, "fusion_lat": 0.0, "is_disabled": 0, "is_reserved": 0, "rental_uris": {"ios": "https://dc.lft.to/lastmile_qr_scan", "android": "https://dc.lft.to/lastmile_qr_scan"}, "bike_id": "b6b4abd260b43159c3a9ca072f94c6db", "lat": 38.9026025}, {"type": "electric_scooter", "fusion_lon": 0.0, "name": "cee7e84bf5e0f29d3fa24fd3a12bc37e", "lon": -76.949879, "fusion_lat": 0.0, "is_disabled": 0, "is_reserved": 0, "rental_uris": {"ios": "https://dc.lft.to/lastmile_qr_scan", "android": "https://dc.lft.to/lastmile_qr_scan"}, "bike_id": "cee7e84bf5e0f29d3fa24fd3a12bc37e", "lat": 38.9006415}, {"type": "electric_scooter", "fusion_lon": 0.0, "name": "53264c60408922d1eea1e43a9db118e6", "lon": -77.01809083333333, "fusion_lat": 0.0, "is_disabled": 0, "is_reserved": 0, "rental_uris": {"ios": "https://dc.lft.to/lastmile_qr_scan", "android": "https://dc.lft.to/lastmile_qr_scan"}, "bike_id": "53264c60408922d1eea1e43a9db118e6", "lat": 38.8961015}, {"type": "electric_scooter", "fusion_lon": 0.0, "name": "33300396bd7d9730fd5681c2ad765a9d", "lon": -77.00570966666666, "fusion_lat": 0.0, "is_disabled": 0, "is_reserved": 0, "rental_uris": {"ios": "https://dc.lft.to/lastmile_qr_scan", "android": "https://dc.lft.to/lastmile_qr_scan"}, "bike_id": "33300396bd7d9730fd5681c2ad765a9d", "lat": 38.874721}, {"type": "electric_scooter", "fusion_lon": 0.0, "name": "3bcf7acd8808bf15d88d3e470edfbeb9", "lon": -76.983273, "fusion_lat": 0.0, "is_disabled": 0, "is_reserved": 0, "rental_uris": {"ios": "https://dc.lft.to/lastmile_qr_scan", "android": "https://dc.lft.to/lastmile_qr_scan"}, "bike_id": "3bcf7acd8808bf15d88d3e470edfbeb9", "lat": 38.89594266666667}, {"type": "electric_scooter", "fusion_lon": 0.0, "name": "7979b8daf7cc975319cfc9b37b97ff1d", "lon": -77.03165633333333, "fusion_lat": 0.0, "is_disabled": 0, "is_reserved": 0, "rental_uris": {"ios": "https://dc.lft.to/lastmile_qr_scan", "android": "https://dc.lft.to/lastmile_qr_scan"}, "bike_id": "7979b8daf7cc975319cfc9b37b97ff1d", "lat": 38.9161755}, {"type": "electric_scooter", "fusion_lon": 0.0, "name": "a093ed6c5741845111e113016e3e419a", "lon": -77.050398, "fusion_lat": 0.0, "is_disabled": 0, "is_reserved": 0, "rental_uris": {"ios": "https://dc.lft.to/lastmile_qr_scan", "android": "https://dc.lft.to/lastmile_qr_scan"}, "bike_id": "a093ed6c5741845111e113016e3e419a", "lat": 38.9157935}, {"type": "electric_scooter", "fusion_lon": 0.0, "name": "a08f0dc5eae0e124239ce199c55abf2e", "lon": -77.00917833333334, "fusion_lat": 0.0, "is_disabled": 0, "is_reserved": 0, "rental_uris": {"ios": "https://dc.lft.to/lastmile_qr_scan", "android": "https://dc.lft.to/lastmile_qr_scan"}, "bike_id": "a08f0dc5eae0e124239ce199c55abf2e", "lat": 38.8955505}, {"type": "electric_scooter", "fusion_lon": 0.0, "name": "512f48bb538b9c2e893808de1a089194", "lon": -76.99003483333334, "fusion_lat": 0.0, "is_disabled": 0, "is_reserved": 0, "rental_uris": {"ios": "https://dc.lft.to/lastmile_qr_scan", "android": "https://dc.lft.to/lastmile_qr_scan"}, "bike_id": "512f48bb538b9c2e893808de1a089194", "lat": 38.868908166666664}, {"type": "electric_scooter", "fusion_lon": 0.0, "name": "68ac82b9cfc7113d68711bd07c4810ad", "lon": -77.02831366666666, "fusion_lat": 0.0, "is_disabled": 0, "is_reserved": 0, "rental_uris": {"ios": "https://dc.lft.to/lastmile_qr_scan", "android": "https://dc.lft.to/lastmile_qr_scan"}, "bike_id": "68ac82b9cfc7113d68711bd07c4810ad", "lat": 38.886578166666666}, {"type": "electric_bike", "fusion_lon": 0.0, "name": "e7a3eb329bf75e1ce67d0ac0d396f4a7", "lon": -77.0683125, "fusion_lat": 0.0, "is_disabled": 0, "is_reserved": 0, "rental_uris": {"ios": "https://dc.lft.to/lastmile_qr_scan", "android": "https://dc.lft.to/lastmile_qr_scan"}, "bike_id": "e7a3eb329bf75e1ce67d0ac0d396f4a7", "lat": 38.856391333333335}, {"type": "electric_scooter", "fusion_lon": 0.0, "name": "3fc35e643de9e84ca898b3b6956c936d", "lon": -77.02006216666666, "fusion_lat": 0.0, "is_disabled": 0, "is_reserved": 0, "rental_uris": {"ios": "https://dc.lft.to/lastmile_qr_scan", "android": "https://dc.lft.to/lastmile_qr_scan"}, "bike_id": "3fc35e643de9e84ca898b3b6956c936d", "lat": 38.92411583333333}, {"type": "electric_bike", "fusion_lon": 0.0, "name": "b3a98eed3b409f17c300cc5d00b81423", "lon": -76.97488583333333, "fusion_lat": 0.0, "is_disabled": 0, "is_reserved": 0, "rental_uris": {"ios": "https://dc.lft.to/lastmile_qr_scan", "android": "https://dc.lft.to/lastmile_qr_scan"}, "bike_id": "b3a98eed3b409f17c300cc5d00b81423", "lat": 38.865481833333334}, {"type": "electric_scooter", "fusion_lon": 0.0, "name": "88328f2ca06b3084f60dc795f12279b9", "lon": -76.99741216666666, "fusion_lat": 0.0, "is_disabled": 0, "is_reserved": 0, "rental_uris": {"ios": "https://dc.lft.to/lastmile_qr_scan", "android": "https://dc.lft.to/lastmile_qr_scan"}, "bike_id": "88328f2ca06b3084f60dc795f12279b9", "lat": 38.88217616666667}, {"type": "electric_scooter", "fusion_lon": 0.0, "name": "9a8666855cacd136ec225ade69d4bd0a", "lon": -77.03828766666666, "fusion_lat": 0.0, "is_disabled": 0, "is_reserved": 0, "rental_uris": {"ios": "https://dc.lft.to/lastmile_qr_scan", "android": "https://dc.lft.to/lastmile_qr_scan"}, "bike_id": "9a8666855cacd136ec225ade69d4bd0a", "lat": 38.90105966666667}, {"type": "electric_scooter", "fusion_lon": 0.0, "name": "beeab6261b25121a0946e782cef04815", "lon": -77.02368733333333, "fusion_lat": 0.0, "is_disabled": 0, "is_reserved": 0, "rental_uris": {"ios": "https://dc.lft.to/lastmile_qr_scan", "android": "https://dc.lft.to/lastmile_qr_scan"}, "bike_id": "beeab6261b25121a0946e782cef04815", "lat": 38.89220816666667}, {"type": "electric_bike", "fusion_lon": 0.0, "name": "97436bd4686809dd12b680e081dda544", "lon": -77.12039316666667, "fusion_lat": 0.0, "is_disabled": 0, "is_reserved": 0, "rental_uris": {"ios": "https://dc.lft.to/lastmile_qr_scan", "android": "https://dc.lft.to/lastmile_qr_scan"}, "bike_id": "97436bd4686809dd12b680e081dda544", "lat": 38.82428916666667}, {"type": "electric_scooter", "fusion_lon": 0.0, "name": "17b6c3cc7c6d080574a90c49273bfacc", "lon": -77.02635683333334, "fusion_lat": 0.0, "is_disabled": 0, "is_reserved": 0, "rental_uris": {"ios": "https://dc.lft.to/lastmile_qr_scan", "android": "https://dc.lft.to/lastmile_qr_scan"}, "bike_id": "17b6c3cc7c6d080574a90c49273bfacc", "lat": 38.898385166666664}, {"type": "electric_scooter", "fusion_lon": 0.0, "name": "be2519c5b56b57b26e290384f268b2c1", "lon": -77.04311133333333, "fusion_lat": 0.0, "is_disabled": 0, "is_reserved": 0, "rental_uris": {"ios": "https://dc.lft.to/lastmile_qr_scan", "android": "https://dc.lft.to/lastmile_qr_scan"}, "bike_id": "be2519c5b56b57b26e290384f268b2c1", "lat": 38.923255833333336}, {"type": "electric_scooter", "fusion_lon": 0.0, "name": "4ab02e1f3224197f37bb7041d86ae32c", "lon": -77.06485466666666, "fusion_lat": 0.0, "is_disabled": 0, "is_reserved": 0, "rental_uris": {"ios": "https://dc.lft.to/lastmile_qr_scan", "android": "https://dc.lft.to/lastmile_qr_scan"}, "bike_id": "4ab02e1f3224197f37bb7041d86ae32c", "lat": 38.905108166666665}, {"type": "electric_scooter", "fusion_lon": 0.0, "name": "0aebc22b57d09554af3b25c57a868346", "lon": -77.03937366666666, "fusion_lat": 0.0, "is_disabled": 0, "is_reserved": 0, "rental_uris": {"ios": "https://dc.lft.to/lastmile_qr_scan", "android": "https://dc.lft.to/lastmile_qr_scan"}, "bike_id": "0aebc22b57d09554af3b25c57a868346", "lat": 38.89884683333333}, {"type": "electric_scooter", "fusion_lon": 0.0, "name": "5ea67e34ebb24ef3ff7da3a5e731103d", "lon": -77.0423605, "fusion_lat": 0.0, "is_disabled": 0, "is_reserved": 0, "rental_uris": {"ios": "https://dc.lft.to/lastmile_qr_scan", "android": "https://dc.lft.to/lastmile_qr_scan"}, "bike_id": "5ea67e34ebb24ef3ff7da3a5e731103d", "lat": 38.9217465}, {"type": "electric_bike", "fusion_lon": 0.0, "name": "9f7227a9280f707815f49018ead48954", "lon": -77.03881266666667, "fusion_lat": 0.0, "is_disabled": 0, "is_reserved": 0, "rental_uris": {"ios": "https://dc.lft.to/lastmile_qr_scan", "android": "https://dc.lft.to/lastmile_qr_scan"}, "bike_id": "9f7227a9280f707815f49018ead48954", "lat": 39.026225833333335}, {"type": "electric_scooter", "fusion_lon": 0.0, "name": "8faa5faaba164617de6970f51f4fa1b9", "lon": -77.0325065, "fusion_lat": 0.0, "is_disabled": 0, "is_reserved": 0, "rental_uris": {"ios": "https://dc.lft.to/lastmile_qr_scan", "android": "https://dc.lft.to/lastmile_qr_scan"}, "bike_id": "8faa5faaba164617de6970f51f4fa1b9", "lat": 38.919896666666666}, {"type": "electric_scooter", "fusion_lon": 0.0, "name": "ebb493988f1d844637bfa947ab1ce9ac", "lon": -77.05120616666666, "fusion_lat": 0.0, "is_disabled": 0, "is_reserved": 0, "rental_uris": {"ios": "https://dc.lft.to/lastmile_qr_scan", "android": "https://dc.lft.to/lastmile_qr_scan"}, "bike_id": "ebb493988f1d844637bfa947ab1ce9ac", "lat": 38.9022205}, {"type": "electric_scooter", "fusion_lon": 0.0, "name": "0e357f9aa99762448f9d5809cdfcf51d", "lon": -77.01993666666667, "fusion_lat": 0.0, "is_disabled": 0, "is_reserved": 0, "rental_uris": {"ios": "https://dc.lft.to/lastmile_qr_scan", "android": "https://dc.lft.to/lastmile_qr_scan"}, "bike_id": "0e357f9aa99762448f9d5809cdfcf51d", "lat": 38.89694766666667}, {"type": "electric_scooter", "fusion_lon": 0.0, "name": "97b32bb154fbfb133c90d3138a799666", "lon": -77.03910333333333, "fusion_lat": 0.0, "is_disabled": 0, "is_reserved": 0, "rental_uris": {"ios": "https://dc.lft.to/lastmile_qr_scan", "android": "https://dc.lft.to/lastmile_qr_scan"}, "bike_id": "97b32bb154fbfb133c90d3138a799666", "lat": 38.903775333333336}, {"type": "electric_scooter", "fusion_lon": 0.0, "name": "1b153576434349da66360ebc69a01344", "lon": -77.0327835, "fusion_lat": 0.0, "is_disabled": 0, "is_reserved": 0, "rental_uris": {"ios": "https://dc.lft.to/lastmile_qr_scan", "android": "https://dc.lft.to/lastmile_qr_scan"}, "bike_id": "1b153576434349da66360ebc69a01344", "lat": 38.929423666666665}, {"type": "electric_scooter", "fusion_lon": 0.0, "name": "18ddd83608c136f2ef5bbc0e6b0ad33e", "lon": -77.0377155, "fusion_lat": 0.0, "is_disabled": 0, "is_reserved": 0, "rental_uris": {"ios": "https://dc.lft.to/lastmile_qr_scan", "android": "https://dc.lft.to/lastmile_qr_scan"}, "bike_id": "18ddd83608c136f2ef5bbc0e6b0ad33e", "lat": 38.9169055}, {"type": "electric_scooter", "fusion_lon": 0.0, "name": "09532c43eb24fb683a3440920b6a77e3", "lon": -77.03920433333333, "fusion_lat": 0.0, "is_disabled": 0, "is_reserved": 0, "rental_uris": {"ios": "https://dc.lft.to/lastmile_qr_scan", "android": "https://dc.lft.to/lastmile_qr_scan"}, "bike_id": "09532c43eb24fb683a3440920b6a77e3", "lat": 38.901290333333336}, {"type": "electric_bike", "fusion_lon": 0.0, "name": "ac1ede749d0f93f3f4a45346308a383f", "lon": -76.98753133333334, "fusion_lat": 0.0, "is_disabled": 0, "is_reserved": 0, "rental_uris": {"ios": "https://dc.lft.to/lastmile_qr_scan", "android": "https://dc.lft.to/lastmile_qr_scan"}, "bike_id": "ac1ede749d0f93f3f4a45346308a383f", "lat": 38.85796883333333}, {"type": "electric_scooter", "fusion_lon": 0.0, "name": "8ec1403f1d2e33d9014b3eb2465bac35", "lon": -77.0483865, "fusion_lat": 0.0, "is_disabled": 0, "is_reserved": 0, "rental_uris": {"ios": "https://dc.lft.to/lastmile_qr_scan", "android": "https://dc.lft.to/lastmile_qr_scan"}, "bike_id": "8ec1403f1d2e33d9014b3eb2465bac35", "lat": 38.900583166666664}, {"type": "electric_bike", "fusion_lon": 0.0, "name": "980459d865820389074ac75261a894f9", "lon": -77.03351016666667, "fusion_lat": 0.0, "is_disabled": 0, "is_reserved": 0, "rental_uris": {"ios": "https://dc.lft.to/lastmile_qr_scan", "android": "https://dc.lft.to/lastmile_qr_scan"}, "bike_id": "980459d865820389074ac75261a894f9", "lat": 38.895319}, {"type": "electric_scooter", "fusion_lon": 0.0, "name": "bba54969fa48cc7c02fbb0d5c19d8d3c", "lon": -77.02960116666667, "fusion_lat": 0.0, "is_disabled": 0, "is_reserved": 0, "rental_uris": {"ios": "https://dc.lft.to/lastmile_qr_scan", "android": "https://dc.lft.to/lastmile_qr_scan"}, "bike_id": "bba54969fa48cc7c02fbb0d5c19d8d3c", "lat": 38.9049415}, {"type": "electric_scooter", "fusion_lon": 0.0, "name": "d523fd5eee800c29a14dd4a7abbf6bd9", "lon": -77.02699183333333, "fusion_lat": 0.0, "is_disabled": 0, "is_reserved": 0, "rental_uris": {"ios": "https://dc.lft.to/lastmile_qr_scan", "android": "https://dc.lft.to/lastmile_qr_scan"}, "bike_id": "d523fd5eee800c29a14dd4a7abbf6bd9", "lat": 38.9066615}, {"type": "electric_scooter", "fusion_lon": 0.0, "name": "149d8988cdb0cae256441f92e3462b54", "lon": -77.03203916666666, "fusion_lat": 0.0, "is_disabled": 0, "is_reserved": 0, "rental_uris": {"ios": "https://dc.lft.to/lastmile_qr_scan", "android": "https://dc.lft.to/lastmile_qr_scan"}, "bike_id": "149d8988cdb0cae256441f92e3462b54", "lat": 38.920688}, {"type": "electric_scooter", "fusion_lon": 0.0, "name": "2b94f3ae0560530cb93d7ec388713fbb", "lon": -76.97330483333333, "fusion_lat": 0.0, "is_disabled": 0, "is_reserved": 0, "rental_uris": {"ios": "https://dc.lft.to/lastmile_qr_scan", "android": "https://dc.lft.to/lastmile_qr_scan"}, "bike_id": "2b94f3ae0560530cb93d7ec388713fbb", "lat": 38.865152}, {"type": "electric_scooter", "fusion_lon": 0.0, "name": "e7b840459547698da936a3ed7e14a085", "lon": -77.04515166666667, "fusion_lat": 0.0, "is_disabled": 0, "is_reserved": 0, "rental_uris": {"ios": "https://dc.lft.to/lastmile_qr_scan", "android": "https://dc.lft.to/lastmile_qr_scan"}, "bike_id": "e7b840459547698da936a3ed7e14a085", "lat": 38.907918333333335}, {"type": "electric_scooter", "fusion_lon": 0.0, "name": "798c96d5c70b16880b1526b00afdcafa", "lon": -77.027083, "fusion_lat": 0.0, "is_disabled": 0, "is_reserved": 0, "rental_uris": {"ios": "https://dc.lft.to/lastmile_qr_scan", "android": "https://dc.lft.to/lastmile_qr_scan"}, "bike_id": "798c96d5c70b16880b1526b00afdcafa", "lat": 38.906789}, {"type": "electric_scooter", "fusion_lon": 0.0, "name": "47a1a6b09736965b075b0b86c91903f9", "lon": -77.07699766666667, "fusion_lat": 0.0, "is_disabled": 0, "is_reserved": 0, "rental_uris": {"ios": "https://dc.lft.to/lastmile_qr_scan", "android": "https://dc.lft.to/lastmile_qr_scan"}, "bike_id": "47a1a6b09736965b075b0b86c91903f9", "lat": 38.9428745}, {"type": "electric_scooter", "fusion_lon": 0.0, "name": "77d5faf27abc3ed55d308c2c1e2bf9bd", "lon": -77.05258416666666, "fusion_lat": 0.0, "is_disabled": 0, "is_reserved": 0, "rental_uris": {"ios": "https://dc.lft.to/lastmile_qr_scan", "android": "https://dc.lft.to/lastmile_qr_scan"}, "bike_id": "77d5faf27abc3ed55d308c2c1e2bf9bd", "lat": 38.927805666666664}, {"type": "electric_scooter", "fusion_lon": 0.0, "name": "c36d17ce3adbcf849a26ba5819c00a76", "lon": -77.03792416666667, "fusion_lat": 0.0, "is_disabled": 0, "is_reserved": 0, "rental_uris": {"ios": "https://dc.lft.to/lastmile_qr_scan", "android": "https://dc.lft.to/lastmile_qr_scan"}, "bike_id": "c36d17ce3adbcf849a26ba5819c00a76", "lat": 38.902773}, {"type": "electric_scooter", "fusion_lon": 0.0, "name": "85a8e049c39d5a4e9c61db5dac04eb50", "lon": -77.03382266666667, "fusion_lat": 0.0, "is_disabled": 0, "is_reserved": 0, "rental_uris": {"ios": "https://dc.lft.to/lastmile_qr_scan", "android": "https://dc.lft.to/lastmile_qr_scan"}, "bike_id": "85a8e049c39d5a4e9c61db5dac04eb50", "lat": 38.93842316666667}, {"type": "electric_scooter", "fusion_lon": 0.0, "name": "c1990ba70bdea3f8961f56ac6bb490be", "lon": -76.98312233333333, "fusion_lat": 0.0, "is_disabled": 0, "is_reserved": 0, "rental_uris": {"ios": "https://dc.lft.to/lastmile_qr_scan", "android": "https://dc.lft.to/lastmile_qr_scan"}, "bike_id": "c1990ba70bdea3f8961f56ac6bb490be", "lat": 38.925535333333336}, {"type": "electric_scooter", "fusion_lon": 0.0, "name": "9a6b3da13f7187938f9597d43fc72e67", "lon": -77.04411066666667, "fusion_lat": 0.0, "is_disabled": 0, "is_reserved": 0, "rental_uris": {"ios": "https://dc.lft.to/lastmile_qr_scan", "android": "https://dc.lft.to/lastmile_qr_scan"}, "bike_id": "9a6b3da13f7187938f9597d43fc72e67", "lat": 38.896040166666666}, {"type": "electric_scooter", "fusion_lon": 0.0, "name": "91709837dd94645801556abc131bb632", "lon": -77.03488716666666, "fusion_lat": 0.0, "is_disabled": 0, "is_reserved": 0, "rental_uris": {"ios": "https://dc.lft.to/lastmile_qr_scan", "android": "https://dc.lft.to/lastmile_qr_scan"}, "bike_id": "91709837dd94645801556abc131bb632", "lat": 38.91894333333333}, {"type": "electric_scooter", "fusion_lon": 0.0, "name": "ba308045d8875fd4a7858a2a983d92ec", "lon": -77.0508075, "fusion_lat": 0.0, "is_disabled": 0, "is_reserved": 0, "rental_uris": {"ios": "https://dc.lft.to/lastmile_qr_scan", "android": "https://dc.lft.to/lastmile_qr_scan"}, "bike_id": "ba308045d8875fd4a7858a2a983d92ec", "lat": 38.916244}, {"type": "electric_scooter", "fusion_lon": 0.0, "name": "9e1daea430059b14e7b2ee92d49d60d6", "lon": -77.01928383333333, "fusion_lat": 0.0, "is_disabled": 0, "is_reserved": 0, "rental_uris": {"ios": "https://dc.lft.to/lastmile_qr_scan", "android": "https://dc.lft.to/lastmile_qr_scan"}, "bike_id": "9e1daea430059b14e7b2ee92d49d60d6", "lat": 38.922582166666665}, {"type": "electric_scooter", "fusion_lon": 0.0, "name": "a66b50156894418e225628ac9ee34b08", "lon": -77.06281066666666, "fusion_lat": 0.0, "is_disabled": 0, "is_reserved": 0, "rental_uris": {"ios": "https://dc.lft.to/lastmile_qr_scan", "android": "https://dc.lft.to/lastmile_qr_scan"}, "bike_id": "a66b50156894418e225628ac9ee34b08", "lat": 38.90570016666667}, {"type": "electric_scooter", "fusion_lon": 0.0, "name": "6798839d311dd65538b3a8937d5bf52b", "lon": -77.05508083333334, "fusion_lat": 0.0, "is_disabled": 0, "is_reserved": 0, "rental_uris": {"ios": "https://dc.lft.to/lastmile_qr_scan", "android": "https://dc.lft.to/lastmile_qr_scan"}, "bike_id": "6798839d311dd65538b3a8937d5bf52b", "lat": 38.92985066666667}, {"type": "electric_scooter", "fusion_lon": 0.0, "name": "2028a7f611a930c6b1650d4544ec9c5e", "lon": -77.07241216666667, "fusion_lat": 0.0, "is_disabled": 0, "is_reserved": 0, "rental_uris": {"ios": "https://dc.lft.to/lastmile_qr_scan", "android": "https://dc.lft.to/lastmile_qr_scan"}, "bike_id": "2028a7f611a930c6b1650d4544ec9c5e", "lat": 38.907863666666664}, {"type": "electric_scooter", "fusion_lon": 0.0, "name": "6e90eb437446389b396f7c40c75a9fea", "lon": -77.03251966666667, "fusion_lat": 0.0, "is_disabled": 0, "is_reserved": 0, "rental_uris": {"ios": "https://dc.lft.to/lastmile_qr_scan", "android": "https://dc.lft.to/lastmile_qr_scan"}, "bike_id": "6e90eb437446389b396f7c40c75a9fea", "lat": 38.9111445}, {"type": "electric_scooter", "fusion_lon": 0.0, "name": "52f1da65077fc8c321df5b689979c0b9", "lon": -77.04505666666667, "fusion_lat": 0.0, "is_disabled": 0, "is_reserved": 0, "rental_uris": {"ios": "https://dc.lft.to/lastmile_qr_scan", "android": "https://dc.lft.to/lastmile_qr_scan"}, "bike_id": "52f1da65077fc8c321df5b689979c0b9", "lat": 38.899657833333336}, {"type": "electric_scooter", "fusion_lon": 0.0, "name": "8761439bb251f951d1457e3b80d90dba", "lon": -76.95199683333334, "fusion_lat": 0.0, "is_disabled": 0, "is_reserved": 0, "rental_uris": {"ios": "https://dc.lft.to/lastmile_qr_scan", "android": "https://dc.lft.to/lastmile_qr_scan"}, "bike_id": "8761439bb251f951d1457e3b80d90dba", "lat": 38.905150666666664}, {"type": "electric_scooter", "fusion_lon": 0.0, "name": "1a027639ef808a3c62e324e1dbe9436c", "lon": -77.02694583333333, "fusion_lat": 0.0, "is_disabled": 0, "is_reserved": 0, "rental_uris": {"ios": "https://dc.lft.to/lastmile_qr_scan", "android": "https://dc.lft.to/lastmile_qr_scan"}, "bike_id": "1a027639ef808a3c62e324e1dbe9436c", "lat": 38.90000416666667}, {"type": "electric_scooter", "fusion_lon": 0.0, "name": "3317cc3ad9e41869dba759fdcf6a41c3", "lon": -77.02491866666666, "fusion_lat": 0.0, "is_disabled": 0, "is_reserved": 0, "rental_uris": {"ios": "https://dc.lft.to/lastmile_qr_scan", "android": "https://dc.lft.to/lastmile_qr_scan"}, "bike_id": "3317cc3ad9e41869dba759fdcf6a41c3", "lat": 38.91807883333333}, {"type": "electric_scooter", "fusion_lon": 0.0, "name": "c1cc23eba4662a1329432a3fbb509650", "lon": -77.0367565, "fusion_lat": 0.0, "is_disabled": 0, "is_reserved": 0, "rental_uris": {"ios": "https://dc.lft.to/lastmile_qr_scan", "android": "https://dc.lft.to/lastmile_qr_scan"}, "bike_id": "c1cc23eba4662a1329432a3fbb509650", "lat": 38.9156595}, {"type": "electric_scooter", "fusion_lon": 0.0, "name": "b1a10f1c28058b79870ea401e92750fd", "lon": -77.02526916666666, "fusion_lat": 0.0, "is_disabled": 0, "is_reserved": 0, "rental_uris": {"ios": "https://dc.lft.to/lastmile_qr_scan", "android": "https://dc.lft.to/lastmile_qr_scan"}, "bike_id": "b1a10f1c28058b79870ea401e92750fd", "lat": 38.902093}, {"type": "electric_scooter", "fusion_lon": 0.0, "name": "680410fb4eb92419275eca8152cdf94f", "lon": -77.00960533333334, "fusion_lat": 0.0, "is_disabled": 0, "is_reserved": 0, "rental_uris": {"ios": "https://dc.lft.to/lastmile_qr_scan", "android": "https://dc.lft.to/lastmile_qr_scan"}, "bike_id": "680410fb4eb92419275eca8152cdf94f", "lat": 38.876604666666665}, {"type": "electric_scooter", "fusion_lon": 0.0, "name": "6aae7ceb9d90588e9b16af953ba3d1dd", "lon": -77.02964266666666, "fusion_lat": 0.0, "is_disabled": 0, "is_reserved": 0, "rental_uris": {"ios": "https://dc.lft.to/lastmile_qr_scan", "android": "https://dc.lft.to/lastmile_qr_scan"}, "bike_id": "6aae7ceb9d90588e9b16af953ba3d1dd", "lat": 38.925222}, {"type": "electric_scooter", "fusion_lon": 0.0, "name": "31219c5d6bcf127892016bfc6a41393d", "lon": -77.04686466666666, "fusion_lat": 0.0, "is_disabled": 0, "is_reserved": 0, "rental_uris": {"ios": "https://dc.lft.to/lastmile_qr_scan", "android": "https://dc.lft.to/lastmile_qr_scan"}, "bike_id": "31219c5d6bcf127892016bfc6a41393d", "lat": 38.892242833333334}, {"type": "electric_scooter", "fusion_lon": 0.0, "name": "eb0f071d641b872fadf012fb056cb1ab", "lon": -77.04066033333334, "fusion_lat": 0.0, "is_disabled": 0, "is_reserved": 0, "rental_uris": {"ios": "https://dc.lft.to/lastmile_qr_scan", "android": "https://dc.lft.to/lastmile_qr_scan"}, "bike_id": "eb0f071d641b872fadf012fb056cb1ab", "lat": 38.90135166666666}, {"type": "electric_scooter", "fusion_lon": 0.0, "name": "97b1f5a3ea374c2d021d6508d1479c82", "lon": -77.02987083333333, "fusion_lat": 0.0, "is_disabled": 0, "is_reserved": 0, "rental_uris": {"ios": "https://dc.lft.to/lastmile_qr_scan", "android": "https://dc.lft.to/lastmile_qr_scan"}, "bike_id": "97b1f5a3ea374c2d021d6508d1479c82", "lat": 38.9059735}, {"type": "electric_bike", "fusion_lon": 0.0, "name": "a73a001a6345d0dd3fdf8aef7ad2e516", "lon": -77.099023, "fusion_lat": 0.0, "is_disabled": 0, "is_reserved": 0, "rental_uris": {"ios": "https://dc.lft.to/lastmile_qr_scan", "android": "https://dc.lft.to/lastmile_qr_scan"}, "bike_id": "a73a001a6345d0dd3fdf8aef7ad2e516", "lat": 38.9618535}, {"type": "electric_scooter", "fusion_lon": 0.0, "name": "30b47f222850da46b153298ce50c9db0", "lon": -77.00549866666667, "fusion_lat": 0.0, "is_disabled": 0, "is_reserved": 0, "rental_uris": {"ios": "https://dc.lft.to/lastmile_qr_scan", "android": "https://dc.lft.to/lastmile_qr_scan"}, "bike_id": "30b47f222850da46b153298ce50c9db0", "lat": 38.927556833333334}, {"type": "electric_scooter", "fusion_lon": 0.0, "name": "3d629c2a16177e84247323070e35cf33", "lon": -77.00750016666667, "fusion_lat": 0.0, "is_disabled": 0, "is_reserved": 0, "rental_uris": {"ios": "https://dc.lft.to/lastmile_qr_scan", "android": "https://dc.lft.to/lastmile_qr_scan"}, "bike_id": "3d629c2a16177e84247323070e35cf33", "lat": 38.876485}, {"type": "electric_scooter", "fusion_lon": 0.0, "name": "a0c92bf6d3d8650fd79d3b015df04dc6", "lon": -77.02862866666666, "fusion_lat": 0.0, "is_disabled": 0, "is_reserved": 0, "rental_uris": {"ios": "https://dc.lft.to/lastmile_qr_scan", "android": "https://dc.lft.to/lastmile_qr_scan"}, "bike_id": "a0c92bf6d3d8650fd79d3b015df04dc6", "lat": 38.88192183333334}, {"type": "electric_bike", "fusion_lon": 0.0, "name": "1ba669505f213cbd0e3ed007bc2bbd0a", "lon": -77.09694466666667, "fusion_lat": 0.0, "is_disabled": 0, "is_reserved": 0, "rental_uris": {"ios": "https://dc.lft.to/lastmile_qr_scan", "android": "https://dc.lft.to/lastmile_qr_scan"}, "bike_id": "1ba669505f213cbd0e3ed007bc2bbd0a", "lat": 38.80740566666667}, {"type": "electric_scooter", "fusion_lon": 0.0, "name": "ec49e0d1e7849fa38a2dddde9ea03e43", "lon": -77.0076545, "fusion_lat": 0.0, "is_disabled": 0, "is_reserved": 0, "rental_uris": {"ios": "https://dc.lft.to/lastmile_qr_scan", "android": "https://dc.lft.to/lastmile_qr_scan"}, "bike_id": "ec49e0d1e7849fa38a2dddde9ea03e43", "lat": 38.900513}, {"type": "electric_scooter", "fusion_lon": 0.0, "name": "67453cd6ec3fb06abca6d78c7bbc6d3a", "lon": -77.02801916666667, "fusion_lat": 0.0, "is_disabled": 0, "is_reserved": 0, "rental_uris": {"ios": "https://dc.lft.to/lastmile_qr_scan", "android": "https://dc.lft.to/lastmile_qr_scan"}, "bike_id": "67453cd6ec3fb06abca6d78c7bbc6d3a", "lat": 38.8956125}, {"type": "electric_scooter", "fusion_lon": 0.0, "name": "32f17797078c87f913c7d54f6d7031b6", "lon": -77.032937, "fusion_lat": 0.0, "is_disabled": 0, "is_reserved": 0, "rental_uris": {"ios": "https://dc.lft.to/lastmile_qr_scan", "android": "https://dc.lft.to/lastmile_qr_scan"}, "bike_id": "32f17797078c87f913c7d54f6d7031b6", "lat": 38.9056695}, {"type": "electric_scooter", "fusion_lon": 0.0, "name": "a1aab491ca3e1c8cbc47427dfe964ba7", "lon": -77.04474, "fusion_lat": 0.0, "is_disabled": 0, "is_reserved": 0, "rental_uris": {"ios": "https://dc.lft.to/lastmile_qr_scan", "android": "https://dc.lft.to/lastmile_qr_scan"}, "bike_id": "a1aab491ca3e1c8cbc47427dfe964ba7", "lat": 38.918738833333336}, {"type": "electric_scooter", "fusion_lon": 0.0, "name": "29b5df228175e76a466c116d06816155", "lon": -77.04408183333334, "fusion_lat": 0.0, "is_disabled": 0, "is_reserved": 0, "rental_uris": {"ios": "https://dc.lft.to/lastmile_qr_scan", "android": "https://dc.lft.to/lastmile_qr_scan"}, "bike_id": "29b5df228175e76a466c116d06816155", "lat": 38.8961315}, {"type": "electric_bike", "fusion_lon": 0.0, "name": "0f8d3c7ac8665477452ffcc574f6a879", "lon": -76.96261466666667, "fusion_lat": 0.0, "is_disabled": 0, "is_reserved": 0, "rental_uris": {"ios": "https://dc.lft.to/lastmile_qr_scan", "android": "https://dc.lft.to/lastmile_qr_scan"}, "bike_id": "0f8d3c7ac8665477452ffcc574f6a879", "lat": 38.882454333333335}, {"type": "electric_bike", "fusion_lon": 0.0, "name": "bb21e2924adbf9975cee3498ca37cbb3", "lon": -77.03261116666667, "fusion_lat": 0.0, "is_disabled": 0, "is_reserved": 0, "rental_uris": {"ios": "https://dc.lft.to/lastmile_qr_scan", "android": "https://dc.lft.to/lastmile_qr_scan"}, "bike_id": "bb21e2924adbf9975cee3498ca37cbb3", "lat": 38.88080166666667}, {"type": "electric_scooter", "fusion_lon": 0.0, "name": "2cba125fe4308d65acb498ebfbed9ff2", "lon": -77.0035885, "fusion_lat": 0.0, "is_disabled": 0, "is_reserved": 0, "rental_uris": {"ios": "https://dc.lft.to/lastmile_qr_scan", "android": "https://dc.lft.to/lastmile_qr_scan"}, "bike_id": "2cba125fe4308d65acb498ebfbed9ff2", "lat": 38.908708833333336}, {"type": "electric_scooter", "fusion_lon": 0.0, "name": "8b5541a780ba843748a7ffc5520f197e", "lon": -77.0435645, "fusion_lat": 0.0, "is_disabled": 0, "is_reserved": 0, "rental_uris": {"ios": "https://dc.lft.to/lastmile_qr_scan", "android": "https://dc.lft.to/lastmile_qr_scan"}, "bike_id": "8b5541a780ba843748a7ffc5520f197e", "lat": 38.9013395}, {"type": "electric_scooter", "fusion_lon": 0.0, "name": "d58c86d62c5f421ef2248fe042c5bab3", "lon": -76.99166583333333, "fusion_lat": 0.0, "is_disabled": 0, "is_reserved": 0, "rental_uris": {"ios": "https://dc.lft.to/lastmile_qr_scan", "android": "https://dc.lft.to/lastmile_qr_scan"}, "bike_id": "d58c86d62c5f421ef2248fe042c5bab3", "lat": 38.8734185}, {"type": "electric_scooter", "fusion_lon": 0.0, "name": "0625ef7db9d22a772eaf0b913c818eca", "lon": -77.02938566666667, "fusion_lat": 0.0, "is_disabled": 0, "is_reserved": 0, "rental_uris": {"ios": "https://dc.lft.to/lastmile_qr_scan", "android": "https://dc.lft.to/lastmile_qr_scan"}, "bike_id": "0625ef7db9d22a772eaf0b913c818eca", "lat": 38.89915533333333}, {"type": "electric_scooter", "fusion_lon": 0.0, "name": "b4d29e2928790c46b331efc6d23a35a2", "lon": -77.022321, "fusion_lat": 0.0, "is_disabled": 0, "is_reserved": 0, "rental_uris": {"ios": "https://dc.lft.to/lastmile_qr_scan", "android": "https://dc.lft.to/lastmile_qr_scan"}, "bike_id": "b4d29e2928790c46b331efc6d23a35a2", "lat": 38.89199083333333}, {"type": "electric_scooter", "fusion_lon": 0.0, "name": "b558f7ad9ee06cc2bf398d044303fdea", "lon": -77.00713633333334, "fusion_lat": 0.0, "is_disabled": 0, "is_reserved": 0, "rental_uris": {"ios": "https://dc.lft.to/lastmile_qr_scan", "android": "https://dc.lft.to/lastmile_qr_scan"}, "bike_id": "b558f7ad9ee06cc2bf398d044303fdea", "lat": 38.884938166666664}, {"type": "electric_scooter", "fusion_lon": 0.0, "name": "e353c9f47e854017028ba2aef0b04084", "lon": -77.03645316666666, "fusion_lat": 0.0, "is_disabled": 0, "is_reserved": 0, "rental_uris": {"ios": "https://dc.lft.to/lastmile_qr_scan", "android": "https://dc.lft.to/lastmile_qr_scan"}, "bike_id": "e353c9f47e854017028ba2aef0b04084", "lat": 38.91758866666667}, {"type": "electric_scooter", "fusion_lon": 0.0, "name": "5b5c9f82c0c5152e934ac9d001bdec4d", "lon": -77.03991816666667, "fusion_lat": 0.0, "is_disabled": 0, "is_reserved": 0, "rental_uris": {"ios": "https://dc.lft.to/lastmile_qr_scan", "android": "https://dc.lft.to/lastmile_qr_scan"}, "bike_id": "5b5c9f82c0c5152e934ac9d001bdec4d", "lat": 38.905734333333335}, {"type": "electric_bike", "fusion_lon": 0.0, "name": "56df2e83ee82bc48309c40d37a906558", "lon": -76.93209466666667, "fusion_lat": 0.0, "is_disabled": 0, "is_reserved": 0, "rental_uris": {"ios": "https://dc.lft.to/lastmile_qr_scan", "android": "https://dc.lft.to/lastmile_qr_scan"}, "bike_id": "56df2e83ee82bc48309c40d37a906558", "lat": 38.8966945}, {"type": "electric_scooter", "fusion_lon": 0.0, "name": "9779f56902c701c0dda36174e10d6e33", "lon": -77.0746795, "fusion_lat": 0.0, "is_disabled": 0, "is_reserved": 0, "rental_uris": {"ios": "https://dc.lft.to/lastmile_qr_scan", "android": "https://dc.lft.to/lastmile_qr_scan"}, "bike_id": "9779f56902c701c0dda36174e10d6e33", "lat": 38.9355495}, {"type": "electric_scooter", "fusion_lon": 0.0, "name": "c5b82ac221906b0ebec065613edbb4ce", "lon": -77.03409433333333, "fusion_lat": 0.0, "is_disabled": 0, "is_reserved": 0, "rental_uris": {"ios": "https://dc.lft.to/lastmile_qr_scan", "android": "https://dc.lft.to/lastmile_qr_scan"}, "bike_id": "c5b82ac221906b0ebec065613edbb4ce", "lat": 38.9230905}, {"type": "electric_scooter", "fusion_lon": 0.0, "name": "59c3a1d533d1140ab438dc0621f240cf", "lon": -77.05231433333333, "fusion_lat": 0.0, "is_disabled": 0, "is_reserved": 0, "rental_uris": {"ios": "https://dc.lft.to/lastmile_qr_scan", "android": "https://dc.lft.to/lastmile_qr_scan"}, "bike_id": "59c3a1d533d1140ab438dc0621f240cf", "lat": 38.924456166666666}, {"type": "electric_scooter", "fusion_lon": 0.0, "name": "48be2d96631d5eb29dff2e0a4bf4dea7", "lon": -77.0293725, "fusion_lat": 0.0, "is_disabled": 0, "is_reserved": 0, "rental_uris": {"ios": "https://dc.lft.to/lastmile_qr_scan", "android": "https://dc.lft.to/lastmile_qr_scan"}, "bike_id": "48be2d96631d5eb29dff2e0a4bf4dea7", "lat": 38.9177135}, {"type": "electric_scooter", "fusion_lon": 0.0, "name": "bdf3d834a69e959d4d6effef336687f0", "lon": -77.04338833333334, "fusion_lat": 0.0, "is_disabled": 0, "is_reserved": 0, "rental_uris": {"ios": "https://dc.lft.to/lastmile_qr_scan", "android": "https://dc.lft.to/lastmile_qr_scan"}, "bike_id": "bdf3d834a69e959d4d6effef336687f0", "lat": 38.8967105}, {"type": "electric_bike", "fusion_lon": 0.0, "name": "15e63d3988e646c53b661ec9c6c723f6", "lon": -77.09588516666666, "fusion_lat": 0.0, "is_disabled": 0, "is_reserved": 0, "rental_uris": {"ios": "https://dc.lft.to/lastmile_qr_scan", "android": "https://dc.lft.to/lastmile_qr_scan"}, "bike_id": "15e63d3988e646c53b661ec9c6c723f6", "lat": 38.97443483333333}, {"type": "electric_scooter", "fusion_lon": 0.0, "name": "fcd5d30201fb899e29e9516edc23dc07", "lon": -77.03382666666667, "fusion_lat": 0.0, "is_disabled": 0, "is_reserved": 0, "rental_uris": {"ios": "https://dc.lft.to/lastmile_qr_scan", "android": "https://dc.lft.to/lastmile_qr_scan"}, "bike_id": "fcd5d30201fb899e29e9516edc23dc07", "lat": 38.90963416666666}, {"type": "electric_scooter", "fusion_lon": 0.0, "name": "c5d4973b6f4e57d33d548613c632a257", "lon": -77.02809883333333, "fusion_lat": 0.0, "is_disabled": 0, "is_reserved": 0, "rental_uris": {"ios": "https://dc.lft.to/lastmile_qr_scan", "android": "https://dc.lft.to/lastmile_qr_scan"}, "bike_id": "c5d4973b6f4e57d33d548613c632a257", "lat": 38.94463866666667}, {"type": "electric_scooter", "fusion_lon": 0.0, "name": "39f04bf46ac9fcef421f9bb0de673eb0", "lon": -77.02683883333333, "fusion_lat": 0.0, "is_disabled": 0, "is_reserved": 0, "rental_uris": {"ios": "https://dc.lft.to/lastmile_qr_scan", "android": "https://dc.lft.to/lastmile_qr_scan"}, "bike_id": "39f04bf46ac9fcef421f9bb0de673eb0", "lat": 38.8969695}, {"type": "electric_scooter", "fusion_lon": 0.0, "name": "afabbc78aafc779ecb00b961d79aaca6", "lon": -77.05329833333333, "fusion_lat": 0.0, "is_disabled": 0, "is_reserved": 0, "rental_uris": {"ios": "https://dc.lft.to/lastmile_qr_scan", "android": "https://dc.lft.to/lastmile_qr_scan"}, "bike_id": "afabbc78aafc779ecb00b961d79aaca6", "lat": 38.904104333333336},