{"data": {"bikes": [{"bike_id": "3b3cc6bccf0ca4b8f8003045e2bb714e", "type": "electric_scooter", "is_disabled": 0, "lat": 38.89892233333333, "rental_uris": {"ios": "https://dc.lft.to/lastmile_qr_scan", "android": "https://dc.lft.to/lastmile_qr_scan"}, "is_reserved": 0, "fusion_lon": 0.0, "fusion_lat": 0.0, "lon": -77.02390316666667, "name": "3b3cc6bccf0ca4b8f8003045e2bb714e"}, {"bike_id": "51d9ee223ef52b65b7b253081592f572", "type": "electric_scooter", "is_disabled": 0, "lat": 38.85808433333333, "rental_uris": {"ios": "https://dc.lft.to/lastmile_qr_scan", "android": "https://dc.lft.to/lastmile_qr_scan"}, "is_reserved": 0, "fusion_lon": 0.0, "fusion_lat": 0.0, "lon": -76.98927466666666, "name": "51d9ee223ef52b65b7b253081592f572"}, {"bike_id": "5999bf11d5f17c3817ad5dd90103c58f", "type": "electric_scooter", "is_disabled": 0, "lat": 38.870636, "rental_uris": {"ios": "https://dc.lft.to/lastmile_qr_scan", "android": "https://dc.lft.to/lastmile_qr_scan"}, "is_reserved": 0, "fusion_lon": 0.0, "fusion_lat": 0.0, "lon": -76.981339, "name": "5999bf11d5f17c3817ad5dd90103c58f"}, {"bike_id": "2439c1ceff5c78b115828fad38f76aee", "type": "electric_scooter", "is_disabled": 0, "lat": 38.89292616666667, "rental_uris": {"ios": "https://dc.lft.to/lastmile_qr_scan", "android": "https://dc.lft.to/lastmile_qr_scan"}, "is_reserved": 0, "fusion_lon": 0.0, "fusion_lat": 0.0, "lon": -77.0202095, "name": "2439c1ceff5c78b115828fad38f76aee"}, {"bike_id": "22797851e5f98451e37eedee00c39999", "type": "electric_scooter", "is_disabled": 0, "lat": 38.89292116666667, "rental_uris": {"ios": "https://dc.lft.to/lastmile_qr_scan", "android": "https://dc.lft.to/lastmile_qr_scan"}, "is_reserved": 0, "fusion_lon": 0.0, "fusion_lat": 0.0, "lon": -77.02024583333333, "name": "22797851e5f98451e37eedee00c39999"}, {"bike_id": "3c0c2f571bdb689144608577b5947501", "type": "electric_scooter", "is_disabled": 0, "lat": 38.8863745, "rental_uris": {"ios": "https://dc.lft.to/lastmile_qr_scan", "android": "https://dc.lft.to/lastmile_qr_scan"}, "is_reserved": 0, "fusion_lon": 0.0, "fusion_lat": 0.0, "lon": -77.01363666666667, "name": "3c0c2f571bdb689144608577b5947501"}, {"bike_id": "ddcfee973b56b13ade1dae7e61c33dd1", "type": "electric_scooter", "is_disabled": 0, "lat": 38.935073333333335, "rental_uris": {"ios": "https://dc.lft.to/lastmile_qr_scan", "android": "https://dc.lft.to/lastmile_qr_scan"}, "is_reserved": 0, "fusion_lon": 0.0, "fusion_lat": 0.0, "lon": -77.02546933333333, "name": "ddcfee973b56b13ade1dae7e61c33dd1"}, {"bike_id": "74a611b13475337c522bb8a7e240e0cf", "type": "electric_scooter", "is_disabled": 0, "lat": 38.91680133333333, "rental_uris": {"ios": "https://dc.lft.to/lastmile_qr_scan", "android": "https://dc.lft.to/lastmile_qr_scan"}, "is_reserved": 0, "fusion_lon": 0.0, "fusion_lat": 0.0, "lon": -77.0290015, "name": "74a611b13475337c522bb8a7e240e0cf"}, {"bike_id": "2869844fdc3944975bff0f03d9774199", "type": "electric_scooter", "is_disabled": 0, "lat": 38.899666333333336, "rental_uris": {"ios": "https://dc.lft.to/lastmile_qr_scan", "android": "https://dc.lft.to/lastmile_qr_scan"}, "is_reserved": 0, "fusion_lon": 0.0, "fusion_lat": 0.0, "lon": -76.98309333333333, "name": "2869844fdc3944975bff0f03d9774199"}, {"bike_id": "5a40e6623cb613464c25a3540335cdb1", "type": "electric_scooter", "is_disabled": 0, "lat": 38.9160265, "rental_uris": {"ios": "https://dc.lft.to/lastmile_qr_scan", "android": "https://dc.lft.to/lastmile_qr_scan"}, "is_reserved": 0, "fusion_lon": 0.0, "fusion_lat": 0.0, "lon": -77.03985166666666, "name": "5a40e6623cb613464c25a3540335cdb1"}, {"bike_id": "59707941ef41a66b0f604092c9f9ac65", "type": "electric_bike", "is_disabled": 0, "lat": 38.943579, "rental_uris": {"ios": "https://dc.lft.to/lastmile_qr_scan", "android": "https://dc.lft.to/lastmile_qr_scan"}, "is_reserved": 0, "fusion_lon": 0.0, "fusion_lat": 0.0, "lon": -77.0035805, "name": "59707941ef41a66b0f604092c9f9ac65"}, {"bike_id": "e7e260741500ede64c12439d28951932", "type": "electric_scooter", "is_disabled": 0, "lat": 38.907853833333334, "rental_uris": {"ios": "https://dc.lft.to/lastmile_qr_scan", "android": "https://dc.lft.to/lastmile_qr_scan"}, "is_reserved": 0, "fusion_lon": 0.0, "fusion_lat": 0.0, "lon": -76.9943925, "name": "e7e260741500ede64c12439d28951932"}, {"bike_id": "69eb144c725d81fe591af8043c5cf319", "type": "electric_scooter", "is_disabled": 0, "lat": 38.939732, "rental_uris": {"ios": "https://dc.lft.to/lastmile_qr_scan", "android": "https://dc.lft.to/lastmile_qr_scan"}, "is_reserved": 0, "fusion_lon": 0.0, "fusion_lat": 0.0, "lon": -77.02877383333333, "name": "69eb144c725d81fe591af8043c5cf319"}, {"bike_id": "34fd37fa4f731ecbbb59c4e2d231ba15", "type": "electric_scooter", "is_disabled": 0, "lat": 38.926972666666664, "rental_uris": {"ios": "https://dc.lft.to/lastmile_qr_scan", "android": "https://dc.lft.to/lastmile_qr_scan"}, "is_reserved": 0, "fusion_lon": 0.0, "fusion_lat": 0.0, "lon": -77.02071016666666, "name": "34fd37fa4f731ecbbb59c4e2d231ba15"}, {"bike_id": "9427234ec35f0f1b8bdebadc13196e62", "type": "electric_scooter", "is_disabled": 0, "lat": 38.946126666666665, "rental_uris": {"ios": "https://dc.lft.to/lastmile_qr_scan", "android": "https://dc.lft.to/lastmile_qr_scan"}, "is_reserved": 0, "fusion_lon": 0.0, "fusion_lat": 0.0, "lon": -77.022705, "name": "9427234ec35f0f1b8bdebadc13196e62"}, {"bike_id": "eb26f2b550f32cca4234e7a4a152c681", "type": "electric_scooter", "is_disabled": 0, "lat": 38.9331955, "rental_uris": {"ios": "https://dc.lft.to/lastmile_qr_scan", "android": "https://dc.lft.to/lastmile_qr_scan"}, "is_reserved": 0, "fusion_lon": 0.0, "fusion_lat": 0.0, "lon": -77.02390683333333, "name": "eb26f2b550f32cca4234e7a4a152c681"}, {"bike_id": "b66f64e4c0116e6a12ee78e03dee155e", "type": "electric_scooter", "is_disabled": 0, "lat": 38.866224833333334, "rental_uris": {"ios": "https://dc.lft.to/lastmile_qr_scan", "android": "https://dc.lft.to/lastmile_qr_scan"}, "is_reserved": 0, "fusion_lon": 0.0, "fusion_lat": 0.0, "lon": -76.98714133333333, "name": "b66f64e4c0116e6a12ee78e03dee155e"}, {"bike_id": "a181a4f023d8f2bc8c8913e0e9ae06f8", "type": "electric_scooter", "is_disabled": 0, "lat": 38.90553933333333, "rental_uris": {"ios": "https://dc.lft.to/lastmile_qr_scan", "android": "https://dc.lft.to/lastmile_qr_scan"}, "is_reserved": 0, "fusion_lon": 0.0, "fusion_lat": 0.0, "lon": -77.02188733333334, "name": "a181a4f023d8f2bc8c8913e0e9ae06f8"}, {"bike_id": "b0e4a7ca96263922405d8a66fe781b3c", "type": "electric_scooter", "is_disabled": 0, "lat": 38.908601, "rental_uris": {"ios": "https://dc.lft.to/lastmile_qr_scan", "android": "https://dc.lft.to/lastmile_qr_scan"}, "is_reserved": 0, "fusion_lon": 0.0, "fusion_lat": 0.0, "lon": -76.99947516666667, "name": "b0e4a7ca96263922405d8a66fe781b3c"}, {"bike_id": "7b9a6b749868a0aa8c7eb5e169d66f83", "type": "electric_scooter", "is_disabled": 0, "lat": 38.894768, "rental_uris": {"ios": "https://dc.lft.to/lastmile_qr_scan", "android": "https://dc.lft.to/lastmile_qr_scan"}, "is_reserved": 0, "fusion_lon": 0.0, "fusion_lat": 0.0, "lon": -76.98785133333334, "name": "7b9a6b749868a0aa8c7eb5e169d66f83"}, {"bike_id": "60257be9b467ddda27893f2b31a3f1bb", "type": "electric_scooter", "is_disabled": 0, "lat": 38.92916183333333, "rental_uris": {"ios": "https://dc.lft.to/lastmile_qr_scan", "android": "https://dc.lft.to/lastmile_qr_scan"}, "is_reserved": 0, "fusion_lon": 0.0, "fusion_lat": 0.0, "lon": -77.02095216666666, "name": "60257be9b467ddda27893f2b31a3f1bb"}, {"bike_id": "8759c57279e68b958b0473f73bc1fe01", "type": "electric_scooter", "is_disabled": 0, "lat": 38.896154, "rental_uris": {"ios": "https://dc.lft.to/lastmile_qr_scan", "android": "https://dc.lft.to/lastmile_qr_scan"}, "is_reserved": 0, "fusion_lon": 0.0, "fusion_lat": 0.0, "lon": -77.028073, "name": "8759c57279e68b958b0473f73bc1fe01"}, {"bike_id": "2c6dd045dc5168559a7df5ff20bf013b", "type": "electric_scooter", "is_disabled": 0, "lat": 38.86208666666667, "rental_uris": {"ios": "https://dc.lft.to/lastmile_qr_scan", "android": "https://dc.lft.to/lastmile_qr_scan"}, "is_reserved": 0, "fusion_lon": 0.0, "fusion_lat": 0.0, "lon": -76.99470933333333, "name": "2c6dd045dc5168559a7df5ff20bf013b"}, {"bike_id": "c8524cf1bba87ec0128537e0d8e9ecca", "type": "electric_scooter", "is_disabled": 0, "lat": 38.91564966666667, "rental_uris": {"ios": "https://dc.lft.to/lastmile_qr_scan", "android": "https://dc.lft.to/lastmile_qr_scan"}, "is_reserved": 0, "fusion_lon": 0.0, "fusion_lat": 0.0, "lon": -77.067573, "name": "c8524cf1bba87ec0128537e0d8e9ecca"}, {"bike_id": "1015ff800849ea8b4b1075f05e851f47", "type": "electric_scooter", "is_disabled": 0, "lat": 38.8987995, "rental_uris": {"ios": "https://dc.lft.to/lastmile_qr_scan", "android": "https://dc.lft.to/lastmile_qr_scan"}, "is_reserved": 0, "fusion_lon": 0.0, "fusion_lat": 0.0, "lon": -76.93181433333334, "name": "1015ff800849ea8b4b1075f05e851f47"}, {"bike_id": "a8e9cb5ad596ba55d741e9e3c3c37c9c", "type": "electric_scooter", "is_disabled": 0, "lat": 38.919917166666664, "rental_uris": {"ios": "https://dc.lft.to/lastmile_qr_scan", "android": "https://dc.lft.to/lastmile_qr_scan"}, "is_reserved": 0, "fusion_lon": 0.0, "fusion_lat": 0.0, "lon": -77.0222895, "name": "a8e9cb5ad596ba55d741e9e3c3c37c9c"}, {"bike_id": "8725d2717d43f3ac22ba9922cef05de7", "type": "electric_scooter", "is_disabled": 0, "lat": 38.927951666666665, "rental_uris": {"ios": "https://dc.lft.to/lastmile_qr_scan", "android": "https://dc.lft.to/lastmile_qr_scan"}, "is_reserved": 0, "fusion_lon": 0.0, "fusion_lat": 0.0, "lon": -77.02603883333333, "name": "8725d2717d43f3ac22ba9922cef05de7"}, {"bike_id": "f73897d3845ccfbe114f637e45cf7ae7", "type": "electric_scooter", "is_disabled": 0, "lat": 38.88739266666666, "rental_uris": {"ios": "https://dc.lft.to/lastmile_qr_scan", "android": "https://dc.lft.to/lastmile_qr_scan"}, "is_reserved": 0, "fusion_lon": 0.0, "fusion_lat": 0.0, "lon": -77.01535433333333, "name": "f73897d3845ccfbe114f637e45cf7ae7"}, {"bike_id": "2969e27a80425d478d6c00ef1977307a", "type": "electric_scooter", "is_disabled": 0, "lat": 38.90337516666666, "rental_uris": {"ios": "https://dc.lft.to/lastmile_qr_scan", "android": "https://dc.lft.to/lastmile_qr_scan"}, "is_reserved": 0, "fusion_lon": 0.0, "fusion_lat": 0.0, "lon": -77.06192516666667, "name": "2969e27a80425d478d6c00ef1977307a"}, {"bike_id": "c626858f4a27e96b6a989dfd0aa3042d", "type": "electric_scooter", "is_disabled": 0, "lat": 38.903037833333336, "rental_uris": {"ios": "https://dc.lft.to/lastmile_qr_scan", "android": "https://dc.lft.to/lastmile_qr_scan"}, "is_reserved": 0, "fusion_lon": 0.0, "fusion_lat": 0.0, "lon": -77.03870733333333, "name": "c626858f4a27e96b6a989dfd0aa3042d"}, {"bike_id": "4536aec0f4a37ab4d798c8faae8594a9", "type": "electric_scooter", "is_disabled": 0, "lat": 38.909212, "rental_uris": {"ios": "https://dc.lft.to/lastmile_qr_scan", "android": "https://dc.lft.to/lastmile_qr_scan"}, "is_reserved": 0, "fusion_lon": 0.0, "fusion_lat": 0.0, "lon": -77.06080616666667, "name": "4536aec0f4a37ab4d798c8faae8594a9"}, {"bike_id": "044fb51bc244f31cf8b5f3beb5e52956", "type": "electric_scooter", "is_disabled": 0, "lat": 38.913288666666666, "rental_uris": {"ios": "https://dc.lft.to/lastmile_qr_scan", "android": "https://dc.lft.to/lastmile_qr_scan"}, "is_reserved": 0, "fusion_lon": 0.0, "fusion_lat": 0.0, "lon": -77.04488416666666, "name": "044fb51bc244f31cf8b5f3beb5e52956"}, {"bike_id": "373914358311a661be1caaf36e1335f6", "type": "electric_bike", "is_disabled": 0, "lat": 38.86620283333333, "rental_uris": {"ios": "https://dc.lft.to/lastmile_qr_scan", "android": "https://dc.lft.to/lastmile_qr_scan"}, "is_reserved": 0, "fusion_lon": 0.0, "fusion_lat": 0.0, "lon": -76.94575516666667, "name": "373914358311a661be1caaf36e1335f6"}, {"bike_id": "ac0ab3ac35a1e5d137d6f758a8f386d0", "type": "electric_scooter", "is_disabled": 0, "lat": 38.93106066666667, "rental_uris": {"ios": "https://dc.lft.to/lastmile_qr_scan", "android": "https://dc.lft.to/lastmile_qr_scan"}, "is_reserved": 0, "fusion_lon": 0.0, "fusion_lat": 0.0, "lon": -77.04134766666667, "name": "ac0ab3ac35a1e5d137d6f758a8f386d0"}, {"bike_id": "aa9562c0d8bffacc41681626a23a55b5", "type": "electric_bike", "is_disabled": 0, "lat": 38.925692833333336, "rental_uris": {"ios": "https://dc.lft.to/lastmile_qr_scan", "android": "https://dc.lft.to/lastmile_qr_scan"}, "is_reserved": 0, "fusion_lon": 0.0, "fusion_lat": 0.0, "lon": -77.043764, "name": "aa9562c0d8bffacc41681626a23a55b5"}, {"bike_id": "c8309b02db18acd0cade88cbb61a2d31", "type": "electric_scooter", "is_disabled": 0, "lat": 38.92473483333333, "rental_uris": {"ios": "https://dc.lft.to/lastmile_qr_scan", "android": "https://dc.lft.to/lastmile_qr_scan"}, "is_reserved": 0, "fusion_lon": 0.0, "fusion_lat": 0.0, "lon": -77.028395, "name": "c8309b02db18acd0cade88cbb61a2d31"}, {"bike_id": "30eb7b6ea48101c7b657a1e9d7423600", "type": "electric_scooter", "is_disabled": 0, "lat": 38.88369266666667, "rental_uris": {"ios": "https://dc.lft.to/lastmile_qr_scan", "android": "https://dc.lft.to/lastmile_qr_scan"}, "is_reserved": 0, "fusion_lon": 0.0, "fusion_lat": 0.0, "lon": -77.01988316666667, "name": "30eb7b6ea48101c7b657a1e9d7423600"}, {"bike_id": "930852974b1b96efea4c4ac916d0ee01", "type": "electric_scooter", "is_disabled": 0, "lat": 38.90707966666667, "rental_uris": {"ios": "https://dc.lft.to/lastmile_qr_scan", "android": "https://dc.lft.to/lastmile_qr_scan"}, "is_reserved": 0, "fusion_lon": 0.0, "fusion_lat": 0.0, "lon": -77.04355733333334, "name": "930852974b1b96efea4c4ac916d0ee01"}, {"bike_id": "62fba52bc27dc63fd58de60db528449e", "type": "electric_scooter", "is_disabled": 0, "lat": 38.930663333333335, "rental_uris": {"ios": "https://dc.lft.to/lastmile_qr_scan", "android": "https://dc.lft.to/lastmile_qr_scan"}, "is_reserved": 0, "fusion_lon": 0.0, "fusion_lat": 0.0, "lon": -77.03189666666667, "name": "62fba52bc27dc63fd58de60db528449e"}, {"bike_id": "84a7f9877d6e8625f48b9c9b7cd9d682", "type": "electric_scooter", "is_disabled": 0, "lat": 38.930641333333334, "rental_uris": {"ios": "https://dc.lft.to/lastmile_qr_scan", "android": "https://dc.lft.to/lastmile_qr_scan"}, "is_reserved": 0, "fusion_lon": 0.0, "fusion_lat": 0.0, "lon": -77.04128416666667, "name": "84a7f9877d6e8625f48b9c9b7cd9d682"}, {"bike_id": "a3df996c1d93b81e5c675be46b6ef4e1", "type": "electric_scooter", "is_disabled": 0, "lat": 38.91490533333333, "rental_uris": {"ios": "https://dc.lft.to/lastmile_qr_scan", "android": "https://dc.lft.to/lastmile_qr_scan"}, "is_reserved": 0, "fusion_lon": 0.0, "fusion_lat": 0.0, "lon": -77.03130916666667, "name": "a3df996c1d93b81e5c675be46b6ef4e1"}, {"bike_id": "82a185508d47d563a4099b31b986c8a6", "type": "electric_scooter", "is_disabled": 0, "lat": 38.89875083333333, "rental_uris": {"ios": "https://dc.lft.to/lastmile_qr_scan", "android": "https://dc.lft.to/lastmile_qr_scan"}, "is_reserved": 0, "fusion_lon": 0.0, "fusion_lat": 0.0, "lon": -76.93187466666667, "name": "82a185508d47d563a4099b31b986c8a6"}, {"bike_id": "fab4247ff1eed8e759f56eea6cf9d9ff", "type": "electric_scooter", "is_disabled": 0, "lat": 38.899826, "rental_uris": {"ios": "https://dc.lft.to/lastmile_qr_scan", "android": "https://dc.lft.to/lastmile_qr_scan"}, "is_reserved": 0, "fusion_lon": 0.0, "fusion_lat": 0.0, "lon": -77.01924466666667, "name": "fab4247ff1eed8e759f56eea6cf9d9ff"}, {"bike_id": "5e5926179c2061b55dc67a2016fdf9e3", "type": "electric_bike", "is_disabled": 0, "lat": 38.939667166666666, "rental_uris": {"ios": "https://dc.lft.to/lastmile_qr_scan", "android": "https://dc.lft.to/lastmile_qr_scan"}, "is_reserved": 0, "fusion_lon": 0.0, "fusion_lat": 0.0, "lon": -77.05258966666666, "name": "5e5926179c2061b55dc67a2016fdf9e3"}, {"bike_id": "b61ee2c9adfc81c24abce38f88f91685", "type": "electric_scooter", "is_disabled": 0, "lat": 38.921273, "rental_uris": {"ios": "https://dc.lft.to/lastmile_qr_scan", "android": "https://dc.lft.to/lastmile_qr_scan"}, "is_reserved": 0, "fusion_lon": 0.0, "fusion_lat": 0.0, "lon": -77.02716566666666, "name": "b61ee2c9adfc81c24abce38f88f91685"}, {"bike_id": "61ae810b6cc5cc261541cc197ce1abcc", "type": "electric_scooter", "is_disabled": 0, "lat": 38.91109816666667, "rental_uris": {"ios": "https://dc.lft.to/lastmile_qr_scan", "android": "https://dc.lft.to/lastmile_qr_scan"}, "is_reserved": 0, "fusion_lon": 0.0, "fusion_lat": 0.0, "lon": -77.0373385, "name": "61ae810b6cc5cc261541cc197ce1abcc"}, {"bike_id": "4d11a6c0539c1e9006bd0794142dd71f", "type": "electric_scooter", "is_disabled": 0, "lat": 38.92244183333333, "rental_uris": {"ios": "https://dc.lft.to/lastmile_qr_scan", "android": "https://dc.lft.to/lastmile_qr_scan"}, "is_reserved": 0, "fusion_lon": 0.0, "fusion_lat": 0.0, "lon": -77.04276, "name": "4d11a6c0539c1e9006bd0794142dd71f"}, {"bike_id": "6fd03d853b74c5cf1575e23fc753cdb9", "type": "electric_scooter", "is_disabled": 0, "lat": 38.90755883333333, "rental_uris": {"ios": "https://dc.lft.to/lastmile_qr_scan", "android": "https://dc.lft.to/lastmile_qr_scan"}, "is_reserved": 0, "fusion_lon": 0.0, "fusion_lat": 0.0, "lon": -77.00015283333333, "name": "6fd03d853b74c5cf1575e23fc753cdb9"}, {"bike_id": "7e83284cd442fdd4623b740fbc0848f1", "type": "electric_bike", "is_disabled": 0, "lat": 38.808983166666664, "rental_uris": {"ios": "https://dc.lft.to/lastmile_qr_scan", "android": "https://dc.lft.to/lastmile_qr_scan"}, "is_reserved": 0, "fusion_lon": 0.0, "fusion_lat": 0.0, "lon": -77.086635, "name": "7e83284cd442fdd4623b740fbc0848f1"}, {"bike_id": "0986e671c8f7d664fa7763f568513d0b", "type": "electric_scooter", "is_disabled": 0, "lat": 38.93397266666667, "rental_uris": {"ios": "https://dc.lft.to/lastmile_qr_scan", "android": "https://dc.lft.to/lastmile_qr_scan"}, "is_reserved": 0, "fusion_lon": 0.0, "fusion_lat": 0.0, "lon": -77.03272866666667, "name": "0986e671c8f7d664fa7763f568513d0b"}, {"bike_id": "b746520df6802196804d5cdff2d8d8f6", "type": "electric_scooter", "is_disabled": 0, "lat": 38.878297333333336, "rental_uris": {"ios": "https://dc.lft.to/lastmile_qr_scan", "android": "https://dc.lft.to/lastmile_qr_scan"}, "is_reserved": 0, "fusion_lon": 0.0, "fusion_lat": 0.0, "lon": -77.00862466666666, "name": "b746520df6802196804d5cdff2d8d8f6"}, {"bike_id": "3dca6bb40a1082527d806a695d24fdf8", "type": "electric_scooter", "is_disabled": 0, "lat": 38.874444833333335, "rental_uris": {"ios": "https://dc.lft.to/lastmile_qr_scan", "android": "https://dc.lft.to/lastmile_qr_scan"}, "is_reserved": 0, "fusion_lon": 0.0, "fusion_lat": 0.0, "lon": -77.00925266666667, "name": "3dca6bb40a1082527d806a695d24fdf8"}, {"bike_id": "afb99941b2a396a1f70241c91fb64935", "type": "electric_scooter", "is_disabled": 0, "lat": 38.91764716666667, "rental_uris": {"ios": "https://dc.lft.to/lastmile_qr_scan", "android": "https://dc.lft.to/lastmile_qr_scan"}, "is_reserved": 0, "fusion_lon": 0.0, "fusion_lat": 0.0, "lon": -77.02962333333333, "name": "afb99941b2a396a1f70241c91fb64935"}, {"bike_id": "c3fed861d703f6449174df47e6297446", "type": "electric_scooter", "is_disabled": 0, "lat": 38.8929925, "rental_uris": {"ios": "https://dc.lft.to/lastmile_qr_scan", "android": "https://dc.lft.to/lastmile_qr_scan"}, "is_reserved": 0, "fusion_lon": 0.0, "fusion_lat": 0.0, "lon": -77.0417035, "name": "c3fed861d703f6449174df47e6297446"}, {"bike_id": "f5affa8dbf2f0c4649a1645abc457163", "type": "electric_scooter", "is_disabled": 0, "lat": 38.91148233333333, "rental_uris": {"ios": "https://dc.lft.to/lastmile_qr_scan", "android": "https://dc.lft.to/lastmile_qr_scan"}, "is_reserved": 0, "fusion_lon": 0.0, "fusion_lat": 0.0, "lon": -77.029683, "name": "f5affa8dbf2f0c4649a1645abc457163"}, {"bike_id": "5fb264984802addff7275f47abe86fb9", "type": "electric_scooter", "is_disabled": 0, "lat": 38.8650135, "rental_uris": {"ios": "https://dc.lft.to/lastmile_qr_scan", "android": "https://dc.lft.to/lastmile_qr_scan"}, "is_reserved": 0, "fusion_lon": 0.0, "fusion_lat": 0.0, "lon": -76.990046, "name": "5fb264984802addff7275f47abe86fb9"}, {"bike_id": "ec5cca9027a31847d59564da1f62be92", "type": "electric_scooter", "is_disabled": 0, "lat": 38.933672666666666, "rental_uris": {"ios": "https://dc.lft.to/lastmile_qr_scan", "android": "https://dc.lft.to/lastmile_qr_scan"}, "is_reserved": 0, "fusion_lon": 0.0, "fusion_lat": 0.0, "lon": -77.05740633333333, "name": "ec5cca9027a31847d59564da1f62be92"}, {"bike_id": "eacdb92ee8b93cd2c11b2bd28f8362ff", "type": "electric_scooter", "is_disabled": 0, "lat": 38.926839, "rental_uris": {"ios": "https://dc.lft.to/lastmile_qr_scan", "android": "https://dc.lft.to/lastmile_qr_scan"}, "is_reserved": 0, "fusion_lon": 0.0, "fusion_lat": 0.0, "lon": -77.07317883333333, "name": "eacdb92ee8b93cd2c11b2bd28f8362ff"}, {"bike_id": "3e2fed6edb893e8ef3c288ee9a7b3979", "type": "electric_scooter", "is_disabled": 0, "lat": 38.892377333333336, "rental_uris": {"ios": "https://dc.lft.to/lastmile_qr_scan", "android": "https://dc.lft.to/lastmile_qr_scan"}, "is_reserved": 0, "fusion_lon": 0.0, "fusion_lat": 0.0, "lon": -76.95333083333334, "name": "3e2fed6edb893e8ef3c288ee9a7b3979"}, {"bike_id": "bf07c30cc3beb4bba71bcbfd09756c1d", "type": "electric_scooter", "is_disabled": 0, "lat": 38.911252166666664, "rental_uris": {"ios": "https://dc.lft.to/lastmile_qr_scan", "android": "https://dc.lft.to/lastmile_qr_scan"}, "is_reserved": 0, "fusion_lon": 0.0, "fusion_lat": 0.0, "lon": -77.02187666666667, "name": "bf07c30cc3beb4bba71bcbfd09756c1d"}, {"bike_id": "41110c1c2751bfd829285dbbe74de863", "type": "electric_scooter", "is_disabled": 0, "lat": 38.926383333333334, "rental_uris": {"ios": "https://dc.lft.to/lastmile_qr_scan", "android": "https://dc.lft.to/lastmile_qr_scan"}, "is_reserved": 0, "fusion_lon": 0.0, "fusion_lat": 0.0, "lon": -77.013836, "name": "41110c1c2751bfd829285dbbe74de863"}, {"bike_id": "4f2592962e6dc8e52a903f65ef489f23", "type": "electric_scooter", "is_disabled": 0, "lat": 38.918553333333335, "rental_uris": {"ios": "https://dc.lft.to/lastmile_qr_scan", "android": "https://dc.lft.to/lastmile_qr_scan"}, "is_reserved": 0, "fusion_lon": 0.0, "fusion_lat": 0.0, "lon": -76.96114916666667, "name": "4f2592962e6dc8e52a903f65ef489f23"}, {"bike_id": "cd8495c821920031703c49b86b6f4ccc", "type": "electric_scooter", "is_disabled": 0, "lat": 38.89981616666667, "rental_uris": {"ios": "https://dc.lft.to/lastmile_qr_scan", "android": "https://dc.lft.to/lastmile_qr_scan"}, "is_reserved": 0, "fusion_lon": 0.0, "fusion_lat": 0.0, "lon": -77.02398666666667, "name": "cd8495c821920031703c49b86b6f4ccc"}, {"bike_id": "b6e8800a4ee4f8314ab5a678743c1d46", "type": "electric_scooter", "is_disabled": 0, "lat": 38.9204795, "rental_uris": {"ios": "https://dc.lft.to/lastmile_qr_scan", "android": "https://dc.lft.to/lastmile_qr_scan"}, "is_reserved": 0, "fusion_lon": 0.0, "fusion_lat": 0.0, "lon": -77.0340275, "name": "b6e8800a4ee4f8314ab5a678743c1d46"}, {"bike_id": "acdcd285dbfd55dc35af838bd325c81c", "type": "electric_scooter", "is_disabled": 0, "lat": 38.922309, "rental_uris": {"ios": "https://dc.lft.to/lastmile_qr_scan", "android": "https://dc.lft.to/lastmile_qr_scan"}, "is_reserved": 0, "fusion_lon": 0.0, "fusion_lat": 0.0, "lon": -77.04378333333334, "name": "acdcd285dbfd55dc35af838bd325c81c"}, {"bike_id": "cb474aeab970b0f664cf3d65496eee4d", "type": "electric_scooter", "is_disabled": 0, "lat": 38.94002416666667, "rental_uris": {"ios": "https://dc.lft.to/lastmile_qr_scan", "android": "https://dc.lft.to/lastmile_qr_scan"}, "is_reserved": 0, "fusion_lon": 0.0, "fusion_lat": 0.0, "lon": -77.03807016666667, "name": "cb474aeab970b0f664cf3d65496eee4d"}, {"bike_id": "9cbdcc2c1a98a14956080b795ce12758", "type": "electric_scooter", "is_disabled": 0, "lat": 38.88457233333333, "rental_uris": {"ios": "https://dc.lft.to/lastmile_qr_scan", "android": "https://dc.lft.to/lastmile_qr_scan"}, "is_reserved": 0, "fusion_lon": 0.0, "fusion_lat": 0.0, "lon": -77.00051966666666, "name": "9cbdcc2c1a98a14956080b795ce12758"}, {"bike_id": "83841700865dde377e22ff721bb63b85", "type": "electric_scooter", "is_disabled": 0, "lat": 38.8953985, "rental_uris": {"ios": "https://dc.lft.to/lastmile_qr_scan", "android": "https://dc.lft.to/lastmile_qr_scan"}, "is_reserved": 0, "fusion_lon": 0.0, "fusion_lat": 0.0, "lon": -76.92953016666667, "name": "83841700865dde377e22ff721bb63b85"}, {"bike_id": "93bd4916faa2f0e75c7e1a7fb4500941", "type": "electric_scooter", "is_disabled": 0, "lat": 38.892872833333335, "rental_uris": {"ios": "https://dc.lft.to/lastmile_qr_scan", "android": "https://dc.lft.to/lastmile_qr_scan"}, "is_reserved": 0, "fusion_lon": 0.0, "fusion_lat": 0.0, "lon": -77.03352016666666, "name": "93bd4916faa2f0e75c7e1a7fb4500941"}, {"bike_id": "d7f988e2a8c59030a1695e2e38f36455", "type": "electric_scooter", "is_disabled": 0, "lat": 38.90257883333334, "rental_uris": {"ios": "https://dc.lft.to/lastmile_qr_scan", "android": "https://dc.lft.to/lastmile_qr_scan"}, "is_reserved": 0, "fusion_lon": 0.0, "fusion_lat": 0.0, "lon": -77.061275, "name": "d7f988e2a8c59030a1695e2e38f36455"}, {"bike_id": "c3874581133a25d6f31686e88d57b2a1", "type": "electric_scooter", "is_disabled": 0, "lat": 38.907383833333334, "rental_uris": {"ios": "https://dc.lft.to/lastmile_qr_scan", "android": "https://dc.lft.to/lastmile_qr_scan"}, "is_reserved": 0, "fusion_lon": 0.0, "fusion_lat": 0.0, "lon": -77.04153983333333, "name": "c3874581133a25d6f31686e88d57b2a1"}, {"bike_id": "e736d553832a2e7aa2c7510abb048677", "type": "electric_scooter", "is_disabled": 0, "lat": 38.87467733333333, "rental_uris": {"ios": "https://dc.lft.to/lastmile_qr_scan", "android": "https://dc.lft.to/lastmile_qr_scan"}, "is_reserved": 0, "fusion_lon": 0.0, "fusion_lat": 0.0, "lon": -77.01074083333333, "name": "e736d553832a2e7aa2c7510abb048677"}, {"bike_id": "f65963a747a57413cfa0b0a4644f7b0f", "type": "electric_bike", "is_disabled": 0, "lat": 38.878816666666665, "rental_uris": {"ios": "https://dc.lft.to/lastmile_qr_scan", "android": "https://dc.lft.to/lastmile_qr_scan"}, "is_reserved": 0, "fusion_lon": 0.0, "fusion_lat": 0.0, "lon": -77.09615116666667, "name": "f65963a747a57413cfa0b0a4644f7b0f"}, {"bike_id": "41ce90490b7f16b14a0024a64f9b3a76", "type": "electric_scooter", "is_disabled": 0, "lat": 38.90328216666666, "rental_uris": {"ios": "https://dc.lft.to/lastmile_qr_scan", "android": "https://dc.lft.to/lastmile_qr_scan"}, "is_reserved": 0, "fusion_lon": 0.0, "fusion_lat": 0.0, "lon": -77.02891216666667, "name": "41ce90490b7f16b14a0024a64f9b3a76"}, {"bike_id": "94d7d7abd077a7f1afdd0d032461f0a3", "type": "electric_scooter", "is_disabled": 0, "lat": 38.91548733333333, "rental_uris": {"ios": "https://dc.lft.to/lastmile_qr_scan", "android": "https://dc.lft.to/lastmile_qr_scan"}, "is_reserved": 0, "fusion_lon": 0.0, "fusion_lat": 0.0, "lon": -77.0321885, "name": "94d7d7abd077a7f1afdd0d032461f0a3"}, {"bike_id": "799a2c4bc3358d9c89aa437ef8509b35", "type": "electric_scooter", "is_disabled": 0, "lat": 38.90051916666667, "rental_uris": {"ios": "https://dc.lft.to/lastmile_qr_scan", "android": "https://dc.lft.to/lastmile_qr_scan"}, "is_reserved": 0, "fusion_lon": 0.0, "fusion_lat": 0.0, "lon": -76.99755433333333, "name": "799a2c4bc3358d9c89aa437ef8509b35"}, {"bike_id": "eee65665063cc1a146d339bbf344d578", "type": "electric_scooter", "is_disabled": 0, "lat": 38.923679666666665, "rental_uris": {"ios": "https://dc.lft.to/lastmile_qr_scan", "android": "https://dc.lft.to/lastmile_qr_scan"}, "is_reserved": 0, "fusion_lon": 0.0, "fusion_lat": 0.0, "lon": -77.043096, "name": "eee65665063cc1a146d339bbf344d578"}, {"bike_id": "2a75de10f0edde86e056189d3759fd5d", "type": "electric_scooter", "is_disabled": 0, "lat": 38.898504, "rental_uris": {"ios": "https://dc.lft.to/lastmile_qr_scan", "android": "https://dc.lft.to/lastmile_qr_scan"}, "is_reserved": 0, "fusion_lon": 0.0, "fusion_lat": 0.0, "lon": -77.0418525, "name": "2a75de10f0edde86e056189d3759fd5d"}, {"bike_id": "d993db21f50226610b54d7538e4a9993", "type": "electric_scooter", "is_disabled": 0, "lat": 38.92484116666667, "rental_uris": {"ios": "https://dc.lft.to/lastmile_qr_scan", "android": "https://dc.lft.to/lastmile_qr_scan"}, "is_reserved": 0, "fusion_lon": 0.0, "fusion_lat": 0.0, "lon": -77.03179533333333, "name": "d993db21f50226610b54d7538e4a9993"}, {"bike_id": "3a93c30fadcb3f50e781861642c496d1", "type": "electric_scooter", "is_disabled": 0, "lat": 38.9007115, "rental_uris": {"ios": "https://dc.lft.to/lastmile_qr_scan", "android": "https://dc.lft.to/lastmile_qr_scan"}, "is_reserved": 0, "fusion_lon": 0.0, "fusion_lat": 0.0, "lon": -77.01731233333334, "name": "3a93c30fadcb3f50e781861642c496d1"}, {"bike_id": "5ea2e9e212ab176bfa5dd8ca14727334", "type": "electric_bike", "is_disabled": 0, "lat": 38.987677, "rental_uris": {"ios": "https://dc.lft.to/lastmile_qr_scan", "android": "https://dc.lft.to/lastmile_qr_scan"}, "is_reserved": 0, "fusion_lon": 0.0, "fusion_lat": 0.0, "lon": -77.1405875, "name": "5ea2e9e212ab176bfa5dd8ca14727334"}, {"bike_id": "3275b51b4625e1ee7db1973bfaf767b0", "type": "electric_scooter", "is_disabled": 0, "lat": 38.916559666666664, "rental_uris": {"ios": "https://dc.lft.to/lastmile_qr_scan", "android": "https://dc.lft.to/lastmile_qr_scan"}, "is_reserved": 0, "fusion_lon": 0.0, "fusion_lat": 0.0, "lon": -76.97910633333333, "name": "3275b51b4625e1ee7db1973bfaf767b0"}, {"bike_id": "677edb62bca571d586ce45b8f4c738ff", "type": "electric_scooter", "is_disabled": 0, "lat": 38.92331566666667, "rental_uris": {"ios": "https://dc.lft.to/lastmile_qr_scan", "android": "https://dc.lft.to/lastmile_qr_scan"}, "is_reserved": 0, "fusion_lon": 0.0, "fusion_lat": 0.0, "lon": -77.00891166666666, "name": "677edb62bca571d586ce45b8f4c738ff"}, {"bike_id": "1d120a078f5e26b829c5f0d9655d57d9", "type": "electric_scooter", "is_disabled": 0, "lat": 38.93360033333333, "rental_uris": {"ios": "https://dc.lft.to/lastmile_qr_scan", "android": "https://dc.lft.to/lastmile_qr_scan"}, "is_reserved": 0, "fusion_lon": 0.0, "fusion_lat": 0.0, "lon": -77.02651966666667, "name": "1d120a078f5e26b829c5f0d9655d57d9"}, {"bike_id": "9f8f59c9e66a44129ff1d85d43a8d476", "type": "electric_bike", "is_disabled": 0, "lat": 38.900079833333336, "rental_uris": {"ios": "https://dc.lft.to/lastmile_qr_scan", "android": "https://dc.lft.to/lastmile_qr_scan"}, "is_reserved": 0, "fusion_lon": 0.0, "fusion_lat": 0.0, "lon": -77.006245, "name": "9f8f59c9e66a44129ff1d85d43a8d476"}, {"bike_id": "37c7d4da4fc3e86810c4ac6ce5add710", "type": "electric_scooter", "is_disabled": 0, "lat": 38.919749333333336, "rental_uris": {"ios": "https://dc.lft.to/lastmile_qr_scan", "android": "https://dc.lft.to/lastmile_qr_scan"}, "is_reserved": 0, "fusion_lon": 0.0, "fusion_lat": 0.0, "lon": -77.02520716666666, "name": "37c7d4da4fc3e86810c4ac6ce5add710"}, {"bike_id": "b8c0289dbdf970b527e9ad37dd462ed5", "type": "electric_scooter", "is_disabled": 0, "lat": 38.930335, "rental_uris": {"ios": "https://dc.lft.to/lastmile_qr_scan", "android": "https://dc.lft.to/lastmile_qr_scan"}, "is_reserved": 0, "fusion_lon": 0.0, "fusion_lat": 0.0, "lon": -77.0296895, "name": "b8c0289dbdf970b527e9ad37dd462ed5"}, {"bike_id": "c7fd78e900fc57b9aed8c7c745db9ad5", "type": "electric_scooter", "is_disabled": 0, "lat": 38.90684066666667, "rental_uris": {"ios": "https://dc.lft.to/lastmile_qr_scan", "android": "https://dc.lft.to/lastmile_qr_scan"}, "is_reserved": 0, "fusion_lon": 0.0, "fusion_lat": 0.0, "lon": -77.044829, "name": "c7fd78e900fc57b9aed8c7c745db9ad5"}, {"bike_id": "9ad7f875fc736e4debdd286bd2fda760", "type": "electric_scooter", "is_disabled": 0, "lat": 38.92059533333333, "rental_uris": {"ios": "https://dc.lft.to/lastmile_qr_scan", "android": "https://dc.lft.to/lastmile_qr_scan"}, "is_reserved": 0, "fusion_lon": 0.0, "fusion_lat": 0.0, "lon": -76.998756, "name": "9ad7f875fc736e4debdd286bd2fda760"}, {"bike_id": "e8cfd34830a34cf542a7e3554fb017be", "type": "electric_scooter", "is_disabled": 0, "lat": 38.95614066666667, "rental_uris": {"ios": "https://dc.lft.to/lastmile_qr_scan", "android": "https://dc.lft.to/lastmile_qr_scan"}, "is_reserved": 0, "fusion_lon": 0.0, "fusion_lat": 0.0, "lon": -77.0102355, "name": "e8cfd34830a34cf542a7e3554fb017be"}, {"bike_id": "b01b9cb2c5fefb9def3c7a32c2dbbfa7", "type": "electric_scooter", "is_disabled": 0, "lat": 38.902355666666665, "rental_uris": {"ios": "https://dc.lft.to/lastmile_qr_scan", "android": "https://dc.lft.to/lastmile_qr_scan"}, "is_reserved": 0, "fusion_lon": 0.0, "fusion_lat": 0.0, "lon": -77.05343716666667, "name": "b01b9cb2c5fefb9def3c7a32c2dbbfa7"}, {"bike_id": "d22c1b607167c5c4d85087a691c5b7a2", "type": "electric_scooter", "is_disabled": 0, "lat": 38.93951233333333, "rental_uris": {"ios": "https://dc.lft.to/lastmile_qr_scan", "android": "https://dc.lft.to/lastmile_qr_scan"}, "is_reserved": 0, "fusion_lon": 0.0, "fusion_lat": 0.0, "lon": -77.06077583333334, "name": "d22c1b607167c5c4d85087a691c5b7a2"}, {"bike_id": "e542de1ae7902849a8edcb87f33cd88f", "type": "electric_scooter", "is_disabled": 0, "lat": 38.87662133333333, "rental_uris": {"ios": "https://dc.lft.to/lastmile_qr_scan", "android": "https://dc.lft.to/lastmile_qr_scan"}, "is_reserved": 0, "fusion_lon": 0.0, "fusion_lat": 0.0, "lon": -77.008233, "name": "e542de1ae7902849a8edcb87f33cd88f"}, {"bike_id": "32a09bd6361f1314ae27d33ad8afb6de", "type": "electric_scooter", "is_disabled": 0, "lat": 38.94014833333333, "rental_uris": {"ios": "https://dc.lft.to/lastmile_qr_scan", "android": "https://dc.lft.to/lastmile_qr_scan"}, "is_reserved": 0, "fusion_lon": 0.0, "fusion_lat": 0.0, "lon": -77.02641516666667, "name": "32a09bd6361f1314ae27d33ad8afb6de"}, {"bike_id": "24766ef8caa159cdc8f8c528c270a3d4", "type": "electric_scooter", "is_disabled": 0, "lat": 38.91724883333333, "rental_uris": {"ios": "https://dc.lft.to/lastmile_qr_scan", "android": "https://dc.lft.to/lastmile_qr_scan"}, "is_reserved": 0, "fusion_lon": 0.0, "fusion_lat": 0.0, "lon": -77.0190785, "name": "24766ef8caa159cdc8f8c528c270a3d4"}, {"bike_id": "599d078bb246647d0d17b785f979709c", "type": "electric_scooter", "is_disabled": 0, "lat": 38.90385666666667, "rental_uris": {"ios": "https://dc.lft.to/lastmile_qr_scan", "android": "https://dc.lft.to/lastmile_qr_scan"}, "is_reserved": 0, "fusion_lon": 0.0, "fusion_lat": 0.0, "lon": -77.0089205, "name": "599d078bb246647d0d17b785f979709c"}, {"bike_id": "28e4d00a5c404c98f2e249d1e36b484b", "type": "electric_scooter", "is_disabled": 0, "lat": 38.87445616666667, "rental_uris": {"ios": "https://dc.lft.to/lastmile_qr_scan", "android": "https://dc.lft.to/lastmile_qr_scan"}, "is_reserved": 0, "fusion_lon": 0.0, "fusion_lat": 0.0, "lon": -77.00923416666667, "name": "28e4d00a5c404c98f2e249d1e36b484b"}, {"bike_id": "4d139fe1eb458c19336daabfe5b1f184", "type": "electric_scooter", "is_disabled": 0, "lat": 38.87630716666666, "rental_uris": {"ios": "https://dc.lft.to/lastmile_qr_scan", "android": "https://dc.lft.to/lastmile_qr_scan"}, "is_reserved": 0, "fusion_lon": 0.0, "fusion_lat": 0.0, "lon": -76.965269, "name": "4d139fe1eb458c19336daabfe5b1f184"}, {"bike_id": "d47d617f0db1235c9d611639dc4f30cf", "type": "electric_scooter", "is_disabled": 0, "lat": 38.91400766666667, "rental_uris": {"ios": "https://dc.lft.to/lastmile_qr_scan", "android": "https://dc.lft.to/lastmile_qr_scan"}, "is_reserved": 0, "fusion_lon": 0.0, "fusion_lat": 0.0, "lon": -77.03224983333334, "name": "d47d617f0db1235c9d611639dc4f30cf"}, {"bike_id": "9010fa2e8f6815210e4cb3d86a17f473", "type": "electric_scooter", "is_disabled": 0, "lat": 38.873854333333334, "rental_uris": {"ios": "https://dc.lft.to/lastmile_qr_scan", "android": "https://dc.lft.to/lastmile_qr_scan"}, "is_reserved": 0, "fusion_lon": 0.0, "fusion_lat": 0.0, "lon": -77.04350483333333, "name": "9010fa2e8f6815210e4cb3d86a17f473"}, {"bike_id": "cf280cab4145fe2fe707c905bfa1ed34", "type": "electric_scooter", "is_disabled": 0, "lat": 38.9210295, "rental_uris": {"ios": "https://dc.lft.to/lastmile_qr_scan", "android": "https://dc.lft.to/lastmile_qr_scan"}, "is_reserved": 0, "fusion_lon": 0.0, "fusion_lat": 0.0, "lon": -77.042063, "name": "cf280cab4145fe2fe707c905bfa1ed34"}, {"bike_id": "dcc5cac3e5186d308f2f898eec6ada61", "type": "electric_scooter", "is_disabled": 0, "lat": 38.87818166666667, "rental_uris": {"ios": "https://dc.lft.to/lastmile_qr_scan", "android": "https://dc.lft.to/lastmile_qr_scan"}, "is_reserved": 0, "fusion_lon": 0.0, "fusion_lat": 0.0, "lon": -77.02247016666666, "name": "dcc5cac3e5186d308f2f898eec6ada61"}, {"bike_id": "80faa4eddf96c3a169aaa19b1947d1c9", "type": "electric_scooter", "is_disabled": 0, "lat": 38.93664483333333, "rental_uris": {"ios": "https://dc.lft.to/lastmile_qr_scan", "android": "https://dc.lft.to/lastmile_qr_scan"}, "is_reserved": 0, "fusion_lon": 0.0, "fusion_lat": 0.0, "lon": -77.02444683333333, "name": "80faa4eddf96c3a169aaa19b1947d1c9"}, {"bike_id": "c70c77cadbc1a7e59271f9c34470a131", "type": "electric_scooter", "is_disabled": 0, "lat": 38.9007865, "rental_uris": {"ios": "https://dc.lft.to/lastmile_qr_scan", "android": "https://dc.lft.to/lastmile_qr_scan"}, "is_reserved": 0, "fusion_lon": 0.0, "fusion_lat": 0.0, "lon": -76.98336416666666, "name": "c70c77cadbc1a7e59271f9c34470a131"}, {"bike_id": "11c456809f14cc316514e3f69991f29c", "type": "electric_scooter", "is_disabled": 0, "lat": 38.901400333333335, "rental_uris": {"ios": "https://dc.lft.to/lastmile_qr_scan", "android": "https://dc.lft.to/lastmile_qr_scan"}, "is_reserved": 0, "fusion_lon": 0.0, "fusion_lat": 0.0, "lon": -77.06075233333334, "name": "11c456809f14cc316514e3f69991f29c"}, {"bike_id": "e725d4ff929cbba98c7f931616d0d182", "type": "electric_scooter", "is_disabled": 0, "lat": 38.89219766666667, "rental_uris": {"ios": "https://dc.lft.to/lastmile_qr_scan", "android": "https://dc.lft.to/lastmile_qr_scan"}, "is_reserved": 0, "fusion_lon": 0.0, "fusion_lat": 0.0, "lon": -77.045168, "name": "e725d4ff929cbba98c7f931616d0d182"}, {"bike_id": "74ebd521ed33ec95042c919cf560dcba", "type": "electric_bike", "is_disabled": 0, "lat": 38.83424683333333, "rental_uris": {"ios": "https://dc.lft.to/lastmile_qr_scan", "android": "https://dc.lft.to/lastmile_qr_scan"}, "is_reserved": 0, "fusion_lon": 0.0, "fusion_lat": 0.0, "lon": -77.058821, "name": "74ebd521ed33ec95042c919cf560dcba"}, {"bike_id": "a9f7bd67ef4e9aafa6d9d64dcb753c2b", "type": "electric_scooter", "is_disabled": 0, "lat": 38.92242816666667, "rental_uris": {"ios": "https://dc.lft.to/lastmile_qr_scan", "android": "https://dc.lft.to/lastmile_qr_scan"}, "is_reserved": 0, "fusion_lon": 0.0, "fusion_lat": 0.0, "lon": -77.04248083333333, "name": "a9f7bd67ef4e9aafa6d9d64dcb753c2b"}, {"bike_id": "abd844fb7d84e54469a68aca46d8a133", "type": "electric_scooter", "is_disabled": 0, "lat": 38.893374666666666, "rental_uris": {"ios": "https://dc.lft.to/lastmile_qr_scan", "android": "https://dc.lft.to/lastmile_qr_scan"}, "is_reserved": 0, "fusion_lon": 0.0, "fusion_lat": 0.0, "lon": -76.95059, "name": "abd844fb7d84e54469a68aca46d8a133"}, {"bike_id": "6c7ea0f82bd5d207cd68aecd18f1a992", "type": "electric_scooter", "is_disabled": 0, "lat": 38.890313, "rental_uris": {"ios": "https://dc.lft.to/lastmile_qr_scan", "android": "https://dc.lft.to/lastmile_qr_scan"}, "is_reserved": 0, "fusion_lon": 0.0, "fusion_lat": 0.0, "lon": -77.0297685, "name": "6c7ea0f82bd5d207cd68aecd18f1a992"}, {"bike_id": "65086f6d07b3e7c79421f23246050c8c", "type": "electric_scooter", "is_disabled": 0, "lat": 38.92794216666667, "rental_uris": {"ios": "https://dc.lft.to/lastmile_qr_scan", "android": "https://dc.lft.to/lastmile_qr_scan"}, "is_reserved": 0, "fusion_lon": 0.0, "fusion_lat": 0.0, "lon": -77.05364616666667, "name": "65086f6d07b3e7c79421f23246050c8c"}, {"bike_id": "4b83a73f002b354ab2a1da7ce339a062", "type": "electric_scooter", "is_disabled": 0, "lat": 38.8624545, "rental_uris": {"ios": "https://dc.lft.to/lastmile_qr_scan", "android": "https://dc.lft.to/lastmile_qr_scan"}, "is_reserved": 0, "fusion_lon": 0.0, "fusion_lat": 0.0, "lon": -76.9950625, "name": "4b83a73f002b354ab2a1da7ce339a062"}, {"bike_id": "bc14ca14e64d29f894a0d6a6e4ba4fc7", "type": "electric_scooter", "is_disabled": 0, "lat": 38.86192966666667, "rental_uris": {"ios": "https://dc.lft.to/lastmile_qr_scan", "android": "https://dc.lft.to/lastmile_qr_scan"}, "is_reserved": 0, "fusion_lon": 0.0, "fusion_lat": 0.0, "lon": -76.95953766666666, "name": "bc14ca14e64d29f894a0d6a6e4ba4fc7"}, {"bike_id": "db7732e5fba08eca74fe0d3052ee539a", "type": "electric_scooter", "is_disabled": 0, "lat": 38.968466, "rental_uris": {"ios": "https://dc.lft.to/lastmile_qr_scan", "android": "https://dc.lft.to/lastmile_qr_scan"}, "is_reserved": 0, "fusion_lon": 0.0, "fusion_lat": 0.0, "lon": -77.0272945, "name": "db7732e5fba08eca74fe0d3052ee539a"}, {"bike_id": "850396ad724f25bd2894008177a15932", "type": "electric_bike", "is_disabled": 0, "lat": 38.995240833333334, "rental_uris": {"ios": "https://dc.lft.to/lastmile_qr_scan", "android": "https://dc.lft.to/lastmile_qr_scan"}, "is_reserved": 0, "fusion_lon": 0.0, "fusion_lat": 0.0, "lon": -77.069534, "name": "850396ad724f25bd2894008177a15932"}, {"bike_id": "fe036cc2d78ca24dcca69a0c56222fb7", "type": "electric_scooter", "is_disabled": 0, "lat": 38.913413, "rental_uris": {"ios": "https://dc.lft.to/lastmile_qr_scan", "android": "https://dc.lft.to/lastmile_qr_scan"}, "is_reserved": 0, "fusion_lon": 0.0, "fusion_lat": 0.0, "lon": -77.0711045, "name": "fe036cc2d78ca24dcca69a0c56222fb7"}, {"bike_id": "f7b31ee5be061c79ec7e1450c7be2391", "type": "electric_scooter", "is_disabled": 0, "lat": 38.8764485, "rental_uris": {"ios": "https://dc.lft.to/lastmile_qr_scan", "android": "https://dc.lft.to/lastmile_qr_scan"}, "is_reserved": 0, "fusion_lon": 0.0, "fusion_lat": 0.0, "lon": -76.96507616666666, "name": "f7b31ee5be061c79ec7e1450c7be2391"}, {"bike_id": "4caece020b57da540738742d21e9a18f", "type": "electric_scooter", "is_disabled": 0, "lat": 38.927325333333336, "rental_uris": {"ios": "https://dc.lft.to/lastmile_qr_scan", "android": "https://dc.lft.to/lastmile_qr_scan"}, "is_reserved": 0, "fusion_lon": 0.0, "fusion_lat": 0.0, "lon": -77.03352916666667, "name": "4caece020b57da540738742d21e9a18f"}, {"bike_id": "48a80154fd32cc028a88470692002e80", "type": "electric_bike", "is_disabled": 0, "lat": 38.99436333333333, "rental_uris": {"ios": "https://dc.lft.to/lastmile_qr_scan", "android": "https://dc.lft.to/lastmile_qr_scan"}, "is_reserved": 0, "fusion_lon": 0.0, "fusion_lat": 0.0, "lon": -77.02879666666666, "name": "48a80154fd32cc028a88470692002e80"}, {"bike_id": "e54b2c2dce2ec2bda48e1d5aeb417f69", "type": "electric_scooter", "is_disabled": 0, "lat": 38.9767445, "rental_uris": {"ios": "https://dc.lft.to/lastmile_qr_scan", "android": "https://dc.lft.to/lastmile_qr_scan"}, "is_reserved": 0, "fusion_lon": 0.0, "fusion_lat": 0.0, "lon": -77.016631, "name": "e54b2c2dce2ec2bda48e1d5aeb417f69"}, {"bike_id": "912c0481d152f9343c5fe9752cac7cca", "type": "electric_scooter", "is_disabled": 0, "lat": 38.924425666666664, "rental_uris": {"ios": "https://dc.lft.to/lastmile_qr_scan", "android": "https://dc.lft.to/lastmile_qr_scan"}, "is_reserved": 0, "fusion_lon": 0.0, "fusion_lat": 0.0, "lon": -77.03343933333333, "name": "912c0481d152f9343c5fe9752cac7cca"}, {"bike_id": "cf9471d49f7c30956f1293f7a0be96bc", "type": "electric_scooter", "is_disabled": 0, "lat": 38.88129333333333, "rental_uris": {"ios": "https://dc.lft.to/lastmile_qr_scan", "android": "https://dc.lft.to/lastmile_qr_scan"}, "is_reserved": 0, "fusion_lon": 0.0, "fusion_lat": 0.0, "lon": -77.000799, "name": "cf9471d49f7c30956f1293f7a0be96bc"}, {"bike_id": "7397caa340c4ff72cb26b18b3b1a5ccb", "type": "electric_scooter", "is_disabled": 0, "lat": 38.90384533333334, "rental_uris": {"ios": "https://dc.lft.to/lastmile_qr_scan", "android": "https://dc.lft.to/lastmile_qr_scan"}, "is_reserved": 0, "fusion_lon": 0.0, "fusion_lat": 0.0, "lon": -77.02487083333334, "name": "7397caa340c4ff72cb26b18b3b1a5ccb"}, {"bike_id": "0b89bd714ae184617b5a97795f9f80d0", "type": "electric_scooter", "is_disabled": 0, "lat": 38.887289333333335, "rental_uris": {"ios": "https://dc.lft.to/lastmile_qr_scan", "android": "https://dc.lft.to/lastmile_qr_scan"}, "is_reserved": 0, "fusion_lon": 0.0, "fusion_lat": 0.0, "lon": -77.03188466666667, "name": "0b89bd714ae184617b5a97795f9f80d0"}, {"bike_id": "f5977b7395574b14e037ff2ab3e8504e", "type": "electric_scooter", "is_disabled": 0, "lat": 38.923313666666665, "rental_uris": {"ios": "https://dc.lft.to/lastmile_qr_scan", "android": "https://dc.lft.to/lastmile_qr_scan"}, "is_reserved": 0, "fusion_lon": 0.0, "fusion_lat": 0.0, "lon": -77.054248, "name": "f5977b7395574b14e037ff2ab3e8504e"}, {"bike_id": "cb66684ab35e282ddff9b29cc0bffbfe", "type": "electric_scooter", "is_disabled": 0, "lat": 38.89841716666667, "rental_uris": {"ios": "https://dc.lft.to/lastmile_qr_scan", "android": "https://dc.lft.to/lastmile_qr_scan"}, "is_reserved": 0, "fusion_lon": 0.0, "fusion_lat": 0.0, "lon": -76.946355, "name": "cb66684ab35e282ddff9b29cc0bffbfe"}, {"bike_id": "bf32b8bd47c6782d03d82091da6e658a", "type": "electric_bike", "is_disabled": 0, "lat": 38.81508266666667, "rental_uris": {"ios": "https://dc.lft.to/lastmile_qr_scan", "android": "https://dc.lft.to/lastmile_qr_scan"}, "is_reserved": 0, "fusion_lon": 0.0, "fusion_lat": 0.0, "lon": -77.126596, "name": "bf32b8bd47c6782d03d82091da6e658a"}, {"bike_id": "a3d929bfee9b326f2a363c4491ca32f6", "type": "electric_bike", "is_disabled": 0, "lat": 38.79599016666667, "rental_uris": {"ios": "https://dc.lft.to/lastmile_qr_scan", "android": "https://dc.lft.to/lastmile_qr_scan"}, "is_reserved": 0, "fusion_lon": 0.0, "fusion_lat": 0.0, "lon": -76.99744883333334, "name": "a3d929bfee9b326f2a363c4491ca32f6"}, {"bike_id": "c10cf151cc7f4470762bdd27a7459d90", "type": "electric_scooter", "is_disabled": 0, "lat": 38.90674816666667, "rental_uris": {"ios": "https://dc.lft.to/lastmile_qr_scan", "android": "https://dc.lft.to/lastmile_qr_scan"}, "is_reserved": 0, "fusion_lon": 0.0, "fusion_lat": 0.0, "lon": -77.027025, "name": "c10cf151cc7f4470762bdd27a7459d90"}, {"bike_id": "66ecb4c5b493c6ccd9c307666bf119e7", "type": "electric_scooter", "is_disabled": 0, "lat": 38.9047075, "rental_uris": {"ios": "https://dc.lft.to/lastmile_qr_scan", "android": "https://dc.lft.to/lastmile_qr_scan"}, "is_reserved": 0, "fusion_lon": 0.0, "fusion_lat": 0.0, "lon": -77.061127, "name": "66ecb4c5b493c6ccd9c307666bf119e7"}, {"bike_id": "87e83e5c39ef1059ea80f7e73d821985", "type": "electric_scooter", "is_disabled": 0, "lat": 38.91770283333334, "rental_uris": {"ios": "https://dc.lft.to/lastmile_qr_scan", "android": "https://dc.lft.to/lastmile_qr_scan"}, "is_reserved": 0, "fusion_lon": 0.0, "fusion_lat": 0.0, "lon": -77.04057666666667, "name": "87e83e5c39ef1059ea80f7e73d821985"}, {"bike_id": "d3a8ab54a1e16d060dab18af996c0422", "type": "electric_scooter", "is_disabled": 0, "lat": 38.907191833333336, "rental_uris": {"ios": "https://dc.lft.to/lastmile_qr_scan", "android": "https://dc.lft.to/lastmile_qr_scan"}, "is_reserved": 0, "fusion_lon": 0.0, "fusion_lat": 0.0, "lon": -77.02255, "name": "d3a8ab54a1e16d060dab18af996c0422"}, {"bike_id": "68a6af85e690d9c3a19327c1525d6fd9", "type": "electric_scooter", "is_disabled": 0, "lat": 38.915507166666664, "rental_uris": {"ios": "https://dc.lft.to/lastmile_qr_scan", "android": "https://dc.lft.to/lastmile_qr_scan"}, "is_reserved": 0, "fusion_lon": 0.0, "fusion_lat": 0.0, "lon": -77.03176566666667, "name": "68a6af85e690d9c3a19327c1525d6fd9"}, {"bike_id": "db83d70f04f9a9f2b32ebf159b05e14a", "type": "electric_scooter", "is_disabled": 0, "lat": 38.908423, "rental_uris": {"ios": "https://dc.lft.to/lastmile_qr_scan", "android": "https://dc.lft.to/lastmile_qr_scan"}, "is_reserved": 0, "fusion_lon": 0.0, "fusion_lat": 0.0, "lon": -77.02428283333333, "name": "db83d70f04f9a9f2b32ebf159b05e14a"}, {"bike_id": "47f836fde595b2e0b712ec80faebfc87", "type": "electric_scooter", "is_disabled": 0, "lat": 38.90708766666667, "rental_uris": {"ios": "https://dc.lft.to/lastmile_qr_scan", "android": "https://dc.lft.to/lastmile_qr_scan"}, "is_reserved": 0, "fusion_lon": 0.0, "fusion_lat": 0.0, "lon": -77.0239825, "name": "47f836fde595b2e0b712ec80faebfc87"}, {"bike_id": "50dc83b154d992141747acedb9216733", "type": "electric_scooter", "is_disabled": 0, "lat": 38.84312333333333, "rental_uris": {"ios": "https://dc.lft.to/lastmile_qr_scan", "android": "https://dc.lft.to/lastmile_qr_scan"}, "is_reserved": 0, "fusion_lon": 0.0, "fusion_lat": 0.0, "lon": -76.99927583333333, "name": "50dc83b154d992141747acedb9216733"}, {"bike_id": "c99b9e192040c726f21aa7913ec9e8cf", "type": "electric_scooter", "is_disabled": 0, "lat": 38.90513833333333, "rental_uris": {"ios": "https://dc.lft.to/lastmile_qr_scan", "android": "https://dc.lft.to/lastmile_qr_scan"}, "is_reserved": 0, "fusion_lon": 0.0, "fusion_lat": 0.0, "lon": -77.06780466666666, "name": "c99b9e192040c726f21aa7913ec9e8cf"}, {"bike_id": "8eac6bc2507ab0a8069f1ed7f3746327", "type": "electric_scooter", "is_disabled": 0, "lat": 38.908209666666664, "rental_uris": {"ios": "https://dc.lft.to/lastmile_qr_scan", "android": "https://dc.lft.to/lastmile_qr_scan"}, "is_reserved": 0, "fusion_lon": 0.0, "fusion_lat": 0.0, "lon": -77.03184383333334, "name": "8eac6bc2507ab0a8069f1ed7f3746327"}, {"bike_id": "58896e0412840f55b4970d918e65fbdd", "type": "electric_scooter", "is_disabled": 0, "lat": 38.89535733333334, "rental_uris": {"ios": "https://dc.lft.to/lastmile_qr_scan", "android": "https://dc.lft.to/lastmile_qr_scan"}, "is_reserved": 0, "fusion_lon": 0.0, "fusion_lat": 0.0, "lon": -76.9886055, "name": "58896e0412840f55b4970d918e65fbdd"}, {"bike_id": "7adc7c182faea29d5bec44c264a770f8", "type": "electric_scooter", "is_disabled": 0, "lat": 38.84536383333333, "rental_uris": {"ios": "https://dc.lft.to/lastmile_qr_scan", "android": "https://dc.lft.to/lastmile_qr_scan"}, "is_reserved": 0, "fusion_lon": 0.0, "fusion_lat": 0.0, "lon": -76.98548616666666, "name": "7adc7c182faea29d5bec44c264a770f8"}, {"bike_id": "108ecb4a2cfb9683ed0f3f9e79f33e21", "type": "electric_scooter", "is_disabled": 0, "lat": 38.91854133333333, "rental_uris": {"ios": "https://dc.lft.to/lastmile_qr_scan", "android": "https://dc.lft.to/lastmile_qr_scan"}, "is_reserved": 0, "fusion_lon": 0.0, "fusion_lat": 0.0, "lon": -77.04167216666667, "name": "108ecb4a2cfb9683ed0f3f9e79f33e21"}, {"bike_id": "ae4f3251d7c4a1e87a4f61d08c9067bc", "type": "electric_scooter", "is_disabled": 0, "lat": 38.92270116666667, "rental_uris": {"ios": "https://dc.lft.to/lastmile_qr_scan", "android": "https://dc.lft.to/lastmile_qr_scan"}, "is_reserved": 0, "fusion_lon": 0.0, "fusion_lat": 0.0, "lon": -77.042435, "name": "ae4f3251d7c4a1e87a4f61d08c9067bc"}, {"bike_id": "7214cbbb3964cdec1cf3c843bfadc630", "type": "electric_scooter", "is_disabled": 0, "lat": 38.918297, "rental_uris": {"ios": "https://dc.lft.to/lastmile_qr_scan", "android": "https://dc.lft.to/lastmile_qr_scan"}, "is_reserved": 0, "fusion_lon": 0.0, "fusion_lat": 0.0, "lon": -77.03179966666667, "name": "7214cbbb3964cdec1cf3c843bfadc630"}, {"bike_id": "00ab46c6447fe1a7ff163ef48998b826", "type": "electric_scooter", "is_disabled": 0, "lat": 38.92315133333334, "rental_uris": {"ios": "https://dc.lft.to/lastmile_qr_scan", "android": "https://dc.lft.to/lastmile_qr_scan"}, "is_reserved": 0, "fusion_lon": 0.0, "fusion_lat": 0.0, "lon": -77.04642716666666, "name": "00ab46c6447fe1a7ff163ef48998b826"}, {"bike_id": "bdd74eeab71d341d0724402d1b893f66", "type": "electric_bike", "is_disabled": 0, "lat": 38.948028, "rental_uris": {"ios": "https://dc.lft.to/lastmile_qr_scan", "android": "https://dc.lft.to/lastmile_qr_scan"}, "is_reserved": 0, "fusion_lon": 0.0, "fusion_lat": 0.0, "lon": -76.95545883333334, "name": "bdd74eeab71d341d0724402d1b893f66"}, {"bike_id": "cb75cfd4920ef981d3ce7d4f78fb0f21", "type": "electric_scooter", "is_disabled": 0, "lat": 38.91821983333333, "rental_uris": {"ios": "https://dc.lft.to/lastmile_qr_scan", "android": "https://dc.lft.to/lastmile_qr_scan"}, "is_reserved": 0, "fusion_lon": 0.0, "fusion_lat": 0.0, "lon": -77.03461016666667, "name": "cb75cfd4920ef981d3ce7d4f78fb0f21"}, {"bike_id": "8cc665b96ed07aea6e647aba6388ab4e", "type": "electric_scooter", "is_disabled": 0, "lat": 38.956420333333334, "rental_uris": {"ios": "https://dc.lft.to/lastmile_qr_scan", "android": "https://dc.lft.to/lastmile_qr_scan"}, "is_reserved": 0, "fusion_lon": 0.0, "fusion_lat": 0.0, "lon": -77.02399016666666, "name": "8cc665b96ed07aea6e647aba6388ab4e"}, {"bike_id": "c8c7975d4003adc02098e97ad1c1a81f", "type": "electric_scooter", "is_disabled": 0, "lat": 38.923285666666665, "rental_uris": {"ios": "https://dc.lft.to/lastmile_qr_scan", "android": "https://dc.lft.to/lastmile_qr_scan"}, "is_reserved": 0, "fusion_lon": 0.0, "fusion_lat": 0.0, "lon": -77.04315166666666, "name": "c8c7975d4003adc02098e97ad1c1a81f"}, {"bike_id": "5fc30cacc2aa8a9b678cf69e2e94af3f", "type": "electric_scooter", "is_disabled": 0, "lat": 38.91656566666666, "rental_uris": {"ios": "https://dc.lft.to/lastmile_qr_scan", "android": "https://dc.lft.to/lastmile_qr_scan"}, "is_reserved": 0, "fusion_lon": 0.0, "fusion_lat": 0.0, "lon": -77.03201666666666, "name": "5fc30cacc2aa8a9b678cf69e2e94af3f"}, {"bike_id": "0aa676d3f77237d0d2a27e441faea40b", "type": "electric_scooter", "is_disabled": 0, "lat": 38.89879483333333, "rental_uris": {"ios": "https://dc.lft.to/lastmile_qr_scan", "android": "https://dc.lft.to/lastmile_qr_scan"}, "is_reserved": 0, "fusion_lon": 0.0, "fusion_lat": 0.0, "lon": -76.97689166666666, "name": "0aa676d3f77237d0d2a27e441faea40b"}, {"bike_id": "428756e5bd553223f68b85ec1a74253b", "type": "electric_scooter", "is_disabled": 0, "lat": 38.92195683333333, "rental_uris": {"ios": "https://dc.lft.to/lastmile_qr_scan", "android": "https://dc.lft.to/lastmile_qr_scan"}, "is_reserved": 0, "fusion_lon": 0.0, "fusion_lat": 0.0, "lon": -77.02034183333333, "name": "428756e5bd553223f68b85ec1a74253b"}, {"bike_id": "e87ec8741d226d9b3c3f9bc818cf7d47", "type": "electric_scooter", "is_disabled": 0, "lat": 38.900324833333336, "rental_uris": {"ios": "https://dc.lft.to/lastmile_qr_scan", "android": "https://dc.lft.to/lastmile_qr_scan"}, "is_reserved": 0, "fusion_lon": 0.0, "fusion_lat": 0.0, "lon": -77.03351266666667, "name": "e87ec8741d226d9b3c3f9bc818cf7d47"}, {"bike_id": "5cb4096466446718aefd63bdafc0f280", "type": "electric_bike", "is_disabled": 0, "lat": 38.81934666666667, "rental_uris": {"ios": "https://dc.lft.to/lastmile_qr_scan", "android": "https://dc.lft.to/lastmile_qr_scan"}, "is_reserved": 0, "fusion_lon": 0.0, "fusion_lat": 0.0, "lon": -77.00204633333334, "name": "5cb4096466446718aefd63bdafc0f280"}, {"bike_id": "62b6b30bda916c2827f08efd256ecfcc", "type": "electric_scooter", "is_disabled": 0, "lat": 38.914572166666666, "rental_uris": {"ios": "https://dc.lft.to/lastmile_qr_scan", "android": "https://dc.lft.to/lastmile_qr_scan"}, "is_reserved": 0, "fusion_lon": 0.0, "fusion_lat": 0.0, "lon": -77.071079, "name": "62b6b30bda916c2827f08efd256ecfcc"}, {"bike_id": "dc7460b59f730d785e3f7ed70dcbb083", "type": "electric_bike", "is_disabled": 0, "lat": 38.919292, "rental_uris": {"ios": "https://dc.lft.to/lastmile_qr_scan", "android": "https://dc.lft.to/lastmile_qr_scan"}, "is_reserved": 0, "fusion_lon": 0.0, "fusion_lat": 0.0, "lon": -77.01475033333334, "name": "dc7460b59f730d785e3f7ed70dcbb083"}, {"bike_id": "7375c65db809816faed5f1d591bc12af", "type": "electric_scooter", "is_disabled": 0, "lat": 38.89740166666667, "rental_uris": {"ios": "https://dc.lft.to/lastmile_qr_scan", "android": "https://dc.lft.to/lastmile_qr_scan"}, "is_reserved": 0, "fusion_lon": 0.0, "fusion_lat": 0.0, "lon": -77.027866, "name": "7375c65db809816faed5f1d591bc12af"}, {"bike_id": "63bb82bdb332b04bc1986cc3d9dd3fcf", "type": "electric_scooter", "is_disabled": 0, "lat": 38.919085833333334, "rental_uris": {"ios": "https://dc.lft.to/lastmile_qr_scan", "android": "https://dc.lft.to/lastmile_qr_scan"}, "is_reserved": 0, "fusion_lon": 0.0, "fusion_lat": 0.0, "lon": -77.04476883333334, "name": "63bb82bdb332b04bc1986cc3d9dd3fcf"}, {"bike_id": "06992c0074685eb77240fde285b838d0", "type": "electric_scooter", "is_disabled": 0, "lat": 38.90163533333333, "rental_uris": {"ios": "https://dc.lft.to/lastmile_qr_scan", "android": "https://dc.lft.to/lastmile_qr_scan"}, "is_reserved": 0, "fusion_lon": 0.0, "fusion_lat": 0.0, "lon": -77.0529385, "name": "06992c0074685eb77240fde285b838d0"}, {"bike_id": "ad378c70d6035b2a6f53b9eab6a16672", "type": "electric_scooter", "is_disabled": 0, "lat": 38.919162666666665, "rental_uris": {"ios": "https://dc.lft.to/lastmile_qr_scan", "android": "https://dc.lft.to/lastmile_qr_scan"}, "is_reserved": 0, "fusion_lon": 0.0, "fusion_lat": 0.0, "lon": -77.0026055, "name": "ad378c70d6035b2a6f53b9eab6a16672"}, {"bike_id": "355ce069897d2d41b9157e798fa1b782", "type": "electric_scooter", "is_disabled": 0, "lat": 38.9027015, "rental_uris": {"ios": "https://dc.lft.to/lastmile_qr_scan", "android": "https://dc.lft.to/lastmile_qr_scan"}, "is_reserved": 0, "fusion_lon": 0.0, "fusion_lat": 0.0, "lon": -77.036535, "name": "355ce069897d2d41b9157e798fa1b782"}, {"bike_id": "4212ea000684f38f27aaf22e1ed6d6af", "type": "electric_scooter", "is_disabled": 0, "lat": 38.9321695, "rental_uris": {"ios": "https://dc.lft.to/lastmile_qr_scan", "android": "https://dc.lft.to/lastmile_qr_scan"}, "is_reserved": 0, "fusion_lon": 0.0, "fusion_lat": 0.0, "lon": -77.03650166666667, "name": "4212ea000684f38f27aaf22e1ed6d6af"}, {"bike_id": "7e427428837ec4bef3ae83a69a71be92", "type": "electric_scooter", "is_disabled": 0, "lat": 38.911275833333335, "rental_uris": {"ios": "https://dc.lft.to/lastmile_qr_scan", "android": "https://dc.lft.to/lastmile_qr_scan"}, "is_reserved": 0, "fusion_lon": 0.0, "fusion_lat": 0.0, "lon": -77.02193533333333, "name": "7e427428837ec4bef3ae83a69a71be92"}, {"bike_id": "9c64f460bbbbb8db2b3e118d624fccb9", "type": "electric_scooter", "is_disabled": 0, "lat": 38.914283833333336, "rental_uris": {"ios": "https://dc.lft.to/lastmile_qr_scan", "android": "https://dc.lft.to/lastmile_qr_scan"}, "is_reserved": 0, "fusion_lon": 0.0, "fusion_lat": 0.0, "lon": -77.03252016666667, "name": "9c64f460bbbbb8db2b3e118d624fccb9"}, {"bike_id": "5cfbec0c210bead424788af7251cd409", "type": "electric_scooter", "is_disabled": 0, "lat": 38.921909666666664, "rental_uris": {"ios": "https://dc.lft.to/lastmile_qr_scan", "android": "https://dc.lft.to/lastmile_qr_scan"}, "is_reserved": 0, "fusion_lon": 0.0, "fusion_lat": 0.0, "lon": -77.02079516666667, "name": "5cfbec0c210bead424788af7251cd409"}, {"bike_id": "637f1d4c75f74771725ad70f25a39bf5", "type": "electric_scooter", "is_disabled": 0, "lat": 38.9245405, "rental_uris": {"ios": "https://dc.lft.to/lastmile_qr_scan", "android": "https://dc.lft.to/lastmile_qr_scan"}, "is_reserved": 0, "fusion_lon": 0.0, "fusion_lat": 0.0, "lon": -77.05205116666667, "name": "637f1d4c75f74771725ad70f25a39bf5"}, {"bike_id": "feec88187ae77718c178aeddc5d9f04b", "type": "electric_scooter", "is_disabled": 0, "lat": 38.885003, "rental_uris": {"ios": "https://dc.lft.to/lastmile_qr_scan", "android": "https://dc.lft.to/lastmile_qr_scan"}, "is_reserved": 0, "fusion_lon": 0.0, "fusion_lat": 0.0, "lon": -77.0255035, "name": "feec88187ae77718c178aeddc5d9f04b"}, {"bike_id": "f76cfc2ccf443b10171c6f59d660319f", "type": "electric_bike", "is_disabled": 0, "lat": 38.956977333333334, "rental_uris": {"ios": "https://dc.lft.to/lastmile_qr_scan", "android": "https://dc.lft.to/lastmile_qr_scan"}, "is_reserved": 0, "fusion_lon": 0.0, "fusion_lat": 0.0, "lon": -77.0333985, "name": "f76cfc2ccf443b10171c6f59d660319f"}, {"bike_id": "0fcb30eb0d8535ce860bc41c643a0f1d", "type": "electric_scooter", "is_disabled": 0, "lat": 38.927527166666664, "rental_uris": {"ios": "https://dc.lft.to/lastmile_qr_scan", "android": "https://dc.lft.to/lastmile_qr_scan"}, "is_reserved": 0, "fusion_lon": 0.0, "fusion_lat": 0.0, "lon": -77.02394516666666, "name": "0fcb30eb0d8535ce860bc41c643a0f1d"}, {"bike_id": "2d6385b641bb0d881bd7083e9a7ba2aa", "type": "electric_scooter", "is_disabled": 0, "lat": 38.90382433333333, "rental_uris": {"ios": "https://dc.lft.to/lastmile_qr_scan", "android": "https://dc.lft.to/lastmile_qr_scan"}, "is_reserved": 0, "fusion_lon": 0.0, "fusion_lat": 0.0, "lon": -77.00882133333333, "name": "2d6385b641bb0d881bd7083e9a7ba2aa"}, {"bike_id": "07fa2109f0ffe24d43b636d616e09ace", "type": "electric_scooter", "is_disabled": 0, "lat": 38.9093295, "rental_uris": {"ios": "https://dc.lft.to/lastmile_qr_scan", "android": "https://dc.lft.to/lastmile_qr_scan"}, "is_reserved": 0, "fusion_lon": 0.0, "fusion_lat": 0.0, "lon": -77.049454, "name": "07fa2109f0ffe24d43b636d616e09ace"}, {"bike_id": "2d9064748007e05a477ae5f319f12be8", "type": "electric_scooter", "is_disabled": 0, "lat": 38.923148166666664, "rental_uris": {"ios": "https://dc.lft.to/lastmile_qr_scan", "android": "https://dc.lft.to/lastmile_qr_scan"}, "is_reserved": 0, "fusion_lon": 0.0, "fusion_lat": 0.0, "lon": -77.04019383333333, "name": "2d9064748007e05a477ae5f319f12be8"}, {"bike_id": "fb4d804835c0266db1ecd123c6ebd185", "type": "electric_scooter", "is_disabled": 0, "lat": 38.91813483333333, "rental_uris": {"ios": "https://dc.lft.to/lastmile_qr_scan", "android": "https://dc.lft.to/lastmile_qr_scan"}, "is_reserved": 0, "fusion_lon": 0.0, "fusion_lat": 0.0, "lon": -77.02481033333333, "name": "fb4d804835c0266db1ecd123c6ebd185"}, {"bike_id": "5bd4753f090d9d9c28d38f769177a47d", "type": "electric_scooter", "is_disabled": 0, "lat": 38.9267325, "rental_uris": {"ios": "https://dc.lft.to/lastmile_qr_scan", "android": "https://dc.lft.to/lastmile_qr_scan"}, "is_reserved": 0, "fusion_lon": 0.0, "fusion_lat": 0.0, "lon": -77.0356725, "name": "5bd4753f090d9d9c28d38f769177a47d"}, {"bike_id": "200776cc38e72d75c2d62a1f64a97f2b", "type": "electric_scooter", "is_disabled": 0, "lat": 38.88370883333333, "rental_uris": {"ios": "https://dc.lft.to/lastmile_qr_scan", "android": "https://dc.lft.to/lastmile_qr_scan"}, "is_reserved": 0, "fusion_lon": 0.0, "fusion_lat": 0.0, "lon": -77.017746, "name": "200776cc38e72d75c2d62a1f64a97f2b"}, {"bike_id": "84491c3f60394fb59b6e95ebdfaf6068", "type": "electric_bike", "is_disabled": 0, "lat": 38.90462516666667, "rental_uris": {"ios": "https://dc.lft.to/lastmile_qr_scan", "android": "https://dc.lft.to/lastmile_qr_scan"}, "is_reserved": 0, "fusion_lon": 0.0, "fusion_lat": 0.0, "lon": -77.06762816666667, "name": "84491c3f60394fb59b6e95ebdfaf6068"}, {"bike_id": "3c1913f1db18c13eb2a611c2abf2d0d9", "type": "electric_scooter", "is_disabled": 0, "lat": 38.916962, "rental_uris": {"ios": "https://dc.lft.to/lastmile_qr_scan", "android": "https://dc.lft.to/lastmile_qr_scan"}, "is_reserved": 0, "fusion_lon": 0.0, "fusion_lat": 0.0, "lon": -77.0957745, "name": "3c1913f1db18c13eb2a611c2abf2d0d9"}, {"bike_id": "4097a4af13761b4830da142c28e0e6b9", "type": "electric_scooter", "is_disabled": 0, "lat": 38.927695166666666, "rental_uris": {"ios": "https://dc.lft.to/lastmile_qr_scan", "android": "https://dc.lft.to/lastmile_qr_scan"}, "is_reserved": 0, "fusion_lon": 0.0, "fusion_lat": 0.0, "lon": -76.98760766666666, "name": "4097a4af13761b4830da142c28e0e6b9"}, {"bike_id": "2801face68025d173e18971a0aa5f6c1", "type": "electric_scooter", "is_disabled": 0, "lat": 38.86501233333333, "rental_uris": {"ios": "https://dc.lft.to/lastmile_qr_scan", "android": "https://dc.lft.to/lastmile_qr_scan"}, "is_reserved": 0, "fusion_lon": 0.0, "fusion_lat": 0.0, "lon": -76.9900705, "name": "2801face68025d173e18971a0aa5f6c1"}, {"bike_id": "19a450989861d7bdb9ddbef86d2c8591", "type": "electric_scooter", "is_disabled": 0, "lat": 38.89860866666667, "rental_uris": {"ios": "https://dc.lft.to/lastmile_qr_scan", "android": "https://dc.lft.to/lastmile_qr_scan"}, "is_reserved": 0, "fusion_lon": 0.0, "fusion_lat": 0.0, "lon": -77.04026816666666, "name": "19a450989861d7bdb9ddbef86d2c8591"}, {"bike_id": "b58daa9a54ba4ddb9efe57e3c60ae3d6", "type": "electric_scooter", "is_disabled": 0, "lat": 38.91948266666667, "rental_uris": {"ios": "https://dc.lft.to/lastmile_qr_scan", "android": "https://dc.lft.to/lastmile_qr_scan"}, "is_reserved": 0, "fusion_lon": 0.0, "fusion_lat": 0.0, "lon": -77.041584, "name": "b58daa9a54ba4ddb9efe57e3c60ae3d6"}, {"bike_id": "46b91078408989511f4a872e9eddf210", "type": "electric_scooter", "is_disabled": 0, "lat": 38.866824, "rental_uris": {"ios": "https://dc.lft.to/lastmile_qr_scan", "android": "https://dc.lft.to/lastmile_qr_scan"}, "is_reserved": 0, "fusion_lon": 0.0, "fusion_lat": 0.0, "lon": -76.9858045, "name": "46b91078408989511f4a872e9eddf210"}, {"bike_id": "ec7a0b461d75693e85c253cffc76cd74", "type": "electric_scooter", "is_disabled": 0, "lat": 38.95734183333333, "rental_uris": {"ios": "https://dc.lft.to/lastmile_qr_scan", "android": "https://dc.lft.to/lastmile_qr_scan"}, "is_reserved": 0, "fusion_lon": 0.0, "fusion_lat": 0.0, "lon": -77.0240515, "name": "ec7a0b461d75693e85c253cffc76cd74"}, {"bike_id": "c630d2b530b8638b583a0d83824aaa25", "type": "electric_scooter", "is_disabled": 0, "lat": 38.89833983333333, "rental_uris": {"ios": "https://dc.lft.to/lastmile_qr_scan", "android": "https://dc.lft.to/lastmile_qr_scan"}, "is_reserved": 0, "fusion_lon": 0.0, "fusion_lat": 0.0, "lon": -76.9195365, "name": "c630d2b530b8638b583a0d83824aaa25"}, {"bike_id": "c7bdcde68b1b05cc0992332cd0af4c00", "type": "electric_scooter", "is_disabled": 0, "lat": 38.923196, "rental_uris": {"ios": "https://dc.lft.to/lastmile_qr_scan", "android": "https://dc.lft.to/lastmile_qr_scan"}, "is_reserved": 0, "fusion_lon": 0.0, "fusion_lat": 0.0, "lon": -77.02136083333333, "name": "c7bdcde68b1b05cc0992332cd0af4c00"}, {"bike_id": "f98caf2a550302f25a9b79a489119e01", "type": "electric_scooter", "is_disabled": 0, "lat": 38.907798166666666, "rental_uris": {"ios": "https://dc.lft.to/lastmile_qr_scan", "android": "https://dc.lft.to/lastmile_qr_scan"}, "is_reserved": 0, "fusion_lon": 0.0, "fusion_lat": 0.0, "lon": -77.07257966666667, "name": "f98caf2a550302f25a9b79a489119e01"}, {"bike_id": "032fcc7a54660bbea37322a2b6948f9c", "type": "electric_scooter", "is_disabled": 0, "lat": 38.9429235, "rental_uris": {"ios": "https://dc.lft.to/lastmile_qr_scan", "android": "https://dc.lft.to/lastmile_qr_scan"}, "is_reserved": 0, "fusion_lon": 0.0, "fusion_lat": 0.0, "lon": -77.036287, "name": "032fcc7a54660bbea37322a2b6948f9c"}, {"bike_id": "7ff56732be11eb8e1d9f87fcc02bd763", "type": "electric_scooter", "is_disabled": 0, "lat": 38.89081766666666, "rental_uris": {"ios": "https://dc.lft.to/lastmile_qr_scan", "android": "https://dc.lft.to/lastmile_qr_scan"}, "is_reserved": 0, "fusion_lon": 0.0, "fusion_lat": 0.0, "lon": -76.9994395, "name": "7ff56732be11eb8e1d9f87fcc02bd763"}, {"bike_id": "9b25f454bc085f26cf04b81158e1098e", "type": "electric_scooter", "is_disabled": 0, "lat": 38.90108166666667, "rental_uris": {"ios": "https://dc.lft.to/lastmile_qr_scan", "android": "https://dc.lft.to/lastmile_qr_scan"}, "is_reserved": 0, "fusion_lon": 0.0, "fusion_lat": 0.0, "lon": -77.02171016666667, "name": "9b25f454bc085f26cf04b81158e1098e"}, {"bike_id": "dca1c603fdfdf359a2adec0d3c8fa7f9", "type": "electric_scooter", "is_disabled": 0, "lat": 38.91846066666667, "rental_uris": {"ios": "https://dc.lft.to/lastmile_qr_scan", "android": "https://dc.lft.to/lastmile_qr_scan"}, "is_reserved": 0, "fusion_lon": 0.0, "fusion_lat": 0.0, "lon": -76.96558416666667, "name": "dca1c603fdfdf359a2adec0d3c8fa7f9"}, {"bike_id": "13c29a6e4b71470aeb46dd778fbff6af", "type": "electric_scooter", "is_disabled": 0, "lat": 38.905227333333336, "rental_uris": {"ios": "https://dc.lft.to/lastmile_qr_scan", "android": "https://dc.lft.to/lastmile_qr_scan"}, "is_reserved": 0, "fusion_lon": 0.0, "fusion_lat": 0.0, "lon": -77.05021216666667, "name": "13c29a6e4b71470aeb46dd778fbff6af"}, {"bike_id": "71e97c3099205f05fae55fa053aa2517", "type": "electric_scooter", "is_disabled": 0, "lat": 38.9026775, "rental_uris": {"ios": "https://dc.lft.to/lastmile_qr_scan", "android": "https://dc.lft.to/lastmile_qr_scan"}, "is_reserved": 0, "fusion_lon": 0.0, "fusion_lat": 0.0, "lon": -77.03001816666666, "name": "71e97c3099205f05fae55fa053aa2517"}, {"bike_id": "73ed5115a9082dc1e9844e479f79a7be", "type": "electric_scooter", "is_disabled": 0, "lat": 38.903267666666665, "rental_uris": {"ios": "https://dc.lft.to/lastmile_qr_scan", "android": "https://dc.lft.to/lastmile_qr_scan"}, "is_reserved": 0, "fusion_lon": 0.0, "fusion_lat": 0.0, "lon": -77.01626433333334, "name": "73ed5115a9082dc1e9844e479f79a7be"}, {"bike_id": "d5df6e4e5805fc6027828d82c01d0f3a", "type": "electric_scooter", "is_disabled": 0, "lat": 38.900712666666664, "rental_uris": {"ios": "https://dc.lft.to/lastmile_qr_scan", "android": "https://dc.lft.to/lastmile_qr_scan"}, "is_reserved": 0, "fusion_lon": 0.0, "fusion_lat": 0.0, "lon": -76.99016783333333, "name": "d5df6e4e5805fc6027828d82c01d0f3a"}, {"bike_id": "43ed7bc7d4baae7736b5cec43a6be563", "type": "electric_scooter", "is_disabled": 0, "lat": 38.87112666666667, "rental_uris": {"ios": "https://dc.lft.to/lastmile_qr_scan", "android": "https://dc.lft.to/lastmile_qr_scan"}, "is_reserved": 0, "fusion_lon": 0.0, "fusion_lat": 0.0, "lon": -76.9824535, "name": "43ed7bc7d4baae7736b5cec43a6be563"}, {"bike_id": "e78f42bb173de16a6d7165f2e3bd1434", "type": "electric_scooter", "is_disabled": 0, "lat": 38.852065, "rental_uris": {"ios": "https://dc.lft.to/lastmile_qr_scan", "android": "https://dc.lft.to/lastmile_qr_scan"}, "is_reserved": 0, "fusion_lon": 0.0, "fusion_lat": 0.0, "lon": -76.9856075, "name": "e78f42bb173de16a6d7165f2e3bd1434"}, {"bike_id": "a9e3339243da58759029aa8b194125e1", "type": "electric_scooter", "is_disabled": 0, "lat": 38.902736, "rental_uris": {"ios": "https://dc.lft.to/lastmile_qr_scan", "android": "https://dc.lft.to/lastmile_qr_scan"}, "is_reserved": 0, "fusion_lon": 0.0, "fusion_lat": 0.0, "lon": -77.048515, "name": "a9e3339243da58759029aa8b194125e1"}, {"bike_id": "c04694dbba878a61a813824d8e5be449", "type": "electric_bike", "is_disabled": 0, "lat": 38.819969666666665, "rental_uris": {"ios": "https://dc.lft.to/lastmile_qr_scan", "android": "https://dc.lft.to/lastmile_qr_scan"}, "is_reserved": 0, "fusion_lon": 0.0, "fusion_lat": 0.0, "lon": -76.99820233333334, "name": "c04694dbba878a61a813824d8e5be449"}, {"bike_id": "1a0cbd37fac1974fc1cb84ada7444df6", "type": "electric_scooter", "is_disabled": 0, "lat": 38.91656916666667, "rental_uris": {"ios": "https://dc.lft.to/lastmile_qr_scan", "android": "https://dc.lft.to/lastmile_qr_scan"}, "is_reserved": 0, "fusion_lon": 0.0, "fusion_lat": 0.0, "lon": -77.02397633333334, "name": "1a0cbd37fac1974fc1cb84ada7444df6"}, {"bike_id": "b24ae82c0382a882376cb19c2f744f86", "type": "electric_scooter", "is_disabled": 0, "lat": 38.9171045, "rental_uris": {"ios": "https://dc.lft.to/lastmile_qr_scan", "android": "https://dc.lft.to/lastmile_qr_scan"}, "is_reserved": 0, "fusion_lon": 0.0, "fusion_lat": 0.0, "lon": -77.0349135, "name": "b24ae82c0382a882376cb19c2f744f86"}, {"bike_id": "de1e0afaa8889af054edeccc68c4c45b", "type": "electric_bike", "is_disabled": 0, "lat": 39.0578355, "rental_uris": {"ios": "https://dc.lft.to/lastmile_qr_scan", "android": "https://dc.lft.to/lastmile_qr_scan"}, "is_reserved": 0, "fusion_lon": 0.0, "fusion_lat": 0.0, "lon": -77.1501985, "name": "de1e0afaa8889af054edeccc68c4c45b"}, {"bike_id": "60afc899052b5f0be58874ca3e22c362", "type": "electric_scooter", "is_disabled": 0, "lat": 38.916924, "rental_uris": {"ios": "https://dc.lft.to/lastmile_qr_scan", "android": "https://dc.lft.to/lastmile_qr_scan"}, "is_reserved": 0, "fusion_lon": 0.0, "fusion_lat": 0.0, "lon": -77.02520966666667, "name": "60afc899052b5f0be58874ca3e22c362"}, {"bike_id": "ef5d2149e901b80b14ae9c5d5af5d393", "type": "electric_scooter", "is_disabled": 0, "lat": 38.9184605, "rental_uris": {"ios": "https://dc.lft.to/lastmile_qr_scan", "android": "https://dc.lft.to/lastmile_qr_scan"}, "is_reserved": 0, "fusion_lon": 0.0, "fusion_lat": 0.0, "lon": -76.96557783333333, "name": "ef5d2149e901b80b14ae9c5d5af5d393"}, {"bike_id": "5bcd57cab3d92c4e2d5c28c122e90000", "type": "electric_scooter", "is_disabled": 0, "lat": 38.91104833333333, "rental_uris": {"ios": "https://dc.lft.to/lastmile_qr_scan", "android": "https://dc.lft.to/lastmile_qr_scan"}, "is_reserved": 0, "fusion_lon": 0.0, "fusion_lat": 0.0, "lon": -77.0447495, "name": "5bcd57cab3d92c4e2d5c28c122e90000"}, {"bike_id": "85fc509e66201663af4477f10b7ccf38", "type": "electric_scooter", "is_disabled": 0, "lat": 38.85703433333333, "rental_uris": {"ios": "https://dc.lft.to/lastmile_qr_scan", "android": "https://dc.lft.to/lastmile_qr_scan"}, "is_reserved": 0, "fusion_lon": 0.0, "fusion_lat": 0.0, "lon": -76.9896825, "name": "85fc509e66201663af4477f10b7ccf38"}, {"bike_id": "c2001009effe75b12bab3bbee50f1bba", "type": "electric_scooter", "is_disabled": 0, "lat": 38.90126633333333, "rental_uris": {"ios": "https://dc.lft.to/lastmile_qr_scan", "android": "https://dc.lft.to/lastmile_qr_scan"}, "is_reserved": 0, "fusion_lon": 0.0, "fusion_lat": 0.0, "lon": -77.02801566666666, "name": "c2001009effe75b12bab3bbee50f1bba"}, {"bike_id": "1a985b6aa8f3022aa6df6a904fe440d6", "type": "electric_scooter", "is_disabled": 0, "lat": 38.921652, "rental_uris": {"ios": "https://dc.lft.to/lastmile_qr_scan", "android": "https://dc.lft.to/lastmile_qr_scan"}, "is_reserved": 0, "fusion_lon": 0.0, "fusion_lat": 0.0, "lon": -77.038461, "name": "1a985b6aa8f3022aa6df6a904fe440d6"}, {"bike_id": "65c608f45234a6cb966749d78ff999dc", "type": "electric_scooter", "is_disabled": 0, "lat": 38.88974483333333, "rental_uris": {"ios": "https://dc.lft.to/lastmile_qr_scan", "android": "https://dc.lft.to/lastmile_qr_scan"}, "is_reserved": 0, "fusion_lon": 0.0, "fusion_lat": 0.0, "lon": -76.98248116666667, "name": "65c608f45234a6cb966749d78ff999dc"}, {"bike_id": "bf453c18e07fa242de8a8ce2068cfb5b", "type": "electric_scooter", "is_disabled": 0, "lat": 38.89681733333333, "rental_uris": {"ios": "https://dc.lft.to/lastmile_qr_scan", "android": "https://dc.lft.to/lastmile_qr_scan"}, "is_reserved": 0, "fusion_lon": 0.0, "fusion_lat": 0.0, "lon": -76.9996875, "name": "bf453c18e07fa242de8a8ce2068cfb5b"}, {"bike_id": "80cf4da355e530c4ab98d1a5824d34ba", "type": "electric_scooter", "is_disabled": 0, "lat": 38.88655416666667, "rental_uris": {"ios": "https://dc.lft.to/lastmile_qr_scan", "android": "https://dc.lft.to/lastmile_qr_scan"}, "is_reserved": 0, "fusion_lon": 0.0, "fusion_lat": 0.0, "lon": -77.033915, "name": "80cf4da355e530c4ab98d1a5824d34ba"}, {"bike_id": "4d1ed056545d8280118873e6ce85f8e1", "type": "electric_scooter", "is_disabled": 0, "lat": 38.918146666666665, "rental_uris": {"ios": "https://dc.lft.to/lastmile_qr_scan", "android": "https://dc.lft.to/lastmile_qr_scan"}, "is_reserved": 0, "fusion_lon": 0.0, "fusion_lat": 0.0, "lon": -77.02712933333333, "name": "4d1ed056545d8280118873e6ce85f8e1"}, {"bike_id": "0462c2155e1a87654bee58966f7396c6", "type": "electric_scooter", "is_disabled": 0, "lat": 38.88706666666667, "rental_uris": {"ios": "https://dc.lft.to/lastmile_qr_scan", "android": "https://dc.lft.to/lastmile_qr_scan"}, "is_reserved": 0, "fusion_lon": 0.0, "fusion_lat": 0.0, "lon": -77.02217216666666, "name": "0462c2155e1a87654bee58966f7396c6"}, {"bike_id": "b49c208668f6d28c0565099244f8e061", "type": "electric_scooter", "is_disabled": 0, "lat": 38.926719, "rental_uris": {"ios": "https://dc.lft.to/lastmile_qr_scan", "android": "https://dc.lft.to/lastmile_qr_scan"}, "is_reserved": 0, "fusion_lon": 0.0, "fusion_lat": 0.0, "lon": -77.01474333333333, "name": "b49c208668f6d28c0565099244f8e061"}, {"bike_id": "6ac85edc4a96857345c899702c91654d", "type": "electric_scooter", "is_disabled": 0, "lat": 38.9259005, "rental_uris": {"ios": "https://dc.lft.to/lastmile_qr_scan", "android": "https://dc.lft.to/lastmile_qr_scan"}, "is_reserved": 0, "fusion_lon": 0.0, "fusion_lat": 0.0, "lon": -77.07318183333334, "name": "6ac85edc4a96857345c899702c91654d"}, {"bike_id": "bf8bb7731c9c8492aeed0362279e96bd", "type": "electric_scooter", "is_disabled": 0, "lat": 38.923649166666664, "rental_uris": {"ios": "https://dc.lft.to/lastmile_qr_scan", "android": "https://dc.lft.to/lastmile_qr_scan"}, "is_reserved": 0, "fusion_lon": 0.0, "fusion_lat": 0.0, "lon": -77.0515035, "name": "bf8bb7731c9c8492aeed0362279e96bd"}, {"bike_id": "7c4373f81a518c25ce171db7a9de2a99", "type": "electric_scooter", "is_disabled": 0, "lat": 38.91119316666666, "rental_uris": {"ios": "https://dc.lft.to/lastmile_qr_scan", "android": "https://dc.lft.to/lastmile_qr_scan"}, "is_reserved": 0, "fusion_lon": 0.0, "fusion_lat": 0.0, "lon": -77.03209716666667, "name": "7c4373f81a518c25ce171db7a9de2a99"}, {"bike_id": "82aba6cfaacd050cbe9b912bccdb2532", "type": "electric_scooter", "is_disabled": 0, "lat": 38.926537333333336, "rental_uris": {"ios": "https://dc.lft.to/lastmile_qr_scan", "android": "https://dc.lft.to/lastmile_qr_scan"}, "is_reserved": 0, "fusion_lon": 0.0, "fusion_lat": 0.0, "lon": -77.02414166666667, "name": "82aba6cfaacd050cbe9b912bccdb2532"}, {"bike_id": "a311dafada03519386338b026de346cc", "type": "electric_scooter", "is_disabled": 0, "lat": 38.9215135, "rental_uris": {"ios": "https://dc.lft.to/lastmile_qr_scan", "android": "https://dc.lft.to/lastmile_qr_scan"}, "is_reserved": 0, "fusion_lon": 0.0, "fusion_lat": 0.0, "lon": -77.03520333333333, "name": "a311dafada03519386338b026de346cc"}, {"bike_id": "ad2172577d878167090f2d8e735a1557", "type": "electric_scooter", "is_disabled": 0, "lat": 38.8876385, "rental_uris": {"ios": "https://dc.lft.to/lastmile_qr_scan", "android": "https://dc.lft.to/lastmile_qr_scan"}, "is_reserved": 0, "fusion_lon": 0.0, "fusion_lat": 0.0, "lon": -77.0172535, "name": "ad2172577d878167090f2d8e735a1557"}, {"bike_id": "ca395d55a3f423e99b85bf2da26061f9", "type": "electric_bike", "is_disabled": 0, "lat": 38.90207683333333, "rental_uris": {"ios": "https://dc.lft.to/lastmile_qr_scan", "android": "https://dc.lft.to/lastmile_qr_scan"}, "is_reserved": 0, "fusion_lon": 0.0, "fusion_lat": 0.0, "lon": -76.9741415, "name": "ca395d55a3f423e99b85bf2da26061f9"}, {"bike_id": "a3bb4f9de22ff72fb6a8070b7c03dddc", "type": "electric_scooter", "is_disabled": 0, "lat": 38.898414833333334, "rental_uris": {"ios": "https://dc.lft.to/lastmile_qr_scan", "android": "https://dc.lft.to/lastmile_qr_scan"}, "is_reserved": 0, "fusion_lon": 0.0, "fusion_lat": 0.0, "lon": -76.946377, "name": "a3bb4f9de22ff72fb6a8070b7c03dddc"}, {"bike_id": "a24aa60c904db5598f73fdb5a4bdf328", "type": "electric_scooter", "is_disabled": 0, "lat": 38.916828833333334, "rental_uris": {"ios": "https://dc.lft.to/lastmile_qr_scan", "android": "https://dc.lft.to/lastmile_qr_scan"}, "is_reserved": 0, "fusion_lon": 0.0, "fusion_lat": 0.0, "lon": -77.02970233333333, "name": "a24aa60c904db5598f73fdb5a4bdf328"}, {"bike_id": "96ffb13f0a93ad9af2efaac9da4df05b", "type": "electric_bike", "is_disabled": 0, "lat": 38.9264165, "rental_uris": {"ios": "https://dc.lft.to/lastmile_qr_scan", "android": "https://dc.lft.to/lastmile_qr_scan"}, "is_reserved": 0, "fusion_lon": 0.0, "fusion_lat": 0.0, "lon": -76.9842825, "name": "96ffb13f0a93ad9af2efaac9da4df05b"}, {"bike_id": "b7ab1a5a97b8b9ab04778afa37a6c7a8", "type": "electric_scooter", "is_disabled": 0, "lat": 38.90633783333333, "rental_uris": {"ios": "https://dc.lft.to/lastmile_qr_scan", "android": "https://dc.lft.to/lastmile_qr_scan"}, "is_reserved": 0, "fusion_lon": 0.0, "fusion_lat": 0.0, "lon": -77.010056, "name": "b7ab1a5a97b8b9ab04778afa37a6c7a8"}, {"bike_id": "17305730034baa96f60237e4514d1c15", "type": "electric_bike", "is_disabled": 0, "lat": 38.924382666666666, "rental_uris": {"ios": "https://dc.lft.to/lastmile_qr_scan", "android": "https://dc.lft.to/lastmile_qr_scan"}, "is_reserved": 0, "fusion_lon": 0.0, "fusion_lat": 0.0, "lon": -77.2255715, "name": "17305730034baa96f60237e4514d1c15"}, {"bike_id": "9d4c1a6acb1f4028542fb6bd7078322b", "type": "electric_scooter", "is_disabled": 0, "lat": 38.941917333333336, "rental_uris": {"ios": "https://dc.lft.to/lastmile_qr_scan", "android": "https://dc.lft.to/lastmile_qr_scan"}, "is_reserved": 0, "fusion_lon": 0.0, "fusion_lat": 0.0, "lon": -77.02434266666667, "name": "9d4c1a6acb1f4028542fb6bd7078322b"}, {"bike_id": "1338c1df6423f1a72d81abcb9ca27f45", "type": "electric_scooter", "is_disabled": 0, "lat": 38.914527, "rental_uris": {"ios": "https://dc.lft.to/lastmile_qr_scan", "android": "https://dc.lft.to/lastmile_qr_scan"}, "is_reserved": 0, "fusion_lon": 0.0, "fusion_lat": 0.0, "lon": -77.02294716666667, "name": "1338c1df6423f1a72d81abcb9ca27f45"}, {"bike_id": "008d646774054953fa66b93b091db747", "type": "electric_scooter", "is_disabled": 0, "lat": 38.906769, "rental_uris": {"ios": "https://dc.lft.to/lastmile_qr_scan", "android": "https://dc.lft.to/lastmile_qr_scan"}, "is_reserved": 0, "fusion_lon": 0.0, "fusion_lat": 0.0, "lon": -77.02373816666666, "name": "008d646774054953fa66b93b091db747"}, {"bike_id": "a31f050c82db58ec1635c1c5c3929662", "type": "electric_scooter", "is_disabled": 0, "lat": 38.903687833333336, "rental_uris": {"ios": "https://dc.lft.to/lastmile_qr_scan", "android": "https://dc.lft.to/lastmile_qr_scan"}, "is_reserved": 0, "fusion_lon": 0.0, "fusion_lat": 0.0, "lon": -77.02941116666666, "name": "a31f050c82db58ec1635c1c5c3929662"}, {"bike_id": "62648514a89637136a61d054bf41c254", "type": "electric_bike", "is_disabled": 0, "lat": 38.93668616666667, "rental_uris": {"ios": "https://dc.lft.to/lastmile_qr_scan", "android": "https://dc.lft.to/lastmile_qr_scan"}, "is_reserved": 0, "fusion_lon": 0.0, "fusion_lat": 0.0, "lon": -76.95205816666666, "name": "62648514a89637136a61d054bf41c254"}, {"bike_id": "6b58fb91662c8a1f38b627e1790c6876", "type": "electric_scooter", "is_disabled": 0, "lat": 38.916954, "rental_uris": {"ios": "https://dc.lft.to/lastmile_qr_scan", "android": "https://dc.lft.to/lastmile_qr_scan"}, "is_reserved": 0, "fusion_lon": 0.0, "fusion_lat": 0.0, "lon": -77.03775033333334, "name": "6b58fb91662c8a1f38b627e1790c6876"}, {"bike_id": "0634480d1ae3c36ef195326717dda177", "type": "electric_scooter", "is_disabled": 0, "lat": 38.916971, "rental_uris": {"ios": "https://dc.lft.to/lastmile_qr_scan", "android": "https://dc.lft.to/lastmile_qr_scan"}, "is_reserved": 0, "fusion_lon": 0.0, "fusion_lat": 0.0, "lon": -77.03170183333333, "name": "0634480d1ae3c36ef195326717dda177"}, {"bike_id": "bc0b0f9e01e45a076e55060fbf3bb8ef", "type": "electric_scooter", "is_disabled": 0, "lat": 38.91542033333333, "rental_uris": {"ios": "https://dc.lft.to/lastmile_qr_scan", "android": "https://dc.lft.to/lastmile_qr_scan"}, "is_reserved": 0, "fusion_lon": 0.0, "fusion_lat": 0.0, "lon": -77.02205266666667, "name": "bc0b0f9e01e45a076e55060fbf3bb8ef"}, {"bike_id": "081f90b4d55c2622d14596b0d5e8a6ce", "type": "electric_scooter", "is_disabled": 0, "lat": 38.9000875, "rental_uris": {"ios": "https://dc.lft.to/lastmile_qr_scan", "android": "https://dc.lft.to/lastmile_qr_scan"}, "is_reserved": 0, "fusion_lon": 0.0, "fusion_lat": 0.0, "lon": -76.98538416666666, "name": "081f90b4d55c2622d14596b0d5e8a6ce"}, {"bike_id": "936fc8638d4f2dcb0076a63df91c24ab", "type": "electric_scooter", "is_disabled": 0, "lat": 38.874166333333335, "rental_uris": {"ios": "https://dc.lft.to/lastmile_qr_scan", "android": "https://dc.lft.to/lastmile_qr_scan"}, "is_reserved": 0, "fusion_lon": 0.0, "fusion_lat": 0.0, "lon": -77.00052616666666, "name": "936fc8638d4f2dcb0076a63df91c24ab"}, {"bike_id": "a315c0fd511c753e7fbe80e1e7b51453", "type": "electric_scooter", "is_disabled": 0, "lat": 38.92489033333333, "rental_uris": {"ios": "https://dc.lft.to/lastmile_qr_scan", "android": "https://dc.lft.to/lastmile_qr_scan"}, "is_reserved": 0, "fusion_lon": 0.0, "fusion_lat": 0.0, "lon": -77.0244935, "name": "a315c0fd511c753e7fbe80e1e7b51453"}, {"bike_id": "edf957546cfaddd8b393ee5937ced2f4", "type": "electric_scooter", "is_disabled": 0, "lat": 38.965490833333334, "rental_uris": {"ios": "https://dc.lft.to/lastmile_qr_scan", "android": "https://dc.lft.to/lastmile_qr_scan"}, "is_reserved": 0, "fusion_lon": 0.0, "fusion_lat": 0.0, "lon": -77.03621333333334, "name": "edf957546cfaddd8b393ee5937ced2f4"}, {"bike_id": "af1f2bec1064e615f5fb976bd6c45e7f", "type": "electric_scooter", "is_disabled": 0, "lat": 38.91898916666667, "rental_uris": {"ios": "https://dc.lft.to/lastmile_qr_scan", "android": "https://dc.lft.to/lastmile_qr_scan"}, "is_reserved": 0, "fusion_lon": 0.0, "fusion_lat": 0.0, "lon": -77.031417, "name": "af1f2bec1064e615f5fb976bd6c45e7f"}, {"bike_id": "ca8e9d1ebc5fbd042fac20b3de9b2388", "type": "electric_scooter", "is_disabled": 0, "lat": 38.917662, "rental_uris": {"ios": "https://dc.lft.to/lastmile_qr_scan", "android": "https://dc.lft.to/lastmile_qr_scan"}, "is_reserved": 0, "fusion_lon": 0.0, "fusion_lat": 0.0, "lon": -77.0228295, "name": "ca8e9d1ebc5fbd042fac20b3de9b2388"}, {"bike_id": "a6a57835d106b30a932aa7da6183c6d2", "type": "electric_bike", "is_disabled": 0, "lat": 38.94891416666667, "rental_uris": {"ios": "https://dc.lft.to/lastmile_qr_scan", "android": "https://dc.lft.to/lastmile_qr_scan"}, "is_reserved": 0, "fusion_lon": 0.0, "fusion_lat": 0.0, "lon": -76.96384383333333, "name": "a6a57835d106b30a932aa7da6183c6d2"}, {"bike_id": "e0eb1cd99415c2656572d4e87b443b7a", "type": "electric_scooter", "is_disabled": 0, "lat": 38.87494183333333, "rental_uris": {"ios": "https://dc.lft.to/lastmile_qr_scan", "android": "https://dc.lft.to/lastmile_qr_scan"}, "is_reserved": 0, "fusion_lon": 0.0, "fusion_lat": 0.0, "lon": -77.000741, "name": "e0eb1cd99415c2656572d4e87b443b7a"}, {"bike_id": "cb5e21d9bc2c0dbb3cde6d1e01c46cd7", "type": "electric_scooter", "is_disabled": 0, "lat": 38.886654666666665, "rental_uris": {"ios": "https://dc.lft.to/lastmile_qr_scan", "android": "https://dc.lft.to/lastmile_qr_scan"}, "is_reserved": 0, "fusion_lon": 0.0, "fusion_lat": 0.0, "lon": -76.98774616666667, "name": "cb5e21d9bc2c0dbb3cde6d1e01c46cd7"}, {"bike_id": "5a7c2f214e53e9ad10dd3ff3a846a4ac", "type": "electric_scooter", "is_disabled": 0, "lat": 38.9126755, "rental_uris": {"ios": "https://dc.lft.to/lastmile_qr_scan", "android": "https://dc.lft.to/lastmile_qr_scan"}, "is_reserved": 0, "fusion_lon": 0.0, "fusion_lat": 0.0, "lon": -77.02213216666667, "name": "5a7c2f214e53e9ad10dd3ff3a846a4ac"}, {"bike_id": "07280ee7fbbe44a3e8dbf4de495d86cf", "type": "electric_scooter", "is_disabled": 0, "lat": 38.919498833333336, "rental_uris": {"ios": "https://dc.lft.to/lastmile_qr_scan", "android": "https://dc.lft.to/lastmile_qr_scan"}, "is_reserved": 0, "fusion_lon": 0.0, "fusion_lat": 0.0, "lon": -77.02490366666666, "name": "07280ee7fbbe44a3e8dbf4de495d86cf"}, {"bike_id": "1b0ef2a35cc4128bf256f907a2f79665", "type": "electric_scooter", "is_disabled": 0, "lat": 38.891853833333336, "rental_uris": {"ios": "https://dc.lft.to/lastmile_qr_scan", "android": "https://dc.lft.to/lastmile_qr_scan"}, "is_reserved": 0, "fusion_lon": 0.0, "fusion_lat": 0.0, "lon": -77.01537, "name": "1b0ef2a35cc4128bf256f907a2f79665"}, {"bike_id": "640e7464f3d4b827c59e016155aa32ef", "type": "electric_scooter", "is_disabled": 0, "lat": 38.90255783333333, "rental_uris": {"ios": "https://dc.lft.to/lastmile_qr_scan", "android": "https://dc.lft.to/lastmile_qr_scan"}, "is_reserved": 0, "fusion_lon": 0.0, "fusion_lat": 0.0, "lon": -77.03439533333334, "name": "640e7464f3d4b827c59e016155aa32ef"}, {"bike_id": "eb06d0ff34f4a51abc778b631009a673", "type": "electric_scooter", "is_disabled": 0, "lat": 38.92551383333333, "rental_uris": {"ios": "https://dc.lft.to/lastmile_qr_scan", "android": "https://dc.lft.to/lastmile_qr_scan"}, "is_reserved": 0, "fusion_lon": 0.0, "fusion_lat": 0.0, "lon": -77.053123, "name": "eb06d0ff34f4a51abc778b631009a673"}, {"bike_id": "e77a573f49b4756a7abe75b1d0e642f6", "type": "electric_scooter", "is_disabled": 0, "lat": 38.928566833333335, "rental_uris": {"ios": "https://dc.lft.to/lastmile_qr_scan", "android": "https://dc.lft.to/lastmile_qr_scan"}, "is_reserved": 0, "fusion_lon": 0.0, "fusion_lat": 0.0, "lon": -77.0371705, "name": "e77a573f49b4756a7abe75b1d0e642f6"}, {"bike_id": "fd417aa06fba9e98fcaa8db61b35545b", "type": "electric_scooter", "is_disabled": 0, "lat": 38.917613833333334, "rental_uris": {"ios": "https://dc.lft.to/lastmile_qr_scan", "android": "https://dc.lft.to/lastmile_qr_scan"}, "is_reserved": 0, "fusion_lon": 0.0, "fusion_lat": 0.0, "lon": -77.04769533333334, "name": "fd417aa06fba9e98fcaa8db61b35545b"}, {"bike_id": "3c042a3e1bba624600a8a6fdcd9655e2", "type": "electric_scooter", "is_disabled": 0, "lat": 38.8869535, "rental_uris": {"ios": "https://dc.lft.to/lastmile_qr_scan", "android": "https://dc.lft.to/lastmile_qr_scan"}, "is_reserved": 0, "fusion_lon": 0.0, "fusion_lat": 0.0, "lon": -77.03168033333333, "name": "3c042a3e1bba624600a8a6fdcd9655e2"}, {"bike_id": "c29300920a1bcfe08a75257d71f66cd0", "type": "electric_scooter", "is_disabled": 0, "lat": 38.922463, "rental_uris": {"ios": "https://dc.lft.to/lastmile_qr_scan", "android": "https://dc.lft.to/lastmile_qr_scan"}, "is_reserved": 0, "fusion_lon": 0.0, "fusion_lat": 0.0, "lon": -77.04275433333333, "name": "c29300920a1bcfe08a75257d71f66cd0"}, {"bike_id": "e32b7190f73e6d92b2b1a72e626ce6a2", "type": "electric_scooter", "is_disabled": 0, "lat": 38.9181485, "rental_uris": {"ios": "https://dc.lft.to/lastmile_qr_scan", "android": "https://dc.lft.to/lastmile_qr_scan"}, "is_reserved": 0, "fusion_lon": 0.0, "fusion_lat": 0.0, "lon": -77.00260283333333, "name": "e32b7190f73e6d92b2b1a72e626ce6a2"}, {"bike_id": "6d62b29a9d62e4c44c5eda33c792c006", "type": "electric_scooter", "is_disabled": 0, "lat": 38.9218385, "rental_uris": {"ios": "https://dc.lft.to/lastmile_qr_scan", "android": "https://dc.lft.to/lastmile_qr_scan"}, "is_reserved": 0, "fusion_lon": 0.0, "fusion_lat": 0.0, "lon": -77.03787916666667, "name": "6d62b29a9d62e4c44c5eda33c792c006"}, {"bike_id": "d7df4cd0b69c213fa420aa25dd27fec3", "type": "electric_scooter", "is_disabled": 0, "lat": 38.912662166666664, "rental_uris": {"ios": "https://dc.lft.to/lastmile_qr_scan", "android": "https://dc.lft.to/lastmile_qr_scan"}, "is_reserved": 0, "fusion_lon": 0.0, "fusion_lat": 0.0, "lon": -77.02210866666667, "name": "d7df4cd0b69c213fa420aa25dd27fec3"}, {"bike_id": "cc9146bdd72b075b8f3018b598973993", "type": "electric_scooter", "is_disabled": 0, "lat": 38.9110255, "rental_uris": {"ios": "https://dc.lft.to/lastmile_qr_scan", "android": "https://dc.lft.to/lastmile_qr_scan"}, "is_reserved": 0, "fusion_lon": 0.0, "fusion_lat": 0.0, "lon": -77.04470033333334, "name": "cc9146bdd72b075b8f3018b598973993"}, {"bike_id": "89340d75c5cb308cbecb4c37da42611b", "type": "electric_scooter", "is_disabled": 0, "lat": 38.923428333333334, "rental_uris": {"ios": "https://dc.lft.to/lastmile_qr_scan", "android": "https://dc.lft.to/lastmile_qr_scan"}, "is_reserved": 0, "fusion_lon": 0.0, "fusion_lat": 0.0, "lon": -77.041474, "name": "89340d75c5cb308cbecb4c37da42611b"}, {"bike_id": "7c394962c2bbce2247c4f1612325c9eb", "type": "electric_scooter", "is_disabled": 0, "lat": 38.9183265, "rental_uris": {"ios": "https://dc.lft.to/lastmile_qr_scan", "android": "https://dc.lft.to/lastmile_qr_scan"}, "is_reserved": 0, "fusion_lon": 0.0, "fusion_lat": 0.0, "lon": -77.0416125, "name": "7c394962c2bbce2247c4f1612325c9eb"}, {"bike_id": "57e2b75451c90021a5664aaed26d7529", "type": "electric_bike", "is_disabled": 0, "lat": 38.85564016666667, "rental_uris": {"ios": "https://dc.lft.to/lastmile_qr_scan", "android": "https://dc.lft.to/lastmile_qr_scan"}, "is_reserved": 0, "fusion_lon": 0.0, "fusion_lat": 0.0, "lon": -77.1131845, "name": "57e2b75451c90021a5664aaed26d7529"}, {"bike_id": "139d25e883547da62cf355daacbe0a63", "type": "electric_scooter", "is_disabled": 0, "lat": 38.919121833333335, "rental_uris": {"ios": "https://dc.lft.to/lastmile_qr_scan", "android": "https://dc.lft.to/lastmile_qr_scan"}, "is_reserved": 0, "fusion_lon": 0.0, "fusion_lat": 0.0, "lon": -77.03071533333333, "name": "139d25e883547da62cf355daacbe0a63"}, {"bike_id": "83133f63a4dcaff3de8d83dee3c018b3", "type": "electric_bike", "is_disabled": 0, "lat": 38.99215233333334, "rental_uris": {"ios": "https://dc.lft.to/lastmile_qr_scan", "android": "https://dc.lft.to/lastmile_qr_scan"}, "is_reserved": 0, "fusion_lon": 0.0, "fusion_lat": 0.0, "lon": -76.9445215, "name": "83133f63a4dcaff3de8d83dee3c018b3"}, {"bike_id": "22bfcfab178276ac36368592ffaad6cb", "type": "electric_scooter", "is_disabled": 0, "lat": 38.9154935, "rental_uris": {"ios": "https://dc.lft.to/lastmile_qr_scan", "android": "https://dc.lft.to/lastmile_qr_scan"}, "is_reserved": 0, "fusion_lon": 0.0, "fusion_lat": 0.0, "lon": -77.03915633333334, "name": "22bfcfab178276ac36368592ffaad6cb"}, {"bike_id": "590f93ec9fe02057972f2751c9e7069b", "type": "electric_bike", "is_disabled": 0, "lat": 38.85477916666667, "rental_uris": {"ios": "https://dc.lft.to/lastmile_qr_scan", "android": "https://dc.lft.to/lastmile_qr_scan"}, "is_reserved": 0, "fusion_lon": 0.0, "fusion_lat": 0.0, "lon": -77.11595583333333, "name": "590f93ec9fe02057972f2751c9e7069b"}, {"bike_id": "005022a81dd1b3c54bca703069379650", "type": "electric_scooter", "is_disabled": 0, "lat": 38.90726383333333, "rental_uris": {"ios": "https://dc.lft.to/lastmile_qr_scan", "android": "https://dc.lft.to/lastmile_qr_scan"}, "is_reserved": 0, "fusion_lon": 0.0, "fusion_lat": 0.0, "lon": -77.02564916666667, "name": "005022a81dd1b3c54bca703069379650"}, {"bike_id": "e360313c480df5c98cb1dff9e7fcccd1", "type": "electric_scooter", "is_disabled": 0, "lat": 38.947187166666666, "rental_uris": {"ios": "https://dc.lft.to/lastmile_qr_scan", "android": "https://dc.lft.to/lastmile_qr_scan"}, "is_reserved": 0, "fusion_lon": 0.0, "fusion_lat": 0.0, "lon": -77.0654445, "name": "e360313c480df5c98cb1dff9e7fcccd1"}, {"bike_id": "23554bcfb7cc1e8cea8d1b4cf41acea1", "type": "electric_bike", "is_disabled": 0, "lat": 38.85532283333333, "rental_uris": {"ios": "https://dc.lft.to/lastmile_qr_scan", "android": "https://dc.lft.to/lastmile_qr_scan"}, "is_reserved": 0, "fusion_lon": 0.0, "fusion_lat": 0.0, "lon": -77.1201265, "name": "23554bcfb7cc1e8cea8d1b4cf41acea1"}, {"bike_id": "17a8ee076868d52adfcf0aee98284161", "type": "electric_scooter", "is_disabled": 0, "lat": 38.912471833333335, "rental_uris": {"ios": "https://dc.lft.to/lastmile_qr_scan", "android": "https://dc.lft.to/lastmile_qr_scan"}, "is_reserved": 0, "fusion_lon": 0.0, "fusion_lat": 0.0, "lon": -77.05881633333334, "name": "17a8ee076868d52adfcf0aee98284161"}, {"bike_id": "6877c5bebf19f038ab55f25adf5b3f08", "type": "electric_scooter", "is_disabled": 0, "lat": 38.916307, "rental_uris": {"ios": "https://dc.lft.to/lastmile_qr_scan", "android": "https://dc.lft.to/lastmile_qr_scan"}, "is_reserved": 0, "fusion_lon": 0.0, "fusion_lat": 0.0, "lon": -77.03214666666666, "name": "6877c5bebf19f038ab55f25adf5b3f08"}, {"bike_id": "001f0de5c47ce9f3e0a2151c329684cb", "type": "electric_scooter", "is_disabled": 0, "lat": 38.9057925, "rental_uris": {"ios": "https://dc.lft.to/lastmile_qr_scan", "android": "https://dc.lft.to/lastmile_qr_scan"}, "is_reserved": 0, "fusion_lon": 0.0, "fusion_lat": 0.0, "lon": -77.04412866666667, "name": "001f0de5c47ce9f3e0a2151c329684cb"}, {"bike_id": "5d34103bfb9e06306ed92fc59b102558", "type": "electric_scooter", "is_disabled": 0, "lat": 38.886394333333335, "rental_uris": {"ios": "https://dc.lft.to/lastmile_qr_scan", "android": "https://dc.lft.to/lastmile_qr_scan"}, "is_reserved": 0, "fusion_lon": 0.0, "fusion_lat": 0.0, "lon": -77.02142633333334, "name": "5d34103bfb9e06306ed92fc59b102558"}, {"bike_id": "37b3caa0e37c12282cef7a4b689044b4", "type": "electric_scooter", "is_disabled": 0, "lat": 38.89295416666667, "rental_uris": {"ios": "https://dc.lft.to/lastmile_qr_scan", "android": "https://dc.lft.to/lastmile_qr_scan"}, "is_reserved": 0, "fusion_lon": 0.0, "fusion_lat": 0.0, "lon": -77.02021483333333, "name": "37b3caa0e37c12282cef7a4b689044b4"}, {"bike_id": "ca228ecf1e14dad0bcbaa8c93912ff83", "type": "electric_bike", "is_disabled": 0, "lat": 38.9053525, "rental_uris": {"ios": "https://dc.lft.to/lastmile_qr_scan", "android": "https://dc.lft.to/lastmile_qr_scan"}, "is_reserved": 0, "fusion_lon": 0.0, "fusion_lat": 0.0, "lon": -77.029309, "name": "ca228ecf1e14dad0bcbaa8c93912ff83"}, {"bike_id": "9ebb4042e9e01a8af5a52b7191d7671a", "type": "electric_scooter", "is_disabled": 0, "lat": 38.933605166666666, "rental_uris": {"ios": "https://dc.lft.to/lastmile_qr_scan", "android": "https://dc.lft.to/lastmile_qr_scan"}, "is_reserved": 0, "fusion_lon": 0.0, "fusion_lat": 0.0, "lon": -77.088613, "name": "9ebb4042e9e01a8af5a52b7191d7671a"}, {"bike_id": "219366644867e777aa2ea163853385f5", "type": "electric_scooter", "is_disabled": 0, "lat": 38.90721966666667, "rental_uris": {"ios": "https://dc.lft.to/lastmile_qr_scan", "android": "https://dc.lft.to/lastmile_qr_scan"}, "is_reserved": 0, "fusion_lon": 0.0, "fusion_lat": 0.0, "lon": -77.025254, "name": "219366644867e777aa2ea163853385f5"}, {"bike_id": "29ad016f734d407e047cd889b74e5d8c", "type": "electric_scooter", "is_disabled": 0, "lat": 38.97198733333333, "rental_uris": {"ios": "https://dc.lft.to/lastmile_qr_scan", "android": "https://dc.lft.to/lastmile_qr_scan"}, "is_reserved": 0, "fusion_lon": 0.0, "fusion_lat": 0.0, "lon": -77.026619, "name": "29ad016f734d407e047cd889b74e5d8c"}, {"bike_id": "391324bbf2b300f4164b2243dfa2a479", "type": "electric_scooter", "is_disabled": 0, "lat": 38.91468616666667, "rental_uris": {"ios": "https://dc.lft.to/lastmile_qr_scan", "android": "https://dc.lft.to/lastmile_qr_scan"}, "is_reserved": 0, "fusion_lon": 0.0, "fusion_lat": 0.0, "lon": -77.0199005, "name": "391324bbf2b300f4164b2243dfa2a479"}, {"bike_id": "1c48af828d7f38aa0c9460f2b0d5b0b2", "type": "electric_scooter", "is_disabled": 0, "lat": 38.91327583333333, "rental_uris": {"ios": "https://dc.lft.to/lastmile_qr_scan", "android": "https://dc.lft.to/lastmile_qr_scan"}, "is_reserved": 0, "fusion_lon": 0.0, "fusion_lat": 0.0, "lon": -77.03193466666667, "name": "1c48af828d7f38aa0c9460f2b0d5b0b2"}, {"bike_id": "86bebce6dbd7a23ffa3f241dcc9a79a8", "type": "electric_scooter", "is_disabled": 0, "lat": 38.866238333333335, "rental_uris": {"ios": "https://dc.lft.to/lastmile_qr_scan", "android": "https://dc.lft.to/lastmile_qr_scan"}, "is_reserved": 0, "fusion_lon": 0.0, "fusion_lat": 0.0, "lon": -76.9872175, "name": "86bebce6dbd7a23ffa3f241dcc9a79a8"}, {"bike_id": "5224a3715deb9e356cf8ac199e4346f3", "type": "electric_scooter", "is_disabled": 0, "lat": 38.915645833333336, "rental_uris": {"ios": "https://dc.lft.to/lastmile_qr_scan", "android": "https://dc.lft.to/lastmile_qr_scan"}, "is_reserved": 0, "fusion_lon": 0.0, "fusion_lat": 0.0, "lon": -77.03124266666667, "name": "5224a3715deb9e356cf8ac199e4346f3"}, {"bike_id": "62f1278a3c55a080ae226a405c9ac18f", "type": "electric_scooter", "is_disabled": 0, "lat": 38.92134166666666, "rental_uris": {"ios": "https://dc.lft.to/lastmile_qr_scan", "android": "https://dc.lft.to/lastmile_qr_scan"}, "is_reserved": 0, "fusion_lon": 0.0, "fusion_lat": 0.0, "lon": -77.04430683333334, "name": "62f1278a3c55a080ae226a405c9ac18f"}, {"bike_id": "1516f39a25fc469a42e676d795ca5eb8", "type": "electric_scooter", "is_disabled": 0, "lat": 38.91756266666667, "rental_uris": {"ios": "https://dc.lft.to/lastmile_qr_scan", "android": "https://dc.lft.to/lastmile_qr_scan"}, "is_reserved": 0, "fusion_lon": 0.0, "fusion_lat": 0.0, "lon": -77.03171533333334, "name": "1516f39a25fc469a42e676d795ca5eb8"}, {"bike_id": "724476a44b1e939082654b4d6cc01006", "type": "electric_bike", "is_disabled": 0, "lat": 38.996670333333334, "rental_uris": {"ios": "https://dc.lft.to/lastmile_qr_scan", "android": "https://dc.lft.to/lastmile_qr_scan"}, "is_reserved": 0, "fusion_lon": 0.0, "fusion_lat": 0.0, "lon": -77.0379635, "name": "724476a44b1e939082654b4d6cc01006"}, {"bike_id": "07cf92575ad6ea62b9cf4a03ccc9f356", "type": "electric_bike", "is_disabled": 0, "lat": 38.896098333333335, "rental_uris": {"ios": "https://dc.lft.to/lastmile_qr_scan", "android": "https://dc.lft.to/lastmile_qr_scan"}, "is_reserved": 0, "fusion_lon": 0.0, "fusion_lat": 0.0, "lon": -76.90737766666666, "name": "07cf92575ad6ea62b9cf4a03ccc9f356"}, {"bike_id": "1f96e57d108d6f6e1ce0fe7b3471c67f", "type": "electric_scooter", "is_disabled": 0, "lat": 38.904098, "rental_uris": {"ios": "https://dc.lft.to/lastmile_qr_scan", "android": "https://dc.lft.to/lastmile_qr_scan"}, "is_reserved": 0, "fusion_lon": 0.0, "fusion_lat": 0.0, "lon": -76.97331083333333, "name": "1f96e57d108d6f6e1ce0fe7b3471c67f"},