{"data": {"bikes": [{"is_disabled": 0, "fusion_lon": 0.0, "fusion_lat": 0.0, "lat": 38.89553016666667, "type": "electric_scooter", "lon": -76.94874733333333, "bike_id": "6c6394ab676c8852d3f1154f17b33601", "rental_uris": {"android": "https://dc.lft.to/lastmile_qr_scan", "ios": "https://dc.lft.to/lastmile_qr_scan"}, "name": "6c6394ab676c8852d3f1154f17b33601", "is_reserved": 0}, {"is_disabled": 0, "fusion_lon": 0.0, "fusion_lat": 0.0, "lat": 39.02297316666667, "type": "electric_bike", "lon": -77.02096383333334, "bike_id": "33d93d44243775d0b026d16027310c0c", "rental_uris": {"android": "https://dc.lft.to/lastmile_qr_scan", "ios": "https://dc.lft.to/lastmile_qr_scan"}, "name": "33d93d44243775d0b026d16027310c0c", "is_reserved": 0}, {"is_disabled": 0, "fusion_lon": 0.0, "fusion_lat": 0.0, "lat": 38.90189383333333, "type": "electric_scooter", "lon": -77.05025233333333, "bike_id": "039039efecaf9418fb95307d8c12c211", "rental_uris": {"android": "https://dc.lft.to/lastmile_qr_scan", "ios": "https://dc.lft.to/lastmile_qr_scan"}, "name": "039039efecaf9418fb95307d8c12c211", "is_reserved": 0}, {"is_disabled": 0, "fusion_lon": 0.0, "fusion_lat": 0.0, "lat": 38.90439216666667, "type": "electric_scooter", "lon": -77.05142616666667, "bike_id": "ace004810dfee58ce65a5f10f03bbc74", "rental_uris": {"android": "https://dc.lft.to/lastmile_qr_scan", "ios": "https://dc.lft.to/lastmile_qr_scan"}, "name": "ace004810dfee58ce65a5f10f03bbc74", "is_reserved": 0}, {"is_disabled": 0, "fusion_lon": 0.0, "fusion_lat": 0.0, "lat": 38.893312, "type": "electric_scooter", "lon": -77.0212675, "bike_id": "51837e43ab334ab6fc7b46269ddc27d3", "rental_uris": {"android": "https://dc.lft.to/lastmile_qr_scan", "ios": "https://dc.lft.to/lastmile_qr_scan"}, "name": "51837e43ab334ab6fc7b46269ddc27d3", "is_reserved": 0}, {"is_disabled": 0, "fusion_lon": 0.0, "fusion_lat": 0.0, "lat": 38.93189483333333, "type": "electric_scooter", "lon": -77.04144966666667, "bike_id": "7c07d46649e639553f543b02339b9ba3", "rental_uris": {"android": "https://dc.lft.to/lastmile_qr_scan", "ios": "https://dc.lft.to/lastmile_qr_scan"}, "name": "7c07d46649e639553f543b02339b9ba3", "is_reserved": 0}, {"is_disabled": 0, "fusion_lon": 0.0, "fusion_lat": 0.0, "lat": 38.908692, "type": "electric_scooter", "lon": -77.03006783333333, "bike_id": "9df395535b11e786d527b5820369b270", "rental_uris": {"android": "https://dc.lft.to/lastmile_qr_scan", "ios": "https://dc.lft.to/lastmile_qr_scan"}, "name": "9df395535b11e786d527b5820369b270", "is_reserved": 0}, {"is_disabled": 0, "fusion_lon": 0.0, "fusion_lat": 0.0, "lat": 38.86525483333333, "type": "electric_scooter", "lon": -76.9896535, "bike_id": "299aaff1ca37ac498fa7086681711f1a", "rental_uris": {"android": "https://dc.lft.to/lastmile_qr_scan", "ios": "https://dc.lft.to/lastmile_qr_scan"}, "name": "299aaff1ca37ac498fa7086681711f1a", "is_reserved": 0}, {"is_disabled": 0, "fusion_lon": 0.0, "fusion_lat": 0.0, "lat": 38.89846333333333, "type": "electric_scooter", "lon": -76.944912, "bike_id": "89a76acc2b6b6aff9b048c841657e329", "rental_uris": {"android": "https://dc.lft.to/lastmile_qr_scan", "ios": "https://dc.lft.to/lastmile_qr_scan"}, "name": "89a76acc2b6b6aff9b048c841657e329", "is_reserved": 0}, {"is_disabled": 0, "fusion_lon": 0.0, "fusion_lat": 0.0, "lat": 38.87659683333333, "type": "electric_scooter", "lon": -77.00768533333333, "bike_id": "dfd92f401d513ff981872f44d55799ea", "rental_uris": {"android": "https://dc.lft.to/lastmile_qr_scan", "ios": "https://dc.lft.to/lastmile_qr_scan"}, "name": "dfd92f401d513ff981872f44d55799ea", "is_reserved": 0}, {"is_disabled": 0, "fusion_lon": 0.0, "fusion_lat": 0.0, "lat": 38.94189816666667, "type": "electric_scooter", "lon": -77.04256366666667, "bike_id": "4f8288bbd8c2e825ae67ea89b5d610ac", "rental_uris": {"android": "https://dc.lft.to/lastmile_qr_scan", "ios": "https://dc.lft.to/lastmile_qr_scan"}, "name": "4f8288bbd8c2e825ae67ea89b5d610ac", "is_reserved": 0}, {"is_disabled": 0, "fusion_lon": 0.0, "fusion_lat": 0.0, "lat": 38.888817, "type": "electric_bike", "lon": -77.02856383333334, "bike_id": "3c9631f50d4ce4744c1ba8fc8819d914", "rental_uris": {"android": "https://dc.lft.to/lastmile_qr_scan", "ios": "https://dc.lft.to/lastmile_qr_scan"}, "name": "3c9631f50d4ce4744c1ba8fc8819d914", "is_reserved": 0}, {"is_disabled": 0, "fusion_lon": 0.0, "fusion_lat": 0.0, "lat": 38.883239333333336, "type": "electric_scooter", "lon": -77.01677533333333, "bike_id": "7bcd1264c0c9b421f0b506a196d8c1b5", "rental_uris": {"android": "https://dc.lft.to/lastmile_qr_scan", "ios": "https://dc.lft.to/lastmile_qr_scan"}, "name": "7bcd1264c0c9b421f0b506a196d8c1b5", "is_reserved": 0}, {"is_disabled": 0, "fusion_lon": 0.0, "fusion_lat": 0.0, "lat": 38.91498883333333, "type": "electric_scooter", "lon": -77.03208716666667, "bike_id": "e0955ff13c41503c1fca0fab094ff8ea", "rental_uris": {"android": "https://dc.lft.to/lastmile_qr_scan", "ios": "https://dc.lft.to/lastmile_qr_scan"}, "name": "e0955ff13c41503c1fca0fab094ff8ea", "is_reserved": 0}, {"is_disabled": 0, "fusion_lon": 0.0, "fusion_lat": 0.0, "lat": 38.90149566666667, "type": "electric_scooter", "lon": -77.03998833333333, "bike_id": "7ce05cf0b601339338a1bf3feec37c03", "rental_uris": {"android": "https://dc.lft.to/lastmile_qr_scan", "ios": "https://dc.lft.to/lastmile_qr_scan"}, "name": "7ce05cf0b601339338a1bf3feec37c03", "is_reserved": 0}, {"is_disabled": 0, "fusion_lon": 0.0, "fusion_lat": 0.0, "lat": 38.94087716666667, "type": "electric_scooter", "lon": -77.0381505, "bike_id": "6f345db6518b2dc95dc40b13eed27c77", "rental_uris": {"android": "https://dc.lft.to/lastmile_qr_scan", "ios": "https://dc.lft.to/lastmile_qr_scan"}, "name": "6f345db6518b2dc95dc40b13eed27c77", "is_reserved": 0}, {"is_disabled": 0, "fusion_lon": 0.0, "fusion_lat": 0.0, "lat": 38.9056615, "type": "electric_scooter", "lon": -77.00603416666667, "bike_id": "1c45cf28b8022236fbbb544a44b10728", "rental_uris": {"android": "https://dc.lft.to/lastmile_qr_scan", "ios": "https://dc.lft.to/lastmile_qr_scan"}, "name": "1c45cf28b8022236fbbb544a44b10728", "is_reserved": 0}, {"is_disabled": 0, "fusion_lon": 0.0, "fusion_lat": 0.0, "lat": 38.971682666666666, "type": "electric_bike", "lon": -76.9802145, "bike_id": "f3e683fc8de9031d5e792c4e1faf9fe4", "rental_uris": {"android": "https://dc.lft.to/lastmile_qr_scan", "ios": "https://dc.lft.to/lastmile_qr_scan"}, "name": "f3e683fc8de9031d5e792c4e1faf9fe4", "is_reserved": 0}, {"is_disabled": 0, "fusion_lon": 0.0, "fusion_lat": 0.0, "lat": 38.89354983333333, "type": "electric_scooter", "lon": -76.984675, "bike_id": "60a7d5c97a828f89f1e95996b8362983", "rental_uris": {"android": "https://dc.lft.to/lastmile_qr_scan", "ios": "https://dc.lft.to/lastmile_qr_scan"}, "name": "60a7d5c97a828f89f1e95996b8362983", "is_reserved": 0}, {"is_disabled": 0, "fusion_lon": 0.0, "fusion_lat": 0.0, "lat": 38.93961983333333, "type": "electric_scooter", "lon": -77.0274875, "bike_id": "4063b4b9c4ec5eba9626e4160e328381", "rental_uris": {"android": "https://dc.lft.to/lastmile_qr_scan", "ios": "https://dc.lft.to/lastmile_qr_scan"}, "name": "4063b4b9c4ec5eba9626e4160e328381", "is_reserved": 0}, {"is_disabled": 0, "fusion_lon": 0.0, "fusion_lat": 0.0, "lat": 38.968039166666664, "type": "electric_scooter", "lon": -77.02117983333333, "bike_id": "0bc14931add3976f3a1340b7f83c2b88", "rental_uris": {"android": "https://dc.lft.to/lastmile_qr_scan", "ios": "https://dc.lft.to/lastmile_qr_scan"}, "name": "0bc14931add3976f3a1340b7f83c2b88", "is_reserved": 0}, {"is_disabled": 0, "fusion_lon": 0.0, "fusion_lat": 0.0, "lat": 38.901353666666665, "type": "electric_scooter", "lon": -77.01773766666666, "bike_id": "46babb7025562f458dbd532f5e693d35", "rental_uris": {"android": "https://dc.lft.to/lastmile_qr_scan", "ios": "https://dc.lft.to/lastmile_qr_scan"}, "name": "46babb7025562f458dbd532f5e693d35", "is_reserved": 0}, {"is_disabled": 0, "fusion_lon": 0.0, "fusion_lat": 0.0, "lat": 38.8801985, "type": "electric_scooter", "lon": -76.98240666666666, "bike_id": "a5efa0fa4718f28bf1d9117cd3df42e5", "rental_uris": {"android": "https://dc.lft.to/lastmile_qr_scan", "ios": "https://dc.lft.to/lastmile_qr_scan"}, "name": "a5efa0fa4718f28bf1d9117cd3df42e5", "is_reserved": 0}, {"is_disabled": 0, "fusion_lon": 0.0, "fusion_lat": 0.0, "lat": 38.858089166666666, "type": "electric_scooter", "lon": -76.986519, "bike_id": "1b0dae108aa09d82487c6344ad8b6104", "rental_uris": {"android": "https://dc.lft.to/lastmile_qr_scan", "ios": "https://dc.lft.to/lastmile_qr_scan"}, "name": "1b0dae108aa09d82487c6344ad8b6104", "is_reserved": 0}, {"is_disabled": 0, "fusion_lon": 0.0, "fusion_lat": 0.0, "lat": 38.915827666666665, "type": "electric_scooter", "lon": -76.98110283333334, "bike_id": "5e56ca6632a4358309137154e26244f2", "rental_uris": {"android": "https://dc.lft.to/lastmile_qr_scan", "ios": "https://dc.lft.to/lastmile_qr_scan"}, "name": "5e56ca6632a4358309137154e26244f2", "is_reserved": 0}, {"is_disabled": 0, "fusion_lon": 0.0, "fusion_lat": 0.0, "lat": 38.92858366666667, "type": "electric_scooter", "lon": -77.0140205, "bike_id": "998b16c9d2249e0ac5aae9936efc1550", "rental_uris": {"android": "https://dc.lft.to/lastmile_qr_scan", "ios": "https://dc.lft.to/lastmile_qr_scan"}, "name": "998b16c9d2249e0ac5aae9936efc1550", "is_reserved": 0}, {"is_disabled": 0, "fusion_lon": 0.0, "fusion_lat": 0.0, "lat": 38.84604683333333, "type": "electric_bike", "lon": -76.9688695, "bike_id": "98f5c91962c02ecc2b4fe6cce5274200", "rental_uris": {"android": "https://dc.lft.to/lastmile_qr_scan", "ios": "https://dc.lft.to/lastmile_qr_scan"}, "name": "98f5c91962c02ecc2b4fe6cce5274200", "is_reserved": 0}, {"is_disabled": 0, "fusion_lon": 0.0, "fusion_lat": 0.0, "lat": 38.924831166666664, "type": "electric_scooter", "lon": -77.0349015, "bike_id": "fe8da3ab58d9437d6786cd7cab4bea6f", "rental_uris": {"android": "https://dc.lft.to/lastmile_qr_scan", "ios": "https://dc.lft.to/lastmile_qr_scan"}, "name": "fe8da3ab58d9437d6786cd7cab4bea6f", "is_reserved": 0}, {"is_disabled": 0, "fusion_lon": 0.0, "fusion_lat": 0.0, "lat": 38.86320333333333, "type": "electric_scooter", "lon": -76.99053116666667, "bike_id": "8b986e094812ece04e9e028a01fe3bcc", "rental_uris": {"android": "https://dc.lft.to/lastmile_qr_scan", "ios": "https://dc.lft.to/lastmile_qr_scan"}, "name": "8b986e094812ece04e9e028a01fe3bcc", "is_reserved": 0}, {"is_disabled": 0, "fusion_lon": 0.0, "fusion_lat": 0.0, "lat": 38.96757216666666, "type": "electric_bike", "lon": -77.0916275, "bike_id": "c5795833dedc56a5a1a2498ed4232f41", "rental_uris": {"android": "https://dc.lft.to/lastmile_qr_scan", "ios": "https://dc.lft.to/lastmile_qr_scan"}, "name": "c5795833dedc56a5a1a2498ed4232f41", "is_reserved": 0}, {"is_disabled": 0, "fusion_lon": 0.0, "fusion_lat": 0.0, "lat": 38.89368433333333, "type": "electric_scooter", "lon": -77.02262666666667, "bike_id": "1d5d24eabb36c05811e9222c2710ea7d", "rental_uris": {"android": "https://dc.lft.to/lastmile_qr_scan", "ios": "https://dc.lft.to/lastmile_qr_scan"}, "name": "1d5d24eabb36c05811e9222c2710ea7d", "is_reserved": 0}, {"is_disabled": 0, "fusion_lon": 0.0, "fusion_lat": 0.0, "lat": 38.917052, "type": "electric_scooter", "lon": -77.03474433333334, "bike_id": "1b692ea702ef89ff784c569526247886", "rental_uris": {"android": "https://dc.lft.to/lastmile_qr_scan", "ios": "https://dc.lft.to/lastmile_qr_scan"}, "name": "1b692ea702ef89ff784c569526247886", "is_reserved": 0}, {"is_disabled": 0, "fusion_lon": 0.0, "fusion_lat": 0.0, "lat": 38.8420205, "type": "electric_bike", "lon": -77.1068375, "bike_id": "0043c309f8d7cd5806b49e41b6efb49b", "rental_uris": {"android": "https://dc.lft.to/lastmile_qr_scan", "ios": "https://dc.lft.to/lastmile_qr_scan"}, "name": "0043c309f8d7cd5806b49e41b6efb49b", "is_reserved": 0}, {"is_disabled": 0, "fusion_lon": 0.0, "fusion_lat": 0.0, "lat": 38.91955316666667, "type": "electric_scooter", "lon": -77.023848, "bike_id": "ba41dcbf6c435fb4e9814f30cc6cfaa9", "rental_uris": {"android": "https://dc.lft.to/lastmile_qr_scan", "ios": "https://dc.lft.to/lastmile_qr_scan"}, "name": "ba41dcbf6c435fb4e9814f30cc6cfaa9", "is_reserved": 0}, {"is_disabled": 0, "fusion_lon": 0.0, "fusion_lat": 0.0, "lat": 38.998915333333336, "type": "electric_bike", "lon": -77.02857416666667, "bike_id": "9a3c52914b1aba67001d53fd7fd5cb66", "rental_uris": {"android": "https://dc.lft.to/lastmile_qr_scan", "ios": "https://dc.lft.to/lastmile_qr_scan"}, "name": "9a3c52914b1aba67001d53fd7fd5cb66", "is_reserved": 0}, {"is_disabled": 0, "fusion_lon": 0.0, "fusion_lat": 0.0, "lat": 38.904922166666665, "type": "electric_scooter", "lon": -77.029686, "bike_id": "defe569ed2e8aba669cd23e910c32360", "rental_uris": {"android": "https://dc.lft.to/lastmile_qr_scan", "ios": "https://dc.lft.to/lastmile_qr_scan"}, "name": "defe569ed2e8aba669cd23e910c32360", "is_reserved": 0}, {"is_disabled": 0, "fusion_lon": 0.0, "fusion_lat": 0.0, "lat": 38.93753316666667, "type": "electric_scooter", "lon": -77.02459066666667, "bike_id": "8bc5930f807c216761425d1183ea0b8c", "rental_uris": {"android": "https://dc.lft.to/lastmile_qr_scan", "ios": "https://dc.lft.to/lastmile_qr_scan"}, "name": "8bc5930f807c216761425d1183ea0b8c", "is_reserved": 0}, {"is_disabled": 0, "fusion_lon": 0.0, "fusion_lat": 0.0, "lat": 38.95636, "type": "electric_scooter", "lon": -77.02977583333333, "bike_id": "6c9149b314aa43432fd82ecf0707f504", "rental_uris": {"android": "https://dc.lft.to/lastmile_qr_scan", "ios": "https://dc.lft.to/lastmile_qr_scan"}, "name": "6c9149b314aa43432fd82ecf0707f504", "is_reserved": 0}, {"is_disabled": 0, "fusion_lon": 0.0, "fusion_lat": 0.0, "lat": 38.92742166666667, "type": "electric_bike", "lon": -76.99361083333334, "bike_id": "4f0eb06474373549e4bf225698c42ec6", "rental_uris": {"android": "https://dc.lft.to/lastmile_qr_scan", "ios": "https://dc.lft.to/lastmile_qr_scan"}, "name": "4f0eb06474373549e4bf225698c42ec6", "is_reserved": 0}, {"is_disabled": 0, "fusion_lon": 0.0, "fusion_lat": 0.0, "lat": 38.881727, "type": "electric_scooter", "lon": -77.00868983333334, "bike_id": "4f90ddd1042fac9d1626be19a98d5696", "rental_uris": {"android": "https://dc.lft.to/lastmile_qr_scan", "ios": "https://dc.lft.to/lastmile_qr_scan"}, "name": "4f90ddd1042fac9d1626be19a98d5696", "is_reserved": 0}, {"is_disabled": 0, "fusion_lon": 0.0, "fusion_lat": 0.0, "lat": 38.85976633333333, "type": "electric_scooter", "lon": -76.9841855, "bike_id": "398e2643a4282b4de122dc01c92f18ed", "rental_uris": {"android": "https://dc.lft.to/lastmile_qr_scan", "ios": "https://dc.lft.to/lastmile_qr_scan"}, "name": "398e2643a4282b4de122dc01c92f18ed", "is_reserved": 0}, {"is_disabled": 0, "fusion_lon": 0.0, "fusion_lat": 0.0, "lat": 38.85070433333333, "type": "electric_bike", "lon": -76.97330166666667, "bike_id": "edb124972442ec6864477a3b5ea29a94", "rental_uris": {"android": "https://dc.lft.to/lastmile_qr_scan", "ios": "https://dc.lft.to/lastmile_qr_scan"}, "name": "edb124972442ec6864477a3b5ea29a94", "is_reserved": 0}, {"is_disabled": 0, "fusion_lon": 0.0, "fusion_lat": 0.0, "lat": 38.919035666666666, "type": "electric_scooter", "lon": -77.027593, "bike_id": "adb7eeb2c610de64c0d77781b36afc93", "rental_uris": {"android": "https://dc.lft.to/lastmile_qr_scan", "ios": "https://dc.lft.to/lastmile_qr_scan"}, "name": "adb7eeb2c610de64c0d77781b36afc93", "is_reserved": 0}, {"is_disabled": 0, "fusion_lon": 0.0, "fusion_lat": 0.0, "lat": 38.918048166666665, "type": "electric_scooter", "lon": -77.03546016666667, "bike_id": "5c451cdbe97f86262a32114df9276c6e", "rental_uris": {"android": "https://dc.lft.to/lastmile_qr_scan", "ios": "https://dc.lft.to/lastmile_qr_scan"}, "name": "5c451cdbe97f86262a32114df9276c6e", "is_reserved": 0}, {"is_disabled": 0, "fusion_lon": 0.0, "fusion_lat": 0.0, "lat": 38.92795383333333, "type": "electric_scooter", "lon": -77.02298083333334, "bike_id": "cc8baf0446955bda6f66bc009078e6fd", "rental_uris": {"android": "https://dc.lft.to/lastmile_qr_scan", "ios": "https://dc.lft.to/lastmile_qr_scan"}, "name": "cc8baf0446955bda6f66bc009078e6fd", "is_reserved": 0}, {"is_disabled": 0, "fusion_lon": 0.0, "fusion_lat": 0.0, "lat": 38.96099433333333, "type": "electric_scooter", "lon": -77.068967, "bike_id": "b6752a38255b2d6faf37792341276f80", "rental_uris": {"android": "https://dc.lft.to/lastmile_qr_scan", "ios": "https://dc.lft.to/lastmile_qr_scan"}, "name": "b6752a38255b2d6faf37792341276f80", "is_reserved": 0}, {"is_disabled": 0, "fusion_lon": 0.0, "fusion_lat": 0.0, "lat": 38.908766666666665, "type": "electric_scooter", "lon": -77.03543783333333, "bike_id": "ac3e47d3550c123dd09f75dce5b2a450", "rental_uris": {"android": "https://dc.lft.to/lastmile_qr_scan", "ios": "https://dc.lft.to/lastmile_qr_scan"}, "name": "ac3e47d3550c123dd09f75dce5b2a450", "is_reserved": 0}, {"is_disabled": 0, "fusion_lon": 0.0, "fusion_lat": 0.0, "lat": 38.91184, "type": "electric_scooter", "lon": -77.03510516666667, "bike_id": "8052121cfc4d9468ceb049fda5a6e26e", "rental_uris": {"android": "https://dc.lft.to/lastmile_qr_scan", "ios": "https://dc.lft.to/lastmile_qr_scan"}, "name": "8052121cfc4d9468ceb049fda5a6e26e", "is_reserved": 0}, {"is_disabled": 0, "fusion_lon": 0.0, "fusion_lat": 0.0, "lat": 38.93409033333333, "type": "electric_scooter", "lon": -77.032625, "bike_id": "dcf3cdf5a2bc719a73da63c1b9bedc9e", "rental_uris": {"android": "https://dc.lft.to/lastmile_qr_scan", "ios": "https://dc.lft.to/lastmile_qr_scan"}, "name": "dcf3cdf5a2bc719a73da63c1b9bedc9e", "is_reserved": 0}, {"is_disabled": 0, "fusion_lon": 0.0, "fusion_lat": 0.0, "lat": 38.865265, "type": "electric_scooter", "lon": -76.98967166666667, "bike_id": "1ce90d6b195bcc42cba85b302d437511", "rental_uris": {"android": "https://dc.lft.to/lastmile_qr_scan", "ios": "https://dc.lft.to/lastmile_qr_scan"}, "name": "1ce90d6b195bcc42cba85b302d437511", "is_reserved": 0}, {"is_disabled": 0, "fusion_lon": 0.0, "fusion_lat": 0.0, "lat": 38.90352983333333, "type": "electric_scooter", "lon": -77.01618516666667, "bike_id": "f81ea2d08e1950bd576c63dc8522b297", "rental_uris": {"android": "https://dc.lft.to/lastmile_qr_scan", "ios": "https://dc.lft.to/lastmile_qr_scan"}, "name": "f81ea2d08e1950bd576c63dc8522b297", "is_reserved": 0}, {"is_disabled": 0, "fusion_lon": 0.0, "fusion_lat": 0.0, "lat": 38.9161595, "type": "electric_scooter", "lon": -77.03137983333333, "bike_id": "3f4ae03b9752d60490fd060304138a53", "rental_uris": {"android": "https://dc.lft.to/lastmile_qr_scan", "ios": "https://dc.lft.to/lastmile_qr_scan"}, "name": "3f4ae03b9752d60490fd060304138a53", "is_reserved": 0}, {"is_disabled": 0, "fusion_lon": 0.0, "fusion_lat": 0.0, "lat": 38.929747666666664, "type": "electric_scooter", "lon": -77.020773, "bike_id": "1eeb50e4980c98dac698428bf5e282e7", "rental_uris": {"android": "https://dc.lft.to/lastmile_qr_scan", "ios": "https://dc.lft.to/lastmile_qr_scan"}, "name": "1eeb50e4980c98dac698428bf5e282e7", "is_reserved": 0}, {"is_disabled": 0, "fusion_lon": 0.0, "fusion_lat": 0.0, "lat": 38.93480383333333, "type": "electric_scooter", "lon": -77.03576333333334, "bike_id": "c0be99fa4df0729e18a63be633a8027b", "rental_uris": {"android": "https://dc.lft.to/lastmile_qr_scan", "ios": "https://dc.lft.to/lastmile_qr_scan"}, "name": "c0be99fa4df0729e18a63be633a8027b", "is_reserved": 0}, {"is_disabled": 0, "fusion_lon": 0.0, "fusion_lat": 0.0, "lat": 38.901543333333336, "type": "electric_scooter", "lon": -77.02311783333333, "bike_id": "065b70fc204d15213dbb4330c7959729", "rental_uris": {"android": "https://dc.lft.to/lastmile_qr_scan", "ios": "https://dc.lft.to/lastmile_qr_scan"}, "name": "065b70fc204d15213dbb4330c7959729", "is_reserved": 0}, {"is_disabled": 0, "fusion_lon": 0.0, "fusion_lat": 0.0, "lat": 38.8960765, "type": "electric_scooter", "lon": -77.00936483333334, "bike_id": "75dfa24cc05e9401f62e8b93f8d4ca52", "rental_uris": {"android": "https://dc.lft.to/lastmile_qr_scan", "ios": "https://dc.lft.to/lastmile_qr_scan"}, "name": "75dfa24cc05e9401f62e8b93f8d4ca52", "is_reserved": 0}, {"is_disabled": 0, "fusion_lon": 0.0, "fusion_lat": 0.0, "lat": 38.911683, "type": "electric_scooter", "lon": -77.04159783333333, "bike_id": "154482631c228dc16fab17c3032b903d", "rental_uris": {"android": "https://dc.lft.to/lastmile_qr_scan", "ios": "https://dc.lft.to/lastmile_qr_scan"}, "name": "154482631c228dc16fab17c3032b903d", "is_reserved": 0}, {"is_disabled": 0, "fusion_lon": 0.0, "fusion_lat": 0.0, "lat": 38.9103755, "type": "electric_scooter", "lon": -77.04011433333334, "bike_id": "1264ff6b5508f9a127bb82f272d89517", "rental_uris": {"android": "https://dc.lft.to/lastmile_qr_scan", "ios": "https://dc.lft.to/lastmile_qr_scan"}, "name": "1264ff6b5508f9a127bb82f272d89517", "is_reserved": 0}, {"is_disabled": 0, "fusion_lon": 0.0, "fusion_lat": 0.0, "lat": 38.90683033333333, "type": "electric_scooter", "lon": -76.98001816666667, "bike_id": "84162ab009e383388f829b8607948e05", "rental_uris": {"android": "https://dc.lft.to/lastmile_qr_scan", "ios": "https://dc.lft.to/lastmile_qr_scan"}, "name": "84162ab009e383388f829b8607948e05", "is_reserved": 0}, {"is_disabled": 0, "fusion_lon": 0.0, "fusion_lat": 0.0, "lat": 38.942051666666664, "type": "electric_scooter", "lon": -77.02595066666666, "bike_id": "8cc8a290b0fb6790b388fc10b48d61f4", "rental_uris": {"android": "https://dc.lft.to/lastmile_qr_scan", "ios": "https://dc.lft.to/lastmile_qr_scan"}, "name": "8cc8a290b0fb6790b388fc10b48d61f4", "is_reserved": 0}, {"is_disabled": 0, "fusion_lon": 0.0, "fusion_lat": 0.0, "lat": 38.935275, "type": "electric_scooter", "lon": -77.0543875, "bike_id": "08dd20898a897656a1577a20a906fee9", "rental_uris": {"android": "https://dc.lft.to/lastmile_qr_scan", "ios": "https://dc.lft.to/lastmile_qr_scan"}, "name": "08dd20898a897656a1577a20a906fee9", "is_reserved": 0}, {"is_disabled": 0, "fusion_lon": 0.0, "fusion_lat": 0.0, "lat": 38.858084833333336, "type": "electric_scooter", "lon": -76.98655766666667, "bike_id": "734162bd5eb8d2971f3c7d13eb75861c", "rental_uris": {"android": "https://dc.lft.to/lastmile_qr_scan", "ios": "https://dc.lft.to/lastmile_qr_scan"}, "name": "734162bd5eb8d2971f3c7d13eb75861c", "is_reserved": 0}, {"is_disabled": 0, "fusion_lon": 0.0, "fusion_lat": 0.0, "lat": 38.9141735, "type": "electric_scooter", "lon": -77.02971716666667, "bike_id": "bccb14ae6a346e9942780ea9314b5d99", "rental_uris": {"android": "https://dc.lft.to/lastmile_qr_scan", "ios": "https://dc.lft.to/lastmile_qr_scan"}, "name": "bccb14ae6a346e9942780ea9314b5d99", "is_reserved": 0}, {"is_disabled": 0, "fusion_lon": 0.0, "fusion_lat": 0.0, "lat": 38.917803166666666, "type": "electric_scooter", "lon": -77.0414935, "bike_id": "50f9dc9f5e374acfe62cdc169f63a16a", "rental_uris": {"android": "https://dc.lft.to/lastmile_qr_scan", "ios": "https://dc.lft.to/lastmile_qr_scan"}, "name": "50f9dc9f5e374acfe62cdc169f63a16a", "is_reserved": 0}, {"is_disabled": 0, "fusion_lon": 0.0, "fusion_lat": 0.0, "lat": 38.900156333333335, "type": "electric_scooter", "lon": -77.03358283333333, "bike_id": "97dc1a34e61e96de1b5aa41a91805b03", "rental_uris": {"android": "https://dc.lft.to/lastmile_qr_scan", "ios": "https://dc.lft.to/lastmile_qr_scan"}, "name": "97dc1a34e61e96de1b5aa41a91805b03", "is_reserved": 0}, {"is_disabled": 0, "fusion_lon": 0.0, "fusion_lat": 0.0, "lat": 38.921402666666665, "type": "electric_scooter", "lon": -77.044255, "bike_id": "56367efbf9e56d711742b19f630f1654", "rental_uris": {"android": "https://dc.lft.to/lastmile_qr_scan", "ios": "https://dc.lft.to/lastmile_qr_scan"}, "name": "56367efbf9e56d711742b19f630f1654", "is_reserved": 0}, {"is_disabled": 0, "fusion_lon": 0.0, "fusion_lat": 0.0, "lat": 38.9212405, "type": "electric_scooter", "lon": -77.04391883333334, "bike_id": "c127d5c2a4d7d7d12753f56d4fc158bd", "rental_uris": {"android": "https://dc.lft.to/lastmile_qr_scan", "ios": "https://dc.lft.to/lastmile_qr_scan"}, "name": "c127d5c2a4d7d7d12753f56d4fc158bd", "is_reserved": 0}, {"is_disabled": 0, "fusion_lon": 0.0, "fusion_lat": 0.0, "lat": 38.904747, "type": "electric_bike", "lon": -76.92949366666667, "bike_id": "f71c9809d33b29403911a8c87a12bc67", "rental_uris": {"android": "https://dc.lft.to/lastmile_qr_scan", "ios": "https://dc.lft.to/lastmile_qr_scan"}, "name": "f71c9809d33b29403911a8c87a12bc67", "is_reserved": 0}, {"is_disabled": 0, "fusion_lon": 0.0, "fusion_lat": 0.0, "lat": 38.857912, "type": "electric_bike", "lon": -76.98750483333333, "bike_id": "310076b8da67a3083b7ab26723a446e3", "rental_uris": {"android": "https://dc.lft.to/lastmile_qr_scan", "ios": "https://dc.lft.to/lastmile_qr_scan"}, "name": "310076b8da67a3083b7ab26723a446e3", "is_reserved": 0}, {"is_disabled": 0, "fusion_lon": 0.0, "fusion_lat": 0.0, "lat": 38.85285616666667, "type": "electric_bike", "lon": -76.98155783333333, "bike_id": "7318ddc3b3decf987ac923c846acb140", "rental_uris": {"android": "https://dc.lft.to/lastmile_qr_scan", "ios": "https://dc.lft.to/lastmile_qr_scan"}, "name": "7318ddc3b3decf987ac923c846acb140", "is_reserved": 0}, {"is_disabled": 0, "fusion_lon": 0.0, "fusion_lat": 0.0, "lat": 38.94331583333334, "type": "electric_bike", "lon": -77.01479783333333, "bike_id": "64698e8e431331d7fc1adc43baf9bb51", "rental_uris": {"android": "https://dc.lft.to/lastmile_qr_scan", "ios": "https://dc.lft.to/lastmile_qr_scan"}, "name": "64698e8e431331d7fc1adc43baf9bb51", "is_reserved": 0}, {"is_disabled": 0, "fusion_lon": 0.0, "fusion_lat": 0.0, "lat": 38.90576816666667, "type": "electric_scooter", "lon": -77.05594233333333, "bike_id": "30c931a3810fe455748d2ab690fb9923", "rental_uris": {"android": "https://dc.lft.to/lastmile_qr_scan", "ios": "https://dc.lft.to/lastmile_qr_scan"}, "name": "30c931a3810fe455748d2ab690fb9923", "is_reserved": 0}, {"is_disabled": 0, "fusion_lon": 0.0, "fusion_lat": 0.0, "lat": 38.9045365, "type": "electric_scooter", "lon": -77.02416266666667, "bike_id": "da2c6b1eea3e950f4f1881bfa73d4348", "rental_uris": {"android": "https://dc.lft.to/lastmile_qr_scan", "ios": "https://dc.lft.to/lastmile_qr_scan"}, "name": "da2c6b1eea3e950f4f1881bfa73d4348", "is_reserved": 0}, {"is_disabled": 0, "fusion_lon": 0.0, "fusion_lat": 0.0, "lat": 38.908571333333335, "type": "electric_scooter", "lon": -77.06076983333334, "bike_id": "0b2824be440da3f686190067c10cd407", "rental_uris": {"android": "https://dc.lft.to/lastmile_qr_scan", "ios": "https://dc.lft.to/lastmile_qr_scan"}, "name": "0b2824be440da3f686190067c10cd407", "is_reserved": 0}, {"is_disabled": 0, "fusion_lon": 0.0, "fusion_lat": 0.0, "lat": 38.897473, "type": "electric_scooter", "lon": -77.05123616666667, "bike_id": "a235170fbf586b3c56381bda2ccf5954", "rental_uris": {"android": "https://dc.lft.to/lastmile_qr_scan", "ios": "https://dc.lft.to/lastmile_qr_scan"}, "name": "a235170fbf586b3c56381bda2ccf5954", "is_reserved": 0}, {"is_disabled": 0, "fusion_lon": 0.0, "fusion_lat": 0.0, "lat": 38.93636816666667, "type": "electric_scooter", "lon": -77.02698166666667, "bike_id": "2ef8f27973547d1deb081b22fc15620c", "rental_uris": {"android": "https://dc.lft.to/lastmile_qr_scan", "ios": "https://dc.lft.to/lastmile_qr_scan"}, "name": "2ef8f27973547d1deb081b22fc15620c", "is_reserved": 0}, {"is_disabled": 0, "fusion_lon": 0.0, "fusion_lat": 0.0, "lat": 38.93523583333333, "type": "electric_scooter", "lon": -77.06632283333333, "bike_id": "148f708baf1d307f63c1f9bf0dfd0160", "rental_uris": {"android": "https://dc.lft.to/lastmile_qr_scan", "ios": "https://dc.lft.to/lastmile_qr_scan"}, "name": "148f708baf1d307f63c1f9bf0dfd0160", "is_reserved": 0}, {"is_disabled": 0, "fusion_lon": 0.0, "fusion_lat": 0.0, "lat": 38.91044333333333, "type": "electric_scooter", "lon": -77.04286416666666, "bike_id": "174ddc7ece223fcaa12bb822708e892c", "rental_uris": {"android": "https://dc.lft.to/lastmile_qr_scan", "ios": "https://dc.lft.to/lastmile_qr_scan"}, "name": "174ddc7ece223fcaa12bb822708e892c", "is_reserved": 0}, {"is_disabled": 0, "fusion_lon": 0.0, "fusion_lat": 0.0, "lat": 38.916051333333336, "type": "electric_scooter", "lon": -77.04603433333334, "bike_id": "210f60d82da93ff06865f6c2dbabdd0e", "rental_uris": {"android": "https://dc.lft.to/lastmile_qr_scan", "ios": "https://dc.lft.to/lastmile_qr_scan"}, "name": "210f60d82da93ff06865f6c2dbabdd0e", "is_reserved": 0}, {"is_disabled": 0, "fusion_lon": 0.0, "fusion_lat": 0.0, "lat": 38.91785816666667, "type": "electric_scooter", "lon": -77.043051, "bike_id": "fefdf62f925b7f17613678476a555ffa", "rental_uris": {"android": "https://dc.lft.to/lastmile_qr_scan", "ios": "https://dc.lft.to/lastmile_qr_scan"}, "name": "fefdf62f925b7f17613678476a555ffa", "is_reserved": 0}, {"is_disabled": 0, "fusion_lon": 0.0, "fusion_lat": 0.0, "lat": 38.925562666666664, "type": "electric_bike", "lon": -77.001394, "bike_id": "0b2f8b92a7ad3497cb85ed90e03c44ca", "rental_uris": {"android": "https://dc.lft.to/lastmile_qr_scan", "ios": "https://dc.lft.to/lastmile_qr_scan"}, "name": "0b2f8b92a7ad3497cb85ed90e03c44ca", "is_reserved": 0}, {"is_disabled": 0, "fusion_lon": 0.0, "fusion_lat": 0.0, "lat": 38.90703233333333, "type": "electric_scooter", "lon": -76.98692316666667, "bike_id": "51892591c32001e89ca983b95da0277e", "rental_uris": {"android": "https://dc.lft.to/lastmile_qr_scan", "ios": "https://dc.lft.to/lastmile_qr_scan"}, "name": "51892591c32001e89ca983b95da0277e", "is_reserved": 0}, {"is_disabled": 0, "fusion_lon": 0.0, "fusion_lat": 0.0, "lat": 38.924590333333335, "type": "electric_bike", "lon": -76.99950866666667, "bike_id": "152f6913ef857e5db4ee018c052c5a80", "rental_uris": {"android": "https://dc.lft.to/lastmile_qr_scan", "ios": "https://dc.lft.to/lastmile_qr_scan"}, "name": "152f6913ef857e5db4ee018c052c5a80", "is_reserved": 0}, {"is_disabled": 0, "fusion_lon": 0.0, "fusion_lat": 0.0, "lat": 38.919063333333334, "type": "electric_scooter", "lon": -77.02755316666666, "bike_id": "5d6eb085fd19fc12447bcc31621fd318", "rental_uris": {"android": "https://dc.lft.to/lastmile_qr_scan", "ios": "https://dc.lft.to/lastmile_qr_scan"}, "name": "5d6eb085fd19fc12447bcc31621fd318", "is_reserved": 0}, {"is_disabled": 0, "fusion_lon": 0.0, "fusion_lat": 0.0, "lat": 38.89764316666667, "type": "electric_scooter", "lon": -77.0276545, "bike_id": "85c4140cdac2aabb976906e543a2baf2", "rental_uris": {"android": "https://dc.lft.to/lastmile_qr_scan", "ios": "https://dc.lft.to/lastmile_qr_scan"}, "name": "85c4140cdac2aabb976906e543a2baf2", "is_reserved": 0}, {"is_disabled": 0, "fusion_lon": 0.0, "fusion_lat": 0.0, "lat": 38.87347916666667, "type": "electric_scooter", "lon": -77.01739, "bike_id": "9d60c31937aeb9da5ef5d2f3010990fb", "rental_uris": {"android": "https://dc.lft.to/lastmile_qr_scan", "ios": "https://dc.lft.to/lastmile_qr_scan"}, "name": "9d60c31937aeb9da5ef5d2f3010990fb", "is_reserved": 0}, {"is_disabled": 0, "fusion_lon": 0.0, "fusion_lat": 0.0, "lat": 38.9452475, "type": "electric_bike", "lon": -77.0264575, "bike_id": "85d3d85ffd53e6361971101252b06935", "rental_uris": {"android": "https://dc.lft.to/lastmile_qr_scan", "ios": "https://dc.lft.to/lastmile_qr_scan"}, "name": "85d3d85ffd53e6361971101252b06935", "is_reserved": 0}, {"is_disabled": 0, "fusion_lon": 0.0, "fusion_lat": 0.0, "lat": 38.869566166666665, "type": "electric_scooter", "lon": -76.979335, "bike_id": "1713a652a9dc1fcd0c8860a3190f8956", "rental_uris": {"android": "https://dc.lft.to/lastmile_qr_scan", "ios": "https://dc.lft.to/lastmile_qr_scan"}, "name": "1713a652a9dc1fcd0c8860a3190f8956", "is_reserved": 0}, {"is_disabled": 0, "fusion_lon": 0.0, "fusion_lat": 0.0, "lat": 38.925510833333334, "type": "electric_scooter", "lon": -77.02569433333333, "bike_id": "60cdc4f78e2b8f8bd0ada8408144d2cf", "rental_uris": {"android": "https://dc.lft.to/lastmile_qr_scan", "ios": "https://dc.lft.to/lastmile_qr_scan"}, "name": "60cdc4f78e2b8f8bd0ada8408144d2cf", "is_reserved": 0}, {"is_disabled": 0, "fusion_lon": 0.0, "fusion_lat": 0.0, "lat": 38.91812766666666, "type": "electric_scooter", "lon": -77.023974, "bike_id": "989fe139eef5b87f2a6bd02804430e32", "rental_uris": {"android": "https://dc.lft.to/lastmile_qr_scan", "ios": "https://dc.lft.to/lastmile_qr_scan"}, "name": "989fe139eef5b87f2a6bd02804430e32", "is_reserved": 0}, {"is_disabled": 0, "fusion_lon": 0.0, "fusion_lat": 0.0, "lat": 38.90669333333334, "type": "electric_scooter", "lon": -77.0271875, "bike_id": "9e687a611587d8afb01fa01c835551fc", "rental_uris": {"android": "https://dc.lft.to/lastmile_qr_scan", "ios": "https://dc.lft.to/lastmile_qr_scan"}, "name": "9e687a611587d8afb01fa01c835551fc", "is_reserved": 0}, {"is_disabled": 0, "fusion_lon": 0.0, "fusion_lat": 0.0, "lat": 38.928289, "type": "electric_scooter", "lon": -77.02253266666666, "bike_id": "0895655ed930e299fc1f6164a1f9cae7", "rental_uris": {"android": "https://dc.lft.to/lastmile_qr_scan", "ios": "https://dc.lft.to/lastmile_qr_scan"}, "name": "0895655ed930e299fc1f6164a1f9cae7", "is_reserved": 0}, {"is_disabled": 0, "fusion_lon": 0.0, "fusion_lat": 0.0, "lat": 38.90515333333333, "type": "electric_scooter", "lon": -77.026071, "bike_id": "29a7b47244c2c33e6b33537243e36cfc", "rental_uris": {"android": "https://dc.lft.to/lastmile_qr_scan", "ios": "https://dc.lft.to/lastmile_qr_scan"}, "name": "29a7b47244c2c33e6b33537243e36cfc", "is_reserved": 0}, {"is_disabled": 0, "fusion_lon": 0.0, "fusion_lat": 0.0, "lat": 38.923003666666666, "type": "electric_scooter", "lon": -77.04016516666667, "bike_id": "a8ad2946bba49a7b8d30c22c11783a6e", "rental_uris": {"android": "https://dc.lft.to/lastmile_qr_scan", "ios": "https://dc.lft.to/lastmile_qr_scan"}, "name": "a8ad2946bba49a7b8d30c22c11783a6e", "is_reserved": 0}, {"is_disabled": 0, "fusion_lon": 0.0, "fusion_lat": 0.0, "lat": 38.90353783333333, "type": "electric_scooter", "lon": -77.02541833333333, "bike_id": "b2b58135c21983fd997e30b8c1509452", "rental_uris": {"android": "https://dc.lft.to/lastmile_qr_scan", "ios": "https://dc.lft.to/lastmile_qr_scan"}, "name": "b2b58135c21983fd997e30b8c1509452", "is_reserved": 0}, {"is_disabled": 0, "fusion_lon": 0.0, "fusion_lat": 0.0, "lat": 38.88759833333334, "type": "electric_scooter", "lon": -77.033833, "bike_id": "8a8e54183807df97c947ac90eba08537", "rental_uris": {"android": "https://dc.lft.to/lastmile_qr_scan", "ios": "https://dc.lft.to/lastmile_qr_scan"}, "name": "8a8e54183807df97c947ac90eba08537", "is_reserved": 0}, {"is_disabled": 0, "fusion_lon": 0.0, "fusion_lat": 0.0, "lat": 38.9186645, "type": "electric_scooter", "lon": -77.0350685, "bike_id": "40441d2eaa8414bc6b8739aa8592b37d", "rental_uris": {"android": "https://dc.lft.to/lastmile_qr_scan", "ios": "https://dc.lft.to/lastmile_qr_scan"}, "name": "40441d2eaa8414bc6b8739aa8592b37d", "is_reserved": 0}, {"is_disabled": 0, "fusion_lon": 0.0, "fusion_lat": 0.0, "lat": 38.87677816666667, "type": "electric_bike", "lon": -77.01454283333334, "bike_id": "a2e64ebd63371490144bcca7cb8819bb", "rental_uris": {"android": "https://dc.lft.to/lastmile_qr_scan", "ios": "https://dc.lft.to/lastmile_qr_scan"}, "name": "a2e64ebd63371490144bcca7cb8819bb", "is_reserved": 0}, {"is_disabled": 0, "fusion_lon": 0.0, "fusion_lat": 0.0, "lat": 39.05813716666667, "type": "electric_bike", "lon": -77.12627183333333, "bike_id": "761aefb2004176217d95ce57ad0f98c5", "rental_uris": {"android": "https://dc.lft.to/lastmile_qr_scan", "ios": "https://dc.lft.to/lastmile_qr_scan"}, "name": "761aefb2004176217d95ce57ad0f98c5", "is_reserved": 0}, {"is_disabled": 0, "fusion_lon": 0.0, "fusion_lat": 0.0, "lat": 38.94155283333333, "type": "electric_bike", "lon": -77.00194416666666, "bike_id": "6d3fc4b28981f22d8fe7f0638ab78697", "rental_uris": {"android": "https://dc.lft.to/lastmile_qr_scan", "ios": "https://dc.lft.to/lastmile_qr_scan"}, "name": "6d3fc4b28981f22d8fe7f0638ab78697", "is_reserved": 0}, {"is_disabled": 0, "fusion_lon": 0.0, "fusion_lat": 0.0, "lat": 38.92654816666666, "type": "electric_scooter", "lon": -77.02436033333333, "bike_id": "6af6d23afa485689abfa433c0b06885d", "rental_uris": {"android": "https://dc.lft.to/lastmile_qr_scan", "ios": "https://dc.lft.to/lastmile_qr_scan"}, "name": "6af6d23afa485689abfa433c0b06885d", "is_reserved": 0}, {"is_disabled": 0, "fusion_lon": 0.0, "fusion_lat": 0.0, "lat": 38.92748383333333, "type": "electric_scooter", "lon": -77.02482816666667, "bike_id": "4abe2334b8b0eec54bab536540749fa3", "rental_uris": {"android": "https://dc.lft.to/lastmile_qr_scan", "ios": "https://dc.lft.to/lastmile_qr_scan"}, "name": "4abe2334b8b0eec54bab536540749fa3", "is_reserved": 0}, {"is_disabled": 0, "fusion_lon": 0.0, "fusion_lat": 0.0, "lat": 38.929221, "type": "electric_scooter", "lon": -77.02156083333334, "bike_id": "b82c8dffead6851a011585e906163dd1", "rental_uris": {"android": "https://dc.lft.to/lastmile_qr_scan", "ios": "https://dc.lft.to/lastmile_qr_scan"}, "name": "b82c8dffead6851a011585e906163dd1", "is_reserved": 0}, {"is_disabled": 0, "fusion_lon": 0.0, "fusion_lat": 0.0, "lat": 38.930944, "type": "electric_scooter", "lon": -77.02498016666667, "bike_id": "2b6fd7a96d6cdedb846ab8248756ed6d", "rental_uris": {"android": "https://dc.lft.to/lastmile_qr_scan", "ios": "https://dc.lft.to/lastmile_qr_scan"}, "name": "2b6fd7a96d6cdedb846ab8248756ed6d", "is_reserved": 0}, {"is_disabled": 0, "fusion_lon": 0.0, "fusion_lat": 0.0, "lat": 38.90875533333333, "type": "electric_scooter", "lon": -77.076354, "bike_id": "4667b78669620682db7886c973bfdd62", "rental_uris": {"android": "https://dc.lft.to/lastmile_qr_scan", "ios": "https://dc.lft.to/lastmile_qr_scan"}, "name": "4667b78669620682db7886c973bfdd62", "is_reserved": 0}, {"is_disabled": 0, "fusion_lon": 0.0, "fusion_lat": 0.0, "lat": 38.897399666666665, "type": "electric_scooter", "lon": -77.003256, "bike_id": "7434400afacb819d7e02b7d39eeb19f8", "rental_uris": {"android": "https://dc.lft.to/lastmile_qr_scan", "ios": "https://dc.lft.to/lastmile_qr_scan"}, "name": "7434400afacb819d7e02b7d39eeb19f8", "is_reserved": 0}, {"is_disabled": 0, "fusion_lon": 0.0, "fusion_lat": 0.0, "lat": 38.920650333333334, "type": "electric_scooter", "lon": -77.04356033333333, "bike_id": "128914073a1a28512d0faba175c39d76", "rental_uris": {"android": "https://dc.lft.to/lastmile_qr_scan", "ios": "https://dc.lft.to/lastmile_qr_scan"}, "name": "128914073a1a28512d0faba175c39d76", "is_reserved": 0}, {"is_disabled": 0, "fusion_lon": 0.0, "fusion_lat": 0.0, "lat": 38.93540016666667, "type": "electric_scooter", "lon": -77.0342315, "bike_id": "418094f5577297604f019b0867a100a5", "rental_uris": {"android": "https://dc.lft.to/lastmile_qr_scan", "ios": "https://dc.lft.to/lastmile_qr_scan"}, "name": "418094f5577297604f019b0867a100a5", "is_reserved": 0}, {"is_disabled": 0, "fusion_lon": 0.0, "fusion_lat": 0.0, "lat": 38.9118975, "type": "electric_scooter", "lon": -77.0044225, "bike_id": "8b7882678eeeebc5f33c174f4cde314b", "rental_uris": {"android": "https://dc.lft.to/lastmile_qr_scan", "ios": "https://dc.lft.to/lastmile_qr_scan"}, "name": "8b7882678eeeebc5f33c174f4cde314b", "is_reserved": 0}, {"is_disabled": 0, "fusion_lon": 0.0, "fusion_lat": 0.0, "lat": 38.89556833333333, "type": "electric_scooter", "lon": -77.011, "bike_id": "46ba6002e56f480651d5db19c636803c", "rental_uris": {"android": "https://dc.lft.to/lastmile_qr_scan", "ios": "https://dc.lft.to/lastmile_qr_scan"}, "name": "46ba6002e56f480651d5db19c636803c", "is_reserved": 0}, {"is_disabled": 0, "fusion_lon": 0.0, "fusion_lat": 0.0, "lat": 38.919144333333335, "type": "electric_scooter", "lon": -77.03025416666667, "bike_id": "a5c519d481a67280dcf83c8c7e41838c", "rental_uris": {"android": "https://dc.lft.to/lastmile_qr_scan", "ios": "https://dc.lft.to/lastmile_qr_scan"}, "name": "a5c519d481a67280dcf83c8c7e41838c", "is_reserved": 0}, {"is_disabled": 0, "fusion_lon": 0.0, "fusion_lat": 0.0, "lat": 38.949844166666665, "type": "electric_scooter", "lon": -77.0270295, "bike_id": "1d2d81bb7fd35786692ff14b8f88b828", "rental_uris": {"android": "https://dc.lft.to/lastmile_qr_scan", "ios": "https://dc.lft.to/lastmile_qr_scan"}, "name": "1d2d81bb7fd35786692ff14b8f88b828", "is_reserved": 0}, {"is_disabled": 0, "fusion_lon": 0.0, "fusion_lat": 0.0, "lat": 38.915383166666665, "type": "electric_scooter", "lon": -77.01837766666667, "bike_id": "d6a76cbb0e2e01cfd98dcfb0c651c6cf", "rental_uris": {"android": "https://dc.lft.to/lastmile_qr_scan", "ios": "https://dc.lft.to/lastmile_qr_scan"}, "name": "d6a76cbb0e2e01cfd98dcfb0c651c6cf", "is_reserved": 0}, {"is_disabled": 0, "fusion_lon": 0.0, "fusion_lat": 0.0, "lat": 39.10566933333333, "type": "electric_bike", "lon": -77.15267233333333, "bike_id": "7f8e4ebdb13c512ff0995ee9732aef18", "rental_uris": {"android": "https://dc.lft.to/lastmile_qr_scan", "ios": "https://dc.lft.to/lastmile_qr_scan"}, "name": "7f8e4ebdb13c512ff0995ee9732aef18", "is_reserved": 0}, {"is_disabled": 0, "fusion_lon": 0.0, "fusion_lat": 0.0, "lat": 38.893756833333335, "type": "electric_scooter", "lon": -76.94992166666667, "bike_id": "4bab56ea934bbaf477e6170d17ca995e", "rental_uris": {"android": "https://dc.lft.to/lastmile_qr_scan", "ios": "https://dc.lft.to/lastmile_qr_scan"}, "name": "4bab56ea934bbaf477e6170d17ca995e", "is_reserved": 0}, {"is_disabled": 0, "fusion_lon": 0.0, "fusion_lat": 0.0, "lat": 38.92290366666667, "type": "electric_bike", "lon": -76.994281, "bike_id": "8c46f671e575e40ad62a1a4a2076b81e", "rental_uris": {"android": "https://dc.lft.to/lastmile_qr_scan", "ios": "https://dc.lft.to/lastmile_qr_scan"}, "name": "8c46f671e575e40ad62a1a4a2076b81e", "is_reserved": 0}, {"is_disabled": 0, "fusion_lon": 0.0, "fusion_lat": 0.0, "lat": 38.919795666666666, "type": "electric_scooter", "lon": -77.00020766666667, "bike_id": "e94806aa5228a99c4fa0ce7de7fd3c8b", "rental_uris": {"android": "https://dc.lft.to/lastmile_qr_scan", "ios": "https://dc.lft.to/lastmile_qr_scan"}, "name": "e94806aa5228a99c4fa0ce7de7fd3c8b", "is_reserved": 0}, {"is_disabled": 0, "fusion_lon": 0.0, "fusion_lat": 0.0, "lat": 38.9285695, "type": "electric_bike", "lon": -77.02073516666667, "bike_id": "d3b803453e39a3903dd764d7e629d533", "rental_uris": {"android": "https://dc.lft.to/lastmile_qr_scan", "ios": "https://dc.lft.to/lastmile_qr_scan"}, "name": "d3b803453e39a3903dd764d7e629d533", "is_reserved": 0}, {"is_disabled": 0, "fusion_lon": 0.0, "fusion_lat": 0.0, "lat": 38.92915033333333, "type": "electric_scooter", "lon": -77.023461, "bike_id": "1073f94474777a2f499100d310674164", "rental_uris": {"android": "https://dc.lft.to/lastmile_qr_scan", "ios": "https://dc.lft.to/lastmile_qr_scan"}, "name": "1073f94474777a2f499100d310674164", "is_reserved": 0}, {"is_disabled": 0, "fusion_lon": 0.0, "fusion_lat": 0.0, "lat": 38.92900816666667, "type": "electric_scooter", "lon": -76.98454516666666, "bike_id": "c474baad5f0a66a35c0e41e8367bc904", "rental_uris": {"android": "https://dc.lft.to/lastmile_qr_scan", "ios": "https://dc.lft.to/lastmile_qr_scan"}, "name": "c474baad5f0a66a35c0e41e8367bc904", "is_reserved": 0}, {"is_disabled": 0, "fusion_lon": 0.0, "fusion_lat": 0.0, "lat": 38.902721166666666, "type": "electric_scooter", "lon": -77.04275483333333, "bike_id": "f0b9738cead77a12b586c8f75bc5ba9e", "rental_uris": {"android": "https://dc.lft.to/lastmile_qr_scan", "ios": "https://dc.lft.to/lastmile_qr_scan"}, "name": "f0b9738cead77a12b586c8f75bc5ba9e", "is_reserved": 0}, {"is_disabled": 0, "fusion_lon": 0.0, "fusion_lat": 0.0, "lat": 38.936379333333335, "type": "electric_scooter", "lon": -77.036671, "bike_id": "21e9176ba8b6e6e101c9abee17000140", "rental_uris": {"android": "https://dc.lft.to/lastmile_qr_scan", "ios": "https://dc.lft.to/lastmile_qr_scan"}, "name": "21e9176ba8b6e6e101c9abee17000140", "is_reserved": 0}, {"is_disabled": 0, "fusion_lon": 0.0, "fusion_lat": 0.0, "lat": 38.92447166666667, "type": "electric_bike", "lon": -76.96834883333334, "bike_id": "738ad24879dd6fe4a68eedb4f1d873ae", "rental_uris": {"android": "https://dc.lft.to/lastmile_qr_scan", "ios": "https://dc.lft.to/lastmile_qr_scan"}, "name": "738ad24879dd6fe4a68eedb4f1d873ae", "is_reserved": 0}, {"is_disabled": 0, "fusion_lon": 0.0, "fusion_lat": 0.0, "lat": 38.95002616666667, "type": "electric_bike", "lon": -77.35309816666667, "bike_id": "681d5dec0806ac00e6bb620bbda72226", "rental_uris": {"android": "https://dc.lft.to/lastmile_qr_scan", "ios": "https://dc.lft.to/lastmile_qr_scan"}, "name": "681d5dec0806ac00e6bb620bbda72226", "is_reserved": 0}, {"is_disabled": 0, "fusion_lon": 0.0, "fusion_lat": 0.0, "lat": 38.8766875, "type": "electric_scooter", "lon": -76.93196433333334, "bike_id": "3fd250a9d95d24ae069f3c1e28741aac", "rental_uris": {"android": "https://dc.lft.to/lastmile_qr_scan", "ios": "https://dc.lft.to/lastmile_qr_scan"}, "name": "3fd250a9d95d24ae069f3c1e28741aac", "is_reserved": 0}, {"is_disabled": 0, "fusion_lon": 0.0, "fusion_lat": 0.0, "lat": 38.91268766666666, "type": "electric_scooter", "lon": -77.03366483333333, "bike_id": "c7a645cde5cea8a22eb1bd8bf286c40f", "rental_uris": {"android": "https://dc.lft.to/lastmile_qr_scan", "ios": "https://dc.lft.to/lastmile_qr_scan"}, "name": "c7a645cde5cea8a22eb1bd8bf286c40f", "is_reserved": 0}, {"is_disabled": 0, "fusion_lon": 0.0, "fusion_lat": 0.0, "lat": 38.94979166666667, "type": "electric_scooter", "lon": -77.09437383333334, "bike_id": "3dedcde063a79ff22368a3f92e5204ba", "rental_uris": {"android": "https://dc.lft.to/lastmile_qr_scan", "ios": "https://dc.lft.to/lastmile_qr_scan"}, "name": "3dedcde063a79ff22368a3f92e5204ba", "is_reserved": 0}, {"is_disabled": 0, "fusion_lon": 0.0, "fusion_lat": 0.0, "lat": 38.878244, "type": "electric_scooter", "lon": -76.96318416666666, "bike_id": "5f1936fce839d8e7f571a07ea955c526", "rental_uris": {"android": "https://dc.lft.to/lastmile_qr_scan", "ios": "https://dc.lft.to/lastmile_qr_scan"}, "name": "5f1936fce839d8e7f571a07ea955c526", "is_reserved": 0}, {"is_disabled": 0, "fusion_lon": 0.0, "fusion_lat": 0.0, "lat": 38.90872366666667, "type": "electric_scooter", "lon": -77.04433883333333, "bike_id": "60a7dfbb1d95ce641962e791d007666f", "rental_uris": {"android": "https://dc.lft.to/lastmile_qr_scan", "ios": "https://dc.lft.to/lastmile_qr_scan"}, "name": "60a7dfbb1d95ce641962e791d007666f", "is_reserved": 0}, {"is_disabled": 0, "fusion_lon": 0.0, "fusion_lat": 0.0, "lat": 38.929986666666665, "type": "electric_scooter", "lon": -77.02403516666666, "bike_id": "03ac8d45bfafeca553f0fac2865a8a90", "rental_uris": {"android": "https://dc.lft.to/lastmile_qr_scan", "ios": "https://dc.lft.to/lastmile_qr_scan"}, "name": "03ac8d45bfafeca553f0fac2865a8a90", "is_reserved": 0}, {"is_disabled": 0, "fusion_lon": 0.0, "fusion_lat": 0.0, "lat": 38.93000683333333, "type": "electric_scooter", "lon": -77.03799766666667, "bike_id": "64b504ba581c6e8a016295dcb7c1723e", "rental_uris": {"android": "https://dc.lft.to/lastmile_qr_scan", "ios": "https://dc.lft.to/lastmile_qr_scan"}, "name": "64b504ba581c6e8a016295dcb7c1723e", "is_reserved": 0}, {"is_disabled": 0, "fusion_lon": 0.0, "fusion_lat": 0.0, "lat": 38.89502816666667, "type": "electric_scooter", "lon": -77.00953433333333, "bike_id": "bd7b0de3127605e996fff8ed99e7064c", "rental_uris": {"android": "https://dc.lft.to/lastmile_qr_scan", "ios": "https://dc.lft.to/lastmile_qr_scan"}, "name": "bd7b0de3127605e996fff8ed99e7064c", "is_reserved": 0}, {"is_disabled": 0, "fusion_lon": 0.0, "fusion_lat": 0.0, "lat": 38.935544166666666, "type": "electric_scooter", "lon": -77.0344945, "bike_id": "a5ab9c2aa3822f48e3a4557e841edb7d", "rental_uris": {"android": "https://dc.lft.to/lastmile_qr_scan", "ios": "https://dc.lft.to/lastmile_qr_scan"}, "name": "a5ab9c2aa3822f48e3a4557e841edb7d", "is_reserved": 0}, {"is_disabled": 0, "fusion_lon": 0.0, "fusion_lat": 0.0, "lat": 38.92117533333333, "type": "electric_scooter", "lon": -77.012082, "bike_id": "2d313efde7123419d58b0857575b0373", "rental_uris": {"android": "https://dc.lft.to/lastmile_qr_scan", "ios": "https://dc.lft.to/lastmile_qr_scan"}, "name": "2d313efde7123419d58b0857575b0373", "is_reserved": 0}, {"is_disabled": 0, "fusion_lon": 0.0, "fusion_lat": 0.0, "lat": 38.930876166666664, "type": "electric_scooter", "lon": -77.02542783333334, "bike_id": "de6b2dde9e5bb08dae306d7681ef3f11", "rental_uris": {"android": "https://dc.lft.to/lastmile_qr_scan", "ios": "https://dc.lft.to/lastmile_qr_scan"}, "name": "de6b2dde9e5bb08dae306d7681ef3f11", "is_reserved": 0}, {"is_disabled": 0, "fusion_lon": 0.0, "fusion_lat": 0.0, "lat": 38.931549833333335, "type": "electric_scooter", "lon": -77.078545, "bike_id": "ae73cc98a6fb59e4fc80e054f734c62c", "rental_uris": {"android": "https://dc.lft.to/lastmile_qr_scan", "ios": "https://dc.lft.to/lastmile_qr_scan"}, "name": "ae73cc98a6fb59e4fc80e054f734c62c", "is_reserved": 0}, {"is_disabled": 0, "fusion_lon": 0.0, "fusion_lat": 0.0, "lat": 38.932186333333334, "type": "electric_scooter", "lon": -77.03653183333333, "bike_id": "68b8f2cd4934d956af6060749bd5aaff", "rental_uris": {"android": "https://dc.lft.to/lastmile_qr_scan", "ios": "https://dc.lft.to/lastmile_qr_scan"}, "name": "68b8f2cd4934d956af6060749bd5aaff", "is_reserved": 0}, {"is_disabled": 0, "fusion_lon": 0.0, "fusion_lat": 0.0, "lat": 38.905221166666664, "type": "electric_scooter", "lon": -77.0489525, "bike_id": "9cdb64b997600b865ac44be636262a9a", "rental_uris": {"android": "https://dc.lft.to/lastmile_qr_scan", "ios": "https://dc.lft.to/lastmile_qr_scan"}, "name": "9cdb64b997600b865ac44be636262a9a", "is_reserved": 0}, {"is_disabled": 0, "fusion_lon": 0.0, "fusion_lat": 0.0, "lat": 38.87496933333333, "type": "electric_scooter", "lon": -76.99799466666667, "bike_id": "2728e4d49c21a039445a5eff627f7ecb", "rental_uris": {"android": "https://dc.lft.to/lastmile_qr_scan", "ios": "https://dc.lft.to/lastmile_qr_scan"}, "name": "2728e4d49c21a039445a5eff627f7ecb", "is_reserved": 0}, {"is_disabled": 0, "fusion_lon": 0.0, "fusion_lat": 0.0, "lat": 38.948956, "type": "electric_bike", "lon": -76.9637655, "bike_id": "bbaaad2cb6a4ace09c0b1e80fd1431a6", "rental_uris": {"android": "https://dc.lft.to/lastmile_qr_scan", "ios": "https://dc.lft.to/lastmile_qr_scan"}, "name": "bbaaad2cb6a4ace09c0b1e80fd1431a6", "is_reserved": 0}, {"is_disabled": 0, "fusion_lon": 0.0, "fusion_lat": 0.0, "lat": 38.8883405, "type": "electric_scooter", "lon": -76.91781216666666, "bike_id": "b6a26aa5a08449dd6f3fc64077e37094", "rental_uris": {"android": "https://dc.lft.to/lastmile_qr_scan", "ios": "https://dc.lft.to/lastmile_qr_scan"}, "name": "b6a26aa5a08449dd6f3fc64077e37094", "is_reserved": 0}, {"is_disabled": 0, "fusion_lon": 0.0, "fusion_lat": 0.0, "lat": 38.939322, "type": "electric_bike", "lon": -76.9951125, "bike_id": "7f16e1c10ee31450667fb8c99da970e9", "rental_uris": {"android": "https://dc.lft.to/lastmile_qr_scan", "ios": "https://dc.lft.to/lastmile_qr_scan"}, "name": "7f16e1c10ee31450667fb8c99da970e9", "is_reserved": 0}, {"is_disabled": 0, "fusion_lon": 0.0, "fusion_lat": 0.0, "lat": 38.91820933333333, "type": "electric_scooter", "lon": -77.0120845, "bike_id": "ff0b45c7242e88d4ba3457c9ee72c796", "rental_uris": {"android": "https://dc.lft.to/lastmile_qr_scan", "ios": "https://dc.lft.to/lastmile_qr_scan"}, "name": "ff0b45c7242e88d4ba3457c9ee72c796", "is_reserved": 0}, {"is_disabled": 0, "fusion_lon": 0.0, "fusion_lat": 0.0, "lat": 38.93235766666667, "type": "electric_scooter", "lon": -76.999383, "bike_id": "836754c6d3e7e02e00ba94202b83d1af", "rental_uris": {"android": "https://dc.lft.to/lastmile_qr_scan", "ios": "https://dc.lft.to/lastmile_qr_scan"}, "name": "836754c6d3e7e02e00ba94202b83d1af", "is_reserved": 0}, {"is_disabled": 0, "fusion_lon": 0.0, "fusion_lat": 0.0, "lat": 38.91834883333333, "type": "electric_scooter", "lon": -77.0452585, "bike_id": "3d34253d2a6e2d728630995002760649", "rental_uris": {"android": "https://dc.lft.to/lastmile_qr_scan", "ios": "https://dc.lft.to/lastmile_qr_scan"}, "name": "3d34253d2a6e2d728630995002760649", "is_reserved": 0}, {"is_disabled": 0, "fusion_lon": 0.0, "fusion_lat": 0.0, "lat": 38.9059075, "type": "electric_scooter", "lon": -77.04673933333333, "bike_id": "543b09dbc116ecaca14c255ad56d9952", "rental_uris": {"android": "https://dc.lft.to/lastmile_qr_scan", "ios": "https://dc.lft.to/lastmile_qr_scan"}, "name": "543b09dbc116ecaca14c255ad56d9952", "is_reserved": 0}, {"is_disabled": 0, "fusion_lon": 0.0, "fusion_lat": 0.0, "lat": 38.93667333333333, "type": "electric_scooter", "lon": -77.036328, "bike_id": "b26a36c8a803bcb751bce247fcd35674", "rental_uris": {"android": "https://dc.lft.to/lastmile_qr_scan", "ios": "https://dc.lft.to/lastmile_qr_scan"}, "name": "b26a36c8a803bcb751bce247fcd35674", "is_reserved": 0}, {"is_disabled": 0, "fusion_lon": 0.0, "fusion_lat": 0.0, "lat": 38.91691, "type": "electric_scooter", "lon": -77.034724, "bike_id": "6e7aca5583e667683d9598040ccf719c", "rental_uris": {"android": "https://dc.lft.to/lastmile_qr_scan", "ios": "https://dc.lft.to/lastmile_qr_scan"}, "name": "6e7aca5583e667683d9598040ccf719c", "is_reserved": 0}, {"is_disabled": 0, "fusion_lon": 0.0, "fusion_lat": 0.0, "lat": 38.8312285, "type": "electric_bike", "lon": -77.04329333333334, "bike_id": "5a5bb0cebcd633e2b43316962078a252", "rental_uris": {"android": "https://dc.lft.to/lastmile_qr_scan", "ios": "https://dc.lft.to/lastmile_qr_scan"}, "name": "5a5bb0cebcd633e2b43316962078a252", "is_reserved": 0}, {"is_disabled": 0, "fusion_lon": 0.0, "fusion_lat": 0.0, "lat": 38.9178955, "type": "electric_scooter", "lon": -77.04356816666666, "bike_id": "9610dc9707a3a081ef57a295c66bdec7", "rental_uris": {"android": "https://dc.lft.to/lastmile_qr_scan", "ios": "https://dc.lft.to/lastmile_qr_scan"}, "name": "9610dc9707a3a081ef57a295c66bdec7", "is_reserved": 0}, {"is_disabled": 0, "fusion_lon": 0.0, "fusion_lat": 0.0, "lat": 38.91860883333333, "type": "electric_bike", "lon": -76.9608855, "bike_id": "d39901c1a5836ceee2a274b5c5e28eec", "rental_uris": {"android": "https://dc.lft.to/lastmile_qr_scan", "ios": "https://dc.lft.to/lastmile_qr_scan"}, "name": "d39901c1a5836ceee2a274b5c5e28eec", "is_reserved": 0}, {"is_disabled": 0, "fusion_lon": 0.0, "fusion_lat": 0.0, "lat": 38.92849433333333, "type": "electric_scooter", "lon": -77.05629766666667, "bike_id": "8f6540e8f262c3cfae75d47d7e693723", "rental_uris": {"android": "https://dc.lft.to/lastmile_qr_scan", "ios": "https://dc.lft.to/lastmile_qr_scan"}, "name": "8f6540e8f262c3cfae75d47d7e693723", "is_reserved": 0}, {"is_disabled": 0, "fusion_lon": 0.0, "fusion_lat": 0.0, "lat": 38.916986666666666, "type": "electric_scooter", "lon": -77.04294516666667, "bike_id": "51b12e6134c5a31113ad0985fd47e6e8", "rental_uris": {"android": "https://dc.lft.to/lastmile_qr_scan", "ios": "https://dc.lft.to/lastmile_qr_scan"}, "name": "51b12e6134c5a31113ad0985fd47e6e8", "is_reserved": 0}, {"is_disabled": 0, "fusion_lon": 0.0, "fusion_lat": 0.0, "lat": 38.945504, "type": "electric_scooter", "lon": -77.0424565, "bike_id": "d28e050b3d4198daae93e2e8a1fc18e0", "rental_uris": {"android": "https://dc.lft.to/lastmile_qr_scan", "ios": "https://dc.lft.to/lastmile_qr_scan"}, "name": "d28e050b3d4198daae93e2e8a1fc18e0", "is_reserved": 0}, {"is_disabled": 0, "fusion_lon": 0.0, "fusion_lat": 0.0, "lat": 38.918025166666666, "type": "electric_scooter", "lon": -77.034645, "bike_id": "3f74aa26998ce7658a2659b12a90ef74", "rental_uris": {"android": "https://dc.lft.to/lastmile_qr_scan", "ios": "https://dc.lft.to/lastmile_qr_scan"}, "name": "3f74aa26998ce7658a2659b12a90ef74", "is_reserved": 0}, {"is_disabled": 0, "fusion_lon": 0.0, "fusion_lat": 0.0, "lat": 38.9108865, "type": "electric_bike", "lon": -77.00499266666667, "bike_id": "9e5eb6ddc922393dd10745a6600fd985", "rental_uris": {"android": "https://dc.lft.to/lastmile_qr_scan", "ios": "https://dc.lft.to/lastmile_qr_scan"}, "name": "9e5eb6ddc922393dd10745a6600fd985", "is_reserved": 0}, {"is_disabled": 0, "fusion_lon": 0.0, "fusion_lat": 0.0, "lat": 38.929589666666665, "type": "electric_scooter", "lon": -77.0233345, "bike_id": "c979855411a1d587320074bba99ff540", "rental_uris": {"android": "https://dc.lft.to/lastmile_qr_scan", "ios": "https://dc.lft.to/lastmile_qr_scan"}, "name": "c979855411a1d587320074bba99ff540", "is_reserved": 0}, {"is_disabled": 0, "fusion_lon": 0.0, "fusion_lat": 0.0, "lat": 38.904866166666665, "type": "electric_scooter", "lon": -77.02721033333333, "bike_id": "f75802ae129b6c0b7b822fc78d896e57", "rental_uris": {"android": "https://dc.lft.to/lastmile_qr_scan", "ios": "https://dc.lft.to/lastmile_qr_scan"}, "name": "f75802ae129b6c0b7b822fc78d896e57", "is_reserved": 0}, {"is_disabled": 0, "fusion_lon": 0.0, "fusion_lat": 0.0, "lat": 38.92750933333333, "type": "electric_scooter", "lon": -77.0253245, "bike_id": "fcd887ac2524a0b6350eb28d91cb73be", "rental_uris": {"android": "https://dc.lft.to/lastmile_qr_scan", "ios": "https://dc.lft.to/lastmile_qr_scan"}, "name": "fcd887ac2524a0b6350eb28d91cb73be", "is_reserved": 0}, {"is_disabled": 0, "fusion_lon": 0.0, "fusion_lat": 0.0, "lat": 38.87679383333333, "type": "electric_scooter", "lon": -77.01791016666667, "bike_id": "3ab8620650b0e3c0abda1b84effccaa1", "rental_uris": {"android": "https://dc.lft.to/lastmile_qr_scan", "ios": "https://dc.lft.to/lastmile_qr_scan"}, "name": "3ab8620650b0e3c0abda1b84effccaa1", "is_reserved": 0}, {"is_disabled": 0, "fusion_lon": 0.0, "fusion_lat": 0.0, "lat": 38.91498816666667, "type": "electric_scooter", "lon": -76.98378166666667, "bike_id": "9d5c9b1a2cd8471509f7f77f081f44b6", "rental_uris": {"android": "https://dc.lft.to/lastmile_qr_scan", "ios": "https://dc.lft.to/lastmile_qr_scan"}, "name": "9d5c9b1a2cd8471509f7f77f081f44b6", "is_reserved": 0}, {"is_disabled": 0, "fusion_lon": 0.0, "fusion_lat": 0.0, "lat": 38.87091783333334, "type": "electric_bike", "lon": -77.01201233333333, "bike_id": "13fb1dff0e86581d55805cd4399d7b7c", "rental_uris": {"android": "https://dc.lft.to/lastmile_qr_scan", "ios": "https://dc.lft.to/lastmile_qr_scan"}, "name": "13fb1dff0e86581d55805cd4399d7b7c", "is_reserved": 0}, {"is_disabled": 0, "fusion_lon": 0.0, "fusion_lat": 0.0, "lat": 38.92672116666667, "type": "electric_scooter", "lon": -77.04302416666667, "bike_id": "2410660f4b3963b53fba83579565d3b0", "rental_uris": {"android": "https://dc.lft.to/lastmile_qr_scan", "ios": "https://dc.lft.to/lastmile_qr_scan"}, "name": "2410660f4b3963b53fba83579565d3b0", "is_reserved": 0}, {"is_disabled": 0, "fusion_lon": 0.0, "fusion_lat": 0.0, "lat": 38.9056945, "type": "electric_scooter", "lon": -77.02466016666666, "bike_id": "e1a9362d6185deefc05074f74a733eb4", "rental_uris": {"android": "https://dc.lft.to/lastmile_qr_scan", "ios": "https://dc.lft.to/lastmile_qr_scan"}, "name": "e1a9362d6185deefc05074f74a733eb4", "is_reserved": 0}, {"is_disabled": 0, "fusion_lon": 0.0, "fusion_lat": 0.0, "lat": 38.95634, "type": "electric_scooter", "lon": -77.02978166666666, "bike_id": "ffd155ac0e3516f741b39713c4bd5350", "rental_uris": {"android": "https://dc.lft.to/lastmile_qr_scan", "ios": "https://dc.lft.to/lastmile_qr_scan"}, "name": "ffd155ac0e3516f741b39713c4bd5350", "is_reserved": 0}, {"is_disabled": 0, "fusion_lon": 0.0, "fusion_lat": 0.0, "lat": 38.84602016666667, "type": "electric_bike", "lon": -76.968838, "bike_id": "4656371f69c9e86f31a9ebb776ab23f5", "rental_uris": {"android": "https://dc.lft.to/lastmile_qr_scan", "ios": "https://dc.lft.to/lastmile_qr_scan"}, "name": "4656371f69c9e86f31a9ebb776ab23f5", "is_reserved": 0}, {"is_disabled": 0, "fusion_lon": 0.0, "fusion_lat": 0.0, "lat": 38.8950715, "type": "electric_scooter", "lon": -77.01611183333333, "bike_id": "9349182ca8f19bd724be3bfcb08b9ba4", "rental_uris": {"android": "https://dc.lft.to/lastmile_qr_scan", "ios": "https://dc.lft.to/lastmile_qr_scan"}, "name": "9349182ca8f19bd724be3bfcb08b9ba4", "is_reserved": 0}, {"is_disabled": 0, "fusion_lon": 0.0, "fusion_lat": 0.0, "lat": 38.9356015, "type": "electric_scooter", "lon": -77.08197783333334, "bike_id": "498b0b581819d18748e70e9c0770397e", "rental_uris": {"android": "https://dc.lft.to/lastmile_qr_scan", "ios": "https://dc.lft.to/lastmile_qr_scan"}, "name": "498b0b581819d18748e70e9c0770397e", "is_reserved": 0}, {"is_disabled": 0, "fusion_lon": 0.0, "fusion_lat": 0.0, "lat": 38.89908166666667, "type": "electric_scooter", "lon": -76.93382566666666, "bike_id": "d35f7bad85a6b0b38d240076ce4aa694", "rental_uris": {"android": "https://dc.lft.to/lastmile_qr_scan", "ios": "https://dc.lft.to/lastmile_qr_scan"}, "name": "d35f7bad85a6b0b38d240076ce4aa694", "is_reserved": 0}, {"is_disabled": 0, "fusion_lon": 0.0, "fusion_lat": 0.0, "lat": 38.927521666666664, "type": "electric_scooter", "lon": -77.07590216666667, "bike_id": "797ecd7c67804291b513e7a01aca2fc1", "rental_uris": {"android": "https://dc.lft.to/lastmile_qr_scan", "ios": "https://dc.lft.to/lastmile_qr_scan"}, "name": "797ecd7c67804291b513e7a01aca2fc1", "is_reserved": 0}, {"is_disabled": 0, "fusion_lon": 0.0, "fusion_lat": 0.0, "lat": 38.959638166666664, "type": "electric_scooter", "lon": -77.021128, "bike_id": "c68fac735f0aeed7f48267b8afd610db", "rental_uris": {"android": "https://dc.lft.to/lastmile_qr_scan", "ios": "https://dc.lft.to/lastmile_qr_scan"}, "name": "c68fac735f0aeed7f48267b8afd610db", "is_reserved": 0}, {"is_disabled": 0, "fusion_lon": 0.0, "fusion_lat": 0.0, "lat": 38.907592333333334, "type": "electric_scooter", "lon": -77.03600766666666, "bike_id": "493a384f2b60fd4410b758b734a9cfff", "rental_uris": {"android": "https://dc.lft.to/lastmile_qr_scan", "ios": "https://dc.lft.to/lastmile_qr_scan"}, "name": "493a384f2b60fd4410b758b734a9cfff", "is_reserved": 0}, {"is_disabled": 0, "fusion_lon": 0.0, "fusion_lat": 0.0, "lat": 38.921229333333336, "type": "electric_scooter", "lon": -77.01211516666666, "bike_id": "f57d635c53ed7cc80a23086c89c79628", "rental_uris": {"android": "https://dc.lft.to/lastmile_qr_scan", "ios": "https://dc.lft.to/lastmile_qr_scan"}, "name": "f57d635c53ed7cc80a23086c89c79628", "is_reserved": 0}, {"is_disabled": 0, "fusion_lon": 0.0, "fusion_lat": 0.0, "lat": 38.88393683333334, "type": "electric_bike", "lon": -77.03078816666667, "bike_id": "66dd02152e0696c2b2d313cdcb90e7b9", "rental_uris": {"android": "https://dc.lft.to/lastmile_qr_scan", "ios": "https://dc.lft.to/lastmile_qr_scan"}, "name": "66dd02152e0696c2b2d313cdcb90e7b9", "is_reserved": 0}, {"is_disabled": 0, "fusion_lon": 0.0, "fusion_lat": 0.0, "lat": 38.89751783333333, "type": "electric_scooter", "lon": -77.02891683333333, "bike_id": "f9778594f671b84125efa00c18f93101", "rental_uris": {"android": "https://dc.lft.to/lastmile_qr_scan", "ios": "https://dc.lft.to/lastmile_qr_scan"}, "name": "f9778594f671b84125efa00c18f93101", "is_reserved": 0}, {"is_disabled": 0, "fusion_lon": 0.0, "fusion_lat": 0.0, "lat": 38.917987, "type": "electric_scooter", "lon": -77.0239845, "bike_id": "23bb74af269ff0bcbab587fe654a7904", "rental_uris": {"android": "https://dc.lft.to/lastmile_qr_scan", "ios": "https://dc.lft.to/lastmile_qr_scan"}, "name": "23bb74af269ff0bcbab587fe654a7904", "is_reserved": 0}, {"is_disabled": 0, "fusion_lon": 0.0, "fusion_lat": 0.0, "lat": 38.895895, "type": "electric_scooter", "lon": -77.023176, "bike_id": "9ec06093c67b615ac9bf2629d1b6e52a", "rental_uris": {"android": "https://dc.lft.to/lastmile_qr_scan", "ios": "https://dc.lft.to/lastmile_qr_scan"}, "name": "9ec06093c67b615ac9bf2629d1b6e52a", "is_reserved": 0}, {"is_disabled": 0, "fusion_lon": 0.0, "fusion_lat": 0.0, "lat": 38.923627333333336, "type": "electric_scooter", "lon": -77.04389616666667, "bike_id": "0eae1843085b1b379415dea153187936", "rental_uris": {"android": "https://dc.lft.to/lastmile_qr_scan", "ios": "https://dc.lft.to/lastmile_qr_scan"}, "name": "0eae1843085b1b379415dea153187936", "is_reserved": 0}, {"is_disabled": 0, "fusion_lon": 0.0, "fusion_lat": 0.0, "lat": 38.90316216666667, "type": "electric_scooter", "lon": -77.03663316666666, "bike_id": "eed15c995e12ddc03b7b831161a2f2cc", "rental_uris": {"android": "https://dc.lft.to/lastmile_qr_scan", "ios": "https://dc.lft.to/lastmile_qr_scan"}, "name": "eed15c995e12ddc03b7b831161a2f2cc", "is_reserved": 0}, {"is_disabled": 0, "fusion_lon": 0.0, "fusion_lat": 0.0, "lat": 38.908969166666665, "type": "electric_scooter", "lon": -77.00267233333334, "bike_id": "ceeaded9d9262ff92c443eea958b309e", "rental_uris": {"android": "https://dc.lft.to/lastmile_qr_scan", "ios": "https://dc.lft.to/lastmile_qr_scan"}, "name": "ceeaded9d9262ff92c443eea958b309e", "is_reserved": 0}, {"is_disabled": 0, "fusion_lon": 0.0, "fusion_lat": 0.0, "lat": 38.93421583333333, "type": "electric_scooter", "lon": -77.01966983333334, "bike_id": "57e51fd5ea1bc1e022aedc6a79482745", "rental_uris": {"android": "https://dc.lft.to/lastmile_qr_scan", "ios": "https://dc.lft.to/lastmile_qr_scan"}, "name": "57e51fd5ea1bc1e022aedc6a79482745", "is_reserved": 0}, {"is_disabled": 0, "fusion_lon": 0.0, "fusion_lat": 0.0, "lat": 38.95330766666667, "type": "electric_scooter", "lon": -77.0685165, "bike_id": "d0bf4505db25b4e619e8552b32582ce9", "rental_uris": {"android": "https://dc.lft.to/lastmile_qr_scan", "ios": "https://dc.lft.to/lastmile_qr_scan"}, "name": "d0bf4505db25b4e619e8552b32582ce9", "is_reserved": 0}, {"is_disabled": 0, "fusion_lon": 0.0, "fusion_lat": 0.0, "lat": 39.03884083333333, "type": "electric_bike", "lon": -77.10909133333334, "bike_id": "e609f2dba791cdb1af94079718ec964e", "rental_uris": {"android": "https://dc.lft.to/lastmile_qr_scan", "ios": "https://dc.lft.to/lastmile_qr_scan"}, "name": "e609f2dba791cdb1af94079718ec964e", "is_reserved": 0}, {"is_disabled": 0, "fusion_lon": 0.0, "fusion_lat": 0.0, "lat": 38.9048675, "type": "electric_scooter", "lon": -77.0271845, "bike_id": "9a789d551fe37573ac1e43f62d6c7498", "rental_uris": {"android": "https://dc.lft.to/lastmile_qr_scan", "ios": "https://dc.lft.to/lastmile_qr_scan"}, "name": "9a789d551fe37573ac1e43f62d6c7498", "is_reserved": 0}, {"is_disabled": 0, "fusion_lon": 0.0, "fusion_lat": 0.0, "lat": 38.89293133333334, "type": "electric_bike", "lon": -77.00144166666666, "bike_id": "ce72c8150654dc0e305ed95dc0e919cc", "rental_uris": {"android": "https://dc.lft.to/lastmile_qr_scan", "ios": "https://dc.lft.to/lastmile_qr_scan"}, "name": "ce72c8150654dc0e305ed95dc0e919cc", "is_reserved": 0}, {"is_disabled": 0, "fusion_lon": 0.0, "fusion_lat": 0.0, "lat": 38.861979166666664, "type": "electric_bike", "lon": -77.05668033333333, "bike_id": "e016d38302fec570c7a27dce98b9289d", "rental_uris": {"android": "https://dc.lft.to/lastmile_qr_scan", "ios": "https://dc.lft.to/lastmile_qr_scan"}, "name": "e016d38302fec570c7a27dce98b9289d", "is_reserved": 0}, {"is_disabled": 0, "fusion_lon": 0.0, "fusion_lat": 0.0, "lat": 38.903707833333335, "type": "electric_scooter", "lon": -77.017656, "bike_id": "1510ea2451e4b523c1a1215296908423", "rental_uris": {"android": "https://dc.lft.to/lastmile_qr_scan", "ios": "https://dc.lft.to/lastmile_qr_scan"}, "name": "1510ea2451e4b523c1a1215296908423", "is_reserved": 0}, {"is_disabled": 0, "fusion_lon": 0.0, "fusion_lat": 0.0, "lat": 38.8707585, "type": "electric_bike", "lon": -77.1104835, "bike_id": "a1e74a6b8c630b5e1ab74ea7c53140e6", "rental_uris": {"android": "https://dc.lft.to/lastmile_qr_scan", "ios": "https://dc.lft.to/lastmile_qr_scan"}, "name": "a1e74a6b8c630b5e1ab74ea7c53140e6", "is_reserved": 0}, {"is_disabled": 0, "fusion_lon": 0.0, "fusion_lat": 0.0, "lat": 38.93670633333333, "type": "electric_bike", "lon": -76.95208516666666, "bike_id": "356cfdc93b7503939494daa4c017ff48", "rental_uris": {"android": "https://dc.lft.to/lastmile_qr_scan", "ios": "https://dc.lft.to/lastmile_qr_scan"}, "name": "356cfdc93b7503939494daa4c017ff48", "is_reserved": 0}, {"is_disabled": 0, "fusion_lon": 0.0, "fusion_lat": 0.0, "lat": 38.885793166666666, "type": "electric_scooter", "lon": -76.9190745, "bike_id": "b795b4b6c9b823ab8dd2de592df7dd97", "rental_uris": {"android": "https://dc.lft.to/lastmile_qr_scan", "ios": "https://dc.lft.to/lastmile_qr_scan"}, "name": "b795b4b6c9b823ab8dd2de592df7dd97", "is_reserved": 0}, {"is_disabled": 0, "fusion_lon": 0.0, "fusion_lat": 0.0, "lat": 38.956125666666665, "type": "electric_scooter", "lon": -77.0278425, "bike_id": "ac2ac49843f3fc7a452dc1f4b3b711c9", "rental_uris": {"android": "https://dc.lft.to/lastmile_qr_scan", "ios": "https://dc.lft.to/lastmile_qr_scan"}, "name": "ac2ac49843f3fc7a452dc1f4b3b711c9", "is_reserved": 0}, {"is_disabled": 0, "fusion_lon": 0.0, "fusion_lat": 0.0, "lat": 38.915650166666666, "type": "electric_scooter", "lon": -77.0076525, "bike_id": "24f0911e5c1903c960b8c5a620abf20a", "rental_uris": {"android": "https://dc.lft.to/lastmile_qr_scan", "ios": "https://dc.lft.to/lastmile_qr_scan"}, "name": "24f0911e5c1903c960b8c5a620abf20a", "is_reserved": 0}, {"is_disabled": 0, "fusion_lon": 0.0, "fusion_lat": 0.0, "lat": 38.9301515, "type": "electric_scooter", "lon": -77.02094283333334, "bike_id": "6131c32d1dcc71ca8ab6b6ed02e4ac36", "rental_uris": {"android": "https://dc.lft.to/lastmile_qr_scan", "ios": "https://dc.lft.to/lastmile_qr_scan"}, "name": "6131c32d1dcc71ca8ab6b6ed02e4ac36", "is_reserved": 0}, {"is_disabled": 0, "fusion_lon": 0.0, "fusion_lat": 0.0, "lat": 38.9085185, "type": "electric_scooter", "lon": -77.02062483333333, "bike_id": "4e086793e847bd69301307e1eb0aa853", "rental_uris": {"android": "https://dc.lft.to/lastmile_qr_scan", "ios": "https://dc.lft.to/lastmile_qr_scan"}, "name": "4e086793e847bd69301307e1eb0aa853", "is_reserved": 0}, {"is_disabled": 0, "fusion_lon": 0.0, "fusion_lat": 0.0, "lat": 38.92758116666667, "type": "electric_scooter", "lon": -77.005894, "bike_id": "eb743de0a604facbd6a952df5bda156d", "rental_uris": {"android": "https://dc.lft.to/lastmile_qr_scan", "ios": "https://dc.lft.to/lastmile_qr_scan"}, "name": "eb743de0a604facbd6a952df5bda156d", "is_reserved": 0}, {"is_disabled": 0, "fusion_lon": 0.0, "fusion_lat": 0.0, "lat": 38.90394583333333, "type": "electric_scooter", "lon": -76.9900255, "bike_id": "d729636f11011af24be8377b0cd95c04", "rental_uris": {"android": "https://dc.lft.to/lastmile_qr_scan", "ios": "https://dc.lft.to/lastmile_qr_scan"}, "name": "d729636f11011af24be8377b0cd95c04", "is_reserved": 0}, {"is_disabled": 0, "fusion_lon": 0.0, "fusion_lat": 0.0, "lat": 38.90372333333333, "type": "electric_scooter", "lon": -77.00501166666666, "bike_id": "149bf8753ea6328225ddbe9bbbc472e7", "rental_uris": {"android": "https://dc.lft.to/lastmile_qr_scan", "ios": "https://dc.lft.to/lastmile_qr_scan"}, "name": "149bf8753ea6328225ddbe9bbbc472e7", "is_reserved": 0}, {"is_disabled": 0, "fusion_lon": 0.0, "fusion_lat": 0.0, "lat": 38.92965916666667, "type": "electric_scooter", "lon": -77.007052, "bike_id": "7d880efd8aaf27b2d173ccceabc1415c", "rental_uris": {"android": "https://dc.lft.to/lastmile_qr_scan", "ios": "https://dc.lft.to/lastmile_qr_scan"}, "name": "7d880efd8aaf27b2d173ccceabc1415c", "is_reserved": 0}, {"is_disabled": 0, "fusion_lon": 0.0, "fusion_lat": 0.0, "lat": 38.89752416666666, "type": "electric_scooter", "lon": -77.04790916666667, "bike_id": "8b77fd8a2724838a5a5d38ad8f9e58c7", "rental_uris": {"android": "https://dc.lft.to/lastmile_qr_scan", "ios": "https://dc.lft.to/lastmile_qr_scan"}, "name": "8b77fd8a2724838a5a5d38ad8f9e58c7", "is_reserved": 0}, {"is_disabled": 0, "fusion_lon": 0.0, "fusion_lat": 0.0, "lat": 38.91936283333333, "type": "electric_scooter", "lon": -76.98070316666667, "bike_id": "185c53eaaba38003c485e64021d11603", "rental_uris": {"android": "https://dc.lft.to/lastmile_qr_scan", "ios": "https://dc.lft.to/lastmile_qr_scan"}, "name": "185c53eaaba38003c485e64021d11603", "is_reserved": 0}, {"is_disabled": 0, "fusion_lon": 0.0, "fusion_lat": 0.0, "lat": 38.92335516666667, "type": "electric_scooter", "lon": -77.04182933333334, "bike_id": "ea6b20b3d9d4c82c176b7ebf60b81361", "rental_uris": {"android": "https://dc.lft.to/lastmile_qr_scan", "ios": "https://dc.lft.to/lastmile_qr_scan"}, "name": "ea6b20b3d9d4c82c176b7ebf60b81361", "is_reserved": 0}, {"is_disabled": 0, "fusion_lon": 0.0, "fusion_lat": 0.0, "lat": 38.924843333333335, "type": "electric_scooter", "lon": -77.03487666666666, "bike_id": "e7a3f0fb27cb9eb4f61123bc66d5516f", "rental_uris": {"android": "https://dc.lft.to/lastmile_qr_scan", "ios": "https://dc.lft.to/lastmile_qr_scan"}, "name": "e7a3f0fb27cb9eb4f61123bc66d5516f", "is_reserved": 0}, {"is_disabled": 0, "fusion_lon": 0.0, "fusion_lat": 0.0, "lat": 38.85514716666667, "type": "electric_bike", "lon": -76.95836866666667, "bike_id": "cc19d6c69bc75c35290e32f212c525c9", "rental_uris": {"android": "https://dc.lft.to/lastmile_qr_scan", "ios": "https://dc.lft.to/lastmile_qr_scan"}, "name": "cc19d6c69bc75c35290e32f212c525c9", "is_reserved": 0}, {"is_disabled": 0, "fusion_lon": 0.0, "fusion_lat": 0.0, "lat": 38.921103, "type": "electric_scooter", "lon": -77.01762733333334, "bike_id": "95a609e73091c3dd43d19a99474a584d", "rental_uris": {"android": "https://dc.lft.to/lastmile_qr_scan", "ios": "https://dc.lft.to/lastmile_qr_scan"}, "name": "95a609e73091c3dd43d19a99474a584d", "is_reserved": 0}, {"is_disabled": 0, "fusion_lon": 0.0, "fusion_lat": 0.0, "lat": 38.905365, "type": "electric_scooter", "lon": -77.006007, "bike_id": "904412d711f43b67041e12c16acd319d", "rental_uris": {"android": "https://dc.lft.to/lastmile_qr_scan", "ios": "https://dc.lft.to/lastmile_qr_scan"}, "name": "904412d711f43b67041e12c16acd319d", "is_reserved": 0}, {"is_disabled": 0, "fusion_lon": 0.0, "fusion_lat": 0.0, "lat": 38.91109133333333, "type": "electric_scooter", "lon": -77.03557633333334, "bike_id": "390c1b512b0cd34441a6e5f6a24d926d", "rental_uris": {"android": "https://dc.lft.to/lastmile_qr_scan", "ios": "https://dc.lft.to/lastmile_qr_scan"}, "name": "390c1b512b0cd34441a6e5f6a24d926d", "is_reserved": 0}, {"is_disabled": 0, "fusion_lon": 0.0, "fusion_lat": 0.0, "lat": 38.906573, "type": "electric_scooter", "lon": -77.0455195, "bike_id": "ff4a6be1eb8002292652f0bbc677aa05", "rental_uris": {"android": "https://dc.lft.to/lastmile_qr_scan", "ios": "https://dc.lft.to/lastmile_qr_scan"}, "name": "ff4a6be1eb8002292652f0bbc677aa05", "is_reserved": 0}, {"is_disabled": 0, "fusion_lon": 0.0, "fusion_lat": 0.0, "lat": 38.919220833333334, "type": "electric_scooter", "lon": -77.03106533333333, "bike_id": "accf0b8d5a53f4bd2aea7e27f23f5b4c", "rental_uris": {"android": "https://dc.lft.to/lastmile_qr_scan", "ios": "https://dc.lft.to/lastmile_qr_scan"}, "name": "accf0b8d5a53f4bd2aea7e27f23f5b4c", "is_reserved": 0}, {"is_disabled": 0, "fusion_lon": 0.0, "fusion_lat": 0.0, "lat": 38.9051675, "type": "electric_scooter", "lon": -76.982512, "bike_id": "30b6bd8e838391e692625b7562b5469e", "rental_uris": {"android": "https://dc.lft.to/lastmile_qr_scan", "ios": "https://dc.lft.to/lastmile_qr_scan"}, "name": "30b6bd8e838391e692625b7562b5469e", "is_reserved": 0}, {"is_disabled": 0, "fusion_lon": 0.0, "fusion_lat": 0.0, "lat": 39.007861166666665, "type": "electric_bike", "lon": -76.99566666666666, "bike_id": "177d39b6d91dfdc006d66c3565713ac1", "rental_uris": {"android": "https://dc.lft.to/lastmile_qr_scan", "ios": "https://dc.lft.to/lastmile_qr_scan"}, "name": "177d39b6d91dfdc006d66c3565713ac1", "is_reserved": 0}, {"is_disabled": 0, "fusion_lon": 0.0, "fusion_lat": 0.0, "lat": 38.923336666666664, "type": "electric_scooter", "lon": -77.03578883333333, "bike_id": "f0895682b81ef06367c9c10780168592", "rental_uris": {"android": "https://dc.lft.to/lastmile_qr_scan", "ios": "https://dc.lft.to/lastmile_qr_scan"}, "name": "f0895682b81ef06367c9c10780168592", "is_reserved": 0}, {"is_disabled": 0, "fusion_lon": 0.0, "fusion_lat": 0.0, "lat": 38.834349833333334, "type": "electric_bike", "lon": -77.103514, "bike_id": "1cbf0ef7890513202883a5ed7a4a9baa", "rental_uris": {"android": "https://dc.lft.to/lastmile_qr_scan", "ios": "https://dc.lft.to/lastmile_qr_scan"}, "name": "1cbf0ef7890513202883a5ed7a4a9baa", "is_reserved": 0}, {"is_disabled": 0, "fusion_lon": 0.0, "fusion_lat": 0.0, "lat": 38.914662666666665, "type": "electric_scooter", "lon": -77.02798333333334, "bike_id": "5a8730b4496511f0ad33ca92e09522aa", "rental_uris": {"android": "https://dc.lft.to/lastmile_qr_scan", "ios": "https://dc.lft.to/lastmile_qr_scan"}, "name": "5a8730b4496511f0ad33ca92e09522aa", "is_reserved": 0}, {"is_disabled": 0, "fusion_lon": 0.0, "fusion_lat": 0.0, "lat": 38.88375116666667, "type": "electric_scooter", "lon": -76.9857295, "bike_id": "5178db20b5ec0dbf6c8029fd1d39ddc0", "rental_uris": {"android": "https://dc.lft.to/lastmile_qr_scan", "ios": "https://dc.lft.to/lastmile_qr_scan"}, "name": "5178db20b5ec0dbf6c8029fd1d39ddc0", "is_reserved": 0}, {"is_disabled": 0, "fusion_lon": 0.0, "fusion_lat": 0.0, "lat": 38.8599005, "type": "electric_bike", "lon": -76.9705255, "bike_id": "1aed9e31e3dd45ffb5869c8ec0b3ae9c", "rental_uris": {"android": "https://dc.lft.to/lastmile_qr_scan", "ios": "https://dc.lft.to/lastmile_qr_scan"}, "name": "1aed9e31e3dd45ffb5869c8ec0b3ae9c", "is_reserved": 0}, {"is_disabled": 0, "fusion_lon": 0.0, "fusion_lat": 0.0, "lat": 38.92564383333333, "type": "electric_scooter", "lon": -77.02279833333333, "bike_id": "4c45b50c1ab8d398f02a2269d2bcc4f8", "rental_uris": {"android": "https://dc.lft.to/lastmile_qr_scan", "ios": "https://dc.lft.to/lastmile_qr_scan"}, "name": "4c45b50c1ab8d398f02a2269d2bcc4f8", "is_reserved": 0}, {"is_disabled": 0, "fusion_lon": 0.0, "fusion_lat": 0.0, "lat": 38.994522833333335, "type": "electric_bike", "lon": -76.90817183333333, "bike_id": "52592824ca21bbcf3dd3175cae4c106b", "rental_uris": {"android": "https://dc.lft.to/lastmile_qr_scan", "ios": "https://dc.lft.to/lastmile_qr_scan"}, "name": "52592824ca21bbcf3dd3175cae4c106b", "is_reserved": 0}, {"is_disabled": 0, "fusion_lon": 0.0, "fusion_lat": 0.0, "lat": 38.868947, "type": "electric_scooter", "lon": -76.983143, "bike_id": "3954bb4a5ca088f640cf933093fcbf54", "rental_uris": {"android": "https://dc.lft.to/lastmile_qr_scan", "ios": "https://dc.lft.to/lastmile_qr_scan"}, "name": "3954bb4a5ca088f640cf933093fcbf54", "is_reserved": 0}, {"is_disabled": 0, "fusion_lon": 0.0, "fusion_lat": 0.0, "lat": 38.917061333333336, "type": "electric_scooter", "lon": -77.04175583333334, "bike_id": "597cf42b93b3becea0bad23d09a9dbdb", "rental_uris": {"android": "https://dc.lft.to/lastmile_qr_scan", "ios": "https://dc.lft.to/lastmile_qr_scan"}, "name": "597cf42b93b3becea0bad23d09a9dbdb", "is_reserved": 0}, {"is_disabled": 0, "fusion_lon": 0.0, "fusion_lat": 0.0, "lat": 38.9057775, "type": "electric_scooter", "lon": -77.04675266666666, "bike_id": "c4cad5a37a0bd2f897edbfdb4184c530", "rental_uris": {"android": "https://dc.lft.to/lastmile_qr_scan", "ios": "https://dc.lft.to/lastmile_qr_scan"}, "name": "c4cad5a37a0bd2f897edbfdb4184c530", "is_reserved": 0}, {"is_disabled": 0, "fusion_lon": 0.0, "fusion_lat": 0.0, "lat": 38.93395316666667, "type": "electric_scooter", "lon": -77.04001683333334, "bike_id": "e27c9ad874aef76a2f6fc87bb68e1f3e", "rental_uris": {"android": "https://dc.lft.to/lastmile_qr_scan", "ios": "https://dc.lft.to/lastmile_qr_scan"}, "name": "e27c9ad874aef76a2f6fc87bb68e1f3e", "is_reserved": 0}, {"is_disabled": 0, "fusion_lon": 0.0, "fusion_lat": 0.0, "lat": 38.906711333333334, "type": "electric_scooter", "lon": -77.02723616666667, "bike_id": "bfa771f618a539d321d0019a3985cbad", "rental_uris": {"android": "https://dc.lft.to/lastmile_qr_scan", "ios": "https://dc.lft.to/lastmile_qr_scan"}, "name": "bfa771f618a539d321d0019a3985cbad", "is_reserved": 0}, {"is_disabled": 0, "fusion_lon": 0.0, "fusion_lat": 0.0, "lat": 38.94926366666667, "type": "electric_scooter", "lon": -77.0230165, "bike_id": "50e1892c4ef1c515bdee679602867cc1", "rental_uris": {"android": "https://dc.lft.to/lastmile_qr_scan", "ios": "https://dc.lft.to/lastmile_qr_scan"}, "name": "50e1892c4ef1c515bdee679602867cc1", "is_reserved": 0}, {"is_disabled": 0, "fusion_lon": 0.0, "fusion_lat": 0.0, "lat": 38.8804805, "type": "electric_scooter", "lon": -77.00371633333333, "bike_id": "aa8ece375b4494b2809d200bdfb81401", "rental_uris": {"android": "https://dc.lft.to/lastmile_qr_scan", "ios": "https://dc.lft.to/lastmile_qr_scan"}, "name": "aa8ece375b4494b2809d200bdfb81401", "is_reserved": 0}, {"is_disabled": 0, "fusion_lon": 0.0, "fusion_lat": 0.0, "lat": 38.93078583333333, "type": "electric_scooter", "lon": -77.05821916666666, "bike_id": "02a777648ddfc284bb2c13e99b14d95d", "rental_uris": {"android": "https://dc.lft.to/lastmile_qr_scan", "ios": "https://dc.lft.to/lastmile_qr_scan"}, "name": "02a777648ddfc284bb2c13e99b14d95d", "is_reserved": 0}, {"is_disabled": 0, "fusion_lon": 0.0, "fusion_lat": 0.0, "lat": 38.900163166666665, "type": "electric_scooter", "lon": -77.03977133333333, "bike_id": "156040c3058d82eab995999979962566", "rental_uris": {"android": "https://dc.lft.to/lastmile_qr_scan", "ios": "https://dc.lft.to/lastmile_qr_scan"}, "name": "156040c3058d82eab995999979962566", "is_reserved": 0}, {"is_disabled": 0, "fusion_lon": 0.0, "fusion_lat": 0.0, "lat": 38.905712666666666, "type": "electric_scooter", "lon": -77.03398416666667, "bike_id": "70bff493bca546b0ad3273f9e560780a", "rental_uris": {"android": "https://dc.lft.to/lastmile_qr_scan", "ios": "https://dc.lft.to/lastmile_qr_scan"}, "name": "70bff493bca546b0ad3273f9e560780a", "is_reserved": 0}, {"is_disabled": 0, "fusion_lon": 0.0, "fusion_lat": 0.0, "lat": 38.8860005, "type": "electric_scooter", "lon": -77.02204733333333, "bike_id": "7fefc49624fef7b792e405dfc23d3c10", "rental_uris": {"android": "https://dc.lft.to/lastmile_qr_scan", "ios": "https://dc.lft.to/lastmile_qr_scan"}, "name": "7fefc49624fef7b792e405dfc23d3c10", "is_reserved": 0}, {"is_disabled": 0, "fusion_lon": 0.0, "fusion_lat": 0.0, "lat": 38.891906666666664, "type": "electric_scooter", "lon": -76.988319, "bike_id": "9b0352ef5739f9fbfbc3830e2035d95b", "rental_uris": {"android": "https://dc.lft.to/lastmile_qr_scan", "ios": "https://dc.lft.to/lastmile_qr_scan"}, "name": "9b0352ef5739f9fbfbc3830e2035d95b", "is_reserved": 0}, {"is_disabled": 0, "fusion_lon": 0.0, "fusion_lat": 0.0, "lat": 38.935046166666666, "type": "electric_scooter", "lon": -77.02414066666667, "bike_id": "8f890f74688d57a63faa14ab90339588", "rental_uris": {"android": "https://dc.lft.to/lastmile_qr_scan", "ios": "https://dc.lft.to/lastmile_qr_scan"}, "name": "8f890f74688d57a63faa14ab90339588", "is_reserved": 0}, {"is_disabled": 0, "fusion_lon": 0.0, "fusion_lat": 0.0, "lat": 38.900177, "type": "electric_scooter", "lon": -77.02626116666667, "bike_id": "8f414695300ad99fed80ea7c11d925d6", "rental_uris": {"android": "https://dc.lft.to/lastmile_qr_scan", "ios": "https://dc.lft.to/lastmile_qr_scan"}, "name": "8f414695300ad99fed80ea7c11d925d6", "is_reserved": 0}, {"is_disabled": 0, "fusion_lon": 0.0, "fusion_lat": 0.0, "lat": 38.926756, "type": "electric_scooter", "lon": -77.0662665, "bike_id": "a8673fe06c12add68a2cbc436ed3ad63", "rental_uris": {"android": "https://dc.lft.to/lastmile_qr_scan", "ios": "https://dc.lft.to/lastmile_qr_scan"}, "name": "a8673fe06c12add68a2cbc436ed3ad63", "is_reserved": 0}, {"is_disabled": 0, "fusion_lon": 0.0, "fusion_lat": 0.0, "lat": 38.9051225, "type": "electric_scooter", "lon": -77.03212066666667, "bike_id": "632157be3fb09c2d5d366062b999b55d", "rental_uris": {"android": "https://dc.lft.to/lastmile_qr_scan", "ios": "https://dc.lft.to/lastmile_qr_scan"}, "name": "632157be3fb09c2d5d366062b999b55d", "is_reserved": 0}, {"is_disabled": 0, "fusion_lon": 0.0, "fusion_lat": 0.0, "lat": 38.913324333333335, "type": "electric_scooter", "lon": -77.0324565, "bike_id": "76c129618456466bc9f7d30c66201dc6", "rental_uris": {"android": "https://dc.lft.to/lastmile_qr_scan", "ios": "https://dc.lft.to/lastmile_qr_scan"}, "name": "76c129618456466bc9f7d30c66201dc6", "is_reserved": 0}, {"is_disabled": 0, "fusion_lon": 0.0, "fusion_lat": 0.0, "lat": 38.92373416666667, "type": "electric_scooter", "lon": -77.02811866666667, "bike_id": "c6e7d643d38aa6688c4fab200e704579", "rental_uris": {"android": "https://dc.lft.to/lastmile_qr_scan", "ios": "https://dc.lft.to/lastmile_qr_scan"}, "name": "c6e7d643d38aa6688c4fab200e704579", "is_reserved": 0}, {"is_disabled": 0, "fusion_lon": 0.0, "fusion_lat": 0.0, "lat": 38.92319416666667, "type": "electric_scooter", "lon": -77.04520666666667, "bike_id": "eacfe227d25012de65edb053f7ed86c2", "rental_uris": {"android": "https://dc.lft.to/lastmile_qr_scan", "ios": "https://dc.lft.to/lastmile_qr_scan"}, "name": "eacfe227d25012de65edb053f7ed86c2", "is_reserved": 0}, {"is_disabled": 0, "fusion_lon": 0.0, "fusion_lat": 0.0, "lat": 38.85920733333333, "type": "electric_scooter", "lon": -76.98782666666666, "bike_id": "018e2d5bc3c70d3466c79d085483a968", "rental_uris": {"android": "https://dc.lft.to/lastmile_qr_scan", "ios": "https://dc.lft.to/lastmile_qr_scan"}, "name": "018e2d5bc3c70d3466c79d085483a968", "is_reserved": 0}, {"is_disabled": 0, "fusion_lon": 0.0, "fusion_lat": 0.0, "lat": 38.9260615, "type": "electric_scooter", "lon": -77.021552, "bike_id": "f861f9cab83a35347155c6cbbffe98fd", "rental_uris": {"android": "https://dc.lft.to/lastmile_qr_scan", "ios": "https://dc.lft.to/lastmile_qr_scan"}, "name": "f861f9cab83a35347155c6cbbffe98fd", "is_reserved": 0}, {"is_disabled": 0, "fusion_lon": 0.0, "fusion_lat": 0.0, "lat": 38.8837155, "type": "electric_scooter", "lon": -77.0175885, "bike_id": "904a896b4b73822bbd40f890314ae368", "rental_uris": {"android": "https://dc.lft.to/lastmile_qr_scan", "ios": "https://dc.lft.to/lastmile_qr_scan"}, "name": "904a896b4b73822bbd40f890314ae368", "is_reserved": 0}, {"is_disabled": 0, "fusion_lon": 0.0, "fusion_lat": 0.0, "lat": 38.928571833333336, "type": "electric_scooter", "lon": -77.0141605, "bike_id": "2f649d98c8739d4a37fa5edfce93dcd3", "rental_uris": {"android": "https://dc.lft.to/lastmile_qr_scan", "ios": "https://dc.lft.to/lastmile_qr_scan"}, "name": "2f649d98c8739d4a37fa5edfce93dcd3", "is_reserved": 0}, {"is_disabled": 0, "fusion_lon": 0.0, "fusion_lat": 0.0, "lat": 38.934968166666664, "type": "electric_scooter", "lon": -77.0260375, "bike_id": "e7c7d0001d562a3df828cf9578f82ef1", "rental_uris": {"android": "https://dc.lft.to/lastmile_qr_scan", "ios": "https://dc.lft.to/lastmile_qr_scan"}, "name": "e7c7d0001d562a3df828cf9578f82ef1", "is_reserved": 0}, {"is_disabled": 0, "fusion_lon": 0.0, "fusion_lat": 0.0, "lat": 38.96017116666667, "type": "electric_scooter", "lon": -77.03308933333334, "bike_id": "2b5d042f20f3779c2e61d6ae640d485d", "rental_uris": {"android": "https://dc.lft.to/lastmile_qr_scan", "ios": "https://dc.lft.to/lastmile_qr_scan"}, "name": "2b5d042f20f3779c2e61d6ae640d485d", "is_reserved": 0}, {"is_disabled": 0, "fusion_lon": 0.0, "fusion_lat": 0.0, "lat": 38.918100333333335, "type": "electric_scooter", "lon": -77.03129516666667, "bike_id": "b494b32d50e883170b291bf2e319a12d", "rental_uris": {"android": "https://dc.lft.to/lastmile_qr_scan", "ios": "https://dc.lft.to/lastmile_qr_scan"}, "name": "b494b32d50e883170b291bf2e319a12d", "is_reserved": 0}, {"is_disabled": 0, "fusion_lon": 0.0, "fusion_lat": 0.0, "lat": 38.92767583333333, "type": "electric_scooter", "lon": -77.02784866666667, "bike_id": "ac06dd6bd4ff5ebf1bdedac4e685da3d", "rental_uris": {"android": "https://dc.lft.to/lastmile_qr_scan", "ios": "https://dc.lft.to/lastmile_qr_scan"}, "name": "ac06dd6bd4ff5ebf1bdedac4e685da3d", "is_reserved": 0}, {"is_disabled": 0, "fusion_lon": 0.0, "fusion_lat": 0.0, "lat": 38.865235166666665, "type": "electric_scooter", "lon": -76.9897065, "bike_id": "1d362a073b1c4031df4b3a90b53ce1b9", "rental_uris": {"android": "https://dc.lft.to/lastmile_qr_scan", "ios": "https://dc.lft.to/lastmile_qr_scan"}, "name": "1d362a073b1c4031df4b3a90b53ce1b9", "is_reserved": 0}, {"is_disabled": 0, "fusion_lon": 0.0, "fusion_lat": 0.0, "lat": 38.89899066666667, "type": "electric_scooter", "lon": -77.0398145, "bike_id": "c681938dc7175fb22b6c7fed4ecfe368", "rental_uris": {"android": "https://dc.lft.to/lastmile_qr_scan", "ios": "https://dc.lft.to/lastmile_qr_scan"}, "name": "c681938dc7175fb22b6c7fed4ecfe368", "is_reserved": 0}, {"is_disabled": 0, "fusion_lon": 0.0, "fusion_lat": 0.0, "lat": 38.846210166666665, "type": "electric_scooter", "lon": -76.99628983333334, "bike_id": "023376a7f92fba8b17d48fad98f48a97", "rental_uris": {"android": "https://dc.lft.to/lastmile_qr_scan", "ios": "https://dc.lft.to/lastmile_qr_scan"}, "name": "023376a7f92fba8b17d48fad98f48a97", "is_reserved": 0}, {"is_disabled": 0, "fusion_lon": 0.0, "fusion_lat": 0.0, "lat": 38.903345, "type": "electric_scooter", "lon": -76.980129, "bike_id": "e9f7c9b64b184344ebc3e6b622aaaff9", "rental_uris": {"android": "https://dc.lft.to/lastmile_qr_scan", "ios": "https://dc.lft.to/lastmile_qr_scan"}, "name": "e9f7c9b64b184344ebc3e6b622aaaff9", "is_reserved": 0}, {"is_disabled": 0, "fusion_lon": 0.0, "fusion_lat": 0.0, "lat": 38.924431166666665, "type": "electric_scooter", "lon": -77.02608483333333, "bike_id": "c644c4b60c1f83b5eb6ed67c17249d9e", "rental_uris": {"android": "https://dc.lft.to/lastmile_qr_scan", "ios": "https://dc.lft.to/lastmile_qr_scan"}, "name": "c644c4b60c1f83b5eb6ed67c17249d9e", "is_reserved": 0}, {"is_disabled": 0, "fusion_lon": 0.0, "fusion_lat": 0.0, "lat": 38.92333766666667, "type": "electric_scooter", "lon": -77.041881, "bike_id": "fa304af7647ab29aa2a1a55662f22499", "rental_uris": {"android": "https://dc.lft.to/lastmile_qr_scan", "ios": "https://dc.lft.to/lastmile_qr_scan"}, "name": "fa304af7647ab29aa2a1a55662f22499", "is_reserved": 0}, {"is_disabled": 0, "fusion_lon": 0.0, "fusion_lat": 0.0, "lat": 38.90708433333333, "type": "electric_scooter", "lon": -77.04665766666666, "bike_id": "9e4f629433dd17b8aad16318a07cb0a8", "rental_uris": {"android": "https://dc.lft.to/lastmile_qr_scan", "ios": "https://dc.lft.to/lastmile_qr_scan"}, "name": "9e4f629433dd17b8aad16318a07cb0a8", "is_reserved": 0}, {"is_disabled": 0, "fusion_lon": 0.0, "fusion_lat": 0.0, "lat": 38.8716045, "type": "electric_scooter", "lon": -77.01353816666666, "bike_id": "35c57640381ef38a01c0edcd4a735c4c", "rental_uris": {"android": "https://dc.lft.to/lastmile_qr_scan", "ios": "https://dc.lft.to/lastmile_qr_scan"}, "name": "35c57640381ef38a01c0edcd4a735c4c", "is_reserved": 0}, {"is_disabled": 0, "fusion_lon": 0.0, "fusion_lat": 0.0, "lat": 38.9006525, "type": "electric_scooter", "lon": -76.93382683333333, "bike_id": "66705d2c6dba31afd7b39baf52aa4877", "rental_uris": {"android": "https://dc.lft.to/lastmile_qr_scan", "ios": "https://dc.lft.to/lastmile_qr_scan"}, "name": "66705d2c6dba31afd7b39baf52aa4877", "is_reserved": 0}, {"is_disabled": 0, "fusion_lon": 0.0, "fusion_lat": 0.0, "lat": 38.87896833333333, "type": "electric_scooter", "lon": -76.9352265, "bike_id": "b870387a86612570cfd0ee7111724584", "rental_uris": {"android": "https://dc.lft.to/lastmile_qr_scan", "ios": "https://dc.lft.to/lastmile_qr_scan"}, "name": "b870387a86612570cfd0ee7111724584", "is_reserved": 0}, {"is_disabled": 0, "fusion_lon": 0.0, "fusion_lat": 0.0, "lat": 38.899716166666664, "type": "electric_scooter", "lon": -77.05143583333333, "bike_id": "9b0c0ff56ff3c73dc0e45aba95bd91fa", "rental_uris": {"android": "https://dc.lft.to/lastmile_qr_scan", "ios": "https://dc.lft.to/lastmile_qr_scan"}, "name": "9b0c0ff56ff3c73dc0e45aba95bd91fa", "is_reserved": 0}, {"is_disabled": 0, "fusion_lon": 0.0, "fusion_lat": 0.0, "lat": 38.91307166666667, "type": "electric_scooter", "lon": -77.0383595, "bike_id": "e69d77b7d6621f101ba5fa5b1dd2c990", "rental_uris": {"android": "https://dc.lft.to/lastmile_qr_scan", "ios": "https://dc.lft.to/lastmile_qr_scan"}, "name": "e69d77b7d6621f101ba5fa5b1dd2c990", "is_reserved": 0}, {"is_disabled": 0, "fusion_lon": 0.0, "fusion_lat": 0.0, "lat": 38.877116666666666, "type": "electric_scooter", "lon": -77.00514233333334, "bike_id": "b3cbe4b0adad2007f00b2815e301b9f9", "rental_uris": {"android": "https://dc.lft.to/lastmile_qr_scan", "ios": "https://dc.lft.to/lastmile_qr_scan"}, "name": "b3cbe4b0adad2007f00b2815e301b9f9", "is_reserved": 0}, {"is_disabled": 0, "fusion_lon": 0.0, "fusion_lat": 0.0, "lat": 38.9360385, "type": "electric_scooter", "lon": -77.05858533333334, "bike_id": "a9f1c0c15fac8fbe7e63a2d132794a0e", "rental_uris": {"android": "https://dc.lft.to/lastmile_qr_scan", "ios": "https://dc.lft.to/lastmile_qr_scan"}, "name": "a9f1c0c15fac8fbe7e63a2d132794a0e", "is_reserved": 0}, {"is_disabled": 0, "fusion_lon": 0.0, "fusion_lat": 0.0, "lat": 38.9038135, "type": "electric_scooter", "lon": -77.05373733333333, "bike_id": "9713fa396b785a307aae2a7fb6a46265", "rental_uris": {"android": "https://dc.lft.to/lastmile_qr_scan", "ios": "https://dc.lft.to/lastmile_qr_scan"}, "name": "9713fa396b785a307aae2a7fb6a46265", "is_reserved": 0}, {"is_disabled": 0, "fusion_lon": 0.0, "fusion_lat": 0.0, "lat": 38.91314116666667, "type": "electric_scooter", "lon": -77.01435583333334, "bike_id": "925b4350c98d8791c4ea9e6a766493a4", "rental_uris": {"android": "https://dc.lft.to/lastmile_qr_scan", "ios": "https://dc.lft.to/lastmile_qr_scan"}, "name": "925b4350c98d8791c4ea9e6a766493a4", "is_reserved": 0}, {"is_disabled": 0, "fusion_lon": 0.0, "fusion_lat": 0.0, "lat": 38.87057183333334, "type": "electric_scooter", "lon": -76.98082316666667, "bike_id": "3458947cf49c1b31ae802fef66105967", "rental_uris": {"android": "https://dc.lft.to/lastmile_qr_scan", "ios": "https://dc.lft.to/lastmile_qr_scan"}, "name": "3458947cf49c1b31ae802fef66105967", "is_reserved": 0}, {"is_disabled": 0, "fusion_lon": 0.0, "fusion_lat": 0.0, "lat": 38.95642766666667, "type": "electric_scooter", "lon": -77.09096966666667, "bike_id": "d7a455f04c134252223e9761aeaca90c", "rental_uris": {"android": "https://dc.lft.to/lastmile_qr_scan", "ios": "https://dc.lft.to/lastmile_qr_scan"}, "name": "d7a455f04c134252223e9761aeaca90c", "is_reserved": 0}, {"is_disabled": 0, "fusion_lon": 0.0, "fusion_lat": 0.0, "lat": 38.907545666666664, "type": "electric_scooter", "lon": -77.001223, "bike_id": "495148f1ed1ee649b6c20e65e8d26357", "rental_uris": {"android": "https://dc.lft.to/lastmile_qr_scan", "ios": "https://dc.lft.to/lastmile_qr_scan"}, "name": "495148f1ed1ee649b6c20e65e8d26357", "is_reserved": 0}, {"is_disabled": 0, "fusion_lon": 0.0, "fusion_lat": 0.0, "lat": 38.856543333333335, "type": "electric_bike", "lon": -77.08526383333333, "bike_id": "6f0c1d7ae19928207aad530f810b0d88", "rental_uris": {"android": "https://dc.lft.to/lastmile_qr_scan", "ios": "https://dc.lft.to/lastmile_qr_scan"}, "name": "6f0c1d7ae19928207aad530f810b0d88", "is_reserved": 0}, {"is_disabled": 0, "fusion_lon": 0.0, "fusion_lat": 0.0, "lat": 38.849361333333334, "type": "electric_bike", "lon": -77.100076, "bike_id": "750f0b629b0ce70a842daf66c26bca1b", "rental_uris": {"android": "https://dc.lft.to/lastmile_qr_scan", "ios": "https://dc.lft.to/lastmile_qr_scan"}, "name": "750f0b629b0ce70a842daf66c26bca1b", "is_reserved": 0}, {"is_disabled": 0, "fusion_lon": 0.0, "fusion_lat": 0.0, "lat": 38.88691883333333, "type": "electric_scooter", "lon": -76.98799883333334, "bike_id": "4461258471c6ff3f62ee5bc022f5373a", "rental_uris": {"android": "https://dc.lft.to/lastmile_qr_scan", "ios": "https://dc.lft.to/lastmile_qr_scan"}, "name": "4461258471c6ff3f62ee5bc022f5373a", "is_reserved": 0}, {"is_disabled": 0, "fusion_lon": 0.0, "fusion_lat": 0.0, "lat": 38.919306666666664, "type": "electric_scooter", "lon": -77.02416833333334, "bike_id": "6ca65307f9fcd0634530349d5885a638", "rental_uris": {"android": "https://dc.lft.to/lastmile_qr_scan", "ios": "https://dc.lft.to/lastmile_qr_scan"}, "name": "6ca65307f9fcd0634530349d5885a638", "is_reserved": 0}, {"is_disabled": 0, "fusion_lon": 0.0, "fusion_lat": 0.0, "lat": 38.88616233333333, "type": "electric_scooter", "lon": -77.005696, "bike_id": "710cdbe6f1e8e5616b14ae2e868ebd3d", "rental_uris": {"android": "https://dc.lft.to/lastmile_qr_scan", "ios": "https://dc.lft.to/lastmile_qr_scan"}, "name": "710cdbe6f1e8e5616b14ae2e868ebd3d", "is_reserved": 0}, {"is_disabled": 0, "fusion_lon": 0.0, "fusion_lat": 0.0, "lat": 38.91700216666667, "type": "electric_scooter", "lon": -77.01166166666667, "bike_id": "2d18796f1417e6966d8399891ea72e57", "rental_uris": {"android": "https://dc.lft.to/lastmile_qr_scan", "ios": "https://dc.lft.to/lastmile_qr_scan"}, "name": "2d18796f1417e6966d8399891ea72e57", "is_reserved": 0}, {"is_disabled": 0, "fusion_lon": 0.0, "fusion_lat": 0.0, "lat": 38.937039666666664, "type": "electric_scooter", "lon": -77.05600816666667, "bike_id": "58cc3dc297ddac408680a3634c261477", "rental_uris": {"android": "https://dc.lft.to/lastmile_qr_scan", "ios": "https://dc.lft.to/lastmile_qr_scan"}, "name": "58cc3dc297ddac408680a3634c261477", "is_reserved": 0}, {"is_disabled": 0, "fusion_lon": 0.0, "fusion_lat": 0.0, "lat": 38.957482666666664, "type": "electric_scooter", "lon": -77.02432466666667, "bike_id": "fa582f71fd07c7358c028513e00e7e85", "rental_uris": {"android": "https://dc.lft.to/lastmile_qr_scan", "ios": "https://dc.lft.to/lastmile_qr_scan"}, "name": "fa582f71fd07c7358c028513e00e7e85", "is_reserved": 0}, {"is_disabled": 0, "fusion_lon": 0.0, "fusion_lat": 0.0, "lat": 38.9333965, "type": "electric_scooter", "lon": -77.04129583333334, "bike_id": "4dab4b2e873dbc170bf234772f6b2a78", "rental_uris": {"android": "https://dc.lft.to/lastmile_qr_scan", "ios": "https://dc.lft.to/lastmile_qr_scan"}, "name": "4dab4b2e873dbc170bf234772f6b2a78", "is_reserved": 0}, {"is_disabled": 0, "fusion_lon": 0.0, "fusion_lat": 0.0, "lat": 38.928272166666666, "type": "electric_scooter", "lon": -77.022577, "bike_id": "cb060be6a99877373b7c7af9ffcab0e8", "rental_uris": {"android": "https://dc.lft.to/lastmile_qr_scan", "ios": "https://dc.lft.to/lastmile_qr_scan"}, "name": "cb060be6a99877373b7c7af9ffcab0e8", "is_reserved": 0}, {"is_disabled": 0, "fusion_lon": 0.0, "fusion_lat": 0.0, "lat": 38.92868333333333, "type": "electric_scooter", "lon": -76.99031333333333, "bike_id": "4e8393951fdf1d5ab9719e1c2e826f93", "rental_uris": {"android": "https://dc.lft.to/lastmile_qr_scan", "ios": "https://dc.lft.to/lastmile_qr_scan"}, "name": "4e8393951fdf1d5ab9719e1c2e826f93", "is_reserved": 0}, {"is_disabled": 0, "fusion_lon": 0.0, "fusion_lat": 0.0, "lat": 38.9134515, "type": "electric_scooter", "lon": -77.05214316666667, "bike_id": "894988ae1f8613cc13096dc80afb7bdd", "rental_uris": {"android": "https://dc.lft.to/lastmile_qr_scan", "ios": "https://dc.lft.to/lastmile_qr_scan"}, "name": "894988ae1f8613cc13096dc80afb7bdd", "is_reserved": 0}, {"is_disabled": 0, "fusion_lon": 0.0, "fusion_lat": 0.0, "lat": 38.98475283333333, "type": "electric_scooter", "lon": -77.02648216666667, "bike_id": "9c970ea8c2974e682537f61d9feb69e4", "rental_uris": {"android": "https://dc.lft.to/lastmile_qr_scan", "ios": "https://dc.lft.to/lastmile_qr_scan"}, "name": "9c970ea8c2974e682537f61d9feb69e4", "is_reserved": 0}, {"is_disabled": 0, "fusion_lon": 0.0, "fusion_lat": 0.0, "lat": 38.893603666666664, "type": "electric_scooter", "lon": -76.93988, "bike_id": "9fe5a4c29d202d5e6f172f95ed773f03", "rental_uris": {"android": "https://dc.lft.to/lastmile_qr_scan", "ios": "https://dc.lft.to/lastmile_qr_scan"}, "name": "9fe5a4c29d202d5e6f172f95ed773f03", "is_reserved": 0}, {"is_disabled": 0, "fusion_lon": 0.0, "fusion_lat": 0.0, "lat": 38.92738683333334, "type": "electric_bike", "lon": -76.99364516666667, "bike_id": "f71f165655450c9089cc9886f5a3438a", "rental_uris": {"android": "https://dc.lft.to/lastmile_qr_scan", "ios": "https://dc.lft.to/lastmile_qr_scan"}, "name": "f71f165655450c9089cc9886f5a3438a", "is_reserved": 0}, {"is_disabled": 0, "fusion_lon": 0.0, "fusion_lat": 0.0, "lat": 38.8779515, "type": "electric_scooter", "lon": -77.01367366666666, "bike_id": "baf55472df814ea5c4af21421885dc41", "rental_uris": {"android": "https://dc.lft.to/lastmile_qr_scan", "ios": "https://dc.lft.to/lastmile_qr_scan"}, "name": "baf55472df814ea5c4af21421885dc41", "is_reserved": 0}, {"is_disabled": 0, "fusion_lon": 0.0, "fusion_lat": 0.0, "lat": 38.86723116666667, "type": "electric_scooter", "lon": -76.97918116666666, "bike_id": "6fae5d9b60300cd19b5d9e4059e36cc7", "rental_uris": {"android": "https://dc.lft.to/lastmile_qr_scan", "ios": "https://dc.lft.to/lastmile_qr_scan"}, "name": "6fae5d9b60300cd19b5d9e4059e36cc7", "is_reserved": 0}, {"is_disabled": 0, "fusion_lon": 0.0, "fusion_lat": 0.0, "lat": 38.9388715, "type": "electric_scooter", "lon": -77.02822966666666, "bike_id": "2980133e7512d62ded4ae72ea6bd8715", "rental_uris": {"android": "https://dc.lft.to/lastmile_qr_scan", "ios": "https://dc.lft.to/lastmile_qr_scan"}, "name": "2980133e7512d62ded4ae72ea6bd8715", "is_reserved": 0}, {"is_disabled": 0, "fusion_lon": 0.0, "fusion_lat": 0.0, "lat": 38.898335, "type": "electric_scooter", "lon": -76.94634533333334, "bike_id": "b8dbc2d084045d006150ee550ed5217f", "rental_uris": {"android": "https://dc.lft.to/lastmile_qr_scan", "ios": "https://dc.lft.to/lastmile_qr_scan"}, "name": "b8dbc2d084045d006150ee550ed5217f", "is_reserved": 0},