{"data": {"bikes": [{"lon": -77.03258533333333, "is_disabled": 0, "lat": 38.939675, "fusion_lat": 0.0, "is_reserved": 0, "rental_uris": {"ios": "https://dc.lft.to/lastmile_qr_scan", "android": "https://dc.lft.to/lastmile_qr_scan"}, "fusion_lon": 0.0, "type": "electric_scooter", "bike_id": "6b8255fffb47d67c0b3726d67ba016ce", "name": "6b8255fffb47d67c0b3726d67ba016ce"}, {"lon": -77.10855416666666, "is_disabled": 0, "lat": 38.845958833333334, "fusion_lat": 0.0, "is_reserved": 0, "rental_uris": {"ios": "https://dc.lft.to/lastmile_qr_scan", "android": "https://dc.lft.to/lastmile_qr_scan"}, "fusion_lon": 0.0, "type": "electric_bike", "bike_id": "9ee7a96bfc78a789d757df0f624ca205", "name": "9ee7a96bfc78a789d757df0f624ca205"}, {"lon": -76.995102, "is_disabled": 0, "lat": 38.82171183333333, "fusion_lat": 0.0, "is_reserved": 0, "rental_uris": {"ios": "https://dc.lft.to/lastmile_qr_scan", "android": "https://dc.lft.to/lastmile_qr_scan"}, "fusion_lon": 0.0, "type": "electric_bike", "bike_id": "dc4aac952975e75a4222252d319a188f", "name": "dc4aac952975e75a4222252d319a188f"}, {"lon": -76.99130083333333, "is_disabled": 0, "lat": 38.846423333333334, "fusion_lat": 0.0, "is_reserved": 0, "rental_uris": {"ios": "https://dc.lft.to/lastmile_qr_scan", "android": "https://dc.lft.to/lastmile_qr_scan"}, "fusion_lon": 0.0, "type": "electric_scooter", "bike_id": "f7d4278b008dc0989d7cffb022bda6e9", "name": "f7d4278b008dc0989d7cffb022bda6e9"}, {"lon": -76.99754283333333, "is_disabled": 0, "lat": 38.877438833333336, "fusion_lat": 0.0, "is_reserved": 0, "rental_uris": {"ios": "https://dc.lft.to/lastmile_qr_scan", "android": "https://dc.lft.to/lastmile_qr_scan"}, "fusion_lon": 0.0, "type": "electric_scooter", "bike_id": "ae595bc65026ff4e9aa8510cb04659c3", "name": "ae595bc65026ff4e9aa8510cb04659c3"}, {"lon": -77.03030383333333, "is_disabled": 0, "lat": 38.922477, "fusion_lat": 0.0, "is_reserved": 0, "rental_uris": {"ios": "https://dc.lft.to/lastmile_qr_scan", "android": "https://dc.lft.to/lastmile_qr_scan"}, "fusion_lon": 0.0, "type": "electric_scooter", "bike_id": "850dc1da1f341b0fbcdd27dd4d74ff98", "name": "850dc1da1f341b0fbcdd27dd4d74ff98"}, {"lon": -77.0236095, "is_disabled": 0, "lat": 38.8996265, "fusion_lat": 0.0, "is_reserved": 0, "rental_uris": {"ios": "https://dc.lft.to/lastmile_qr_scan", "android": "https://dc.lft.to/lastmile_qr_scan"}, "fusion_lon": 0.0, "type": "electric_scooter", "bike_id": "f971a88ddb7f0e6334695ce2b3b07b1f", "name": "f971a88ddb7f0e6334695ce2b3b07b1f"}, {"lon": -77.0033765, "is_disabled": 0, "lat": 38.902861333333334, "fusion_lat": 0.0, "is_reserved": 0, "rental_uris": {"ios": "https://dc.lft.to/lastmile_qr_scan", "android": "https://dc.lft.to/lastmile_qr_scan"}, "fusion_lon": 0.0, "type": "electric_scooter", "bike_id": "19e017794f1bf174469e592766d9ec60", "name": "19e017794f1bf174469e592766d9ec60"}, {"lon": -77.04175266666667, "is_disabled": 0, "lat": 38.91125383333333, "fusion_lat": 0.0, "is_reserved": 0, "rental_uris": {"ios": "https://dc.lft.to/lastmile_qr_scan", "android": "https://dc.lft.to/lastmile_qr_scan"}, "fusion_lon": 0.0, "type": "electric_scooter", "bike_id": "e45a9de3e169630682d3e1e4ac99bd16", "name": "e45a9de3e169630682d3e1e4ac99bd16"}, {"lon": -77.03256583333334, "is_disabled": 0, "lat": 38.939656666666664, "fusion_lat": 0.0, "is_reserved": 0, "rental_uris": {"ios": "https://dc.lft.to/lastmile_qr_scan", "android": "https://dc.lft.to/lastmile_qr_scan"}, "fusion_lon": 0.0, "type": "electric_scooter", "bike_id": "936497dd39b0f770d7667e5a90e8322d", "name": "936497dd39b0f770d7667e5a90e8322d"}, {"lon": -77.00681166666666, "is_disabled": 0, "lat": 38.871726, "fusion_lat": 0.0, "is_reserved": 0, "rental_uris": {"ios": "https://dc.lft.to/lastmile_qr_scan", "android": "https://dc.lft.to/lastmile_qr_scan"}, "fusion_lon": 0.0, "type": "electric_scooter", "bike_id": "f029ee50f0ed21180f0a7cecf62c9c47", "name": "f029ee50f0ed21180f0a7cecf62c9c47"}, {"lon": -76.94635233333334, "is_disabled": 0, "lat": 38.898324333333335, "fusion_lat": 0.0, "is_reserved": 0, "rental_uris": {"ios": "https://dc.lft.to/lastmile_qr_scan", "android": "https://dc.lft.to/lastmile_qr_scan"}, "fusion_lon": 0.0, "type": "electric_scooter", "bike_id": "876ad507507e41baef7c410cde14b094", "name": "876ad507507e41baef7c410cde14b094"}, {"lon": -76.99769333333333, "is_disabled": 0, "lat": 38.90896333333333, "fusion_lat": 0.0, "is_reserved": 0, "rental_uris": {"ios": "https://dc.lft.to/lastmile_qr_scan", "android": "https://dc.lft.to/lastmile_qr_scan"}, "fusion_lon": 0.0, "type": "electric_scooter", "bike_id": "8449f827345d6b2c1eecc6a38b53888d", "name": "8449f827345d6b2c1eecc6a38b53888d"}, {"lon": -77.0177525, "is_disabled": 0, "lat": 38.91500583333333, "fusion_lat": 0.0, "is_reserved": 0, "rental_uris": {"ios": "https://dc.lft.to/lastmile_qr_scan", "android": "https://dc.lft.to/lastmile_qr_scan"}, "fusion_lon": 0.0, "type": "electric_scooter", "bike_id": "c1712b308892cf518c30da03f1351e24", "name": "c1712b308892cf518c30da03f1351e24"}, {"lon": -77.02186283333333, "is_disabled": 0, "lat": 38.90407283333333, "fusion_lat": 0.0, "is_reserved": 0, "rental_uris": {"ios": "https://dc.lft.to/lastmile_qr_scan", "android": "https://dc.lft.to/lastmile_qr_scan"}, "fusion_lon": 0.0, "type": "electric_scooter", "bike_id": "09e5ad99895712ce1e20908b14e6bb0f", "name": "09e5ad99895712ce1e20908b14e6bb0f"}, {"lon": -77.00056616666667, "is_disabled": 0, "lat": 38.9232435, "fusion_lat": 0.0, "is_reserved": 0, "rental_uris": {"ios": "https://dc.lft.to/lastmile_qr_scan", "android": "https://dc.lft.to/lastmile_qr_scan"}, "fusion_lon": 0.0, "type": "electric_scooter", "bike_id": "ee7b0cfa67239eaf14d7fcf9f397e47e", "name": "ee7b0cfa67239eaf14d7fcf9f397e47e"}, {"lon": -77.02478466666666, "is_disabled": 0, "lat": 38.938534, "fusion_lat": 0.0, "is_reserved": 0, "rental_uris": {"ios": "https://dc.lft.to/lastmile_qr_scan", "android": "https://dc.lft.to/lastmile_qr_scan"}, "fusion_lon": 0.0, "type": "electric_scooter", "bike_id": "1918bd92fdb6647499ae60e8eff7e1d2", "name": "1918bd92fdb6647499ae60e8eff7e1d2"}, {"lon": -77.02124066666667, "is_disabled": 0, "lat": 38.91418216666667, "fusion_lat": 0.0, "is_reserved": 0, "rental_uris": {"ios": "https://dc.lft.to/lastmile_qr_scan", "android": "https://dc.lft.to/lastmile_qr_scan"}, "fusion_lon": 0.0, "type": "electric_scooter", "bike_id": "58d80203934f7d625f613c4f0aa4872b", "name": "58d80203934f7d625f613c4f0aa4872b"}, {"lon": -77.02359083333333, "is_disabled": 0, "lat": 38.920655, "fusion_lat": 0.0, "is_reserved": 0, "rental_uris": {"ios": "https://dc.lft.to/lastmile_qr_scan", "android": "https://dc.lft.to/lastmile_qr_scan"}, "fusion_lon": 0.0, "type": "electric_scooter", "bike_id": "be9f7a2252e0eaaa8b78b466d5f697b2", "name": "be9f7a2252e0eaaa8b78b466d5f697b2"}, {"lon": -77.048798, "is_disabled": 0, "lat": 38.909752, "fusion_lat": 0.0, "is_reserved": 0, "rental_uris": {"ios": "https://dc.lft.to/lastmile_qr_scan", "android": "https://dc.lft.to/lastmile_qr_scan"}, "fusion_lon": 0.0, "type": "electric_scooter", "bike_id": "ec1328064d01159dc8da24a86790955a", "name": "ec1328064d01159dc8da24a86790955a"}, {"lon": -77.02940033333333, "is_disabled": 0, "lat": 38.901325166666666, "fusion_lat": 0.0, "is_reserved": 0, "rental_uris": {"ios": "https://dc.lft.to/lastmile_qr_scan", "android": "https://dc.lft.to/lastmile_qr_scan"}, "fusion_lon": 0.0, "type": "electric_scooter", "bike_id": "ba4d9922ca9678d838318145e3c4c5b9", "name": "ba4d9922ca9678d838318145e3c4c5b9"}, {"lon": -77.0503825, "is_disabled": 0, "lat": 38.923374833333334, "fusion_lat": 0.0, "is_reserved": 0, "rental_uris": {"ios": "https://dc.lft.to/lastmile_qr_scan", "android": "https://dc.lft.to/lastmile_qr_scan"}, "fusion_lon": 0.0, "type": "electric_scooter", "bike_id": "752e63cd5e1da8f67f4f6c9f903b740c", "name": "752e63cd5e1da8f67f4f6c9f903b740c"}, {"lon": -76.9493505, "is_disabled": 0, "lat": 38.893628, "fusion_lat": 0.0, "is_reserved": 0, "rental_uris": {"ios": "https://dc.lft.to/lastmile_qr_scan", "android": "https://dc.lft.to/lastmile_qr_scan"}, "fusion_lon": 0.0, "type": "electric_scooter", "bike_id": "7924b7d70ab9dbd9860c7a902bb86295", "name": "7924b7d70ab9dbd9860c7a902bb86295"}, {"lon": -76.9524765, "is_disabled": 0, "lat": 38.906936, "fusion_lat": 0.0, "is_reserved": 0, "rental_uris": {"ios": "https://dc.lft.to/lastmile_qr_scan", "android": "https://dc.lft.to/lastmile_qr_scan"}, "fusion_lon": 0.0, "type": "electric_bike", "bike_id": "adb877a7110e7ec28756feb2e3bb46bc", "name": "adb877a7110e7ec28756feb2e3bb46bc"}, {"lon": -77.02375616666667, "is_disabled": 0, "lat": 38.909471833333335, "fusion_lat": 0.0, "is_reserved": 0, "rental_uris": {"ios": "https://dc.lft.to/lastmile_qr_scan", "android": "https://dc.lft.to/lastmile_qr_scan"}, "fusion_lon": 0.0, "type": "electric_scooter", "bike_id": "6bb744ee1fde2ac50ee4f4e12dfcd9d2", "name": "6bb744ee1fde2ac50ee4f4e12dfcd9d2"}, {"lon": -77.11790666666667, "is_disabled": 0, "lat": 39.05496316666667, "fusion_lat": 0.0, "is_reserved": 0, "rental_uris": {"ios": "https://dc.lft.to/lastmile_qr_scan", "android": "https://dc.lft.to/lastmile_qr_scan"}, "fusion_lon": 0.0, "type": "electric_bike", "bike_id": "5e6ba3e2da2b2d37ecddd608b86ef0a8", "name": "5e6ba3e2da2b2d37ecddd608b86ef0a8"}, {"lon": -77.02507616666666, "is_disabled": 0, "lat": 38.9416805, "fusion_lat": 0.0, "is_reserved": 0, "rental_uris": {"ios": "https://dc.lft.to/lastmile_qr_scan", "android": "https://dc.lft.to/lastmile_qr_scan"}, "fusion_lon": 0.0, "type": "electric_bike", "bike_id": "f4fd2d61195dc5aecee8892ba2b084a0", "name": "f4fd2d61195dc5aecee8892ba2b084a0"}, {"lon": -77.0060885, "is_disabled": 0, "lat": 38.871788333333335, "fusion_lat": 0.0, "is_reserved": 0, "rental_uris": {"ios": "https://dc.lft.to/lastmile_qr_scan", "android": "https://dc.lft.to/lastmile_qr_scan"}, "fusion_lon": 0.0, "type": "electric_scooter", "bike_id": "03ea982d6e63c9284b8882d726462f7b", "name": "03ea982d6e63c9284b8882d726462f7b"}, {"lon": -77.00597966666666, "is_disabled": 0, "lat": 38.90253466666667, "fusion_lat": 0.0, "is_reserved": 0, "rental_uris": {"ios": "https://dc.lft.to/lastmile_qr_scan", "android": "https://dc.lft.to/lastmile_qr_scan"}, "fusion_lon": 0.0, "type": "electric_scooter", "bike_id": "22d5c1dacceb38b6b420726b965e9a2c", "name": "22d5c1dacceb38b6b420726b965e9a2c"}, {"lon": -77.0081905, "is_disabled": 0, "lat": 38.876853833333335, "fusion_lat": 0.0, "is_reserved": 0, "rental_uris": {"ios": "https://dc.lft.to/lastmile_qr_scan", "android": "https://dc.lft.to/lastmile_qr_scan"}, "fusion_lon": 0.0, "type": "electric_scooter", "bike_id": "e924f9d95ca75d85844ad9934a1bd600", "name": "e924f9d95ca75d85844ad9934a1bd600"}, {"lon": -77.099614, "is_disabled": 0, "lat": 38.85789583333333, "fusion_lat": 0.0, "is_reserved": 0, "rental_uris": {"ios": "https://dc.lft.to/lastmile_qr_scan", "android": "https://dc.lft.to/lastmile_qr_scan"}, "fusion_lon": 0.0, "type": "electric_bike", "bike_id": "65198e63474426cc47b22d578df2757f", "name": "65198e63474426cc47b22d578df2757f"}, {"lon": -77.028433, "is_disabled": 0, "lat": 38.89367816666667, "fusion_lat": 0.0, "is_reserved": 0, "rental_uris": {"ios": "https://dc.lft.to/lastmile_qr_scan", "android": "https://dc.lft.to/lastmile_qr_scan"}, "fusion_lon": 0.0, "type": "electric_scooter", "bike_id": "20f9b5223f4f83081e5e27cdf02bb8a6", "name": "20f9b5223f4f83081e5e27cdf02bb8a6"}, {"lon": -77.0727625, "is_disabled": 0, "lat": 38.934796, "fusion_lat": 0.0, "is_reserved": 0, "rental_uris": {"ios": "https://dc.lft.to/lastmile_qr_scan", "android": "https://dc.lft.to/lastmile_qr_scan"}, "fusion_lon": 0.0, "type": "electric_scooter", "bike_id": "96564f181fd656aeeb9f48fbeb5df7be", "name": "96564f181fd656aeeb9f48fbeb5df7be"}, {"lon": -77.02134716666667, "is_disabled": 0, "lat": 38.9155375, "fusion_lat": 0.0, "is_reserved": 0, "rental_uris": {"ios": "https://dc.lft.to/lastmile_qr_scan", "android": "https://dc.lft.to/lastmile_qr_scan"}, "fusion_lon": 0.0, "type": "electric_scooter", "bike_id": "f7790f97280b43d4607674984842ea66", "name": "f7790f97280b43d4607674984842ea66"}, {"lon": -77.05070133333334, "is_disabled": 0, "lat": 38.92532, "fusion_lat": 0.0, "is_reserved": 0, "rental_uris": {"ios": "https://dc.lft.to/lastmile_qr_scan", "android": "https://dc.lft.to/lastmile_qr_scan"}, "fusion_lon": 0.0, "type": "electric_scooter", "bike_id": "0837b80def849ff62a7e868277c07ced", "name": "0837b80def849ff62a7e868277c07ced"}, {"lon": -76.985724, "is_disabled": 0, "lat": 38.8668145, "fusion_lat": 0.0, "is_reserved": 0, "rental_uris": {"ios": "https://dc.lft.to/lastmile_qr_scan", "android": "https://dc.lft.to/lastmile_qr_scan"}, "fusion_lon": 0.0, "type": "electric_scooter", "bike_id": "476fdfd80198c884d6c95172e72f8165", "name": "476fdfd80198c884d6c95172e72f8165"}, {"lon": -77.01311816666667, "is_disabled": 0, "lat": 38.901349, "fusion_lat": 0.0, "is_reserved": 0, "rental_uris": {"ios": "https://dc.lft.to/lastmile_qr_scan", "android": "https://dc.lft.to/lastmile_qr_scan"}, "fusion_lon": 0.0, "type": "electric_scooter", "bike_id": "aa39840dfbb91074f6cc9ec0a2e7564a", "name": "aa39840dfbb91074f6cc9ec0a2e7564a"}, {"lon": -76.98597033333333, "is_disabled": 0, "lat": 38.903712166666665, "fusion_lat": 0.0, "is_reserved": 0, "rental_uris": {"ios": "https://dc.lft.to/lastmile_qr_scan", "android": "https://dc.lft.to/lastmile_qr_scan"}, "fusion_lon": 0.0, "type": "electric_scooter", "bike_id": "f65bfd906aa79c56d123b31d02be9213", "name": "f65bfd906aa79c56d123b31d02be9213"}, {"lon": -77.0320345, "is_disabled": 0, "lat": 38.90703333333333, "fusion_lat": 0.0, "is_reserved": 0, "rental_uris": {"ios": "https://dc.lft.to/lastmile_qr_scan", "android": "https://dc.lft.to/lastmile_qr_scan"}, "fusion_lon": 0.0, "type": "electric_scooter", "bike_id": "89a86565bab32745c118c68f595a8d19", "name": "89a86565bab32745c118c68f595a8d19"}, {"lon": -76.9798135, "is_disabled": 0, "lat": 38.89739483333334, "fusion_lat": 0.0, "is_reserved": 0, "rental_uris": {"ios": "https://dc.lft.to/lastmile_qr_scan", "android": "https://dc.lft.to/lastmile_qr_scan"}, "fusion_lon": 0.0, "type": "electric_scooter", "bike_id": "6524416cc6c85ecae43491c2f271529a", "name": "6524416cc6c85ecae43491c2f271529a"}, {"lon": -77.0340305, "is_disabled": 0, "lat": 38.926435833333336, "fusion_lat": 0.0, "is_reserved": 0, "rental_uris": {"ios": "https://dc.lft.to/lastmile_qr_scan", "android": "https://dc.lft.to/lastmile_qr_scan"}, "fusion_lon": 0.0, "type": "electric_scooter", "bike_id": "747d6ca81f2c0915d5b9a38a6740a275", "name": "747d6ca81f2c0915d5b9a38a6740a275"}, {"lon": -77.02384583333334, "is_disabled": 0, "lat": 38.98967616666667, "fusion_lat": 0.0, "is_reserved": 0, "rental_uris": {"ios": "https://dc.lft.to/lastmile_qr_scan", "android": "https://dc.lft.to/lastmile_qr_scan"}, "fusion_lon": 0.0, "type": "electric_bike", "bike_id": "4c22cc570fae12891be55bd7bb78b37c", "name": "4c22cc570fae12891be55bd7bb78b37c"}, {"lon": -77.02683916666666, "is_disabled": 0, "lat": 38.904430166666664, "fusion_lat": 0.0, "is_reserved": 0, "rental_uris": {"ios": "https://dc.lft.to/lastmile_qr_scan", "android": "https://dc.lft.to/lastmile_qr_scan"}, "fusion_lon": 0.0, "type": "electric_scooter", "bike_id": "b331b0b3c3230a3b5273a64581f8f508", "name": "b331b0b3c3230a3b5273a64581f8f508"}, {"lon": -77.048062, "is_disabled": 0, "lat": 38.91627916666667, "fusion_lat": 0.0, "is_reserved": 0, "rental_uris": {"ios": "https://dc.lft.to/lastmile_qr_scan", "android": "https://dc.lft.to/lastmile_qr_scan"}, "fusion_lon": 0.0, "type": "electric_scooter", "bike_id": "d355752f1b2f349fe1c87cee34efbe3d", "name": "d355752f1b2f349fe1c87cee34efbe3d"}, {"lon": -77.026979, "is_disabled": 0, "lat": 38.908693666666665, "fusion_lat": 0.0, "is_reserved": 0, "rental_uris": {"ios": "https://dc.lft.to/lastmile_qr_scan", "android": "https://dc.lft.to/lastmile_qr_scan"}, "fusion_lon": 0.0, "type": "electric_scooter", "bike_id": "20df633f0c6df24539d00c5a437d77fb", "name": "20df633f0c6df24539d00c5a437d77fb"}, {"lon": -77.02980666666667, "is_disabled": 0, "lat": 38.907188166666664, "fusion_lat": 0.0, "is_reserved": 0, "rental_uris": {"ios": "https://dc.lft.to/lastmile_qr_scan", "android": "https://dc.lft.to/lastmile_qr_scan"}, "fusion_lon": 0.0, "type": "electric_scooter", "bike_id": "a470d5b7767867bfaa39c0baeef40814", "name": "a470d5b7767867bfaa39c0baeef40814"}, {"lon": -77.13467316666667, "is_disabled": 0, "lat": 38.85354983333333, "fusion_lat": 0.0, "is_reserved": 0, "rental_uris": {"ios": "https://dc.lft.to/lastmile_qr_scan", "android": "https://dc.lft.to/lastmile_qr_scan"}, "fusion_lon": 0.0, "type": "electric_bike", "bike_id": "7366a8915009100f5ae348ec01395034", "name": "7366a8915009100f5ae348ec01395034"}, {"lon": -77.02159216666666, "is_disabled": 0, "lat": 38.89885916666667, "fusion_lat": 0.0, "is_reserved": 0, "rental_uris": {"ios": "https://dc.lft.to/lastmile_qr_scan", "android": "https://dc.lft.to/lastmile_qr_scan"}, "fusion_lon": 0.0, "type": "electric_scooter", "bike_id": "a484838bc4f012d17fab49f392f94937", "name": "a484838bc4f012d17fab49f392f94937"}, {"lon": -77.03523866666667, "is_disabled": 0, "lat": 38.935923333333335, "fusion_lat": 0.0, "is_reserved": 0, "rental_uris": {"ios": "https://dc.lft.to/lastmile_qr_scan", "android": "https://dc.lft.to/lastmile_qr_scan"}, "fusion_lon": 0.0, "type": "electric_scooter", "bike_id": "73371aa48120d1751d113f929d7a3488", "name": "73371aa48120d1751d113f929d7a3488"}, {"lon": -77.00190016666667, "is_disabled": 0, "lat": 38.90730766666667, "fusion_lat": 0.0, "is_reserved": 0, "rental_uris": {"ios": "https://dc.lft.to/lastmile_qr_scan", "android": "https://dc.lft.to/lastmile_qr_scan"}, "fusion_lon": 0.0, "type": "electric_scooter", "bike_id": "c1fd70afd1d8f34b1f4c626bf48f520c", "name": "c1fd70afd1d8f34b1f4c626bf48f520c"}, {"lon": -77.03401383333333, "is_disabled": 0, "lat": 38.924371, "fusion_lat": 0.0, "is_reserved": 0, "rental_uris": {"ios": "https://dc.lft.to/lastmile_qr_scan", "android": "https://dc.lft.to/lastmile_qr_scan"}, "fusion_lon": 0.0, "type": "electric_scooter", "bike_id": "a7950d9805a32ce7e4a7f227313e5944", "name": "a7950d9805a32ce7e4a7f227313e5944"}, {"lon": -77.05553683333333, "is_disabled": 0, "lat": 38.900018333333335, "fusion_lat": 0.0, "is_reserved": 0, "rental_uris": {"ios": "https://dc.lft.to/lastmile_qr_scan", "android": "https://dc.lft.to/lastmile_qr_scan"}, "fusion_lon": 0.0, "type": "electric_scooter", "bike_id": "7dad49c1cb0030475ac80a534db6e765", "name": "7dad49c1cb0030475ac80a534db6e765"}, {"lon": -76.99014083333333, "is_disabled": 0, "lat": 38.9113935, "fusion_lat": 0.0, "is_reserved": 0, "rental_uris": {"ios": "https://dc.lft.to/lastmile_qr_scan", "android": "https://dc.lft.to/lastmile_qr_scan"}, "fusion_lon": 0.0, "type": "electric_scooter", "bike_id": "67735bc2c4e39d7125826a61f98b31d4", "name": "67735bc2c4e39d7125826a61f98b31d4"}, {"lon": -77.0191455, "is_disabled": 0, "lat": 38.90251816666667, "fusion_lat": 0.0, "is_reserved": 0, "rental_uris": {"ios": "https://dc.lft.to/lastmile_qr_scan", "android": "https://dc.lft.to/lastmile_qr_scan"}, "fusion_lon": 0.0, "type": "electric_scooter", "bike_id": "0c3312d1ada1ba45ba913df90426385d", "name": "0c3312d1ada1ba45ba913df90426385d"}, {"lon": -77.1392965, "is_disabled": 0, "lat": 38.872934666666666, "fusion_lat": 0.0, "is_reserved": 0, "rental_uris": {"ios": "https://dc.lft.to/lastmile_qr_scan", "android": "https://dc.lft.to/lastmile_qr_scan"}, "fusion_lon": 0.0, "type": "electric_bike", "bike_id": "8f380d8bc12cba30990cd7d13a8f8462", "name": "8f380d8bc12cba30990cd7d13a8f8462"}, {"lon": -77.03834283333333, "is_disabled": 0, "lat": 38.915613666666665, "fusion_lat": 0.0, "is_reserved": 0, "rental_uris": {"ios": "https://dc.lft.to/lastmile_qr_scan", "android": "https://dc.lft.to/lastmile_qr_scan"}, "fusion_lon": 0.0, "type": "electric_scooter", "bike_id": "f74212d54b1524234957c09106f49472", "name": "f74212d54b1524234957c09106f49472"}, {"lon": -77.0062785, "is_disabled": 0, "lat": 38.87175533333333, "fusion_lat": 0.0, "is_reserved": 0, "rental_uris": {"ios": "https://dc.lft.to/lastmile_qr_scan", "android": "https://dc.lft.to/lastmile_qr_scan"}, "fusion_lon": 0.0, "type": "electric_scooter", "bike_id": "e6d3406ef28ba8dce664e1259e2a1708", "name": "e6d3406ef28ba8dce664e1259e2a1708"}, {"lon": -76.97966333333333, "is_disabled": 0, "lat": 38.90618383333333, "fusion_lat": 0.0, "is_reserved": 0, "rental_uris": {"ios": "https://dc.lft.to/lastmile_qr_scan", "android": "https://dc.lft.to/lastmile_qr_scan"}, "fusion_lon": 0.0, "type": "electric_scooter", "bike_id": "dcd4127c7eca1d71c6d6c7233824a24d", "name": "dcd4127c7eca1d71c6d6c7233824a24d"}, {"lon": -77.060222, "is_disabled": 0, "lat": 38.90503233333333, "fusion_lat": 0.0, "is_reserved": 0, "rental_uris": {"ios": "https://dc.lft.to/lastmile_qr_scan", "android": "https://dc.lft.to/lastmile_qr_scan"}, "fusion_lon": 0.0, "type": "electric_bike", "bike_id": "072ce9ea35e313a1983453834bc66a5f", "name": "072ce9ea35e313a1983453834bc66a5f"}, {"lon": -77.000922, "is_disabled": 0, "lat": 38.925536666666666, "fusion_lat": 0.0, "is_reserved": 0, "rental_uris": {"ios": "https://dc.lft.to/lastmile_qr_scan", "android": "https://dc.lft.to/lastmile_qr_scan"}, "fusion_lon": 0.0, "type": "electric_scooter", "bike_id": "b297d51378ff2c6d363ff77aeeba643d", "name": "b297d51378ff2c6d363ff77aeeba643d"}, {"lon": -77.045845, "is_disabled": 0, "lat": 38.916213166666665, "fusion_lat": 0.0, "is_reserved": 0, "rental_uris": {"ios": "https://dc.lft.to/lastmile_qr_scan", "android": "https://dc.lft.to/lastmile_qr_scan"}, "fusion_lon": 0.0, "type": "electric_scooter", "bike_id": "36936405ad46428ed6b08a4185b6a8cf", "name": "36936405ad46428ed6b08a4185b6a8cf"}, {"lon": -77.0384155, "is_disabled": 0, "lat": 38.914693, "fusion_lat": 0.0, "is_reserved": 0, "rental_uris": {"ios": "https://dc.lft.to/lastmile_qr_scan", "android": "https://dc.lft.to/lastmile_qr_scan"}, "fusion_lon": 0.0, "type": "electric_scooter", "bike_id": "32a4fcfabedeaf6d53ce04e54a50ef8b", "name": "32a4fcfabedeaf6d53ce04e54a50ef8b"}, {"lon": -77.04831083333333, "is_disabled": 0, "lat": 38.898369333333335, "fusion_lat": 0.0, "is_reserved": 0, "rental_uris": {"ios": "https://dc.lft.to/lastmile_qr_scan", "android": "https://dc.lft.to/lastmile_qr_scan"}, "fusion_lon": 0.0, "type": "electric_scooter", "bike_id": "f00bf970f5b7671494efb61267c213a6", "name": "f00bf970f5b7671494efb61267c213a6"}, {"lon": -77.00582333333334, "is_disabled": 0, "lat": 38.90566966666667, "fusion_lat": 0.0, "is_reserved": 0, "rental_uris": {"ios": "https://dc.lft.to/lastmile_qr_scan", "android": "https://dc.lft.to/lastmile_qr_scan"}, "fusion_lon": 0.0, "type": "electric_scooter", "bike_id": "1092eb1e2ba21a53ad214fdb035b2411", "name": "1092eb1e2ba21a53ad214fdb035b2411"}, {"lon": -77.02952016666667, "is_disabled": 0, "lat": 38.918028166666666, "fusion_lat": 0.0, "is_reserved": 0, "rental_uris": {"ios": "https://dc.lft.to/lastmile_qr_scan", "android": "https://dc.lft.to/lastmile_qr_scan"}, "fusion_lon": 0.0, "type": "electric_scooter", "bike_id": "a18089b7ab5aa1ad8880f3dddcdf05d0", "name": "a18089b7ab5aa1ad8880f3dddcdf05d0"}, {"lon": -77.02545033333334, "is_disabled": 0, "lat": 38.892232, "fusion_lat": 0.0, "is_reserved": 0, "rental_uris": {"ios": "https://dc.lft.to/lastmile_qr_scan", "android": "https://dc.lft.to/lastmile_qr_scan"}, "fusion_lon": 0.0, "type": "electric_scooter", "bike_id": "b27639d1d9d36aa31b7d02487ed3767a", "name": "b27639d1d9d36aa31b7d02487ed3767a"}, {"lon": -77.029822, "is_disabled": 0, "lat": 38.90719633333333, "fusion_lat": 0.0, "is_reserved": 0, "rental_uris": {"ios": "https://dc.lft.to/lastmile_qr_scan", "android": "https://dc.lft.to/lastmile_qr_scan"}, "fusion_lon": 0.0, "type": "electric_scooter", "bike_id": "b9ead5d47ab38e73f562d4b771ba7d1e", "name": "b9ead5d47ab38e73f562d4b771ba7d1e"}, {"lon": -77.028321, "is_disabled": 0, "lat": 38.88626816666667, "fusion_lat": 0.0, "is_reserved": 0, "rental_uris": {"ios": "https://dc.lft.to/lastmile_qr_scan", "android": "https://dc.lft.to/lastmile_qr_scan"}, "fusion_lon": 0.0, "type": "electric_scooter", "bike_id": "f57983950b98941ddccc35642f75d830", "name": "f57983950b98941ddccc35642f75d830"}, {"lon": -77.02307066666667, "is_disabled": 0, "lat": 38.92888583333333, "fusion_lat": 0.0, "is_reserved": 0, "rental_uris": {"ios": "https://dc.lft.to/lastmile_qr_scan", "android": "https://dc.lft.to/lastmile_qr_scan"}, "fusion_lon": 0.0, "type": "electric_scooter", "bike_id": "0d5c7d399ecb49a075a163a5fd885a5b", "name": "0d5c7d399ecb49a075a163a5fd885a5b"}, {"lon": -76.99977333333334, "is_disabled": 0, "lat": 38.90838183333334, "fusion_lat": 0.0, "is_reserved": 0, "rental_uris": {"ios": "https://dc.lft.to/lastmile_qr_scan", "android": "https://dc.lft.to/lastmile_qr_scan"}, "fusion_lon": 0.0, "type": "electric_scooter", "bike_id": "aa3472f2938c7adaa3f9f01a8ebfee55", "name": "aa3472f2938c7adaa3f9f01a8ebfee55"}, {"lon": -77.04685616666667, "is_disabled": 0, "lat": 38.89224, "fusion_lat": 0.0, "is_reserved": 0, "rental_uris": {"ios": "https://dc.lft.to/lastmile_qr_scan", "android": "https://dc.lft.to/lastmile_qr_scan"}, "fusion_lon": 0.0, "type": "electric_scooter", "bike_id": "9b8d3cabd95696c6669a07f82ed6494d", "name": "9b8d3cabd95696c6669a07f82ed6494d"}, {"lon": -77.0640285, "is_disabled": 0, "lat": 38.94416116666667, "fusion_lat": 0.0, "is_reserved": 0, "rental_uris": {"ios": "https://dc.lft.to/lastmile_qr_scan", "android": "https://dc.lft.to/lastmile_qr_scan"}, "fusion_lon": 0.0, "type": "electric_scooter", "bike_id": "0af512e9c161bd6e95faaaa5384b25b2", "name": "0af512e9c161bd6e95faaaa5384b25b2"}, {"lon": -77.02575333333333, "is_disabled": 0, "lat": 38.930923, "fusion_lat": 0.0, "is_reserved": 0, "rental_uris": {"ios": "https://dc.lft.to/lastmile_qr_scan", "android": "https://dc.lft.to/lastmile_qr_scan"}, "fusion_lon": 0.0, "type": "electric_scooter", "bike_id": "383b6f782114a0e35f33dceb2fee0856", "name": "383b6f782114a0e35f33dceb2fee0856"}, {"lon": -76.9472715, "is_disabled": 0, "lat": 38.8973665, "fusion_lat": 0.0, "is_reserved": 0, "rental_uris": {"ios": "https://dc.lft.to/lastmile_qr_scan", "android": "https://dc.lft.to/lastmile_qr_scan"}, "fusion_lon": 0.0, "type": "electric_scooter", "bike_id": "36074178be22af27a1419bdca9d7a764", "name": "36074178be22af27a1419bdca9d7a764"}, {"lon": -77.01478016666667, "is_disabled": 0, "lat": 38.91873733333333, "fusion_lat": 0.0, "is_reserved": 0, "rental_uris": {"ios": "https://dc.lft.to/lastmile_qr_scan", "android": "https://dc.lft.to/lastmile_qr_scan"}, "fusion_lon": 0.0, "type": "electric_scooter", "bike_id": "a4a13fd927fe97f7c0780a8f9e68b3fb", "name": "a4a13fd927fe97f7c0780a8f9e68b3fb"}, {"lon": -77.02935416666666, "is_disabled": 0, "lat": 38.8997505, "fusion_lat": 0.0, "is_reserved": 0, "rental_uris": {"ios": "https://dc.lft.to/lastmile_qr_scan", "android": "https://dc.lft.to/lastmile_qr_scan"}, "fusion_lon": 0.0, "type": "electric_scooter", "bike_id": "1e57bd7ef7cff8aba3eac69908bbb110", "name": "1e57bd7ef7cff8aba3eac69908bbb110"}, {"lon": -77.0221485, "is_disabled": 0, "lat": 38.934057333333335, "fusion_lat": 0.0, "is_reserved": 0, "rental_uris": {"ios": "https://dc.lft.to/lastmile_qr_scan", "android": "https://dc.lft.to/lastmile_qr_scan"}, "fusion_lon": 0.0, "type": "electric_scooter", "bike_id": "35b874a6b92fed12cd24789beb3756c3", "name": "35b874a6b92fed12cd24789beb3756c3"}, {"lon": -77.03636783333333, "is_disabled": 0, "lat": 38.90803616666667, "fusion_lat": 0.0, "is_reserved": 0, "rental_uris": {"ios": "https://dc.lft.to/lastmile_qr_scan", "android": "https://dc.lft.to/lastmile_qr_scan"}, "fusion_lon": 0.0, "type": "electric_scooter", "bike_id": "fae25df6978136dfb61897dbd269d66c", "name": "fae25df6978136dfb61897dbd269d66c"}, {"lon": -76.9985755, "is_disabled": 0, "lat": 38.8919585, "fusion_lat": 0.0, "is_reserved": 0, "rental_uris": {"ios": "https://dc.lft.to/lastmile_qr_scan", "android": "https://dc.lft.to/lastmile_qr_scan"}, "fusion_lon": 0.0, "type": "electric_scooter", "bike_id": "6448e142e2b3cbbb6f531d0ace6d96ba", "name": "6448e142e2b3cbbb6f531d0ace6d96ba"}, {"lon": -77.03326266666667, "is_disabled": 0, "lat": 38.898290333333335, "fusion_lat": 0.0, "is_reserved": 0, "rental_uris": {"ios": "https://dc.lft.to/lastmile_qr_scan", "android": "https://dc.lft.to/lastmile_qr_scan"}, "fusion_lon": 0.0, "type": "electric_scooter", "bike_id": "b1ba011714c9adbec4790bf795111aa2", "name": "b1ba011714c9adbec4790bf795111aa2"}, {"lon": -77.1146695, "is_disabled": 0, "lat": 38.8414825, "fusion_lat": 0.0, "is_reserved": 0, "rental_uris": {"ios": "https://dc.lft.to/lastmile_qr_scan", "android": "https://dc.lft.to/lastmile_qr_scan"}, "fusion_lon": 0.0, "type": "electric_bike", "bike_id": "80075d81caa528ab7ad16c44b445b7a7", "name": "80075d81caa528ab7ad16c44b445b7a7"}, {"lon": -77.04341266666667, "is_disabled": 0, "lat": 38.907246, "fusion_lat": 0.0, "is_reserved": 0, "rental_uris": {"ios": "https://dc.lft.to/lastmile_qr_scan", "android": "https://dc.lft.to/lastmile_qr_scan"}, "fusion_lon": 0.0, "type": "electric_scooter", "bike_id": "b14eb53f6da9b5be6440cb24e5322995", "name": "b14eb53f6da9b5be6440cb24e5322995"}, {"lon": -76.94405833333333, "is_disabled": 0, "lat": 38.99223216666667, "fusion_lat": 0.0, "is_reserved": 0, "rental_uris": {"ios": "https://dc.lft.to/lastmile_qr_scan", "android": "https://dc.lft.to/lastmile_qr_scan"}, "fusion_lon": 0.0, "type": "electric_bike", "bike_id": "a89f744b70fd3aa8afc678633e1793a5", "name": "a89f744b70fd3aa8afc678633e1793a5"}, {"lon": -77.02552966666667, "is_disabled": 0, "lat": 38.91708233333333, "fusion_lat": 0.0, "is_reserved": 0, "rental_uris": {"ios": "https://dc.lft.to/lastmile_qr_scan", "android": "https://dc.lft.to/lastmile_qr_scan"}, "fusion_lon": 0.0, "type": "electric_scooter", "bike_id": "fcd2c206772660db19639cb395766f4b", "name": "fcd2c206772660db19639cb395766f4b"}, {"lon": -77.0386385, "is_disabled": 0, "lat": 38.907084, "fusion_lat": 0.0, "is_reserved": 0, "rental_uris": {"ios": "https://dc.lft.to/lastmile_qr_scan", "android": "https://dc.lft.to/lastmile_qr_scan"}, "fusion_lon": 0.0, "type": "electric_scooter", "bike_id": "f86da4fca21efdc0b98581cb6a3d94c4", "name": "f86da4fca21efdc0b98581cb6a3d94c4"}, {"lon": -77.034035, "is_disabled": 0, "lat": 38.9245085, "fusion_lat": 0.0, "is_reserved": 0, "rental_uris": {"ios": "https://dc.lft.to/lastmile_qr_scan", "android": "https://dc.lft.to/lastmile_qr_scan"}, "fusion_lon": 0.0, "type": "electric_scooter", "bike_id": "e3c44bfa634df88d63e559c07815049f", "name": "e3c44bfa634df88d63e559c07815049f"}, {"lon": -77.04168933333334, "is_disabled": 0, "lat": 38.918616166666666, "fusion_lat": 0.0, "is_reserved": 0, "rental_uris": {"ios": "https://dc.lft.to/lastmile_qr_scan", "android": "https://dc.lft.to/lastmile_qr_scan"}, "fusion_lon": 0.0, "type": "electric_scooter", "bike_id": "a1a5f39e5efd1d275c6d8f7c8d649618", "name": "a1a5f39e5efd1d275c6d8f7c8d649618"}, {"lon": -77.0167685, "is_disabled": 0, "lat": 38.90571833333333, "fusion_lat": 0.0, "is_reserved": 0, "rental_uris": {"ios": "https://dc.lft.to/lastmile_qr_scan", "android": "https://dc.lft.to/lastmile_qr_scan"}, "fusion_lon": 0.0, "type": "electric_scooter", "bike_id": "b9745c20556b062eb6b3c3405c9657d0", "name": "b9745c20556b062eb6b3c3405c9657d0"}, {"lon": -77.046616, "is_disabled": 0, "lat": 38.90562883333333, "fusion_lat": 0.0, "is_reserved": 0, "rental_uris": {"ios": "https://dc.lft.to/lastmile_qr_scan", "android": "https://dc.lft.to/lastmile_qr_scan"}, "fusion_lon": 0.0, "type": "electric_scooter", "bike_id": "2e25bb7938105691c3f6e48d327ab154", "name": "2e25bb7938105691c3f6e48d327ab154"}, {"lon": -77.02734883333333, "is_disabled": 0, "lat": 38.92764433333333, "fusion_lat": 0.0, "is_reserved": 0, "rental_uris": {"ios": "https://dc.lft.to/lastmile_qr_scan", "android": "https://dc.lft.to/lastmile_qr_scan"}, "fusion_lon": 0.0, "type": "electric_scooter", "bike_id": "3b4c8183636a1881d909ed41ae2f647a", "name": "3b4c8183636a1881d909ed41ae2f647a"}, {"lon": -77.020066, "is_disabled": 0, "lat": 38.9140675, "fusion_lat": 0.0, "is_reserved": 0, "rental_uris": {"ios": "https://dc.lft.to/lastmile_qr_scan", "android": "https://dc.lft.to/lastmile_qr_scan"}, "fusion_lon": 0.0, "type": "electric_scooter", "bike_id": "46d82049584760dfd9d69fede25be2e0", "name": "46d82049584760dfd9d69fede25be2e0"}, {"lon": -77.116112, "is_disabled": 0, "lat": 38.854878166666666, "fusion_lat": 0.0, "is_reserved": 0, "rental_uris": {"ios": "https://dc.lft.to/lastmile_qr_scan", "android": "https://dc.lft.to/lastmile_qr_scan"}, "fusion_lon": 0.0, "type": "electric_bike", "bike_id": "9d644b68b1dd527460a6416baa632ea2", "name": "9d644b68b1dd527460a6416baa632ea2"}, {"lon": -77.024639, "is_disabled": 0, "lat": 38.918746666666664, "fusion_lat": 0.0, "is_reserved": 0, "rental_uris": {"ios": "https://dc.lft.to/lastmile_qr_scan", "android": "https://dc.lft.to/lastmile_qr_scan"}, "fusion_lon": 0.0, "type": "electric_scooter", "bike_id": "a4706d0c18131a2fb1f89f0ca2b301f9", "name": "a4706d0c18131a2fb1f89f0ca2b301f9"}, {"lon": -77.0059375, "is_disabled": 0, "lat": 38.875692666666666, "fusion_lat": 0.0, "is_reserved": 0, "rental_uris": {"ios": "https://dc.lft.to/lastmile_qr_scan", "android": "https://dc.lft.to/lastmile_qr_scan"}, "fusion_lon": 0.0, "type": "electric_scooter", "bike_id": "32ab38d3202b06611c51b2bb4e31bb64", "name": "32ab38d3202b06611c51b2bb4e31bb64"}, {"lon": -76.985655, "is_disabled": 0, "lat": 38.86682916666667, "fusion_lat": 0.0, "is_reserved": 0, "rental_uris": {"ios": "https://dc.lft.to/lastmile_qr_scan", "android": "https://dc.lft.to/lastmile_qr_scan"}, "fusion_lon": 0.0, "type": "electric_scooter", "bike_id": "30df089b6333d914e11a1d6ab670ae9f", "name": "30df089b6333d914e11a1d6ab670ae9f"}, {"lon": -77.05686466666667, "is_disabled": 0, "lat": 38.9233215, "fusion_lat": 0.0, "is_reserved": 0, "rental_uris": {"ios": "https://dc.lft.to/lastmile_qr_scan", "android": "https://dc.lft.to/lastmile_qr_scan"}, "fusion_lon": 0.0, "type": "electric_scooter", "bike_id": "1820e32d2cac55acaf64297ab8d48f6c", "name": "1820e32d2cac55acaf64297ab8d48f6c"}, {"lon": -76.96984333333333, "is_disabled": 0, "lat": 38.878641, "fusion_lat": 0.0, "is_reserved": 0, "rental_uris": {"ios": "https://dc.lft.to/lastmile_qr_scan", "android": "https://dc.lft.to/lastmile_qr_scan"}, "fusion_lon": 0.0, "type": "electric_scooter", "bike_id": "c4a0cdc51f040e64d826070cb673b91a", "name": "c4a0cdc51f040e64d826070cb673b91a"}, {"lon": -77.00327116666666, "is_disabled": 0, "lat": 38.91941533333333, "fusion_lat": 0.0, "is_reserved": 0, "rental_uris": {"ios": "https://dc.lft.to/lastmile_qr_scan", "android": "https://dc.lft.to/lastmile_qr_scan"}, "fusion_lon": 0.0, "type": "electric_scooter", "bike_id": "82f2975d044f5c42596e5e9813875346", "name": "82f2975d044f5c42596e5e9813875346"}, {"lon": -77.0531025, "is_disabled": 0, "lat": 38.904387666666665, "fusion_lat": 0.0, "is_reserved": 0, "rental_uris": {"ios": "https://dc.lft.to/lastmile_qr_scan", "android": "https://dc.lft.to/lastmile_qr_scan"}, "fusion_lon": 0.0, "type": "electric_scooter", "bike_id": "381f6870de0ac33c04b6518ae2935027", "name": "381f6870de0ac33c04b6518ae2935027"}, {"lon": -76.98016216666667, "is_disabled": 0, "lat": 38.85316, "fusion_lat": 0.0, "is_reserved": 0, "rental_uris": {"ios": "https://dc.lft.to/lastmile_qr_scan", "android": "https://dc.lft.to/lastmile_qr_scan"}, "fusion_lon": 0.0, "type": "electric_scooter", "bike_id": "0975fa023220f064899af0e3a9b995f6", "name": "0975fa023220f064899af0e3a9b995f6"}, {"lon": -76.96907783333333, "is_disabled": 0, "lat": 38.87420683333333, "fusion_lat": 0.0, "is_reserved": 0, "rental_uris": {"ios": "https://dc.lft.to/lastmile_qr_scan", "android": "https://dc.lft.to/lastmile_qr_scan"}, "fusion_lon": 0.0, "type": "electric_scooter", "bike_id": "0609ac3f211fbed392ceae2a730727b2", "name": "0609ac3f211fbed392ceae2a730727b2"}, {"lon": -77.01534283333334, "is_disabled": 0, "lat": 38.95035166666667, "fusion_lat": 0.0, "is_reserved": 0, "rental_uris": {"ios": "https://dc.lft.to/lastmile_qr_scan", "android": "https://dc.lft.to/lastmile_qr_scan"}, "fusion_lon": 0.0, "type": "electric_bike", "bike_id": "758862a44a1897f49f96b9125965bc6b", "name": "758862a44a1897f49f96b9125965bc6b"}, {"lon": -77.0377805, "is_disabled": 0, "lat": 38.91262116666667, "fusion_lat": 0.0, "is_reserved": 0, "rental_uris": {"ios": "https://dc.lft.to/lastmile_qr_scan", "android": "https://dc.lft.to/lastmile_qr_scan"}, "fusion_lon": 0.0, "type": "electric_scooter", "bike_id": "d0ffcd2bd6632c2d27e41dee87972c46", "name": "d0ffcd2bd6632c2d27e41dee87972c46"}, {"lon": -76.94258116666667, "is_disabled": 0, "lat": 38.898438, "fusion_lat": 0.0, "is_reserved": 0, "rental_uris": {"ios": "https://dc.lft.to/lastmile_qr_scan", "android": "https://dc.lft.to/lastmile_qr_scan"}, "fusion_lon": 0.0, "type": "electric_scooter", "bike_id": "7c9b04f75c94817909ede6cda7f90913", "name": "7c9b04f75c94817909ede6cda7f90913"}, {"lon": -76.92685033333333, "is_disabled": 0, "lat": 38.88845833333333, "fusion_lat": 0.0, "is_reserved": 0, "rental_uris": {"ios": "https://dc.lft.to/lastmile_qr_scan", "android": "https://dc.lft.to/lastmile_qr_scan"}, "fusion_lon": 0.0, "type": "electric_scooter", "bike_id": "f2d1ff6a22dc715c1678b8c4323f1422", "name": "f2d1ff6a22dc715c1678b8c4323f1422"}, {"lon": -77.01975133333333, "is_disabled": 0, "lat": 38.884007, "fusion_lat": 0.0, "is_reserved": 0, "rental_uris": {"ios": "https://dc.lft.to/lastmile_qr_scan", "android": "https://dc.lft.to/lastmile_qr_scan"}, "fusion_lon": 0.0, "type": "electric_scooter", "bike_id": "583c0d9fa3e3f976247e95ec6f4d4396", "name": "583c0d9fa3e3f976247e95ec6f4d4396"}, {"lon": -76.99558766666667, "is_disabled": 0, "lat": 38.939886, "fusion_lat": 0.0, "is_reserved": 0, "rental_uris": {"ios": "https://dc.lft.to/lastmile_qr_scan", "android": "https://dc.lft.to/lastmile_qr_scan"}, "fusion_lon": 0.0, "type": "electric_bike", "bike_id": "70acfbd6820affe90106aecd004ba3d5", "name": "70acfbd6820affe90106aecd004ba3d5"}, {"lon": -76.98414533333333, "is_disabled": 0, "lat": 38.91386516666667, "fusion_lat": 0.0, "is_reserved": 0, "rental_uris": {"ios": "https://dc.lft.to/lastmile_qr_scan", "android": "https://dc.lft.to/lastmile_qr_scan"}, "fusion_lon": 0.0, "type": "electric_scooter", "bike_id": "b6b875979f70a1ab6ad28af35e3933a9", "name": "b6b875979f70a1ab6ad28af35e3933a9"}, {"lon": -77.01782066666667, "is_disabled": 0, "lat": 38.90403883333333, "fusion_lat": 0.0, "is_reserved": 0, "rental_uris": {"ios": "https://dc.lft.to/lastmile_qr_scan", "android": "https://dc.lft.to/lastmile_qr_scan"}, "fusion_lon": 0.0, "type": "electric_scooter", "bike_id": "95cc6af6895e958fda772732e9002355", "name": "95cc6af6895e958fda772732e9002355"}, {"lon": -77.00931316666667, "is_disabled": 0, "lat": 38.919260666666666, "fusion_lat": 0.0, "is_reserved": 0, "rental_uris": {"ios": "https://dc.lft.to/lastmile_qr_scan", "android": "https://dc.lft.to/lastmile_qr_scan"}, "fusion_lon": 0.0, "type": "electric_scooter", "bike_id": "b68dd26bbb7446970ee283af2bad89eb", "name": "b68dd26bbb7446970ee283af2bad89eb"}, {"lon": -76.97610383333334, "is_disabled": 0, "lat": 38.892888, "fusion_lat": 0.0, "is_reserved": 0, "rental_uris": {"ios": "https://dc.lft.to/lastmile_qr_scan", "android": "https://dc.lft.to/lastmile_qr_scan"}, "fusion_lon": 0.0, "type": "electric_bike", "bike_id": "30118ba3e248027175beaeffe20d0f8f", "name": "30118ba3e248027175beaeffe20d0f8f"}, {"lon": -76.999746, "is_disabled": 0, "lat": 38.874742, "fusion_lat": 0.0, "is_reserved": 0, "rental_uris": {"ios": "https://dc.lft.to/lastmile_qr_scan", "android": "https://dc.lft.to/lastmile_qr_scan"}, "fusion_lon": 0.0, "type": "electric_scooter", "bike_id": "2477c7aa8f90ffb6ff1ef6e90e29b9a9", "name": "2477c7aa8f90ffb6ff1ef6e90e29b9a9"}, {"lon": -77.03360333333333, "is_disabled": 0, "lat": 38.924442166666665, "fusion_lat": 0.0, "is_reserved": 0, "rental_uris": {"ios": "https://dc.lft.to/lastmile_qr_scan", "android": "https://dc.lft.to/lastmile_qr_scan"}, "fusion_lon": 0.0, "type": "electric_scooter", "bike_id": "266880065161ee7115931fec5bb5bd43", "name": "266880065161ee7115931fec5bb5bd43"}, {"lon": -76.98221283333334, "is_disabled": 0, "lat": 38.90201, "fusion_lat": 0.0, "is_reserved": 0, "rental_uris": {"ios": "https://dc.lft.to/lastmile_qr_scan", "android": "https://dc.lft.to/lastmile_qr_scan"}, "fusion_lon": 0.0, "type": "electric_scooter", "bike_id": "a8736bedfda89cf00554ac68f8c0ea74", "name": "a8736bedfda89cf00554ac68f8c0ea74"}, {"lon": -77.03713033333334, "is_disabled": 0, "lat": 38.902672833333334, "fusion_lat": 0.0, "is_reserved": 0, "rental_uris": {"ios": "https://dc.lft.to/lastmile_qr_scan", "android": "https://dc.lft.to/lastmile_qr_scan"}, "fusion_lon": 0.0, "type": "electric_scooter", "bike_id": "a44f04385c56d81aefd3e71db44a6801", "name": "a44f04385c56d81aefd3e71db44a6801"}, {"lon": -77.04190766666666, "is_disabled": 0, "lat": 38.920399333333336, "fusion_lat": 0.0, "is_reserved": 0, "rental_uris": {"ios": "https://dc.lft.to/lastmile_qr_scan", "android": "https://dc.lft.to/lastmile_qr_scan"}, "fusion_lon": 0.0, "type": "electric_scooter", "bike_id": "5325c8eded3d0627750ca47bb4a7d08d", "name": "5325c8eded3d0627750ca47bb4a7d08d"}, {"lon": -77.07259133333334, "is_disabled": 0, "lat": 38.9115755, "fusion_lat": 0.0, "is_reserved": 0, "rental_uris": {"ios": "https://dc.lft.to/lastmile_qr_scan", "android": "https://dc.lft.to/lastmile_qr_scan"}, "fusion_lon": 0.0, "type": "electric_scooter", "bike_id": "aab0b784ce9fd85e3a5ca1349df9345d", "name": "aab0b784ce9fd85e3a5ca1349df9345d"}, {"lon": -77.00219583333333, "is_disabled": 0, "lat": 38.823658, "fusion_lat": 0.0, "is_reserved": 0, "rental_uris": {"ios": "https://dc.lft.to/lastmile_qr_scan", "android": "https://dc.lft.to/lastmile_qr_scan"}, "fusion_lon": 0.0, "type": "electric_bike", "bike_id": "b9a4bad7c92502fd4acad16c6481a4a2", "name": "b9a4bad7c92502fd4acad16c6481a4a2"}, {"lon": -77.11828633333333, "is_disabled": 0, "lat": 38.85935883333333, "fusion_lat": 0.0, "is_reserved": 0, "rental_uris": {"ios": "https://dc.lft.to/lastmile_qr_scan", "android": "https://dc.lft.to/lastmile_qr_scan"}, "fusion_lon": 0.0, "type": "electric_bike", "bike_id": "04d50bacc9f6612a3f8da2386f93aca7", "name": "04d50bacc9f6612a3f8da2386f93aca7"}, {"lon": -76.9855325, "is_disabled": 0, "lat": 38.91032833333333, "fusion_lat": 0.0, "is_reserved": 0, "rental_uris": {"ios": "https://dc.lft.to/lastmile_qr_scan", "android": "https://dc.lft.to/lastmile_qr_scan"}, "fusion_lon": 0.0, "type": "electric_scooter", "bike_id": "554cb906f8eaf7e8305e364d2ddd547c", "name": "554cb906f8eaf7e8305e364d2ddd547c"}, {"lon": -77.03847816666666, "is_disabled": 0, "lat": 38.90977683333333, "fusion_lat": 0.0, "is_reserved": 0, "rental_uris": {"ios": "https://dc.lft.to/lastmile_qr_scan", "android": "https://dc.lft.to/lastmile_qr_scan"}, "fusion_lon": 0.0, "type": "electric_scooter", "bike_id": "74b121099fa1f69394e6505fd07757f0", "name": "74b121099fa1f69394e6505fd07757f0"}, {"lon": -77.023454, "is_disabled": 0, "lat": 38.9119815, "fusion_lat": 0.0, "is_reserved": 0, "rental_uris": {"ios": "https://dc.lft.to/lastmile_qr_scan", "android": "https://dc.lft.to/lastmile_qr_scan"}, "fusion_lon": 0.0, "type": "electric_scooter", "bike_id": "3700d4ee0cfcc0f282582523205e5dd8", "name": "3700d4ee0cfcc0f282582523205e5dd8"}, {"lon": -77.01771383333333, "is_disabled": 0, "lat": 38.9150295, "fusion_lat": 0.0, "is_reserved": 0, "rental_uris": {"ios": "https://dc.lft.to/lastmile_qr_scan", "android": "https://dc.lft.to/lastmile_qr_scan"}, "fusion_lon": 0.0, "type": "electric_scooter", "bike_id": "55d2ab0d8d8fd08fde5f46894ac90be8", "name": "55d2ab0d8d8fd08fde5f46894ac90be8"}, {"lon": -77.0539155, "is_disabled": 0, "lat": 38.80445666666667, "fusion_lat": 0.0, "is_reserved": 0, "rental_uris": {"ios": "https://dc.lft.to/lastmile_qr_scan", "android": "https://dc.lft.to/lastmile_qr_scan"}, "fusion_lon": 0.0, "type": "electric_bike", "bike_id": "410e33642115f9b50281bbdbd71a8b16", "name": "410e33642115f9b50281bbdbd71a8b16"}, {"lon": -76.97537966666667, "is_disabled": 0, "lat": 38.898905166666665, "fusion_lat": 0.0, "is_reserved": 0, "rental_uris": {"ios": "https://dc.lft.to/lastmile_qr_scan", "android": "https://dc.lft.to/lastmile_qr_scan"}, "fusion_lon": 0.0, "type": "electric_scooter", "bike_id": "e5dc59b69ad37b2f718532604c116547", "name": "e5dc59b69ad37b2f718532604c116547"}, {"lon": -77.02404633333333, "is_disabled": 0, "lat": 38.914169666666666, "fusion_lat": 0.0, "is_reserved": 0, "rental_uris": {"ios": "https://dc.lft.to/lastmile_qr_scan", "android": "https://dc.lft.to/lastmile_qr_scan"}, "fusion_lon": 0.0, "type": "electric_scooter", "bike_id": "84f900cef2b45a87a6222a1baf4dc3b0", "name": "84f900cef2b45a87a6222a1baf4dc3b0"}, {"lon": -76.99579333333334, "is_disabled": 0, "lat": 38.94733466666667, "fusion_lat": 0.0, "is_reserved": 0, "rental_uris": {"ios": "https://dc.lft.to/lastmile_qr_scan", "android": "https://dc.lft.to/lastmile_qr_scan"}, "fusion_lon": 0.0, "type": "electric_bike", "bike_id": "2bf100988ac240dfd375776357b5a27f", "name": "2bf100988ac240dfd375776357b5a27f"}, {"lon": -77.04758033333333, "is_disabled": 0, "lat": 38.900799, "fusion_lat": 0.0, "is_reserved": 0, "rental_uris": {"ios": "https://dc.lft.to/lastmile_qr_scan", "android": "https://dc.lft.to/lastmile_qr_scan"}, "fusion_lon": 0.0, "type": "electric_scooter", "bike_id": "f2e0ece1933436b41aa16d35f9920973", "name": "f2e0ece1933436b41aa16d35f9920973"}, {"lon": -77.02372383333334, "is_disabled": 0, "lat": 38.9166845, "fusion_lat": 0.0, "is_reserved": 0, "rental_uris": {"ios": "https://dc.lft.to/lastmile_qr_scan", "android": "https://dc.lft.to/lastmile_qr_scan"}, "fusion_lon": 0.0, "type": "electric_scooter", "bike_id": "6a85a77d21216af4f3c50e460bd9147d", "name": "6a85a77d21216af4f3c50e460bd9147d"}, {"lon": -77.0293485, "is_disabled": 0, "lat": 38.899838333333335, "fusion_lat": 0.0, "is_reserved": 0, "rental_uris": {"ios": "https://dc.lft.to/lastmile_qr_scan", "android": "https://dc.lft.to/lastmile_qr_scan"}, "fusion_lon": 0.0, "type": "electric_scooter", "bike_id": "16e307c23e17c01c00d1c49fda3e3e8c", "name": "16e307c23e17c01c00d1c49fda3e3e8c"}, {"lon": -77.04225966666667, "is_disabled": 0, "lat": 38.921751666666665, "fusion_lat": 0.0, "is_reserved": 0, "rental_uris": {"ios": "https://dc.lft.to/lastmile_qr_scan", "android": "https://dc.lft.to/lastmile_qr_scan"}, "fusion_lon": 0.0, "type": "electric_scooter", "bike_id": "b59a3d1215014b89c90dbfbd515f9278", "name": "b59a3d1215014b89c90dbfbd515f9278"}, {"lon": -77.0244975, "is_disabled": 0, "lat": 38.93587816666667, "fusion_lat": 0.0, "is_reserved": 0, "rental_uris": {"ios": "https://dc.lft.to/lastmile_qr_scan", "android": "https://dc.lft.to/lastmile_qr_scan"}, "fusion_lon": 0.0, "type": "electric_scooter", "bike_id": "76a24b60240ac474caf54c8746afbf21", "name": "76a24b60240ac474caf54c8746afbf21"}, {"lon": -77.02842616666666, "is_disabled": 0, "lat": 38.90567766666667, "fusion_lat": 0.0, "is_reserved": 0, "rental_uris": {"ios": "https://dc.lft.to/lastmile_qr_scan", "android": "https://dc.lft.to/lastmile_qr_scan"}, "fusion_lon": 0.0, "type": "electric_scooter", "bike_id": "edc6413cd1a176eb947f6cf101ae0e9a", "name": "edc6413cd1a176eb947f6cf101ae0e9a"}, {"lon": -77.03182883333334, "is_disabled": 0, "lat": 38.91747866666667, "fusion_lat": 0.0, "is_reserved": 0, "rental_uris": {"ios": "https://dc.lft.to/lastmile_qr_scan", "android": "https://dc.lft.to/lastmile_qr_scan"}, "fusion_lon": 0.0, "type": "electric_scooter", "bike_id": "0e2bbbeae66953f4ce5f9b56325824a5", "name": "0e2bbbeae66953f4ce5f9b56325824a5"}, {"lon": -77.023047, "is_disabled": 0, "lat": 38.9160615, "fusion_lat": 0.0, "is_reserved": 0, "rental_uris": {"ios": "https://dc.lft.to/lastmile_qr_scan", "android": "https://dc.lft.to/lastmile_qr_scan"}, "fusion_lon": 0.0, "type": "electric_scooter", "bike_id": "4d30bdc1c12d95d705008205105eed2c", "name": "4d30bdc1c12d95d705008205105eed2c"}, {"lon": -77.02807516666667, "is_disabled": 0, "lat": 38.901049, "fusion_lat": 0.0, "is_reserved": 0, "rental_uris": {"ios": "https://dc.lft.to/lastmile_qr_scan", "android": "https://dc.lft.to/lastmile_qr_scan"}, "fusion_lon": 0.0, "type": "electric_scooter", "bike_id": "cd91ead0b46b0650612c23329130fc63", "name": "cd91ead0b46b0650612c23329130fc63"}, {"lon": -77.06472733333334, "is_disabled": 0, "lat": 38.9738435, "fusion_lat": 0.0, "is_reserved": 0, "rental_uris": {"ios": "https://dc.lft.to/lastmile_qr_scan", "android": "https://dc.lft.to/lastmile_qr_scan"}, "fusion_lon": 0.0, "type": "electric_bike", "bike_id": "eca39fef683ba9182fd4ccf9e65a9bdc", "name": "eca39fef683ba9182fd4ccf9e65a9bdc"}, {"lon": -77.00648083333333, "is_disabled": 0, "lat": 38.915514, "fusion_lat": 0.0, "is_reserved": 0, "rental_uris": {"ios": "https://dc.lft.to/lastmile_qr_scan", "android": "https://dc.lft.to/lastmile_qr_scan"}, "fusion_lon": 0.0, "type": "electric_scooter", "bike_id": "7840ebb6b5f2cdea2095b719358ce916", "name": "7840ebb6b5f2cdea2095b719358ce916"}, {"lon": -77.02459983333334, "is_disabled": 0, "lat": 38.884346666666666, "fusion_lat": 0.0, "is_reserved": 0, "rental_uris": {"ios": "https://dc.lft.to/lastmile_qr_scan", "android": "https://dc.lft.to/lastmile_qr_scan"}, "fusion_lon": 0.0, "type": "electric_scooter", "bike_id": "3a83feab290dab997b9413f5380a63eb", "name": "3a83feab290dab997b9413f5380a63eb"}, {"lon": -77.02962766666667, "is_disabled": 0, "lat": 38.922562, "fusion_lat": 0.0, "is_reserved": 0, "rental_uris": {"ios": "https://dc.lft.to/lastmile_qr_scan", "android": "https://dc.lft.to/lastmile_qr_scan"}, "fusion_lon": 0.0, "type": "electric_scooter", "bike_id": "ff65e8ca92a09fa379a9c43f87abc4a1", "name": "ff65e8ca92a09fa379a9c43f87abc4a1"}, {"lon": -77.0306175, "is_disabled": 0, "lat": 38.916928166666665, "fusion_lat": 0.0, "is_reserved": 0, "rental_uris": {"ios": "https://dc.lft.to/lastmile_qr_scan", "android": "https://dc.lft.to/lastmile_qr_scan"}, "fusion_lon": 0.0, "type": "electric_scooter", "bike_id": "04597989d25cf5284df4000581a1474f", "name": "04597989d25cf5284df4000581a1474f"}, {"lon": -77.02587383333334, "is_disabled": 0, "lat": 38.9420695, "fusion_lat": 0.0, "is_reserved": 0, "rental_uris": {"ios": "https://dc.lft.to/lastmile_qr_scan", "android": "https://dc.lft.to/lastmile_qr_scan"}, "fusion_lon": 0.0, "type": "electric_scooter", "bike_id": "dd4df485a7056538caef064fcaa9e659", "name": "dd4df485a7056538caef064fcaa9e659"}, {"lon": -77.03763183333334, "is_disabled": 0, "lat": 38.91692066666667, "fusion_lat": 0.0, "is_reserved": 0, "rental_uris": {"ios": "https://dc.lft.to/lastmile_qr_scan", "android": "https://dc.lft.to/lastmile_qr_scan"}, "fusion_lon": 0.0, "type": "electric_bike", "bike_id": "e47f0c064cff6d98825bf9e6647bd08b", "name": "e47f0c064cff6d98825bf9e6647bd08b"}, {"lon": -77.000742, "is_disabled": 0, "lat": 38.873749333333336, "fusion_lat": 0.0, "is_reserved": 0, "rental_uris": {"ios": "https://dc.lft.to/lastmile_qr_scan", "android": "https://dc.lft.to/lastmile_qr_scan"}, "fusion_lon": 0.0, "type": "electric_scooter", "bike_id": "61955ec44a4c628a86a26a36d4fb39dd", "name": "61955ec44a4c628a86a26a36d4fb39dd"}, {"lon": -76.977299, "is_disabled": 0, "lat": 38.872431166666665, "fusion_lat": 0.0, "is_reserved": 0, "rental_uris": {"ios": "https://dc.lft.to/lastmile_qr_scan", "android": "https://dc.lft.to/lastmile_qr_scan"}, "fusion_lon": 0.0, "type": "electric_scooter", "bike_id": "07ca0fce3011f4a4bce0f210c5be3175", "name": "07ca0fce3011f4a4bce0f210c5be3175"}, {"lon": -77.02463866666666, "is_disabled": 0, "lat": 38.897360666666664, "fusion_lat": 0.0, "is_reserved": 0, "rental_uris": {"ios": "https://dc.lft.to/lastmile_qr_scan", "android": "https://dc.lft.to/lastmile_qr_scan"}, "fusion_lon": 0.0, "type": "electric_scooter", "bike_id": "dd6966ae36c571b4a7dd4e2b951a3368", "name": "dd6966ae36c571b4a7dd4e2b951a3368"}, {"lon": -77.0321415, "is_disabled": 0, "lat": 38.957936, "fusion_lat": 0.0, "is_reserved": 0, "rental_uris": {"ios": "https://dc.lft.to/lastmile_qr_scan", "android": "https://dc.lft.to/lastmile_qr_scan"}, "fusion_lon": 0.0, "type": "electric_scooter", "bike_id": "2c9b375418bc0db2ecd87094647b059d", "name": "2c9b375418bc0db2ecd87094647b059d"}, {"lon": -77.03832, "is_disabled": 0, "lat": 38.915596, "fusion_lat": 0.0, "is_reserved": 0, "rental_uris": {"ios": "https://dc.lft.to/lastmile_qr_scan", "android": "https://dc.lft.to/lastmile_qr_scan"}, "fusion_lon": 0.0, "type": "electric_scooter", "bike_id": "cca68eb7608c6e169d5e796f02613917", "name": "cca68eb7608c6e169d5e796f02613917"}, {"lon": -76.99822166666667, "is_disabled": 0, "lat": 38.885337, "fusion_lat": 0.0, "is_reserved": 0, "rental_uris": {"ios": "https://dc.lft.to/lastmile_qr_scan", "android": "https://dc.lft.to/lastmile_qr_scan"}, "fusion_lon": 0.0, "type": "electric_scooter", "bike_id": "f348f7d6668c8d6c14e33c0776e0ef6b", "name": "f348f7d6668c8d6c14e33c0776e0ef6b"}, {"lon": -76.97398183333334, "is_disabled": 0, "lat": 38.84526916666667, "fusion_lat": 0.0, "is_reserved": 0, "rental_uris": {"ios": "https://dc.lft.to/lastmile_qr_scan", "android": "https://dc.lft.to/lastmile_qr_scan"}, "fusion_lon": 0.0, "type": "electric_bike", "bike_id": "67faeb8ea9f6f47c399e282939f8ff8d", "name": "67faeb8ea9f6f47c399e282939f8ff8d"}, {"lon": -77.083468, "is_disabled": 0, "lat": 38.92963133333333, "fusion_lat": 0.0, "is_reserved": 0, "rental_uris": {"ios": "https://dc.lft.to/lastmile_qr_scan", "android": "https://dc.lft.to/lastmile_qr_scan"}, "fusion_lon": 0.0, "type": "electric_scooter", "bike_id": "92d163c632896ec3908f368ba992be74", "name": "92d163c632896ec3908f368ba992be74"}, {"lon": -77.034499, "is_disabled": 0, "lat": 38.9073125, "fusion_lat": 0.0, "is_reserved": 0, "rental_uris": {"ios": "https://dc.lft.to/lastmile_qr_scan", "android": "https://dc.lft.to/lastmile_qr_scan"}, "fusion_lon": 0.0, "type": "electric_scooter", "bike_id": "468605ebe7b831e39e2bc5b26f1fdd9c", "name": "468605ebe7b831e39e2bc5b26f1fdd9c"}, {"lon": -77.023847, "is_disabled": 0, "lat": 38.917633333333335, "fusion_lat": 0.0, "is_reserved": 0, "rental_uris": {"ios": "https://dc.lft.to/lastmile_qr_scan", "android": "https://dc.lft.to/lastmile_qr_scan"}, "fusion_lon": 0.0, "type": "electric_scooter", "bike_id": "b43d23d240385e080fa3a1000fecc883", "name": "b43d23d240385e080fa3a1000fecc883"}, {"lon": -77.02477866666666, "is_disabled": 0, "lat": 38.91876366666666, "fusion_lat": 0.0, "is_reserved": 0, "rental_uris": {"ios": "https://dc.lft.to/lastmile_qr_scan", "android": "https://dc.lft.to/lastmile_qr_scan"}, "fusion_lon": 0.0, "type": "electric_scooter", "bike_id": "d43ea1dd9bfab7f6cd148543df09d09d", "name": "d43ea1dd9bfab7f6cd148543df09d09d"}, {"lon": -76.99863816666667, "is_disabled": 0, "lat": 38.91010933333333, "fusion_lat": 0.0, "is_reserved": 0, "rental_uris": {"ios": "https://dc.lft.to/lastmile_qr_scan", "android": "https://dc.lft.to/lastmile_qr_scan"}, "fusion_lon": 0.0, "type": "electric_scooter", "bike_id": "2e52e2092ce84c7a2e1d2321c1aad453", "name": "2e52e2092ce84c7a2e1d2321c1aad453"}, {"lon": -77.0345905, "is_disabled": 0, "lat": 38.90728683333333, "fusion_lat": 0.0, "is_reserved": 0, "rental_uris": {"ios": "https://dc.lft.to/lastmile_qr_scan", "android": "https://dc.lft.to/lastmile_qr_scan"}, "fusion_lon": 0.0, "type": "electric_scooter", "bike_id": "184d2941020c0166f06cbd5226bce424", "name": "184d2941020c0166f06cbd5226bce424"}, {"lon": -77.01085483333334, "is_disabled": 0, "lat": 38.9173835, "fusion_lat": 0.0, "is_reserved": 0, "rental_uris": {"ios": "https://dc.lft.to/lastmile_qr_scan", "android": "https://dc.lft.to/lastmile_qr_scan"}, "fusion_lon": 0.0, "type": "electric_scooter", "bike_id": "72617affb82e0b1891770142ef664ecb", "name": "72617affb82e0b1891770142ef664ecb"}, {"lon": -77.02384683333334, "is_disabled": 0, "lat": 38.9128925, "fusion_lat": 0.0, "is_reserved": 0, "rental_uris": {"ios": "https://dc.lft.to/lastmile_qr_scan", "android": "https://dc.lft.to/lastmile_qr_scan"}, "fusion_lon": 0.0, "type": "electric_scooter", "bike_id": "0dd0e8f8e4dbafde4ad8961af43fbfe8", "name": "0dd0e8f8e4dbafde4ad8961af43fbfe8"}, {"lon": -77.0320315, "is_disabled": 0, "lat": 38.908912, "fusion_lat": 0.0, "is_reserved": 0, "rental_uris": {"ios": "https://dc.lft.to/lastmile_qr_scan", "android": "https://dc.lft.to/lastmile_qr_scan"}, "fusion_lon": 0.0, "type": "electric_scooter", "bike_id": "d3ceae5e555c29198bb541154dc42a28", "name": "d3ceae5e555c29198bb541154dc42a28"}, {"lon": -76.99833616666666, "is_disabled": 0, "lat": 38.9005195, "fusion_lat": 0.0, "is_reserved": 0, "rental_uris": {"ios": "https://dc.lft.to/lastmile_qr_scan", "android": "https://dc.lft.to/lastmile_qr_scan"}, "fusion_lon": 0.0, "type": "electric_scooter", "bike_id": "dabfc73c6b84df1779dbe99adb0bcd16", "name": "dabfc73c6b84df1779dbe99adb0bcd16"}, {"lon": -77.0497855, "is_disabled": 0, "lat": 38.901233500000004, "fusion_lat": 0.0, "is_reserved": 0, "rental_uris": {"ios": "https://dc.lft.to/lastmile_qr_scan", "android": "https://dc.lft.to/lastmile_qr_scan"}, "fusion_lon": 0.0, "type": "electric_scooter", "bike_id": "4c1c0bd514728fbf356d5ec52a8a7149", "name": "4c1c0bd514728fbf356d5ec52a8a7149"}, {"lon": -77.00434466666667, "is_disabled": 0, "lat": 38.990103166666664, "fusion_lat": 0.0, "is_reserved": 0, "rental_uris": {"ios": "https://dc.lft.to/lastmile_qr_scan", "android": "https://dc.lft.to/lastmile_qr_scan"}, "fusion_lon": 0.0, "type": "electric_bike", "bike_id": "ca0670adda5c164018a3672fba593393", "name": "ca0670adda5c164018a3672fba593393"}, {"lon": -77.04168316666667, "is_disabled": 0, "lat": 38.917688166666665, "fusion_lat": 0.0, "is_reserved": 0, "rental_uris": {"ios": "https://dc.lft.to/lastmile_qr_scan", "android": "https://dc.lft.to/lastmile_qr_scan"}, "fusion_lon": 0.0, "type": "electric_scooter", "bike_id": "61178291ad90512ba02562606d591275", "name": "61178291ad90512ba02562606d591275"}, {"lon": -77.04496, "is_disabled": 0, "lat": 38.90859866666667, "fusion_lat": 0.0, "is_reserved": 0, "rental_uris": {"ios": "https://dc.lft.to/lastmile_qr_scan", "android": "https://dc.lft.to/lastmile_qr_scan"}, "fusion_lon": 0.0, "type": "electric_scooter", "bike_id": "0e6e04dbecd36f172576f6e9f8b8982b", "name": "0e6e04dbecd36f172576f6e9f8b8982b"}, {"lon": -77.03253533333333, "is_disabled": 0, "lat": 38.928701, "fusion_lat": 0.0, "is_reserved": 0, "rental_uris": {"ios": "https://dc.lft.to/lastmile_qr_scan", "android": "https://dc.lft.to/lastmile_qr_scan"}, "fusion_lon": 0.0, "type": "electric_scooter", "bike_id": "0a43750b3883fb768b3cc04ff88db0d1", "name": "0a43750b3883fb768b3cc04ff88db0d1"}, {"lon": -77.04099816666667, "is_disabled": 0, "lat": 38.917813833333334, "fusion_lat": 0.0, "is_reserved": 0, "rental_uris": {"ios": "https://dc.lft.to/lastmile_qr_scan", "android": "https://dc.lft.to/lastmile_qr_scan"}, "fusion_lon": 0.0, "type": "electric_scooter", "bike_id": "454cd0ef583f9a2ffc23dc2ba244abab", "name": "454cd0ef583f9a2ffc23dc2ba244abab"}, {"lon": -77.05340366666667, "is_disabled": 0, "lat": 39.040782, "fusion_lat": 0.0, "is_reserved": 0, "rental_uris": {"ios": "https://dc.lft.to/lastmile_qr_scan", "android": "https://dc.lft.to/lastmile_qr_scan"}, "fusion_lon": 0.0, "type": "electric_bike", "bike_id": "37b8b4e85415f649b7e7b317e9bba943", "name": "37b8b4e85415f649b7e7b317e9bba943"}, {"lon": -77.02446683333334, "is_disabled": 0, "lat": 38.93852733333333, "fusion_lat": 0.0, "is_reserved": 0, "rental_uris": {"ios": "https://dc.lft.to/lastmile_qr_scan", "android": "https://dc.lft.to/lastmile_qr_scan"}, "fusion_lon": 0.0, "type": "electric_scooter", "bike_id": "f75e0820926aaa4cc6d66fc2f07be7ab", "name": "f75e0820926aaa4cc6d66fc2f07be7ab"}, {"lon": -77.02645433333333, "is_disabled": 0, "lat": 38.902635333333336, "fusion_lat": 0.0, "is_reserved": 0, "rental_uris": {"ios": "https://dc.lft.to/lastmile_qr_scan", "android": "https://dc.lft.to/lastmile_qr_scan"}, "fusion_lon": 0.0, "type": "electric_scooter", "bike_id": "9ab4bcd4eb9fa9030275c074cc944848", "name": "9ab4bcd4eb9fa9030275c074cc944848"}, {"lon": -77.05166283333334, "is_disabled": 0, "lat": 38.90543733333333, "fusion_lat": 0.0, "is_reserved": 0, "rental_uris": {"ios": "https://dc.lft.to/lastmile_qr_scan", "android": "https://dc.lft.to/lastmile_qr_scan"}, "fusion_lon": 0.0, "type": "electric_scooter", "bike_id": "ae2422bae2168fd9efdff8b090ee4bd6", "name": "ae2422bae2168fd9efdff8b090ee4bd6"}, {"lon": -77.00061716666667, "is_disabled": 0, "lat": 38.87359583333333, "fusion_lat": 0.0, "is_reserved": 0, "rental_uris": {"ios": "https://dc.lft.to/lastmile_qr_scan", "android": "https://dc.lft.to/lastmile_qr_scan"}, "fusion_lon": 0.0, "type": "electric_scooter", "bike_id": "76515190f8cc19a4c5869f52cc73ba07", "name": "76515190f8cc19a4c5869f52cc73ba07"}, {"lon": -77.0148795, "is_disabled": 0, "lat": 38.892201666666665, "fusion_lat": 0.0, "is_reserved": 0, "rental_uris": {"ios": "https://dc.lft.to/lastmile_qr_scan", "android": "https://dc.lft.to/lastmile_qr_scan"}, "fusion_lon": 0.0, "type": "electric_scooter", "bike_id": "7b1dcb10f41b8893dc5585489284a5a5", "name": "7b1dcb10f41b8893dc5585489284a5a5"}, {"lon": -77.03283016666667, "is_disabled": 0, "lat": 38.93515083333333, "fusion_lat": 0.0, "is_reserved": 0, "rental_uris": {"ios": "https://dc.lft.to/lastmile_qr_scan", "android": "https://dc.lft.to/lastmile_qr_scan"}, "fusion_lon": 0.0, "type": "electric_scooter", "bike_id": "5f435a0591292b3ba3d37165708db4fa", "name": "5f435a0591292b3ba3d37165708db4fa"}, {"lon": -77.02521566666667, "is_disabled": 0, "lat": 38.9192655, "fusion_lat": 0.0, "is_reserved": 0, "rental_uris": {"ios": "https://dc.lft.to/lastmile_qr_scan", "android": "https://dc.lft.to/lastmile_qr_scan"}, "fusion_lon": 0.0, "type": "electric_scooter", "bike_id": "3653aa1c8f6fbcf06e08e2bfa61818a7", "name": "3653aa1c8f6fbcf06e08e2bfa61818a7"}, {"lon": -77.02890866666667, "is_disabled": 0, "lat": 38.904422833333335, "fusion_lat": 0.0, "is_reserved": 0, "rental_uris": {"ios": "https://dc.lft.to/lastmile_qr_scan", "android": "https://dc.lft.to/lastmile_qr_scan"}, "fusion_lon": 0.0, "type": "electric_scooter", "bike_id": "d3b5f34f4f22f4efdfda8f4251062508", "name": "d3b5f34f4f22f4efdfda8f4251062508"}, {"lon": -76.950935, "is_disabled": 0, "lat": 38.8845075, "fusion_lat": 0.0, "is_reserved": 0, "rental_uris": {"ios": "https://dc.lft.to/lastmile_qr_scan", "android": "https://dc.lft.to/lastmile_qr_scan"}, "fusion_lon": 0.0, "type": "electric_scooter", "bike_id": "647b114a8918d813bb8a0e27b5c76c6c", "name": "647b114a8918d813bb8a0e27b5c76c6c"}, {"lon": -77.02255933333333, "is_disabled": 0, "lat": 38.96683933333333, "fusion_lat": 0.0, "is_reserved": 0, "rental_uris": {"ios": "https://dc.lft.to/lastmile_qr_scan", "android": "https://dc.lft.to/lastmile_qr_scan"}, "fusion_lon": 0.0, "type": "electric_bike", "bike_id": "e113ed10d411dbf19fffcef3822d68e4", "name": "e113ed10d411dbf19fffcef3822d68e4"}, {"lon": -76.97853233333333, "is_disabled": 0, "lat": 38.844662666666665, "fusion_lat": 0.0, "is_reserved": 0, "rental_uris": {"ios": "https://dc.lft.to/lastmile_qr_scan", "android": "https://dc.lft.to/lastmile_qr_scan"}, "fusion_lon": 0.0, "type": "electric_bike", "bike_id": "c1b5efd845f50499e23a4bbc5e9c7af5", "name": "c1b5efd845f50499e23a4bbc5e9c7af5"}, {"lon": -77.01216166666667, "is_disabled": 0, "lat": 38.89846216666667, "fusion_lat": 0.0, "is_reserved": 0, "rental_uris": {"ios": "https://dc.lft.to/lastmile_qr_scan", "android": "https://dc.lft.to/lastmile_qr_scan"}, "fusion_lon": 0.0, "type": "electric_scooter", "bike_id": "112c528f60d4493bad5eb0128e2dc8ea", "name": "112c528f60d4493bad5eb0128e2dc8ea"}, {"lon": -77.03477733333334, "is_disabled": 0, "lat": 38.88485166666667, "fusion_lat": 0.0, "is_reserved": 0, "rental_uris": {"ios": "https://dc.lft.to/lastmile_qr_scan", "android": "https://dc.lft.to/lastmile_qr_scan"}, "fusion_lon": 0.0, "type": "electric_scooter", "bike_id": "3fc43f84b31d5eada2e8b52daf13b1a8", "name": "3fc43f84b31d5eada2e8b52daf13b1a8"}, {"lon": -76.98375066666667, "is_disabled": 0, "lat": 38.87949666666667, "fusion_lat": 0.0, "is_reserved": 0, "rental_uris": {"ios": "https://dc.lft.to/lastmile_qr_scan", "android": "https://dc.lft.to/lastmile_qr_scan"}, "fusion_lon": 0.0, "type": "electric_scooter", "bike_id": "490de9ac60c48544d48d50a6fa77edb9", "name": "490de9ac60c48544d48d50a6fa77edb9"}, {"lon": -77.02559916666667, "is_disabled": 0, "lat": 38.909568, "fusion_lat": 0.0, "is_reserved": 0, "rental_uris": {"ios": "https://dc.lft.to/lastmile_qr_scan", "android": "https://dc.lft.to/lastmile_qr_scan"}, "fusion_lon": 0.0, "type": "electric_scooter", "bike_id": "312bb56fbfdd3d82d667eea30d7941ce", "name": "312bb56fbfdd3d82d667eea30d7941ce"}, {"lon": -77.056529, "is_disabled": 0, "lat": 38.90611083333334, "fusion_lat": 0.0, "is_reserved": 0, "rental_uris": {"ios": "https://dc.lft.to/lastmile_qr_scan", "android": "https://dc.lft.to/lastmile_qr_scan"}, "fusion_lon": 0.0, "type": "electric_scooter", "bike_id": "65f3e9b170c32c0c29b9c957e271cfea", "name": "65f3e9b170c32c0c29b9c957e271cfea"}, {"lon": -77.05728183333333, "is_disabled": 0, "lat": 38.93368366666667, "fusion_lat": 0.0, "is_reserved": 0, "rental_uris": {"ios": "https://dc.lft.to/lastmile_qr_scan", "android": "https://dc.lft.to/lastmile_qr_scan"}, "fusion_lon": 0.0, "type": "electric_scooter", "bike_id": "51be6019a75c8fa19c49c82a4a68d15e", "name": "51be6019a75c8fa19c49c82a4a68d15e"}, {"lon": -77.0084525, "is_disabled": 0, "lat": 38.92231666666667, "fusion_lat": 0.0, "is_reserved": 0, "rental_uris": {"ios": "https://dc.lft.to/lastmile_qr_scan", "android": "https://dc.lft.to/lastmile_qr_scan"}, "fusion_lon": 0.0, "type": "electric_scooter", "bike_id": "edb956e592021f904202c140f756d81c", "name": "edb956e592021f904202c140f756d81c"}, {"lon": -76.9787965, "is_disabled": 0, "lat": 38.9018945, "fusion_lat": 0.0, "is_reserved": 0, "rental_uris": {"ios": "https://dc.lft.to/lastmile_qr_scan", "android": "https://dc.lft.to/lastmile_qr_scan"}, "fusion_lon": 0.0, "type": "electric_scooter", "bike_id": "abaa12134b6328c53a7a044fd7aae196", "name": "abaa12134b6328c53a7a044fd7aae196"}, {"lon": -77.00572933333333, "is_disabled": 0, "lat": 38.876551, "fusion_lat": 0.0, "is_reserved": 0, "rental_uris": {"ios": "https://dc.lft.to/lastmile_qr_scan", "android": "https://dc.lft.to/lastmile_qr_scan"}, "fusion_lon": 0.0, "type": "electric_scooter", "bike_id": "f22ea6f1f59616e9bf3cc1b5fcd575ee", "name": "f22ea6f1f59616e9bf3cc1b5fcd575ee"}, {"lon": -77.06382533333333, "is_disabled": 0, "lat": 38.905255833333335, "fusion_lat": 0.0, "is_reserved": 0, "rental_uris": {"ios": "https://dc.lft.to/lastmile_qr_scan", "android": "https://dc.lft.to/lastmile_qr_scan"}, "fusion_lon": 0.0, "type": "electric_scooter", "bike_id": "ce9fb21f9203d9987918391086b7fbe3", "name": "ce9fb21f9203d9987918391086b7fbe3"}, {"lon": -77.02495433333333, "is_disabled": 0, "lat": 38.918041333333335, "fusion_lat": 0.0, "is_reserved": 0, "rental_uris": {"ios": "https://dc.lft.to/lastmile_qr_scan", "android": "https://dc.lft.to/lastmile_qr_scan"}, "fusion_lon": 0.0, "type": "electric_scooter", "bike_id": "a336309d8b1208cdeabf3764146f61c4", "name": "a336309d8b1208cdeabf3764146f61c4"}, {"lon": -77.04854533333334, "is_disabled": 0, "lat": 38.90445166666667, "fusion_lat": 0.0, "is_reserved": 0, "rental_uris": {"ios": "https://dc.lft.to/lastmile_qr_scan", "android": "https://dc.lft.to/lastmile_qr_scan"}, "fusion_lon": 0.0, "type": "electric_scooter", "bike_id": "f50544ddafdd6203a71fd3156b891a5f", "name": "f50544ddafdd6203a71fd3156b891a5f"}, {"lon": -77.02391516666667, "is_disabled": 0, "lat": 38.920828666666665, "fusion_lat": 0.0, "is_reserved": 0, "rental_uris": {"ios": "https://dc.lft.to/lastmile_qr_scan", "android": "https://dc.lft.to/lastmile_qr_scan"}, "fusion_lon": 0.0, "type": "electric_scooter", "bike_id": "a36c729e0e40b6907bd6d3a2678de9aa", "name": "a36c729e0e40b6907bd6d3a2678de9aa"}, {"lon": -77.02177133333333, "is_disabled": 0, "lat": 38.928619, "fusion_lat": 0.0, "is_reserved": 0, "rental_uris": {"ios": "https://dc.lft.to/lastmile_qr_scan", "android": "https://dc.lft.to/lastmile_qr_scan"}, "fusion_lon": 0.0, "type": "electric_scooter", "bike_id": "0e34685c6a643e481ad4d860ee164bb2", "name": "0e34685c6a643e481ad4d860ee164bb2"}, {"lon": -77.031906, "is_disabled": 0, "lat": 38.91599266666667, "fusion_lat": 0.0, "is_reserved": 0, "rental_uris": {"ios": "https://dc.lft.to/lastmile_qr_scan", "android": "https://dc.lft.to/lastmile_qr_scan"}, "fusion_lon": 0.0, "type": "electric_scooter", "bike_id": "96d1fc9583b150f81af885d64caf1e6a", "name": "96d1fc9583b150f81af885d64caf1e6a"}, {"lon": -77.03806533333334, "is_disabled": 0, "lat": 38.92499316666667, "fusion_lat": 0.0, "is_reserved": 0, "rental_uris": {"ios": "https://dc.lft.to/lastmile_qr_scan", "android": "https://dc.lft.to/lastmile_qr_scan"}, "fusion_lon": 0.0, "type": "electric_scooter", "bike_id": "c9dcb5320d5a3098e690ea670b6fc4dd", "name": "c9dcb5320d5a3098e690ea670b6fc4dd"}, {"lon": -77.03853833333334, "is_disabled": 0, "lat": 38.932413, "fusion_lat": 0.0, "is_reserved": 0, "rental_uris": {"ios": "https://dc.lft.to/lastmile_qr_scan", "android": "https://dc.lft.to/lastmile_qr_scan"}, "fusion_lon": 0.0, "type": "electric_scooter", "bike_id": "c5c1f33ec368d0e02355c681c5096cfa", "name": "c5c1f33ec368d0e02355c681c5096cfa"}, {"lon": -77.02344616666667, "is_disabled": 0, "lat": 38.89397433333333, "fusion_lat": 0.0, "is_reserved": 0, "rental_uris": {"ios": "https://dc.lft.to/lastmile_qr_scan", "android": "https://dc.lft.to/lastmile_qr_scan"}, "fusion_lon": 0.0, "type": "electric_scooter", "bike_id": "5a5f8e7545bc5326663b01e07c2f78a6", "name": "5a5f8e7545bc5326663b01e07c2f78a6"}, {"lon": -77.0269805, "is_disabled": 0, "lat": 38.906837, "fusion_lat": 0.0, "is_reserved": 0, "rental_uris": {"ios": "https://dc.lft.to/lastmile_qr_scan", "android": "https://dc.lft.to/lastmile_qr_scan"}, "fusion_lon": 0.0, "type": "electric_scooter", "bike_id": "3753073f4ae3a8de69fdd5545d3afda0", "name": "3753073f4ae3a8de69fdd5545d3afda0"}, {"lon": -77.0326265, "is_disabled": 0, "lat": 38.9027385, "fusion_lat": 0.0, "is_reserved": 0, "rental_uris": {"ios": "https://dc.lft.to/lastmile_qr_scan", "android": "https://dc.lft.to/lastmile_qr_scan"}, "fusion_lon": 0.0, "type": "electric_scooter", "bike_id": "533fe1b9e22f9c8f53fe3fdb22a31e89", "name": "533fe1b9e22f9c8f53fe3fdb22a31e89"}, {"lon": -76.97998983333333, "is_disabled": 0, "lat": 38.9044275, "fusion_lat": 0.0, "is_reserved": 0, "rental_uris": {"ios": "https://dc.lft.to/lastmile_qr_scan", "android": "https://dc.lft.to/lastmile_qr_scan"}, "fusion_lon": 0.0, "type": "electric_scooter", "bike_id": "39c294697b6ed26e2f93a393b67f4c7c", "name": "39c294697b6ed26e2f93a393b67f4c7c"}, {"lon": -77.04770533333334, "is_disabled": 0, "lat": 38.917685166666665, "fusion_lat": 0.0, "is_reserved": 0, "rental_uris": {"ios": "https://dc.lft.to/lastmile_qr_scan", "android": "https://dc.lft.to/lastmile_qr_scan"}, "fusion_lon": 0.0, "type": "electric_scooter", "bike_id": "4932bdc9a8582a1721972f1edd51394b", "name": "4932bdc9a8582a1721972f1edd51394b"}, {"lon": -76.93370633333333, "is_disabled": 0, "lat": 38.899153166666665, "fusion_lat": 0.0, "is_reserved": 0, "rental_uris": {"ios": "https://dc.lft.to/lastmile_qr_scan", "android": "https://dc.lft.to/lastmile_qr_scan"}, "fusion_lon": 0.0, "type": "electric_scooter", "bike_id": "25e07c4675f2c2d532d09448bdf57559", "name": "25e07c4675f2c2d532d09448bdf57559"}, {"lon": -77.01211683333334, "is_disabled": 0, "lat": 38.8999975, "fusion_lat": 0.0, "is_reserved": 0, "rental_uris": {"ios": "https://dc.lft.to/lastmile_qr_scan", "android": "https://dc.lft.to/lastmile_qr_scan"}, "fusion_lon": 0.0, "type": "electric_scooter", "bike_id": "c94622aa4ff3b007a43a5ecdcbf51318", "name": "c94622aa4ff3b007a43a5ecdcbf51318"}, {"lon": -76.98083866666667, "is_disabled": 0, "lat": 38.922463, "fusion_lat": 0.0, "is_reserved": 0, "rental_uris": {"ios": "https://dc.lft.to/lastmile_qr_scan", "android": "https://dc.lft.to/lastmile_qr_scan"}, "fusion_lon": 0.0, "type": "electric_scooter", "bike_id": "a649d5a620f84623c99596c30e7c8914", "name": "a649d5a620f84623c99596c30e7c8914"}, {"lon": -77.00584316666666, "is_disabled": 0, "lat": 38.90624533333333, "fusion_lat": 0.0, "is_reserved": 0, "rental_uris": {"ios": "https://dc.lft.to/lastmile_qr_scan", "android": "https://dc.lft.to/lastmile_qr_scan"}, "fusion_lon": 0.0, "type": "electric_scooter", "bike_id": "cf8363d32195edaf4b5284b9da62e838", "name": "cf8363d32195edaf4b5284b9da62e838"}, {"lon": -77.00580266666667, "is_disabled": 0, "lat": 38.9056215, "fusion_lat": 0.0, "is_reserved": 0, "rental_uris": {"ios": "https://dc.lft.to/lastmile_qr_scan", "android": "https://dc.lft.to/lastmile_qr_scan"}, "fusion_lon": 0.0, "type": "electric_scooter", "bike_id": "0939c28b277928e2dbc685eac0217153", "name": "0939c28b277928e2dbc685eac0217153"}, {"lon": -77.0367715, "is_disabled": 0, "lat": 38.922683166666665, "fusion_lat": 0.0, "is_reserved": 0, "rental_uris": {"ios": "https://dc.lft.to/lastmile_qr_scan", "android": "https://dc.lft.to/lastmile_qr_scan"}, "fusion_lon": 0.0, "type": "electric_scooter", "bike_id": "8c6f5bf67dd755cf6cbe29330279ee3e", "name": "8c6f5bf67dd755cf6cbe29330279ee3e"}, {"lon": -77.03943716666667, "is_disabled": 0, "lat": 38.909687166666664, "fusion_lat": 0.0, "is_reserved": 0, "rental_uris": {"ios": "https://dc.lft.to/lastmile_qr_scan", "android": "https://dc.lft.to/lastmile_qr_scan"}, "fusion_lon": 0.0, "type": "electric_scooter", "bike_id": "35bd9136ee9ec8f29fc5ec1e36f637ac", "name": "35bd9136ee9ec8f29fc5ec1e36f637ac"}, {"lon": -77.024115, "is_disabled": 0, "lat": 38.9097035, "fusion_lat": 0.0, "is_reserved": 0, "rental_uris": {"ios": "https://dc.lft.to/lastmile_qr_scan", "android": "https://dc.lft.to/lastmile_qr_scan"}, "fusion_lon": 0.0, "type": "electric_scooter", "bike_id": "3827ef7f7dbc58d19de81146bec9f67e", "name": "3827ef7f7dbc58d19de81146bec9f67e"}, {"lon": -77.03451466666667, "is_disabled": 0, "lat": 38.9072975, "fusion_lat": 0.0, "is_reserved": 0, "rental_uris": {"ios": "https://dc.lft.to/lastmile_qr_scan", "android": "https://dc.lft.to/lastmile_qr_scan"}, "fusion_lon": 0.0, "type": "electric_scooter", "bike_id": "53890893b167760957502866935cfb07", "name": "53890893b167760957502866935cfb07"}, {"lon": -77.024903, "is_disabled": 0, "lat": 38.941798666666664, "fusion_lat": 0.0, "is_reserved": 0, "rental_uris": {"ios": "https://dc.lft.to/lastmile_qr_scan", "android": "https://dc.lft.to/lastmile_qr_scan"}, "fusion_lon": 0.0, "type": "electric_scooter", "bike_id": "5dd5aa3908c76064015b3b9e5ab26225", "name": "5dd5aa3908c76064015b3b9e5ab26225"}, {"lon": -77.02161683333334, "is_disabled": 0, "lat": 38.925118499999996, "fusion_lat": 0.0, "is_reserved": 0, "rental_uris": {"ios": "https://dc.lft.to/lastmile_qr_scan", "android": "https://dc.lft.to/lastmile_qr_scan"}, "fusion_lon": 0.0, "type": "electric_scooter", "bike_id": "e455fd870629d0713ba5d2d7a966ef43", "name": "e455fd870629d0713ba5d2d7a966ef43"}, {"lon": -77.0068075, "is_disabled": 0, "lat": 38.871728166666664, "fusion_lat": 0.0, "is_reserved": 0, "rental_uris": {"ios": "https://dc.lft.to/lastmile_qr_scan", "android": "https://dc.lft.to/lastmile_qr_scan"}, "fusion_lon": 0.0, "type": "electric_scooter", "bike_id": "6bef84d86d5b59864e4afa9248103389", "name": "6bef84d86d5b59864e4afa9248103389"}, {"lon": -76.985751, "is_disabled": 0, "lat": 38.86682, "fusion_lat": 0.0, "is_reserved": 0, "rental_uris": {"ios": "https://dc.lft.to/lastmile_qr_scan", "android": "https://dc.lft.to/lastmile_qr_scan"}, "fusion_lon": 0.0, "type": "electric_scooter", "bike_id": "2013cb2dbba9ddc5a2d04bf6826c7c80", "name": "2013cb2dbba9ddc5a2d04bf6826c7c80"}, {"lon": -77.0113915, "is_disabled": 0, "lat": 38.906419166666666, "fusion_lat": 0.0, "is_reserved": 0, "rental_uris": {"ios": "https://dc.lft.to/lastmile_qr_scan", "android": "https://dc.lft.to/lastmile_qr_scan"}, "fusion_lon": 0.0, "type": "electric_scooter", "bike_id": "51e78991836ae32abc7e8ad1967d89f8", "name": "51e78991836ae32abc7e8ad1967d89f8"}, {"lon": -77.03553816666667, "is_disabled": 0, "lat": 38.91265633333333, "fusion_lat": 0.0, "is_reserved": 0, "rental_uris": {"ios": "https://dc.lft.to/lastmile_qr_scan", "android": "https://dc.lft.to/lastmile_qr_scan"}, "fusion_lon": 0.0, "type": "electric_scooter", "bike_id": "235a6c20025f3bc7bb0ea54779b0bb10", "name": "235a6c20025f3bc7bb0ea54779b0bb10"}, {"lon": -77.023665, "is_disabled": 0, "lat": 38.90682316666667, "fusion_lat": 0.0, "is_reserved": 0, "rental_uris": {"ios": "https://dc.lft.to/lastmile_qr_scan", "android": "https://dc.lft.to/lastmile_qr_scan"}, "fusion_lon": 0.0, "type": "electric_scooter", "bike_id": "f0baadfe2e9fefe2bf6c2ba2387a7198", "name": "f0baadfe2e9fefe2bf6c2ba2387a7198"}, {"lon": -76.99497033333333, "is_disabled": 0, "lat": 38.86242216666667, "fusion_lat": 0.0, "is_reserved": 0, "rental_uris": {"ios": "https://dc.lft.to/lastmile_qr_scan", "android": "https://dc.lft.to/lastmile_qr_scan"}, "fusion_lon": 0.0, "type": "electric_scooter", "bike_id": "f6564b725a9b125802408c671fa35e0e", "name": "f6564b725a9b125802408c671fa35e0e"}, {"lon": -77.0245015, "is_disabled": 0, "lat": 38.94829466666667, "fusion_lat": 0.0, "is_reserved": 0, "rental_uris": {"ios": "https://dc.lft.to/lastmile_qr_scan", "android": "https://dc.lft.to/lastmile_qr_scan"}, "fusion_lon": 0.0, "type": "electric_scooter", "bike_id": "f207d0a52fb1969985de19d585dc8151", "name": "f207d0a52fb1969985de19d585dc8151"}, {"lon": -77.0271315, "is_disabled": 0, "lat": 38.907184, "fusion_lat": 0.0, "is_reserved": 0, "rental_uris": {"ios": "https://dc.lft.to/lastmile_qr_scan", "android": "https://dc.lft.to/lastmile_qr_scan"}, "fusion_lon": 0.0, "type": "electric_scooter", "bike_id": "bfb73c38bc2ecce9b8abd3da38af4ada", "name": "bfb73c38bc2ecce9b8abd3da38af4ada"}, {"lon": -77.05912016666667, "is_disabled": 0, "lat": 38.901451, "fusion_lat": 0.0, "is_reserved": 0, "rental_uris": {"ios": "https://dc.lft.to/lastmile_qr_scan", "android": "https://dc.lft.to/lastmile_qr_scan"}, "fusion_lon": 0.0, "type": "electric_scooter", "bike_id": "73e485b181b3f070a7357fbf3dcb78a2", "name": "73e485b181b3f070a7357fbf3dcb78a2"}, {"lon": -77.04769483333334, "is_disabled": 0, "lat": 38.91755766666667, "fusion_lat": 0.0, "is_reserved": 0, "rental_uris": {"ios": "https://dc.lft.to/lastmile_qr_scan", "android": "https://dc.lft.to/lastmile_qr_scan"}, "fusion_lon": 0.0, "type": "electric_scooter", "bike_id": "02e874e33b0514f816fc70174b00fbe8", "name": "02e874e33b0514f816fc70174b00fbe8"}, {"lon": -77.00365083333334, "is_disabled": 0, "lat": 38.90602783333333, "fusion_lat": 0.0, "is_reserved": 0, "rental_uris": {"ios": "https://dc.lft.to/lastmile_qr_scan", "android": "https://dc.lft.to/lastmile_qr_scan"}, "fusion_lon": 0.0, "type": "electric_scooter", "bike_id": "844d4d310cd7a72a14252b6d70e10043", "name": "844d4d310cd7a72a14252b6d70e10043"}, {"lon": -76.942483, "is_disabled": 0, "lat": 38.897389, "fusion_lat": 0.0, "is_reserved": 0, "rental_uris": {"ios": "https://dc.lft.to/lastmile_qr_scan", "android": "https://dc.lft.to/lastmile_qr_scan"}, "fusion_lon": 0.0, "type": "electric_bike", "bike_id": "9493e94e911259ad2f176d6ccf24f78c", "name": "9493e94e911259ad2f176d6ccf24f78c"}, {"lon": -77.041501, "is_disabled": 0, "lat": 38.9064745, "fusion_lat": 0.0, "is_reserved": 0, "rental_uris": {"ios": "https://dc.lft.to/lastmile_qr_scan", "android": "https://dc.lft.to/lastmile_qr_scan"}, "fusion_lon": 0.0, "type": "electric_scooter", "bike_id": "9d89715964a867ec75f67eccfa8e87a6", "name": "9d89715964a867ec75f67eccfa8e87a6"}, {"lon": -77.01343533333333, "is_disabled": 0, "lat": 38.92972433333333, "fusion_lat": 0.0, "is_reserved": 0, "rental_uris": {"ios": "https://dc.lft.to/lastmile_qr_scan", "android": "https://dc.lft.to/lastmile_qr_scan"}, "fusion_lon": 0.0, "type": "electric_bike", "bike_id": "eccfb50b9bf3cf319b63c0d2100ed5ae", "name": "eccfb50b9bf3cf319b63c0d2100ed5ae"}, {"lon": -76.98718133333334, "is_disabled": 0, "lat": 38.866291333333336, "fusion_lat": 0.0, "is_reserved": 0, "rental_uris": {"ios": "https://dc.lft.to/lastmile_qr_scan", "android": "https://dc.lft.to/lastmile_qr_scan"}, "fusion_lon": 0.0, "type": "electric_scooter", "bike_id": "426e189b1ae2c5e73a0f6b2eb05d4169", "name": "426e189b1ae2c5e73a0f6b2eb05d4169"}, {"lon": -77.04864966666666, "is_disabled": 0, "lat": 38.91656716666667, "fusion_lat": 0.0, "is_reserved": 0, "rental_uris": {"ios": "https://dc.lft.to/lastmile_qr_scan", "android": "https://dc.lft.to/lastmile_qr_scan"}, "fusion_lon": 0.0, "type": "electric_scooter", "bike_id": "c8e331d0ddd69575299187b2b5e5367e", "name": "c8e331d0ddd69575299187b2b5e5367e"}, {"lon": -77.02407433333333, "is_disabled": 0, "lat": 38.905812, "fusion_lat": 0.0, "is_reserved": 0, "rental_uris": {"ios": "https://dc.lft.to/lastmile_qr_scan", "android": "https://dc.lft.to/lastmile_qr_scan"}, "fusion_lon": 0.0, "type": "electric_scooter", "bike_id": "f733a486e8e7868f81ec2ee85296f2bd", "name": "f733a486e8e7868f81ec2ee85296f2bd"}, {"lon": -77.02308733333334, "is_disabled": 0, "lat": 38.897004, "fusion_lat": 0.0, "is_reserved": 0, "rental_uris": {"ios": "https://dc.lft.to/lastmile_qr_scan", "android": "https://dc.lft.to/lastmile_qr_scan"}, "fusion_lon": 0.0, "type": "electric_scooter", "bike_id": "ddb59c55c64b30ac4839d774573265c0", "name": "ddb59c55c64b30ac4839d774573265c0"}, {"lon": -76.9856905, "is_disabled": 0, "lat": 38.86684433333333, "fusion_lat": 0.0, "is_reserved": 0, "rental_uris": {"ios": "https://dc.lft.to/lastmile_qr_scan", "android": "https://dc.lft.to/lastmile_qr_scan"}, "fusion_lon": 0.0, "type": "electric_scooter", "bike_id": "457971ad33a2938280838c2c99d3090a", "name": "457971ad33a2938280838c2c99d3090a"}, {"lon": -76.98128783333334, "is_disabled": 0, "lat": 38.87065883333333, "fusion_lat": 0.0, "is_reserved": 0, "rental_uris": {"ios": "https://dc.lft.to/lastmile_qr_scan", "android": "https://dc.lft.to/lastmile_qr_scan"}, "fusion_lon": 0.0, "type": "electric_scooter", "bike_id": "3b4737a3b5a5662ead2583e49428496c", "name": "3b4737a3b5a5662ead2583e49428496c"}, {"lon": -77.0136705, "is_disabled": 0, "lat": 38.886368, "fusion_lat": 0.0, "is_reserved": 0, "rental_uris": {"ios": "https://dc.lft.to/lastmile_qr_scan", "android": "https://dc.lft.to/lastmile_qr_scan"}, "fusion_lon": 0.0, "type": "electric_scooter", "bike_id": "3a53215ce039fb36c0c2df471f8a433f", "name": "3a53215ce039fb36c0c2df471f8a433f"}, {"lon": -77.02881533333333, "is_disabled": 0, "lat": 38.90148383333333, "fusion_lat": 0.0, "is_reserved": 0, "rental_uris": {"ios": "https://dc.lft.to/lastmile_qr_scan", "android": "https://dc.lft.to/lastmile_qr_scan"}, "fusion_lon": 0.0, "type": "electric_scooter", "bike_id": "f258c3982c4119974c325914d45b0dc1", "name": "f258c3982c4119974c325914d45b0dc1"}, {"lon": -77.00645933333334, "is_disabled": 0, "lat": 38.89988733333333, "fusion_lat": 0.0, "is_reserved": 0, "rental_uris": {"ios": "https://dc.lft.to/lastmile_qr_scan", "android": "https://dc.lft.to/lastmile_qr_scan"}, "fusion_lon": 0.0, "type": "electric_scooter", "bike_id": "35a0823a617b87a485e4966fb6a74d16", "name": "35a0823a617b87a485e4966fb6a74d16"}, {"lon": -77.02380166666667, "is_disabled": 0, "lat": 38.902194, "fusion_lat": 0.0, "is_reserved": 0, "rental_uris": {"ios": "https://dc.lft.to/lastmile_qr_scan", "android": "https://dc.lft.to/lastmile_qr_scan"}, "fusion_lon": 0.0, "type": "electric_scooter", "bike_id": "18b19e9ad3fe6ba1206f018a19b5870c", "name": "18b19e9ad3fe6ba1206f018a19b5870c"}, {"lon": -77.04258066666667, "is_disabled": 0, "lat": 38.908654, "fusion_lat": 0.0, "is_reserved": 0, "rental_uris": {"ios": "https://dc.lft.to/lastmile_qr_scan", "android": "https://dc.lft.to/lastmile_qr_scan"}, "fusion_lon": 0.0, "type": "electric_scooter", "bike_id": "70ad2779ab77c64554a934dcf9cabb3b", "name": "70ad2779ab77c64554a934dcf9cabb3b"}, {"lon": -77.01484333333333, "is_disabled": 0, "lat": 38.89217883333333, "fusion_lat": 0.0, "is_reserved": 0, "rental_uris": {"ios": "https://dc.lft.to/lastmile_qr_scan", "android": "https://dc.lft.to/lastmile_qr_scan"}, "fusion_lon": 0.0, "type": "electric_scooter", "bike_id": "08ac30e8897549104a46f45397bcb9bd", "name": "08ac30e8897549104a46f45397bcb9bd"}, {"lon": -76.98033033333333, "is_disabled": 0, "lat": 38.90788533333333, "fusion_lat": 0.0, "is_reserved": 0, "rental_uris": {"ios": "https://dc.lft.to/lastmile_qr_scan", "android": "https://dc.lft.to/lastmile_qr_scan"}, "fusion_lon": 0.0, "type": "electric_scooter", "bike_id": "1a33b62e367fff417e7b43aca115650f", "name": "1a33b62e367fff417e7b43aca115650f"}, {"lon": -77.02310366666667, "is_disabled": 0, "lat": 38.91787516666667, "fusion_lat": 0.0, "is_reserved": 0, "rental_uris": {"ios": "https://dc.lft.to/lastmile_qr_scan", "android": "https://dc.lft.to/lastmile_qr_scan"}, "fusion_lon": 0.0, "type": "electric_scooter", "bike_id": "ee096808b4c714f315f459fc865b1699", "name": "ee096808b4c714f315f459fc865b1699"}, {"lon": -77.0321055, "is_disabled": 0, "lat": 38.89790033333333, "fusion_lat": 0.0, "is_reserved": 0, "rental_uris": {"ios": "https://dc.lft.to/lastmile_qr_scan", "android": "https://dc.lft.to/lastmile_qr_scan"}, "fusion_lon": 0.0, "type": "electric_scooter", "bike_id": "2e690fe31133734380ada18a1ce8cafa", "name": "2e690fe31133734380ada18a1ce8cafa"}, {"lon": -76.95060833333334, "is_disabled": 0, "lat": 38.893373833333335, "fusion_lat": 0.0, "is_reserved": 0, "rental_uris": {"ios": "https://dc.lft.to/lastmile_qr_scan", "android": "https://dc.lft.to/lastmile_qr_scan"}, "fusion_lon": 0.0, "type": "electric_scooter", "bike_id": "92dc97afbd092498645b593271e88c11", "name": "92dc97afbd092498645b593271e88c11"}, {"lon": -77.0503645, "is_disabled": 0, "lat": 38.92364833333333, "fusion_lat": 0.0, "is_reserved": 0, "rental_uris": {"ios": "https://dc.lft.to/lastmile_qr_scan", "android": "https://dc.lft.to/lastmile_qr_scan"}, "fusion_lon": 0.0, "type": "electric_scooter", "bike_id": "2742a715dd7169200b18134bca02e3d0", "name": "2742a715dd7169200b18134bca02e3d0"}, {"lon": -77.017577, "is_disabled": 0, "lat": 38.87709066666667, "fusion_lat": 0.0, "is_reserved": 0, "rental_uris": {"ios": "https://dc.lft.to/lastmile_qr_scan", "android": "https://dc.lft.to/lastmile_qr_scan"}, "fusion_lon": 0.0, "type": "electric_scooter", "bike_id": "8b2d3648f2c7d5a4533a01a0c05faed2", "name": "8b2d3648f2c7d5a4533a01a0c05faed2"}, {"lon": -77.04393316666666, "is_disabled": 0, "lat": 38.922245, "fusion_lat": 0.0, "is_reserved": 0, "rental_uris": {"ios": "https://dc.lft.to/lastmile_qr_scan", "android": "https://dc.lft.to/lastmile_qr_scan"}, "fusion_lon": 0.0, "type": "electric_scooter", "bike_id": "2d836bcccf1b4c388f9b01a15ef17734", "name": "2d836bcccf1b4c388f9b01a15ef17734"}, {"lon": -77.003127, "is_disabled": 0, "lat": 38.877243166666666, "fusion_lat": 0.0, "is_reserved": 0, "rental_uris": {"ios": "https://dc.lft.to/lastmile_qr_scan", "android": "https://dc.lft.to/lastmile_qr_scan"}, "fusion_lon": 0.0, "type": "electric_scooter", "bike_id": "f97a09864eea48520799c747ddd6da5e", "name": "f97a09864eea48520799c747ddd6da5e"}, {"lon": -77.01967966666666, "is_disabled": 0, "lat": 38.89330616666667, "fusion_lat": 0.0, "is_reserved": 0, "rental_uris": {"ios": "https://dc.lft.to/lastmile_qr_scan", "android": "https://dc.lft.to/lastmile_qr_scan"}, "fusion_lon": 0.0, "type": "electric_scooter", "bike_id": "242b78843e88bd9ddab83ab83bfc0a2c", "name": "242b78843e88bd9ddab83ab83bfc0a2c"}, {"lon": -77.02211933333334, "is_disabled": 0, "lat": 38.912697, "fusion_lat": 0.0, "is_reserved": 0, "rental_uris": {"ios": "https://dc.lft.to/lastmile_qr_scan", "android": "https://dc.lft.to/lastmile_qr_scan"}, "fusion_lon": 0.0, "type": "electric_scooter", "bike_id": "d6f44ccfa9f56d507cb9dbd5b9b1f7eb", "name": "d6f44ccfa9f56d507cb9dbd5b9b1f7eb"}, {"lon": -77.050872, "is_disabled": 0, "lat": 38.923414333333334, "fusion_lat": 0.0, "is_reserved": 0, "rental_uris": {"ios": "https://dc.lft.to/lastmile_qr_scan", "android": "https://dc.lft.to/lastmile_qr_scan"}, "fusion_lon": 0.0, "type": "electric_scooter", "bike_id": "39893d850270a4ef50ff8df0be96e1db", "name": "39893d850270a4ef50ff8df0be96e1db"}, {"lon": -77.00337716666667, "is_disabled": 0, "lat": 38.895283666666664, "fusion_lat": 0.0, "is_reserved": 0, "rental_uris": {"ios": "https://dc.lft.to/lastmile_qr_scan", "android": "https://dc.lft.to/lastmile_qr_scan"}, "fusion_lon": 0.0, "type": "electric_scooter", "bike_id": "d9b0e14c8972195c2018a614872f12ce", "name": "d9b0e14c8972195c2018a614872f12ce"}, {"lon": -77.04343166666666, "is_disabled": 0, "lat": 38.8738755, "fusion_lat": 0.0, "is_reserved": 0, "rental_uris": {"ios": "https://dc.lft.to/lastmile_qr_scan", "android": "https://dc.lft.to/lastmile_qr_scan"}, "fusion_lon": 0.0, "type": "electric_scooter", "bike_id": "2066787a7bd06adde2a17341d6beaa8a", "name": "2066787a7bd06adde2a17341d6beaa8a"}, {"lon": -77.054935, "is_disabled": 0, "lat": 39.01480683333333, "fusion_lat": 0.0, "is_reserved": 0, "rental_uris": {"ios": "https://dc.lft.to/lastmile_qr_scan", "android": "https://dc.lft.to/lastmile_qr_scan"}, "fusion_lon": 0.0, "type": "electric_bike", "bike_id": "42676fe587338b478c5b41cc6e8f2093", "name": "42676fe587338b478c5b41cc6e8f2093"}, {"lon": -77.02567066666667, "is_disabled": 0, "lat": 38.887451666666664, "fusion_lat": 0.0, "is_reserved": 0, "rental_uris": {"ios": "https://dc.lft.to/lastmile_qr_scan", "android": "https://dc.lft.to/lastmile_qr_scan"}, "fusion_lon": 0.0, "type": "electric_scooter", "bike_id": "6e1a827c2c84bada33dae2d36a247421", "name": "6e1a827c2c84bada33dae2d36a247421"}, {"lon": -77.035897, "is_disabled": 0, "lat": 38.91118683333333, "fusion_lat": 0.0, "is_reserved": 0, "rental_uris": {"ios": "https://dc.lft.to/lastmile_qr_scan", "android": "https://dc.lft.to/lastmile_qr_scan"}, "fusion_lon": 0.0, "type": "electric_scooter", "bike_id": "c023e9695289ecb57aa65729c8d2d6f1", "name": "c023e9695289ecb57aa65729c8d2d6f1"}, {"lon": -77.03731216666667, "is_disabled": 0, "lat": 38.9265785, "fusion_lat": 0.0, "is_reserved": 0, "rental_uris": {"ios": "https://dc.lft.to/lastmile_qr_scan", "android": "https://dc.lft.to/lastmile_qr_scan"}, "fusion_lon": 0.0, "type": "electric_scooter", "bike_id": "4c5d8e0e1a2e94e1a9c6dc802be8f0c9", "name": "4c5d8e0e1a2e94e1a9c6dc802be8f0c9"}, {"lon": -77.04561916666667, "is_disabled": 0, "lat": 38.914820166666665, "fusion_lat": 0.0, "is_reserved": 0, "rental_uris": {"ios": "https://dc.lft.to/lastmile_qr_scan", "android": "https://dc.lft.to/lastmile_qr_scan"}, "fusion_lon": 0.0, "type": "electric_scooter", "bike_id": "f393dc9d36d8693867b4b5dbbb4a5dd3", "name": "f393dc9d36d8693867b4b5dbbb4a5dd3"}, {"lon": -76.98351816666667, "is_disabled": 0, "lat": 38.86261283333333, "fusion_lat": 0.0, "is_reserved": 0, "rental_uris": {"ios": "https://dc.lft.to/lastmile_qr_scan", "android": "https://dc.lft.to/lastmile_qr_scan"}, "fusion_lon": 0.0, "type": "electric_bike", "bike_id": "c17623c6b383d05e8b9a4620ff861421", "name": "c17623c6b383d05e8b9a4620ff861421"}, {"lon": -77.027451, "is_disabled": 0, "lat": 38.91717466666667, "fusion_lat": 0.0, "is_reserved": 0, "rental_uris": {"ios": "https://dc.lft.to/lastmile_qr_scan", "android": "https://dc.lft.to/lastmile_qr_scan"}, "fusion_lon": 0.0, "type": "electric_scooter", "bike_id": "3c8667613d98d2c1b7a9d5fc9b469400", "name": "3c8667613d98d2c1b7a9d5fc9b469400"}, {"lon": -77.02491333333333, "is_disabled": 0, "lat": 38.957822, "fusion_lat": 0.0, "is_reserved": 0, "rental_uris": {"ios": "https://dc.lft.to/lastmile_qr_scan", "android": "https://dc.lft.to/lastmile_qr_scan"}, "fusion_lon": 0.0, "type": "electric_scooter", "bike_id": "08ff39e08bc7957e28edbe05d19fa6be", "name": "08ff39e08bc7957e28edbe05d19fa6be"}, {"lon": -77.021638, "is_disabled": 0, "lat": 38.915569833333336, "fusion_lat": 0.0, "is_reserved": 0, "rental_uris": {"ios": "https://dc.lft.to/lastmile_qr_scan", "android": "https://dc.lft.to/lastmile_qr_scan"}, "fusion_lon": 0.0, "type": "electric_scooter", "bike_id": "488046dfeb26fb5338ec62d153e5c03c", "name": "488046dfeb26fb5338ec62d153e5c03c"}, {"lon": -76.9463785, "is_disabled": 0, "lat": 38.898667, "fusion_lat": 0.0, "is_reserved": 0, "rental_uris": {"ios": "https://dc.lft.to/lastmile_qr_scan", "android": "https://dc.lft.to/lastmile_qr_scan"}, "fusion_lon": 0.0, "type": "electric_scooter", "bike_id": "34e013c8834e3f3ad1e29b2a48afe79a", "name": "34e013c8834e3f3ad1e29b2a48afe79a"}, {"lon": -77.05132966666666, "is_disabled": 0, "lat": 38.905197, "fusion_lat": 0.0, "is_reserved": 0, "rental_uris": {"ios": "https://dc.lft.to/lastmile_qr_scan", "android": "https://dc.lft.to/lastmile_qr_scan"}, "fusion_lon": 0.0, "type": "electric_scooter", "bike_id": "43a9a343d669a48d5beca806b89196fc", "name": "43a9a343d669a48d5beca806b89196fc"}, {"lon": -76.98566466666666, "is_disabled": 0, "lat": 38.899966166666665, "fusion_lat": 0.0, "is_reserved": 0, "rental_uris": {"ios": "https://dc.lft.to/lastmile_qr_scan", "android": "https://dc.lft.to/lastmile_qr_scan"}, "fusion_lon": 0.0, "type": "electric_scooter", "bike_id": "404714ab7972e7e0234cc40098c94572", "name": "404714ab7972e7e0234cc40098c94572"}, {"lon": -77.02388866666666, "is_disabled": 0, "lat": 38.91273666666667, "fusion_lat": 0.0, "is_reserved": 0, "rental_uris": {"ios": "https://dc.lft.to/lastmile_qr_scan", "android": "https://dc.lft.to/lastmile_qr_scan"}, "fusion_lon": 0.0, "type": "electric_scooter", "bike_id": "08e382f00bfcaaeec17cf636962d03ad", "name": "08e382f00bfcaaeec17cf636962d03ad"}, {"lon": -77.022718, "is_disabled": 0, "lat": 38.9273035, "fusion_lat": 0.0, "is_reserved": 0, "rental_uris": {"ios": "https://dc.lft.to/lastmile_qr_scan", "android": "https://dc.lft.to/lastmile_qr_scan"}, "fusion_lon": 0.0, "type": "electric_scooter", "bike_id": "28a3842ee285b437d3fa6c783572e0ed", "name": "28a3842ee285b437d3fa6c783572e0ed"}, {"lon": -77.0400615, "is_disabled": 0, "lat": 38.907646666666665, "fusion_lat": 0.0, "is_reserved": 0, "rental_uris": {"ios": "https://dc.lft.to/lastmile_qr_scan", "android": "https://dc.lft.to/lastmile_qr_scan"}, "fusion_lon": 0.0, "type": "electric_scooter", "bike_id": "a601c299342e91c79127e24d4f618db5", "name": "a601c299342e91c79127e24d4f618db5"}, {"lon": -77.001342, "is_disabled": 0, "lat": 38.90510283333333, "fusion_lat": 0.0, "is_reserved": 0, "rental_uris": {"ios": "https://dc.lft.to/lastmile_qr_scan", "android": "https://dc.lft.to/lastmile_qr_scan"}, "fusion_lon": 0.0, "type": "electric_scooter", "bike_id": "71373f081e3f4659b27500aeda445ac8", "name": "71373f081e3f4659b27500aeda445ac8"}, {"lon": -76.95625033333333, "is_disabled": 0, "lat": 38.88514716666667, "fusion_lat": 0.0, "is_reserved": 0, "rental_uris": {"ios": "https://dc.lft.to/lastmile_qr_scan", "android": "https://dc.lft.to/lastmile_qr_scan"}, "fusion_lon": 0.0, "type": "electric_bike", "bike_id": "b2f4d7a6247081d73f968172bcc818c0", "name": "b2f4d7a6247081d73f968172bcc818c0"}, {"lon": -77.03847616666667, "is_disabled": 0, "lat": 38.909743, "fusion_lat": 0.0, "is_reserved": 0, "rental_uris": {"ios": "https://dc.lft.to/lastmile_qr_scan", "android": "https://dc.lft.to/lastmile_qr_scan"}, "fusion_lon": 0.0, "type": "electric_scooter", "bike_id": "507a9cfb4eff036e4dbe1737ac86728e", "name": "507a9cfb4eff036e4dbe1737ac86728e"}, {"lon": -77.02482883333333, "is_disabled": 0, "lat": 38.902502, "fusion_lat": 0.0, "is_reserved": 0, "rental_uris": {"ios": "https://dc.lft.to/lastmile_qr_scan", "android": "https://dc.lft.to/lastmile_qr_scan"}, "fusion_lon": 0.0, "type": "electric_scooter", "bike_id": "c6512398e6f60962e8dc0df10904bb56", "name": "c6512398e6f60962e8dc0df10904bb56"}, {"lon": -77.02299566666667, "is_disabled": 0, "lat": 38.9205935, "fusion_lat": 0.0, "is_reserved": 0, "rental_uris": {"ios": "https://dc.lft.to/lastmile_qr_scan", "android": "https://dc.lft.to/lastmile_qr_scan"}, "fusion_lon": 0.0, "type": "electric_scooter", "bike_id": "84a6db95a06d09a65295222ba66792ee", "name": "84a6db95a06d09a65295222ba66792ee"}, {"lon": -77.016571, "is_disabled": 0, "lat": 38.881190833333335, "fusion_lat": 0.0, "is_reserved": 0, "rental_uris": {"ios": "https://dc.lft.to/lastmile_qr_scan", "android": "https://dc.lft.to/lastmile_qr_scan"}, "fusion_lon": 0.0, "type": "electric_scooter", "bike_id": "96c6c4cadae27d0a29841a8df114b334", "name": "96c6c4cadae27d0a29841a8df114b334"}, {"lon": -76.9800045, "is_disabled": 0, "lat": 38.90678183333333, "fusion_lat": 0.0, "is_reserved": 0, "rental_uris": {"ios": "https://dc.lft.to/lastmile_qr_scan", "android": "https://dc.lft.to/lastmile_qr_scan"}, "fusion_lon": 0.0, "type": "electric_scooter", "bike_id": "83b8d1c9471aab2d0f5c55345ae5d6d7", "name": "83b8d1c9471aab2d0f5c55345ae5d6d7"}, {"lon": -77.03825683333334, "is_disabled": 0, "lat": 38.91255783333333, "fusion_lat": 0.0, "is_reserved": 0, "rental_uris": {"ios": "https://dc.lft.to/lastmile_qr_scan", "android": "https://dc.lft.to/lastmile_qr_scan"}, "fusion_lon": 0.0, "type": "electric_scooter", "bike_id": "3f35525ce57358692aa4460a498cefb4", "name": "3f35525ce57358692aa4460a498cefb4"}, {"lon": -77.02697116666667, "is_disabled": 0, "lat": 38.9257115, "fusion_lat": 0.0, "is_reserved": 0, "rental_uris": {"ios": "https://dc.lft.to/lastmile_qr_scan", "android": "https://dc.lft.to/lastmile_qr_scan"}, "fusion_lon": 0.0, "type": "electric_scooter", "bike_id": "69b471f83fe9d81eb030336d0d1a4401", "name": "69b471f83fe9d81eb030336d0d1a4401"}, {"lon": -77.18121533333333, "is_disabled": 0, "lat": 38.93227683333333, "fusion_lat": 0.0, "is_reserved": 0, "rental_uris": {"ios": "https://dc.lft.to/lastmile_qr_scan", "android": "https://dc.lft.to/lastmile_qr_scan"}, "fusion_lon": 0.0, "type": "electric_bike", "bike_id": "f6169ff466767ec274597339a60d8142", "name": "f6169ff466767ec274597339a60d8142"}, {"lon": -77.038591, "is_disabled": 0, "lat": 38.91714183333333, "fusion_lat": 0.0, "is_reserved": 0, "rental_uris": {"ios": "https://dc.lft.to/lastmile_qr_scan", "android": "https://dc.lft.to/lastmile_qr_scan"}, "fusion_lon": 0.0, "type": "electric_scooter", "bike_id": "402c25a7ce9e47c2778149d6caadf36d", "name": "402c25a7ce9e47c2778149d6caadf36d"}, {"lon": -77.03858866666667, "is_disabled": 0, "lat": 38.9071665, "fusion_lat": 0.0, "is_reserved": 0, "rental_uris": {"ios": "https://dc.lft.to/lastmile_qr_scan", "android": "https://dc.lft.to/lastmile_qr_scan"}, "fusion_lon": 0.0, "type": "electric_scooter", "bike_id": "db83de8b5d16bd0b6ab37c10a0f38f79", "name": "db83de8b5d16bd0b6ab37c10a0f38f79"}, {"lon": -77.00120266666667, "is_disabled": 0, "lat": 38.8737785, "fusion_lat": 0.0, "is_reserved": 0, "rental_uris": {"ios": "https://dc.lft.to/lastmile_qr_scan", "android": "https://dc.lft.to/lastmile_qr_scan"}, "fusion_lon": 0.0, "type": "electric_scooter", "bike_id": "1f90310dfa6a2cba69e785ee175aa339", "name": "1f90310dfa6a2cba69e785ee175aa339"}, {"lon": -77.02769683333334, "is_disabled": 0, "lat": 38.928686666666664, "fusion_lat": 0.0, "is_reserved": 0, "rental_uris": {"ios": "https://dc.lft.to/lastmile_qr_scan", "android": "https://dc.lft.to/lastmile_qr_scan"}, "fusion_lon": 0.0, "type": "electric_scooter", "bike_id": "8e34f000a7b43ed870eaf15de7a3cfcb", "name": "8e34f000a7b43ed870eaf15de7a3cfcb"}, {"lon": -77.03433966666667, "is_disabled": 0, "lat": 38.9097635, "fusion_lat": 0.0, "is_reserved": 0, "rental_uris": {"ios": "https://dc.lft.to/lastmile_qr_scan", "android": "https://dc.lft.to/lastmile_qr_scan"}, "fusion_lon": 0.0, "type": "electric_scooter", "bike_id": "f44787b399548a1ad70c107aecd524c4", "name": "f44787b399548a1ad70c107aecd524c4"}, {"lon": -77.04997, "is_disabled": 0, "lat": 38.8922915, "fusion_lat": 0.0, "is_reserved": 0, "rental_uris": {"ios": "https://dc.lft.to/lastmile_qr_scan", "android": "https://dc.lft.to/lastmile_qr_scan"}, "fusion_lon": 0.0, "type": "electric_scooter", "bike_id": "febda3bf889b2a383abfa7df1ce1864a", "name": "febda3bf889b2a383abfa7df1ce1864a"}, {"lon": -77.01211066666667, "is_disabled": 0, "lat": 38.87474666666667, "fusion_lat": 0.0, "is_reserved": 0, "rental_uris": {"ios": "https://dc.lft.to/lastmile_qr_scan", "android": "https://dc.lft.to/lastmile_qr_scan"}, "fusion_lon": 0.0, "type": "electric_scooter", "bike_id": "0fae7ea54eacece703ca5809942b3b53", "name": "0fae7ea54eacece703ca5809942b3b53"}, {"lon": -77.02196216666667, "is_disabled": 0, "lat": 38.9112255, "fusion_lat": 0.0, "is_reserved": 0, "rental_uris": {"ios": "https://dc.lft.to/lastmile_qr_scan", "android": "https://dc.lft.to/lastmile_qr_scan"},