{"data": {"bikes": [{"is_disabled": 0, "is_reserved": 0, "fusion_lat": 0.0, "lat": 38.93067383333333, "fusion_lon": 0.0, "rental_uris": {"ios": "https://dc.lft.to/lastmile_qr_scan", "android": "https://dc.lft.to/lastmile_qr_scan"}, "lon": -77.0321105, "bike_id": "41e1c0d4745a82cb2640168a8c38f5dd", "type": "electric_scooter", "name": "41e1c0d4745a82cb2640168a8c38f5dd"}, {"is_disabled": 0, "is_reserved": 0, "fusion_lat": 0.0, "lat": 38.921644666666666, "fusion_lon": 0.0, "rental_uris": {"ios": "https://dc.lft.to/lastmile_qr_scan", "android": "https://dc.lft.to/lastmile_qr_scan"}, "lon": -77.036638, "bike_id": "01ecb5ec490da180c5b7a86252ec6286", "type": "electric_scooter", "name": "01ecb5ec490da180c5b7a86252ec6286"}, {"is_disabled": 0, "is_reserved": 0, "fusion_lat": 0.0, "lat": 38.899225333333334, "fusion_lon": 0.0, "rental_uris": {"ios": "https://dc.lft.to/lastmile_qr_scan", "android": "https://dc.lft.to/lastmile_qr_scan"}, "lon": -77.0036985, "bike_id": "ff7261991c0589b9f99bf06792f2778f", "type": "electric_scooter", "name": "ff7261991c0589b9f99bf06792f2778f"}, {"is_disabled": 0, "is_reserved": 0, "fusion_lat": 0.0, "lat": 38.91699083333334, "fusion_lon": 0.0, "rental_uris": {"ios": "https://dc.lft.to/lastmile_qr_scan", "android": "https://dc.lft.to/lastmile_qr_scan"}, "lon": -77.03498966666666, "bike_id": "8178ce167275882cd81c5b2cf1b67a11", "type": "electric_scooter", "name": "8178ce167275882cd81c5b2cf1b67a11"}, {"is_disabled": 0, "is_reserved": 0, "fusion_lat": 0.0, "lat": 38.91111683333333, "fusion_lon": 0.0, "rental_uris": {"ios": "https://dc.lft.to/lastmile_qr_scan", "android": "https://dc.lft.to/lastmile_qr_scan"}, "lon": -77.04335066666667, "bike_id": "58c5e61faa100d7bbfa0cbf0f11b8199", "type": "electric_scooter", "name": "58c5e61faa100d7bbfa0cbf0f11b8199"}, {"is_disabled": 0, "is_reserved": 0, "fusion_lat": 0.0, "lat": 38.90543016666667, "fusion_lon": 0.0, "rental_uris": {"ios": "https://dc.lft.to/lastmile_qr_scan", "android": "https://dc.lft.to/lastmile_qr_scan"}, "lon": -77.021947, "bike_id": "a9e0d93ea22bb45676885d17812806ed", "type": "electric_scooter", "name": "a9e0d93ea22bb45676885d17812806ed"}, {"is_disabled": 0, "is_reserved": 0, "fusion_lat": 0.0, "lat": 38.893794666666665, "fusion_lon": 0.0, "rental_uris": {"ios": "https://dc.lft.to/lastmile_qr_scan", "android": "https://dc.lft.to/lastmile_qr_scan"}, "lon": -76.92306983333333, "bike_id": "68b301bd158214e5367eab5dc98060c5", "type": "electric_scooter", "name": "68b301bd158214e5367eab5dc98060c5"}, {"is_disabled": 0, "is_reserved": 0, "fusion_lat": 0.0, "lat": 38.91550016666667, "fusion_lon": 0.0, "rental_uris": {"ios": "https://dc.lft.to/lastmile_qr_scan", "android": "https://dc.lft.to/lastmile_qr_scan"}, "lon": -77.05409233333333, "bike_id": "5de14883f8d132edbb64032849560228", "type": "electric_scooter", "name": "5de14883f8d132edbb64032849560228"}, {"is_disabled": 0, "is_reserved": 0, "fusion_lat": 0.0, "lat": 38.92737283333334, "fusion_lon": 0.0, "rental_uris": {"ios": "https://dc.lft.to/lastmile_qr_scan", "android": "https://dc.lft.to/lastmile_qr_scan"}, "lon": -77.02280583333334, "bike_id": "0f3d1b94a0e8e998057772f5fe2a92ad", "type": "electric_scooter", "name": "0f3d1b94a0e8e998057772f5fe2a92ad"}, {"is_disabled": 0, "is_reserved": 0, "fusion_lat": 0.0, "lat": 38.9166415, "fusion_lon": 0.0, "rental_uris": {"ios": "https://dc.lft.to/lastmile_qr_scan", "android": "https://dc.lft.to/lastmile_qr_scan"}, "lon": -77.03202866666666, "bike_id": "8e154751f485e48471b843d3fb917110", "type": "electric_scooter", "name": "8e154751f485e48471b843d3fb917110"}, {"is_disabled": 0, "is_reserved": 0, "fusion_lat": 0.0, "lat": 38.90964616666667, "fusion_lon": 0.0, "rental_uris": {"ios": "https://dc.lft.to/lastmile_qr_scan", "android": "https://dc.lft.to/lastmile_qr_scan"}, "lon": -77.0342325, "bike_id": "cf64e7e967cda04e783db3389d5cac2b", "type": "electric_scooter", "name": "cf64e7e967cda04e783db3389d5cac2b"}, {"is_disabled": 0, "is_reserved": 0, "fusion_lat": 0.0, "lat": 38.918166666666664, "fusion_lon": 0.0, "rental_uris": {"ios": "https://dc.lft.to/lastmile_qr_scan", "android": "https://dc.lft.to/lastmile_qr_scan"}, "lon": -77.02529, "bike_id": "2c8c299d8c2fda73ca13e3b6e5b402b6", "type": "electric_scooter", "name": "2c8c299d8c2fda73ca13e3b6e5b402b6"}, {"is_disabled": 0, "is_reserved": 0, "fusion_lat": 0.0, "lat": 38.90262383333334, "fusion_lon": 0.0, "rental_uris": {"ios": "https://dc.lft.to/lastmile_qr_scan", "android": "https://dc.lft.to/lastmile_qr_scan"}, "lon": -77.00329033333334, "bike_id": "0b699ceeb58dcd03b2465c0d86e0fad8", "type": "electric_scooter", "name": "0b699ceeb58dcd03b2465c0d86e0fad8"}, {"is_disabled": 0, "is_reserved": 0, "fusion_lat": 0.0, "lat": 38.9120695, "fusion_lon": 0.0, "rental_uris": {"ios": "https://dc.lft.to/lastmile_qr_scan", "android": "https://dc.lft.to/lastmile_qr_scan"}, "lon": -77.0210685, "bike_id": "48a76937aa623009dc16077077abadb5", "type": "electric_scooter", "name": "48a76937aa623009dc16077077abadb5"}, {"is_disabled": 0, "is_reserved": 0, "fusion_lat": 0.0, "lat": 38.884412, "fusion_lon": 0.0, "rental_uris": {"ios": "https://dc.lft.to/lastmile_qr_scan", "android": "https://dc.lft.to/lastmile_qr_scan"}, "lon": -77.02924783333333, "bike_id": "e8ec0c64a56c313223a61d1e7dfdb8c2", "type": "electric_scooter", "name": "e8ec0c64a56c313223a61d1e7dfdb8c2"}, {"is_disabled": 0, "is_reserved": 0, "fusion_lat": 0.0, "lat": 38.9208895, "fusion_lon": 0.0, "rental_uris": {"ios": "https://dc.lft.to/lastmile_qr_scan", "android": "https://dc.lft.to/lastmile_qr_scan"}, "lon": -77.0176315, "bike_id": "ca67f27fe018a45a91be490e0ee43889", "type": "electric_scooter", "name": "ca67f27fe018a45a91be490e0ee43889"}, {"is_disabled": 0, "is_reserved": 0, "fusion_lat": 0.0, "lat": 38.87093933333333, "fusion_lon": 0.0, "rental_uris": {"ios": "https://dc.lft.to/lastmile_qr_scan", "android": "https://dc.lft.to/lastmile_qr_scan"}, "lon": -77.01210516666667, "bike_id": "7371ede2f2fef836235a46c1d3a39abe", "type": "electric_scooter", "name": "7371ede2f2fef836235a46c1d3a39abe"}, {"is_disabled": 0, "is_reserved": 0, "fusion_lat": 0.0, "lat": 38.9109795, "fusion_lon": 0.0, "rental_uris": {"ios": "https://dc.lft.to/lastmile_qr_scan", "android": "https://dc.lft.to/lastmile_qr_scan"}, "lon": -77.0223225, "bike_id": "893582d11a20e21c3f7570075b11b693", "type": "electric_scooter", "name": "893582d11a20e21c3f7570075b11b693"}, {"is_disabled": 0, "is_reserved": 0, "fusion_lat": 0.0, "lat": 38.91037883333333, "fusion_lon": 0.0, "rental_uris": {"ios": "https://dc.lft.to/lastmile_qr_scan", "android": "https://dc.lft.to/lastmile_qr_scan"}, "lon": -76.93837483333333, "bike_id": "9c1c02e1d31b19bae3261a4ff8c3306e", "type": "electric_scooter", "name": "9c1c02e1d31b19bae3261a4ff8c3306e"}, {"is_disabled": 0, "is_reserved": 0, "fusion_lat": 0.0, "lat": 38.89928116666667, "fusion_lon": 0.0, "rental_uris": {"ios": "https://dc.lft.to/lastmile_qr_scan", "android": "https://dc.lft.to/lastmile_qr_scan"}, "lon": -76.937587, "bike_id": "cc97d899e1f8699aff4bc512385d1b58", "type": "electric_scooter", "name": "cc97d899e1f8699aff4bc512385d1b58"}, {"is_disabled": 0, "is_reserved": 0, "fusion_lat": 0.0, "lat": 38.902726666666666, "fusion_lon": 0.0, "rental_uris": {"ios": "https://dc.lft.to/lastmile_qr_scan", "android": "https://dc.lft.to/lastmile_qr_scan"}, "lon": -77.024243, "bike_id": "6b07a6a4aeecb04c2e58230118a3810a", "type": "electric_scooter", "name": "6b07a6a4aeecb04c2e58230118a3810a"}, {"is_disabled": 0, "is_reserved": 0, "fusion_lat": 0.0, "lat": 38.896353833333336, "fusion_lon": 0.0, "rental_uris": {"ios": "https://dc.lft.to/lastmile_qr_scan", "android": "https://dc.lft.to/lastmile_qr_scan"}, "lon": -76.929656, "bike_id": "dd46a117dffd0a42ec523dbfbe77f6c0", "type": "electric_scooter", "name": "dd46a117dffd0a42ec523dbfbe77f6c0"}, {"is_disabled": 0, "is_reserved": 0, "fusion_lat": 0.0, "lat": 38.90183316666667, "fusion_lon": 0.0, "rental_uris": {"ios": "https://dc.lft.to/lastmile_qr_scan", "android": "https://dc.lft.to/lastmile_qr_scan"}, "lon": -76.97675433333333, "bike_id": "9d1fcc3b81507d4827332340c28773b3", "type": "electric_scooter", "name": "9d1fcc3b81507d4827332340c28773b3"}, {"is_disabled": 0, "is_reserved": 0, "fusion_lat": 0.0, "lat": 38.890142, "fusion_lon": 0.0, "rental_uris": {"ios": "https://dc.lft.to/lastmile_qr_scan", "android": "https://dc.lft.to/lastmile_qr_scan"}, "lon": -76.93733816666666, "bike_id": "a89280f65ce488621238df7338b18a52", "type": "electric_scooter", "name": "a89280f65ce488621238df7338b18a52"}, {"is_disabled": 0, "is_reserved": 0, "fusion_lat": 0.0, "lat": 38.95589416666667, "fusion_lon": 0.0, "rental_uris": {"ios": "https://dc.lft.to/lastmile_qr_scan", "android": "https://dc.lft.to/lastmile_qr_scan"}, "lon": -77.01001716666667, "bike_id": "91ea1800f872219c1f18a8b553e26b47", "type": "electric_bike", "name": "91ea1800f872219c1f18a8b553e26b47"}, {"is_disabled": 0, "is_reserved": 0, "fusion_lat": 0.0, "lat": 38.93101933333333, "fusion_lon": 0.0, "rental_uris": {"ios": "https://dc.lft.to/lastmile_qr_scan", "android": "https://dc.lft.to/lastmile_qr_scan"}, "lon": -77.024802, "bike_id": "a3c94286dfa518ecee0fc186ac7f22a7", "type": "electric_scooter", "name": "a3c94286dfa518ecee0fc186ac7f22a7"}, {"is_disabled": 0, "is_reserved": 0, "fusion_lat": 0.0, "lat": 38.880084833333335, "fusion_lon": 0.0, "rental_uris": {"ios": "https://dc.lft.to/lastmile_qr_scan", "android": "https://dc.lft.to/lastmile_qr_scan"}, "lon": -76.99835716666666, "bike_id": "71c6b0549abe84e24ef67ef973c40121", "type": "electric_scooter", "name": "71c6b0549abe84e24ef67ef973c40121"}, {"is_disabled": 0, "is_reserved": 0, "fusion_lat": 0.0, "lat": 38.92336616666667, "fusion_lon": 0.0, "rental_uris": {"ios": "https://dc.lft.to/lastmile_qr_scan", "android": "https://dc.lft.to/lastmile_qr_scan"}, "lon": -76.99874916666667, "bike_id": "ff4c3c955a1adc37a1602ae81294f79b", "type": "electric_scooter", "name": "ff4c3c955a1adc37a1602ae81294f79b"}, {"is_disabled": 0, "is_reserved": 0, "fusion_lat": 0.0, "lat": 38.922217333333336, "fusion_lon": 0.0, "rental_uris": {"ios": "https://dc.lft.to/lastmile_qr_scan", "android": "https://dc.lft.to/lastmile_qr_scan"}, "lon": -77.01874716666667, "bike_id": "56373b8460b57fdc53c90ee3066152cf", "type": "electric_scooter", "name": "56373b8460b57fdc53c90ee3066152cf"}, {"is_disabled": 0, "is_reserved": 0, "fusion_lat": 0.0, "lat": 38.90771133333333, "fusion_lon": 0.0, "rental_uris": {"ios": "https://dc.lft.to/lastmile_qr_scan", "android": "https://dc.lft.to/lastmile_qr_scan"}, "lon": -77.056745, "bike_id": "77b6b14919d67c71dd02a92dd8ea4a2f", "type": "electric_bike", "name": "77b6b14919d67c71dd02a92dd8ea4a2f"}, {"is_disabled": 0, "is_reserved": 0, "fusion_lat": 0.0, "lat": 38.908282666666665, "fusion_lon": 0.0, "rental_uris": {"ios": "https://dc.lft.to/lastmile_qr_scan", "android": "https://dc.lft.to/lastmile_qr_scan"}, "lon": -76.99679016666667, "bike_id": "ece68abaf3ce7733937dfc586a77a3ee", "type": "electric_scooter", "name": "ece68abaf3ce7733937dfc586a77a3ee"}, {"is_disabled": 0, "is_reserved": 0, "fusion_lat": 0.0, "lat": 38.892319666666666, "fusion_lon": 0.0, "rental_uris": {"ios": "https://dc.lft.to/lastmile_qr_scan", "android": "https://dc.lft.to/lastmile_qr_scan"}, "lon": -77.02384266666667, "bike_id": "1b30c44bcc0e57c219ca5216aa21e500", "type": "electric_scooter", "name": "1b30c44bcc0e57c219ca5216aa21e500"}, {"is_disabled": 0, "is_reserved": 0, "fusion_lat": 0.0, "lat": 38.855130833333334, "fusion_lon": 0.0, "rental_uris": {"ios": "https://dc.lft.to/lastmile_qr_scan", "android": "https://dc.lft.to/lastmile_qr_scan"}, "lon": -77.12057233333333, "bike_id": "6ed404f5cabb426e6fa919de1e694abf", "type": "electric_bike", "name": "6ed404f5cabb426e6fa919de1e694abf"}, {"is_disabled": 0, "is_reserved": 0, "fusion_lat": 0.0, "lat": 38.87469266666667, "fusion_lon": 0.0, "rental_uris": {"ios": "https://dc.lft.to/lastmile_qr_scan", "android": "https://dc.lft.to/lastmile_qr_scan"}, "lon": -77.0051955, "bike_id": "530ac72bc90854a0bf8aea811ee1f6fe", "type": "electric_scooter", "name": "530ac72bc90854a0bf8aea811ee1f6fe"}, {"is_disabled": 0, "is_reserved": 0, "fusion_lat": 0.0, "lat": 38.87580066666666, "fusion_lon": 0.0, "rental_uris": {"ios": "https://dc.lft.to/lastmile_qr_scan", "android": "https://dc.lft.to/lastmile_qr_scan"}, "lon": -77.23412683333333, "bike_id": "d9c7c016067a98b3ebfbc75429a06a87", "type": "electric_bike", "name": "d9c7c016067a98b3ebfbc75429a06a87"}, {"is_disabled": 0, "is_reserved": 0, "fusion_lat": 0.0, "lat": 38.912247, "fusion_lon": 0.0, "rental_uris": {"ios": "https://dc.lft.to/lastmile_qr_scan", "android": "https://dc.lft.to/lastmile_qr_scan"}, "lon": -77.0379035, "bike_id": "79c845e2be6f78cb7ce9355b39228e26", "type": "electric_scooter", "name": "79c845e2be6f78cb7ce9355b39228e26"}, {"is_disabled": 0, "is_reserved": 0, "fusion_lat": 0.0, "lat": 38.8706955, "fusion_lon": 0.0, "rental_uris": {"ios": "https://dc.lft.to/lastmile_qr_scan", "android": "https://dc.lft.to/lastmile_qr_scan"}, "lon": -76.98130466666667, "bike_id": "db62b631483715a19d1ce5117ba84efd", "type": "electric_scooter", "name": "db62b631483715a19d1ce5117ba84efd"}, {"is_disabled": 0, "is_reserved": 0, "fusion_lat": 0.0, "lat": 38.914425666666666, "fusion_lon": 0.0, "rental_uris": {"ios": "https://dc.lft.to/lastmile_qr_scan", "android": "https://dc.lft.to/lastmile_qr_scan"}, "lon": -77.02289833333333, "bike_id": "b7b7b9dc74b71a7ed0b72e636f11e70c", "type": "electric_scooter", "name": "b7b7b9dc74b71a7ed0b72e636f11e70c"}, {"is_disabled": 0, "is_reserved": 0, "fusion_lat": 0.0, "lat": 38.92485633333333, "fusion_lon": 0.0, "rental_uris": {"ios": "https://dc.lft.to/lastmile_qr_scan", "android": "https://dc.lft.to/lastmile_qr_scan"}, "lon": -77.02703683333333, "bike_id": "2c2f4787733b43f1515b4c654b3957ab", "type": "electric_scooter", "name": "2c2f4787733b43f1515b4c654b3957ab"}, {"is_disabled": 0, "is_reserved": 0, "fusion_lat": 0.0, "lat": 38.91766116666667, "fusion_lon": 0.0, "rental_uris": {"ios": "https://dc.lft.to/lastmile_qr_scan", "android": "https://dc.lft.to/lastmile_qr_scan"}, "lon": -77.03199033333334, "bike_id": "a8d75f0598fef70a6a5725485f6fcec0", "type": "electric_scooter", "name": "a8d75f0598fef70a6a5725485f6fcec0"}, {"is_disabled": 0, "is_reserved": 0, "fusion_lat": 0.0, "lat": 38.88037883333333, "fusion_lon": 0.0, "rental_uris": {"ios": "https://dc.lft.to/lastmile_qr_scan", "android": "https://dc.lft.to/lastmile_qr_scan"}, "lon": -76.927274, "bike_id": "2e7bc06b81dc02d0879ab0a9295f4e2d", "type": "electric_scooter", "name": "2e7bc06b81dc02d0879ab0a9295f4e2d"}, {"is_disabled": 0, "is_reserved": 0, "fusion_lat": 0.0, "lat": 38.896142, "fusion_lon": 0.0, "rental_uris": {"ios": "https://dc.lft.to/lastmile_qr_scan", "android": "https://dc.lft.to/lastmile_qr_scan"}, "lon": -77.023142, "bike_id": "51b4cfc8788958c6e2d5df95868f6012", "type": "electric_scooter", "name": "51b4cfc8788958c6e2d5df95868f6012"}, {"is_disabled": 0, "is_reserved": 0, "fusion_lat": 0.0, "lat": 38.9182035, "fusion_lon": 0.0, "rental_uris": {"ios": "https://dc.lft.to/lastmile_qr_scan", "android": "https://dc.lft.to/lastmile_qr_scan"}, "lon": -77.02529783333334, "bike_id": "2c96034eacb793697f4a14734598fcce", "type": "electric_scooter", "name": "2c96034eacb793697f4a14734598fcce"}, {"is_disabled": 0, "is_reserved": 0, "fusion_lat": 0.0, "lat": 38.961532166666665, "fusion_lon": 0.0, "rental_uris": {"ios": "https://dc.lft.to/lastmile_qr_scan", "android": "https://dc.lft.to/lastmile_qr_scan"}, "lon": -77.02790233333333, "bike_id": "49aa6500b3c68dfcb8ec39ad9769358a", "type": "electric_scooter", "name": "49aa6500b3c68dfcb8ec39ad9769358a"}, {"is_disabled": 0, "is_reserved": 0, "fusion_lat": 0.0, "lat": 38.8559315, "fusion_lon": 0.0, "rental_uris": {"ios": "https://dc.lft.to/lastmile_qr_scan", "android": "https://dc.lft.to/lastmile_qr_scan"}, "lon": -76.97287516666667, "bike_id": "dcbf3e9b646e1e5abb6facc2d154beb4", "type": "electric_bike", "name": "dcbf3e9b646e1e5abb6facc2d154beb4"}, {"is_disabled": 0, "is_reserved": 0, "fusion_lat": 0.0, "lat": 38.941362833333336, "fusion_lon": 0.0, "rental_uris": {"ios": "https://dc.lft.to/lastmile_qr_scan", "android": "https://dc.lft.to/lastmile_qr_scan"}, "lon": -77.02325616666667, "bike_id": "bb086666a5a805db6cf1857dd7e11b62", "type": "electric_scooter", "name": "bb086666a5a805db6cf1857dd7e11b62"}, {"is_disabled": 0, "is_reserved": 0, "fusion_lat": 0.0, "lat": 38.804052, "fusion_lon": 0.0, "rental_uris": {"ios": "https://dc.lft.to/lastmile_qr_scan", "android": "https://dc.lft.to/lastmile_qr_scan"}, "lon": -77.113346, "bike_id": "38e9ed20fa3ea9b472bb53366ceeb6de", "type": "electric_bike", "name": "38e9ed20fa3ea9b472bb53366ceeb6de"}, {"is_disabled": 0, "is_reserved": 0, "fusion_lat": 0.0, "lat": 38.89373366666667, "fusion_lon": 0.0, "rental_uris": {"ios": "https://dc.lft.to/lastmile_qr_scan", "android": "https://dc.lft.to/lastmile_qr_scan"}, "lon": -77.0443735, "bike_id": "8c46e77c4395197a838dd12f32a56eeb", "type": "electric_scooter", "name": "8c46e77c4395197a838dd12f32a56eeb"}, {"is_disabled": 0, "is_reserved": 0, "fusion_lat": 0.0, "lat": 38.90380733333333, "fusion_lon": 0.0, "rental_uris": {"ios": "https://dc.lft.to/lastmile_qr_scan", "android": "https://dc.lft.to/lastmile_qr_scan"}, "lon": -77.0602875, "bike_id": "d252c2504cb0a1c93f906854a6924688", "type": "electric_scooter", "name": "d252c2504cb0a1c93f906854a6924688"}, {"is_disabled": 0, "is_reserved": 0, "fusion_lat": 0.0, "lat": 38.908015, "fusion_lon": 0.0, "rental_uris": {"ios": "https://dc.lft.to/lastmile_qr_scan", "android": "https://dc.lft.to/lastmile_qr_scan"}, "lon": -77.03839783333333, "bike_id": "71f8e94d9062c26abd7cb2f5f676fbb9", "type": "electric_scooter", "name": "71f8e94d9062c26abd7cb2f5f676fbb9"}, {"is_disabled": 0, "is_reserved": 0, "fusion_lat": 0.0, "lat": 39.074392833333334, "fusion_lon": 0.0, "rental_uris": {"ios": "https://dc.lft.to/lastmile_qr_scan", "android": "https://dc.lft.to/lastmile_qr_scan"}, "lon": -77.1153565, "bike_id": "eae5637d47544dabd4a598701e007893", "type": "electric_bike", "name": "eae5637d47544dabd4a598701e007893"}, {"is_disabled": 0, "is_reserved": 0, "fusion_lat": 0.0, "lat": 38.92701516666666, "fusion_lon": 0.0, "rental_uris": {"ios": "https://dc.lft.to/lastmile_qr_scan", "android": "https://dc.lft.to/lastmile_qr_scan"}, "lon": -76.960798, "bike_id": "6c066cbd00d54a92c76aafc2f0c49c62", "type": "electric_scooter", "name": "6c066cbd00d54a92c76aafc2f0c49c62"}, {"is_disabled": 0, "is_reserved": 0, "fusion_lat": 0.0, "lat": 38.87520283333333, "fusion_lon": 0.0, "rental_uris": {"ios": "https://dc.lft.to/lastmile_qr_scan", "android": "https://dc.lft.to/lastmile_qr_scan"}, "lon": -77.0123325, "bike_id": "ded33d45263a44405f311f74bfc847e1", "type": "electric_scooter", "name": "ded33d45263a44405f311f74bfc847e1"}, {"is_disabled": 0, "is_reserved": 0, "fusion_lat": 0.0, "lat": 39.00075566666667, "fusion_lon": 0.0, "rental_uris": {"ios": "https://dc.lft.to/lastmile_qr_scan", "android": "https://dc.lft.to/lastmile_qr_scan"}, "lon": -77.0064035, "bike_id": "705c0ea6470a1b489cf72b234620bc00", "type": "electric_bike", "name": "705c0ea6470a1b489cf72b234620bc00"}, {"is_disabled": 0, "is_reserved": 0, "fusion_lat": 0.0, "lat": 38.87670283333333, "fusion_lon": 0.0, "rental_uris": {"ios": "https://dc.lft.to/lastmile_qr_scan", "android": "https://dc.lft.to/lastmile_qr_scan"}, "lon": -77.000498, "bike_id": "394ad719aeb6c4e41d3a053cf86e4b61", "type": "electric_scooter", "name": "394ad719aeb6c4e41d3a053cf86e4b61"}, {"is_disabled": 0, "is_reserved": 0, "fusion_lat": 0.0, "lat": 38.939529, "fusion_lon": 0.0, "rental_uris": {"ios": "https://dc.lft.to/lastmile_qr_scan", "android": "https://dc.lft.to/lastmile_qr_scan"}, "lon": -77.0218675, "bike_id": "42766a3c07664b40272d3a471125f3d1", "type": "electric_scooter", "name": "42766a3c07664b40272d3a471125f3d1"}, {"is_disabled": 0, "is_reserved": 0, "fusion_lat": 0.0, "lat": 38.923422333333335, "fusion_lon": 0.0, "rental_uris": {"ios": "https://dc.lft.to/lastmile_qr_scan", "android": "https://dc.lft.to/lastmile_qr_scan"}, "lon": -77.03392266666667, "bike_id": "f0b4146732e13f1e1f2131fd8d348dac", "type": "electric_scooter", "name": "f0b4146732e13f1e1f2131fd8d348dac"}, {"is_disabled": 0, "is_reserved": 0, "fusion_lat": 0.0, "lat": 38.9190045, "fusion_lon": 0.0, "rental_uris": {"ios": "https://dc.lft.to/lastmile_qr_scan", "android": "https://dc.lft.to/lastmile_qr_scan"}, "lon": -77.00050966666667, "bike_id": "e9e6ca3a34ce422339732ac75627104c", "type": "electric_scooter", "name": "e9e6ca3a34ce422339732ac75627104c"}, {"is_disabled": 0, "is_reserved": 0, "fusion_lat": 0.0, "lat": 38.9122205, "fusion_lon": 0.0, "rental_uris": {"ios": "https://dc.lft.to/lastmile_qr_scan", "android": "https://dc.lft.to/lastmile_qr_scan"}, "lon": -77.00661933333333, "bike_id": "0efc7839f5d1c4d1f8374d9bbbf4e026", "type": "electric_scooter", "name": "0efc7839f5d1c4d1f8374d9bbbf4e026"}, {"is_disabled": 0, "is_reserved": 0, "fusion_lat": 0.0, "lat": 38.93535116666666, "fusion_lon": 0.0, "rental_uris": {"ios": "https://dc.lft.to/lastmile_qr_scan", "android": "https://dc.lft.to/lastmile_qr_scan"}, "lon": -77.05454866666666, "bike_id": "cc24afa7358032b71a263e37712c8a77", "type": "electric_scooter", "name": "cc24afa7358032b71a263e37712c8a77"}, {"is_disabled": 0, "is_reserved": 0, "fusion_lat": 0.0, "lat": 38.905397666666666, "fusion_lon": 0.0, "rental_uris": {"ios": "https://dc.lft.to/lastmile_qr_scan", "android": "https://dc.lft.to/lastmile_qr_scan"}, "lon": -77.0418235, "bike_id": "5509bb666a7e0861c8d59a4c8d443d35", "type": "electric_scooter", "name": "5509bb666a7e0861c8d59a4c8d443d35"}, {"is_disabled": 0, "is_reserved": 0, "fusion_lat": 0.0, "lat": 38.902497333333336, "fusion_lon": 0.0, "rental_uris": {"ios": "https://dc.lft.to/lastmile_qr_scan", "android": "https://dc.lft.to/lastmile_qr_scan"}, "lon": -77.0386265, "bike_id": "95038377e6fbffa1cc3e51f8ae39bd6b", "type": "electric_scooter", "name": "95038377e6fbffa1cc3e51f8ae39bd6b"}, {"is_disabled": 0, "is_reserved": 0, "fusion_lat": 0.0, "lat": 38.913642333333335, "fusion_lon": 0.0, "rental_uris": {"ios": "https://dc.lft.to/lastmile_qr_scan", "android": "https://dc.lft.to/lastmile_qr_scan"}, "lon": -77.046591, "bike_id": "37118135c04787ad4821930f23774a08", "type": "electric_scooter", "name": "37118135c04787ad4821930f23774a08"}, {"is_disabled": 0, "is_reserved": 0, "fusion_lat": 0.0, "lat": 38.86193766666667, "fusion_lon": 0.0, "rental_uris": {"ios": "https://dc.lft.to/lastmile_qr_scan", "android": "https://dc.lft.to/lastmile_qr_scan"}, "lon": -77.08843016666667, "bike_id": "452214048586c21553a9f62fb064ba5c", "type": "electric_bike", "name": "452214048586c21553a9f62fb064ba5c"}, {"is_disabled": 0, "is_reserved": 0, "fusion_lat": 0.0, "lat": 38.904458, "fusion_lon": 0.0, "rental_uris": {"ios": "https://dc.lft.to/lastmile_qr_scan", "android": "https://dc.lft.to/lastmile_qr_scan"}, "lon": -77.03113433333333, "bike_id": "436599faf8cb1af0c4d8695d57476bb1", "type": "electric_scooter", "name": "436599faf8cb1af0c4d8695d57476bb1"}, {"is_disabled": 0, "is_reserved": 0, "fusion_lat": 0.0, "lat": 38.92216416666667, "fusion_lon": 0.0, "rental_uris": {"ios": "https://dc.lft.to/lastmile_qr_scan", "android": "https://dc.lft.to/lastmile_qr_scan"}, "lon": -77.07442133333333, "bike_id": "088222190ac1cd2960f2cade3a2a4a4b", "type": "electric_scooter", "name": "088222190ac1cd2960f2cade3a2a4a4b"}, {"is_disabled": 0, "is_reserved": 0, "fusion_lat": 0.0, "lat": 38.9058905, "fusion_lon": 0.0, "rental_uris": {"ios": "https://dc.lft.to/lastmile_qr_scan", "android": "https://dc.lft.to/lastmile_qr_scan"}, "lon": -77.01612366666667, "bike_id": "26ac0ab2c5ca6b01e925f35e59987dca", "type": "electric_scooter", "name": "26ac0ab2c5ca6b01e925f35e59987dca"}, {"is_disabled": 0, "is_reserved": 0, "fusion_lat": 0.0, "lat": 38.8844015, "fusion_lon": 0.0, "rental_uris": {"ios": "https://dc.lft.to/lastmile_qr_scan", "android": "https://dc.lft.to/lastmile_qr_scan"}, "lon": -77.02485633333333, "bike_id": "c7a35e0c70991fdd286ac73ecb393d6f", "type": "electric_scooter", "name": "c7a35e0c70991fdd286ac73ecb393d6f"}, {"is_disabled": 0, "is_reserved": 0, "fusion_lat": 0.0, "lat": 38.921376, "fusion_lon": 0.0, "rental_uris": {"ios": "https://dc.lft.to/lastmile_qr_scan", "android": "https://dc.lft.to/lastmile_qr_scan"}, "lon": -77.04564833333333, "bike_id": "fbcbdf649bb0beb1c71eb6117c216a41", "type": "electric_scooter", "name": "fbcbdf649bb0beb1c71eb6117c216a41"}, {"is_disabled": 0, "is_reserved": 0, "fusion_lat": 0.0, "lat": 38.876557166666665, "fusion_lon": 0.0, "rental_uris": {"ios": "https://dc.lft.to/lastmile_qr_scan", "android": "https://dc.lft.to/lastmile_qr_scan"}, "lon": -77.001852, "bike_id": "8b3412ed0a78b268d645faf662db52e0", "type": "electric_scooter", "name": "8b3412ed0a78b268d645faf662db52e0"}, {"is_disabled": 0, "is_reserved": 0, "fusion_lat": 0.0, "lat": 38.93553466666667, "fusion_lon": 0.0, "rental_uris": {"ios": "https://dc.lft.to/lastmile_qr_scan", "android": "https://dc.lft.to/lastmile_qr_scan"}, "lon": -77.07710016666667, "bike_id": "6504ce4b474bca35b68f1c300865a587", "type": "electric_scooter", "name": "6504ce4b474bca35b68f1c300865a587"}, {"is_disabled": 0, "is_reserved": 0, "fusion_lat": 0.0, "lat": 38.90762133333333, "fusion_lon": 0.0, "rental_uris": {"ios": "https://dc.lft.to/lastmile_qr_scan", "android": "https://dc.lft.to/lastmile_qr_scan"}, "lon": -77.07027216666667, "bike_id": "25936e3f256c35bd6c6a01ec71bf88f0", "type": "electric_scooter", "name": "25936e3f256c35bd6c6a01ec71bf88f0"}, {"is_disabled": 0, "is_reserved": 0, "fusion_lat": 0.0, "lat": 38.92442466666667, "fusion_lon": 0.0, "rental_uris": {"ios": "https://dc.lft.to/lastmile_qr_scan", "android": "https://dc.lft.to/lastmile_qr_scan"}, "lon": -77.04404366666667, "bike_id": "e06e3326e28df4ce36a3bc5dee4c622a", "type": "electric_scooter", "name": "e06e3326e28df4ce36a3bc5dee4c622a"}, {"is_disabled": 0, "is_reserved": 0, "fusion_lat": 0.0, "lat": 38.938567166666665, "fusion_lon": 0.0, "rental_uris": {"ios": "https://dc.lft.to/lastmile_qr_scan", "android": "https://dc.lft.to/lastmile_qr_scan"}, "lon": -76.99438816666667, "bike_id": "982c1c57c99428b5cc233929f76afc74", "type": "electric_scooter", "name": "982c1c57c99428b5cc233929f76afc74"}, {"is_disabled": 0, "is_reserved": 0, "fusion_lat": 0.0, "lat": 38.896077, "fusion_lon": 0.0, "rental_uris": {"ios": "https://dc.lft.to/lastmile_qr_scan", "android": "https://dc.lft.to/lastmile_qr_scan"}, "lon": -77.04688966666667, "bike_id": "922c90c78e6fe674d3fa4bad14a2de55", "type": "electric_scooter", "name": "922c90c78e6fe674d3fa4bad14a2de55"}, {"is_disabled": 0, "is_reserved": 0, "fusion_lat": 0.0, "lat": 38.922487833333335, "fusion_lon": 0.0, "rental_uris": {"ios": "https://dc.lft.to/lastmile_qr_scan", "android": "https://dc.lft.to/lastmile_qr_scan"}, "lon": -77.030878, "bike_id": "2b45ba7c79a8ad436353786457c9e860", "type": "electric_scooter", "name": "2b45ba7c79a8ad436353786457c9e860"}, {"is_disabled": 0, "is_reserved": 0, "fusion_lat": 0.0, "lat": 38.9211025, "fusion_lon": 0.0, "rental_uris": {"ios": "https://dc.lft.to/lastmile_qr_scan", "android": "https://dc.lft.to/lastmile_qr_scan"}, "lon": -77.04164183333333, "bike_id": "0fc9962e98a37198d98c2fc86676a246", "type": "electric_scooter", "name": "0fc9962e98a37198d98c2fc86676a246"}, {"is_disabled": 0, "is_reserved": 0, "fusion_lat": 0.0, "lat": 38.90244033333333, "fusion_lon": 0.0, "rental_uris": {"ios": "https://dc.lft.to/lastmile_qr_scan", "android": "https://dc.lft.to/lastmile_qr_scan"}, "lon": -77.0077485, "bike_id": "a7e9a40d68a37746f216784f027231ce", "type": "electric_scooter", "name": "a7e9a40d68a37746f216784f027231ce"}, {"is_disabled": 0, "is_reserved": 0, "fusion_lat": 0.0, "lat": 38.876316833333334, "fusion_lon": 0.0, "rental_uris": {"ios": "https://dc.lft.to/lastmile_qr_scan", "android": "https://dc.lft.to/lastmile_qr_scan"}, "lon": -77.0095895, "bike_id": "c27a42ff71ef1b498380fb48e380d09c", "type": "electric_scooter", "name": "c27a42ff71ef1b498380fb48e380d09c"}, {"is_disabled": 0, "is_reserved": 0, "fusion_lat": 0.0, "lat": 38.931823666666666, "fusion_lon": 0.0, "rental_uris": {"ios": "https://dc.lft.to/lastmile_qr_scan", "android": "https://dc.lft.to/lastmile_qr_scan"}, "lon": -77.034509, "bike_id": "40c3ea62720a844a3bcf04f181b53631", "type": "electric_scooter", "name": "40c3ea62720a844a3bcf04f181b53631"}, {"is_disabled": 0, "is_reserved": 0, "fusion_lat": 0.0, "lat": 38.91052916666666, "fusion_lon": 0.0, "rental_uris": {"ios": "https://dc.lft.to/lastmile_qr_scan", "android": "https://dc.lft.to/lastmile_qr_scan"}, "lon": -77.02302333333333, "bike_id": "c41153ad344d8ea0e4655bb6fca04138", "type": "electric_scooter", "name": "c41153ad344d8ea0e4655bb6fca04138"}, {"is_disabled": 0, "is_reserved": 0, "fusion_lat": 0.0, "lat": 38.8857435, "fusion_lon": 0.0, "rental_uris": {"ios": "https://dc.lft.to/lastmile_qr_scan", "android": "https://dc.lft.to/lastmile_qr_scan"}, "lon": -77.012141, "bike_id": "054b8106c0281c0683c6c0afdb04a45e", "type": "electric_scooter", "name": "054b8106c0281c0683c6c0afdb04a45e"}, {"is_disabled": 0, "is_reserved": 0, "fusion_lat": 0.0, "lat": 38.8948025, "fusion_lon": 0.0, "rental_uris": {"ios": "https://dc.lft.to/lastmile_qr_scan", "android": "https://dc.lft.to/lastmile_qr_scan"}, "lon": -77.02804766666667, "bike_id": "1a4737048a6f7d5094bd55ce7434786d", "type": "electric_bike", "name": "1a4737048a6f7d5094bd55ce7434786d"}, {"is_disabled": 0, "is_reserved": 0, "fusion_lat": 0.0, "lat": 38.9043735, "fusion_lon": 0.0, "rental_uris": {"ios": "https://dc.lft.to/lastmile_qr_scan", "android": "https://dc.lft.to/lastmile_qr_scan"}, "lon": -77.02852833333333, "bike_id": "323a5c72a4ff7d88e20b71fd96768e14", "type": "electric_scooter", "name": "323a5c72a4ff7d88e20b71fd96768e14"}, {"is_disabled": 0, "is_reserved": 0, "fusion_lat": 0.0, "lat": 38.83293966666667, "fusion_lon": 0.0, "rental_uris": {"ios": "https://dc.lft.to/lastmile_qr_scan", "android": "https://dc.lft.to/lastmile_qr_scan"}, "lon": -77.08407066666666, "bike_id": "119c74a8e8b98f205be08538afce4162", "type": "electric_bike", "name": "119c74a8e8b98f205be08538afce4162"}, {"is_disabled": 0, "is_reserved": 0, "fusion_lat": 0.0, "lat": 38.9181535, "fusion_lon": 0.0, "rental_uris": {"ios": "https://dc.lft.to/lastmile_qr_scan", "android": "https://dc.lft.to/lastmile_qr_scan"}, "lon": -77.03794216666667, "bike_id": "96172cb717ab29b77cbab33e8bf134dc", "type": "electric_scooter", "name": "96172cb717ab29b77cbab33e8bf134dc"}, {"is_disabled": 0, "is_reserved": 0, "fusion_lat": 0.0, "lat": 38.907215, "fusion_lon": 0.0, "rental_uris": {"ios": "https://dc.lft.to/lastmile_qr_scan", "android": "https://dc.lft.to/lastmile_qr_scan"}, "lon": -77.046455, "bike_id": "eb1dd8be4d2b976bea3d0c5c705059f9", "type": "electric_scooter", "name": "eb1dd8be4d2b976bea3d0c5c705059f9"}, {"is_disabled": 0, "is_reserved": 0, "fusion_lat": 0.0, "lat": 38.931059833333336, "fusion_lon": 0.0, "rental_uris": {"ios": "https://dc.lft.to/lastmile_qr_scan", "android": "https://dc.lft.to/lastmile_qr_scan"}, "lon": -77.02141433333334, "bike_id": "11f66ed4e2bc6383f965f1afd60fb718", "type": "electric_scooter", "name": "11f66ed4e2bc6383f965f1afd60fb718"}, {"is_disabled": 0, "is_reserved": 0, "fusion_lat": 0.0, "lat": 38.8985, "fusion_lon": 0.0, "rental_uris": {"ios": "https://dc.lft.to/lastmile_qr_scan", "android": "https://dc.lft.to/lastmile_qr_scan"}, "lon": -76.927494, "bike_id": "f64c0d0b36589a1d035b484c58bb5801", "type": "electric_scooter", "name": "f64c0d0b36589a1d035b484c58bb5801"}, {"is_disabled": 0, "is_reserved": 0, "fusion_lat": 0.0, "lat": 38.916997, "fusion_lon": 0.0, "rental_uris": {"ios": "https://dc.lft.to/lastmile_qr_scan", "android": "https://dc.lft.to/lastmile_qr_scan"}, "lon": -77.0301175, "bike_id": "c80c9cefa4d4cc75399807d8818c4fd7", "type": "electric_scooter", "name": "c80c9cefa4d4cc75399807d8818c4fd7"}, {"is_disabled": 0, "is_reserved": 0, "fusion_lat": 0.0, "lat": 38.904339, "fusion_lon": 0.0, "rental_uris": {"ios": "https://dc.lft.to/lastmile_qr_scan", "android": "https://dc.lft.to/lastmile_qr_scan"}, "lon": -76.97230583333334, "bike_id": "245389fb1d5bdc934fdd398b0b57512a", "type": "electric_bike", "name": "245389fb1d5bdc934fdd398b0b57512a"}, {"is_disabled": 0, "is_reserved": 0, "fusion_lat": 0.0, "lat": 38.919196166666666, "fusion_lon": 0.0, "rental_uris": {"ios": "https://dc.lft.to/lastmile_qr_scan", "android": "https://dc.lft.to/lastmile_qr_scan"}, "lon": -77.02324716666666, "bike_id": "d23035d2968f62fca7a3b5cb3bdaaffa", "type": "electric_scooter", "name": "d23035d2968f62fca7a3b5cb3bdaaffa"}, {"is_disabled": 0, "is_reserved": 0, "fusion_lat": 0.0, "lat": 38.900298666666664, "fusion_lon": 0.0, "rental_uris": {"ios": "https://dc.lft.to/lastmile_qr_scan", "android": "https://dc.lft.to/lastmile_qr_scan"}, "lon": -77.00368683333333, "bike_id": "9d2c99777f889048054e8ae0fcc2f270", "type": "electric_scooter", "name": "9d2c99777f889048054e8ae0fcc2f270"}, {"is_disabled": 0, "is_reserved": 0, "fusion_lat": 0.0, "lat": 38.92669333333333, "fusion_lon": 0.0, "rental_uris": {"ios": "https://dc.lft.to/lastmile_qr_scan", "android": "https://dc.lft.to/lastmile_qr_scan"}, "lon": -77.030292, "bike_id": "99a322ecfeac59b06d7ccb45b988af1d", "type": "electric_scooter", "name": "99a322ecfeac59b06d7ccb45b988af1d"}, {"is_disabled": 0, "is_reserved": 0, "fusion_lat": 0.0, "lat": 38.93524583333333, "fusion_lon": 0.0, "rental_uris": {"ios": "https://dc.lft.to/lastmile_qr_scan", "android": "https://dc.lft.to/lastmile_qr_scan"}, "lon": -77.02846116666667, "bike_id": "baad7f58b3699cf78671e544fedc6dea", "type": "electric_scooter", "name": "baad7f58b3699cf78671e544fedc6dea"}, {"is_disabled": 0, "is_reserved": 0, "fusion_lat": 0.0, "lat": 38.892513, "fusion_lon": 0.0, "rental_uris": {"ios": "https://dc.lft.to/lastmile_qr_scan", "android": "https://dc.lft.to/lastmile_qr_scan"}, "lon": -77.02606733333333, "bike_id": "f6b2363005b621b49af0068c9225f000", "type": "electric_scooter", "name": "f6b2363005b621b49af0068c9225f000"}, {"is_disabled": 0, "is_reserved": 0, "fusion_lat": 0.0, "lat": 38.92021416666667, "fusion_lon": 0.0, "rental_uris": {"ios": "https://dc.lft.to/lastmile_qr_scan", "android": "https://dc.lft.to/lastmile_qr_scan"}, "lon": -77.031632, "bike_id": "3e6128fefdfe7c4cac67f1fc4d8077ab", "type": "electric_scooter", "name": "3e6128fefdfe7c4cac67f1fc4d8077ab"}, {"is_disabled": 0, "is_reserved": 0, "fusion_lat": 0.0, "lat": 38.928693, "fusion_lon": 0.0, "rental_uris": {"ios": "https://dc.lft.to/lastmile_qr_scan", "android": "https://dc.lft.to/lastmile_qr_scan"}, "lon": -77.05660483333334, "bike_id": "891cb8ebbc97b65fb078ea6909ccedb8", "type": "electric_scooter", "name": "891cb8ebbc97b65fb078ea6909ccedb8"}, {"is_disabled": 0, "is_reserved": 0, "fusion_lat": 0.0, "lat": 38.912013333333334, "fusion_lon": 0.0, "rental_uris": {"ios": "https://dc.lft.to/lastmile_qr_scan", "android": "https://dc.lft.to/lastmile_qr_scan"}, "lon": -77.04531733333333, "bike_id": "88fcec697e49c3f9ed84b8190036a19f", "type": "electric_scooter", "name": "88fcec697e49c3f9ed84b8190036a19f"}, {"is_disabled": 0, "is_reserved": 0, "fusion_lat": 0.0, "lat": 38.916708166666666, "fusion_lon": 0.0, "rental_uris": {"ios": "https://dc.lft.to/lastmile_qr_scan", "android": "https://dc.lft.to/lastmile_qr_scan"}, "lon": -77.031953, "bike_id": "9f5d59c29bfa05d5f5d82af86886f4f1", "type": "electric_scooter", "name": "9f5d59c29bfa05d5f5d82af86886f4f1"}, {"is_disabled": 0, "is_reserved": 0, "fusion_lat": 0.0, "lat": 38.89904466666667, "fusion_lon": 0.0, "rental_uris": {"ios": "https://dc.lft.to/lastmile_qr_scan", "android": "https://dc.lft.to/lastmile_qr_scan"}, "lon": -76.93372116666667, "bike_id": "d5acbd52c7dc3ee489f790a9d8b1ad35", "type": "electric_scooter", "name": "d5acbd52c7dc3ee489f790a9d8b1ad35"}, {"is_disabled": 0, "is_reserved": 0, "fusion_lat": 0.0, "lat": 38.8803725, "fusion_lon": 0.0, "rental_uris": {"ios": "https://dc.lft.to/lastmile_qr_scan", "android": "https://dc.lft.to/lastmile_qr_scan"}, "lon": -76.9272435, "bike_id": "aa30412f63e46b09f05ecd7c957e1e0c", "type": "electric_scooter", "name": "aa30412f63e46b09f05ecd7c957e1e0c"}, {"is_disabled": 0, "is_reserved": 0, "fusion_lat": 0.0, "lat": 38.829239666666666, "fusion_lon": 0.0, "rental_uris": {"ios": "https://dc.lft.to/lastmile_qr_scan", "android": "https://dc.lft.to/lastmile_qr_scan"}, "lon": -77.06877416666667, "bike_id": "ac74843625493375dcc662d00aeef919", "type": "electric_bike", "name": "ac74843625493375dcc662d00aeef919"}, {"is_disabled": 0, "is_reserved": 0, "fusion_lat": 0.0, "lat": 38.92254783333333, "fusion_lon": 0.0, "rental_uris": {"ios": "https://dc.lft.to/lastmile_qr_scan", "android": "https://dc.lft.to/lastmile_qr_scan"}, "lon": -77.07279716666666, "bike_id": "8dd85ec2677cd5c62d7f936f3633ac40", "type": "electric_scooter", "name": "8dd85ec2677cd5c62d7f936f3633ac40"}, {"is_disabled": 0, "is_reserved": 0, "fusion_lat": 0.0, "lat": 38.896110166666666, "fusion_lon": 0.0, "rental_uris": {"ios": "https://dc.lft.to/lastmile_qr_scan", "android": "https://dc.lft.to/lastmile_qr_scan"}, "lon": -77.0033555, "bike_id": "67905132f2f165b33bb242520a2a8e0f", "type": "electric_scooter", "name": "67905132f2f165b33bb242520a2a8e0f"}, {"is_disabled": 0, "is_reserved": 0, "fusion_lat": 0.0, "lat": 38.927621, "fusion_lon": 0.0, "rental_uris": {"ios": "https://dc.lft.to/lastmile_qr_scan", "android": "https://dc.lft.to/lastmile_qr_scan"}, "lon": -77.02954016666666, "bike_id": "7c10ce34b7df5a05452f238ef6f374a4", "type": "electric_scooter", "name": "7c10ce34b7df5a05452f238ef6f374a4"}, {"is_disabled": 0, "is_reserved": 0, "fusion_lat": 0.0, "lat": 38.91554933333333, "fusion_lon": 0.0, "rental_uris": {"ios": "https://dc.lft.to/lastmile_qr_scan", "android": "https://dc.lft.to/lastmile_qr_scan"}, "lon": -77.021393, "bike_id": "61327f3bb093e28a7935c8c962a71cfd", "type": "electric_scooter", "name": "61327f3bb093e28a7935c8c962a71cfd"}, {"is_disabled": 0, "is_reserved": 0, "fusion_lat": 0.0, "lat": 38.8275835, "fusion_lon": 0.0, "rental_uris": {"ios": "https://dc.lft.to/lastmile_qr_scan", "android": "https://dc.lft.to/lastmile_qr_scan"}, "lon": -77.05035383333333, "bike_id": "23eac1ea868b198321aff7578540ccea", "type": "electric_bike", "name": "23eac1ea868b198321aff7578540ccea"}, {"is_disabled": 0, "is_reserved": 0, "fusion_lat": 0.0, "lat": 38.90146566666667, "fusion_lon": 0.0, "rental_uris": {"ios": "https://dc.lft.to/lastmile_qr_scan", "android": "https://dc.lft.to/lastmile_qr_scan"}, "lon": -77.04151533333334, "bike_id": "3b138bbce9c21e7c2724f4aec962e92b", "type": "electric_scooter", "name": "3b138bbce9c21e7c2724f4aec962e92b"}, {"is_disabled": 0, "is_reserved": 0, "fusion_lat": 0.0, "lat": 38.884137, "fusion_lon": 0.0, "rental_uris": {"ios": "https://dc.lft.to/lastmile_qr_scan", "android": "https://dc.lft.to/lastmile_qr_scan"}, "lon": -76.99536733333333, "bike_id": "d5871ed140db04888b90bcac5b41b739", "type": "electric_bike", "name": "d5871ed140db04888b90bcac5b41b739"}, {"is_disabled": 0, "is_reserved": 0, "fusion_lat": 0.0, "lat": 38.921466833333334, "fusion_lon": 0.0, "rental_uris": {"ios": "https://dc.lft.to/lastmile_qr_scan", "android": "https://dc.lft.to/lastmile_qr_scan"}, "lon": -77.0351055, "bike_id": "2ddce43a3b3949dfec8c20c12a40c454", "type": "electric_scooter", "name": "2ddce43a3b3949dfec8c20c12a40c454"}, {"is_disabled": 0, "is_reserved": 0, "fusion_lat": 0.0, "lat": 38.8802725, "fusion_lon": 0.0, "rental_uris": {"ios": "https://dc.lft.to/lastmile_qr_scan", "android": "https://dc.lft.to/lastmile_qr_scan"}, "lon": -77.02493383333334, "bike_id": "7f1e592a7cfc730c60b751b5169c626e", "type": "electric_scooter", "name": "7f1e592a7cfc730c60b751b5169c626e"}, {"is_disabled": 0, "is_reserved": 0, "fusion_lat": 0.0, "lat": 38.8600835, "fusion_lon": 0.0, "rental_uris": {"ios": "https://dc.lft.to/lastmile_qr_scan", "android": "https://dc.lft.to/lastmile_qr_scan"}, "lon": -77.065267, "bike_id": "d96709ca316c2546ac8507649fcb650f", "type": "electric_bike", "name": "d96709ca316c2546ac8507649fcb650f"}, {"is_disabled": 0, "is_reserved": 0, "fusion_lat": 0.0, "lat": 38.918023166666664, "fusion_lon": 0.0, "rental_uris": {"ios": "https://dc.lft.to/lastmile_qr_scan", "android": "https://dc.lft.to/lastmile_qr_scan"}, "lon": -77.02496533333333, "bike_id": "024d4e39780290d7dc119bdd76efaa70", "type": "electric_scooter", "name": "024d4e39780290d7dc119bdd76efaa70"}, {"is_disabled": 0, "is_reserved": 0, "fusion_lat": 0.0, "lat": 38.8966835, "fusion_lon": 0.0, "rental_uris": {"ios": "https://dc.lft.to/lastmile_qr_scan", "android": "https://dc.lft.to/lastmile_qr_scan"}, "lon": -76.93210566666667, "bike_id": "ff16a3c223371b254ed6daa38fc1a5c9", "type": "electric_scooter", "name": "ff16a3c223371b254ed6daa38fc1a5c9"}, {"is_disabled": 0, "is_reserved": 0, "fusion_lat": 0.0, "lat": 38.92661183333333, "fusion_lon": 0.0, "rental_uris": {"ios": "https://dc.lft.to/lastmile_qr_scan", "android": "https://dc.lft.to/lastmile_qr_scan"}, "lon": -77.052042, "bike_id": "8a4a9ce14caea26fce71df1499ad3c7c", "type": "electric_scooter", "name": "8a4a9ce14caea26fce71df1499ad3c7c"}, {"is_disabled": 0, "is_reserved": 0, "fusion_lat": 0.0, "lat": 38.914768, "fusion_lon": 0.0, "rental_uris": {"ios": "https://dc.lft.to/lastmile_qr_scan", "android": "https://dc.lft.to/lastmile_qr_scan"}, "lon": -77.021984, "bike_id": "efa3d1c4c9cab08b3c959bfaa22d0950", "type": "electric_scooter", "name": "efa3d1c4c9cab08b3c959bfaa22d0950"}, {"is_disabled": 0, "is_reserved": 0, "fusion_lat": 0.0, "lat": 38.905022333333335, "fusion_lon": 0.0, "rental_uris": {"ios": "https://dc.lft.to/lastmile_qr_scan", "android": "https://dc.lft.to/lastmile_qr_scan"}, "lon": -76.95196683333333, "bike_id": "aacd5c150f61f28be34496ff9f1a6fae", "type": "electric_scooter", "name": "aacd5c150f61f28be34496ff9f1a6fae"}, {"is_disabled": 0, "is_reserved": 0, "fusion_lat": 0.0, "lat": 38.87629533333333, "fusion_lon": 0.0, "rental_uris": {"ios": "https://dc.lft.to/lastmile_qr_scan", "android": "https://dc.lft.to/lastmile_qr_scan"}, "lon": -77.01479883333333, "bike_id": "d905d2e6b4ebb86a561e738bd3a5d62f", "type": "electric_scooter", "name": "d905d2e6b4ebb86a561e738bd3a5d62f"}, {"is_disabled": 0, "is_reserved": 0, "fusion_lat": 0.0, "lat": 38.8824365, "fusion_lon": 0.0, "rental_uris": {"ios": "https://dc.lft.to/lastmile_qr_scan", "android": "https://dc.lft.to/lastmile_qr_scan"}, "lon": -77.00922683333333, "bike_id": "cf970ad5e4dd6fe3a7a8b8b204e7d354", "type": "electric_scooter", "name": "cf970ad5e4dd6fe3a7a8b8b204e7d354"}, {"is_disabled": 0, "is_reserved": 0, "fusion_lat": 0.0, "lat": 38.89609183333334, "fusion_lon": 0.0, "rental_uris": {"ios": "https://dc.lft.to/lastmile_qr_scan", "android": "https://dc.lft.to/lastmile_qr_scan"}, "lon": -77.04508916666667, "bike_id": "3f31ff03cfa454e650c7818469b96aef", "type": "electric_scooter", "name": "3f31ff03cfa454e650c7818469b96aef"}, {"is_disabled": 0, "is_reserved": 0, "fusion_lat": 0.0, "lat": 38.892194, "fusion_lon": 0.0, "rental_uris": {"ios": "https://dc.lft.to/lastmile_qr_scan", "android": "https://dc.lft.to/lastmile_qr_scan"}, "lon": -77.027751, "bike_id": "fef97d5261b364ba9785e46445050f29", "type": "electric_scooter", "name": "fef97d5261b364ba9785e46445050f29"}, {"is_disabled": 0, "is_reserved": 0, "fusion_lat": 0.0, "lat": 38.8854285, "fusion_lon": 0.0, "rental_uris": {"ios": "https://dc.lft.to/lastmile_qr_scan", "android": "https://dc.lft.to/lastmile_qr_scan"}, "lon": -76.95974483333333, "bike_id": "0cc48075bcd14a6875ba523be7ef7a2f", "type": "electric_scooter", "name": "0cc48075bcd14a6875ba523be7ef7a2f"}, {"is_disabled": 0, "is_reserved": 0, "fusion_lat": 0.0, "lat": 38.9140445, "fusion_lon": 0.0, "rental_uris": {"ios": "https://dc.lft.to/lastmile_qr_scan", "android": "https://dc.lft.to/lastmile_qr_scan"}, "lon": -77.04580833333333, "bike_id": "659aa1a9db37ec87ef932b4a9323e424", "type": "electric_scooter", "name": "659aa1a9db37ec87ef932b4a9323e424"}, {"is_disabled": 0, "is_reserved": 0, "fusion_lat": 0.0, "lat": 38.924207, "fusion_lon": 0.0, "rental_uris": {"ios": "https://dc.lft.to/lastmile_qr_scan", "android": "https://dc.lft.to/lastmile_qr_scan"}, "lon": -77.02008333333333, "bike_id": "8a019333ef452bc49d48dbe923800eeb", "type": "electric_scooter", "name": "8a019333ef452bc49d48dbe923800eeb"}, {"is_disabled": 0, "is_reserved": 0, "fusion_lat": 0.0, "lat": 38.858393, "fusion_lon": 0.0, "rental_uris": {"ios": "https://dc.lft.to/lastmile_qr_scan", "android": "https://dc.lft.to/lastmile_qr_scan"}, "lon": -76.98828616666667, "bike_id": "26aa8a5d3ceb24f40153557af5c72771", "type": "electric_scooter", "name": "26aa8a5d3ceb24f40153557af5c72771"}, {"is_disabled": 0, "is_reserved": 0, "fusion_lat": 0.0, "lat": 38.902141666666665, "fusion_lon": 0.0, "rental_uris": {"ios": "https://dc.lft.to/lastmile_qr_scan", "android": "https://dc.lft.to/lastmile_qr_scan"}, "lon": -77.03194716666667, "bike_id": "a0f7369541e75457215a0cbe95b531a1", "type": "electric_scooter", "name": "a0f7369541e75457215a0cbe95b531a1"}, {"is_disabled": 0, "is_reserved": 0, "fusion_lat": 0.0, "lat": 38.85780316666666, "fusion_lon": 0.0, "rental_uris": {"ios": "https://dc.lft.to/lastmile_qr_scan", "android": "https://dc.lft.to/lastmile_qr_scan"}, "lon": -76.98752683333333, "bike_id": "2bdfae5d2ce63edd4f4f9134094c04b0", "type": "electric_bike", "name": "2bdfae5d2ce63edd4f4f9134094c04b0"}, {"is_disabled": 0, "is_reserved": 0, "fusion_lat": 0.0, "lat": 38.92318566666667, "fusion_lon": 0.0, "rental_uris": {"ios": "https://dc.lft.to/lastmile_qr_scan", "android": "https://dc.lft.to/lastmile_qr_scan"}, "lon": -77.02802333333334, "bike_id": "74b18a237139aa0518d4a8782d31408b", "type": "electric_scooter", "name": "74b18a237139aa0518d4a8782d31408b"}, {"is_disabled": 0, "is_reserved": 0, "fusion_lat": 0.0, "lat": 38.919225, "fusion_lon": 0.0, "rental_uris": {"ios": "https://dc.lft.to/lastmile_qr_scan", "android": "https://dc.lft.to/lastmile_qr_scan"}, "lon": -77.03419016666666, "bike_id": "5f465f4627e62d9a696109cf56bf69d6", "type": "electric_scooter", "name": "5f465f4627e62d9a696109cf56bf69d6"}, {"is_disabled": 0, "is_reserved": 0, "fusion_lat": 0.0, "lat": 38.840079833333334, "fusion_lon": 0.0, "rental_uris": {"ios": "https://dc.lft.to/lastmile_qr_scan", "android": "https://dc.lft.to/lastmile_qr_scan"}, "lon": -76.98864316666666, "bike_id": "6280ef6403aae1f7827081da354372d3", "type": "electric_bike", "name": "6280ef6403aae1f7827081da354372d3"}, {"is_disabled": 0, "is_reserved": 0, "fusion_lat": 0.0, "lat": 38.936126, "fusion_lon": 0.0, "rental_uris": {"ios": "https://dc.lft.to/lastmile_qr_scan", "android": "https://dc.lft.to/lastmile_qr_scan"}, "lon": -77.05581683333334, "bike_id": "c8b72af8d6b33aa83adc2b098871e7f4", "type": "electric_scooter", "name": "c8b72af8d6b33aa83adc2b098871e7f4"}, {"is_disabled": 0, "is_reserved": 0, "fusion_lat": 0.0, "lat": 38.92219933333333, "fusion_lon": 0.0, "rental_uris": {"ios": "https://dc.lft.to/lastmile_qr_scan", "android": "https://dc.lft.to/lastmile_qr_scan"}, "lon": -77.02031433333333, "bike_id": "96325a857c21c74932a0794e0b744c9f", "type": "electric_scooter", "name": "96325a857c21c74932a0794e0b744c9f"}, {"is_disabled": 0, "is_reserved": 0, "fusion_lat": 0.0, "lat": 38.885539, "fusion_lon": 0.0, "rental_uris": {"ios": "https://dc.lft.to/lastmile_qr_scan", "android": "https://dc.lft.to/lastmile_qr_scan"}, "lon": -77.11688566666666, "bike_id": "600e11b1f390f3893b1f15a224e8b91c", "type": "electric_bike", "name": "600e11b1f390f3893b1f15a224e8b91c"}, {"is_disabled": 0, "is_reserved": 0, "fusion_lat": 0.0, "lat": 38.894983333333336, "fusion_lon": 0.0, "rental_uris": {"ios": "https://dc.lft.to/lastmile_qr_scan", "android": "https://dc.lft.to/lastmile_qr_scan"}, "lon": -76.97407983333333, "bike_id": "dff6670768f9e6b1512f32c7eea6c684", "type": "electric_scooter", "name": "dff6670768f9e6b1512f32c7eea6c684"}, {"is_disabled": 0, "is_reserved": 0, "fusion_lat": 0.0, "lat": 38.87840216666667, "fusion_lon": 0.0, "rental_uris": {"ios": "https://dc.lft.to/lastmile_qr_scan", "android": "https://dc.lft.to/lastmile_qr_scan"}, "lon": -77.030294, "bike_id": "05be1e5dbbe63a51d053aeb01d10af1d", "type": "electric_bike", "name": "05be1e5dbbe63a51d053aeb01d10af1d"}, {"is_disabled": 0, "is_reserved": 0, "fusion_lat": 0.0, "lat": 38.850594, "fusion_lon": 0.0, "rental_uris": {"ios": "https://dc.lft.to/lastmile_qr_scan", "android": "https://dc.lft.to/lastmile_qr_scan"}, "lon": -76.98173683333333, "bike_id": "2e21b4016da636958f31577dfced758a", "type": "electric_bike", "name": "2e21b4016da636958f31577dfced758a"}, {"is_disabled": 0, "is_reserved": 0, "fusion_lat": 0.0, "lat": 38.89501883333333, "fusion_lon": 0.0, "rental_uris": {"ios": "https://dc.lft.to/lastmile_qr_scan", "android": "https://dc.lft.to/lastmile_qr_scan"}, "lon": -77.0228525, "bike_id": "687ea24f4e8c961c73b50b9225bb827c", "type": "electric_scooter", "name": "687ea24f4e8c961c73b50b9225bb827c"}, {"is_disabled": 0, "is_reserved": 0, "fusion_lat": 0.0, "lat": 38.895141, "fusion_lon": 0.0, "rental_uris": {"ios": "https://dc.lft.to/lastmile_qr_scan", "android": "https://dc.lft.to/lastmile_qr_scan"}, "lon": -77.02279733333333, "bike_id": "fff49c8495698ba29bd52e29f4343a5e", "type": "electric_scooter", "name": "fff49c8495698ba29bd52e29f4343a5e"}, {"is_disabled": 0, "is_reserved": 0, "fusion_lat": 0.0, "lat": 38.942847666666665, "fusion_lon": 0.0, "rental_uris": {"ios": "https://dc.lft.to/lastmile_qr_scan", "android": "https://dc.lft.to/lastmile_qr_scan"}, "lon": -77.02167783333333, "bike_id": "7cee52a392b6761372d9e40dd8b30e74", "type": "electric_scooter", "name": "7cee52a392b6761372d9e40dd8b30e74"}, {"is_disabled": 0, "is_reserved": 0, "fusion_lat": 0.0, "lat": 38.915646, "fusion_lon": 0.0, "rental_uris": {"ios": "https://dc.lft.to/lastmile_qr_scan", "android": "https://dc.lft.to/lastmile_qr_scan"}, "lon": -77.03631416666667, "bike_id": "6b7a76827af80b769a323139bebcef8e", "type": "electric_scooter", "name": "6b7a76827af80b769a323139bebcef8e"}, {"is_disabled": 0, "is_reserved": 0, "fusion_lat": 0.0, "lat": 38.916278166666665, "fusion_lon": 0.0, "rental_uris": {"ios": "https://dc.lft.to/lastmile_qr_scan", "android": "https://dc.lft.to/lastmile_qr_scan"}, "lon": -77.01742316666666, "bike_id": "28b2c0db431f7b0bdad8fa3fb84a7f85", "type": "electric_scooter", "name": "28b2c0db431f7b0bdad8fa3fb84a7f85"}, {"is_disabled": 0, "is_reserved": 0, "fusion_lat": 0.0, "lat": 38.8984835, "fusion_lon": 0.0, "rental_uris": {"ios": "https://dc.lft.to/lastmile_qr_scan", "android": "https://dc.lft.to/lastmile_qr_scan"}, "lon": -77.02872066666667, "bike_id": "91a4329a01b733376d6587d07b0d78e4", "type": "electric_scooter", "name": "91a4329a01b733376d6587d07b0d78e4"}, {"is_disabled": 0, "is_reserved": 0, "fusion_lat": 0.0, "lat": 38.90362533333333, "fusion_lon": 0.0, "rental_uris": {"ios": "https://dc.lft.to/lastmile_qr_scan", "android": "https://dc.lft.to/lastmile_qr_scan"}, "lon": -77.00348116666666, "bike_id": "c5e3a9c5330cf36edc479587802b7eee", "type": "electric_scooter", "name": "c5e3a9c5330cf36edc479587802b7eee"}, {"is_disabled": 0, "is_reserved": 0, "fusion_lat": 0.0, "lat": 38.896639, "fusion_lon": 0.0, "rental_uris": {"ios": "https://dc.lft.to/lastmile_qr_scan", "android": "https://dc.lft.to/lastmile_qr_scan"}, "lon": -76.94909416666667, "bike_id": "6f4f7f515d11b67e6f9d02f535cc74d1", "type": "electric_scooter", "name": "6f4f7f515d11b67e6f9d02f535cc74d1"}, {"is_disabled": 0, "is_reserved": 0, "fusion_lat": 0.0, "lat": 38.9339605, "fusion_lon": 0.0, "rental_uris": {"ios": "https://dc.lft.to/lastmile_qr_scan", "android": "https://dc.lft.to/lastmile_qr_scan"}, "lon": -77.026164, "bike_id": "aa1079a21ddb1ae424be67a157bfb9ee", "type": "electric_scooter", "name": "aa1079a21ddb1ae424be67a157bfb9ee"}, {"is_disabled": 0, "is_reserved": 0, "fusion_lat": 0.0, "lat": 38.927131833333334, "fusion_lon": 0.0, "rental_uris": {"ios": "https://dc.lft.to/lastmile_qr_scan", "android": "https://dc.lft.to/lastmile_qr_scan"}, "lon": -77.020791, "bike_id": "fcd3a1d2a8a9b83f8d8e79487687cb57", "type": "electric_scooter", "name": "fcd3a1d2a8a9b83f8d8e79487687cb57"}, {"is_disabled": 0, "is_reserved": 0, "fusion_lat": 0.0, "lat": 38.915639666666664, "fusion_lon": 0.0, "rental_uris": {"ios": "https://dc.lft.to/lastmile_qr_scan", "android": "https://dc.lft.to/lastmile_qr_scan"}, "lon": -77.031949, "bike_id": "93371b88232a0cba2c6edb12cd49fea1", "type": "electric_scooter", "name": "93371b88232a0cba2c6edb12cd49fea1"}, {"is_disabled": 0, "is_reserved": 0, "fusion_lat": 0.0, "lat": 38.90068266666667, "fusion_lon": 0.0, "rental_uris": {"ios": "https://dc.lft.to/lastmile_qr_scan", "android": "https://dc.lft.to/lastmile_qr_scan"}, "lon": -77.00637, "bike_id": "f4cca8a6de612242be7ce45d55cd2268", "type": "electric_scooter", "name": "f4cca8a6de612242be7ce45d55cd2268"}, {"is_disabled": 0, "is_reserved": 0, "fusion_lat": 0.0, "lat": 38.881225, "fusion_lon": 0.0, "rental_uris": {"ios": "https://dc.lft.to/lastmile_qr_scan", "android": "https://dc.lft.to/lastmile_qr_scan"}, "lon": -76.99345183333334, "bike_id": "592cb89eccd4388398ea07a25b621ed9", "type": "electric_scooter", "name": "592cb89eccd4388398ea07a25b621ed9"}, {"is_disabled": 0, "is_reserved": 0, "fusion_lat": 0.0, "lat": 38.892216833333336, "fusion_lon": 0.0, "rental_uris": {"ios": "https://dc.lft.to/lastmile_qr_scan", "android": "https://dc.lft.to/lastmile_qr_scan"}, "lon": -77.03342083333334, "bike_id": "b2df541166cb573f8fc7915d33a6ed31", "type": "electric_scooter", "name": "b2df541166cb573f8fc7915d33a6ed31"}, {"is_disabled": 0, "is_reserved": 0, "fusion_lat": 0.0, "lat": 38.904484833333335, "fusion_lon": 0.0, "rental_uris": {"ios": "https://dc.lft.to/lastmile_qr_scan", "android": "https://dc.lft.to/lastmile_qr_scan"}, "lon": -76.99638583333333, "bike_id": "0d37973d1c2af117455366e6455cabe1", "type": "electric_scooter", "name": "0d37973d1c2af117455366e6455cabe1"}, {"is_disabled": 0, "is_reserved": 0, "fusion_lat": 0.0, "lat": 38.914097, "fusion_lon": 0.0, "rental_uris": {"ios": "https://dc.lft.to/lastmile_qr_scan", "android": "https://dc.lft.to/lastmile_qr_scan"}, "lon": -77.03241033333333, "bike_id": "7fe2b78c90d20799c10fa8255998db4e", "type": "electric_scooter", "name": "7fe2b78c90d20799c10fa8255998db4e"}, {"is_disabled": 0, "is_reserved": 0, "fusion_lat": 0.0, "lat": 38.90694633333333, "fusion_lon": 0.0, "rental_uris": {"ios": "https://dc.lft.to/lastmile_qr_scan", "android": "https://dc.lft.to/lastmile_qr_scan"}, "lon": -77.06329866666667, "bike_id": "5c4368b157873b6c5f23b9838365133d", "type": "electric_scooter", "name": "5c4368b157873b6c5f23b9838365133d"}, {"is_disabled": 0, "is_reserved": 0, "fusion_lat": 0.0, "lat": 38.974740833333335, "fusion_lon": 0.0, "rental_uris": {"ios": "https://dc.lft.to/lastmile_qr_scan", "android": "https://dc.lft.to/lastmile_qr_scan"}, "lon": -77.01490366666667, "bike_id": "ae86d6ed9870c6f71da8ada8f5d9b80e", "type": "electric_scooter", "name": "ae86d6ed9870c6f71da8ada8f5d9b80e"}, {"is_disabled": 0, "is_reserved": 0, "fusion_lat": 0.0, "lat": 38.89482566666667, "fusion_lon": 0.0, "rental_uris": {"ios": "https://dc.lft.to/lastmile_qr_scan", "android": "https://dc.lft.to/lastmile_qr_scan"}, "lon": -76.97883333333333, "bike_id": "aca2d311b196247059f46a1b99285b01", "type": "electric_scooter", "name": "aca2d311b196247059f46a1b99285b01"}, {"is_disabled": 0, "is_reserved": 0, "fusion_lat": 0.0, "lat": 38.91769766666667, "fusion_lon": 0.0, "rental_uris": {"ios": "https://dc.lft.to/lastmile_qr_scan", "android": "https://dc.lft.to/lastmile_qr_scan"}, "lon": -77.02346866666667, "bike_id": "631566e392199423da68f1aba1afab88", "type": "electric_scooter", "name": "631566e392199423da68f1aba1afab88"}, {"is_disabled": 0, "is_reserved": 0, "fusion_lat": 0.0, "lat": 38.90847133333333, "fusion_lon": 0.0, "rental_uris": {"ios": "https://dc.lft.to/lastmile_qr_scan", "android": "https://dc.lft.to/lastmile_qr_scan"}, "lon": -77.0008865, "bike_id": "ff1d4c2fe307aab6bf281483e78f1193", "type": "electric_scooter", "name": "ff1d4c2fe307aab6bf281483e78f1193"}, {"is_disabled": 0, "is_reserved": 0, "fusion_lat": 0.0, "lat": 38.80556966666666, "fusion_lon": 0.0, "rental_uris": {"ios": "https://dc.lft.to/lastmile_qr_scan", "android": "https://dc.lft.to/lastmile_qr_scan"}, "lon": -77.13224966666667, "bike_id": "c886c660fb7b4b10b46ccbac70cd96ed", "type": "electric_bike", "name": "c886c660fb7b4b10b46ccbac70cd96ed"}, {"is_disabled": 0, "is_reserved": 0, "fusion_lat": 0.0, "lat": 38.904675166666664, "fusion_lon": 0.0, "rental_uris": {"ios": "https://dc.lft.to/lastmile_qr_scan", "android": "https://dc.lft.to/lastmile_qr_scan"}, "lon": -77.02817166666667, "bike_id": "f141a1cd5725c258f5ab73f9fa24830b", "type": "electric_scooter", "name": "f141a1cd5725c258f5ab73f9fa24830b"}, {"is_disabled": 0, "is_reserved": 0, "fusion_lat": 0.0, "lat": 38.934587666666665, "fusion_lon": 0.0, "rental_uris": {"ios": "https://dc.lft.to/lastmile_qr_scan", "android": "https://dc.lft.to/lastmile_qr_scan"}, "lon": -77.02405816666666, "bike_id": "239d01da21b8d2cab4e66cf9eb921309", "type": "electric_scooter", "name": "239d01da21b8d2cab4e66cf9eb921309"}, {"is_disabled": 0, "is_reserved": 0, "fusion_lat": 0.0, "lat": 38.89194, "fusion_lon": 0.0, "rental_uris": {"ios": "https://dc.lft.to/lastmile_qr_scan", "android": "https://dc.lft.to/lastmile_qr_scan"}, "lon": -77.031773, "bike_id": "1f1ed48a628e3107a0db91a48e9fcf5d", "type": "electric_scooter", "name": "1f1ed48a628e3107a0db91a48e9fcf5d"}, {"is_disabled": 0, "is_reserved": 0, "fusion_lat": 0.0, "lat": 38.904218666666665, "fusion_lon": 0.0, "rental_uris": {"ios": "https://dc.lft.to/lastmile_qr_scan", "android": "https://dc.lft.to/lastmile_qr_scan"}, "lon": -77.0309645, "bike_id": "35ee3b0171dc92c1b9e56e6d01ab66b1", "type": "electric_scooter", "name": "35ee3b0171dc92c1b9e56e6d01ab66b1"}, {"is_disabled": 0, "is_reserved": 0, "fusion_lat": 0.0, "lat": 38.91637883333333, "fusion_lon": 0.0, "rental_uris": {"ios": "https://dc.lft.to/lastmile_qr_scan", "android": "https://dc.lft.to/lastmile_qr_scan"}, "lon": -77.0051285, "bike_id": "b1d3b310fddf319ea6e113c53da056ff", "type": "electric_scooter", "name": "b1d3b310fddf319ea6e113c53da056ff"}, {"is_disabled": 0, "is_reserved": 0, "fusion_lat": 0.0, "lat": 38.88977166666667, "fusion_lon": 0.0, "rental_uris": {"ios": "https://dc.lft.to/lastmile_qr_scan", "android": "https://dc.lft.to/lastmile_qr_scan"}, "lon": -76.9817975, "bike_id": "4d84b36d15d683e5e0cd328614519170", "type": "electric_scooter", "name": "4d84b36d15d683e5e0cd328614519170"}, {"is_disabled": 0, "is_reserved": 0, "fusion_lat": 0.0, "lat": 38.8886955, "fusion_lon": 0.0, "rental_uris": {"ios": "https://dc.lft.to/lastmile_qr_scan", "android": "https://dc.lft.to/lastmile_qr_scan"}, "lon": -77.00187083333333, "bike_id": "3a3508ac06bb1c70dae1c4a249262955", "type": "electric_scooter", "name": "3a3508ac06bb1c70dae1c4a249262955"}, {"is_disabled": 0, "is_reserved": 0, "fusion_lat": 0.0, "lat": 38.904919, "fusion_lon": 0.0, "rental_uris": {"ios": "https://dc.lft.to/lastmile_qr_scan", "android": "https://dc.lft.to/lastmile_qr_scan"}, "lon": -77.02956333333333, "bike_id": "008c65368419fe401d3ac9606368ddb8", "type": "electric_scooter", "name": "008c65368419fe401d3ac9606368ddb8"}, {"is_disabled": 0, "is_reserved": 0, "fusion_lat": 0.0, "lat": 38.917457166666665, "fusion_lon": 0.0, "rental_uris": {"ios": "https://dc.lft.to/lastmile_qr_scan", "android": "https://dc.lft.to/lastmile_qr_scan"}, "lon": -77.010841, "bike_id": "1ba605dc72fc118530747a19122bf858", "type": "electric_scooter", "name": "1ba605dc72fc118530747a19122bf858"}, {"is_disabled": 0, "is_reserved": 0, "fusion_lat": 0.0, "lat": 38.928291, "fusion_lon": 0.0, "rental_uris": {"ios": "https://dc.lft.to/lastmile_qr_scan", "android": "https://dc.lft.to/lastmile_qr_scan"}, "lon": -77.05973766666666, "bike_id": "12e4ab3baf9fc34fd5d4e30f477b1678", "type": "electric_bike", "name": "12e4ab3baf9fc34fd5d4e30f477b1678"}, {"is_disabled": 0, "is_reserved": 0, "fusion_lat": 0.0, "lat": 38.87636766666667, "fusion_lon": 0.0, "rental_uris": {"ios": "https://dc.lft.to/lastmile_qr_scan", "android": "https://dc.lft.to/lastmile_qr_scan"}, "lon": -77.00211316666666, "bike_id": "18eba2842c22568dcc676bb9ee87c2ad", "type": "electric_scooter", "name": "18eba2842c22568dcc676bb9ee87c2ad"}, {"is_disabled": 0, "is_reserved": 0, "fusion_lat": 0.0, "lat": 38.920781833333336, "fusion_lon": 0.0, "rental_uris": {"ios": "https://dc.lft.to/lastmile_qr_scan", "android": "https://dc.lft.to/lastmile_qr_scan"}, "lon": -77.0230345, "bike_id": "5a1a82bc0b8b6f09d7463f3eb584f97b", "type": "electric_scooter", "name": "5a1a82bc0b8b6f09d7463f3eb584f97b"}, {"is_disabled": 0, "is_reserved": 0, "fusion_lat": 0.0, "lat": 38.91185083333333, "fusion_lon": 0.0, "rental_uris": {"ios": "https://dc.lft.to/lastmile_qr_scan", "android": "https://dc.lft.to/lastmile_qr_scan"}, "lon": -77.01214783333333, "bike_id": "18ed55f18050e301fb321bcd09744256", "type": "electric_scooter", "name": "18ed55f18050e301fb321bcd09744256"}, {"is_disabled": 0, "is_reserved": 0, "fusion_lat": 0.0, "lat": 38.91805133333333, "fusion_lon": 0.0, "rental_uris": {"ios": "https://dc.lft.to/lastmile_qr_scan", "android": "https://dc.lft.to/lastmile_qr_scan"}, "lon": -77.00010783333333, "bike_id": "d7148027d8d4eec627e12f2d6bb2c619", "type": "electric_scooter", "name": "d7148027d8d4eec627e12f2d6bb2c619"}, {"is_disabled": 0, "is_reserved": 0, "fusion_lat": 0.0, "lat": 38.89938933333333, "fusion_lon": 0.0, "rental_uris": {"ios": "https://dc.lft.to/lastmile_qr_scan", "android": "https://dc.lft.to/lastmile_qr_scan"}, "lon": -76.9376235, "bike_id": "08d0267cbe8a7dcf28be1ab2d98470b7", "type": "electric_scooter", "name": "08d0267cbe8a7dcf28be1ab2d98470b7"}, {"is_disabled": 0, "is_reserved": 0, "fusion_lat": 0.0, "lat": 38.908873666666665, "fusion_lon": 0.0, "rental_uris": {"ios": "https://dc.lft.to/lastmile_qr_scan", "android": "https://dc.lft.to/lastmile_qr_scan"}, "lon": -77.07431516666666, "bike_id": "45d2a8bf56384a41b98bbb3103a18e7b", "type": "electric_scooter", "name": "45d2a8bf56384a41b98bbb3103a18e7b"}, {"is_disabled": 0, "is_reserved": 0, "fusion_lat": 0.0, "lat": 38.94174116666667, "fusion_lon": 0.0, "rental_uris": {"ios": "https://dc.lft.to/lastmile_qr_scan", "android": "https://dc.lft.to/lastmile_qr_scan"}, "lon": -77.02538366666667, "bike_id": "e54166ee09a5b80e625c28e011793ef3", "type": "electric_scooter", "name": "e54166ee09a5b80e625c28e011793ef3"}, {"is_disabled": 0, "is_reserved": 0, "fusion_lat": 0.0, "lat": 38.906510833333336, "fusion_lon": 0.0, "rental_uris": {"ios": "https://dc.lft.to/lastmile_qr_scan", "android": "https://dc.lft.to/lastmile_qr_scan"}, "lon": -76.97943333333333, "bike_id": "9dde70edead954e891fcefd87888ea98", "type": "electric_scooter", "name": "9dde70edead954e891fcefd87888ea98"}, {"is_disabled": 0, "is_reserved": 0, "fusion_lat": 0.0, "lat": 38.91653383333333, "fusion_lon": 0.0, "rental_uris": {"ios": "https://dc.lft.to/lastmile_qr_scan", "android": "https://dc.lft.to/lastmile_qr_scan"}, "lon": -77.02394866666667, "bike_id": "5ed78fbf03abea2b1787d60a3b5465b9", "type": "electric_scooter", "name": "5ed78fbf03abea2b1787d60a3b5465b9"}, {"is_disabled": 0, "is_reserved": 0, "fusion_lat": 0.0, "lat": 38.91418083333333, "fusion_lon": 0.0, "rental_uris": {"ios": "https://dc.lft.to/lastmile_qr_scan", "android": "https://dc.lft.to/lastmile_qr_scan"}, "lon": -77.02117183333333, "bike_id": "15f1d4d898db28a79bff7c346c00450e", "type": "electric_scooter", "name": "15f1d4d898db28a79bff7c346c00450e"}, {"is_disabled": 0, "is_reserved": 0, "fusion_lat": 0.0, "lat": 38.921159333333335, "fusion_lon": 0.0, "rental_uris": {"ios": "https://dc.lft.to/lastmile_qr_scan", "android": "https://dc.lft.to/lastmile_qr_scan"}, "lon": -77.0366125, "bike_id": "05b95102d297df9a82d476090654e8ea", "type": "electric_scooter", "name": "05b95102d297df9a82d476090654e8ea"}, {"is_disabled": 0, "is_reserved": 0, "fusion_lat": 0.0, "lat": 38.93198783333333, "fusion_lon": 0.0, "rental_uris": {"ios": "https://dc.lft.to/lastmile_qr_scan", "android": "https://dc.lft.to/lastmile_qr_scan"}, "lon": -77.02454283333333, "bike_id": "cd8e3b35199731077cca4d72b270ea94", "type": "electric_scooter", "name": "cd8e3b35199731077cca4d72b270ea94"}, {"is_disabled": 0, "is_reserved": 0, "fusion_lat": 0.0, "lat": 38.931069666666666, "fusion_lon": 0.0, "rental_uris": {"ios": "https://dc.lft.to/lastmile_qr_scan", "android": "https://dc.lft.to/lastmile_qr_scan"}, "lon": -77.0308895, "bike_id": "cbc852cbec0f8bda49463cce34e90e97", "type": "electric_bike", "name": "cbc852cbec0f8bda49463cce34e90e97"}, {"is_disabled": 0, "is_reserved": 0, "fusion_lat": 0.0, "lat": 38.93701266666667, "fusion_lon": 0.0, "rental_uris": {"ios": "https://dc.lft.to/lastmile_qr_scan", "android": "https://dc.lft.to/lastmile_qr_scan"}, "lon": -77.056029, "bike_id": "38dfc7e1107f934cc011501a7b50d715", "type": "electric_scooter", "name": "38dfc7e1107f934cc011501a7b50d715"}, {"is_disabled": 0, "is_reserved": 0, "fusion_lat": 0.0, "lat": 38.915923, "fusion_lon": 0.0, "rental_uris": {"ios": "https://dc.lft.to/lastmile_qr_scan", "android": "https://dc.lft.to/lastmile_qr_scan"}, "lon": -77.046621, "bike_id": "61e1d134833b61956a331dc87c87588a", "type": "electric_scooter", "name": "61e1d134833b61956a331dc87c87588a"}, {"is_disabled": 0, "is_reserved": 0, "fusion_lat": 0.0, "lat": 38.92073466666667, "fusion_lon": 0.0, "rental_uris": {"ios": "https://dc.lft.to/lastmile_qr_scan", "android": "https://dc.lft.to/lastmile_qr_scan"}, "lon": -77.00460016666666, "bike_id": "87667862e8bfd6b1ba9fa9fa6ffe944b", "type": "electric_scooter", "name": "87667862e8bfd6b1ba9fa9fa6ffe944b"}, {"is_disabled": 0, "is_reserved": 0, "fusion_lat": 0.0, "lat": 38.95306316666667, "fusion_lon": 0.0, "rental_uris": {"ios": "https://dc.lft.to/lastmile_qr_scan", "android": "https://dc.lft.to/lastmile_qr_scan"}, "lon": -77.02020266666666, "bike_id": "ffbe43cb2d318d8f05462c90f0c0c1d1", "type": "electric_scooter", "name": "ffbe43cb2d318d8f05462c90f0c0c1d1"}, {"is_disabled": 0, "is_reserved": 0, "fusion_lat": 0.0, "lat": 38.900220833333336, "fusion_lon": 0.0, "rental_uris": {"ios": "https://dc.lft.to/lastmile_qr_scan", "android": "https://dc.lft.to/lastmile_qr_scan"}, "lon": -77.0121435, "bike_id": "d08ee932c6f4325651d02360f636650e", "type": "electric_scooter", "name": "d08ee932c6f4325651d02360f636650e"}, {"is_disabled": 0, "is_reserved": 0, "fusion_lat": 0.0, "lat": 38.93446733333333, "fusion_lon": 0.0, "rental_uris": {"ios": "https://dc.lft.to/lastmile_qr_scan", "android": "https://dc.lft.to/lastmile_qr_scan"}, "lon": -77.024113, "bike_id": "6e74d0d6d56657e4dab4a418e0ae6223", "type": "electric_scooter", "name": "6e74d0d6d56657e4dab4a418e0ae6223"}, {"is_disabled": 0, "is_reserved": 0, "fusion_lat": 0.0, "lat": 38.90693733333333, "fusion_lon": 0.0, "rental_uris": {"ios": "https://dc.lft.to/lastmile_qr_scan", "android": "https://dc.lft.to/lastmile_qr_scan"}, "lon": -76.95255216666666, "bike_id": "5d39bc0ca9af45773162fbf9d9c38990", "type": "electric_bike", "name": "5d39bc0ca9af45773162fbf9d9c38990"}, {"is_disabled": 0, "is_reserved": 0, "fusion_lat": 0.0, "lat": 38.8835665, "fusion_lon": 0.0, "rental_uris": {"ios": "https://dc.lft.to/lastmile_qr_scan", "android": "https://dc.lft.to/lastmile_qr_scan"}, "lon": -76.95768699999999, "bike_id": "8169c60f509b1277a48272a87fed1110", "type": "electric_scooter", "name": "8169c60f509b1277a48272a87fed1110"}, {"is_disabled": 0, "is_reserved": 0, "fusion_lat": 0.0, "lat": 38.9424795, "fusion_lon": 0.0, "rental_uris": {"ios": "https://dc.lft.to/lastmile_qr_scan", "android": "https://dc.lft.to/lastmile_qr_scan"}, "lon": -76.98456966666667, "bike_id": "651942a189b9f8f44d77196f12927399", "type": "electric_scooter", "name": "651942a189b9f8f44d77196f12927399"}, {"is_disabled": 0, "is_reserved": 0, "fusion_lat": 0.0, "lat": 38.896816666666666, "fusion_lon": 0.0, "rental_uris": {"ios": "https://dc.lft.to/lastmile_qr_scan", "android": "https://dc.lft.to/lastmile_qr_scan"}, "lon": -77.05131483333334, "bike_id": "a9a8ab6d771c53eecaaf2e2b22f4b63b", "type": "electric_scooter", "name": "a9a8ab6d771c53eecaaf2e2b22f4b63b"}, {"is_disabled": 0, "is_reserved": 0, "fusion_lat": 0.0, "lat": 38.89229666666667, "fusion_lon": 0.0, "rental_uris": {"ios": "https://dc.lft.to/lastmile_qr_scan", "android": "https://dc.lft.to/lastmile_qr_scan"}, "lon": -77.05003216666667, "bike_id": "16007ba949ac8d167726f45bb80f9d7e", "type": "electric_scooter", "name": "16007ba949ac8d167726f45bb80f9d7e"}, {"is_disabled": 0, "is_reserved": 0, "fusion_lat": 0.0, "lat": 38.92444116666667, "fusion_lon": 0.0, "rental_uris": {"ios": "https://dc.lft.to/lastmile_qr_scan", "android": "https://dc.lft.to/lastmile_qr_scan"}, "lon": -77.03888033333334, "bike_id": "bab1ed0ed3025227372f67329e1068c6", "type": "electric_scooter", "name": "bab1ed0ed3025227372f67329e1068c6"}, {"is_disabled": 0, "is_reserved": 0, "fusion_lat": 0.0, "lat": 38.947200333333335, "fusion_lon": 0.0, "rental_uris": {"ios": "https://dc.lft.to/lastmile_qr_scan", "android": "https://dc.lft.to/lastmile_qr_scan"}, "lon": -77.0680655, "bike_id": "f04cc377a94237eea24a30ba17877e1b", "type": "electric_scooter", "name": "f04cc377a94237eea24a30ba17877e1b"}, {"is_disabled": 0, "is_reserved": 0, "fusion_lat": 0.0, "lat": 38.895284833333335, "fusion_lon": 0.0, "rental_uris": {"ios": "https://dc.lft.to/lastmile_qr_scan", "android": "https://dc.lft.to/lastmile_qr_scan"}, "lon": -77.0738945, "bike_id": "f909f995fe34f8c10d62437ce4364950", "type": "electric_bike", "name": "f909f995fe34f8c10d62437ce4364950"}, {"is_disabled": 0, "is_reserved": 0, "fusion_lat": 0.0, "lat": 38.9025975, "fusion_lon": 0.0, "rental_uris": {"ios": "https://dc.lft.to/lastmile_qr_scan", "android": "https://dc.lft.to/lastmile_qr_scan"}, "lon": -77.0091835, "bike_id": "dc987fe1aab230466b6c990132ee6890", "type": "electric_scooter", "name": "dc987fe1aab230466b6c990132ee6890"}, {"is_disabled": 0, "is_reserved": 0, "fusion_lat": 0.0, "lat": 38.90771133333333, "fusion_lon": 0.0, "rental_uris": {"ios": "https://dc.lft.to/lastmile_qr_scan", "android": "https://dc.lft.to/lastmile_qr_scan"}, "lon": -77.02391266666666, "bike_id": "bc829b19f8592fa99928ca12467e0493", "type": "electric_scooter", "name": "bc829b19f8592fa99928ca12467e0493"}, {"is_disabled": 0, "is_reserved": 0, "fusion_lat": 0.0, "lat": 38.90811433333333, "fusion_lon": 0.0, "rental_uris": {"ios": "https://dc.lft.to/lastmile_qr_scan", "android": "https://dc.lft.to/lastmile_qr_scan"}, "lon": -77.00610366666666, "bike_id": "a4bc4281b6c74e039455fd3572ae2655", "type": "electric_scooter", "name": "a4bc4281b6c74e039455fd3572ae2655"}, {"is_disabled": 0, "is_reserved": 0, "fusion_lat": 0.0, "lat": 38.88879266666667, "fusion_lon": 0.0, "rental_uris": {"ios": "https://dc.lft.to/lastmile_qr_scan", "android": "https://dc.lft.to/lastmile_qr_scan"}, "lon": -76.957032, "bike_id": "fa18d7f6fe131b9a4d83978778a508e0", "type": "electric_bike", "name": "fa18d7f6fe131b9a4d83978778a508e0"}, {"is_disabled": 0, "is_reserved": 0, "fusion_lat": 0.0, "lat": 38.90185966666667, "fusion_lon": 0.0, "rental_uris": {"ios": "https://dc.lft.to/lastmile_qr_scan", "android": "https://dc.lft.to/lastmile_qr_scan"}, "lon": -77.00215316666667, "bike_id": "528264906e303b2bc1ed8f119bb7d7c0", "type": "electric_scooter", "name": "528264906e303b2bc1ed8f119bb7d7c0"}, {"is_disabled": 0, "is_reserved": 0, "fusion_lat": 0.0, "lat": 38.902816, "fusion_lon": 0.0, "rental_uris": {"ios": "https://dc.lft.to/lastmile_qr_scan", "android": "https://dc.lft.to/lastmile_qr_scan"}, "lon": -77.0398975, "bike_id": "7709de0559815bce4d3fe6889f118bcc", "type": "electric_scooter", "name": "7709de0559815bce4d3fe6889f118bcc"}, {"is_disabled": 0, "is_reserved": 0, "fusion_lat": 0.0, "lat": 38.91929833333333, "fusion_lon": 0.0, "rental_uris": {"ios": "https://dc.lft.to/lastmile_qr_scan", "android": "https://dc.lft.to/lastmile_qr_scan"}, "lon": -77.03124466666667, "bike_id": "fc9b7be7a09c8eac9f7ebf2740e33866", "type": "electric_scooter", "name": "fc9b7be7a09c8eac9f7ebf2740e33866"}, {"is_disabled": 0, "is_reserved": 0, "fusion_lat": 0.0, "lat": 38.91029783333333, "fusion_lon": 0.0, "rental_uris": {"ios": "https://dc.lft.to/lastmile_qr_scan", "android": "https://dc.lft.to/lastmile_qr_scan"}, "lon": -77.0406015, "bike_id": "479952cf78a7d53eefad32c3e8a622d5", "type": "electric_scooter", "name": "479952cf78a7d53eefad32c3e8a622d5"}, {"is_disabled": 0, "is_reserved": 0, "fusion_lat": 0.0, "lat": 38.95097366666667, "fusion_lon": 0.0, "rental_uris": {"ios": "https://dc.lft.to/lastmile_qr_scan", "android": "https://dc.lft.to/lastmile_qr_scan"}, "lon": -77.02204616666667, "bike_id": "8b90f59d6d3ca7ed6158b95ca07dba47", "type": "electric_scooter", "name": "8b90f59d6d3ca7ed6158b95ca07dba47"}, {"is_disabled": 0, "is_reserved": 0, "fusion_lat": 0.0, "lat": 38.947951, "fusion_lon": 0.0, "rental_uris": {"ios": "https://dc.lft.to/lastmile_qr_scan", "android": "https://dc.lft.to/lastmile_qr_scan"}, "lon": -77.078979, "bike_id": "c44f4b509467ef428a0f775f79c2009f", "type": "electric_scooter", "name": "c44f4b509467ef428a0f775f79c2009f"}, {"is_disabled": 0, "is_reserved": 0, "fusion_lat": 0.0, "lat": 38.96380116666667, "fusion_lon": 0.0, "rental_uris": {"ios": "https://dc.lft.to/lastmile_qr_scan", "android": "https://dc.lft.to/lastmile_qr_scan"}, "lon": -77.01980683333333, "bike_id": "2546e98581875f94732af289e8686868", "type": "electric_bike", "name": "2546e98581875f94732af289e8686868"}, {"is_disabled": 0, "is_reserved": 0, "fusion_lat": 0.0, "lat": 38.8847465, "fusion_lon": 0.0, "rental_uris": {"ios": "https://dc.lft.to/lastmile_qr_scan", "android": "https://dc.lft.to/lastmile_qr_scan"}, "lon": -77.03183166666666, "bike_id": "aa397af94d1d86f1ad52b5a13f1346fd", "type": "electric_bike", "name": "aa397af94d1d86f1ad52b5a13f1346fd"}, {"is_disabled": 0, "is_reserved": 0, "fusion_lat": 0.0, "lat": 38.87869966666667, "fusion_lon": 0.0, "rental_uris": {"ios": "https://dc.lft.to/lastmile_qr_scan", "android": "https://dc.lft.to/lastmile_qr_scan"}, "lon": -77.02302083333333, "bike_id": "daaf95b899c50d255bf2be3d2b44cc00", "type": "electric_bike", "name": "daaf95b899c50d255bf2be3d2b44cc00"}, {"is_disabled": 0, "is_reserved": 0, "fusion_lat": 0.0, "lat": 38.92274333333334, "fusion_lon": 0.0, "rental_uris": {"ios": "https://dc.lft.to/lastmile_qr_scan", "android": "https://dc.lft.to/lastmile_qr_scan"}, "lon": -77.02975783333333, "bike_id": "1731f41a2160db01f2ca3d3d80cd6188", "type": "electric_scooter", "name": "1731f41a2160db01f2ca3d3d80cd6188"}, {"is_disabled": 0, "is_reserved": 0, "fusion_lat": 0.0, "lat": 38.92702883333333, "fusion_lon": 0.0, "rental_uris": {"ios": "https://dc.lft.to/lastmile_qr_scan", "android": "https://dc.lft.to/lastmile_qr_scan"}, "lon": -77.01465183333333, "bike_id": "6f9e4e7059c1e36e8bc379aa1de8eb42", "type": "electric_scooter", "name": "6f9e4e7059c1e36e8bc379aa1de8eb42"}, {"is_disabled": 0, "is_reserved": 0, "fusion_lat": 0.0, "lat": 38.9050405, "fusion_lon": 0.0, "rental_uris": {"ios": "https://dc.lft.to/lastmile_qr_scan", "android": "https://dc.lft.to/lastmile_qr_scan"}, "lon": -77.06013333333334, "bike_id": "22b2f48049e81211395002eb3cc039d9", "type": "electric_scooter", "name": "22b2f48049e81211395002eb3cc039d9"}, {"is_disabled": 0, "is_reserved": 0, "fusion_lat": 0.0, "lat": 38.921549666666664, "fusion_lon": 0.0, "rental_uris": {"ios": "https://dc.lft.to/lastmile_qr_scan", "android": "https://dc.lft.to/lastmile_qr_scan"}, "lon": -77.01827283333333, "bike_id": "6fcd868da77b0dc33cff70684e934b88", "type": "electric_scooter", "name": "6fcd868da77b0dc33cff70684e934b88"}, {"is_disabled": 0, "is_reserved": 0, "fusion_lat": 0.0, "lat": 38.930317, "fusion_lon": 0.0, "rental_uris": {"ios": "https://dc.lft.to/lastmile_qr_scan", "android": "https://dc.lft.to/lastmile_qr_scan"}, "lon": -77.02968433333334, "bike_id": "1087f15b06a157fc200b613f0b935cd5", "type": "electric_scooter", "name": "1087f15b06a157fc200b613f0b935cd5"}, {"is_disabled": 0, "is_reserved": 0, "fusion_lat": 0.0, "lat": 38.914009166666666, "fusion_lon": 0.0, "rental_uris": {"ios": "https://dc.lft.to/lastmile_qr_scan", "android": "https://dc.lft.to/lastmile_qr_scan"}, "lon": -77.03089533333333, "bike_id": "52ac1e428eb6ecf894ffa49ba4b939c0", "type": "electric_scooter", "name": "52ac1e428eb6ecf894ffa49ba4b939c0"}, {"is_disabled": 0, "is_reserved": 0, "fusion_lat": 0.0, "lat": 38.9169075, "fusion_lon": 0.0, "rental_uris": {"ios": "https://dc.lft.to/lastmile_qr_scan", "android": "https://dc.lft.to/lastmile_qr_scan"}, "lon": -77.03601433333333, "bike_id": "540549ee01d88e2933595d17d49df7c6", "type": "electric_scooter", "name": "540549ee01d88e2933595d17d49df7c6"}, {"is_disabled": 0, "is_reserved": 0, "fusion_lat": 0.0, "lat": 38.881239666666666, "fusion_lon": 0.0, "rental_uris": {"ios": "https://dc.lft.to/lastmile_qr_scan", "android": "https://dc.lft.to/lastmile_qr_scan"}, "lon": -76.99282016666666, "bike_id": "4f16a664e273e2c34abb00f633140488", "type": "electric_scooter", "name": "4f16a664e273e2c34abb00f633140488"}, {"is_disabled": 0, "is_reserved": 0, "fusion_lat": 0.0, "lat": 38.96017033333333, "fusion_lon": 0.0, "rental_uris": {"ios": "https://dc.lft.to/lastmile_qr_scan", "android": "https://dc.lft.to/lastmile_qr_scan"}, "lon": -77.028231, "bike_id": "ec23e6cfcd8c8dfe81b10d2fb22726f8", "type": "electric_scooter", "name": "ec23e6cfcd8c8dfe81b10d2fb22726f8"}, {"is_disabled": 0, "is_reserved": 0, "fusion_lat": 0.0, "lat": 38.887145333333336, "fusion_lon": 0.0, "rental_uris": {"ios": "https://dc.lft.to/lastmile_qr_scan", "android": "https://dc.lft.to/lastmile_qr_scan"}, "lon": -76.996129, "bike_id": "b48378fc1130fbf6332cc7f676a9338e", "type": "electric_scooter", "name": "b48378fc1130fbf6332cc7f676a9338e"}, {"is_disabled": 0, "is_reserved": 0, "fusion_lat": 0.0, "lat": 38.92836283333333, "fusion_lon": 0.0, "rental_uris": {"ios": "https://dc.lft.to/lastmile_qr_scan", "android": "https://dc.lft.to/lastmile_qr_scan"}, "lon": -77.01386766666667, "bike_id": "87d570185d7becde41ee9b29ee59a152", "type": "electric_scooter", "name": "87d570185d7becde41ee9b29ee59a152"}, {"is_disabled": 0, "is_reserved": 0, "fusion_lat": 0.0, "lat": 38.95653133333333, "fusion_lon": 0.0, "rental_uris": {"ios": "https://dc.lft.to/lastmile_qr_scan", "android": "https://dc.lft.to/lastmile_qr_scan"}, "lon": -77.0196675, "bike_id": "a290a302693d7fb73d6ee6b6eabac681", "type": "electric_scooter", "name": "a290a302693d7fb73d6ee6b6eabac681"}, {"is_disabled": 0, "is_reserved": 0, "fusion_lat": 0.0, "lat": 38.9104725, "fusion_lon": 0.0, "rental_uris": {"ios": "https://dc.lft.to/lastmile_qr_scan", "android": "https://dc.lft.to/lastmile_qr_scan"}, "lon": -77.04343, "bike_id": "411bb5570642b61e623cf0a8c250f25d", "type": "electric_scooter", "name": "411bb5570642b61e623cf0a8c250f25d"}, {"is_disabled": 0, "is_reserved": 0, "fusion_lat": 0.0, "lat": 38.936063833333336, "fusion_lon": 0.0, "rental_uris": {"ios": "https://dc.lft.to/lastmile_qr_scan", "android": "https://dc.lft.to/lastmile_qr_scan"}, "lon": -77.03872666666666, "bike_id": "3bc00261c2ebd146482593f51e110405", "type": "electric_scooter", "name": "3bc00261c2ebd146482593f51e110405"}, {"is_disabled": 0, "is_reserved": 0, "fusion_lat": 0.0, "lat": 38.92856, "fusion_lon": 0.0, "rental_uris": {"ios": "https://dc.lft.to/lastmile_qr_scan", "android": "https://dc.lft.to/lastmile_qr_scan"}, "lon": -77.02880916666666, "bike_id": "e1f1cb57a0b4955a31ff49272ee81f75", "type": "electric_scooter", "name": "e1f1cb57a0b4955a31ff49272ee81f75"}, {"is_disabled": 0, "is_reserved": 0, "fusion_lat": 0.0, "lat": 38.90825433333333, "fusion_lon": 0.0, "rental_uris": {"ios": "https://dc.lft.to/lastmile_qr_scan", "android": "https://dc.lft.to/lastmile_qr_scan"}, "lon": -77.0320195, "bike_id": "508c8cf32e11787ec3636a40c4f812f2", "type": "electric_scooter", "name": "508c8cf32e11787ec3636a40c4f812f2"}, {"is_disabled": 0, "is_reserved": 0, "fusion_lat": 0.0, "lat": 38.900030666666666, "fusion_lon": 0.0, "rental_uris": {"ios": "https://dc.lft.to/lastmile_qr_scan", "android": "https://dc.lft.to/lastmile_qr_scan"}, "lon": -77.0217775, "bike_id": "f44b98064185c22a8e8bdd6816684175", "type": "electric_scooter", "name": "f44b98064185c22a8e8bdd6816684175"}, {"is_disabled": 0, "is_reserved": 0, "fusion_lat": 0.0, "lat": 38.93412883333333, "fusion_lon": 0.0, "rental_uris": {"ios": "https://dc.lft.to/lastmile_qr_scan", "android": "https://dc.lft.to/lastmile_qr_scan"}, "lon": -77.04280983333334, "bike_id": "1c6d6320a2df00becd5ba80b193cfe14", "type": "electric_scooter", "name": "1c6d6320a2df00becd5ba80b193cfe14"}, {"is_disabled": 0, "is_reserved": 0, "fusion_lat": 0.0, "lat": 38.921162333333335, "fusion_lon": 0.0, "rental_uris": {"ios": "https://dc.lft.to/lastmile_qr_scan", "android": "https://dc.lft.to/lastmile_qr_scan"}, "lon": -77.03659083333334, "bike_id": "9023167219da7f0aa326df78e8e58851", "type": "electric_scooter", "name": "9023167219da7f0aa326df78e8e58851"}, {"is_disabled": 0, "is_reserved": 0, "fusion_lat": 0.0, "lat": 38.9088095, "fusion_lon": 0.0, "rental_uris": {"ios": "https://dc.lft.to/lastmile_qr_scan", "android": "https://dc.lft.to/lastmile_qr_scan"}, "lon": -76.9979085, "bike_id": "edd0e44fd1b37b139df5f33af028c2ab", "type": "electric_scooter", "name": "edd0e44fd1b37b139df5f33af028c2ab"}, {"is_disabled": 0, "is_reserved": 0, "fusion_lat": 0.0, "lat": 38.895050166666664, "fusion_lon": 0.0, "rental_uris": {"ios": "https://dc.lft.to/lastmile_qr_scan", "android": "https://dc.lft.to/lastmile_qr_scan"}, "lon": -77.02548633333333, "bike_id": "707ed8d645b64e38473c384f7c47a855", "type": "electric_scooter", "name": "707ed8d645b64e38473c384f7c47a855"}, {"is_disabled": 0, "is_reserved": 0, "fusion_lat": 0.0, "lat": 38.8427685, "fusion_lon": 0.0, "rental_uris": {"ios": "https://dc.lft.to/lastmile_qr_scan", "android": "https://dc.lft.to/lastmile_qr_scan"}, "lon": -76.988424, "bike_id": "07f693ce6e99471a20f0915e729226fe", "type": "electric_bike", "name": "07f693ce6e99471a20f0915e729226fe"}, {"is_disabled": 0, "is_reserved": 0, "fusion_lat": 0.0, "lat": 38.929892333333335, "fusion_lon": 0.0, "rental_uris": {"ios": "https://dc.lft.to/lastmile_qr_scan", "android": "https://dc.lft.to/lastmile_qr_scan"}, "lon": -77.034708, "bike_id": "3ebdbea4d6ad3e28306ec6d0aca401b4", "type": "electric_scooter", "name": "3ebdbea4d6ad3e28306ec6d0aca401b4"}, {"is_disabled": 0, "is_reserved": 0, "fusion_lat": 0.0, "lat": 38.8953845, "fusion_lon": 0.0, "rental_uris": {"ios": "https://dc.lft.to/lastmile_qr_scan", "android": "https://dc.lft.to/lastmile_qr_scan"}, "lon": -77.02657516666666, "bike_id": "46c9f0599d10c1fa97b00713caa39960", "type": "electric_scooter", "name": "46c9f0599d10c1fa97b00713caa39960"}, {"is_disabled": 0, "is_reserved": 0, "fusion_lat": 0.0, "lat": 38.90228066666667, "fusion_lon": 0.0, "rental_uris": {"ios": "https://dc.lft.to/lastmile_qr_scan", "android": "https://dc.lft.to/lastmile_qr_scan"}, "lon": -77.05342283333333, "bike_id": "569054496116f6eac0534a68fd244f78", "type": "electric_scooter", "name": "569054496116f6eac0534a68fd244f78"}, {"is_disabled": 0, "is_reserved": 0, "fusion_lat": 0.0, "lat": 38.8922515, "fusion_lon": 0.0, "rental_uris": {"ios": "https://dc.lft.to/lastmile_qr_scan", "android": "https://dc.lft.to/lastmile_qr_scan"}, "lon": -77.04658683333334, "bike_id": "05e2eaf3001a31d68fe47136ab13c204", "type": "electric_scooter", "name": "05e2eaf3001a31d68fe47136ab13c204"}, {"is_disabled": 0, "is_reserved": 0, "fusion_lat": 0.0, "lat": 38.88709216666667, "fusion_lon": 0.0, "rental_uris": {"ios": "https://dc.lft.to/lastmile_qr_scan", "android": "https://dc.lft.to/lastmile_qr_scan"}, "lon": -76.98385916666666, "bike_id": "355cd1009909401a2fb35647b0ebf434", "type": "electric_scooter", "name": "355cd1009909401a2fb35647b0ebf434"}, {"is_disabled": 0, "is_reserved": 0, "fusion_lat": 0.0, "lat": 38.890063166666664, "fusion_lon": 0.0, "rental_uris": {"ios": "https://dc.lft.to/lastmile_qr_scan", "android": "https://dc.lft.to/lastmile_qr_scan"}, "lon": -76.93742916666666, "bike_id": "321212fc3086d0f64adbcc5c0b5f68f6", "type": "electric_scooter", "name": "321212fc3086d0f64adbcc5c0b5f68f6"}, {"is_disabled": 0, "is_reserved": 0, "fusion_lat": 0.0, "lat": 38.918196, "fusion_lon": 0.0, "rental_uris": {"ios": "https://dc.lft.to/lastmile_qr_scan", "android": "https://dc.lft.to/lastmile_qr_scan"}, "lon": -77.0242785, "bike_id": "c4c102634585ac9b4a7725c42936eaa2", "type": "electric_scooter", "name": "c4c102634585ac9b4a7725c42936eaa2"}, {"is_disabled": 0, "is_reserved": 0, "fusion_lat": 0.0, "lat": 38.901812166666666, "fusion_lon": 0.0, "rental_uris": {"ios": "https://dc.lft.to/lastmile_qr_scan", "android": "https://dc.lft.to/lastmile_qr_scan"}, "lon": -76.97671666666666, "bike_id": "8a843488ffec8b175031d7f023057729", "type": "electric_scooter", "name": "8a843488ffec8b175031d7f023057729"}, {"is_disabled": 0, "is_reserved": 0, "fusion_lat": 0.0, "lat": 38.931185666666664, "fusion_lon": 0.0, "rental_uris": {"ios": "https://dc.lft.to/lastmile_qr_scan", "android": "https://dc.lft.to/lastmile_qr_scan"}, "lon": -77.02072066666666, "bike_id": "b36899210321164d26e35e43a0f81bbc", "type": "electric_scooter", "name": "b36899210321164d26e35e43a0f81bbc"}, {"is_disabled": 0, "is_reserved": 0, "fusion_lat": 0.0, "lat": 38.874787166666664, "fusion_lon": 0.0, "rental_uris": {"ios": "https://dc.lft.to/lastmile_qr_scan", "android": "https://dc.lft.to/lastmile_qr_scan"}, "lon": -77.0107145, "bike_id": "066d0c9269cd84cc55b8b7e34f299011", "type": "electric_scooter", "name": "066d0c9269cd84cc55b8b7e34f299011"}, {"is_disabled": 0, "is_reserved": 0, "fusion_lat": 0.0, "lat": 38.9028855, "fusion_lon": 0.0, "rental_uris": {"ios": "https://dc.lft.to/lastmile_qr_scan", "android": "https://dc.lft.to/lastmile_qr_scan"}, "lon": -77.0227605, "bike_id": "81712fff12269311838955d09e40dc5c", "type": "electric_scooter", "name": "81712fff12269311838955d09e40dc5c"}, {"is_disabled": 0, "is_reserved": 0, "fusion_lat": 0.0, "lat": 38.892229, "fusion_lon": 0.0, "rental_uris": {"ios": "https://dc.lft.to/lastmile_qr_scan", "android": "https://dc.lft.to/lastmile_qr_scan"}, "lon": -77.04865916666667, "bike_id": "269728f304069353a677ea5dde6e3524", "type": "electric_scooter", "name": "269728f304069353a677ea5dde6e3524"}, {"is_disabled": 0, "is_reserved": 0, "fusion_lat": 0.0, "lat": 38.9133555, "fusion_lon": 0.0, "rental_uris": {"ios": "https://dc.lft.to/lastmile_qr_scan", "android": "https://dc.lft.to/lastmile_qr_scan"}, "lon": -77.0165775, "bike_id": "be9484b23a49b3000090fda5438e574f", "type": "electric_scooter", "name": "be9484b23a49b3000090fda5438e574f"}, {"is_disabled": 0, "is_reserved": 0, "fusion_lat": 0.0, "lat": 38.9307255, "fusion_lon": 0.0, "rental_uris": {"ios": "https://dc.lft.to/lastmile_qr_scan", "android": "https://dc.lft.to/lastmile_qr_scan"}, "lon": -77.040282, "bike_id": "5dbe54aa71decc3b8306f45c40d63aa0", "type": "electric_scooter", "name": "5dbe54aa71decc3b8306f45c40d63aa0"}, {"is_disabled": 0, "is_reserved": 0, "fusion_lat": 0.0, "lat": 38.91628583333333, "fusion_lon": 0.0, "rental_uris": {"ios": "https://dc.lft.to/lastmile_qr_scan", "android": "https://dc.lft.to/lastmile_qr_scan"}, "lon": -77.00853616666667, "bike_id": "bb431e8be4ed4554ff6d003a6d0a19e5", "type": "electric_scooter", "name": "bb431e8be4ed4554ff6d003a6d0a19e5"}, {"is_disabled": 0, "is_reserved": 0, "fusion_lat": 0.0, "lat": 38.925495833333336, "fusion_lon": 0.0, "rental_uris": {"ios": "https://dc.lft.to/lastmile_qr_scan", "android": "https://dc.lft.to/lastmile_qr_scan"}, "lon": -77.0032555, "bike_id": "83128cfedd028f1dde18fec62a18be66", "type": "electric_scooter", "name": "83128cfedd028f1dde18fec62a18be66"}, {"is_disabled": 0, "is_reserved": 0, "fusion_lat": 0.0, "lat": 38.936615833333335, "fusion_lon": 0.0, "rental_uris": {"ios": "https://dc.lft.to/lastmile_qr_scan", "android": "https://dc.lft.to/lastmile_qr_scan"}, "lon": -77.06609633333333, "bike_id": "49f1eadb078ec186636100905653f5b1", "type": "electric_scooter", "name": "49f1eadb078ec186636100905653f5b1"}, {"is_disabled": 0, "is_reserved": 0, "fusion_lat": 0.0, "lat": 38.87662816666667, "fusion_lon": 0.0, "rental_uris": {"ios": "https://dc.lft.to/lastmile_qr_scan", "android": "https://dc.lft.to/lastmile_qr_scan"}, "lon": -77.0088235, "bike_id": "34de5810ce534ebb39b51cd3571ad799", "type": "electric_scooter", "name": "34de5810ce534ebb39b51cd3571ad799"}, {"is_disabled": 0, "is_reserved": 0, "fusion_lat": 0.0, "lat": 38.923025, "fusion_lon": 0.0, "rental_uris": {"ios": "https://dc.lft.to/lastmile_qr_scan", "android": "https://dc.lft.to/lastmile_qr_scan"}, "lon": -77.03409583333334, "bike_id": "a4dbecc4449c6f41d2b93559f383a78e", "type": "electric_scooter", "name": "a4dbecc4449c6f41d2b93559f383a78e"}, {"is_disabled": 0, "is_reserved": 0, "fusion_lat": 0.0, "lat": 38.905724166666666, "fusion_lon": 0.0, "rental_uris": {"ios": "https://dc.lft.to/lastmile_qr_scan", "android": "https://dc.lft.to/lastmile_qr_scan"}, "lon": -77.00611583333334, "bike_id": "d4381f849e2a2d07f86b2dcb1c56fc95", "type": "electric_scooter", "name": "d4381f849e2a2d07f86b2dcb1c56fc95"}, {"is_disabled": 0, "is_reserved": 0, "fusion_lat": 0.0, "lat": 38.898443666666665, "fusion_lon": 0.0, "rental_uris": {"ios": "https://dc.lft.to/lastmile_qr_scan", "android": "https://dc.lft.to/lastmile_qr_scan"}, "lon": -77.00211266666666, "bike_id": "f238adc8383de216c14dd57079845c5f", "type": "electric_scooter", "name": "f238adc8383de216c14dd57079845c5f"}, {"is_disabled": 0, "is_reserved": 0, "fusion_lat": 0.0, "lat": 38.8945705, "fusion_lon": 0.0, "rental_uris": {"ios": "https://dc.lft.to/lastmile_qr_scan", "android": "https://dc.lft.to/lastmile_qr_scan"}, "lon": -76.93678266666667, "bike_id": "cfd6213ae0c7950b29e748fbd16f682e", "type": "electric_bike", "name": "cfd6213ae0c7950b29e748fbd16f682e"}, {"is_disabled": 0, "is_reserved": 0, "fusion_lat": 0.0, "lat": 38.9170625, "fusion_lon": 0.0, "rental_uris": {"ios": "https://dc.lft.to/lastmile_qr_scan", "android": "https://dc.lft.to/lastmile_qr_scan"}, "lon": -77.04146033333333, "bike_id": "80e8b8b08db6305dcd76ab6bbc7d4f55", "type": "electric_scooter", "name": "80e8b8b08db6305dcd76ab6bbc7d4f55"}, {"is_disabled": 0, "is_reserved": 0, "fusion_lat": 0.0, "lat": 38.974397833333335, "fusion_lon": 0.0, "rental_uris": {"ios": "https://dc.lft.to/lastmile_qr_scan", "android": "https://dc.lft.to/lastmile_qr_scan"}, "lon": -77.09619016666667, "bike_id": "6ec99ba9ec3383ce59c8441dc71486c9", "type": "electric_bike", "name": "6ec99ba9ec3383ce59c8441dc71486c9"}, {"is_disabled": 0, "is_reserved": 0, "fusion_lat": 0.0, "lat": 38.897274333333336, "fusion_lon": 0.0, "rental_uris": {"ios": "https://dc.lft.to/lastmile_qr_scan", "android": "https://dc.lft.to/lastmile_qr_scan"}, "lon": -77.0290725, "bike_id": "73f286a85ae444915d9ec59a095ef359", "type": "electric_scooter", "name": "73f286a85ae444915d9ec59a095ef359"}, {"is_disabled": 0, "is_reserved": 0, "fusion_lat": 0.0, "lat": 38.918346166666666, "fusion_lon": 0.0, "rental_uris": {"ios": "https://dc.lft.to/lastmile_qr_scan", "android": "https://dc.lft.to/lastmile_qr_scan"}, "lon": -77.02287633333333, "bike_id": "294fc62d1f69d5f613b0457fbaa1428d", "type": "electric_scooter", "name": "294fc62d1f69d5f613b0457fbaa1428d"}, {"is_disabled": 0, "is_reserved": 0, "fusion_lat": 0.0, "lat": 38.926502166666666, "fusion_lon": 0.0, "rental_uris": {"ios": "https://dc.lft.to/lastmile_qr_scan", "android": "https://dc.lft.to/lastmile_qr_scan"}, "lon": -77.09026366666667, "bike_id": "883072d66c5778fb9af28d2d39ecd488", "type": "electric_bike", "name": "883072d66c5778fb9af28d2d39ecd488"}, {"is_disabled": 0, "is_reserved": 0, "fusion_lat": 0.0, "lat": 38.9393055, "fusion_lon": 0.0, "rental_uris": {"ios": "https://dc.lft.to/lastmile_qr_scan", "android": "https://dc.lft.to/lastmile_qr_scan"}, "lon": -77.02581483333333, "bike_id": "6d93619b86ac4b0df298cb10169699c5", "type": "electric_scooter", "name": "6d93619b86ac4b0df298cb10169699c5"}, {"is_disabled": 0, "is_reserved": 0, "fusion_lat": 0.0, "lat": 38.90322533333333, "fusion_lon": 0.0, "rental_uris": {"ios": "https://dc.lft.to/lastmile_qr_scan", "android": "https://dc.lft.to/lastmile_qr_scan"}, "lon": -76.975454, "bike_id": "c1c0aa22fe2d9c1930235fb9daca67c9", "type": "electric_scooter", "name": "c1c0aa22fe2d9c1930235fb9daca67c9"}, {"is_disabled": 0, "is_reserved": 0, "fusion_lat": 0.0, "lat": 38.916932833333334, "fusion_lon": 0.0, "rental_uris": {"ios": "https://dc.lft.to/lastmile_qr_scan", "android": "https://dc.lft.to/lastmile_qr_scan"}, "lon": -77.02574766666666, "bike_id": "5bc68fcfeef5fc459cd94e92cc5c0e26", "type": "electric_scooter", "name": "5bc68fcfeef5fc459cd94e92cc5c0e26"}, {"is_disabled": 0, "is_reserved": 0, "fusion_lat": 0.0, "lat": 38.895623, "fusion_lon": 0.0, "rental_uris": {"ios": "https://dc.lft.to/lastmile_qr_scan", "android": "https://dc.lft.to/lastmile_qr_scan"}, "lon": -77.127389, "bike_id": "d7b430fd3feaec8d779275c4a46cd047", "type": "electric_bike", "name": "d7b430fd3feaec8d779275c4a46cd047"}, {"is_disabled": 0, "is_reserved": 0, "fusion_lat": 0.0, "lat": 38.89012683333333, "fusion_lon": 0.0, "rental_uris": {"ios": "https://dc.lft.to/lastmile_qr_scan", "android": "https://dc.lft.to/lastmile_qr_scan"}, "lon": -76.9373565, "bike_id": "56c80c36da18d37bcdcaf2b4d2e31229", "type": "electric_scooter", "name": "56c80c36da18d37bcdcaf2b4d2e31229"}, {"is_disabled": 0, "is_reserved": 0, "fusion_lat": 0.0, "lat": 38.89710433333333, "fusion_lon": 0.0, "rental_uris": {"ios": "https://dc.lft.to/lastmile_qr_scan", "android": "https://dc.lft.to/lastmile_qr_scan"}, "lon": -76.9391355, "bike_id": "456b7f79febca342a607c15c07f9a974", "type": "electric_scooter", "name": "456b7f79febca342a607c15c07f9a974"}, {"is_disabled": 0, "is_reserved": 0, "fusion_lat": 0.0, "lat": 38.90565083333333, "fusion_lon": 0.0, "rental_uris": {"ios": "https://dc.lft.to/lastmile_qr_scan", "android": "https://dc.lft.to/lastmile_qr_scan"}, "lon": -77.00876433333333, "bike_id": "1f17c96e264ee31c1f57ddc216cb41d1", "type": "electric_scooter", "name": "1f17c96e264ee31c1f57ddc216cb41d1"}, {"is_disabled": 0, "is_reserved": 0, "fusion_lat": 0.0, "lat": 38.971562166666665, "fusion_lon": 0.0, "rental_uris": {"ios": "https://dc.lft.to/lastmile_qr_scan", "android": "https://dc.lft.to/lastmile_qr_scan"}, "lon": -76.98364283333333, "bike_id": "85d404df0a56996c3e92c34c02b5244c", "type": "electric_bike", "name": "85d404df0a56996c3e92c34c02b5244c"}, {"is_disabled": 0, "is_reserved": 0, "fusion_lat": 0.0, "lat": 38.8948875, "fusion_lon": 0.0, "rental_uris": {"ios": "https://dc.lft.to/lastmile_qr_scan", "android": "https://dc.lft.to/lastmile_qr_scan"}, "lon": -77.00982716666667, "bike_id": "e03dd97413d57ffc002b4a30c40fb16a", "type": "electric_scooter", "name": "e03dd97413d57ffc002b4a30c40fb16a"}, {"is_disabled": 0, "is_reserved": 0, "fusion_lat": 0.0, "lat": 38.9212925, "fusion_lon": 0.0, "rental_uris": {"ios": "https://dc.lft.to/lastmile_qr_scan", "android": "https://dc.lft.to/lastmile_qr_scan"}, "lon": -76.99383533333334, "bike_id": "301e043c4c5939ce95d90f68d2d49423", "type": "electric_scooter", "name": "301e043c4c5939ce95d90f68d2d49423"}, {"is_disabled": 0, "is_reserved": 0, "fusion_lat": 0.0, "lat": 38.9156255, "fusion_lon": 0.0, "rental_uris": {"ios": "https://dc.lft.to/lastmile_qr_scan", "android": "https://dc.lft.to/lastmile_qr_scan"}, "lon": -77.03190316666667, "bike_id": "9ad27ea21034f989945b85c8654db615", "type": "electric_scooter", "name": "9ad27ea21034f989945b85c8654db615"}, {"is_disabled": 0, "is_reserved": 0, "fusion_lat": 0.0, "lat": 38.90065833333333, "fusion_lon": 0.0, "rental_uris": {"ios": "https://dc.lft.to/lastmile_qr_scan", "android": "https://dc.lft.to/lastmile_qr_scan"}, "lon": -76.94978383333333, "bike_id": "16259c4485c823eb6c96256f3981eaab", "type": "electric_scooter", "name": "16259c4485c823eb6c96256f3981eaab"}, {"is_disabled": 0, "is_reserved": 0, "fusion_lat": 0.0, "lat": 38.909586, "fusion_lon": 0.0, "rental_uris": {"ios": "https://dc.lft.to/lastmile_qr_scan", "android": "https://dc.lft.to/lastmile_qr_scan"}, "lon": -77.034193, "bike_id": "e3412b06cb97c7f04e819827d221f8e1", "type": "electric_scooter", "name": "e3412b06cb97c7f04e819827d221f8e1"}, {"is_disabled": 0, "is_reserved": 0, "fusion_lat": 0.0, "lat": 38.927907833333336, "fusion_lon": 0.0, "rental_uris": {"ios": "https://dc.lft.to/lastmile_qr_scan", "android": "https://dc.lft.to/lastmile_qr_scan"}, "lon": -77.02134616666666, "bike_id": "450a9a7310776e09e08dc9e1400dc372", "type": "electric_scooter", "name": "450a9a7310776e09e08dc9e1400dc372"}, {"is_disabled": 0, "is_reserved": 0, "fusion_lat": 0.0, "lat": 38.881598833333335, "fusion_lon": 0.0, "rental_uris": {"ios": "https://dc.lft.to/lastmile_qr_scan", "android": "https://dc.lft.to/lastmile_qr_scan"}, "lon": -77.02765616666667, "bike_id": "28919813c23d5246cb427e1c8c119abe", "type": "electric_scooter", "name": "28919813c23d5246cb427e1c8c119abe"}, {"is_disabled": 0, "is_reserved": 0, "fusion_lat": 0.0, "lat": 38.952357, "fusion_lon": 0.0, "rental_uris": {"ios": "https://dc.lft.to/lastmile_qr_scan", "android": "https://dc.lft.to/lastmile_qr_scan"}, "lon": -76.98249483333333, "bike_id": "79b07a5130d0b8effd0e6937906be624", "type": "electric_bike", "name": "79b07a5130d0b8effd0e6937906be624"}, {"is_disabled": 0, "is_reserved": 0, "fusion_lat": 0.0, "lat": 38.891941, "fusion_lon": 0.0, "rental_uris": {"ios": "https://dc.lft.to/lastmile_qr_scan", "android": "https://dc.lft.to/lastmile_qr_scan"}, "lon": -77.0317945, "bike_id": "4bf3fe2225510fd5e3dd567c968ac6ea", "type": "electric_scooter", "name": "4bf3fe2225510fd5e3dd567c968ac6ea"}, {"is_disabled": 0, "is_reserved": 0, "fusion_lat": 0.0, "lat": 38.925063333333334, "fusion_lon": 0.0, "rental_uris": {"ios": "https://dc.lft.to/lastmile_qr_scan", "android": "https://dc.lft.to/lastmile_qr_scan"}, "lon": -77.02444883333334, "bike_id": "66d51ca593d63e75dd864fa8d1975ae4", "type": "electric_scooter", "name": "66d51ca593d63e75dd864fa8d1975ae4"}, {"is_disabled": 0, "is_reserved": 0, "fusion_lat": 0.0, "lat": 38.928078666666664, "fusion_lon": 0.0, "rental_uris": {"ios": "https://dc.lft.to/lastmile_qr_scan", "android": "https://dc.lft.to/lastmile_qr_scan"}, "lon": -77.04341333333333, "bike_id": "fc8d88ee5c1ebf11c70a12c437150263", "type": "electric_scooter", "name": "fc8d88ee5c1ebf11c70a12c437150263"}, {"is_disabled": 0, "is_reserved": 0, "fusion_lat": 0.0, "lat": 38.90199616666666, "fusion_lon": 0.0, "rental_uris": {"ios": "https://dc.lft.to/lastmile_qr_scan", "android": "https://dc.lft.to/lastmile_qr_scan"}, "lon": -77.05086233333333, "bike_id": "aa16bfd5d8554f5022775833793a9360", "type": "electric_scooter", "name": "aa16bfd5d8554f5022775833793a9360"}, {"is_disabled": 0, "is_reserved": 0, "fusion_lat": 0.0, "lat": 38.924214166666665, "fusion_lon": 0.0, "rental_uris": {"ios": "https://dc.lft.to/lastmile_qr_scan", "android": "https://dc.lft.to/lastmile_qr_scan"}, "lon": -77.023008, "bike_id": "8b639a55b7874996eca780321eb7faba", "type": "electric_scooter", "name": "8b639a55b7874996eca780321eb7faba"}, {"is_disabled": 0, "is_reserved": 0, "fusion_lat": 0.0, "lat": 38.93099183333333, "fusion_lon": 0.0, "rental_uris": {"ios": "https://dc.lft.to/lastmile_qr_scan", "android": "https://dc.lft.to/lastmile_qr_scan"}, "lon": -77.0247645, "bike_id": "4d4cdf4035ba6188a3d61694c878d6f9", "type": "electric_scooter", "name": "4d4cdf4035ba6188a3d61694c878d6f9"}, {"is_disabled": 0, "is_reserved": 0, "fusion_lat": 0.0, "lat": 38.9265775, "fusion_lon": 0.0, "rental_uris": {"ios": "https://dc.lft.to/lastmile_qr_scan", "android": "https://dc.lft.to/lastmile_qr_scan"}, "lon": -77.0243255, "bike_id": "7482f44250ebc4e427e4462248ea0e60", "type": "electric_scooter", "name": "7482f44250ebc4e427e4462248ea0e60"}, {"is_disabled": 0, "is_reserved": 0, "fusion_lat": 0.0, "lat": 38.94719683333334, "fusion_lon": 0.0, "rental_uris": {"ios": "https://dc.lft.to/lastmile_qr_scan", "android": "https://dc.lft.to/lastmile_qr_scan"}, "lon": -77.023577, "bike_id": "3b37ee66507e602e53f9076e15400179", "type": "electric_scooter", "name": "3b37ee66507e602e53f9076e15400179"}, {"is_disabled": 0, "is_reserved": 0, "fusion_lat": 0.0, "lat": 38.913328666666665, "fusion_lon": 0.0, "rental_uris": {"ios": "https://dc.lft.to/lastmile_qr_scan", "android": "https://dc.lft.to/lastmile_qr_scan"},