{"data": {"bikes": [{"fusion_lat": 0.0, "bike_id": "a349028e15ff5efd3bd56e202adf6f00", "fusion_lon": 0.0, "lon": -76.93057066666667, "lat": 38.901533666666666, "is_reserved": 0, "is_disabled": 0, "rental_uris": {"android": "https://dc.lft.to/lastmile_qr_scan", "ios": "https://dc.lft.to/lastmile_qr_scan"}, "name": "a349028e15ff5efd3bd56e202adf6f00", "type": "electric_scooter"}, {"fusion_lat": 0.0, "bike_id": "d5c45f2b99ee4bac518ca6a761aa2fe7", "fusion_lon": 0.0, "lon": -77.021952, "lat": 38.920812166666664, "is_reserved": 0, "is_disabled": 0, "rental_uris": {"android": "https://dc.lft.to/lastmile_qr_scan", "ios": "https://dc.lft.to/lastmile_qr_scan"}, "name": "d5c45f2b99ee4bac518ca6a761aa2fe7", "type": "electric_scooter"}, {"fusion_lat": 0.0, "bike_id": "a258bf13923cbc7703e6a99d5d6f360a", "fusion_lon": 0.0, "lon": -77.02005616666666, "lat": 38.919093333333336, "is_reserved": 0, "is_disabled": 0, "rental_uris": {"android": "https://dc.lft.to/lastmile_qr_scan", "ios": "https://dc.lft.to/lastmile_qr_scan"}, "name": "a258bf13923cbc7703e6a99d5d6f360a", "type": "electric_scooter"}, {"fusion_lat": 0.0, "bike_id": "68c4c5259e70df73f519590ce257563e", "fusion_lon": 0.0, "lon": -77.047678, "lat": 38.9214015, "is_reserved": 0, "is_disabled": 0, "rental_uris": {"android": "https://dc.lft.to/lastmile_qr_scan", "ios": "https://dc.lft.to/lastmile_qr_scan"}, "name": "68c4c5259e70df73f519590ce257563e", "type": "electric_scooter"}, {"fusion_lat": 0.0, "bike_id": "133f8103af57b9fb5aa7e6873e3d2e65", "fusion_lon": 0.0, "lon": -77.02467483333334, "lat": 38.941960333333334, "is_reserved": 0, "is_disabled": 0, "rental_uris": {"android": "https://dc.lft.to/lastmile_qr_scan", "ios": "https://dc.lft.to/lastmile_qr_scan"}, "name": "133f8103af57b9fb5aa7e6873e3d2e65", "type": "electric_scooter"}, {"fusion_lat": 0.0, "bike_id": "7e34c7e7f127b87cb019105476b0e933", "fusion_lon": 0.0, "lon": -77.04164666666667, "lat": 38.90108633333333, "is_reserved": 0, "is_disabled": 0, "rental_uris": {"android": "https://dc.lft.to/lastmile_qr_scan", "ios": "https://dc.lft.to/lastmile_qr_scan"}, "name": "7e34c7e7f127b87cb019105476b0e933", "type": "electric_scooter"}, {"fusion_lat": 0.0, "bike_id": "852afa562580711ad8d4e048fdb224b2", "fusion_lon": 0.0, "lon": -77.0131865, "lat": 38.89602716666667, "is_reserved": 0, "is_disabled": 0, "rental_uris": {"android": "https://dc.lft.to/lastmile_qr_scan", "ios": "https://dc.lft.to/lastmile_qr_scan"}, "name": "852afa562580711ad8d4e048fdb224b2", "type": "electric_bike"}, {"fusion_lat": 0.0, "bike_id": "340175f14e7d39887b5007fdd2fbebc1", "fusion_lon": 0.0, "lon": -76.9626105, "lat": 38.88245933333334, "is_reserved": 0, "is_disabled": 0, "rental_uris": {"android": "https://dc.lft.to/lastmile_qr_scan", "ios": "https://dc.lft.to/lastmile_qr_scan"}, "name": "340175f14e7d39887b5007fdd2fbebc1", "type": "electric_bike"}, {"fusion_lat": 0.0, "bike_id": "9c6298c58f3a12b3490c34a325566e81", "fusion_lon": 0.0, "lon": -77.02467866666667, "lat": 38.938549333333334, "is_reserved": 0, "is_disabled": 0, "rental_uris": {"android": "https://dc.lft.to/lastmile_qr_scan", "ios": "https://dc.lft.to/lastmile_qr_scan"}, "name": "9c6298c58f3a12b3490c34a325566e81", "type": "electric_scooter"}, {"fusion_lat": 0.0, "bike_id": "26c97ea2c986b6156c728762ea9143a3", "fusion_lon": 0.0, "lon": -77.03924683333334, "lat": 38.918466, "is_reserved": 0, "is_disabled": 0, "rental_uris": {"android": "https://dc.lft.to/lastmile_qr_scan", "ios": "https://dc.lft.to/lastmile_qr_scan"}, "name": "26c97ea2c986b6156c728762ea9143a3", "type": "electric_scooter"}, {"fusion_lat": 0.0, "bike_id": "3feb66cb4b945aef8394ab47882cef75", "fusion_lon": 0.0, "lon": -76.99651816666666, "lat": 38.8967565, "is_reserved": 0, "is_disabled": 0, "rental_uris": {"android": "https://dc.lft.to/lastmile_qr_scan", "ios": "https://dc.lft.to/lastmile_qr_scan"}, "name": "3feb66cb4b945aef8394ab47882cef75", "type": "electric_scooter"}, {"fusion_lat": 0.0, "bike_id": "592ff0561e9b298128b0f595e07d6067", "fusion_lon": 0.0, "lon": -77.00132033333334, "lat": 38.8947115, "is_reserved": 0, "is_disabled": 0, "rental_uris": {"android": "https://dc.lft.to/lastmile_qr_scan", "ios": "https://dc.lft.to/lastmile_qr_scan"}, "name": "592ff0561e9b298128b0f595e07d6067", "type": "electric_scooter"}, {"fusion_lat": 0.0, "bike_id": "a4ca8f6d57a35e6d4252a496e56f0595", "fusion_lon": 0.0, "lon": -77.00676966666667, "lat": 38.900199666666666, "is_reserved": 0, "is_disabled": 0, "rental_uris": {"android": "https://dc.lft.to/lastmile_qr_scan", "ios": "https://dc.lft.to/lastmile_qr_scan"}, "name": "a4ca8f6d57a35e6d4252a496e56f0595", "type": "electric_scooter"}, {"fusion_lat": 0.0, "bike_id": "18989590c43afbb0aaaa43aca71ff0b0", "fusion_lon": 0.0, "lon": -76.97322616666666, "lat": 38.9040705, "is_reserved": 0, "is_disabled": 0, "rental_uris": {"android": "https://dc.lft.to/lastmile_qr_scan", "ios": "https://dc.lft.to/lastmile_qr_scan"}, "name": "18989590c43afbb0aaaa43aca71ff0b0", "type": "electric_scooter"}, {"fusion_lat": 0.0, "bike_id": "927ed933afc28a9e3d1c470e9a2f0385", "fusion_lon": 0.0, "lon": -77.01891016666667, "lat": 38.9329455, "is_reserved": 0, "is_disabled": 0, "rental_uris": {"android": "https://dc.lft.to/lastmile_qr_scan", "ios": "https://dc.lft.to/lastmile_qr_scan"}, "name": "927ed933afc28a9e3d1c470e9a2f0385", "type": "electric_scooter"}, {"fusion_lat": 0.0, "bike_id": "7bf805ac6c45379b48ab939361fb0c97", "fusion_lon": 0.0, "lon": -76.98506983333333, "lat": 38.8601315, "is_reserved": 0, "is_disabled": 0, "rental_uris": {"android": "https://dc.lft.to/lastmile_qr_scan", "ios": "https://dc.lft.to/lastmile_qr_scan"}, "name": "7bf805ac6c45379b48ab939361fb0c97", "type": "electric_scooter"}, {"fusion_lat": 0.0, "bike_id": "d5d328004d5fc7f2ee388feb7cfcce9d", "fusion_lon": 0.0, "lon": -76.98943016666666, "lat": 38.866948, "is_reserved": 0, "is_disabled": 0, "rental_uris": {"android": "https://dc.lft.to/lastmile_qr_scan", "ios": "https://dc.lft.to/lastmile_qr_scan"}, "name": "d5d328004d5fc7f2ee388feb7cfcce9d", "type": "electric_bike"}, {"fusion_lat": 0.0, "bike_id": "50e5a126d3943e40df13e819478010fd", "fusion_lon": 0.0, "lon": -76.985932, "lat": 38.86683716666667, "is_reserved": 0, "is_disabled": 0, "rental_uris": {"android": "https://dc.lft.to/lastmile_qr_scan", "ios": "https://dc.lft.to/lastmile_qr_scan"}, "name": "50e5a126d3943e40df13e819478010fd", "type": "electric_scooter"}, {"fusion_lat": 0.0, "bike_id": "0f5c37377d3ee554e8e336cc24cfcf00", "fusion_lon": 0.0, "lon": -77.02424016666667, "lat": 38.918142333333336, "is_reserved": 0, "is_disabled": 0, "rental_uris": {"android": "https://dc.lft.to/lastmile_qr_scan", "ios": "https://dc.lft.to/lastmile_qr_scan"}, "name": "0f5c37377d3ee554e8e336cc24cfcf00", "type": "electric_scooter"}, {"fusion_lat": 0.0, "bike_id": "9d1eb9d2968af997b3149e8147292081", "fusion_lon": 0.0, "lon": -76.98955016666666, "lat": 38.90371583333334, "is_reserved": 0, "is_disabled": 0, "rental_uris": {"android": "https://dc.lft.to/lastmile_qr_scan", "ios": "https://dc.lft.to/lastmile_qr_scan"}, "name": "9d1eb9d2968af997b3149e8147292081", "type": "electric_scooter"}, {"fusion_lat": 0.0, "bike_id": "7de8192f0572b559408f82a39f406bda", "fusion_lon": 0.0, "lon": -77.05042483333334, "lat": 38.9052095, "is_reserved": 0, "is_disabled": 0, "rental_uris": {"android": "https://dc.lft.to/lastmile_qr_scan", "ios": "https://dc.lft.to/lastmile_qr_scan"}, "name": "7de8192f0572b559408f82a39f406bda", "type": "electric_scooter"}, {"fusion_lat": 0.0, "bike_id": "a2a69f5edf61342082a6daa51e9d3445", "fusion_lon": 0.0, "lon": -77.03213933333333, "lat": 38.91627866666666, "is_reserved": 0, "is_disabled": 0, "rental_uris": {"android": "https://dc.lft.to/lastmile_qr_scan", "ios": "https://dc.lft.to/lastmile_qr_scan"}, "name": "a2a69f5edf61342082a6daa51e9d3445", "type": "electric_scooter"}, {"fusion_lat": 0.0, "bike_id": "9fead244c8c5d096559fe54669f5c1d7", "fusion_lon": 0.0, "lon": -77.04898266666666, "lat": 38.89224883333333, "is_reserved": 0, "is_disabled": 0, "rental_uris": {"android": "https://dc.lft.to/lastmile_qr_scan", "ios": "https://dc.lft.to/lastmile_qr_scan"}, "name": "9fead244c8c5d096559fe54669f5c1d7", "type": "electric_scooter"}, {"fusion_lat": 0.0, "bike_id": "512aae09630db79bf8cda83e312256fb", "fusion_lon": 0.0, "lon": -77.03178583333333, "lat": 38.896243, "is_reserved": 0, "is_disabled": 0, "rental_uris": {"android": "https://dc.lft.to/lastmile_qr_scan", "ios": "https://dc.lft.to/lastmile_qr_scan"}, "name": "512aae09630db79bf8cda83e312256fb", "type": "electric_scooter"}, {"fusion_lat": 0.0, "bike_id": "9af26e455f6b8b2799ec93802dd12a1c", "fusion_lon": 0.0, "lon": -76.99695866666667, "lat": 38.845457, "is_reserved": 0, "is_disabled": 0, "rental_uris": {"android": "https://dc.lft.to/lastmile_qr_scan", "ios": "https://dc.lft.to/lastmile_qr_scan"}, "name": "9af26e455f6b8b2799ec93802dd12a1c", "type": "electric_scooter"}, {"fusion_lat": 0.0, "bike_id": "8d9dfdadf123d4eb167721d002a07e37", "fusion_lon": 0.0, "lon": -77.032124, "lat": 38.91692716666667, "is_reserved": 0, "is_disabled": 0, "rental_uris": {"android": "https://dc.lft.to/lastmile_qr_scan", "ios": "https://dc.lft.to/lastmile_qr_scan"}, "name": "8d9dfdadf123d4eb167721d002a07e37", "type": "electric_scooter"}, {"fusion_lat": 0.0, "bike_id": "3744252484cbae81a66f57a8b942befa", "fusion_lon": 0.0, "lon": -77.055746, "lat": 38.915984, "is_reserved": 0, "is_disabled": 0, "rental_uris": {"android": "https://dc.lft.to/lastmile_qr_scan", "ios": "https://dc.lft.to/lastmile_qr_scan"}, "name": "3744252484cbae81a66f57a8b942befa", "type": "electric_scooter"}, {"fusion_lat": 0.0, "bike_id": "e5987c7aaafb5e0023d8ac547fe68eb3", "fusion_lon": 0.0, "lon": -76.9730835, "lat": 38.96334983333333, "is_reserved": 0, "is_disabled": 0, "rental_uris": {"android": "https://dc.lft.to/lastmile_qr_scan", "ios": "https://dc.lft.to/lastmile_qr_scan"}, "name": "e5987c7aaafb5e0023d8ac547fe68eb3", "type": "electric_bike"}, {"fusion_lat": 0.0, "bike_id": "1ee98615848802504b0fa794a707a919", "fusion_lon": 0.0, "lon": -77.02814516666666, "lat": 38.904924, "is_reserved": 0, "is_disabled": 0, "rental_uris": {"android": "https://dc.lft.to/lastmile_qr_scan", "ios": "https://dc.lft.to/lastmile_qr_scan"}, "name": "1ee98615848802504b0fa794a707a919", "type": "electric_scooter"}, {"fusion_lat": 0.0, "bike_id": "fb9e31fab97ea67c6973485c54328adc", "fusion_lon": 0.0, "lon": -76.94570866666666, "lat": 38.86617283333333, "is_reserved": 0, "is_disabled": 0, "rental_uris": {"android": "https://dc.lft.to/lastmile_qr_scan", "ios": "https://dc.lft.to/lastmile_qr_scan"}, "name": "fb9e31fab97ea67c6973485c54328adc", "type": "electric_bike"}, {"fusion_lat": 0.0, "bike_id": "048e09f2e9047e9310fbf7b86f1a8554", "fusion_lon": 0.0, "lon": -77.02318583333333, "lat": 38.92798066666667, "is_reserved": 0, "is_disabled": 0, "rental_uris": {"android": "https://dc.lft.to/lastmile_qr_scan", "ios": "https://dc.lft.to/lastmile_qr_scan"}, "name": "048e09f2e9047e9310fbf7b86f1a8554", "type": "electric_scooter"}, {"fusion_lat": 0.0, "bike_id": "94e3671cfc76ed2e101738e0ce320e72", "fusion_lon": 0.0, "lon": -77.039857, "lat": 38.925977833333334, "is_reserved": 0, "is_disabled": 0, "rental_uris": {"android": "https://dc.lft.to/lastmile_qr_scan", "ios": "https://dc.lft.to/lastmile_qr_scan"}, "name": "94e3671cfc76ed2e101738e0ce320e72", "type": "electric_scooter"}, {"fusion_lat": 0.0, "bike_id": "705c63314207ee4e8bde5c9a106faa78", "fusion_lon": 0.0, "lon": -77.022391, "lat": 38.92425566666667, "is_reserved": 0, "is_disabled": 0, "rental_uris": {"android": "https://dc.lft.to/lastmile_qr_scan", "ios": "https://dc.lft.to/lastmile_qr_scan"}, "name": "705c63314207ee4e8bde5c9a106faa78", "type": "electric_scooter"}, {"fusion_lat": 0.0, "bike_id": "48e28525e095166773b77040f6b014f1", "fusion_lon": 0.0, "lon": -77.04106816666666, "lat": 38.89851216666667, "is_reserved": 0, "is_disabled": 0, "rental_uris": {"android": "https://dc.lft.to/lastmile_qr_scan", "ios": "https://dc.lft.to/lastmile_qr_scan"}, "name": "48e28525e095166773b77040f6b014f1", "type": "electric_scooter"}, {"fusion_lat": 0.0, "bike_id": "1001e06af6b8b2048914c188a9afaca1", "fusion_lon": 0.0, "lon": -77.03183233333333, "lat": 38.9076685, "is_reserved": 0, "is_disabled": 0, "rental_uris": {"android": "https://dc.lft.to/lastmile_qr_scan", "ios": "https://dc.lft.to/lastmile_qr_scan"}, "name": "1001e06af6b8b2048914c188a9afaca1", "type": "electric_scooter"}, {"fusion_lat": 0.0, "bike_id": "07b41067dd60d1eaaf772dd1c02b858e", "fusion_lon": 0.0, "lon": -77.00754216666667, "lat": 38.89833383333333, "is_reserved": 0, "is_disabled": 0, "rental_uris": {"android": "https://dc.lft.to/lastmile_qr_scan", "ios": "https://dc.lft.to/lastmile_qr_scan"}, "name": "07b41067dd60d1eaaf772dd1c02b858e", "type": "electric_scooter"}, {"fusion_lat": 0.0, "bike_id": "ab5f693225e1b2c99830715368e4f558", "fusion_lon": 0.0, "lon": -77.02679816666667, "lat": 38.943298166666665, "is_reserved": 0, "is_disabled": 0, "rental_uris": {"android": "https://dc.lft.to/lastmile_qr_scan", "ios": "https://dc.lft.to/lastmile_qr_scan"}, "name": "ab5f693225e1b2c99830715368e4f558", "type": "electric_scooter"}, {"fusion_lat": 0.0, "bike_id": "18654264bd0e9b7bd83f26afa6602e0d", "fusion_lon": 0.0, "lon": -76.93375616666667, "lat": 38.91030033333333, "is_reserved": 0, "is_disabled": 0, "rental_uris": {"android": "https://dc.lft.to/lastmile_qr_scan", "ios": "https://dc.lft.to/lastmile_qr_scan"}, "name": "18654264bd0e9b7bd83f26afa6602e0d", "type": "electric_scooter"}, {"fusion_lat": 0.0, "bike_id": "bcf57d4045666ca639ab13e64152c315", "fusion_lon": 0.0, "lon": -77.0330285, "lat": 38.9098375, "is_reserved": 0, "is_disabled": 0, "rental_uris": {"android": "https://dc.lft.to/lastmile_qr_scan", "ios": "https://dc.lft.to/lastmile_qr_scan"}, "name": "bcf57d4045666ca639ab13e64152c315", "type": "electric_scooter"}, {"fusion_lat": 0.0, "bike_id": "0567d7a94a27e905f5bce69dda590b5f", "fusion_lon": 0.0, "lon": -77.028091, "lat": 38.9236115, "is_reserved": 0, "is_disabled": 0, "rental_uris": {"android": "https://dc.lft.to/lastmile_qr_scan", "ios": "https://dc.lft.to/lastmile_qr_scan"}, "name": "0567d7a94a27e905f5bce69dda590b5f", "type": "electric_scooter"}, {"fusion_lat": 0.0, "bike_id": "b69ffe089d287f551be9e7c4c83e1d6b", "fusion_lon": 0.0, "lon": -77.03438866666667, "lat": 38.918023, "is_reserved": 0, "is_disabled": 0, "rental_uris": {"android": "https://dc.lft.to/lastmile_qr_scan", "ios": "https://dc.lft.to/lastmile_qr_scan"}, "name": "b69ffe089d287f551be9e7c4c83e1d6b", "type": "electric_scooter"}, {"fusion_lat": 0.0, "bike_id": "e85f7fb589ed7460ce2b44cd01487a63", "fusion_lon": 0.0, "lon": -76.9850045, "lat": 38.866694833333334, "is_reserved": 0, "is_disabled": 0, "rental_uris": {"android": "https://dc.lft.to/lastmile_qr_scan", "ios": "https://dc.lft.to/lastmile_qr_scan"}, "name": "e85f7fb589ed7460ce2b44cd01487a63", "type": "electric_scooter"}, {"fusion_lat": 0.0, "bike_id": "136da00439c18f3164f7a49361ec73a7", "fusion_lon": 0.0, "lon": -77.00205366666667, "lat": 38.9002695, "is_reserved": 0, "is_disabled": 0, "rental_uris": {"android": "https://dc.lft.to/lastmile_qr_scan", "ios": "https://dc.lft.to/lastmile_qr_scan"}, "name": "136da00439c18f3164f7a49361ec73a7", "type": "electric_scooter"}, {"fusion_lat": 0.0, "bike_id": "f5413efa2eb9e983dbc92fc9771c0fa1", "fusion_lon": 0.0, "lon": -77.04659566666666, "lat": 38.91036316666667, "is_reserved": 0, "is_disabled": 0, "rental_uris": {"android": "https://dc.lft.to/lastmile_qr_scan", "ios": "https://dc.lft.to/lastmile_qr_scan"}, "name": "f5413efa2eb9e983dbc92fc9771c0fa1", "type": "electric_scooter"}, {"fusion_lat": 0.0, "bike_id": "9763eeb3b9156b84813d08d5438fdc18", "fusion_lon": 0.0, "lon": -77.04677566666666, "lat": 38.900750333333335, "is_reserved": 0, "is_disabled": 0, "rental_uris": {"android": "https://dc.lft.to/lastmile_qr_scan", "ios": "https://dc.lft.to/lastmile_qr_scan"}, "name": "9763eeb3b9156b84813d08d5438fdc18", "type": "electric_scooter"}, {"fusion_lat": 0.0, "bike_id": "5289a2c6e560a0fbfa759fed290aeec5", "fusion_lon": 0.0, "lon": -76.99105433333334, "lat": 38.903177666666664, "is_reserved": 0, "is_disabled": 0, "rental_uris": {"android": "https://dc.lft.to/lastmile_qr_scan", "ios": "https://dc.lft.to/lastmile_qr_scan"}, "name": "5289a2c6e560a0fbfa759fed290aeec5", "type": "electric_scooter"}, {"fusion_lat": 0.0, "bike_id": "70b2369857582be050b21959a36bc1f4", "fusion_lon": 0.0, "lon": -77.02207283333334, "lat": 38.91270333333333, "is_reserved": 0, "is_disabled": 0, "rental_uris": {"android": "https://dc.lft.to/lastmile_qr_scan", "ios": "https://dc.lft.to/lastmile_qr_scan"}, "name": "70b2369857582be050b21959a36bc1f4", "type": "electric_scooter"}, {"fusion_lat": 0.0, "bike_id": "36cadc1d8d464a794777e55776cd9735", "fusion_lon": 0.0, "lon": -77.01854583333333, "lat": 38.874573833333336, "is_reserved": 0, "is_disabled": 0, "rental_uris": {"android": "https://dc.lft.to/lastmile_qr_scan", "ios": "https://dc.lft.to/lastmile_qr_scan"}, "name": "36cadc1d8d464a794777e55776cd9735", "type": "electric_scooter"}, {"fusion_lat": 0.0, "bike_id": "8c1bc5c5bfc37c3413bc22c551bcce63", "fusion_lon": 0.0, "lon": -77.02319516666667, "lat": 38.92789533333333, "is_reserved": 0, "is_disabled": 0, "rental_uris": {"android": "https://dc.lft.to/lastmile_qr_scan", "ios": "https://dc.lft.to/lastmile_qr_scan"}, "name": "8c1bc5c5bfc37c3413bc22c551bcce63", "type": "electric_scooter"}, {"fusion_lat": 0.0, "bike_id": "c108c67d567a39f51e3d653c09770697", "fusion_lon": 0.0, "lon": -77.00448183333333, "lat": 38.876548166666666, "is_reserved": 0, "is_disabled": 0, "rental_uris": {"android": "https://dc.lft.to/lastmile_qr_scan", "ios": "https://dc.lft.to/lastmile_qr_scan"}, "name": "c108c67d567a39f51e3d653c09770697", "type": "electric_scooter"}, {"fusion_lat": 0.0, "bike_id": "bc9856a61c70302c1dc1c1b4b585f262", "fusion_lon": 0.0, "lon": -77.02484083333333, "lat": 38.919473833333335, "is_reserved": 0, "is_disabled": 0, "rental_uris": {"android": "https://dc.lft.to/lastmile_qr_scan", "ios": "https://dc.lft.to/lastmile_qr_scan"}, "name": "bc9856a61c70302c1dc1c1b4b585f262", "type": "electric_scooter"}, {"fusion_lat": 0.0, "bike_id": "832bd6d0b562be33644f7281b229f80b", "fusion_lon": 0.0, "lon": -77.05909083333333, "lat": 38.90310183333333, "is_reserved": 0, "is_disabled": 0, "rental_uris": {"android": "https://dc.lft.to/lastmile_qr_scan", "ios": "https://dc.lft.to/lastmile_qr_scan"}, "name": "832bd6d0b562be33644f7281b229f80b", "type": "electric_scooter"}, {"fusion_lat": 0.0, "bike_id": "54416e821f598273a97e573e7eef2031", "fusion_lon": 0.0, "lon": -77.04688966666667, "lat": 38.92181433333333, "is_reserved": 0, "is_disabled": 0, "rental_uris": {"android": "https://dc.lft.to/lastmile_qr_scan", "ios": "https://dc.lft.to/lastmile_qr_scan"}, "name": "54416e821f598273a97e573e7eef2031", "type": "electric_scooter"}, {"fusion_lat": 0.0, "bike_id": "342e11e3b4265ccd6526ebcf2594a144", "fusion_lon": 0.0, "lon": -77.02097133333334, "lat": 38.931157666666664, "is_reserved": 0, "is_disabled": 0, "rental_uris": {"android": "https://dc.lft.to/lastmile_qr_scan", "ios": "https://dc.lft.to/lastmile_qr_scan"}, "name": "342e11e3b4265ccd6526ebcf2594a144", "type": "electric_scooter"}, {"fusion_lat": 0.0, "bike_id": "4d8beec6aa4be18b535754c4a25d1bb6", "fusion_lon": 0.0, "lon": -77.03658316666667, "lat": 38.923450833333334, "is_reserved": 0, "is_disabled": 0, "rental_uris": {"android": "https://dc.lft.to/lastmile_qr_scan", "ios": "https://dc.lft.to/lastmile_qr_scan"}, "name": "4d8beec6aa4be18b535754c4a25d1bb6", "type": "electric_scooter"}, {"fusion_lat": 0.0, "bike_id": "ccd5646d0130690a1da298b4008902dc", "fusion_lon": 0.0, "lon": -77.0451125, "lat": 38.92316266666667, "is_reserved": 0, "is_disabled": 0, "rental_uris": {"android": "https://dc.lft.to/lastmile_qr_scan", "ios": "https://dc.lft.to/lastmile_qr_scan"}, "name": "ccd5646d0130690a1da298b4008902dc", "type": "electric_scooter"}, {"fusion_lat": 0.0, "bike_id": "15fc3ceb6dfd02b93fd46b1e87f6e41c", "fusion_lon": 0.0, "lon": -76.99289916666666, "lat": 38.898839, "is_reserved": 0, "is_disabled": 0, "rental_uris": {"android": "https://dc.lft.to/lastmile_qr_scan", "ios": "https://dc.lft.to/lastmile_qr_scan"}, "name": "15fc3ceb6dfd02b93fd46b1e87f6e41c", "type": "electric_scooter"}, {"fusion_lat": 0.0, "bike_id": "f9a26449bb60b5b96dfe419b0db9f282", "fusion_lon": 0.0, "lon": -77.02655816666666, "lat": 38.9169565, "is_reserved": 0, "is_disabled": 0, "rental_uris": {"android": "https://dc.lft.to/lastmile_qr_scan", "ios": "https://dc.lft.to/lastmile_qr_scan"}, "name": "f9a26449bb60b5b96dfe419b0db9f282", "type": "electric_scooter"}, {"fusion_lat": 0.0, "bike_id": "6f478a94d4723934a527009c1e9de65d", "fusion_lon": 0.0, "lon": -77.03260633333333, "lat": 38.932046, "is_reserved": 0, "is_disabled": 0, "rental_uris": {"android": "https://dc.lft.to/lastmile_qr_scan", "ios": "https://dc.lft.to/lastmile_qr_scan"}, "name": "6f478a94d4723934a527009c1e9de65d", "type": "electric_scooter"}, {"fusion_lat": 0.0, "bike_id": "667c3daa7667572f9a7df52de6b7599c", "fusion_lon": 0.0, "lon": -77.07982533333333, "lat": 38.91950283333333, "is_reserved": 0, "is_disabled": 0, "rental_uris": {"android": "https://dc.lft.to/lastmile_qr_scan", "ios": "https://dc.lft.to/lastmile_qr_scan"}, "name": "667c3daa7667572f9a7df52de6b7599c", "type": "electric_scooter"}, {"fusion_lat": 0.0, "bike_id": "11101a00b2b553d44e0d78798693009e", "fusion_lon": 0.0, "lon": -77.00609716666666, "lat": 38.871803, "is_reserved": 0, "is_disabled": 0, "rental_uris": {"android": "https://dc.lft.to/lastmile_qr_scan", "ios": "https://dc.lft.to/lastmile_qr_scan"}, "name": "11101a00b2b553d44e0d78798693009e", "type": "electric_scooter"}, {"fusion_lat": 0.0, "bike_id": "e17613f2b5f363774dce140718fa5e3a", "fusion_lon": 0.0, "lon": -77.034853, "lat": 38.934373, "is_reserved": 0, "is_disabled": 0, "rental_uris": {"android": "https://dc.lft.to/lastmile_qr_scan", "ios": "https://dc.lft.to/lastmile_qr_scan"}, "name": "e17613f2b5f363774dce140718fa5e3a", "type": "electric_scooter"}, {"fusion_lat": 0.0, "bike_id": "b5cbe95d531b446203113128b6c74b6c", "fusion_lon": 0.0, "lon": -77.0329785, "lat": 38.92051716666667, "is_reserved": 0, "is_disabled": 0, "rental_uris": {"android": "https://dc.lft.to/lastmile_qr_scan", "ios": "https://dc.lft.to/lastmile_qr_scan"}, "name": "b5cbe95d531b446203113128b6c74b6c", "type": "electric_scooter"}, {"fusion_lat": 0.0, "bike_id": "309bebfbb541bbba49c64828dc098ff9", "fusion_lon": 0.0, "lon": -77.037441, "lat": 38.902415166666664, "is_reserved": 0, "is_disabled": 0, "rental_uris": {"android": "https://dc.lft.to/lastmile_qr_scan", "ios": "https://dc.lft.to/lastmile_qr_scan"}, "name": "309bebfbb541bbba49c64828dc098ff9", "type": "electric_scooter"}, {"fusion_lat": 0.0, "bike_id": "f9d789febc00a8612276d4f5d9fcf8bd", "fusion_lon": 0.0, "lon": -77.02742266666667, "lat": 38.897278666666665, "is_reserved": 0, "is_disabled": 0, "rental_uris": {"android": "https://dc.lft.to/lastmile_qr_scan", "ios": "https://dc.lft.to/lastmile_qr_scan"}, "name": "f9d789febc00a8612276d4f5d9fcf8bd", "type": "electric_scooter"}, {"fusion_lat": 0.0, "bike_id": "340885d5fc3c228e588757fc5177bb80", "fusion_lon": 0.0, "lon": -77.0417435, "lat": 38.9051505, "is_reserved": 0, "is_disabled": 0, "rental_uris": {"android": "https://dc.lft.to/lastmile_qr_scan", "ios": "https://dc.lft.to/lastmile_qr_scan"}, "name": "340885d5fc3c228e588757fc5177bb80", "type": "electric_scooter"}, {"fusion_lat": 0.0, "bike_id": "f39f2e3948fe49582044fda984249f3e", "fusion_lon": 0.0, "lon": -77.03343416666667, "lat": 38.90020066666666, "is_reserved": 0, "is_disabled": 0, "rental_uris": {"android": "https://dc.lft.to/lastmile_qr_scan", "ios": "https://dc.lft.to/lastmile_qr_scan"}, "name": "f39f2e3948fe49582044fda984249f3e", "type": "electric_scooter"}, {"fusion_lat": 0.0, "bike_id": "7f4cbe8d2d276303b17ce39cb1b21cd8", "fusion_lon": 0.0, "lon": -77.0393645, "lat": 38.89891, "is_reserved": 0, "is_disabled": 0, "rental_uris": {"android": "https://dc.lft.to/lastmile_qr_scan", "ios": "https://dc.lft.to/lastmile_qr_scan"}, "name": "7f4cbe8d2d276303b17ce39cb1b21cd8", "type": "electric_scooter"}, {"fusion_lat": 0.0, "bike_id": "09e7409331d98f69c390439817f1ee96", "fusion_lon": 0.0, "lon": -77.0237125, "lat": 38.917794, "is_reserved": 0, "is_disabled": 0, "rental_uris": {"android": "https://dc.lft.to/lastmile_qr_scan", "ios": "https://dc.lft.to/lastmile_qr_scan"}, "name": "09e7409331d98f69c390439817f1ee96", "type": "electric_scooter"}, {"fusion_lat": 0.0, "bike_id": "83071f4b48d1be37c66c3c053d3d10c1", "fusion_lon": 0.0, "lon": -77.04674316666667, "lat": 38.892334166666664, "is_reserved": 0, "is_disabled": 0, "rental_uris": {"android": "https://dc.lft.to/lastmile_qr_scan", "ios": "https://dc.lft.to/lastmile_qr_scan"}, "name": "83071f4b48d1be37c66c3c053d3d10c1", "type": "electric_scooter"}, {"fusion_lat": 0.0, "bike_id": "3724ed6d86b5d1d743135a20ca598992", "fusion_lon": 0.0, "lon": -77.032935, "lat": 38.91044616666667, "is_reserved": 0, "is_disabled": 0, "rental_uris": {"android": "https://dc.lft.to/lastmile_qr_scan", "ios": "https://dc.lft.to/lastmile_qr_scan"}, "name": "3724ed6d86b5d1d743135a20ca598992", "type": "electric_scooter"}, {"fusion_lat": 0.0, "bike_id": "631bd17f895577a8c89b86b56317039c", "fusion_lon": 0.0, "lon": -77.03052266666667, "lat": 38.923759, "is_reserved": 0, "is_disabled": 0, "rental_uris": {"android": "https://dc.lft.to/lastmile_qr_scan", "ios": "https://dc.lft.to/lastmile_qr_scan"}, "name": "631bd17f895577a8c89b86b56317039c", "type": "electric_scooter"}, {"fusion_lat": 0.0, "bike_id": "051852a4207f15665ba8cb5686c9aa1b", "fusion_lon": 0.0, "lon": -77.03451083333333, "lat": 38.909740166666666, "is_reserved": 0, "is_disabled": 0, "rental_uris": {"android": "https://dc.lft.to/lastmile_qr_scan", "ios": "https://dc.lft.to/lastmile_qr_scan"}, "name": "051852a4207f15665ba8cb5686c9aa1b", "type": "electric_scooter"}, {"fusion_lat": 0.0, "bike_id": "3dc1aaa1f8ab3341f8f5333f7f3bc845", "fusion_lon": 0.0, "lon": -76.99598333333333, "lat": 38.9506785, "is_reserved": 0, "is_disabled": 0, "rental_uris": {"android": "https://dc.lft.to/lastmile_qr_scan", "ios": "https://dc.lft.to/lastmile_qr_scan"}, "name": "3dc1aaa1f8ab3341f8f5333f7f3bc845", "type": "electric_bike"}, {"fusion_lat": 0.0, "bike_id": "6f679f4d92da442c7e7d262d39883e3c", "fusion_lon": 0.0, "lon": -77.0448675, "lat": 38.90520866666667, "is_reserved": 0, "is_disabled": 0, "rental_uris": {"android": "https://dc.lft.to/lastmile_qr_scan", "ios": "https://dc.lft.to/lastmile_qr_scan"}, "name": "6f679f4d92da442c7e7d262d39883e3c", "type": "electric_scooter"}, {"fusion_lat": 0.0, "bike_id": "1af98deedefe5094a52e32b2bfe9b677", "fusion_lon": 0.0, "lon": -77.020874, "lat": 38.929126, "is_reserved": 0, "is_disabled": 0, "rental_uris": {"android": "https://dc.lft.to/lastmile_qr_scan", "ios": "https://dc.lft.to/lastmile_qr_scan"}, "name": "1af98deedefe5094a52e32b2bfe9b677", "type": "electric_scooter"}, {"fusion_lat": 0.0, "bike_id": "3cfe00b87f32aa11d7b5f69c27165250", "fusion_lon": 0.0, "lon": -76.978579, "lat": 38.90724733333333, "is_reserved": 0, "is_disabled": 0, "rental_uris": {"android": "https://dc.lft.to/lastmile_qr_scan", "ios": "https://dc.lft.to/lastmile_qr_scan"}, "name": "3cfe00b87f32aa11d7b5f69c27165250", "type": "electric_scooter"}, {"fusion_lat": 0.0, "bike_id": "d90c930cfdb733c2d4245d581b367f5b", "fusion_lon": 0.0, "lon": -77.053882, "lat": 38.92757733333333, "is_reserved": 0, "is_disabled": 0, "rental_uris": {"android": "https://dc.lft.to/lastmile_qr_scan", "ios": "https://dc.lft.to/lastmile_qr_scan"}, "name": "d90c930cfdb733c2d4245d581b367f5b", "type": "electric_scooter"}, {"fusion_lat": 0.0, "bike_id": "29750b86153916b9bb22825a81720f1a", "fusion_lon": 0.0, "lon": -77.035583, "lat": 38.9337575, "is_reserved": 0, "is_disabled": 0, "rental_uris": {"android": "https://dc.lft.to/lastmile_qr_scan", "ios": "https://dc.lft.to/lastmile_qr_scan"}, "name": "29750b86153916b9bb22825a81720f1a", "type": "electric_scooter"}, {"fusion_lat": 0.0, "bike_id": "ca87ccc8d6a73404148388eeb1b1693a", "fusion_lon": 0.0, "lon": -77.18740733333334, "lat": 38.89351, "is_reserved": 0, "is_disabled": 0, "rental_uris": {"android": "https://dc.lft.to/lastmile_qr_scan", "ios": "https://dc.lft.to/lastmile_qr_scan"}, "name": "ca87ccc8d6a73404148388eeb1b1693a", "type": "electric_bike"}, {"fusion_lat": 0.0, "bike_id": "2c0e56342ad9ccac320cb2846beb8960", "fusion_lon": 0.0, "lon": -77.00271933333333, "lat": 38.911734333333335, "is_reserved": 0, "is_disabled": 0, "rental_uris": {"android": "https://dc.lft.to/lastmile_qr_scan", "ios": "https://dc.lft.to/lastmile_qr_scan"}, "name": "2c0e56342ad9ccac320cb2846beb8960", "type": "electric_bike"}, {"fusion_lat": 0.0, "bike_id": "06d8076b9027d8ec59baef0deaa18f2b", "fusion_lon": 0.0, "lon": -77.03307566666666, "lat": 38.90375, "is_reserved": 0, "is_disabled": 0, "rental_uris": {"android": "https://dc.lft.to/lastmile_qr_scan", "ios": "https://dc.lft.to/lastmile_qr_scan"}, "name": "06d8076b9027d8ec59baef0deaa18f2b", "type": "electric_scooter"}, {"fusion_lat": 0.0, "bike_id": "1748ea632a72ac98705f8107c5e68a32", "fusion_lon": 0.0, "lon": -77.0246425, "lat": 38.941945833333335, "is_reserved": 0, "is_disabled": 0, "rental_uris": {"android": "https://dc.lft.to/lastmile_qr_scan", "ios": "https://dc.lft.to/lastmile_qr_scan"}, "name": "1748ea632a72ac98705f8107c5e68a32", "type": "electric_scooter"}, {"fusion_lat": 0.0, "bike_id": "b56ee872176eaf5c23daf3d58f611235", "fusion_lon": 0.0, "lon": -77.18562833333333, "lat": 38.929640666666664, "is_reserved": 0, "is_disabled": 0, "rental_uris": {"android": "https://dc.lft.to/lastmile_qr_scan", "ios": "https://dc.lft.to/lastmile_qr_scan"}, "name": "b56ee872176eaf5c23daf3d58f611235", "type": "electric_bike"}, {"fusion_lat": 0.0, "bike_id": "7120a6cbf81c0856a67fd01695c478a2", "fusion_lon": 0.0, "lon": -77.02483866666667, "lat": 38.91701583333333, "is_reserved": 0, "is_disabled": 0, "rental_uris": {"android": "https://dc.lft.to/lastmile_qr_scan", "ios": "https://dc.lft.to/lastmile_qr_scan"}, "name": "7120a6cbf81c0856a67fd01695c478a2", "type": "electric_scooter"}, {"fusion_lat": 0.0, "bike_id": "82dff2d502a3b136e7c5f82e2e3df7b0", "fusion_lon": 0.0, "lon": -77.046469, "lat": 39.054976, "is_reserved": 0, "is_disabled": 0, "rental_uris": {"android": "https://dc.lft.to/lastmile_qr_scan", "ios": "https://dc.lft.to/lastmile_qr_scan"}, "name": "82dff2d502a3b136e7c5f82e2e3df7b0", "type": "electric_bike"}, {"fusion_lat": 0.0, "bike_id": "4466a281fa325328edaaf05b9467e349", "fusion_lon": 0.0, "lon": -76.88397, "lat": 38.931681833333336, "is_reserved": 0, "is_disabled": 0, "rental_uris": {"android": "https://dc.lft.to/lastmile_qr_scan", "ios": "https://dc.lft.to/lastmile_qr_scan"}, "name": "4466a281fa325328edaaf05b9467e349", "type": "electric_bike"}, {"fusion_lat": 0.0, "bike_id": "be7cacc9e4a49454caff45d01936ffba", "fusion_lon": 0.0, "lon": -77.052553, "lat": 38.92730866666667, "is_reserved": 0, "is_disabled": 0, "rental_uris": {"android": "https://dc.lft.to/lastmile_qr_scan", "ios": "https://dc.lft.to/lastmile_qr_scan"}, "name": "be7cacc9e4a49454caff45d01936ffba", "type": "electric_scooter"}, {"fusion_lat": 0.0, "bike_id": "5accd8bea448b549c75f4e59b87adfe1", "fusion_lon": 0.0, "lon": -77.06029816666667, "lat": 38.933530166666664, "is_reserved": 0, "is_disabled": 0, "rental_uris": {"android": "https://dc.lft.to/lastmile_qr_scan", "ios": "https://dc.lft.to/lastmile_qr_scan"}, "name": "5accd8bea448b549c75f4e59b87adfe1", "type": "electric_scooter"}, {"fusion_lat": 0.0, "bike_id": "23e372359f8323817967911327884ab2", "fusion_lon": 0.0, "lon": -77.02932383333334, "lat": 38.8851135, "is_reserved": 0, "is_disabled": 0, "rental_uris": {"android": "https://dc.lft.to/lastmile_qr_scan", "ios": "https://dc.lft.to/lastmile_qr_scan"}, "name": "23e372359f8323817967911327884ab2", "type": "electric_scooter"}, {"fusion_lat": 0.0, "bike_id": "e2e8a562bb4c4fa16c9183d4f89f3a1f", "fusion_lon": 0.0, "lon": -77.03880883333333, "lat": 38.94873466666667, "is_reserved": 0, "is_disabled": 0, "rental_uris": {"android": "https://dc.lft.to/lastmile_qr_scan", "ios": "https://dc.lft.to/lastmile_qr_scan"}, "name": "e2e8a562bb4c4fa16c9183d4f89f3a1f", "type": "electric_scooter"}, {"fusion_lat": 0.0, "bike_id": "3f56976dc129733aacc16ce77dde7a41", "fusion_lon": 0.0, "lon": -76.95654166666667, "lat": 38.896210833333335, "is_reserved": 0, "is_disabled": 0, "rental_uris": {"android": "https://dc.lft.to/lastmile_qr_scan", "ios": "https://dc.lft.to/lastmile_qr_scan"}, "name": "3f56976dc129733aacc16ce77dde7a41", "type": "electric_scooter"}, {"fusion_lat": 0.0, "bike_id": "babf5967e53698cfe48413050f27c9a7", "fusion_lon": 0.0, "lon": -77.03845966666667, "lat": 38.916631333333335, "is_reserved": 0, "is_disabled": 0, "rental_uris": {"android": "https://dc.lft.to/lastmile_qr_scan", "ios": "https://dc.lft.to/lastmile_qr_scan"}, "name": "babf5967e53698cfe48413050f27c9a7", "type": "electric_scooter"}, {"fusion_lat": 0.0, "bike_id": "370db3a84325afcd3dc6c1f88d6f7742", "fusion_lon": 0.0, "lon": -77.04519416666666, "lat": 38.90241916666667, "is_reserved": 0, "is_disabled": 0, "rental_uris": {"android": "https://dc.lft.to/lastmile_qr_scan", "ios": "https://dc.lft.to/lastmile_qr_scan"}, "name": "370db3a84325afcd3dc6c1f88d6f7742", "type": "electric_scooter"}, {"fusion_lat": 0.0, "bike_id": "f2962ca8c028a5b71e6a1363c365d3df", "fusion_lon": 0.0, "lon": -77.030194, "lat": 38.89975483333333, "is_reserved": 0, "is_disabled": 0, "rental_uris": {"android": "https://dc.lft.to/lastmile_qr_scan", "ios": "https://dc.lft.to/lastmile_qr_scan"}, "name": "f2962ca8c028a5b71e6a1363c365d3df", "type": "electric_scooter"}, {"fusion_lat": 0.0, "bike_id": "9f2586121e7039e38f291c027cb725b9", "fusion_lon": 0.0, "lon": -77.0370795, "lat": 38.927878666666665, "is_reserved": 0, "is_disabled": 0, "rental_uris": {"android": "https://dc.lft.to/lastmile_qr_scan", "ios": "https://dc.lft.to/lastmile_qr_scan"}, "name": "9f2586121e7039e38f291c027cb725b9", "type": "electric_scooter"}, {"fusion_lat": 0.0, "bike_id": "df4cfcab3854f32f396c262a54a92123", "fusion_lon": 0.0, "lon": -77.0436535, "lat": 38.89221533333333, "is_reserved": 0, "is_disabled": 0, "rental_uris": {"android": "https://dc.lft.to/lastmile_qr_scan", "ios": "https://dc.lft.to/lastmile_qr_scan"}, "name": "df4cfcab3854f32f396c262a54a92123", "type": "electric_scooter"}, {"fusion_lat": 0.0, "bike_id": "093c5459fd2ca5667ac4c573c7ab1506", "fusion_lon": 0.0, "lon": -76.963585, "lat": 38.9349825, "is_reserved": 0, "is_disabled": 0, "rental_uris": {"android": "https://dc.lft.to/lastmile_qr_scan", "ios": "https://dc.lft.to/lastmile_qr_scan"}, "name": "093c5459fd2ca5667ac4c573c7ab1506", "type": "electric_scooter"}, {"fusion_lat": 0.0, "bike_id": "2617fc2510d80f74c708bab66616ef08", "fusion_lon": 0.0, "lon": -77.03336183333333, "lat": 38.92874233333333, "is_reserved": 0, "is_disabled": 0, "rental_uris": {"android": "https://dc.lft.to/lastmile_qr_scan", "ios": "https://dc.lft.to/lastmile_qr_scan"}, "name": "2617fc2510d80f74c708bab66616ef08", "type": "electric_scooter"}, {"fusion_lat": 0.0, "bike_id": "8d2a8ea985134e703dbbecb78641ad7b", "fusion_lon": 0.0, "lon": -76.9589185, "lat": 38.890092833333334, "is_reserved": 0, "is_disabled": 0, "rental_uris": {"android": "https://dc.lft.to/lastmile_qr_scan", "ios": "https://dc.lft.to/lastmile_qr_scan"}, "name": "8d2a8ea985134e703dbbecb78641ad7b", "type": "electric_scooter"}, {"fusion_lat": 0.0, "bike_id": "3da4ffea3a7090f7b6587a7540763734", "fusion_lon": 0.0, "lon": -77.0091335, "lat": 38.827858, "is_reserved": 0, "is_disabled": 0, "rental_uris": {"android": "https://dc.lft.to/lastmile_qr_scan", "ios": "https://dc.lft.to/lastmile_qr_scan"}, "name": "3da4ffea3a7090f7b6587a7540763734", "type": "electric_bike"}, {"fusion_lat": 0.0, "bike_id": "89811fdc8ad19e5f16187079429fa9f5", "fusion_lon": 0.0, "lon": -77.03307016666666, "lat": 38.900353, "is_reserved": 0, "is_disabled": 0, "rental_uris": {"android": "https://dc.lft.to/lastmile_qr_scan", "ios": "https://dc.lft.to/lastmile_qr_scan"}, "name": "89811fdc8ad19e5f16187079429fa9f5", "type": "electric_scooter"}, {"fusion_lat": 0.0, "bike_id": "ea700697de386d5a39e16390a545835f", "fusion_lon": 0.0, "lon": -77.04347483333333, "lat": 38.90805066666667, "is_reserved": 0, "is_disabled": 0, "rental_uris": {"android": "https://dc.lft.to/lastmile_qr_scan", "ios": "https://dc.lft.to/lastmile_qr_scan"}, "name": "ea700697de386d5a39e16390a545835f", "type": "electric_scooter"}, {"fusion_lat": 0.0, "bike_id": "973e94123bce4d133e2f0da688820ae8", "fusion_lon": 0.0, "lon": -77.021098, "lat": 38.93695016666667, "is_reserved": 0, "is_disabled": 0, "rental_uris": {"android": "https://dc.lft.to/lastmile_qr_scan", "ios": "https://dc.lft.to/lastmile_qr_scan"}, "name": "973e94123bce4d133e2f0da688820ae8", "type": "electric_scooter"}, {"fusion_lat": 0.0, "bike_id": "c5c0382fa76ca7d95333889ac8a602d9", "fusion_lon": 0.0, "lon": -77.00737616666666, "lat": 38.90379166666666, "is_reserved": 0, "is_disabled": 0, "rental_uris": {"android": "https://dc.lft.to/lastmile_qr_scan", "ios": "https://dc.lft.to/lastmile_qr_scan"}, "name": "c5c0382fa76ca7d95333889ac8a602d9", "type": "electric_scooter"}, {"fusion_lat": 0.0, "bike_id": "2ce7923d76cda2e4fc859bff102d1381", "fusion_lon": 0.0, "lon": -77.014887, "lat": 38.8921995, "is_reserved": 0, "is_disabled": 0, "rental_uris": {"android": "https://dc.lft.to/lastmile_qr_scan", "ios": "https://dc.lft.to/lastmile_qr_scan"}, "name": "2ce7923d76cda2e4fc859bff102d1381", "type": "electric_scooter"}, {"fusion_lat": 0.0, "bike_id": "96423f245a75ceda7aa26d05041b65c8", "fusion_lon": 0.0, "lon": -77.02101933333333, "lat": 38.921793666666666, "is_reserved": 0, "is_disabled": 0, "rental_uris": {"android": "https://dc.lft.to/lastmile_qr_scan", "ios": "https://dc.lft.to/lastmile_qr_scan"}, "name": "96423f245a75ceda7aa26d05041b65c8", "type": "electric_scooter"}, {"fusion_lat": 0.0, "bike_id": "4d4b1aa4af95ced74e88e9ac04734006", "fusion_lon": 0.0, "lon": -77.05423566666667, "lat": 38.928323666666664, "is_reserved": 0, "is_disabled": 0, "rental_uris": {"android": "https://dc.lft.to/lastmile_qr_scan", "ios": "https://dc.lft.to/lastmile_qr_scan"}, "name": "4d4b1aa4af95ced74e88e9ac04734006", "type": "electric_scooter"}, {"fusion_lat": 0.0, "bike_id": "1cf11fd7af707368cf337a76b9d509c1", "fusion_lon": 0.0, "lon": -77.0350355, "lat": 38.9214505, "is_reserved": 0, "is_disabled": 0, "rental_uris": {"android": "https://dc.lft.to/lastmile_qr_scan", "ios": "https://dc.lft.to/lastmile_qr_scan"}, "name": "1cf11fd7af707368cf337a76b9d509c1", "type": "electric_scooter"}, {"fusion_lat": 0.0, "bike_id": "95c626b729cba6803f0ac981717607dc", "fusion_lon": 0.0, "lon": -77.03154366666666, "lat": 38.92021583333333, "is_reserved": 0, "is_disabled": 0, "rental_uris": {"android": "https://dc.lft.to/lastmile_qr_scan", "ios": "https://dc.lft.to/lastmile_qr_scan"}, "name": "95c626b729cba6803f0ac981717607dc", "type": "electric_scooter"}, {"fusion_lat": 0.0, "bike_id": "7e37c3e4575072c42d334b839661abac", "fusion_lon": 0.0, "lon": -77.06938816666667, "lat": 38.952028166666665, "is_reserved": 0, "is_disabled": 0, "rental_uris": {"android": "https://dc.lft.to/lastmile_qr_scan", "ios": "https://dc.lft.to/lastmile_qr_scan"}, "name": "7e37c3e4575072c42d334b839661abac", "type": "electric_scooter"}, {"fusion_lat": 0.0, "bike_id": "3236c834e4722522ca42058bcdeb920d", "fusion_lon": 0.0, "lon": -77.02420383333333, "lat": 38.91822483333333, "is_reserved": 0, "is_disabled": 0, "rental_uris": {"android": "https://dc.lft.to/lastmile_qr_scan", "ios": "https://dc.lft.to/lastmile_qr_scan"}, "name": "3236c834e4722522ca42058bcdeb920d", "type": "electric_scooter"}, {"fusion_lat": 0.0, "bike_id": "ce140e0dd5b3a85d1aeebf417b2c29c8", "fusion_lon": 0.0, "lon": -77.0499435, "lat": 38.9010875, "is_reserved": 0, "is_disabled": 0, "rental_uris": {"android": "https://dc.lft.to/lastmile_qr_scan", "ios": "https://dc.lft.to/lastmile_qr_scan"}, "name": "ce140e0dd5b3a85d1aeebf417b2c29c8", "type": "electric_scooter"}, {"fusion_lat": 0.0, "bike_id": "758ba623c2df77fb8120bbdc4a356378", "fusion_lon": 0.0, "lon": -77.02813983333333, "lat": 38.93170716666667, "is_reserved": 0, "is_disabled": 0, "rental_uris": {"android": "https://dc.lft.to/lastmile_qr_scan", "ios": "https://dc.lft.to/lastmile_qr_scan"}, "name": "758ba623c2df77fb8120bbdc4a356378", "type": "electric_scooter"}, {"fusion_lat": 0.0, "bike_id": "8d87409bb55794d6bea718c59fbb2c95", "fusion_lon": 0.0, "lon": -77.01273916666666, "lat": 38.900024, "is_reserved": 0, "is_disabled": 0, "rental_uris": {"android": "https://dc.lft.to/lastmile_qr_scan", "ios": "https://dc.lft.to/lastmile_qr_scan"}, "name": "8d87409bb55794d6bea718c59fbb2c95", "type": "electric_scooter"}, {"fusion_lat": 0.0, "bike_id": "e6be073c12d06bee74dd766422124579", "fusion_lon": 0.0, "lon": -77.033843, "lat": 38.8995415, "is_reserved": 0, "is_disabled": 0, "rental_uris": {"android": "https://dc.lft.to/lastmile_qr_scan", "ios": "https://dc.lft.to/lastmile_qr_scan"}, "name": "e6be073c12d06bee74dd766422124579", "type": "electric_scooter"}, {"fusion_lat": 0.0, "bike_id": "ea5963ebecfee319a0385ce4d453865a", "fusion_lon": 0.0, "lon": -77.04320783333333, "lat": 38.921914, "is_reserved": 0, "is_disabled": 0, "rental_uris": {"android": "https://dc.lft.to/lastmile_qr_scan", "ios": "https://dc.lft.to/lastmile_qr_scan"}, "name": "ea5963ebecfee319a0385ce4d453865a", "type": "electric_scooter"}, {"fusion_lat": 0.0, "bike_id": "0c4ac145f0f035d81dad932e2058f3f3", "fusion_lon": 0.0, "lon": -77.035067, "lat": 38.921503333333334, "is_reserved": 0, "is_disabled": 0, "rental_uris": {"android": "https://dc.lft.to/lastmile_qr_scan", "ios": "https://dc.lft.to/lastmile_qr_scan"}, "name": "0c4ac145f0f035d81dad932e2058f3f3", "type": "electric_scooter"}, {"fusion_lat": 0.0, "bike_id": "ef38416011b6f51cd950682fd12342c7", "fusion_lon": 0.0, "lon": -76.973326, "lat": 38.90479833333333, "is_reserved": 0, "is_disabled": 0, "rental_uris": {"android": "https://dc.lft.to/lastmile_qr_scan", "ios": "https://dc.lft.to/lastmile_qr_scan"}, "name": "ef38416011b6f51cd950682fd12342c7", "type": "electric_bike"}, {"fusion_lat": 0.0, "bike_id": "17a15b994e7a4b4e1ce03c6eed49975f", "fusion_lon": 0.0, "lon": -76.93031733333333, "lat": 38.900115166666666, "is_reserved": 0, "is_disabled": 0, "rental_uris": {"android": "https://dc.lft.to/lastmile_qr_scan", "ios": "https://dc.lft.to/lastmile_qr_scan"}, "name": "17a15b994e7a4b4e1ce03c6eed49975f", "type": "electric_scooter"}, {"fusion_lat": 0.0, "bike_id": "b0d4c340d0e3dd76817328662857e507", "fusion_lon": 0.0, "lon": -77.0268565, "lat": 38.89980933333333, "is_reserved": 0, "is_disabled": 0, "rental_uris": {"android": "https://dc.lft.to/lastmile_qr_scan", "ios": "https://dc.lft.to/lastmile_qr_scan"}, "name": "b0d4c340d0e3dd76817328662857e507", "type": "electric_scooter"}, {"fusion_lat": 0.0, "bike_id": "9d29bc987b6196129f85be54db07f740", "fusion_lon": 0.0, "lon": -77.02203966666667, "lat": 38.924644666666666, "is_reserved": 0, "is_disabled": 0, "rental_uris": {"android": "https://dc.lft.to/lastmile_qr_scan", "ios": "https://dc.lft.to/lastmile_qr_scan"}, "name": "9d29bc987b6196129f85be54db07f740", "type": "electric_scooter"}, {"fusion_lat": 0.0, "bike_id": "e5031408ba8a13d545d8695f15ed4118", "fusion_lon": 0.0, "lon": -77.01765583333334, "lat": 38.874799333333335, "is_reserved": 0, "is_disabled": 0, "rental_uris": {"android": "https://dc.lft.to/lastmile_qr_scan", "ios": "https://dc.lft.to/lastmile_qr_scan"}, "name": "e5031408ba8a13d545d8695f15ed4118", "type": "electric_scooter"}, {"fusion_lat": 0.0, "bike_id": "2c33a72b2cd7987d1b277de13d43b326", "fusion_lon": 0.0, "lon": -77.00534816666666, "lat": 38.909797, "is_reserved": 0, "is_disabled": 0, "rental_uris": {"android": "https://dc.lft.to/lastmile_qr_scan", "ios": "https://dc.lft.to/lastmile_qr_scan"}, "name": "2c33a72b2cd7987d1b277de13d43b326", "type": "electric_scooter"}, {"fusion_lat": 0.0, "bike_id": "06f8d69843e9773984fbc0578d083bb5", "fusion_lon": 0.0, "lon": -77.026216, "lat": 38.933385333333334, "is_reserved": 0, "is_disabled": 0, "rental_uris": {"android": "https://dc.lft.to/lastmile_qr_scan", "ios": "https://dc.lft.to/lastmile_qr_scan"}, "name": "06f8d69843e9773984fbc0578d083bb5", "type": "electric_scooter"}, {"fusion_lat": 0.0, "bike_id": "677542e5888568ff7bd422e13835f865", "fusion_lon": 0.0, "lon": -77.00961666666667, "lat": 38.917066, "is_reserved": 0, "is_disabled": 0, "rental_uris": {"android": "https://dc.lft.to/lastmile_qr_scan", "ios": "https://dc.lft.to/lastmile_qr_scan"}, "name": "677542e5888568ff7bd422e13835f865", "type": "electric_scooter"}, {"fusion_lat": 0.0, "bike_id": "15600a01badadc9d614f5a632084e95b", "fusion_lon": 0.0, "lon": -77.0365845, "lat": 38.93133733333333, "is_reserved": 0, "is_disabled": 0, "rental_uris": {"android": "https://dc.lft.to/lastmile_qr_scan", "ios": "https://dc.lft.to/lastmile_qr_scan"}, "name": "15600a01badadc9d614f5a632084e95b", "type": "electric_scooter"}, {"fusion_lat": 0.0, "bike_id": "b6d7ce0a6895fd9a1274c59d7f6562de", "fusion_lon": 0.0, "lon": -76.90740816666667, "lat": 38.89612983333333, "is_reserved": 0, "is_disabled": 0, "rental_uris": {"android": "https://dc.lft.to/lastmile_qr_scan", "ios": "https://dc.lft.to/lastmile_qr_scan"}, "name": "b6d7ce0a6895fd9a1274c59d7f6562de", "type": "electric_bike"}, {"fusion_lat": 0.0, "bike_id": "2fcbc6c7aae5e327a7be4842c61d3885", "fusion_lon": 0.0, "lon": -76.99269, "lat": 38.8960885, "is_reserved": 0, "is_disabled": 0, "rental_uris": {"android": "https://dc.lft.to/lastmile_qr_scan", "ios": "https://dc.lft.to/lastmile_qr_scan"}, "name": "2fcbc6c7aae5e327a7be4842c61d3885", "type": "electric_scooter"}, {"fusion_lat": 0.0, "bike_id": "6738419103d111a9c912c755ad6414f4", "fusion_lon": 0.0, "lon": -77.04671616666667, "lat": 38.895610166666664, "is_reserved": 0, "is_disabled": 0, "rental_uris": {"android": "https://dc.lft.to/lastmile_qr_scan", "ios": "https://dc.lft.to/lastmile_qr_scan"}, "name": "6738419103d111a9c912c755ad6414f4", "type": "electric_scooter"}, {"fusion_lat": 0.0, "bike_id": "39009c3ff1df4e0f84e37429d481803f", "fusion_lon": 0.0, "lon": -76.98528733333333, "lat": 38.86682583333333, "is_reserved": 0, "is_disabled": 0, "rental_uris": {"android": "https://dc.lft.to/lastmile_qr_scan", "ios": "https://dc.lft.to/lastmile_qr_scan"}, "name": "39009c3ff1df4e0f84e37429d481803f", "type": "electric_scooter"}, {"fusion_lat": 0.0, "bike_id": "1f3277c33171d38fe860ff488a6c06b2", "fusion_lon": 0.0, "lon": -77.05462416666667, "lat": 38.89777333333333, "is_reserved": 0, "is_disabled": 0, "rental_uris": {"android": "https://dc.lft.to/lastmile_qr_scan", "ios": "https://dc.lft.to/lastmile_qr_scan"}, "name": "1f3277c33171d38fe860ff488a6c06b2", "type": "electric_scooter"}, {"fusion_lat": 0.0, "bike_id": "c89e84148ba7f85c9ea2859913859f54", "fusion_lon": 0.0, "lon": -76.99055766666666, "lat": 38.86374983333333, "is_reserved": 0, "is_disabled": 0, "rental_uris": {"android": "https://dc.lft.to/lastmile_qr_scan", "ios": "https://dc.lft.to/lastmile_qr_scan"}, "name": "c89e84148ba7f85c9ea2859913859f54", "type": "electric_scooter"}, {"fusion_lat": 0.0, "bike_id": "a962b83496f5a07cd1753008dae2d24e", "fusion_lon": 0.0, "lon": -77.02073033333333, "lat": 38.9041335, "is_reserved": 0, "is_disabled": 0, "rental_uris": {"android": "https://dc.lft.to/lastmile_qr_scan", "ios": "https://dc.lft.to/lastmile_qr_scan"}, "name": "a962b83496f5a07cd1753008dae2d24e", "type": "electric_scooter"}, {"fusion_lat": 0.0, "bike_id": "deeba0f2ad270536055408fa152a7aa6", "fusion_lon": 0.0, "lon": -77.02223283333333, "lat": 38.93551133333333, "is_reserved": 0, "is_disabled": 0, "rental_uris": {"android": "https://dc.lft.to/lastmile_qr_scan", "ios": "https://dc.lft.to/lastmile_qr_scan"}, "name": "deeba0f2ad270536055408fa152a7aa6", "type": "electric_scooter"}, {"fusion_lat": 0.0, "bike_id": "e021fa201b7b1d31c930684ee07cae34", "fusion_lon": 0.0, "lon": -77.0127815, "lat": 38.892296333333334, "is_reserved": 0, "is_disabled": 0, "rental_uris": {"android": "https://dc.lft.to/lastmile_qr_scan", "ios": "https://dc.lft.to/lastmile_qr_scan"}, "name": "e021fa201b7b1d31c930684ee07cae34", "type": "electric_scooter"}, {"fusion_lat": 0.0, "bike_id": "be0099fa8c5328bdaa7ac2bae1c40267", "fusion_lon": 0.0, "lon": -77.02071966666666, "lat": 38.892779833333336, "is_reserved": 0, "is_disabled": 0, "rental_uris": {"android": "https://dc.lft.to/lastmile_qr_scan", "ios": "https://dc.lft.to/lastmile_qr_scan"}, "name": "be0099fa8c5328bdaa7ac2bae1c40267", "type": "electric_scooter"}, {"fusion_lat": 0.0, "bike_id": "d30ac6b780cb5f14d177c1feecbe5fc1", "fusion_lon": 0.0, "lon": -77.00712616666667, "lat": 38.903755, "is_reserved": 0, "is_disabled": 0, "rental_uris": {"android": "https://dc.lft.to/lastmile_qr_scan", "ios": "https://dc.lft.to/lastmile_qr_scan"}, "name": "d30ac6b780cb5f14d177c1feecbe5fc1", "type": "electric_scooter"}, {"fusion_lat": 0.0, "bike_id": "a4162538d3c7768ff278f277d679d846", "fusion_lon": 0.0, "lon": -77.031836, "lat": 38.89615583333333, "is_reserved": 0, "is_disabled": 0, "rental_uris": {"android": "https://dc.lft.to/lastmile_qr_scan", "ios": "https://dc.lft.to/lastmile_qr_scan"}, "name": "a4162538d3c7768ff278f277d679d846", "type": "electric_scooter"}, {"fusion_lat": 0.0, "bike_id": "b19bedb849ab5349966d7657be733e30", "fusion_lon": 0.0, "lon": -77.04513, "lat": 38.904994333333335, "is_reserved": 0, "is_disabled": 0, "rental_uris": {"android": "https://dc.lft.to/lastmile_qr_scan", "ios": "https://dc.lft.to/lastmile_qr_scan"}, "name": "b19bedb849ab5349966d7657be733e30", "type": "electric_scooter"}, {"fusion_lat": 0.0, "bike_id": "fe8adcdb5d63b8e6bf1798595837f871", "fusion_lon": 0.0, "lon": -77.02183516666666, "lat": 38.89892716666667, "is_reserved": 0, "is_disabled": 0, "rental_uris": {"android": "https://dc.lft.to/lastmile_qr_scan", "ios": "https://dc.lft.to/lastmile_qr_scan"}, "name": "fe8adcdb5d63b8e6bf1798595837f871", "type": "electric_scooter"}, {"fusion_lat": 0.0, "bike_id": "91f66c1ea954b88df5959fef2fdfe644", "fusion_lon": 0.0, "lon": -77.0284655, "lat": 38.932255, "is_reserved": 0, "is_disabled": 0, "rental_uris": {"android": "https://dc.lft.to/lastmile_qr_scan", "ios": "https://dc.lft.to/lastmile_qr_scan"}, "name": "91f66c1ea954b88df5959fef2fdfe644", "type": "electric_scooter"}, {"fusion_lat": 0.0, "bike_id": "c0dc9d259f339a8f35736dddd3a93bc3", "fusion_lon": 0.0, "lon": -76.97618366666667, "lat": 38.903799, "is_reserved": 0, "is_disabled": 0, "rental_uris": {"android": "https://dc.lft.to/lastmile_qr_scan", "ios": "https://dc.lft.to/lastmile_qr_scan"}, "name": "c0dc9d259f339a8f35736dddd3a93bc3", "type": "electric_scooter"}, {"fusion_lat": 0.0, "bike_id": "940a4c1a59be436e7052028dcda6ea0a", "fusion_lon": 0.0, "lon": -76.99940183333334, "lat": 38.919278, "is_reserved": 0, "is_disabled": 0, "rental_uris": {"android": "https://dc.lft.to/lastmile_qr_scan", "ios": "https://dc.lft.to/lastmile_qr_scan"}, "name": "940a4c1a59be436e7052028dcda6ea0a", "type": "electric_scooter"}, {"fusion_lat": 0.0, "bike_id": "26e10807c2317ae4d6140cd7f1549928", "fusion_lon": 0.0, "lon": -76.954612, "lat": 38.936310166666665, "is_reserved": 0, "is_disabled": 0, "rental_uris": {"android": "https://dc.lft.to/lastmile_qr_scan", "ios": "https://dc.lft.to/lastmile_qr_scan"}, "name": "26e10807c2317ae4d6140cd7f1549928", "type": "electric_bike"}, {"fusion_lat": 0.0, "bike_id": "38b2c1d4dfdfbf81763d54c495a16eb3", "fusion_lon": 0.0, "lon": -77.0341415, "lat": 38.922576166666666, "is_reserved": 0, "is_disabled": 0, "rental_uris": {"android": "https://dc.lft.to/lastmile_qr_scan", "ios": "https://dc.lft.to/lastmile_qr_scan"}, "name": "38b2c1d4dfdfbf81763d54c495a16eb3", "type": "electric_scooter"}, {"fusion_lat": 0.0, "bike_id": "0d5cefe10893b8c32aa77d4c91e61cea", "fusion_lon": 0.0, "lon": -77.02204983333333, "lat": 38.91243766666667, "is_reserved": 0, "is_disabled": 0, "rental_uris": {"android": "https://dc.lft.to/lastmile_qr_scan", "ios": "https://dc.lft.to/lastmile_qr_scan"}, "name": "0d5cefe10893b8c32aa77d4c91e61cea", "type": "electric_scooter"}, {"fusion_lat": 0.0, "bike_id": "36a4e3505b4a32c79685615b1b48dadc", "fusion_lon": 0.0, "lon": -77.03072983333334, "lat": 38.924824, "is_reserved": 0, "is_disabled": 0, "rental_uris": {"android": "https://dc.lft.to/lastmile_qr_scan", "ios": "https://dc.lft.to/lastmile_qr_scan"}, "name": "36a4e3505b4a32c79685615b1b48dadc", "type": "electric_scooter"}, {"fusion_lat": 0.0, "bike_id": "2508efc3dc2af887b83255d033f1ceab", "fusion_lon": 0.0, "lon": -77.04139383333333, "lat": 38.9229515, "is_reserved": 0, "is_disabled": 0, "rental_uris": {"android": "https://dc.lft.to/lastmile_qr_scan", "ios": "https://dc.lft.to/lastmile_qr_scan"}, "name": "2508efc3dc2af887b83255d033f1ceab", "type": "electric_scooter"}, {"fusion_lat": 0.0, "bike_id": "4fa4d1b872f356f730c72952f5066d7c", "fusion_lon": 0.0, "lon": -76.9993735, "lat": 38.89635666666667, "is_reserved": 0, "is_disabled": 0, "rental_uris": {"android": "https://dc.lft.to/lastmile_qr_scan", "ios": "https://dc.lft.to/lastmile_qr_scan"}, "name": "4fa4d1b872f356f730c72952f5066d7c", "type": "electric_scooter"}, {"fusion_lat": 0.0, "bike_id": "d1ff61bf52da51abc6feb4b0906c0e12", "fusion_lon": 0.0, "lon": -77.02204666666667, "lat": 38.91270633333333, "is_reserved": 0, "is_disabled": 0, "rental_uris": {"android": "https://dc.lft.to/lastmile_qr_scan", "ios": "https://dc.lft.to/lastmile_qr_scan"}, "name": "d1ff61bf52da51abc6feb4b0906c0e12", "type": "electric_scooter"}, {"fusion_lat": 0.0, "bike_id": "d7fcbe1f9fc50d20bc559ddb75bf2c6c", "fusion_lon": 0.0, "lon": -76.98461, "lat": 38.905555166666666, "is_reserved": 0, "is_disabled": 0, "rental_uris": {"android": "https://dc.lft.to/lastmile_qr_scan", "ios": "https://dc.lft.to/lastmile_qr_scan"}, "name": "d7fcbe1f9fc50d20bc559ddb75bf2c6c", "type": "electric_scooter"}, {"fusion_lat": 0.0, "bike_id": "d1cec01ad7c12e528383f51f684b151b", "fusion_lon": 0.0, "lon": -77.031872, "lat": 38.91166533333333, "is_reserved": 0, "is_disabled": 0, "rental_uris": {"android": "https://dc.lft.to/lastmile_qr_scan", "ios": "https://dc.lft.to/lastmile_qr_scan"}, "name": "d1cec01ad7c12e528383f51f684b151b", "type": "electric_scooter"}, {"fusion_lat": 0.0, "bike_id": "fe500afce365923c490d1ddc35fd2f9a", "fusion_lon": 0.0, "lon": -76.98830383333333, "lat": 38.9003725, "is_reserved": 0, "is_disabled": 0, "rental_uris": {"android": "https://dc.lft.to/lastmile_qr_scan", "ios": "https://dc.lft.to/lastmile_qr_scan"}, "name": "fe500afce365923c490d1ddc35fd2f9a", "type": "electric_scooter"}, {"fusion_lat": 0.0, "bike_id": "02c999404c804fb01fe08caba6d6ff97", "fusion_lon": 0.0, "lon": -77.02883566666667, "lat": 38.900057333333336, "is_reserved": 0, "is_disabled": 0, "rental_uris": {"android": "https://dc.lft.to/lastmile_qr_scan", "ios": "https://dc.lft.to/lastmile_qr_scan"}, "name": "02c999404c804fb01fe08caba6d6ff97", "type": "electric_scooter"}, {"fusion_lat": 0.0, "bike_id": "b794b80fc093bca7b226727d2daea57d", "fusion_lon": 0.0, "lon": -77.04625183333333, "lat": 38.915467166666666, "is_reserved": 0, "is_disabled": 0, "rental_uris": {"android": "https://dc.lft.to/lastmile_qr_scan", "ios": "https://dc.lft.to/lastmile_qr_scan"}, "name": "b794b80fc093bca7b226727d2daea57d", "type": "electric_scooter"}, {"fusion_lat": 0.0, "bike_id": "a0f0fd33f12728249c67458443d9b96b", "fusion_lon": 0.0, "lon": -77.02712766666667, "lat": 38.91249333333333, "is_reserved": 0, "is_disabled": 0, "rental_uris": {"android": "https://dc.lft.to/lastmile_qr_scan", "ios": "https://dc.lft.to/lastmile_qr_scan"}, "name": "a0f0fd33f12728249c67458443d9b96b", "type": "electric_scooter"}, {"fusion_lat": 0.0, "bike_id": "e837be17f11542129be6ec398ebd54c1", "fusion_lon": 0.0, "lon": -77.00453233333333, "lat": 38.920845666666665, "is_reserved": 0, "is_disabled": 0, "rental_uris": {"android": "https://dc.lft.to/lastmile_qr_scan", "ios": "https://dc.lft.to/lastmile_qr_scan"}, "name": "e837be17f11542129be6ec398ebd54c1", "type": "electric_scooter"}, {"fusion_lat": 0.0, "bike_id": "ec72a25e5f2bc1ebbc30b0a6bf4f4f5a", "fusion_lon": 0.0, "lon": -77.04148066666667, "lat": 38.917043, "is_reserved": 0, "is_disabled": 0, "rental_uris": {"android": "https://dc.lft.to/lastmile_qr_scan", "ios": "https://dc.lft.to/lastmile_qr_scan"}, "name": "ec72a25e5f2bc1ebbc30b0a6bf4f4f5a", "type": "electric_scooter"}, {"fusion_lat": 0.0, "bike_id": "a19dc2618482579b696c535253d2705a", "fusion_lon": 0.0, "lon": -77.03287316666666, "lat": 38.91695816666667, "is_reserved": 0, "is_disabled": 0, "rental_uris": {"android": "https://dc.lft.to/lastmile_qr_scan", "ios": "https://dc.lft.to/lastmile_qr_scan"}, "name": "a19dc2618482579b696c535253d2705a", "type": "electric_scooter"}, {"fusion_lat": 0.0, "bike_id": "397d9ed0ee034b9810e767d37c6fea9f", "fusion_lon": 0.0, "lon": -76.99850016666667, "lat": 38.89621433333333, "is_reserved": 0, "is_disabled": 0, "rental_uris": {"android": "https://dc.lft.to/lastmile_qr_scan", "ios": "https://dc.lft.to/lastmile_qr_scan"}, "name": "397d9ed0ee034b9810e767d37c6fea9f", "type": "electric_scooter"}, {"fusion_lat": 0.0, "bike_id": "39ada97358272b0d5ecc33c718785085", "fusion_lon": 0.0, "lon": -77.01548316666667, "lat": 38.8916895, "is_reserved": 0, "is_disabled": 0, "rental_uris": {"android": "https://dc.lft.to/lastmile_qr_scan", "ios": "https://dc.lft.to/lastmile_qr_scan"}, "name": "39ada97358272b0d5ecc33c718785085", "type": "electric_scooter"}, {"fusion_lat": 0.0, "bike_id": "4f7dcff7e721cdf404093370286e1a9c", "fusion_lon": 0.0, "lon": -77.073111, "lat": 38.9223755, "is_reserved": 0, "is_disabled": 0, "rental_uris": {"android": "https://dc.lft.to/lastmile_qr_scan", "ios": "https://dc.lft.to/lastmile_qr_scan"}, "name": "4f7dcff7e721cdf404093370286e1a9c", "type": "electric_scooter"}, {"fusion_lat": 0.0, "bike_id": "3096a0fdb0c9230176473331a7efc185", "fusion_lon": 0.0, "lon": -77.025129, "lat": 38.892282, "is_reserved": 0, "is_disabled": 0, "rental_uris": {"android": "https://dc.lft.to/lastmile_qr_scan", "ios": "https://dc.lft.to/lastmile_qr_scan"}, "name": "3096a0fdb0c9230176473331a7efc185", "type": "electric_scooter"}, {"fusion_lat": 0.0, "bike_id": "f8effd1290bae1bee6a7643a82ec2a0e", "fusion_lon": 0.0, "lon": -77.01722516666666, "lat": 38.88590516666667, "is_reserved": 0, "is_disabled": 0, "rental_uris": {"android": "https://dc.lft.to/lastmile_qr_scan", "ios": "https://dc.lft.to/lastmile_qr_scan"}, "name": "f8effd1290bae1bee6a7643a82ec2a0e", "type": "electric_scooter"}, {"fusion_lat": 0.0, "bike_id": "fe834439a0f76f249cd520f8c97515d3", "fusion_lon": 0.0, "lon": -76.94633516666667, "lat": 38.898296333333334, "is_reserved": 0, "is_disabled": 0, "rental_uris": {"android": "https://dc.lft.to/lastmile_qr_scan", "ios": "https://dc.lft.to/lastmile_qr_scan"}, "name": "fe834439a0f76f249cd520f8c97515d3", "type": "electric_scooter"}, {"fusion_lat": 0.0, "bike_id": "2e3841dda41410f69897dd2711ec14eb", "fusion_lon": 0.0, "lon": -77.03748183333333, "lat": 38.912562666666666, "is_reserved": 0, "is_disabled": 0, "rental_uris": {"android": "https://dc.lft.to/lastmile_qr_scan", "ios": "https://dc.lft.to/lastmile_qr_scan"}, "name": "2e3841dda41410f69897dd2711ec14eb", "type": "electric_scooter"}, {"fusion_lat": 0.0, "bike_id": "e924ff4a97d969fc0b724ecb0500b77d", "fusion_lon": 0.0, "lon": -76.99774766666667, "lat": 38.84426633333333, "is_reserved": 0, "is_disabled": 0, "rental_uris": {"android": "https://dc.lft.to/lastmile_qr_scan", "ios": "https://dc.lft.to/lastmile_qr_scan"}, "name": "e924ff4a97d969fc0b724ecb0500b77d", "type": "electric_scooter"}, {"fusion_lat": 0.0, "bike_id": "9c5a88ec87a6aae30fced1ec11eb8d66", "fusion_lon": 0.0, "lon": -77.067487, "lat": 38.90341433333333, "is_reserved": 0, "is_disabled": 0, "rental_uris": {"android": "https://dc.lft.to/lastmile_qr_scan", "ios": "https://dc.lft.to/lastmile_qr_scan"}, "name": "9c5a88ec87a6aae30fced1ec11eb8d66", "type": "electric_scooter"}, {"fusion_lat": 0.0, "bike_id": "bd50d78805a8c79f3a31406b6b3481b8", "fusion_lon": 0.0, "lon": -77.03022516666667, "lat": 38.91803983333333, "is_reserved": 0, "is_disabled": 0, "rental_uris": {"android": "https://dc.lft.to/lastmile_qr_scan", "ios": "https://dc.lft.to/lastmile_qr_scan"}, "name": "bd50d78805a8c79f3a31406b6b3481b8", "type": "electric_scooter"}, {"fusion_lat": 0.0, "bike_id": "06c21947b041ba0f09d4ca2d22b7f772", "fusion_lon": 0.0, "lon": -77.00083016666666, "lat": 38.90756716666667, "is_reserved": 0, "is_disabled": 0, "rental_uris": {"android": "https://dc.lft.to/lastmile_qr_scan", "ios": "https://dc.lft.to/lastmile_qr_scan"}, "name": "06c21947b041ba0f09d4ca2d22b7f772", "type": "electric_scooter"}, {"fusion_lat": 0.0, "bike_id": "8761687c09f414ca15d99a1aef689ec9", "fusion_lon": 0.0, "lon": -77.02414516666667, "lat": 38.9086165, "is_reserved": 0, "is_disabled": 0, "rental_uris": {"android": "https://dc.lft.to/lastmile_qr_scan", "ios": "https://dc.lft.to/lastmile_qr_scan"}, "name": "8761687c09f414ca15d99a1aef689ec9", "type": "electric_scooter"}, {"fusion_lat": 0.0, "bike_id": "6245bf7db185d7ff02d913b598b903e8", "fusion_lon": 0.0, "lon": -76.97592, "lat": 38.903332666666664, "is_reserved": 0, "is_disabled": 0, "rental_uris": {"android": "https://dc.lft.to/lastmile_qr_scan", "ios": "https://dc.lft.to/lastmile_qr_scan"}, "name": "6245bf7db185d7ff02d913b598b903e8", "type": "electric_scooter"}, {"fusion_lat": 0.0, "bike_id": "ded4515c5a00b92acab272af53160bfd", "fusion_lon": 0.0, "lon": -77.06286683333333, "lat": 38.905019333333335, "is_reserved": 0, "is_disabled": 0, "rental_uris": {"android": "https://dc.lft.to/lastmile_qr_scan", "ios": "https://dc.lft.to/lastmile_qr_scan"}, "name": "ded4515c5a00b92acab272af53160bfd", "type": "electric_scooter"}, {"fusion_lat": 0.0, "bike_id": "df836a2065333fca47382465522920da", "fusion_lon": 0.0, "lon": -77.038765, "lat": 38.902739833333335, "is_reserved": 0, "is_disabled": 0, "rental_uris": {"android": "https://dc.lft.to/lastmile_qr_scan", "ios": "https://dc.lft.to/lastmile_qr_scan"}, "name": "df836a2065333fca47382465522920da", "type": "electric_scooter"}, {"fusion_lat": 0.0, "bike_id": "2bae58ac711505c65a18374f03478781", "fusion_lon": 0.0, "lon": -77.029574, "lat": 38.93059, "is_reserved": 0, "is_disabled": 0, "rental_uris": {"android": "https://dc.lft.to/lastmile_qr_scan", "ios": "https://dc.lft.to/lastmile_qr_scan"}, "name": "2bae58ac711505c65a18374f03478781", "type": "electric_scooter"}, {"fusion_lat": 0.0, "bike_id": "f83ebeca29ec71108b3bcea4ff69425f", "fusion_lon": 0.0, "lon": -77.03103783333333, "lat": 38.93099266666667, "is_reserved": 0, "is_disabled": 0, "rental_uris": {"android": "https://dc.lft.to/lastmile_qr_scan", "ios": "https://dc.lft.to/lastmile_qr_scan"}, "name": "f83ebeca29ec71108b3bcea4ff69425f", "type": "electric_scooter"}, {"fusion_lat": 0.0, "bike_id": "df18e30cae58ef336e88addcb7256a6d", "fusion_lon": 0.0, "lon": -77.03445433333333, "lat": 38.930898, "is_reserved": 0, "is_disabled": 0, "rental_uris": {"android": "https://dc.lft.to/lastmile_qr_scan", "ios": "https://dc.lft.to/lastmile_qr_scan"}, "name": "df18e30cae58ef336e88addcb7256a6d", "type": "electric_scooter"}, {"fusion_lat": 0.0, "bike_id": "65e10fe9926851aee1623695c443ffc2", "fusion_lon": 0.0, "lon": -77.04133533333334, "lat": 38.9265405, "is_reserved": 0, "is_disabled": 0, "rental_uris": {"android": "https://dc.lft.to/lastmile_qr_scan", "ios": "https://dc.lft.to/lastmile_qr_scan"}, "name": "65e10fe9926851aee1623695c443ffc2", "type": "electric_scooter"}, {"fusion_lat": 0.0, "bike_id": "1510ac35fe6ae1a3c079908f49e17719", "fusion_lon": 0.0, "lon": -76.99542183333334, "lat": 38.883686833333336, "is_reserved": 0, "is_disabled": 0, "rental_uris": {"android": "https://dc.lft.to/lastmile_qr_scan", "ios": "https://dc.lft.to/lastmile_qr_scan"}, "name": "1510ac35fe6ae1a3c079908f49e17719", "type": "electric_scooter"}, {"fusion_lat": 0.0, "bike_id": "948d7494854087f6dea7667483de9d41", "fusion_lon": 0.0, "lon": -77.03641816666666, "lat": 38.923062333333334, "is_reserved": 0, "is_disabled": 0, "rental_uris": {"android": "https://dc.lft.to/lastmile_qr_scan", "ios": "https://dc.lft.to/lastmile_qr_scan"}, "name": "948d7494854087f6dea7667483de9d41", "type": "electric_scooter"}, {"fusion_lat": 0.0, "bike_id": "8dd50b5f54150bb88a7fd91e3eb14724", "fusion_lon": 0.0, "lon": -77.03267666666666, "lat": 38.9415705, "is_reserved": 0, "is_disabled": 0, "rental_uris": {"android": "https://dc.lft.to/lastmile_qr_scan", "ios": "https://dc.lft.to/lastmile_qr_scan"}, "name": "8dd50b5f54150bb88a7fd91e3eb14724", "type": "electric_scooter"}, {"fusion_lat": 0.0, "bike_id": "c0bf63270699e6c7b29a3bb1b254fec0", "fusion_lon": 0.0, "lon": -77.01663416666666, "lat": 38.87695733333334, "is_reserved": 0, "is_disabled": 0, "rental_uris": {"android": "https://dc.lft.to/lastmile_qr_scan", "ios": "https://dc.lft.to/lastmile_qr_scan"}, "name": "c0bf63270699e6c7b29a3bb1b254fec0", "type": "electric_scooter"}, {"fusion_lat": 0.0, "bike_id": "d5c0230167dec37a6cfc71f9eb37c0ca", "fusion_lon": 0.0, "lon": -77.04267483333334, "lat": 38.9223505, "is_reserved": 0, "is_disabled": 0, "rental_uris": {"android": "https://dc.lft.to/lastmile_qr_scan", "ios": "https://dc.lft.to/lastmile_qr_scan"}, "name": "d5c0230167dec37a6cfc71f9eb37c0ca", "type": "electric_scooter"}, {"fusion_lat": 0.0, "bike_id": "5b71b0db22158dbb4ea034549d57c0ec", "fusion_lon": 0.0, "lon": -77.07028983333333, "lat": 38.9186575, "is_reserved": 0, "is_disabled": 0, "rental_uris": {"android": "https://dc.lft.to/lastmile_qr_scan", "ios": "https://dc.lft.to/lastmile_qr_scan"}, "name": "5b71b0db22158dbb4ea034549d57c0ec", "type": "electric_scooter"}, {"fusion_lat": 0.0, "bike_id": "04ed1e51787d9e9664a5df6b9836b3b5", "fusion_lon": 0.0, "lon": -77.0181105, "lat": 38.91919016666667, "is_reserved": 0, "is_disabled": 0, "rental_uris": {"android": "https://dc.lft.to/lastmile_qr_scan", "ios": "https://dc.lft.to/lastmile_qr_scan"}, "name": "04ed1e51787d9e9664a5df6b9836b3b5", "type": "electric_scooter"}, {"fusion_lat": 0.0, "bike_id": "72c3d32575fcedcd9ff8a4518efaedb2", "fusion_lon": 0.0, "lon": -77.03209183333334, "lat": 38.895266666666664, "is_reserved": 0, "is_disabled": 0, "rental_uris": {"android": "https://dc.lft.to/lastmile_qr_scan", "ios": "https://dc.lft.to/lastmile_qr_scan"}, "name": "72c3d32575fcedcd9ff8a4518efaedb2", "type": "electric_scooter"}, {"fusion_lat": 0.0, "bike_id": "b784fe1f5c20e24b4340f3a1b57db912", "fusion_lon": 0.0, "lon": -77.07821166666666, "lat": 38.945760166666666, "is_reserved": 0, "is_disabled": 0, "rental_uris": {"android": "https://dc.lft.to/lastmile_qr_scan", "ios": "https://dc.lft.to/lastmile_qr_scan"}, "name": "b784fe1f5c20e24b4340f3a1b57db912", "type": "electric_bike"}, {"fusion_lat": 0.0, "bike_id": "fe982969ff3129c87e35e404522ef062", "fusion_lon": 0.0, "lon": -77.03616183333334, "lat": 38.91722266666667, "is_reserved": 0, "is_disabled": 0, "rental_uris": {"android": "https://dc.lft.to/lastmile_qr_scan", "ios": "https://dc.lft.to/lastmile_qr_scan"}, "name": "fe982969ff3129c87e35e404522ef062", "type": "electric_scooter"}, {"fusion_lat": 0.0, "bike_id": "7afed3e10bec136b4c8236507f9b85b6", "fusion_lon": 0.0, "lon": -77.07318916666667, "lat": 38.927257166666664, "is_reserved": 0, "is_disabled": 0, "rental_uris": {"android": "https://dc.lft.to/lastmile_qr_scan", "ios": "https://dc.lft.to/lastmile_qr_scan"}, "name": "7afed3e10bec136b4c8236507f9b85b6", "type": "electric_bike"}, {"fusion_lat": 0.0, "bike_id": "6218ea3f2faae07f6503a2f75c82beee", "fusion_lon": 0.0, "lon": -77.11779683333333, "lat": 39.05491833333333, "is_reserved": 0, "is_disabled": 0, "rental_uris": {"android": "https://dc.lft.to/lastmile_qr_scan", "ios": "https://dc.lft.to/lastmile_qr_scan"}, "name": "6218ea3f2faae07f6503a2f75c82beee", "type": "electric_bike"}, {"fusion_lat": 0.0, "bike_id": "14ea2a45438840a7b2727ba305da004e", "fusion_lon": 0.0, "lon": -77.041756, "lat": 38.919754, "is_reserved": 0, "is_disabled": 0, "rental_uris": {"android": "https://dc.lft.to/lastmile_qr_scan", "ios": "https://dc.lft.to/lastmile_qr_scan"}, "name": "14ea2a45438840a7b2727ba305da004e", "type": "electric_scooter"}, {"fusion_lat": 0.0, "bike_id": "60c937536748ad29807e5d6e24530e4b", "fusion_lon": 0.0, "lon": -76.9708335, "lat": 38.89217983333333, "is_reserved": 0, "is_disabled": 0, "rental_uris": {"android": "https://dc.lft.to/lastmile_qr_scan", "ios": "https://dc.lft.to/lastmile_qr_scan"}, "name": "60c937536748ad29807e5d6e24530e4b", "type": "electric_bike"}, {"fusion_lat": 0.0, "bike_id": "1356931a755104c1b206af9b331a3168", "fusion_lon": 0.0, "lon": -76.92926466666667, "lat": 38.902741, "is_reserved": 0, "is_disabled": 0, "rental_uris": {"android": "https://dc.lft.to/lastmile_qr_scan", "ios": "https://dc.lft.to/lastmile_qr_scan"}, "name": "1356931a755104c1b206af9b331a3168", "type": "electric_bike"}, {"fusion_lat": 0.0, "bike_id": "30e6a281c756df84a52337551a7b8ef3", "fusion_lon": 0.0, "lon": -76.94977633333333, "lat": 38.89372, "is_reserved": 0, "is_disabled": 0, "rental_uris": {"android": "https://dc.lft.to/lastmile_qr_scan", "ios": "https://dc.lft.to/lastmile_qr_scan"}, "name": "30e6a281c756df84a52337551a7b8ef3", "type": "electric_scooter"}, {"fusion_lat": 0.0, "bike_id": "fb3e336366edd42ebd76849197a44bee", "fusion_lon": 0.0, "lon": -77.0628475, "lat": 38.905615, "is_reserved": 0, "is_disabled": 0, "rental_uris": {"android": "https://dc.lft.to/lastmile_qr_scan", "ios": "https://dc.lft.to/lastmile_qr_scan"}, "name": "fb3e336366edd42ebd76849197a44bee", "type": "electric_scooter"}, {"fusion_lat": 0.0, "bike_id": "2552dda410b7e99c29513846c443539a", "fusion_lon": 0.0, "lon": -77.02387616666667, "lat": 38.90796133333333, "is_reserved": 0, "is_disabled": 0, "rental_uris": {"android": "https://dc.lft.to/lastmile_qr_scan", "ios": "https://dc.lft.to/lastmile_qr_scan"}, "name": "2552dda410b7e99c29513846c443539a", "type": "electric_scooter"}, {"fusion_lat": 0.0, "bike_id": "3958adc2989efca143cf138a007fbcba", "fusion_lon": 0.0, "lon": -77.01963733333334, "lat": 38.92318983333333, "is_reserved": 0, "is_disabled": 0, "rental_uris": {"android": "https://dc.lft.to/lastmile_qr_scan", "ios": "https://dc.lft.to/lastmile_qr_scan"}, "name": "3958adc2989efca143cf138a007fbcba", "type": "electric_scooter"}, {"fusion_lat": 0.0, "bike_id": "0683e361afbbfc7dae03f6b5c3424c94", "fusion_lon": 0.0, "lon": -77.0120315, "lat": 38.89680083333333, "is_reserved": 0, "is_disabled": 0, "rental_uris": {"android": "https://dc.lft.to/lastmile_qr_scan", "ios": "https://dc.lft.to/lastmile_qr_scan"}, "name": "0683e361afbbfc7dae03f6b5c3424c94", "type": "electric_scooter"}, {"fusion_lat": 0.0, "bike_id": "2ad0ca4ec3049fdd2b31ac102b76b0b6", "fusion_lon": 0.0, "lon": -77.05765633333333, "lat": 38.90524633333333, "is_reserved": 0, "is_disabled": 0, "rental_uris": {"android": "https://dc.lft.to/lastmile_qr_scan", "ios": "https://dc.lft.to/lastmile_qr_scan"}, "name": "2ad0ca4ec3049fdd2b31ac102b76b0b6", "type": "electric_scooter"}, {"fusion_lat": 0.0, "bike_id": "6ef2f3643be8e345db1fd25a495825f8", "fusion_lon": 0.0, "lon": -77.00694916666667, "lat": 38.90918533333333, "is_reserved": 0, "is_disabled": 0, "rental_uris": {"android": "https://dc.lft.to/lastmile_qr_scan", "ios": "https://dc.lft.to/lastmile_qr_scan"}, "name": "6ef2f3643be8e345db1fd25a495825f8", "type": "electric_scooter"}, {"fusion_lat": 0.0, "bike_id": "a6b7e887a4f747bfae962abbb4d55622", "fusion_lon": 0.0, "lon": -76.99735066666666, "lat": 39.04233716666667, "is_reserved": 0, "is_disabled": 0, "rental_uris": {"android": "https://dc.lft.to/lastmile_qr_scan", "ios": "https://dc.lft.to/lastmile_qr_scan"}, "name": "a6b7e887a4f747bfae962abbb4d55622", "type": "electric_bike"}, {"fusion_lat": 0.0, "bike_id": "4c9861925afdeb6d7aaca2a8ce00a125", "fusion_lon": 0.0, "lon": -77.04340716666667, "lat": 38.923184666666664, "is_reserved": 0, "is_disabled": 0, "rental_uris": {"android": "https://dc.lft.to/lastmile_qr_scan", "ios": "https://dc.lft.to/lastmile_qr_scan"}, "name": "4c9861925afdeb6d7aaca2a8ce00a125", "type": "electric_scooter"}, {"fusion_lat": 0.0, "bike_id": "7bc48bfc43e940aff8d75ef70ae0be6c", "fusion_lon": 0.0, "lon": -77.03449783333333, "lat": 38.90736, "is_reserved": 0, "is_disabled": 0, "rental_uris": {"android": "https://dc.lft.to/lastmile_qr_scan", "ios": "https://dc.lft.to/lastmile_qr_scan"}, "name": "7bc48bfc43e940aff8d75ef70ae0be6c", "type": "electric_scooter"}, {"fusion_lat": 0.0, "bike_id": "07ebbdf36f8ff8b372cc6c115ae1545c", "fusion_lon": 0.0, "lon": -76.9353175, "lat": 38.896836, "is_reserved": 0, "is_disabled": 0, "rental_uris": {"android": "https://dc.lft.to/lastmile_qr_scan", "ios": "https://dc.lft.to/lastmile_qr_scan"}, "name": "07ebbdf36f8ff8b372cc6c115ae1545c", "type": "electric_scooter"}, {"fusion_lat": 0.0, "bike_id": "0a76d79e3c070b32ddbfe0d776375215", "fusion_lon": 0.0, "lon": -77.00066, "lat": 38.901436, "is_reserved": 0, "is_disabled": 0, "rental_uris": {"android": "https://dc.lft.to/lastmile_qr_scan", "ios": "https://dc.lft.to/lastmile_qr_scan"}, "name": "0a76d79e3c070b32ddbfe0d776375215", "type": "electric_scooter"}, {"fusion_lat": 0.0, "bike_id": "9dbdf703e7249d3c9b0ef2fbc1162341", "fusion_lon": 0.0, "lon": -77.059285, "lat": 38.905652833333335, "is_reserved": 0, "is_disabled": 0, "rental_uris": {"android": "https://dc.lft.to/lastmile_qr_scan", "ios": "https://dc.lft.to/lastmile_qr_scan"}, "name": "9dbdf703e7249d3c9b0ef2fbc1162341", "type": "electric_scooter"}, {"fusion_lat": 0.0, "bike_id": "a2446d7c9ae27d7133e41d474e3657ea", "fusion_lon": 0.0, "lon": -77.03429166666666, "lat": 38.927387, "is_reserved": 0, "is_disabled": 0, "rental_uris": {"android": "https://dc.lft.to/lastmile_qr_scan", "ios": "https://dc.lft.to/lastmile_qr_scan"}, "name": "a2446d7c9ae27d7133e41d474e3657ea", "type": "electric_scooter"}, {"fusion_lat": 0.0, "bike_id": "e969c99b1ea738bfc8d8f7d365d79220", "fusion_lon": 0.0, "lon": -77.02823633333334, "lat": 38.950836333333335, "is_reserved": 0, "is_disabled": 0, "rental_uris": {"android": "https://dc.lft.to/lastmile_qr_scan", "ios": "https://dc.lft.to/lastmile_qr_scan"}, "name": "e969c99b1ea738bfc8d8f7d365d79220", "type": "electric_scooter"}, {"fusion_lat": 0.0, "bike_id": "68de711b20672c36b1a87de42501c396", "fusion_lon": 0.0, "lon": -77.0316795, "lat": 38.894278666666665, "is_reserved": 0, "is_disabled": 0, "rental_uris": {"android": "https://dc.lft.to/lastmile_qr_scan", "ios": "https://dc.lft.to/lastmile_qr_scan"}, "name": "68de711b20672c36b1a87de42501c396", "type": "electric_scooter"}, {"fusion_lat": 0.0, "bike_id": "c91d4fde28bd289d0091dbfb4671b5be", "fusion_lon": 0.0, "lon": -77.03367466666667, "lat": 38.9278675, "is_reserved": 0, "is_disabled": 0, "rental_uris": {"android": "https://dc.lft.to/lastmile_qr_scan", "ios": "https://dc.lft.to/lastmile_qr_scan"}, "name": "c91d4fde28bd289d0091dbfb4671b5be", "type": "electric_scooter"}, {"fusion_lat": 0.0, "bike_id": "922de68ec4c0bd71d685ffefffa62f76", "fusion_lon": 0.0, "lon": -77.04423566666667, "lat": 38.92127333333333, "is_reserved": 0, "is_disabled": 0, "rental_uris": {"android": "https://dc.lft.to/lastmile_qr_scan", "ios": "https://dc.lft.to/lastmile_qr_scan"}, "name": "922de68ec4c0bd71d685ffefffa62f76", "type": "electric_scooter"}, {"fusion_lat": 0.0, "bike_id": "b4aec466064c704c31fa83ab33998401", "fusion_lon": 0.0, "lon": -77.04577833333333, "lat": 38.9094385, "is_reserved": 0, "is_disabled": 0, "rental_uris": {"android": "https://dc.lft.to/lastmile_qr_scan", "ios": "https://dc.lft.to/lastmile_qr_scan"}, "name": "b4aec466064c704c31fa83ab33998401", "type": "electric_scooter"}, {"fusion_lat": 0.0, "bike_id": "5cf828747e4db130b2b9f94010fff070", "fusion_lon": 0.0, "lon": -77.022686, "lat": 38.924119, "is_reserved": 0, "is_disabled": 0, "rental_uris": {"android": "https://dc.lft.to/lastmile_qr_scan", "ios": "https://dc.lft.to/lastmile_qr_scan"}, "name": "5cf828747e4db130b2b9f94010fff070", "type": "electric_scooter"}, {"fusion_lat": 0.0, "bike_id": "b177d30b06b63e59879d30b4a87ae264", "fusion_lon": 0.0, "lon": -76.93134916666666, "lat": 38.878446, "is_reserved": 0, "is_disabled": 0, "rental_uris": {"android": "https://dc.lft.to/lastmile_qr_scan", "ios": "https://dc.lft.to/lastmile_qr_scan"}, "name": "b177d30b06b63e59879d30b4a87ae264", "type": "electric_scooter"}, {"fusion_lat": 0.0, "bike_id": "145de8e4f516dd30e6efbe35dd193119", "fusion_lon": 0.0, "lon": -77.00341016666667, "lat": 38.903622, "is_reserved": 0, "is_disabled": 0, "rental_uris": {"android": "https://dc.lft.to/lastmile_qr_scan", "ios": "https://dc.lft.to/lastmile_qr_scan"}, "name": "145de8e4f516dd30e6efbe35dd193119", "type": "electric_scooter"}, {"fusion_lat": 0.0, "bike_id": "0c8bcf9fc8ae3705c2e552425252082c", "fusion_lon": 0.0, "lon": -77.01636216666667, "lat": 38.928957, "is_reserved": 0, "is_disabled": 0, "rental_uris": {"android": "https://dc.lft.to/lastmile_qr_scan", "ios": "https://dc.lft.to/lastmile_qr_scan"}, "name": "0c8bcf9fc8ae3705c2e552425252082c", "type": "electric_scooter"}, {"fusion_lat": 0.0, "bike_id": "7644e3a09426e19b844bbb2d91a7406f", "fusion_lon": 0.0, "lon": -77.07288866666667, "lat": 38.9310335, "is_reserved": 0, "is_disabled": 0, "rental_uris": {"android": "https://dc.lft.to/lastmile_qr_scan", "ios": "https://dc.lft.to/lastmile_qr_scan"}, "name": "7644e3a09426e19b844bbb2d91a7406f", "type": "electric_scooter"}, {"fusion_lat": 0.0, "bike_id": "bcff380f1ddcc1a8d875744cbcd42dfe", "fusion_lon": 0.0, "lon": -77.02206666666666, "lat": 38.911334, "is_reserved": 0, "is_disabled": 0, "rental_uris": {"android": "https://dc.lft.to/lastmile_qr_scan", "ios": "https://dc.lft.to/lastmile_qr_scan"}, "name": "bcff380f1ddcc1a8d875744cbcd42dfe", "type": "electric_scooter"}, {"fusion_lat": 0.0, "bike_id": "84293feda804f72406bc94994bf4527d", "fusion_lon": 0.0, "lon": -77.031056, "lat": 38.93241833333333, "is_reserved": 0, "is_disabled": 0, "rental_uris": {"android": "https://dc.lft.to/lastmile_qr_scan", "ios": "https://dc.lft.to/lastmile_qr_scan"}, "name": "84293feda804f72406bc94994bf4527d", "type": "electric_scooter"}, {"fusion_lat": 0.0, "bike_id": "c4a7334202cb1d3e9a54121ba5c9a747", "fusion_lon": 0.0, "lon": -77.1032755, "lat": 38.8369115, "is_reserved": 0, "is_disabled": 0, "rental_uris": {"android": "https://dc.lft.to/lastmile_qr_scan", "ios": "https://dc.lft.to/lastmile_qr_scan"}, "name": "c4a7334202cb1d3e9a54121ba5c9a747", "type": "electric_bike"}, {"fusion_lat": 0.0, "bike_id": "6161401ad02f38f5f9a98c0e3d8b9dfd", "fusion_lon": 0.0, "lon": -77.03194483333333, "lat": 38.9163105, "is_reserved": 0, "is_disabled": 0, "rental_uris": {"android": "https://dc.lft.to/lastmile_qr_scan", "ios": "https://dc.lft.to/lastmile_qr_scan"}, "name": "6161401ad02f38f5f9a98c0e3d8b9dfd", "type": "electric_scooter"}, {"fusion_lat": 0.0, "bike_id": "e0a2f40dd8e37eaf7e900b2a0a491c69", "fusion_lon": 0.0, "lon": -77.0339775, "lat": 38.934618666666665, "is_reserved": 0, "is_disabled": 0, "rental_uris": {"android": "https://dc.lft.to/lastmile_qr_scan", "ios": "https://dc.lft.to/lastmile_qr_scan"}, "name": "e0a2f40dd8e37eaf7e900b2a0a491c69", "type": "electric_scooter"}, {"fusion_lat": 0.0, "bike_id": "655231b06d80f491ae2af0f5a60de413", "fusion_lon": 0.0, "lon": -77.03283783333333, "lat": 38.95624566666667, "is_reserved": 0, "is_disabled": 0, "rental_uris": {"android": "https://dc.lft.to/lastmile_qr_scan", "ios": "https://dc.lft.to/lastmile_qr_scan"}, "name": "655231b06d80f491ae2af0f5a60de413", "type": "electric_scooter"}, {"fusion_lat": 0.0, "bike_id": "8fd0b3269ff9455ee43339c648f91881", "fusion_lon": 0.0, "lon": -77.03220233333333, "lat": 38.89228333333333, "is_reserved": 0, "is_disabled": 0, "rental_uris": {"android": "https://dc.lft.to/lastmile_qr_scan", "ios": "https://dc.lft.to/lastmile_qr_scan"}, "name": "8fd0b3269ff9455ee43339c648f91881", "type": "electric_scooter"}, {"fusion_lat": 0.0, "bike_id": "0d3401c608a32257e1c656d954fba21b", "fusion_lon": 0.0, "lon": -77.00773966666667, "lat": 38.914917833333334, "is_reserved": 0, "is_disabled": 0, "rental_uris": {"android": "https://dc.lft.to/lastmile_qr_scan", "ios": "https://dc.lft.to/lastmile_qr_scan"}, "name": "0d3401c608a32257e1c656d954fba21b", "type": "electric_scooter"}, {"fusion_lat": 0.0, "bike_id": "2252d0259004ec6b00f59b947ad6c5c0", "fusion_lon": 0.0, "lon": -76.98566166666667, "lat": 38.90912083333333, "is_reserved": 0, "is_disabled": 0, "rental_uris": {"android": "https://dc.lft.to/lastmile_qr_scan", "ios": "https://dc.lft.to/lastmile_qr_scan"}, "name": "2252d0259004ec6b00f59b947ad6c5c0", "type": "electric_scooter"}, {"fusion_lat": 0.0, "bike_id": "ba76e5eb51446cb63c3fd29dd9ae2a39", "fusion_lon": 0.0, "lon": -77.05766166666666, "lat": 38.933771666666665, "is_reserved": 0, "is_disabled": 0, "rental_uris": {"android": "https://dc.lft.to/lastmile_qr_scan", "ios": "https://dc.lft.to/lastmile_qr_scan"}, "name": "ba76e5eb51446cb63c3fd29dd9ae2a39", "type": "electric_bike"}, {"fusion_lat": 0.0, "bike_id": "bd7ec56bc3bd1f79ab99de0e9ba6c1a3", "fusion_lon": 0.0, "lon": -76.99502566666666, "lat": 38.882848833333334, "is_reserved": 0, "is_disabled": 0, "rental_uris": {"android": "https://dc.lft.to/lastmile_qr_scan", "ios": "https://dc.lft.to/lastmile_qr_scan"}, "name": "bd7ec56bc3bd1f79ab99de0e9ba6c1a3", "type": "electric_scooter"}, {"fusion_lat": 0.0, "bike_id": "071e0886affbd8bf8e3ae2f60e098ca6", "fusion_lon": 0.0, "lon": -76.97340833333334, "lat": 38.865185, "is_reserved": 0, "is_disabled": 0, "rental_uris": {"android": "https://dc.lft.to/lastmile_qr_scan", "ios": "https://dc.lft.to/lastmile_qr_scan"}, "name": "071e0886affbd8bf8e3ae2f60e098ca6", "type": "electric_bike"}, {"fusion_lat": 0.0, "bike_id": "5891e4cdc9cd2f9e301c09af04570652", "fusion_lon": 0.0, "lon": -77.03073616666667, "lat": 38.917018666666664, "is_reserved": 0, "is_disabled": 0, "rental_uris": {"android": "https://dc.lft.to/lastmile_qr_scan", "ios": "https://dc.lft.to/lastmile_qr_scan"}, "name": "5891e4cdc9cd2f9e301c09af04570652", "type": "electric_scooter"}, {"fusion_lat": 0.0, "bike_id": "3829dafc0935f7123517c2e3d74e9c0d", "fusion_lon": 0.0, "lon": -76.98502816666667, "lat": 38.866708833333334, "is_reserved": 0, "is_disabled": 0, "rental_uris": {"android": "https://dc.lft.to/lastmile_qr_scan", "ios": "https://dc.lft.to/lastmile_qr_scan"}, "name": "3829dafc0935f7123517c2e3d74e9c0d", "type": "electric_scooter"}, {"fusion_lat": 0.0, "bike_id": "5f70893f1dc1d6a60c1abe55a93e018a", "fusion_lon": 0.0, "lon": -76.99541233333333, "lat": 38.883724, "is_reserved": 0, "is_disabled": 0, "rental_uris": {"android": "https://dc.lft.to/lastmile_qr_scan", "ios": "https://dc.lft.to/lastmile_qr_scan"}, "name": "5f70893f1dc1d6a60c1abe55a93e018a", "type": "electric_scooter"}, {"fusion_lat": 0.0, "bike_id": "fb29252e99566e726df15e09611bf6aa", "fusion_lon": 0.0, "lon": -77.0274835, "lat": 38.941826, "is_reserved": 0, "is_disabled": 0, "rental_uris": {"android": "https://dc.lft.to/lastmile_qr_scan", "ios": "https://dc.lft.to/lastmile_qr_scan"}, "name": "fb29252e99566e726df15e09611bf6aa", "type": "electric_scooter"}, {"fusion_lat": 0.0, "bike_id": "827ff6e4e960026f1bf718ba12bfe068", "fusion_lon": 0.0, "lon": -77.002035, "lat": 38.902378166666665, "is_reserved": 0, "is_disabled": 0, "rental_uris": {"android": "https://dc.lft.to/lastmile_qr_scan", "ios": "https://dc.lft.to/lastmile_qr_scan"}, "name": "827ff6e4e960026f1bf718ba12bfe068", "type": "electric_scooter"}, {"fusion_lat": 0.0, "bike_id": "e5ab2cd6053565d4f8d8fda8fdcb43fb", "fusion_lon": 0.0, "lon": -77.03468316666667, "lat": 38.93534116666667, "is_reserved": 0, "is_disabled": 0, "rental_uris": {"android": "https://dc.lft.to/lastmile_qr_scan", "ios": "https://dc.lft.to/lastmile_qr_scan"}, "name": "e5ab2cd6053565d4f8d8fda8fdcb43fb", "type": "electric_scooter"}, {"fusion_lat": 0.0, "bike_id": "962eb5e53b77875b5373265791886652", "fusion_lon": 0.0, "lon": -77.0278175, "lat": 38.96130016666667, "is_reserved": 0, "is_disabled": 0, "rental_uris": {"android": "https://dc.lft.to/lastmile_qr_scan", "ios": "https://dc.lft.to/lastmile_qr_scan"}, "name": "962eb5e53b77875b5373265791886652", "type": "electric_scooter"}, {"fusion_lat": 0.0, "bike_id": "584345f51920c0ce1e155c0d9b240cc2", "fusion_lon": 0.0, "lon": -77.01857866666667, "lat": 38.91493, "is_reserved": 0, "is_disabled": 0, "rental_uris": {"android": "https://dc.lft.to/lastmile_qr_scan", "ios": "https://dc.lft.to/lastmile_qr_scan"}, "name": "584345f51920c0ce1e155c0d9b240cc2", "type": "electric_scooter"}, {"fusion_lat": 0.0, "bike_id": "816a5a6174aab5de0492eafadb130677", "fusion_lon": 0.0, "lon": -77.04149283333334, "lat": 38.9181815, "is_reserved": 0, "is_disabled": 0, "rental_uris": {"android": "https://dc.lft.to/lastmile_qr_scan", "ios": "https://dc.lft.to/lastmile_qr_scan"}, "name": "816a5a6174aab5de0492eafadb130677", "type": "electric_scooter"}, {"fusion_lat": 0.0, "bike_id": "edc65a671795c4656a41e080462e6d75", "fusion_lon": 0.0, "lon": -77.04872633333333, "lat": 38.892876666666666, "is_reserved": 0, "is_disabled": 0, "rental_uris": {"android": "https://dc.lft.to/lastmile_qr_scan", "ios": "https://dc.lft.to/lastmile_qr_scan"}, "name": "edc65a671795c4656a41e080462e6d75", "type": "electric_scooter"}, {"fusion_lat": 0.0, "bike_id": "01733934ab9c0c46994e8b6128d8550b", "fusion_lon": 0.0, "lon": -77.02914733333333, "lat": 38.940279333333336, "is_reserved": 0, "is_disabled": 0, "rental_uris": {"android": "https://dc.lft.to/lastmile_qr_scan", "ios": "https://dc.lft.to/lastmile_qr_scan"}, "name": "01733934ab9c0c46994e8b6128d8550b", "type": "electric_scooter"}, {"fusion_lat": 0.0, "bike_id": "ff24a6818214087fa5e36e97c1d58605", "fusion_lon": 0.0, "lon": -76.99487533333334, "lat": 38.897350833333334, "is_reserved": 0, "is_disabled": 0, "rental_uris": {"android": "https://dc.lft.to/lastmile_qr_scan", "ios": "https://dc.lft.to/lastmile_qr_scan"}, "name": "ff24a6818214087fa5e36e97c1d58605", "type": "electric_scooter"}, {"fusion_lat": 0.0, "bike_id": "54f9c7d472fdd7bb89eac2f5d8417405", "fusion_lon": 0.0, "lon": -76.92914683333333, "lat": 38.892941, "is_reserved": 0, "is_disabled": 0, "rental_uris": {"android": "https://dc.lft.to/lastmile_qr_scan", "ios": "https://dc.lft.to/lastmile_qr_scan"}, "name": "54f9c7d472fdd7bb89eac2f5d8417405", "type": "electric_scooter"}, {"fusion_lat": 0.0, "bike_id": "98075fc03f82b3691b9d968e7dd24818", "fusion_lon": 0.0, "lon": -77.0329295, "lat": 38.89814966666667, "is_reserved": 0, "is_disabled": 0, "rental_uris": {"android": "https://dc.lft.to/lastmile_qr_scan", "ios": "https://dc.lft.to/lastmile_qr_scan"}, "name": "98075fc03f82b3691b9d968e7dd24818", "type": "electric_scooter"}, {"fusion_lat": 0.0, "bike_id": "82f935d351db95e02fc27014243b8478", "fusion_lon": 0.0, "lon": -77.0266805, "lat": 38.89548766666667, "is_reserved": 0, "is_disabled": 0, "rental_uris": {"android": "https://dc.lft.to/lastmile_qr_scan", "ios": "https://dc.lft.to/lastmile_qr_scan"}, "name": "82f935d351db95e02fc27014243b8478", "type": "electric_scooter"}, {"fusion_lat": 0.0, "bike_id": "495c4bf6bd5eb72c7a8cd94cbacdc4da", "fusion_lon": 0.0, "lon": -77.04649883333333, "lat": 38.8982625, "is_reserved": 0, "is_disabled": 0, "rental_uris": {"android": "https://dc.lft.to/lastmile_qr_scan", "ios": "https://dc.lft.to/lastmile_qr_scan"}, "name": "495c4bf6bd5eb72c7a8cd94cbacdc4da", "type": "electric_scooter"}, {"fusion_lat": 0.0, "bike_id": "c9d6400231f0d8d172d194d8967f8fd4", "fusion_lon": 0.0, "lon": -77.04655333333334, "lat": 38.906597833333336, "is_reserved": 0, "is_disabled": 0, "rental_uris": {"android": "https://dc.lft.to/lastmile_qr_scan", "ios": "https://dc.lft.to/lastmile_qr_scan"}, "name": "c9d6400231f0d8d172d194d8967f8fd4", "type": "electric_scooter"}, {"fusion_lat": 0.0, "bike_id": "847836b11bc83ac242fce79f082c2aa9", "fusion_lon": 0.0, "lon": -77.02689183333334, "lat": 38.918079666666664, "is_reserved": 0, "is_disabled": 0, "rental_uris": {"android": "https://dc.lft.to/lastmile_qr_scan", "ios": "https://dc.lft.to/lastmile_qr_scan"}, "name": "847836b11bc83ac242fce79f082c2aa9", "type": "electric_scooter"}, {"fusion_lat": 0.0, "bike_id": "a3f421aff0fb53ebb6af1498c7e973df", "fusion_lon": 0.0, "lon": -77.10837816666667, "lat": 38.8119915, "is_reserved": 0, "is_disabled": 0, "rental_uris": {"android": "https://dc.lft.to/lastmile_qr_scan", "ios": "https://dc.lft.to/lastmile_qr_scan"}, "name": "a3f421aff0fb53ebb6af1498c7e973df", "type": "electric_bike"}, {"fusion_lat": 0.0, "bike_id": "79c9bdda96a8a6db13a326efec0e3713", "fusion_lon": 0.0, "lon": -77.02545666666667, "lat": 38.930904166666664, "is_reserved": 0, "is_disabled": 0, "rental_uris": {"android": "https://dc.lft.to/lastmile_qr_scan", "ios": "https://dc.lft.to/lastmile_qr_scan"}, "name": "79c9bdda96a8a6db13a326efec0e3713", "type": "electric_scooter"}, {"fusion_lat": 0.0, "bike_id": "3cfb55ec0073a0ebccb763c90ead1510", "fusion_lon": 0.0, "lon": -76.99002966666667, "lat": 38.865062, "is_reserved": 0, "is_disabled": 0, "rental_uris": {"android": "https://dc.lft.to/lastmile_qr_scan", "ios": "https://dc.lft.to/lastmile_qr_scan"}, "name": "3cfb55ec0073a0ebccb763c90ead1510", "type": "electric_scooter"}, {"fusion_lat": 0.0, "bike_id": "6c842a4d77eba949a215b4ef3e03c546", "fusion_lon": 0.0, "lon": -76.9890235, "lat": 38.86668316666667, "is_reserved": 0, "is_disabled": 0, "rental_uris": {"android": "https://dc.lft.to/lastmile_qr_scan", "ios": "https://dc.lft.to/lastmile_qr_scan"}, "name": "6c842a4d77eba949a215b4ef3e03c546", "type": "electric_scooter"}, {"fusion_lat": 0.0, "bike_id": "d45efe700726a967f1843cb9dfa6b6a2", "fusion_lon": 0.0, "lon": -77.02994716666667, "lat": 38.90123283333333, "is_reserved": 0, "is_disabled": 0, "rental_uris": {"android": "https://dc.lft.to/lastmile_qr_scan", "ios": "https://dc.lft.to/lastmile_qr_scan"}, "name": "d45efe700726a967f1843cb9dfa6b6a2", "type": "electric_scooter"}, {"fusion_lat": 0.0, "bike_id": "ac1de3c7c608acc73ff98d7d4635504b", "fusion_lon": 0.0, "lon": -77.04899183333333, "lat": 38.897354666666665, "is_reserved": 0, "is_disabled": 0, "rental_uris": {"android": "https://dc.lft.to/lastmile_qr_scan", "ios": "https://dc.lft.to/lastmile_qr_scan"}, "name": "ac1de3c7c608acc73ff98d7d4635504b", "type": "electric_scooter"}, {"fusion_lat": 0.0, "bike_id": "40c2080e451d61ed5afc3a7ec2e40458", "fusion_lon": 0.0, "lon": -76.9808145, "lat": 38.907059, "is_reserved": 0, "is_disabled": 0, "rental_uris": {"android": "https://dc.lft.to/lastmile_qr_scan", "ios": "https://dc.lft.to/lastmile_qr_scan"}, "name": "40c2080e451d61ed5afc3a7ec2e40458", "type": "electric_scooter"}, {"fusion_lat": 0.0, "bike_id": "3ab22d972e1b00cce78c82ebbe223f8b", "fusion_lon": 0.0, "lon": -77.02667766666667, "lat": 38.91696433333333, "is_reserved": 0, "is_disabled": 0, "rental_uris": {"android": "https://dc.lft.to/lastmile_qr_scan", "ios": "https://dc.lft.to/lastmile_qr_scan"}, "name": "3ab22d972e1b00cce78c82ebbe223f8b", "type": "electric_scooter"}, {"fusion_lat": 0.0, "bike_id": "293cbbc71b0e115678e136eba52dc920", "fusion_lon": 0.0, "lon": -77.03345816666666, "lat": 38.917061, "is_reserved": 0, "is_disabled": 0, "rental_uris": {"android": "https://dc.lft.to/lastmile_qr_scan", "ios": "https://dc.lft.to/lastmile_qr_scan"}, "name": "293cbbc71b0e115678e136eba52dc920", "type": "electric_scooter"}, {"fusion_lat": 0.0, "bike_id": "c754eec9d92c7a3c7976c38e364a5480", "fusion_lon": 0.0, "lon": -77.023443, "lat": 38.91770016666667, "is_reserved": 0, "is_disabled": 0, "rental_uris": {"android": "https://dc.lft.to/lastmile_qr_scan", "ios": "https://dc.lft.to/lastmile_qr_scan"}, "name": "c754eec9d92c7a3c7976c38e364a5480", "type": "electric_scooter"}, {"fusion_lat": 0.0, "bike_id": "bac91dd016eeea09802e20ded8bac221", "fusion_lon": 0.0, "lon": -77.014491, "lat": 38.92979833333333, "is_reserved": 0, "is_disabled": 0, "rental_uris": {"android": "https://dc.lft.to/lastmile_qr_scan", "ios": "https://dc.lft.to/lastmile_qr_scan"}, "name": "bac91dd016eeea09802e20ded8bac221", "type": "electric_scooter"}, {"fusion_lat": 0.0, "bike_id": "bae5f09b6dc49a79420cbd1c017911ee", "fusion_lon": 0.0, "lon": -77.02733366666666, "lat": 38.91712733333333, "is_reserved": 0, "is_disabled": 0, "rental_uris": {"android": "https://dc.lft.to/lastmile_qr_scan", "ios": "https://dc.lft.to/lastmile_qr_scan"}, "name": "bae5f09b6dc49a79420cbd1c017911ee", "type": "electric_scooter"}, {"fusion_lat": 0.0, "bike_id": "312c8b2eb3b234e4dd88353e073ff774", "fusion_lon": 0.0, "lon": -77.02793483333333, "lat": 38.91691616666667, "is_reserved": 0, "is_disabled": 0, "rental_uris": {"android": "https://dc.lft.to/lastmile_qr_scan", "ios": "https://dc.lft.to/lastmile_qr_scan"}, "name": "312c8b2eb3b234e4dd88353e073ff774", "type": "electric_scooter"}, {"fusion_lat": 0.0, "bike_id": "bc008e0dfc15d7426d7c9f9833529527", "fusion_lon": 0.0, "lon": -76.93355266666667, "lat": 38.887955, "is_reserved": 0, "is_disabled": 0, "rental_uris": {"android": "https://dc.lft.to/lastmile_qr_scan", "ios": "https://dc.lft.to/lastmile_qr_scan"}, "name": "bc008e0dfc15d7426d7c9f9833529527", "type": "electric_scooter"}, {"fusion_lat": 0.0, "bike_id": "01ee1f74381db9bcf068c61e7246b478", "fusion_lon": 0.0, "lon": -76.99497166666667, "lat": 38.835546, "is_reserved": 0, "is_disabled": 0, "rental_uris": {"android": "https://dc.lft.to/lastmile_qr_scan", "ios": "https://dc.lft.to/lastmile_qr_scan"}, "name": "01ee1f74381db9bcf068c61e7246b478", "type": "electric_scooter"}, {"fusion_lat": 0.0, "bike_id": "162d24cd6a4f3dfe10b084011305d75c", "fusion_lon": 0.0, "lon": -77.04138883333333, "lat": 38.9168275, "is_reserved": 0, "is_disabled": 0, "rental_uris": {"android": "https://dc.lft.to/lastmile_qr_scan", "ios": "https://dc.lft.to/lastmile_qr_scan"}, "name": "162d24cd6a4f3dfe10b084011305d75c", "type": "electric_scooter"}, {"fusion_lat": 0.0, "bike_id": "c9df7caa4f329ccda840e1d392535c17", "fusion_lon": 0.0, "lon": -77.02612266666667, "lat": 38.9191595, "is_reserved": 0, "is_disabled": 0, "rental_uris": {"android": "https://dc.lft.to/lastmile_qr_scan", "ios": "https://dc.lft.to/lastmile_qr_scan"}, "name": "c9df7caa4f329ccda840e1d392535c17", "type": "electric_scooter"}, {"fusion_lat": 0.0, "bike_id": "a047f4af24c16b78bdb65cdde45a18a8", "fusion_lon": 0.0, "lon": -77.00452583333333, "lat": 38.87657316666667, "is_reserved": 0, "is_disabled": 0, "rental_uris": {"android": "https://dc.lft.to/lastmile_qr_scan", "ios": "https://dc.lft.to/lastmile_qr_scan"}, "name": "a047f4af24c16b78bdb65cdde45a18a8", "type": "electric_scooter"}, {"fusion_lat": 0.0, "bike_id": "3fb0f97db32240d0d7002ec2700f8fba", "fusion_lon": 0.0, "lon": -77.0281875, "lat": 38.88736033333333, "is_reserved": 0, "is_disabled": 0, "rental_uris": {"android": "https://dc.lft.to/lastmile_qr_scan", "ios": "https://dc.lft.to/lastmile_qr_scan"}, "name": "3fb0f97db32240d0d7002ec2700f8fba", "type": "electric_scooter"}, {"fusion_lat": 0.0, "bike_id": "a7f173584ccfb05579e906f7812172ab", "fusion_lon": 0.0, "lon": -77.02305333333334, "lat": 38.94088383333333, "is_reserved": 0, "is_disabled": 0, "rental_uris": {"android": "https://dc.lft.to/lastmile_qr_scan", "ios": "https://dc.lft.to/lastmile_qr_scan"}, "name": "a7f173584ccfb05579e906f7812172ab", "type": "electric_scooter"}, {"fusion_lat": 0.0, "bike_id": "ea5a0923fbd6ecb0f0aa42c4c5549a2c", "fusion_lon": 0.0, "lon": -77.001916, "lat": 38.94149316666667, "is_reserved": 0, "is_disabled": 0, "rental_uris": {"android": "https://dc.lft.to/lastmile_qr_scan", "ios": "https://dc.lft.to/lastmile_qr_scan"}, "name": "ea5a0923fbd6ecb0f0aa42c4c5549a2c", "type": "electric_bike"}, {"fusion_lat": 0.0, "bike_id": "ad6c7b6e8eea11baf365dd194bb62566", "fusion_lon": 0.0, "lon": -77.054198, "lat": 38.92834083333333, "is_reserved": 0, "is_disabled": 0, "rental_uris": {"android": "https://dc.lft.to/lastmile_qr_scan", "ios": "https://dc.lft.to/lastmile_qr_scan"}, "name": "ad6c7b6e8eea11baf365dd194bb62566", "type": "electric_scooter"}, {"fusion_lat": 0.0, "bike_id": "77ba184a1e5511c18840018dee835eed", "fusion_lon": 0.0, "lon": -77.03072416666667, "lat": 38.92248766666667, "is_reserved": 0, "is_disabled": 0, "rental_uris": {"android": "https://dc.lft.to/lastmile_qr_scan", "ios": "https://dc.lft.to/lastmile_qr_scan"}, "name": "77ba184a1e5511c18840018dee835eed", "type": "electric_scooter"}, {"fusion_lat": 0.0, "bike_id": "8ba3181a0c19321062d4e4ffdf9cf979", "fusion_lon": 0.0, "lon": -77.02290283333333, "lat": 38.92417966666667, "is_reserved": 0, "is_disabled": 0, "rental_uris": {"android": "https://dc.lft.to/lastmile_qr_scan", "ios": "https://dc.lft.to/lastmile_qr_scan"}, "name": "8ba3181a0c19321062d4e4ffdf9cf979", "type": "electric_scooter"}, {"fusion_lat": 0.0, "bike_id": "b7d34144fc1f79b0088b1cadb0e6fe8e", "fusion_lon": 0.0, "lon": -77.0324065, "lat": 38.933828, "is_reserved": 0, "is_disabled": 0, "rental_uris": {"android": "https://dc.lft.to/lastmile_qr_scan", "ios": "https://dc.lft.to/lastmile_qr_scan"}, "name": "b7d34144fc1f79b0088b1cadb0e6fe8e", "type": "electric_scooter"}, {"fusion_lat": 0.0, "bike_id": "5d9f4c775a107bb3ca3a5d107ca9ef0f", "fusion_lon": 0.0, "lon": -76.9835365, "lat": 38.88748066666667, "is_reserved": 0, "is_disabled": 0, "rental_uris": {"android": "https://dc.lft.to/lastmile_qr_scan", "ios": "https://dc.lft.to/lastmile_qr_scan"}, "name": "5d9f4c775a107bb3ca3a5d107ca9ef0f", "type": "electric_scooter"}, {"fusion_lat": 0.0, "bike_id": "df1a5f16268bd4f4ba4db702a1ab2e1b", "fusion_lon": 0.0, "lon": -77.034258, "lat": 38.9224115, "is_reserved": 0, "is_disabled": 0, "rental_uris": {"android": "https://dc.lft.to/lastmile_qr_scan", "ios": "https://dc.lft.to/lastmile_qr_scan"}, "name": "df1a5f16268bd4f4ba4db702a1ab2e1b", "type": "electric_scooter"}, {"fusion_lat": 0.0, "bike_id": "26db5c3966385ca52e33a9df909c0b35", "fusion_lon": 0.0, "lon": -77.03497866666666, "lat": 38.93749316666667, "is_reserved": 0, "is_disabled": 0, "rental_uris": {"android": "https://dc.lft.to/lastmile_qr_scan", "ios": "https://dc.lft.to/lastmile_qr_scan"}, "name": "26db5c3966385ca52e33a9df909c0b35", "type": "electric_scooter"}, {"fusion_lat": 0.0, "bike_id": "dc91f0c7a4deced2a8f7de97aca6e02d", "fusion_lon": 0.0, "lon": -77.0280965, "lat": 38.8951555, "is_reserved": 0, "is_disabled": 0, "rental_uris": {"android": "https://dc.lft.to/lastmile_qr_scan", "ios": "https://dc.lft.to/lastmile_qr_scan"}, "name": "dc91f0c7a4deced2a8f7de97aca6e02d", "type": "electric_scooter"}, {"fusion_lat": 0.0, "bike_id": "7acdfdcb443b9e9c9eaf3dd3f5ee3cf6", "fusion_lon": 0.0, "lon": -77.06337566666667, "lat": 38.906795333333335, "is_reserved": 0, "is_disabled": 0, "rental_uris": {"android": "https://dc.lft.to/lastmile_qr_scan", "ios": "https://dc.lft.to/lastmile_qr_scan"}, "name": "7acdfdcb443b9e9c9eaf3dd3f5ee3cf6", "type": "electric_scooter"}, {"fusion_lat": 0.0, "bike_id": "937a060c2067103893080e672fffc92b", "fusion_lon": 0.0, "lon": -77.12080216666666, "lat": 38.8542185, "is_reserved": 0, "is_disabled": 0, "rental_uris": {"android": "https://dc.lft.to/lastmile_qr_scan", "ios": "https://dc.lft.to/lastmile_qr_scan"}, "name": "937a060c2067103893080e672fffc92b", "type": "electric_bike"}, {"fusion_lat": 0.0, "bike_id": "13c6def974acb0fb5996511f50a3c73f", "fusion_lon": 0.0, "lon": -77.10538766666667, "lat": 38.855107333333336, "is_reserved": 0, "is_disabled": 0, "rental_uris": {"android": "https://dc.lft.to/lastmile_qr_scan", "ios": "https://dc.lft.to/lastmile_qr_scan"}, "name": "13c6def974acb0fb5996511f50a3c73f", "type": "electric_bike"}, {"fusion_lat": 0.0, "bike_id": "45a14c6008cf20b91f2ea1d512484cad", "fusion_lon": 0.0, "lon": -76.973917, "lat": 38.90559016666667, "is_reserved": 0, "is_disabled": 0, "rental_uris": {"android": "https://dc.lft.to/lastmile_qr_scan", "ios": "https://dc.lft.to/lastmile_qr_scan"}, "name": "45a14c6008cf20b91f2ea1d512484cad", "type": "electric_scooter"}, {"fusion_lat": 0.0, "bike_id": "d44b14155a361f3c1d82e244778e79b1", "fusion_lon": 0.0, "lon": -76.94633, "lat": 38.89832416666667, "is_reserved": 0, "is_disabled": 0, "rental_uris": {"android": "https://dc.lft.to/lastmile_qr_scan", "ios": "https://dc.lft.to/lastmile_qr_scan"}, "name": "d44b14155a361f3c1d82e244778e79b1", "type": "electric_scooter"},