{"data": {"bikes": [{"type": "electric_scooter", "rental_uris": {"ios": "https://dc.lft.to/lastmile_qr_scan", "android": "https://dc.lft.to/lastmile_qr_scan"}, "lon": -77.03213883333333, "fusion_lon": 0.0, "is_disabled": 0, "lat": 38.89220816666667, "bike_id": "3ebc23aaa4ff21a6946e3e4eb73ac52a", "name": "3ebc23aaa4ff21a6946e3e4eb73ac52a", "is_reserved": 0, "fusion_lat": 0.0}, {"type": "electric_scooter", "rental_uris": {"ios": "https://dc.lft.to/lastmile_qr_scan", "android": "https://dc.lft.to/lastmile_qr_scan"}, "lon": -77.031347, "fusion_lon": 0.0, "is_disabled": 0, "lat": 38.91698316666667, "bike_id": "a7aacbc4b7e1a695f7cab20e5c8b5d1b", "name": "a7aacbc4b7e1a695f7cab20e5c8b5d1b", "is_reserved": 0, "fusion_lat": 0.0}, {"type": "electric_scooter", "rental_uris": {"ios": "https://dc.lft.to/lastmile_qr_scan", "android": "https://dc.lft.to/lastmile_qr_scan"}, "lon": -77.02236816666667, "fusion_lon": 0.0, "is_disabled": 0, "lat": 38.92238533333333, "bike_id": "182f7a996a43abc8fd59ab4e52fc7374", "name": "182f7a996a43abc8fd59ab4e52fc7374", "is_reserved": 0, "fusion_lat": 0.0}, {"type": "electric_scooter", "rental_uris": {"ios": "https://dc.lft.to/lastmile_qr_scan", "android": "https://dc.lft.to/lastmile_qr_scan"}, "lon": -77.04157616666667, "fusion_lon": 0.0, "is_disabled": 0, "lat": 38.91422633333333, "bike_id": "d574dacb90c8e7dab3999a2d952b781f", "name": "d574dacb90c8e7dab3999a2d952b781f", "is_reserved": 0, "fusion_lat": 0.0}, {"type": "electric_scooter", "rental_uris": {"ios": "https://dc.lft.to/lastmile_qr_scan", "android": "https://dc.lft.to/lastmile_qr_scan"}, "lon": -77.03450966666666, "fusion_lon": 0.0, "is_disabled": 0, "lat": 38.91880733333333, "bike_id": "8d02d44979e8f97177840c15662820a6", "name": "8d02d44979e8f97177840c15662820a6", "is_reserved": 0, "fusion_lat": 0.0}, {"type": "electric_scooter", "rental_uris": {"ios": "https://dc.lft.to/lastmile_qr_scan", "android": "https://dc.lft.to/lastmile_qr_scan"}, "lon": -77.000759, "fusion_lon": 0.0, "is_disabled": 0, "lat": 38.8740165, "bike_id": "709fe1e3d5578d687394336c76151d48", "name": "709fe1e3d5578d687394336c76151d48", "is_reserved": 0, "fusion_lat": 0.0}, {"type": "electric_scooter", "rental_uris": {"ios": "https://dc.lft.to/lastmile_qr_scan", "android": "https://dc.lft.to/lastmile_qr_scan"}, "lon": -77.0352935, "fusion_lon": 0.0, "is_disabled": 0, "lat": 38.9182835, "bike_id": "b56dad26af2e2815b16d283e88d7ae2a", "name": "b56dad26af2e2815b16d283e88d7ae2a", "is_reserved": 0, "fusion_lat": 0.0}, {"type": "electric_bike", "rental_uris": {"ios": "https://dc.lft.to/lastmile_qr_scan", "android": "https://dc.lft.to/lastmile_qr_scan"}, "lon": -77.22338416666666, "fusion_lon": 0.0, "is_disabled": 0, "lat": 38.918072333333335, "bike_id": "d9ed2ad8ae3dec998b51e9f30effa4ec", "name": "d9ed2ad8ae3dec998b51e9f30effa4ec", "is_reserved": 0, "fusion_lat": 0.0}, {"type": "electric_bike", "rental_uris": {"ios": "https://dc.lft.to/lastmile_qr_scan", "android": "https://dc.lft.to/lastmile_qr_scan"}, "lon": -77.09526383333333, "fusion_lon": 0.0, "is_disabled": 0, "lat": 38.83812916666667, "bike_id": "6afb375b32291849283dcc07b92d36d4", "name": "6afb375b32291849283dcc07b92d36d4", "is_reserved": 0, "fusion_lat": 0.0}, {"type": "electric_scooter", "rental_uris": {"ios": "https://dc.lft.to/lastmile_qr_scan", "android": "https://dc.lft.to/lastmile_qr_scan"}, "lon": -77.01115883333334, "fusion_lon": 0.0, "is_disabled": 0, "lat": 38.9203155, "bike_id": "c47a5f02e743264d3ce4aa05f4f6f56b", "name": "c47a5f02e743264d3ce4aa05f4f6f56b", "is_reserved": 0, "fusion_lat": 0.0}, {"type": "electric_scooter", "rental_uris": {"ios": "https://dc.lft.to/lastmile_qr_scan", "android": "https://dc.lft.to/lastmile_qr_scan"}, "lon": -77.05160866666667, "fusion_lon": 0.0, "is_disabled": 0, "lat": 38.900636666666664, "bike_id": "22abd6aca74b2fb835002a12c31ce768", "name": "22abd6aca74b2fb835002a12c31ce768", "is_reserved": 0, "fusion_lat": 0.0}, {"type": "electric_scooter", "rental_uris": {"ios": "https://dc.lft.to/lastmile_qr_scan", "android": "https://dc.lft.to/lastmile_qr_scan"}, "lon": -77.0266, "fusion_lon": 0.0, "is_disabled": 0, "lat": 38.917014, "bike_id": "625b592a22d2b98f3deaabf2b3af4c78", "name": "625b592a22d2b98f3deaabf2b3af4c78", "is_reserved": 0, "fusion_lat": 0.0}, {"type": "electric_scooter", "rental_uris": {"ios": "https://dc.lft.to/lastmile_qr_scan", "android": "https://dc.lft.to/lastmile_qr_scan"}, "lon": -76.93617, "fusion_lon": 0.0, "is_disabled": 0, "lat": 38.886745, "bike_id": "6c6ef0ff976e516c739fae3647f0f76c", "name": "6c6ef0ff976e516c739fae3647f0f76c", "is_reserved": 0, "fusion_lat": 0.0}, {"type": "electric_scooter", "rental_uris": {"ios": "https://dc.lft.to/lastmile_qr_scan", "android": "https://dc.lft.to/lastmile_qr_scan"}, "lon": -77.0333415, "fusion_lon": 0.0, "is_disabled": 0, "lat": 38.92877466666667, "bike_id": "52db7e8a881e6c090570626ec06dc908", "name": "52db7e8a881e6c090570626ec06dc908", "is_reserved": 0, "fusion_lat": 0.0}, {"type": "electric_scooter", "rental_uris": {"ios": "https://dc.lft.to/lastmile_qr_scan", "android": "https://dc.lft.to/lastmile_qr_scan"}, "lon": -77.02905216666667, "fusion_lon": 0.0, "is_disabled": 0, "lat": 38.90266616666667, "bike_id": "a8fc8d15a43c1244cb4de78a358502d7", "name": "a8fc8d15a43c1244cb4de78a358502d7", "is_reserved": 0, "fusion_lat": 0.0}, {"type": "electric_scooter", "rental_uris": {"ios": "https://dc.lft.to/lastmile_qr_scan", "android": "https://dc.lft.to/lastmile_qr_scan"}, "lon": -77.032426, "fusion_lon": 0.0, "is_disabled": 0, "lat": 38.928032333333334, "bike_id": "a6001cd4e1cb3239309ef7e104fd9050", "name": "a6001cd4e1cb3239309ef7e104fd9050", "is_reserved": 0, "fusion_lat": 0.0}, {"type": "electric_scooter", "rental_uris": {"ios": "https://dc.lft.to/lastmile_qr_scan", "android": "https://dc.lft.to/lastmile_qr_scan"}, "lon": -77.03187133333333, "fusion_lon": 0.0, "is_disabled": 0, "lat": 38.921271, "bike_id": "0dd157be4629d6c524003632fba9124f", "name": "0dd157be4629d6c524003632fba9124f", "is_reserved": 0, "fusion_lat": 0.0}, {"type": "electric_scooter", "rental_uris": {"ios": "https://dc.lft.to/lastmile_qr_scan", "android": "https://dc.lft.to/lastmile_qr_scan"}, "lon": -77.02977216666666, "fusion_lon": 0.0, "is_disabled": 0, "lat": 38.91688883333333, "bike_id": "622ef922b8906307b24fab8f68025fd8", "name": "622ef922b8906307b24fab8f68025fd8", "is_reserved": 0, "fusion_lat": 0.0}, {"type": "electric_scooter", "rental_uris": {"ios": "https://dc.lft.to/lastmile_qr_scan", "android": "https://dc.lft.to/lastmile_qr_scan"}, "lon": -77.0175665, "fusion_lon": 0.0, "is_disabled": 0, "lat": 38.902616, "bike_id": "912d4357c3a4def9122f02e2928e296e", "name": "912d4357c3a4def9122f02e2928e296e", "is_reserved": 0, "fusion_lat": 0.0}, {"type": "electric_scooter", "rental_uris": {"ios": "https://dc.lft.to/lastmile_qr_scan", "android": "https://dc.lft.to/lastmile_qr_scan"}, "lon": -77.04353783333333, "fusion_lon": 0.0, "is_disabled": 0, "lat": 38.913455666666664, "bike_id": "75958a685c38979a99080e339fa5ee9f", "name": "75958a685c38979a99080e339fa5ee9f", "is_reserved": 0, "fusion_lat": 0.0}, {"type": "electric_scooter", "rental_uris": {"ios": "https://dc.lft.to/lastmile_qr_scan", "android": "https://dc.lft.to/lastmile_qr_scan"}, "lon": -77.07707633333334, "fusion_lon": 0.0, "is_disabled": 0, "lat": 38.9438905, "bike_id": "12e2a1e1bc91e7486df6f5a66e3f696f", "name": "12e2a1e1bc91e7486df6f5a66e3f696f", "is_reserved": 0, "fusion_lat": 0.0}, {"type": "electric_scooter", "rental_uris": {"ios": "https://dc.lft.to/lastmile_qr_scan", "android": "https://dc.lft.to/lastmile_qr_scan"}, "lon": -76.99825433333334, "fusion_lon": 0.0, "is_disabled": 0, "lat": 38.90016166666667, "bike_id": "39aac9d96553fc6332f3f65b79220913", "name": "39aac9d96553fc6332f3f65b79220913", "is_reserved": 0, "fusion_lat": 0.0}, {"type": "electric_bike", "rental_uris": {"ios": "https://dc.lft.to/lastmile_qr_scan", "android": "https://dc.lft.to/lastmile_qr_scan"}, "lon": -77.04928833333334, "fusion_lon": 0.0, "is_disabled": 0, "lat": 39.02935, "bike_id": "d0fe78313adc2264f8dcb8eb002fa4ba", "name": "d0fe78313adc2264f8dcb8eb002fa4ba", "is_reserved": 0, "fusion_lat": 0.0}, {"type": "electric_scooter", "rental_uris": {"ios": "https://dc.lft.to/lastmile_qr_scan", "android": "https://dc.lft.to/lastmile_qr_scan"}, "lon": -77.035041, "fusion_lon": 0.0, "is_disabled": 0, "lat": 38.9214945, "bike_id": "0384b31a34d44635c85c66ef99685a9e", "name": "0384b31a34d44635c85c66ef99685a9e", "is_reserved": 0, "fusion_lat": 0.0}, {"type": "electric_scooter", "rental_uris": {"ios": "https://dc.lft.to/lastmile_qr_scan", "android": "https://dc.lft.to/lastmile_qr_scan"}, "lon": -77.04412083333334, "fusion_lon": 0.0, "is_disabled": 0, "lat": 38.9214115, "bike_id": "ea0c11ebf515eb2439119f5db434d306", "name": "ea0c11ebf515eb2439119f5db434d306", "is_reserved": 0, "fusion_lat": 0.0}, {"type": "electric_scooter", "rental_uris": {"ios": "https://dc.lft.to/lastmile_qr_scan", "android": "https://dc.lft.to/lastmile_qr_scan"}, "lon": -77.03865283333333, "fusion_lon": 0.0, "is_disabled": 0, "lat": 38.90971033333334, "bike_id": "974ccf750f3d55b1ea0a2dede8b27b97", "name": "974ccf750f3d55b1ea0a2dede8b27b97", "is_reserved": 0, "fusion_lat": 0.0}, {"type": "electric_scooter", "rental_uris": {"ios": "https://dc.lft.to/lastmile_qr_scan", "android": "https://dc.lft.to/lastmile_qr_scan"}, "lon": -77.03884833333333, "fusion_lon": 0.0, "is_disabled": 0, "lat": 38.902590333333336, "bike_id": "9a9b157ccfb05b2e18525f52b2009209", "name": "9a9b157ccfb05b2e18525f52b2009209", "is_reserved": 0, "fusion_lat": 0.0}, {"type": "electric_bike", "rental_uris": {"ios": "https://dc.lft.to/lastmile_qr_scan", "android": "https://dc.lft.to/lastmile_qr_scan"}, "lon": -77.03885283333334, "fusion_lon": 0.0, "is_disabled": 0, "lat": 38.9233295, "bike_id": "c095cd76255d9be66c5e7b6d0a19a138", "name": "c095cd76255d9be66c5e7b6d0a19a138", "is_reserved": 0, "fusion_lat": 0.0}, {"type": "electric_bike", "rental_uris": {"ios": "https://dc.lft.to/lastmile_qr_scan", "android": "https://dc.lft.to/lastmile_qr_scan"}, "lon": -77.02774816666667, "fusion_lon": 0.0, "is_disabled": 0, "lat": 38.92912366666667, "bike_id": "d14c152ffdb3c476ee48dc077ee9965a", "name": "d14c152ffdb3c476ee48dc077ee9965a", "is_reserved": 0, "fusion_lat": 0.0}, {"type": "electric_scooter", "rental_uris": {"ios": "https://dc.lft.to/lastmile_qr_scan", "android": "https://dc.lft.to/lastmile_qr_scan"}, "lon": -77.02689666666667, "fusion_lon": 0.0, "is_disabled": 0, "lat": 38.90603516666667, "bike_id": "5eda319188186e0b33c0e745cdf30ef7", "name": "5eda319188186e0b33c0e745cdf30ef7", "is_reserved": 0, "fusion_lat": 0.0}, {"type": "electric_scooter", "rental_uris": {"ios": "https://dc.lft.to/lastmile_qr_scan", "android": "https://dc.lft.to/lastmile_qr_scan"}, "lon": -77.07884516666667, "fusion_lon": 0.0, "is_disabled": 0, "lat": 38.92064333333333, "bike_id": "61d11abedc6a5549b8759cf48b1ad62a", "name": "61d11abedc6a5549b8759cf48b1ad62a", "is_reserved": 0, "fusion_lat": 0.0}, {"type": "electric_scooter", "rental_uris": {"ios": "https://dc.lft.to/lastmile_qr_scan", "android": "https://dc.lft.to/lastmile_qr_scan"}, "lon": -77.005801, "fusion_lon": 0.0, "is_disabled": 0, "lat": 38.90566483333333, "bike_id": "cd2fc39ecd22a54bc6b323e566461d1d", "name": "cd2fc39ecd22a54bc6b323e566461d1d", "is_reserved": 0, "fusion_lat": 0.0}, {"type": "electric_scooter", "rental_uris": {"ios": "https://dc.lft.to/lastmile_qr_scan", "android": "https://dc.lft.to/lastmile_qr_scan"}, "lon": -77.02169583333334, "fusion_lon": 0.0, "is_disabled": 0, "lat": 38.942884, "bike_id": "ac9e4ab0d4ed61c4b082038fa54605fc", "name": "ac9e4ab0d4ed61c4b082038fa54605fc", "is_reserved": 0, "fusion_lat": 0.0}, {"type": "electric_scooter", "rental_uris": {"ios": "https://dc.lft.to/lastmile_qr_scan", "android": "https://dc.lft.to/lastmile_qr_scan"}, "lon": -77.05857916666666, "fusion_lon": 0.0, "is_disabled": 0, "lat": 38.93610183333333, "bike_id": "96ad5a9b1520f5a7336fc82f617ee066", "name": "96ad5a9b1520f5a7336fc82f617ee066", "is_reserved": 0, "fusion_lat": 0.0}, {"type": "electric_scooter", "rental_uris": {"ios": "https://dc.lft.to/lastmile_qr_scan", "android": "https://dc.lft.to/lastmile_qr_scan"}, "lon": -76.96531466666667, "fusion_lon": 0.0, "is_disabled": 0, "lat": 38.87630383333333, "bike_id": "d76669f6fffc0a5ab9f30865fab16923", "name": "d76669f6fffc0a5ab9f30865fab16923", "is_reserved": 0, "fusion_lat": 0.0}, {"type": "electric_scooter", "rental_uris": {"ios": "https://dc.lft.to/lastmile_qr_scan", "android": "https://dc.lft.to/lastmile_qr_scan"}, "lon": -76.97626, "fusion_lon": 0.0, "is_disabled": 0, "lat": 38.89875583333333, "bike_id": "82280f268ff8d515c5d9a4022e0a9b85", "name": "82280f268ff8d515c5d9a4022e0a9b85", "is_reserved": 0, "fusion_lat": 0.0}, {"type": "electric_bike", "rental_uris": {"ios": "https://dc.lft.to/lastmile_qr_scan", "android": "https://dc.lft.to/lastmile_qr_scan"}, "lon": -76.92486816666667, "fusion_lon": 0.0, "is_disabled": 0, "lat": 38.958795333333335, "bike_id": "3e8a2242e3529f90fb5f701ef2f357b4", "name": "3e8a2242e3529f90fb5f701ef2f357b4", "is_reserved": 0, "fusion_lat": 0.0}, {"type": "electric_scooter", "rental_uris": {"ios": "https://dc.lft.to/lastmile_qr_scan", "android": "https://dc.lft.to/lastmile_qr_scan"}, "lon": -76.94155516666666, "fusion_lon": 0.0, "is_disabled": 0, "lat": 38.883635166666664, "bike_id": "ee66e3a5aa6157eed20f821b42c912c7", "name": "ee66e3a5aa6157eed20f821b42c912c7", "is_reserved": 0, "fusion_lat": 0.0}, {"type": "electric_scooter", "rental_uris": {"ios": "https://dc.lft.to/lastmile_qr_scan", "android": "https://dc.lft.to/lastmile_qr_scan"}, "lon": -77.03963116666667, "fusion_lon": 0.0, "is_disabled": 0, "lat": 38.89884266666667, "bike_id": "11b49632c32c1a68dfd919f7ba00a648", "name": "11b49632c32c1a68dfd919f7ba00a648", "is_reserved": 0, "fusion_lat": 0.0}, {"type": "electric_scooter", "rental_uris": {"ios": "https://dc.lft.to/lastmile_qr_scan", "android": "https://dc.lft.to/lastmile_qr_scan"}, "lon": -77.00577633333333, "fusion_lon": 0.0, "is_disabled": 0, "lat": 38.90573416666667, "bike_id": "874dde907756eb446dab5858f99be496", "name": "874dde907756eb446dab5858f99be496", "is_reserved": 0, "fusion_lat": 0.0}, {"type": "electric_scooter", "rental_uris": {"ios": "https://dc.lft.to/lastmile_qr_scan", "android": "https://dc.lft.to/lastmile_qr_scan"}, "lon": -77.0263735, "fusion_lon": 0.0, "is_disabled": 0, "lat": 38.9253725, "bike_id": "9097d0024bba215fe9a8b192c7ade61a", "name": "9097d0024bba215fe9a8b192c7ade61a", "is_reserved": 0, "fusion_lat": 0.0}, {"type": "electric_scooter", "rental_uris": {"ios": "https://dc.lft.to/lastmile_qr_scan", "android": "https://dc.lft.to/lastmile_qr_scan"}, "lon": -77.02982466666667, "fusion_lon": 0.0, "is_disabled": 0, "lat": 38.91690416666667, "bike_id": "45c39e6f5500badfac1a9bbd646e4f8e", "name": "45c39e6f5500badfac1a9bbd646e4f8e", "is_reserved": 0, "fusion_lat": 0.0}, {"type": "electric_scooter", "rental_uris": {"ios": "https://dc.lft.to/lastmile_qr_scan", "android": "https://dc.lft.to/lastmile_qr_scan"}, "lon": -77.03038816666667, "fusion_lon": 0.0, "is_disabled": 0, "lat": 38.926845166666666, "bike_id": "44a7e981594ade3511656e2262cc1182", "name": "44a7e981594ade3511656e2262cc1182", "is_reserved": 0, "fusion_lat": 0.0}, {"type": "electric_scooter", "rental_uris": {"ios": "https://dc.lft.to/lastmile_qr_scan", "android": "https://dc.lft.to/lastmile_qr_scan"}, "lon": -77.02421683333333, "fusion_lon": 0.0, "is_disabled": 0, "lat": 38.926582333333336, "bike_id": "57b103bd24c434bacd679bdba704e72c", "name": "57b103bd24c434bacd679bdba704e72c", "is_reserved": 0, "fusion_lat": 0.0}, {"type": "electric_scooter", "rental_uris": {"ios": "https://dc.lft.to/lastmile_qr_scan", "android": "https://dc.lft.to/lastmile_qr_scan"}, "lon": -77.03071633333333, "fusion_lon": 0.0, "is_disabled": 0, "lat": 38.917613833333334, "bike_id": "b17e2d1164720dbc2fa128ead95f214e", "name": "b17e2d1164720dbc2fa128ead95f214e", "is_reserved": 0, "fusion_lat": 0.0}, {"type": "electric_scooter", "rental_uris": {"ios": "https://dc.lft.to/lastmile_qr_scan", "android": "https://dc.lft.to/lastmile_qr_scan"}, "lon": -77.03351933333333, "fusion_lon": 0.0, "is_disabled": 0, "lat": 38.9171065, "bike_id": "c54d7e24ddb9a336b4deeaebc26a8ce3", "name": "c54d7e24ddb9a336b4deeaebc26a8ce3", "is_reserved": 0, "fusion_lat": 0.0}, {"type": "electric_scooter", "rental_uris": {"ios": "https://dc.lft.to/lastmile_qr_scan", "android": "https://dc.lft.to/lastmile_qr_scan"}, "lon": -77.01373816666667, "fusion_lon": 0.0, "is_disabled": 0, "lat": 38.8922095, "bike_id": "692fe09850ac0dc249556c64272d7d00", "name": "692fe09850ac0dc249556c64272d7d00", "is_reserved": 0, "fusion_lat": 0.0}, {"type": "electric_scooter", "rental_uris": {"ios": "https://dc.lft.to/lastmile_qr_scan", "android": "https://dc.lft.to/lastmile_qr_scan"}, "lon": -77.03624183333334, "fusion_lon": 0.0, "is_disabled": 0, "lat": 38.9368755, "bike_id": "a0926dabc98c68b4736767cf4b044d5e", "name": "a0926dabc98c68b4736767cf4b044d5e", "is_reserved": 0, "fusion_lat": 0.0}, {"type": "electric_scooter", "rental_uris": {"ios": "https://dc.lft.to/lastmile_qr_scan", "android": "https://dc.lft.to/lastmile_qr_scan"}, "lon": -76.97019333333333, "fusion_lon": 0.0, "is_disabled": 0, "lat": 38.920351, "bike_id": "45be34010e68413ea688da0b15047e07", "name": "45be34010e68413ea688da0b15047e07", "is_reserved": 0, "fusion_lat": 0.0}, {"type": "electric_scooter", "rental_uris": {"ios": "https://dc.lft.to/lastmile_qr_scan", "android": "https://dc.lft.to/lastmile_qr_scan"}, "lon": -77.02219783333334, "fusion_lon": 0.0, "is_disabled": 0, "lat": 38.89222, "bike_id": "ff30de05e344f0cf9008fab8e9c229b8", "name": "ff30de05e344f0cf9008fab8e9c229b8", "is_reserved": 0, "fusion_lat": 0.0}, {"type": "electric_scooter", "rental_uris": {"ios": "https://dc.lft.to/lastmile_qr_scan", "android": "https://dc.lft.to/lastmile_qr_scan"}, "lon": -77.050524, "fusion_lon": 0.0, "is_disabled": 0, "lat": 38.92366483333333, "bike_id": "ec1e80338ba547a3a1760ba193ce26ad", "name": "ec1e80338ba547a3a1760ba193ce26ad", "is_reserved": 0, "fusion_lat": 0.0}, {"type": "electric_scooter", "rental_uris": {"ios": "https://dc.lft.to/lastmile_qr_scan", "android": "https://dc.lft.to/lastmile_qr_scan"}, "lon": -77.03094133333333, "fusion_lon": 0.0, "is_disabled": 0, "lat": 38.901149, "bike_id": "3a6a88062188aee0a7ee99e6573bee89", "name": "3a6a88062188aee0a7ee99e6573bee89", "is_reserved": 0, "fusion_lat": 0.0}, {"type": "electric_bike", "rental_uris": {"ios": "https://dc.lft.to/lastmile_qr_scan", "android": "https://dc.lft.to/lastmile_qr_scan"}, "lon": -77.0271245, "fusion_lon": 0.0, "is_disabled": 0, "lat": 38.9230195, "bike_id": "01cf4e8e549fcb28f4f06b1c8743ec0d", "name": "01cf4e8e549fcb28f4f06b1c8743ec0d", "is_reserved": 0, "fusion_lat": 0.0}, {"type": "electric_scooter", "rental_uris": {"ios": "https://dc.lft.to/lastmile_qr_scan", "android": "https://dc.lft.to/lastmile_qr_scan"}, "lon": -77.04012783333333, "fusion_lon": 0.0, "is_disabled": 0, "lat": 38.91803083333333, "bike_id": "24caaa6cd3c36b8a5fa77919aa942629", "name": "24caaa6cd3c36b8a5fa77919aa942629", "is_reserved": 0, "fusion_lat": 0.0}, {"type": "electric_scooter", "rental_uris": {"ios": "https://dc.lft.to/lastmile_qr_scan", "android": "https://dc.lft.to/lastmile_qr_scan"}, "lon": -77.03749133333334, "fusion_lon": 0.0, "is_disabled": 0, "lat": 38.92597516666667, "bike_id": "63c8217953a8d4fb29cf1fcb5a3d5c9c", "name": "63c8217953a8d4fb29cf1fcb5a3d5c9c", "is_reserved": 0, "fusion_lat": 0.0}, {"type": "electric_bike", "rental_uris": {"ios": "https://dc.lft.to/lastmile_qr_scan", "android": "https://dc.lft.to/lastmile_qr_scan"}, "lon": -77.05633633333333, "fusion_lon": 0.0, "is_disabled": 0, "lat": 38.986532833333335, "bike_id": "8df3dcd2c84b9cb8090b8bc58a4f21bd", "name": "8df3dcd2c84b9cb8090b8bc58a4f21bd", "is_reserved": 0, "fusion_lat": 0.0}, {"type": "electric_scooter", "rental_uris": {"ios": "https://dc.lft.to/lastmile_qr_scan", "android": "https://dc.lft.to/lastmile_qr_scan"}, "lon": -77.025208, "fusion_lon": 0.0, "is_disabled": 0, "lat": 38.946224666666666, "bike_id": "12a55cfcd64efdf82725fd8db41be84a", "name": "12a55cfcd64efdf82725fd8db41be84a", "is_reserved": 0, "fusion_lat": 0.0}, {"type": "electric_scooter", "rental_uris": {"ios": "https://dc.lft.to/lastmile_qr_scan", "android": "https://dc.lft.to/lastmile_qr_scan"}, "lon": -77.033322, "fusion_lon": 0.0, "is_disabled": 0, "lat": 38.917136166666666, "bike_id": "59bb92ccabfd6c8f2cf49be712540174", "name": "59bb92ccabfd6c8f2cf49be712540174", "is_reserved": 0, "fusion_lat": 0.0}, {"type": "electric_scooter", "rental_uris": {"ios": "https://dc.lft.to/lastmile_qr_scan", "android": "https://dc.lft.to/lastmile_qr_scan"}, "lon": -77.0354475, "fusion_lon": 0.0, "is_disabled": 0, "lat": 38.9238625, "bike_id": "262f9b24773fd9c1f970993064d298ea", "name": "262f9b24773fd9c1f970993064d298ea", "is_reserved": 0, "fusion_lat": 0.0}, {"type": "electric_bike", "rental_uris": {"ios": "https://dc.lft.to/lastmile_qr_scan", "android": "https://dc.lft.to/lastmile_qr_scan"}, "lon": -77.03945266666666, "fusion_lon": 0.0, "is_disabled": 0, "lat": 38.86504433333333, "bike_id": "0a7f14ddb7baa5abf9b34f0651aa8c79", "name": "0a7f14ddb7baa5abf9b34f0651aa8c79", "is_reserved": 0, "fusion_lat": 0.0}, {"type": "electric_bike", "rental_uris": {"ios": "https://dc.lft.to/lastmile_qr_scan", "android": "https://dc.lft.to/lastmile_qr_scan"}, "lon": -77.11896133333333, "fusion_lon": 0.0, "is_disabled": 0, "lat": 39.075033166666664, "bike_id": "97ea30fc1b9657ef4c5b1965e0eb18d3", "name": "97ea30fc1b9657ef4c5b1965e0eb18d3", "is_reserved": 0, "fusion_lat": 0.0}, {"type": "electric_scooter", "rental_uris": {"ios": "https://dc.lft.to/lastmile_qr_scan", "android": "https://dc.lft.to/lastmile_qr_scan"}, "lon": -77.02226116666667, "fusion_lon": 0.0, "is_disabled": 0, "lat": 38.93555333333333, "bike_id": "0a023d6537ad5e77fe87702e96063741", "name": "0a023d6537ad5e77fe87702e96063741", "is_reserved": 0, "fusion_lat": 0.0}, {"type": "electric_scooter", "rental_uris": {"ios": "https://dc.lft.to/lastmile_qr_scan", "android": "https://dc.lft.to/lastmile_qr_scan"}, "lon": -76.95128883333334, "fusion_lon": 0.0, "is_disabled": 0, "lat": 38.89031, "bike_id": "505c293c069f371f2b66605251535bb5", "name": "505c293c069f371f2b66605251535bb5", "is_reserved": 0, "fusion_lat": 0.0}, {"type": "electric_scooter", "rental_uris": {"ios": "https://dc.lft.to/lastmile_qr_scan", "android": "https://dc.lft.to/lastmile_qr_scan"}, "lon": -77.03636133333333, "fusion_lon": 0.0, "is_disabled": 0, "lat": 38.93058333333333, "bike_id": "7d7f373e54bc1d3e3b1b942c5724ab8a", "name": "7d7f373e54bc1d3e3b1b942c5724ab8a", "is_reserved": 0, "fusion_lat": 0.0}, {"type": "electric_bike", "rental_uris": {"ios": "https://dc.lft.to/lastmile_qr_scan", "android": "https://dc.lft.to/lastmile_qr_scan"}, "lon": -77.05088783333333, "fusion_lon": 0.0, "is_disabled": 0, "lat": 38.81330916666667, "bike_id": "6eb52a8d85ebcee87a224f838efcad8a", "name": "6eb52a8d85ebcee87a224f838efcad8a", "is_reserved": 0, "fusion_lat": 0.0}, {"type": "electric_scooter", "rental_uris": {"ios": "https://dc.lft.to/lastmile_qr_scan", "android": "https://dc.lft.to/lastmile_qr_scan"}, "lon": -77.0372615, "fusion_lon": 0.0, "is_disabled": 0, "lat": 38.9307545, "bike_id": "e6b37985d23fdce2ddcaec172660e0eb", "name": "e6b37985d23fdce2ddcaec172660e0eb", "is_reserved": 0, "fusion_lat": 0.0}, {"type": "electric_scooter", "rental_uris": {"ios": "https://dc.lft.to/lastmile_qr_scan", "android": "https://dc.lft.to/lastmile_qr_scan"}, "lon": -77.0057675, "fusion_lon": 0.0, "is_disabled": 0, "lat": 38.88182783333333, "bike_id": "b03c4fd036cd7ce3d68bd092a0ba9b93", "name": "b03c4fd036cd7ce3d68bd092a0ba9b93", "is_reserved": 0, "fusion_lat": 0.0}, {"type": "electric_scooter", "rental_uris": {"ios": "https://dc.lft.to/lastmile_qr_scan", "android": "https://dc.lft.to/lastmile_qr_scan"}, "lon": -77.03384366666667, "fusion_lon": 0.0, "is_disabled": 0, "lat": 38.92459916666667, "bike_id": "705a992b1717778164a2020485553c61", "name": "705a992b1717778164a2020485553c61", "is_reserved": 0, "fusion_lat": 0.0}, {"type": "electric_bike", "rental_uris": {"ios": "https://dc.lft.to/lastmile_qr_scan", "android": "https://dc.lft.to/lastmile_qr_scan"}, "lon": -77.07517116666666, "fusion_lon": 0.0, "is_disabled": 0, "lat": 38.848056666666665, "bike_id": "015f321a9845127891986b401aef5cf0", "name": "015f321a9845127891986b401aef5cf0", "is_reserved": 0, "fusion_lat": 0.0}, {"type": "electric_scooter", "rental_uris": {"ios": "https://dc.lft.to/lastmile_qr_scan", "android": "https://dc.lft.to/lastmile_qr_scan"}, "lon": -77.01779, "fusion_lon": 0.0, "is_disabled": 0, "lat": 38.887184833333336, "bike_id": "d1cc18bf8ba347ea0742d043371c7a96", "name": "d1cc18bf8ba347ea0742d043371c7a96", "is_reserved": 0, "fusion_lat": 0.0}, {"type": "electric_scooter", "rental_uris": {"ios": "https://dc.lft.to/lastmile_qr_scan", "android": "https://dc.lft.to/lastmile_qr_scan"}, "lon": -76.931434, "fusion_lon": 0.0, "is_disabled": 0, "lat": 38.89338633333333, "bike_id": "2ce1b0b1068ac54fcf591f92a4d837d0", "name": "2ce1b0b1068ac54fcf591f92a4d837d0", "is_reserved": 0, "fusion_lat": 0.0}, {"type": "electric_bike", "rental_uris": {"ios": "https://dc.lft.to/lastmile_qr_scan", "android": "https://dc.lft.to/lastmile_qr_scan"}, "lon": -77.033398, "fusion_lon": 0.0, "is_disabled": 0, "lat": 38.969388333333335, "bike_id": "c208814ce0e74f26c52cad123419db34", "name": "c208814ce0e74f26c52cad123419db34", "is_reserved": 0, "fusion_lat": 0.0}, {"type": "electric_scooter", "rental_uris": {"ios": "https://dc.lft.to/lastmile_qr_scan", "android": "https://dc.lft.to/lastmile_qr_scan"}, "lon": -77.00462166666667, "fusion_lon": 0.0, "is_disabled": 0, "lat": 38.911449, "bike_id": "34b35e77f65cc5c202f6973dac3bcfc4", "name": "34b35e77f65cc5c202f6973dac3bcfc4", "is_reserved": 0, "fusion_lat": 0.0}, {"type": "electric_scooter", "rental_uris": {"ios": "https://dc.lft.to/lastmile_qr_scan", "android": "https://dc.lft.to/lastmile_qr_scan"}, "lon": -77.00575666666667, "fusion_lon": 0.0, "is_disabled": 0, "lat": 38.906495, "bike_id": "51c559a8561261b4d5dad3ec343fe60e", "name": "51c559a8561261b4d5dad3ec343fe60e", "is_reserved": 0, "fusion_lat": 0.0}, {"type": "electric_scooter", "rental_uris": {"ios": "https://dc.lft.to/lastmile_qr_scan", "android": "https://dc.lft.to/lastmile_qr_scan"}, "lon": -77.00575216666667, "fusion_lon": 0.0, "is_disabled": 0, "lat": 38.90885383333333, "bike_id": "c0661163b2363ee6534dfe9799e4271c", "name": "c0661163b2363ee6534dfe9799e4271c", "is_reserved": 0, "fusion_lat": 0.0}, {"type": "electric_scooter", "rental_uris": {"ios": "https://dc.lft.to/lastmile_qr_scan", "android": "https://dc.lft.to/lastmile_qr_scan"}, "lon": -77.02324, "fusion_lon": 0.0, "is_disabled": 0, "lat": 38.902212166666665, "bike_id": "5a34d67775a8b5058bcf943a676d1409", "name": "5a34d67775a8b5058bcf943a676d1409", "is_reserved": 0, "fusion_lat": 0.0}, {"type": "electric_scooter", "rental_uris": {"ios": "https://dc.lft.to/lastmile_qr_scan", "android": "https://dc.lft.to/lastmile_qr_scan"}, "lon": -77.02171816666667, "fusion_lon": 0.0, "is_disabled": 0, "lat": 38.942924, "bike_id": "7342e1a22a70a0e73096d4c5e9fc308c", "name": "7342e1a22a70a0e73096d4c5e9fc308c", "is_reserved": 0, "fusion_lat": 0.0}, {"type": "electric_bike", "rental_uris": {"ios": "https://dc.lft.to/lastmile_qr_scan", "android": "https://dc.lft.to/lastmile_qr_scan"}, "lon": -77.0263285, "fusion_lon": 0.0, "is_disabled": 0, "lat": 38.96227733333333, "bike_id": "c1854c9477e7dd343c14b5bdcc5b790f", "name": "c1854c9477e7dd343c14b5bdcc5b790f", "is_reserved": 0, "fusion_lat": 0.0}, {"type": "electric_scooter", "rental_uris": {"ios": "https://dc.lft.to/lastmile_qr_scan", "android": "https://dc.lft.to/lastmile_qr_scan"}, "lon": -77.03414783333334, "fusion_lon": 0.0, "is_disabled": 0, "lat": 38.93546516666667, "bike_id": "dcce77c512caa693d2e28d4db33afd42", "name": "dcce77c512caa693d2e28d4db33afd42", "is_reserved": 0, "fusion_lat": 0.0}, {"type": "electric_scooter", "rental_uris": {"ios": "https://dc.lft.to/lastmile_qr_scan", "android": "https://dc.lft.to/lastmile_qr_scan"}, "lon": -77.03657583333333, "fusion_lon": 0.0, "is_disabled": 0, "lat": 38.92285583333334, "bike_id": "1379e4b870eec93e7ca150593ea27d5a", "name": "1379e4b870eec93e7ca150593ea27d5a", "is_reserved": 0, "fusion_lat": 0.0}, {"type": "electric_scooter", "rental_uris": {"ios": "https://dc.lft.to/lastmile_qr_scan", "android": "https://dc.lft.to/lastmile_qr_scan"}, "lon": -76.999387, "fusion_lon": 0.0, "is_disabled": 0, "lat": 38.88974316666667, "bike_id": "ce25b521b23d458e59632002ff5fe975", "name": "ce25b521b23d458e59632002ff5fe975", "is_reserved": 0, "fusion_lat": 0.0}, {"type": "electric_scooter", "rental_uris": {"ios": "https://dc.lft.to/lastmile_qr_scan", "android": "https://dc.lft.to/lastmile_qr_scan"}, "lon": -76.98579783333334, "fusion_lon": 0.0, "is_disabled": 0, "lat": 38.85452633333333, "bike_id": "840a791bce8da21a8a8a23c5d6895a67", "name": "840a791bce8da21a8a8a23c5d6895a67", "is_reserved": 0, "fusion_lat": 0.0}, {"type": "electric_scooter", "rental_uris": {"ios": "https://dc.lft.to/lastmile_qr_scan", "android": "https://dc.lft.to/lastmile_qr_scan"}, "lon": -77.05750466666667, "fusion_lon": 0.0, "is_disabled": 0, "lat": 38.9238745, "bike_id": "f6c9aafc6c93ae78bedd0598d67b17fd", "name": "f6c9aafc6c93ae78bedd0598d67b17fd", "is_reserved": 0, "fusion_lat": 0.0}, {"type": "electric_bike", "rental_uris": {"ios": "https://dc.lft.to/lastmile_qr_scan", "android": "https://dc.lft.to/lastmile_qr_scan"}, "lon": -77.107808, "fusion_lon": 0.0, "is_disabled": 0, "lat": 38.89222783333334, "bike_id": "b7a5b1224a63da822fd8587a329b44a6", "name": "b7a5b1224a63da822fd8587a329b44a6", "is_reserved": 0, "fusion_lat": 0.0}, {"type": "electric_scooter", "rental_uris": {"ios": "https://dc.lft.to/lastmile_qr_scan", "android": "https://dc.lft.to/lastmile_qr_scan"}, "lon": -77.01320983333333, "fusion_lon": 0.0, "is_disabled": 0, "lat": 38.8866385, "bike_id": "30ec8d9fdfe3c03bb4d04bc8a94521e6", "name": "30ec8d9fdfe3c03bb4d04bc8a94521e6", "is_reserved": 0, "fusion_lat": 0.0}, {"type": "electric_scooter", "rental_uris": {"ios": "https://dc.lft.to/lastmile_qr_scan", "android": "https://dc.lft.to/lastmile_qr_scan"}, "lon": -77.02011016666667, "fusion_lon": 0.0, "is_disabled": 0, "lat": 38.9241635, "bike_id": "080961ee739b61727de91a2fb439ee55", "name": "080961ee739b61727de91a2fb439ee55", "is_reserved": 0, "fusion_lat": 0.0}, {"type": "electric_scooter", "rental_uris": {"ios": "https://dc.lft.to/lastmile_qr_scan", "android": "https://dc.lft.to/lastmile_qr_scan"}, "lon": -77.03664083333334, "fusion_lon": 0.0, "is_disabled": 0, "lat": 38.922537, "bike_id": "fb7f772ebddf631a7d73fa496f626eae", "name": "fb7f772ebddf631a7d73fa496f626eae", "is_reserved": 0, "fusion_lat": 0.0}, {"type": "electric_scooter", "rental_uris": {"ios": "https://dc.lft.to/lastmile_qr_scan", "android": "https://dc.lft.to/lastmile_qr_scan"}, "lon": -77.02245283333333, "fusion_lon": 0.0, "is_disabled": 0, "lat": 38.878616, "bike_id": "f61a04b122bb1b4fc9896abc879a057f", "name": "f61a04b122bb1b4fc9896abc879a057f", "is_reserved": 0, "fusion_lat": 0.0}, {"type": "electric_scooter", "rental_uris": {"ios": "https://dc.lft.to/lastmile_qr_scan", "android": "https://dc.lft.to/lastmile_qr_scan"}, "lon": -76.96530166666666, "fusion_lon": 0.0, "is_disabled": 0, "lat": 38.87628933333333, "bike_id": "422ec88f87b03f0d34d2ee745a0e0d31", "name": "422ec88f87b03f0d34d2ee745a0e0d31", "is_reserved": 0, "fusion_lat": 0.0}, {"type": "electric_scooter", "rental_uris": {"ios": "https://dc.lft.to/lastmile_qr_scan", "android": "https://dc.lft.to/lastmile_qr_scan"}, "lon": -77.04913683333334, "fusion_lon": 0.0, "is_disabled": 0, "lat": 38.9008575, "bike_id": "13d5522aef6a6905782d70032ffcc235", "name": "13d5522aef6a6905782d70032ffcc235", "is_reserved": 0, "fusion_lat": 0.0}, {"type": "electric_bike", "rental_uris": {"ios": "https://dc.lft.to/lastmile_qr_scan", "android": "https://dc.lft.to/lastmile_qr_scan"}, "lon": -76.94585583333334, "fusion_lon": 0.0, "is_disabled": 0, "lat": 38.953356, "bike_id": "2a3355566841bd89f38e3738cc71d57c", "name": "2a3355566841bd89f38e3738cc71d57c", "is_reserved": 0, "fusion_lat": 0.0}, {"type": "electric_bike", "rental_uris": {"ios": "https://dc.lft.to/lastmile_qr_scan", "android": "https://dc.lft.to/lastmile_qr_scan"}, "lon": -76.9899785, "fusion_lon": 0.0, "is_disabled": 0, "lat": 38.954903, "bike_id": "43189ffdef6bdcce2043b3dc2ad86fac", "name": "43189ffdef6bdcce2043b3dc2ad86fac", "is_reserved": 0, "fusion_lat": 0.0}, {"type": "electric_scooter", "rental_uris": {"ios": "https://dc.lft.to/lastmile_qr_scan", "android": "https://dc.lft.to/lastmile_qr_scan"}, "lon": -77.0464385, "fusion_lon": 0.0, "is_disabled": 0, "lat": 38.8922775, "bike_id": "c10b137d545756d0844e951c04e87ca2", "name": "c10b137d545756d0844e951c04e87ca2", "is_reserved": 0, "fusion_lat": 0.0}, {"type": "electric_scooter", "rental_uris": {"ios": "https://dc.lft.to/lastmile_qr_scan", "android": "https://dc.lft.to/lastmile_qr_scan"}, "lon": -76.9513975, "fusion_lon": 0.0, "is_disabled": 0, "lat": 38.890399333333335, "bike_id": "2f7dce84f2b97640703b5c6510332262", "name": "2f7dce84f2b97640703b5c6510332262", "is_reserved": 0, "fusion_lat": 0.0}, {"type": "electric_scooter", "rental_uris": {"ios": "https://dc.lft.to/lastmile_qr_scan", "android": "https://dc.lft.to/lastmile_qr_scan"}, "lon": -77.03175166666666, "fusion_lon": 0.0, "is_disabled": 0, "lat": 38.92108133333333, "bike_id": "d944d78ae52384f9800a4cc5ba7f5b55", "name": "d944d78ae52384f9800a4cc5ba7f5b55", "is_reserved": 0, "fusion_lat": 0.0}, {"type": "electric_scooter", "rental_uris": {"ios": "https://dc.lft.to/lastmile_qr_scan", "android": "https://dc.lft.to/lastmile_qr_scan"}, "lon": -77.03281666666666, "fusion_lon": 0.0, "is_disabled": 0, "lat": 38.92751233333333, "bike_id": "5d305bed3c3f5702d838b2e5a9311a2f", "name": "5d305bed3c3f5702d838b2e5a9311a2f", "is_reserved": 0, "fusion_lat": 0.0}, {"type": "electric_scooter", "rental_uris": {"ios": "https://dc.lft.to/lastmile_qr_scan", "android": "https://dc.lft.to/lastmile_qr_scan"}, "lon": -76.930426, "fusion_lon": 0.0, "is_disabled": 0, "lat": 38.89570283333333, "bike_id": "ee86847782a483ad8f6171df9cce2778", "name": "ee86847782a483ad8f6171df9cce2778", "is_reserved": 0, "fusion_lat": 0.0}, {"type": "electric_scooter", "rental_uris": {"ios": "https://dc.lft.to/lastmile_qr_scan", "android": "https://dc.lft.to/lastmile_qr_scan"}, "lon": -77.03191783333334, "fusion_lon": 0.0, "is_disabled": 0, "lat": 38.92108833333333, "bike_id": "d07c15cd6b73f045fc88de0ce4bcfa16", "name": "d07c15cd6b73f045fc88de0ce4bcfa16", "is_reserved": 0, "fusion_lat": 0.0}, {"type": "electric_bike", "rental_uris": {"ios": "https://dc.lft.to/lastmile_qr_scan", "android": "https://dc.lft.to/lastmile_qr_scan"}, "lon": -77.0262835, "fusion_lon": 0.0, "is_disabled": 0, "lat": 38.96229316666667, "bike_id": "de129bbb5ae98558f93bee1a4fe1db18", "name": "de129bbb5ae98558f93bee1a4fe1db18", "is_reserved": 0, "fusion_lat": 0.0}, {"type": "electric_scooter", "rental_uris": {"ios": "https://dc.lft.to/lastmile_qr_scan", "android": "https://dc.lft.to/lastmile_qr_scan"}, "lon": -76.93175916666667, "fusion_lon": 0.0, "is_disabled": 0, "lat": 38.898885, "bike_id": "46fc5846771daceb69216c51e4880e87", "name": "46fc5846771daceb69216c51e4880e87", "is_reserved": 0, "fusion_lat": 0.0}, {"type": "electric_scooter", "rental_uris": {"ios": "https://dc.lft.to/lastmile_qr_scan", "android": "https://dc.lft.to/lastmile_qr_scan"}, "lon": -77.0370565, "fusion_lon": 0.0, "is_disabled": 0, "lat": 38.92645783333333, "bike_id": "e6ebde4802c1cc27b18095d4d298d1a9", "name": "e6ebde4802c1cc27b18095d4d298d1a9", "is_reserved": 0, "fusion_lat": 0.0}, {"type": "electric_scooter", "rental_uris": {"ios": "https://dc.lft.to/lastmile_qr_scan", "android": "https://dc.lft.to/lastmile_qr_scan"}, "lon": -77.05726616666666, "fusion_lon": 0.0, "is_disabled": 0, "lat": 38.933657, "bike_id": "df3b5506804e2dae8e10bf9d6cca02c3", "name": "df3b5506804e2dae8e10bf9d6cca02c3", "is_reserved": 0, "fusion_lat": 0.0}, {"type": "electric_scooter", "rental_uris": {"ios": "https://dc.lft.to/lastmile_qr_scan", "android": "https://dc.lft.to/lastmile_qr_scan"}, "lon": -77.03774583333333, "fusion_lon": 0.0, "is_disabled": 0, "lat": 38.92970566666666, "bike_id": "5e91fcadf2f81056805dbe6f4ef542d2", "name": "5e91fcadf2f81056805dbe6f4ef542d2", "is_reserved": 0, "fusion_lat": 0.0}, {"type": "electric_bike", "rental_uris": {"ios": "https://dc.lft.to/lastmile_qr_scan", "android": "https://dc.lft.to/lastmile_qr_scan"}, "lon": -77.360921, "fusion_lon": 0.0, "is_disabled": 0, "lat": 38.939576833333334, "bike_id": "dfd2ec1e4d0b0ea31cc45ff4a3569e68", "name": "dfd2ec1e4d0b0ea31cc45ff4a3569e68", "is_reserved": 0, "fusion_lat": 0.0}, {"type": "electric_bike", "rental_uris": {"ios": "https://dc.lft.to/lastmile_qr_scan", "android": "https://dc.lft.to/lastmile_qr_scan"}, "lon": -77.0738445, "fusion_lon": 0.0, "is_disabled": 0, "lat": 38.961793166666666, "bike_id": "92ea49e20d3cff68a31dc2ba1b31b523", "name": "92ea49e20d3cff68a31dc2ba1b31b523", "is_reserved": 0, "fusion_lat": 0.0}, {"type": "electric_bike", "rental_uris": {"ios": "https://dc.lft.to/lastmile_qr_scan", "android": "https://dc.lft.to/lastmile_qr_scan"}, "lon": -76.88375583333334, "fusion_lon": 0.0, "is_disabled": 0, "lat": 38.998211166666664, "bike_id": "da050815bb34be8037cfea4b0f9e74ee", "name": "da050815bb34be8037cfea4b0f9e74ee", "is_reserved": 0, "fusion_lat": 0.0}, {"type": "electric_scooter", "rental_uris": {"ios": "https://dc.lft.to/lastmile_qr_scan", "android": "https://dc.lft.to/lastmile_qr_scan"}, "lon": -77.029747, "fusion_lon": 0.0, "is_disabled": 0, "lat": 38.907751, "bike_id": "08edad68d81fab7b839100cc31e8dc77", "name": "08edad68d81fab7b839100cc31e8dc77", "is_reserved": 0, "fusion_lat": 0.0}, {"type": "electric_scooter", "rental_uris": {"ios": "https://dc.lft.to/lastmile_qr_scan", "android": "https://dc.lft.to/lastmile_qr_scan"}, "lon": -77.03654783333333, "fusion_lon": 0.0, "is_disabled": 0, "lat": 38.921382666666666, "bike_id": "4760a6126b09b1b017693ad2375b38d6", "name": "4760a6126b09b1b017693ad2375b38d6", "is_reserved": 0, "fusion_lat": 0.0}, {"type": "electric_scooter", "rental_uris": {"ios": "https://dc.lft.to/lastmile_qr_scan", "android": "https://dc.lft.to/lastmile_qr_scan"}, "lon": -77.02414766666666, "fusion_lon": 0.0, "is_disabled": 0, "lat": 38.9275795, "bike_id": "2d037d225c6bbdb826511310caec2f00", "name": "2d037d225c6bbdb826511310caec2f00", "is_reserved": 0, "fusion_lat": 0.0}, {"type": "electric_scooter", "rental_uris": {"ios": "https://dc.lft.to/lastmile_qr_scan", "android": "https://dc.lft.to/lastmile_qr_scan"}, "lon": -77.03638816666667, "fusion_lon": 0.0, "is_disabled": 0, "lat": 38.917821333333336, "bike_id": "8cc2d81292cbd9386a8983f24aea9f5b", "name": "8cc2d81292cbd9386a8983f24aea9f5b", "is_reserved": 0, "fusion_lat": 0.0}, {"type": "electric_scooter", "rental_uris": {"ios": "https://dc.lft.to/lastmile_qr_scan", "android": "https://dc.lft.to/lastmile_qr_scan"}, "lon": -77.04326416666666, "fusion_lon": 0.0, "is_disabled": 0, "lat": 38.90156983333333, "bike_id": "1f8e7bfefad332829df5f99757dee2c1", "name": "1f8e7bfefad332829df5f99757dee2c1", "is_reserved": 0, "fusion_lat": 0.0}, {"type": "electric_scooter", "rental_uris": {"ios": "https://dc.lft.to/lastmile_qr_scan", "android": "https://dc.lft.to/lastmile_qr_scan"}, "lon": -77.043897, "fusion_lon": 0.0, "is_disabled": 0, "lat": 38.921035, "bike_id": "1f5293326e46324fc4b92817491dc735", "name": "1f5293326e46324fc4b92817491dc735", "is_reserved": 0, "fusion_lat": 0.0}, {"type": "electric_scooter", "rental_uris": {"ios": "https://dc.lft.to/lastmile_qr_scan", "android": "https://dc.lft.to/lastmile_qr_scan"}, "lon": -77.03197483333334, "fusion_lon": 0.0, "is_disabled": 0, "lat": 38.93070633333333, "bike_id": "144ee8bb8b989328ccca8d907419edac", "name": "144ee8bb8b989328ccca8d907419edac", "is_reserved": 0, "fusion_lat": 0.0}, {"type": "electric_bike", "rental_uris": {"ios": "https://dc.lft.to/lastmile_qr_scan", "android": "https://dc.lft.to/lastmile_qr_scan"}, "lon": -77.06568616666667, "fusion_lon": 0.0, "is_disabled": 0, "lat": 38.869973333333334, "bike_id": "704e33249dd31be9b8f5126c77fd1d0d", "name": "704e33249dd31be9b8f5126c77fd1d0d", "is_reserved": 0, "fusion_lat": 0.0}, {"type": "electric_scooter", "rental_uris": {"ios": "https://dc.lft.to/lastmile_qr_scan", "android": "https://dc.lft.to/lastmile_qr_scan"}, "lon": -77.01531966666667, "fusion_lon": 0.0, "is_disabled": 0, "lat": 38.887393, "bike_id": "c36ce94f26b73060a733c932af3f3514", "name": "c36ce94f26b73060a733c932af3f3514", "is_reserved": 0, "fusion_lat": 0.0}, {"type": "electric_scooter", "rental_uris": {"ios": "https://dc.lft.to/lastmile_qr_scan", "android": "https://dc.lft.to/lastmile_qr_scan"}, "lon": -77.01524266666667, "fusion_lon": 0.0, "is_disabled": 0, "lat": 38.884110166666666, "bike_id": "377e09675f58c955103584b76ca5185b", "name": "377e09675f58c955103584b76ca5185b", "is_reserved": 0, "fusion_lat": 0.0}, {"type": "electric_scooter", "rental_uris": {"ios": "https://dc.lft.to/lastmile_qr_scan", "android": "https://dc.lft.to/lastmile_qr_scan"}, "lon": -77.03178083333333, "fusion_lon": 0.0, "is_disabled": 0, "lat": 38.89765083333333, "bike_id": "edb18211440291e39f153ef7567d52d8", "name": "edb18211440291e39f153ef7567d52d8", "is_reserved": 0, "fusion_lat": 0.0}, {"type": "electric_scooter", "rental_uris": {"ios": "https://dc.lft.to/lastmile_qr_scan", "android": "https://dc.lft.to/lastmile_qr_scan"}, "lon": -77.0252445, "fusion_lon": 0.0, "is_disabled": 0, "lat": 38.91257733333333, "bike_id": "287f5d7bc8ad7c798f8899ba6ead4dd3", "name": "287f5d7bc8ad7c798f8899ba6ead4dd3", "is_reserved": 0, "fusion_lat": 0.0}, {"type": "electric_scooter", "rental_uris": {"ios": "https://dc.lft.to/lastmile_qr_scan", "android": "https://dc.lft.to/lastmile_qr_scan"}, "lon": -77.03186316666667, "fusion_lon": 0.0, "is_disabled": 0, "lat": 38.9132865, "bike_id": "fa75bdfe499306b0b7d62fc9d1fcabdf", "name": "fa75bdfe499306b0b7d62fc9d1fcabdf", "is_reserved": 0, "fusion_lat": 0.0}, {"type": "electric_scooter", "rental_uris": {"ios": "https://dc.lft.to/lastmile_qr_scan", "android": "https://dc.lft.to/lastmile_qr_scan"}, "lon": -77.03670233333334, "fusion_lon": 0.0, "is_disabled": 0, "lat": 38.917091166666665, "bike_id": "74c6ef8e2abcd27abea7d64e0bc26a63", "name": "74c6ef8e2abcd27abea7d64e0bc26a63", "is_reserved": 0, "fusion_lat": 0.0}, {"type": "electric_scooter", "rental_uris": {"ios": "https://dc.lft.to/lastmile_qr_scan", "android": "https://dc.lft.to/lastmile_qr_scan"}, "lon": -76.93305883333333, "fusion_lon": 0.0, "is_disabled": 0, "lat": 38.8813435, "bike_id": "e2a5fefe0764ad5ed5dbdf43c278a443", "name": "e2a5fefe0764ad5ed5dbdf43c278a443", "is_reserved": 0, "fusion_lat": 0.0}, {"type": "electric_scooter", "rental_uris": {"ios": "https://dc.lft.to/lastmile_qr_scan", "android": "https://dc.lft.to/lastmile_qr_scan"}, "lon": -77.039512, "fusion_lon": 0.0, "is_disabled": 0, "lat": 38.924643833333334, "bike_id": "6f11e9f1c4b57c92c04ab33e057860b8", "name": "6f11e9f1c4b57c92c04ab33e057860b8", "is_reserved": 0, "fusion_lat": 0.0}, {"type": "electric_scooter", "rental_uris": {"ios": "https://dc.lft.to/lastmile_qr_scan", "android": "https://dc.lft.to/lastmile_qr_scan"}, "lon": -77.01869333333333, "fusion_lon": 0.0, "is_disabled": 0, "lat": 38.931563, "bike_id": "6a73b91ba1febbc38de98767f1cb9979", "name": "6a73b91ba1febbc38de98767f1cb9979", "is_reserved": 0, "fusion_lat": 0.0}, {"type": "electric_scooter", "rental_uris": {"ios": "https://dc.lft.to/lastmile_qr_scan", "android": "https://dc.lft.to/lastmile_qr_scan"}, "lon": -77.03253633333334, "fusion_lon": 0.0, "is_disabled": 0, "lat": 38.9396895, "bike_id": "115807856545f3d3199c4b2e75d1b70b", "name": "115807856545f3d3199c4b2e75d1b70b", "is_reserved": 0, "fusion_lat": 0.0}, {"type": "electric_bike", "rental_uris": {"ios": "https://dc.lft.to/lastmile_qr_scan", "android": "https://dc.lft.to/lastmile_qr_scan"}, "lon": -77.03645716666666, "fusion_lon": 0.0, "is_disabled": 0, "lat": 38.928063, "bike_id": "57fb4e52f632d91cf49f1dc4715533ec", "name": "57fb4e52f632d91cf49f1dc4715533ec", "is_reserved": 0, "fusion_lat": 0.0}, {"type": "electric_scooter", "rental_uris": {"ios": "https://dc.lft.to/lastmile_qr_scan", "android": "https://dc.lft.to/lastmile_qr_scan"}, "lon": -76.996954, "fusion_lon": 0.0, "is_disabled": 0, "lat": 38.908402, "bike_id": "d955e86de80284c51d0f14fb1aaf0e1b", "name": "d955e86de80284c51d0f14fb1aaf0e1b", "is_reserved": 0, "fusion_lat": 0.0}, {"type": "electric_scooter", "rental_uris": {"ios": "https://dc.lft.to/lastmile_qr_scan", "android": "https://dc.lft.to/lastmile_qr_scan"}, "lon": -77.00309283333333, "fusion_lon": 0.0, "is_disabled": 0, "lat": 38.82599333333334, "bike_id": "859e4775b3c5e6b66934b6604b3ee963", "name": "859e4775b3c5e6b66934b6604b3ee963", "is_reserved": 0, "fusion_lat": 0.0}, {"type": "electric_bike", "rental_uris": {"ios": "https://dc.lft.to/lastmile_qr_scan", "android": "https://dc.lft.to/lastmile_qr_scan"}, "lon": -76.9934625, "fusion_lon": 0.0, "is_disabled": 0, "lat": 38.97228533333333, "bike_id": "92b5927e34b858b4f56976fb75c53c82", "name": "92b5927e34b858b4f56976fb75c53c82", "is_reserved": 0, "fusion_lat": 0.0}, {"type": "electric_scooter", "rental_uris": {"ios": "https://dc.lft.to/lastmile_qr_scan", "android": "https://dc.lft.to/lastmile_qr_scan"}, "lon": -77.0436545, "fusion_lon": 0.0, "is_disabled": 0, "lat": 38.892244166666664, "bike_id": "ff17df15bfebc5afef0bed7e020dfbc1", "name": "ff17df15bfebc5afef0bed7e020dfbc1", "is_reserved": 0, "fusion_lat": 0.0}, {"type": "electric_scooter", "rental_uris": {"ios": "https://dc.lft.to/lastmile_qr_scan", "android": "https://dc.lft.to/lastmile_qr_scan"}, "lon": -77.02840016666667, "fusion_lon": 0.0, "is_disabled": 0, "lat": 38.902549, "bike_id": "bfaaef4b8ca84a29757dc206d128085f", "name": "bfaaef4b8ca84a29757dc206d128085f", "is_reserved": 0, "fusion_lat": 0.0}, {"type": "electric_scooter", "rental_uris": {"ios": "https://dc.lft.to/lastmile_qr_scan", "android": "https://dc.lft.to/lastmile_qr_scan"}, "lon": -76.99509433333333, "fusion_lon": 0.0, "is_disabled": 0, "lat": 38.883657666666664, "bike_id": "9737cf5d222589f71c14c28feee484da", "name": "9737cf5d222589f71c14c28feee484da", "is_reserved": 0, "fusion_lat": 0.0}, {"type": "electric_scooter", "rental_uris": {"ios": "https://dc.lft.to/lastmile_qr_scan", "android": "https://dc.lft.to/lastmile_qr_scan"}, "lon": -77.05599066666667, "fusion_lon": 0.0, "is_disabled": 0, "lat": 38.900989, "bike_id": "c992cf7dcc627688a8a66fcc68ad1863", "name": "c992cf7dcc627688a8a66fcc68ad1863", "is_reserved": 0, "fusion_lat": 0.0}, {"type": "electric_scooter", "rental_uris": {"ios": "https://dc.lft.to/lastmile_qr_scan", "android": "https://dc.lft.to/lastmile_qr_scan"}, "lon": -77.00995266666666, "fusion_lon": 0.0, "is_disabled": 0, "lat": 38.902637166666665, "bike_id": "9b413268d73b78b996c5e3191c34a786", "name": "9b413268d73b78b996c5e3191c34a786", "is_reserved": 0, "fusion_lat": 0.0}, {"type": "electric_scooter", "rental_uris": {"ios": "https://dc.lft.to/lastmile_qr_scan", "android": "https://dc.lft.to/lastmile_qr_scan"}, "lon": -77.05118816666666, "fusion_lon": 0.0, "is_disabled": 0, "lat": 38.8968515, "bike_id": "5c195c7f1a99f070ad62de62dde33b82", "name": "5c195c7f1a99f070ad62de62dde33b82", "is_reserved": 0, "fusion_lat": 0.0}, {"type": "electric_scooter", "rental_uris": {"ios": "https://dc.lft.to/lastmile_qr_scan", "android": "https://dc.lft.to/lastmile_qr_scan"}, "lon": -76.9329505, "fusion_lon": 0.0, "is_disabled": 0, "lat": 38.89222266666667, "bike_id": "859cce596632e7de9a67a1292a4489a6", "name": "859cce596632e7de9a67a1292a4489a6", "is_reserved": 0, "fusion_lat": 0.0}, {"type": "electric_scooter", "rental_uris": {"ios": "https://dc.lft.to/lastmile_qr_scan", "android": "https://dc.lft.to/lastmile_qr_scan"}, "lon": -77.04183533333334, "fusion_lon": 0.0, "is_disabled": 0, "lat": 38.892912333333335, "bike_id": "f1eeff2be587cd2bbe37a9d92b6589d6", "name": "f1eeff2be587cd2bbe37a9d92b6589d6", "is_reserved": 0, "fusion_lat": 0.0}, {"type": "electric_scooter", "rental_uris": {"ios": "https://dc.lft.to/lastmile_qr_scan", "android": "https://dc.lft.to/lastmile_qr_scan"}, "lon": -77.03415, "fusion_lon": 0.0, "is_disabled": 0, "lat": 38.919247666666664, "bike_id": "df798c4371d55432cce54d9a9e16a70f", "name": "df798c4371d55432cce54d9a9e16a70f", "is_reserved": 0, "fusion_lat": 0.0}, {"type": "electric_scooter", "rental_uris": {"ios": "https://dc.lft.to/lastmile_qr_scan", "android": "https://dc.lft.to/lastmile_qr_scan"}, "lon": -77.02212233333333, "fusion_lon": 0.0, "is_disabled": 0, "lat": 38.88746866666666, "bike_id": "0078fd7c847460acfa28ed039b0cdbd7", "name": "0078fd7c847460acfa28ed039b0cdbd7", "is_reserved": 0, "fusion_lat": 0.0}, {"type": "electric_scooter", "rental_uris": {"ios": "https://dc.lft.to/lastmile_qr_scan", "android": "https://dc.lft.to/lastmile_qr_scan"}, "lon": -77.013703, "fusion_lon": 0.0, "is_disabled": 0, "lat": 38.89224883333333, "bike_id": "9c051c7473d2743dcbaf751a3e40907e", "name": "9c051c7473d2743dcbaf751a3e40907e", "is_reserved": 0, "fusion_lat": 0.0}, {"type": "electric_scooter", "rental_uris": {"ios": "https://dc.lft.to/lastmile_qr_scan", "android": "https://dc.lft.to/lastmile_qr_scan"}, "lon": -77.02492166666667, "fusion_lon": 0.0, "is_disabled": 0, "lat": 38.941841, "bike_id": "568e0b9eec0e0d13bfa92a54e43e5b8a", "name": "568e0b9eec0e0d13bfa92a54e43e5b8a", "is_reserved": 0, "fusion_lat": 0.0}, {"type": "electric_scooter", "rental_uris": {"ios": "https://dc.lft.to/lastmile_qr_scan", "android": "https://dc.lft.to/lastmile_qr_scan"}, "lon": -77.0428935, "fusion_lon": 0.0, "is_disabled": 0, "lat": 38.92073416666667, "bike_id": "868bc12336b50de128ec5df6b49c2e69", "name": "868bc12336b50de128ec5df6b49c2e69", "is_reserved": 0, "fusion_lat": 0.0}, {"type": "electric_scooter", "rental_uris": {"ios": "https://dc.lft.to/lastmile_qr_scan", "android": "https://dc.lft.to/lastmile_qr_scan"}, "lon": -77.02297516666667, "fusion_lon": 0.0, "is_disabled": 0, "lat": 38.926116, "bike_id": "655ffdbc22db2827ada6edff564a0d49", "name": "655ffdbc22db2827ada6edff564a0d49", "is_reserved": 0, "fusion_lat": 0.0}, {"type": "electric_scooter", "rental_uris": {"ios": "https://dc.lft.to/lastmile_qr_scan", "android": "https://dc.lft.to/lastmile_qr_scan"}, "lon": -77.033664, "fusion_lon": 0.0, "is_disabled": 0, "lat": 38.9135855, "bike_id": "192325ec5e77ca843ee83f94123c2807", "name": "192325ec5e77ca843ee83f94123c2807", "is_reserved": 0, "fusion_lat": 0.0}, {"type": "electric_scooter", "rental_uris": {"ios": "https://dc.lft.to/lastmile_qr_scan", "android": "https://dc.lft.to/lastmile_qr_scan"}, "lon": -77.03295983333334, "fusion_lon": 0.0, "is_disabled": 0, "lat": 38.94716666666667, "bike_id": "9fb13e95052ec6872b488ca9c250d874", "name": "9fb13e95052ec6872b488ca9c250d874", "is_reserved": 0, "fusion_lat": 0.0}, {"type": "electric_scooter", "rental_uris": {"ios": "https://dc.lft.to/lastmile_qr_scan", "android": "https://dc.lft.to/lastmile_qr_scan"}, "lon": -77.026202, "fusion_lon": 0.0, "is_disabled": 0, "lat": 38.8997225, "bike_id": "db68a58fb5439a2186a6cee34bde2f5d", "name": "db68a58fb5439a2186a6cee34bde2f5d", "is_reserved": 0, "fusion_lat": 0.0}, {"type": "electric_scooter", "rental_uris": {"ios": "https://dc.lft.to/lastmile_qr_scan", "android": "https://dc.lft.to/lastmile_qr_scan"}, "lon": -77.0060645, "fusion_lon": 0.0, "is_disabled": 0, "lat": 38.87183116666667, "bike_id": "9ec34649dcd2d1afc95d506b9905b366", "name": "9ec34649dcd2d1afc95d506b9905b366", "is_reserved": 0, "fusion_lat": 0.0}, {"type": "electric_scooter", "rental_uris": {"ios": "https://dc.lft.to/lastmile_qr_scan", "android": "https://dc.lft.to/lastmile_qr_scan"}, "lon": -77.031342, "fusion_lon": 0.0, "is_disabled": 0, "lat": 38.892279333333335, "bike_id": "0c6b746f8e67b6b07579b87ab6dbb0e1", "name": "0c6b746f8e67b6b07579b87ab6dbb0e1", "is_reserved": 0, "fusion_lat": 0.0}, {"type": "electric_scooter", "rental_uris": {"ios": "https://dc.lft.to/lastmile_qr_scan", "android": "https://dc.lft.to/lastmile_qr_scan"}, "lon": -77.02760666666667, "fusion_lon": 0.0, "is_disabled": 0, "lat": 38.9073305, "bike_id": "21774d0a61886741cc3bb2b052a0f769", "name": "21774d0a61886741cc3bb2b052a0f769", "is_reserved": 0, "fusion_lat": 0.0}, {"type": "electric_scooter", "rental_uris": {"ios": "https://dc.lft.to/lastmile_qr_scan", "android": "https://dc.lft.to/lastmile_qr_scan"}, "lon": -77.02762583333333, "fusion_lon": 0.0, "is_disabled": 0, "lat": 38.90735266666667, "bike_id": "dd4484ee01a0ebbb466f54ab0a6ac804", "name": "dd4484ee01a0ebbb466f54ab0a6ac804", "is_reserved": 0, "fusion_lat": 0.0}, {"type": "electric_scooter", "rental_uris": {"ios": "https://dc.lft.to/lastmile_qr_scan", "android": "https://dc.lft.to/lastmile_qr_scan"}, "lon": -77.02599466666666, "fusion_lon": 0.0, "is_disabled": 0, "lat": 38.904179166666665, "bike_id": "2559ba7a6baf2557e13b4263044ae780", "name": "2559ba7a6baf2557e13b4263044ae780", "is_reserved": 0, "fusion_lat": 0.0}, {"type": "electric_bike", "rental_uris": {"ios": "https://dc.lft.to/lastmile_qr_scan", "android": "https://dc.lft.to/lastmile_qr_scan"}, "lon": -76.935442, "fusion_lon": 0.0, "is_disabled": 0, "lat": 38.95187116666666, "bike_id": "5b9cbdfdb0f3dd4aa039e806b7c026fe", "name": "5b9cbdfdb0f3dd4aa039e806b7c026fe", "is_reserved": 0, "fusion_lat": 0.0}, {"type": "electric_scooter", "rental_uris": {"ios": "https://dc.lft.to/lastmile_qr_scan", "android": "https://dc.lft.to/lastmile_qr_scan"}, "lon": -77.0802655, "fusion_lon": 0.0, "is_disabled": 0, "lat": 38.90920066666666, "bike_id": "bbbe719e187062f39af5b3d6e5114b0d", "name": "bbbe719e187062f39af5b3d6e5114b0d", "is_reserved": 0, "fusion_lat": 0.0}, {"type": "electric_bike", "rental_uris": {"ios": "https://dc.lft.to/lastmile_qr_scan", "android": "https://dc.lft.to/lastmile_qr_scan"}, "lon": -77.11848766666667, "fusion_lon": 0.0, "is_disabled": 0, "lat": 38.8773695, "bike_id": "474cf0e2c21cb4b472ce44a27d8adc00", "name": "474cf0e2c21cb4b472ce44a27d8adc00", "is_reserved": 0, "fusion_lat": 0.0}, {"type": "electric_scooter", "rental_uris": {"ios": "https://dc.lft.to/lastmile_qr_scan", "android": "https://dc.lft.to/lastmile_qr_scan"}, "lon": -77.045242, "fusion_lon": 0.0, "is_disabled": 0, "lat": 38.918214, "bike_id": "39bb9911d82469ec234f434d87686503", "name": "39bb9911d82469ec234f434d87686503", "is_reserved": 0, "fusion_lat": 0.0}, {"type": "electric_scooter", "rental_uris": {"ios": "https://dc.lft.to/lastmile_qr_scan", "android": "https://dc.lft.to/lastmile_qr_scan"}, "lon": -77.0183895, "fusion_lon": 0.0, "is_disabled": 0, "lat": 38.946334, "bike_id": "53b94c2909f5be43b3328939979cb933", "name": "53b94c2909f5be43b3328939979cb933", "is_reserved": 0, "fusion_lat": 0.0}, {"type": "electric_bike", "rental_uris": {"ios": "https://dc.lft.to/lastmile_qr_scan", "android": "https://dc.lft.to/lastmile_qr_scan"}, "lon": -76.98021266666666, "fusion_lon": 0.0, "is_disabled": 0, "lat": 38.95755183333333, "bike_id": "29b0d73ce3b35fdd3bfa533ea46ca476", "name": "29b0d73ce3b35fdd3bfa533ea46ca476", "is_reserved": 0, "fusion_lat": 0.0}, {"type": "electric_scooter", "rental_uris": {"ios": "https://dc.lft.to/lastmile_qr_scan", "android": "https://dc.lft.to/lastmile_qr_scan"}, "lon": -76.931734, "fusion_lon": 0.0, "is_disabled": 0, "lat": 38.8988835, "bike_id": "6e87fea25f03ba4a985804f387cec446", "name": "6e87fea25f03ba4a985804f387cec446", "is_reserved": 0, "fusion_lat": 0.0}, {"type": "electric_scooter", "rental_uris": {"ios": "https://dc.lft.to/lastmile_qr_scan", "android": "https://dc.lft.to/lastmile_qr_scan"}, "lon": -77.01219883333333, "fusion_lon": 0.0, "is_disabled": 0, "lat": 38.9150255, "bike_id": "870e2172d182e9070bf6a37372fd6915", "name": "870e2172d182e9070bf6a37372fd6915", "is_reserved": 0, "fusion_lat": 0.0}, {"type": "electric_scooter", "rental_uris": {"ios": "https://dc.lft.to/lastmile_qr_scan", "android": "https://dc.lft.to/lastmile_qr_scan"}, "lon": -77.03402166666666, "fusion_lon": 0.0, "is_disabled": 0, "lat": 38.93124566666667, "bike_id": "189f7897d49437d3dca10035de809df7", "name": "189f7897d49437d3dca10035de809df7", "is_reserved": 0, "fusion_lat": 0.0}, {"type": "electric_scooter", "rental_uris": {"ios": "https://dc.lft.to/lastmile_qr_scan", "android": "https://dc.lft.to/lastmile_qr_scan"}, "lon": -77.034784, "fusion_lon": 0.0, "is_disabled": 0, "lat": 38.909588166666666, "bike_id": "f40c24fd7d99fa6f35d829d1811a74c8", "name": "f40c24fd7d99fa6f35d829d1811a74c8", "is_reserved": 0, "fusion_lat": 0.0}, {"type": "electric_scooter", "rental_uris": {"ios": "https://dc.lft.to/lastmile_qr_scan", "android": "https://dc.lft.to/lastmile_qr_scan"}, "lon": -77.04008266666666, "fusion_lon": 0.0, "is_disabled": 0, "lat": 38.907879666666666, "bike_id": "3e4199068b540af7a95cd9c7b7bf20e0", "name": "3e4199068b540af7a95cd9c7b7bf20e0", "is_reserved": 0, "fusion_lat": 0.0}, {"type": "electric_scooter", "rental_uris": {"ios": "https://dc.lft.to/lastmile_qr_scan", "android": "https://dc.lft.to/lastmile_qr_scan"}, "lon": -77.00120616666666, "fusion_lon": 0.0, "is_disabled": 0, "lat": 38.917043166666666, "bike_id": "75e937f3e7d2a88badf48fd4c1eeab66", "name": "75e937f3e7d2a88badf48fd4c1eeab66", "is_reserved": 0, "fusion_lat": 0.0}, {"type": "electric_scooter", "rental_uris": {"ios": "https://dc.lft.to/lastmile_qr_scan", "android": "https://dc.lft.to/lastmile_qr_scan"}, "lon": -77.0249855, "fusion_lon": 0.0, "is_disabled": 0, "lat": 38.91807566666667, "bike_id": "769ec66020e73068536220239b2387f6", "name": "769ec66020e73068536220239b2387f6", "is_reserved": 0, "fusion_lat": 0.0}, {"type": "electric_scooter", "rental_uris": {"ios": "https://dc.lft.to/lastmile_qr_scan", "android": "https://dc.lft.to/lastmile_qr_scan"}, "lon": -77.02287416666667, "fusion_lon": 0.0, "is_disabled": 0, "lat": 38.916502666666666, "bike_id": "c4f658796bedf4f6f2f6faa265c3ff4c", "name": "c4f658796bedf4f6f2f6faa265c3ff4c", "is_reserved": 0, "fusion_lat": 0.0}, {"type": "electric_scooter", "rental_uris": {"ios": "https://dc.lft.to/lastmile_qr_scan", "android": "https://dc.lft.to/lastmile_qr_scan"}, "lon": -77.03411316666667, "fusion_lon": 0.0, "is_disabled": 0, "lat": 38.919255166666666, "bike_id": "6dac03a01c6e9e3abf2e41f8bc681c94", "name": "6dac03a01c6e9e3abf2e41f8bc681c94", "is_reserved": 0, "fusion_lat": 0.0}, {"type": "electric_scooter", "rental_uris": {"ios": "https://dc.lft.to/lastmile_qr_scan", "android": "https://dc.lft.to/lastmile_qr_scan"}, "lon": -77.0317, "fusion_lon": 0.0, "is_disabled": 0, "lat": 38.9192725, "bike_id": "ad6c77c094b29cd252caba800d3b0a7b", "name": "ad6c77c094b29cd252caba800d3b0a7b", "is_reserved": 0, "fusion_lat": 0.0}, {"type": "electric_scooter", "rental_uris": {"ios": "https://dc.lft.to/lastmile_qr_scan", "android": "https://dc.lft.to/lastmile_qr_scan"}, "lon": -77.03346816666667, "fusion_lon": 0.0, "is_disabled": 0, "lat": 38.887616333333334, "bike_id": "6fc148349e8e4dfea8c91fd347c83d3d", "name": "6fc148349e8e4dfea8c91fd347c83d3d", "is_reserved": 0, "fusion_lat": 0.0}, {"type": "electric_scooter", "rental_uris": {"ios": "https://dc.lft.to/lastmile_qr_scan", "android": "https://dc.lft.to/lastmile_qr_scan"}, "lon": -77.03852483333333, "fusion_lon": 0.0, "is_disabled": 0, "lat": 38.910167333333334, "bike_id": "066b8b7d4e0120eef021a17f304dbd83", "name": "066b8b7d4e0120eef021a17f304dbd83", "is_reserved": 0, "fusion_lat": 0.0}, {"type": "electric_bike", "rental_uris": {"ios": "https://dc.lft.to/lastmile_qr_scan", "android": "https://dc.lft.to/lastmile_qr_scan"}, "lon": -77.13468666666667, "fusion_lon": 0.0, "is_disabled": 0, "lat": 38.853593833333335, "bike_id": "628215860403edaf981aad29360254e4", "name": "628215860403edaf981aad29360254e4", "is_reserved": 0, "fusion_lat": 0.0}, {"type": "electric_scooter", "rental_uris": {"ios": "https://dc.lft.to/lastmile_qr_scan", "android": "https://dc.lft.to/lastmile_qr_scan"}, "lon": -77.03209733333334, "fusion_lon": 0.0, "is_disabled": 0, "lat": 38.9089955, "bike_id": "360e135102547fe3f2339fd6e53bb332", "name": "360e135102547fe3f2339fd6e53bb332", "is_reserved": 0, "fusion_lat": 0.0}, {"type": "electric_bike", "rental_uris": {"ios": "https://dc.lft.to/lastmile_qr_scan", "android": "https://dc.lft.to/lastmile_qr_scan"}, "lon": -76.924878, "fusion_lon": 0.0, "is_disabled": 0, "lat": 38.958934666666664, "bike_id": "73546f5bf6b7923f7dbf631bf8375385", "name": "73546f5bf6b7923f7dbf631bf8375385", "is_reserved": 0, "fusion_lat": 0.0}, {"type": "electric_scooter", "rental_uris": {"ios": "https://dc.lft.to/lastmile_qr_scan", "android": "https://dc.lft.to/lastmile_qr_scan"}, "lon": -77.03243416666666, "fusion_lon": 0.0, "is_disabled": 0, "lat": 38.90728283333333, "bike_id": "89993e9179187b3e0ce4e2e4d5877e17", "name": "89993e9179187b3e0ce4e2e4d5877e17", "is_reserved": 0, "fusion_lat": 0.0}, {"type": "electric_scooter", "rental_uris": {"ios": "https://dc.lft.to/lastmile_qr_scan", "android": "https://dc.lft.to/lastmile_qr_scan"}, "lon": -77.01652233333333, "fusion_lon": 0.0, "is_disabled": 0, "lat": 38.9105665, "bike_id": "6f85c1a70537380d167142f1e3c03e25", "name": "6f85c1a70537380d167142f1e3c03e25", "is_reserved": 0, "fusion_lat": 0.0}, {"type": "electric_scooter", "rental_uris": {"ios": "https://dc.lft.to/lastmile_qr_scan", "android": "https://dc.lft.to/lastmile_qr_scan"}, "lon": -76.9985475, "fusion_lon": 0.0, "is_disabled": 0, "lat": 38.90166933333333, "bike_id": "cf3117233938f8e55d8549da8041f8d2", "name": "cf3117233938f8e55d8549da8041f8d2", "is_reserved": 0, "fusion_lat": 0.0}, {"type": "electric_scooter", "rental_uris": {"ios": "https://dc.lft.to/lastmile_qr_scan", "android": "https://dc.lft.to/lastmile_qr_scan"}, "lon": -76.99831183333333, "fusion_lon": 0.0, "is_disabled": 0, "lat": 38.9003335, "bike_id": "1f4e56e5fa99bc6f2f6ce17f35429a0c", "name": "1f4e56e5fa99bc6f2f6ce17f35429a0c", "is_reserved": 0, "fusion_lat": 0.0}, {"type": "electric_scooter", "rental_uris": {"ios": "https://dc.lft.to/lastmile_qr_scan", "android": "https://dc.lft.to/lastmile_qr_scan"}, "lon": -76.991577, "fusion_lon": 0.0, "is_disabled": 0, "lat": 38.85946883333333, "bike_id": "fd76b2d64f02fbbb85710b051a6c5a50", "name": "fd76b2d64f02fbbb85710b051a6c5a50", "is_reserved": 0, "fusion_lat": 0.0}, {"type": "electric_scooter", "rental_uris": {"ios": "https://dc.lft.to/lastmile_qr_scan", "android": "https://dc.lft.to/lastmile_qr_scan"}, "lon": -77.04708816666667, "fusion_lon": 0.0, "is_disabled": 0, "lat": 38.922324, "bike_id": "1ba80a817eceba42fa40a98c4a220439", "name": "1ba80a817eceba42fa40a98c4a220439", "is_reserved": 0, "fusion_lat": 0.0}, {"type": "electric_scooter", "rental_uris": {"ios": "https://dc.lft.to/lastmile_qr_scan", "android": "https://dc.lft.to/lastmile_qr_scan"}, "lon": -77.03665616666666, "fusion_lon": 0.0, "is_disabled": 0, "lat": 38.91723616666667, "bike_id": "481447806b8ee32171ddc7aeffcb61a1", "name": "481447806b8ee32171ddc7aeffcb61a1", "is_reserved": 0, "fusion_lat": 0.0}, {"type": "electric_bike", "rental_uris": {"ios": "https://dc.lft.to/lastmile_qr_scan", "android": "https://dc.lft.to/lastmile_qr_scan"}, "lon": -77.07137766666666, "fusion_lon": 0.0, "is_disabled": 0, "lat": 38.930014, "bike_id": "613660fd063735b4535f059dce4943a7", "name": "613660fd063735b4535f059dce4943a7", "is_reserved": 0, "fusion_lat": 0.0}, {"type": "electric_scooter", "rental_uris": {"ios": "https://dc.lft.to/lastmile_qr_scan", "android": "https://dc.lft.to/lastmile_qr_scan"}, "lon": -77.04335633333334, "fusion_lon": 0.0, "is_disabled": 0, "lat": 38.892275833333336, "bike_id": "0f7079ad03dbcc902b47a6fb65fe1c67", "name": "0f7079ad03dbcc902b47a6fb65fe1c67", "is_reserved": 0, "fusion_lat": 0.0}, {"type": "electric_scooter", "rental_uris": {"ios": "https://dc.lft.to/lastmile_qr_scan", "android": "https://dc.lft.to/lastmile_qr_scan"}, "lon": -76.99017216666667, "fusion_lon": 0.0, "is_disabled": 0, "lat": 38.833756666666666, "bike_id": "8730786dd21b20d357ff6346800bfc1c", "name": "8730786dd21b20d357ff6346800bfc1c", "is_reserved": 0, "fusion_lat": 0.0}, {"type": "electric_scooter", "rental_uris": {"ios": "https://dc.lft.to/lastmile_qr_scan", "android": "https://dc.lft.to/lastmile_qr_scan"}, "lon": -77.0733, "fusion_lon": 0.0, "is_disabled": 0, "lat": 38.933536833333335, "bike_id": "6f85b535acbcf29390f26efb58e17b94", "name": "6f85b535acbcf29390f26efb58e17b94", "is_reserved": 0, "fusion_lat": 0.0}, {"type": "electric_scooter", "rental_uris": {"ios": "https://dc.lft.to/lastmile_qr_scan", "android": "https://dc.lft.to/lastmile_qr_scan"}, "lon": -77.0432885, "fusion_lon": 0.0, "is_disabled": 0, "lat": 38.8922245, "bike_id": "b74312bdaa4f7421a61b7b04276dfbc3", "name": "b74312bdaa4f7421a61b7b04276dfbc3", "is_reserved": 0, "fusion_lat": 0.0}, {"type": "electric_scooter", "rental_uris": {"ios": "https://dc.lft.to/lastmile_qr_scan", "android": "https://dc.lft.to/lastmile_qr_scan"}, "lon": -77.039846, "fusion_lon": 0.0, "is_disabled": 0, "lat": 38.892225, "bike_id": "c8da1f7d28b474ce1e5c7ee9533bf95c", "name": "c8da1f7d28b474ce1e5c7ee9533bf95c", "is_reserved": 0, "fusion_lat": 0.0}, {"type": "electric_scooter", "rental_uris": {"ios": "https://dc.lft.to/lastmile_qr_scan", "android": "https://dc.lft.to/lastmile_qr_scan"}, "lon": -77.01721683333334, "fusion_lon": 0.0, "is_disabled": 0, "lat": 38.915911666666666, "bike_id": "3a6930423bb95c4495bffecf876734da", "name": "3a6930423bb95c4495bffecf876734da", "is_reserved": 0, "fusion_lat": 0.0}, {"type": "electric_scooter", "rental_uris": {"ios": "https://dc.lft.to/lastmile_qr_scan", "android": "https://dc.lft.to/lastmile_qr_scan"}, "lon": -77.02462283333334, "fusion_lon": 0.0, "is_disabled": 0, "lat": 38.9183945, "bike_id": "485ca419d732f2c55db122e2c89da6a3", "name": "485ca419d732f2c55db122e2c89da6a3", "is_reserved": 0, "fusion_lat": 0.0}, {"type": "electric_scooter", "rental_uris": {"ios": "https://dc.lft.to/lastmile_qr_scan", "android": "https://dc.lft.to/lastmile_qr_scan"}, "lon": -77.00408, "fusion_lon": 0.0, "is_disabled": 0, "lat": 38.876716, "bike_id": "9bfd69f47ecf11bc122f1fc56de626f3", "name": "9bfd69f47ecf11bc122f1fc56de626f3", "is_reserved": 0, "fusion_lat": 0.0}, {"type": "electric_scooter", "rental_uris": {"ios": "https://dc.lft.to/lastmile_qr_scan", "android": "https://dc.lft.to/lastmile_qr_scan"}, "lon": -77.03224916666667, "fusion_lon": 0.0, "is_disabled": 0, "lat": 38.9096705, "bike_id": "d31a7e8ec84c4a07449993b94ea65e40", "name": "d31a7e8ec84c4a07449993b94ea65e40", "is_reserved": 0, "fusion_lat": 0.0}, {"type": "electric_scooter", "rental_uris": {"ios": "https://dc.lft.to/lastmile_qr_scan", "android": "https://dc.lft.to/lastmile_qr_scan"}, "lon": -77.02707583333333, "fusion_lon": 0.0, "is_disabled": 0, "lat": 38.90453016666667, "bike_id": "557dcf1908cf26f579fc933062aa1e9b", "name": "557dcf1908cf26f579fc933062aa1e9b", "is_reserved": 0, "fusion_lat": 0.0}, {"type": "electric_scooter", "rental_uris": {"ios": "https://dc.lft.to/lastmile_qr_scan", "android": "https://dc.lft.to/lastmile_qr_scan"}, "lon": -77.04168833333334, "fusion_lon": 0.0, "is_disabled": 0, "lat": 38.91809816666667, "bike_id": "00367079fa6f536430839e2c8c34ebea", "name": "00367079fa6f536430839e2c8c34ebea", "is_reserved": 0, "fusion_lat": 0.0}, {"type": "electric_bike", "rental_uris": {"ios": "https://dc.lft.to/lastmile_qr_scan", "android": "https://dc.lft.to/lastmile_qr_scan"}, "lon": -76.97198333333333, "fusion_lon": 0.0, "is_disabled": 0, "lat": 38.9177595, "bike_id": "b66680a4ed4b29acc966b559cf72a839", "name": "b66680a4ed4b29acc966b559cf72a839", "is_reserved": 0, "fusion_lat": 0.0}, {"type": "electric_scooter", "rental_uris": {"ios": "https://dc.lft.to/lastmile_qr_scan", "android": "https://dc.lft.to/lastmile_qr_scan"}, "lon": -77.03907216666667, "fusion_lon": 0.0, "is_disabled": 0, "lat": 38.902848, "bike_id": "a0ffd19545eb5e1ccd6c67fb0d69bf81", "name": "a0ffd19545eb5e1ccd6c67fb0d69bf81", "is_reserved": 0, "fusion_lat": 0.0}, {"type": "electric_scooter", "rental_uris": {"ios": "https://dc.lft.to/lastmile_qr_scan", "android": "https://dc.lft.to/lastmile_qr_scan"}, "lon": -77.04326216666666, "fusion_lon": 0.0, "is_disabled": 0, "lat": 38.89227116666667, "bike_id": "908dafa8989f7bb779778c9350bf6db7", "name": "908dafa8989f7bb779778c9350bf6db7", "is_reserved": 0, "fusion_lat": 0.0}, {"type": "electric_scooter", "rental_uris": {"ios": "https://dc.lft.to/lastmile_qr_scan", "android": "https://dc.lft.to/lastmile_qr_scan"}, "lon": -76.982043, "fusion_lon": 0.0, "is_disabled": 0, "lat": 38.9019875, "bike_id": "269cf8ed29f3a53de0bd49f8e2ecf994", "name": "269cf8ed29f3a53de0bd49f8e2ecf994", "is_reserved": 0, "fusion_lat": 0.0}, {"type": "electric_scooter", "rental_uris": {"ios": "https://dc.lft.to/lastmile_qr_scan", "android": "https://dc.lft.to/lastmile_qr_scan"}, "lon": -77.03448566666667, "fusion_lon": 0.0, "is_disabled": 0, "lat": 38.91824016666666, "bike_id": "81f59d0526abe2be811ac028f11ba6b3", "name": "81f59d0526abe2be811ac028f11ba6b3", "is_reserved": 0, "fusion_lat": 0.0}, {"type": "electric_scooter", "rental_uris": {"ios": "https://dc.lft.to/lastmile_qr_scan", "android": "https://dc.lft.to/lastmile_qr_scan"}, "lon": -76.939876, "fusion_lon": 0.0, "is_disabled": 0, "lat": 38.899784333333336, "bike_id": "d0f10dabe089830a27ee67034ded8521", "name": "d0f10dabe089830a27ee67034ded8521", "is_reserved": 0, "fusion_lat": 0.0}, {"type": "electric_scooter", "rental_uris": {"ios": "https://dc.lft.to/lastmile_qr_scan", "android": "https://dc.lft.to/lastmile_qr_scan"}, "lon": -77.033721, "fusion_lon": 0.0, "is_disabled": 0, "lat": 38.8922625, "bike_id": "81aac1a579abd1f143ab97b10af2910c", "name": "81aac1a579abd1f143ab97b10af2910c", "is_reserved": 0, "fusion_lat": 0.0}, {"type": "electric_scooter", "rental_uris": {"ios": "https://dc.lft.to/lastmile_qr_scan", "android": "https://dc.lft.to/lastmile_qr_scan"}, "lon": -77.0301445, "fusion_lon": 0.0, "is_disabled": 0, "lat": 38.922483166666666, "bike_id": "71e8c2731f9d086764cd91978c565416", "name": "71e8c2731f9d086764cd91978c565416", "is_reserved": 0, "fusion_lat": 0.0}, {"type": "electric_scooter", "rental_uris": {"ios": "https://dc.lft.to/lastmile_qr_scan", "android": "https://dc.lft.to/lastmile_qr_scan"}, "lon": -77.018873, "fusion_lon": 0.0, "is_disabled": 0, "lat": 38.92371983333334, "bike_id": "a733a0d6ec4d1f1dab523950a18e2189", "name": "a733a0d6ec4d1f1dab523950a18e2189", "is_reserved": 0, "fusion_lat": 0.0}, {"type": "electric_scooter", "rental_uris": {"ios": "https://dc.lft.to/lastmile_qr_scan", "android": "https://dc.lft.to/lastmile_qr_scan"}, "lon": -76.99778316666666, "fusion_lon": 0.0, "is_disabled": 0, "lat": 38.844282166666666, "bike_id": "ea6e699854c841d579fa1ed921d9abc7", "name": "ea6e699854c841d579fa1ed921d9abc7", "is_reserved": 0, "fusion_lat": 0.0}, {"type": "electric_scooter", "rental_uris": {"ios": "https://dc.lft.to/lastmile_qr_scan", "android": "https://dc.lft.to/lastmile_qr_scan"}, "lon": -77.05128083333334, "fusion_lon": 0.0, "is_disabled": 0, "lat": 38.902151833333335, "bike_id": "763c88a6c17c5afa7322fe2ebc3906fa", "name": "763c88a6c17c5afa7322fe2ebc3906fa", "is_reserved": 0, "fusion_lat": 0.0}, {"type": "electric_scooter", "rental_uris": {"ios": "https://dc.lft.to/lastmile_qr_scan", "android": "https://dc.lft.to/lastmile_qr_scan"}, "lon": -77.023178, "fusion_lon": 0.0, "is_disabled": 0, "lat": 38.9169005, "bike_id": "e17dc1f42aff564b7c459754f78ca245", "name": "e17dc1f42aff564b7c459754f78ca245", "is_reserved": 0, "fusion_lat": 0.0}, {"type": "electric_scooter", "rental_uris": {"ios": "https://dc.lft.to/lastmile_qr_scan", "android": "https://dc.lft.to/lastmile_qr_scan"}, "lon": -77.02437016666667, "fusion_lon": 0.0, "is_disabled": 0, "lat": 38.91917733333333, "bike_id": "2af0c7feea75ebf2c0a65bcbdadb6913", "name": "2af0c7feea75ebf2c0a65bcbdadb6913", "is_reserved": 0, "fusion_lat": 0.0}, {"type": "electric_bike", "rental_uris": {"ios": "https://dc.lft.to/lastmile_qr_scan", "android": "https://dc.lft.to/lastmile_qr_scan"}, "lon": -76.93704483333333, "fusion_lon": 0.0, "is_disabled": 0, "lat": 38.871490666666666, "bike_id": "6070c77593b13369929e73e9825ee5df", "name": "6070c77593b13369929e73e9825ee5df", "is_reserved": 0, "fusion_lat": 0.0}, {"type": "electric_scooter", "rental_uris": {"ios": "https://dc.lft.to/lastmile_qr_scan", "android": "https://dc.lft.to/lastmile_qr_scan"}, "lon": -76.95757933333333, "fusion_lon": 0.0, "is_disabled": 0, "lat": 38.88429566666667, "bike_id": "bce43aaa28e96c7d0cc94bef2de8355e", "name": "bce43aaa28e96c7d0cc94bef2de8355e", "is_reserved": 0, "fusion_lat": 0.0}, {"type": "electric_bike", "rental_uris": {"ios": "https://dc.lft.to/lastmile_qr_scan", "android": "https://dc.lft.to/lastmile_qr_scan"}, "lon": -76.97096033333334, "fusion_lon": 0.0, "is_disabled": 0, "lat": 38.857247666666666, "bike_id": "5dd43ce35fa0f94495715ec17b53329f", "name": "5dd43ce35fa0f94495715ec17b53329f", "is_reserved": 0, "fusion_lat": 0.0}, {"type": "electric_scooter", "rental_uris": {"ios": "https://dc.lft.to/lastmile_qr_scan", "android": "https://dc.lft.to/lastmile_qr_scan"}, "lon": -77.0222995, "fusion_lon": 0.0, "is_disabled": 0, "lat": 38.96137216666666, "bike_id": "2c621d8247554b7646a580baeaaf4e1b", "name": "2c621d8247554b7646a580baeaaf4e1b", "is_reserved": 0, "fusion_lat": 0.0}, {"type": "electric_scooter", "rental_uris": {"ios": "https://dc.lft.to/lastmile_qr_scan", "android": "https://dc.lft.to/lastmile_qr_scan"}, "lon": -76.99777083333333, "fusion_lon": 0.0, "is_disabled": 0, "lat": 38.84435216666667, "bike_id": "1929ded4cc732453cb6d1b411e611500", "name": "1929ded4cc732453cb6d1b411e611500", "is_reserved": 0, "fusion_lat": 0.0}, {"type": "electric_scooter", "rental_uris": {"ios": "https://dc.lft.to/lastmile_qr_scan", "android": "https://dc.lft.to/lastmile_qr_scan"}, "lon": -77.0477745, "fusion_lon": 0.0, "is_disabled": 0, "lat": 38.917656666666666, "bike_id": "94673e4e4247649d31ba6cc0054b6c2a", "name": "94673e4e4247649d31ba6cc0054b6c2a", "is_reserved": 0, "fusion_lat": 0.0}, {"type": "electric_scooter", "rental_uris": {"ios": "https://dc.lft.to/lastmile_qr_scan", "android": "https://dc.lft.to/lastmile_qr_scan"}, "lon": -77.0402045, "fusion_lon": 0.0, "is_disabled": 0, "lat": 38.92176933333333, "bike_id": "7c07d63d315d4500dfd7d041a690fd5b", "name": "7c07d63d315d4500dfd7d041a690fd5b", "is_reserved": 0, "fusion_lat": 0.0}, {"type": "electric_scooter", "rental_uris": {"ios": "https://dc.lft.to/lastmile_qr_scan", "android": "https://dc.lft.to/lastmile_qr_scan"}, "lon": -77.04157716666667, "fusion_lon": 0.0, "is_disabled": 0, "lat": 38.92798766666667, "bike_id": "4b414946d95327686582d218ab5c25ce", "name": "4b414946d95327686582d218ab5c25ce", "is_reserved": 0, "fusion_lat": 0.0}, {"type": "electric_scooter", "rental_uris": {"ios": "https://dc.lft.to/lastmile_qr_scan", "android": "https://dc.lft.to/lastmile_qr_scan"}, "lon": -77.04422233333334, "fusion_lon": 0.0, "is_disabled": 0, "lat": 38.91008183333334, "bike_id": "d84f37914059e776b440fea01118568b", "name": "d84f37914059e776b440fea01118568b", "is_reserved": 0, "fusion_lat": 0.0}, {"type": "electric_scooter", "rental_uris": {"ios": "https://dc.lft.to/lastmile_qr_scan", "android": "https://dc.lft.to/lastmile_qr_scan"}, "lon": -77.03159733333334, "fusion_lon": 0.0, "is_disabled": 0, "lat": 38.923755666666665, "bike_id": "3ed2eb8e18046aad289b41491819a0d1", "name": "3ed2eb8e18046aad289b41491819a0d1", "is_reserved": 0, "fusion_lat": 0.0}, {"type": "electric_scooter", "rental_uris": {"ios": "https://dc.lft.to/lastmile_qr_scan", "android": "https://dc.lft.to/lastmile_qr_scan"}, "lon": -77.02829433333333, "fusion_lon": 0.0, "is_disabled": 0, "lat": 38.9319655, "bike_id": "b25315f31f997bb3f9ce2e1e98ee4de0", "name": "b25315f31f997bb3f9ce2e1e98ee4de0", "is_reserved": 0, "fusion_lat": 0.0}, {"type": "electric_bike", "rental_uris": {"ios": "https://dc.lft.to/lastmile_qr_scan", "android": "https://dc.lft.to/lastmile_qr_scan"}, "lon": -77.02387383333334, "fusion_lon": 0.0, "is_disabled": 0, "lat": 38.962766333333335, "bike_id": "bd47bfc758941b309ca181e37357befe", "name": "bd47bfc758941b309ca181e37357befe", "is_reserved": 0, "fusion_lat": 0.0}, {"type": "electric_bike", "rental_uris": {"ios": "https://dc.lft.to/lastmile_qr_scan", "android": "https://dc.lft.to/lastmile_qr_scan"}, "lon": -77.00798183333333, "fusion_lon": 0.0, "is_disabled": 0, "lat": 38.949264, "bike_id": "f77071a12e83393bd6dcc35225756490", "name": "f77071a12e83393bd6dcc35225756490", "is_reserved": 0, "fusion_lat": 0.0}, {"type": "electric_scooter", "rental_uris": {"ios": "https://dc.lft.to/lastmile_qr_scan", "android": "https://dc.lft.to/lastmile_qr_scan"}, "lon": -77.041506, "fusion_lon": 0.0, "is_disabled": 0, "lat": 38.912101666666665, "bike_id": "ae223a0757f717952dd06e33df225ce8", "name": "ae223a0757f717952dd06e33df225ce8", "is_reserved": 0, "fusion_lat": 0.0}, {"type": "electric_scooter", "rental_uris": {"ios": "https://dc.lft.to/lastmile_qr_scan", "android": "https://dc.lft.to/lastmile_qr_scan"}, "lon": -77.0380465, "fusion_lon": 0.0, "is_disabled": 0, "lat": 38.9126745, "bike_id": "9bd9233e0a1ae09486372fa7241c7ad8", "name": "9bd9233e0a1ae09486372fa7241c7ad8", "is_reserved": 0, "fusion_lat": 0.0}, {"type": "electric_scooter", "rental_uris": {"ios": "https://dc.lft.to/lastmile_qr_scan", "android": "https://dc.lft.to/lastmile_qr_scan"}, "lon": -77.03149783333333, "fusion_lon": 0.0, "is_disabled": 0, "lat": 38.915628833333336, "bike_id": "447f73455a11592ec30b3ab11c9de703", "name": "447f73455a11592ec30b3ab11c9de703", "is_reserved": 0, "fusion_lat": 0.0}, {"type": "electric_scooter", "rental_uris": {"ios": "https://dc.lft.to/lastmile_qr_scan", "android": "https://dc.lft.to/lastmile_qr_scan"}, "lon": -77.0380345, "fusion_lon": 0.0, "is_disabled": 0, "lat": 38.9206875, "bike_id": "63a40d22eaecd6c94e7bb89f53b75244", "name": "63a40d22eaecd6c94e7bb89f53b75244", "is_reserved": 0, "fusion_lat": 0.0}, {"type": "electric_bike", "rental_uris": {"ios": "https://dc.lft.to/lastmile_qr_scan", "android": "https://dc.lft.to/lastmile_qr_scan"}, "lon": -77.11491566666666, "fusion_lon": 0.0, "is_disabled": 0, "lat": 39.069239, "bike_id": "be4f5d58f2ae1475919ddd0aea143470", "name": "be4f5d58f2ae1475919ddd0aea143470", "is_reserved": 0, "fusion_lat": 0.0}, {"type": "electric_scooter", "rental_uris": {"ios": "https://dc.lft.to/lastmile_qr_scan", "android": "https://dc.lft.to/lastmile_qr_scan"}, "lon": -77.0329915, "fusion_lon": 0.0, "is_disabled": 0, "lat": 38.9564215, "bike_id": "fd031c2a66d1033c3d91e159e8f6cf39", "name": "fd031c2a66d1033c3d91e159e8f6cf39", "is_reserved": 0, "fusion_lat": 0.0}, {"type": "electric_scooter", "rental_uris": {"ios": "https://dc.lft.to/lastmile_qr_scan", "android": "https://dc.lft.to/lastmile_qr_scan"}, "lon": -77.05146416666666, "fusion_lon": 0.0, "is_disabled": 0, "lat": 38.905928833333334, "bike_id": "7b11477b34e7355765367023e91482a4", "name": "7b11477b34e7355765367023e91482a4", "is_reserved": 0, "fusion_lat": 0.0}, {"type": "electric_scooter", "rental_uris": {"ios": "https://dc.lft.to/lastmile_qr_scan", "android": "https://dc.lft.to/lastmile_qr_scan"}, "lon": -77.024028, "fusion_lon": 0.0, "is_disabled": 0, "lat": 38.928989666666666, "bike_id": "bb254cffc6d9700f8d72d01fafc2c88d", "name": "bb254cffc6d9700f8d72d01fafc2c88d", "is_reserved": 0, "fusion_lat": 0.0}, {"type": "electric_bike", "rental_uris": {"ios": "https://dc.lft.to/lastmile_qr_scan", "android": "https://dc.lft.to/lastmile_qr_scan"}, "lon": -77.09964983333333, "fusion_lon": 0.0, "is_disabled": 0, "lat": 38.9335575, "bike_id": "06b918ce60dc38ed005912d63ee36391", "name": "06b918ce60dc38ed005912d63ee36391", "is_reserved": 0, "fusion_lat": 0.0}, {"type": "electric_scooter", "rental_uris": {"ios": "https://dc.lft.to/lastmile_qr_scan", "android": "https://dc.lft.to/lastmile_qr_scan"}, "lon": -77.03334016666666, "fusion_lon": 0.0, "is_disabled": 0, "lat": 38.9171655, "bike_id": "bfebbf195745cba8b40677b5e5a69097", "name": "bfebbf195745cba8b40677b5e5a69097", "is_reserved": 0, "fusion_lat": 0.0}, {"type": "electric_scooter", "rental_uris": {"ios": "https://dc.lft.to/lastmile_qr_scan", "android": "https://dc.lft.to/lastmile_qr_scan"}, "lon": -77.033871, "fusion_lon": 0.0, "is_disabled": 0, "lat": 38.920536, "bike_id": "c3cec316318a56d9524c1ac6478679a3", "name": "c3cec316318a56d9524c1ac6478679a3", "is_reserved": 0, "fusion_lat": 0.0}, {"type": "electric_scooter", "rental_uris": {"ios": "https://dc.lft.to/lastmile_qr_scan", "android": "https://dc.lft.to/lastmile_qr_scan"}, "lon": -77.01209016666667, "fusion_lon": 0.0, "is_disabled": 0, "lat": 38.91979933333333, "bike_id": "ce0453c9bd121e3a8f9a68b72d459822", "name": "ce0453c9bd121e3a8f9a68b72d459822", "is_reserved": 0, "fusion_lat": 0.0}, {"type": "electric_scooter", "rental_uris": {"ios": "https://dc.lft.to/lastmile_qr_scan", "android": "https://dc.lft.to/lastmile_qr_scan"}, "lon": -77.026915, "fusion_lon": 0.0, "is_disabled": 0, "lat": 38.90684666666667, "bike_id": "a7e2b0feb3c5baf24efda18e861d0514", "name": "a7e2b0feb3c5baf24efda18e861d0514", "is_reserved": 0, "fusion_lat": 0.0}, {"type": "electric_scooter", "rental_uris": {"ios": "https://dc.lft.to/lastmile_qr_scan", "android": "https://dc.lft.to/lastmile_qr_scan"}, "lon": -77.031405, "fusion_lon": 0.0, "is_disabled": 0, "lat": 38.88747816666667, "bike_id": "151b2bbb5407f4b7ad77656ff3aac685", "name": "151b2bbb5407f4b7ad77656ff3aac685", "is_reserved": 0, "fusion_lat": 0.0}, {"type": "electric_scooter", "rental_uris": {"ios": "https://dc.lft.to/lastmile_qr_scan", "android": "https://dc.lft.to/lastmile_qr_scan"}, "lon": -77.07652266666666, "fusion_lon": 0.0, "is_disabled": 0, "lat": 38.939195833333336, "bike_id": "d7334fc2a1ecff1c98ff0ef89cf12cd3", "name": "d7334fc2a1ecff1c98ff0ef89cf12cd3", "is_reserved": 0, "fusion_lat": 0.0}, {"type": "electric_scooter", "rental_uris": {"ios": "https://dc.lft.to/lastmile_qr_scan", "android": "https://dc.lft.to/lastmile_qr_scan"}, "lon": -77.00118883333333, "fusion_lon": 0.0, "is_disabled": 0, "lat": 38.9124015, "bike_id": "8bc288ac35f2d520983d69832041f025", "name": "8bc288ac35f2d520983d69832041f025", "is_reserved": 0, "fusion_lat": 0.0}, {"type": "electric_scooter", "rental_uris": {"ios": "https://dc.lft.to/lastmile_qr_scan", "android": "https://dc.lft.to/lastmile_qr_scan"}, "lon": -77.02406833333333, "fusion_lon": 0.0, "is_disabled": 0, "lat": 38.897442833333336, "bike_id": "9a00d6dec65022b574e467c869cfa57d", "name": "9a00d6dec65022b574e467c869cfa57d", "is_reserved": 0, "fusion_lat": 0.0}, {"type": "electric_scooter", "rental_uris": {"ios": "https://dc.lft.to/lastmile_qr_scan", "android": "https://dc.lft.to/lastmile_qr_scan"}, "lon": -77.034502, "fusion_lon": 0.0, "is_disabled": 0, "lat": 38.9374785, "bike_id": "fa0aee0faacbdc7e08e47abec9555e15", "name": "fa0aee0faacbdc7e08e47abec9555e15", "is_reserved": 0, "fusion_lat": 0.0}, {"type": "electric_scooter", "rental_uris": {"ios": "https://dc.lft.to/lastmile_qr_scan", "android": "https://dc.lft.to/lastmile_qr_scan"}, "lon": -77.04328983333333, "fusion_lon": 0.0, "is_disabled": 0, "lat": 38.89223616666666, "bike_id": "f156207b91016824a75b10c157560b78", "name": "f156207b91016824a75b10c157560b78", "is_reserved": 0, "fusion_lat": 0.0}, {"type": "electric_scooter", "rental_uris": {"ios": "https://dc.lft.to/lastmile_qr_scan", "android": "https://dc.lft.to/lastmile_qr_scan"}, "lon": -77.02393516666666, "fusion_lon": 0.0, "is_disabled": 0, "lat": 38.916753166666666, "bike_id": "e3d140ef361f350b55ffee5af4deb844", "name": "e3d140ef361f350b55ffee5af4deb844", "is_reserved": 0, "fusion_lat": 0.0}, {"type": "electric_scooter", "rental_uris": {"ios": "https://dc.lft.to/lastmile_qr_scan", "android": "https://dc.lft.to/lastmile_qr_scan"}, "lon": -77.04082766666667, "fusion_lon": 0.0, "is_disabled": 0, "lat": 38.91694183333333, "bike_id": "37f7dc9f74dd7a63724f9e9a7d7a64ab", "name": "37f7dc9f74dd7a63724f9e9a7d7a64ab", "is_reserved": 0, "fusion_lat": 0.0}, {"type": "electric_scooter", "rental_uris": {"ios": "https://dc.lft.to/lastmile_qr_scan", "android": "https://dc.lft.to/lastmile_qr_scan"}, "lon": -76.98883833333333, "fusion_lon": 0.0, "is_disabled": 0, "lat": 38.8665125, "bike_id": "7a338a07f40e55bf020ce3e55dc84c4b", "name": "7a338a07f40e55bf020ce3e55dc84c4b", "is_reserved": 0, "fusion_lat": 0.0}, {"type": "electric_scooter", "rental_uris": {"ios": "https://dc.lft.to/lastmile_qr_scan", "android": "https://dc.lft.to/lastmile_qr_scan"}, "lon": -77.02475766666667, "fusion_lon": 0.0, "is_disabled": 0, "lat": 38.919578333333334, "bike_id": "f899a98c71cdba0b8da97ad4bdb95f84", "name": "f899a98c71cdba0b8da97ad4bdb95f84", "is_reserved": 0, "fusion_lat": 0.0}, {"type": "electric_scooter", "rental_uris": {"ios": "https://dc.lft.to/lastmile_qr_scan", "android": "https://dc.lft.to/lastmile_qr_scan"}, "lon": -76.99633783333333, "fusion_lon": 0.0, "is_disabled": 0, "lat": 38.900016666666666, "bike_id": "1d89fc8c43595ad0b8a163253119f782", "name": "1d89fc8c43595ad0b8a163253119f782", "is_reserved": 0, "fusion_lat": 0.0}, {"type": "electric_scooter", "rental_uris": {"ios": "https://dc.lft.to/lastmile_qr_scan", "android": "https://dc.lft.to/lastmile_qr_scan"}, "lon": -77.02054666666666, "fusion_lon": 0.0, "is_disabled": 0, "lat": 38.90854366666667, "bike_id": "7befde3989a0edc2c79acbf35bb025e9", "name": "7befde3989a0edc2c79acbf35bb025e9", "is_reserved": 0, "fusion_lat": 0.0}, {"type": "electric_bike", "rental_uris": {"ios": "https://dc.lft.to/lastmile_qr_scan", "android": "https://dc.lft.to/lastmile_qr_scan"}, "lon": -77.07117183333334, "fusion_lon": 0.0, "is_disabled": 0, "lat": 38.80070416666667, "bike_id": "fc1121835db40560fcaa4953d055d9a2", "name": "fc1121835db40560fcaa4953d055d9a2", "is_reserved": 0, "fusion_lat": 0.0}, {"type": "electric_scooter", "rental_uris": {"ios": "https://dc.lft.to/lastmile_qr_scan", "android": "https://dc.lft.to/lastmile_qr_scan"}, "lon": -76.999054, "fusion_lon": 0.0, "is_disabled": 0, "lat": 38.898904333333334, "bike_id": "57f0b3e627b98a4d265bf83b57946869", "name": "57f0b3e627b98a4d265bf83b57946869", "is_reserved": 0, "fusion_lat": 0.0}, {"type": "electric_scooter", "rental_uris": {"ios": "https://dc.lft.to/lastmile_qr_scan", "android": "https://dc.lft.to/lastmile_qr_scan"}, "lon": -77.04916066666667, "fusion_lon": 0.0, "is_disabled": 0, "lat": 38.900737666666664, "bike_id": "12dfb2402fa5b3e834609fe16facaf43", "name": "12dfb2402fa5b3e834609fe16facaf43", "is_reserved": 0, "fusion_lat": 0.0}, {"type": "electric_bike", "rental_uris": {"ios": "https://dc.lft.to/lastmile_qr_scan", "android": "https://dc.lft.to/lastmile_qr_scan"}, "lon": -77.02473916666666, "fusion_lon": 0.0, "is_disabled": 0, "lat": 38.95299166666667, "bike_id": "abb1b471689e13f89aaa400df8bc21bc", "name": "abb1b471689e13f89aaa400df8bc21bc", "is_reserved": 0, "fusion_lat": 0.0}, {"type": "electric_bike", "rental_uris": {"ios": "https://dc.lft.to/lastmile_qr_scan", "android": "https://dc.lft.to/lastmile_qr_scan"}, "lon": -77.06330366666667, "fusion_lon": 0.0, "is_disabled": 0, "lat": 38.9211395, "bike_id": "220388c8a3735ce0ad68eb2c8449e92b", "name": "220388c8a3735ce0ad68eb2c8449e92b", "is_reserved": 0, "fusion_lat": 0.0}, {"type": "electric_scooter", "rental_uris": {"ios": "https://dc.lft.to/lastmile_qr_scan", "android": "https://dc.lft.to/lastmile_qr_scan"}, "lon": -77.03211916666666, "fusion_lon": 0.0, "is_disabled": 0, "lat": 38.91857866666667, "bike_id": "cfa5dabe7f24b4a3aa24d8dc327385aa", "name": "cfa5dabe7f24b4a3aa24d8dc327385aa", "is_reserved": 0, "fusion_lat": 0.0}, {"type": "electric_bike", "rental_uris": {"ios": "https://dc.lft.to/lastmile_qr_scan", "android": "https://dc.lft.to/lastmile_qr_scan"}, "lon": -77.0791575, "fusion_lon": 0.0, "is_disabled": 0, "lat": 38.80229383333333, "bike_id": "618eb3b56d36b2e96610856cd8d2db7a", "name": "618eb3b56d36b2e96610856cd8d2db7a", "is_reserved": 0, "fusion_lat": 0.0}, {"type": "electric_scooter", "rental_uris": {"ios": "https://dc.lft.to/lastmile_qr_scan", "android": "https://dc.lft.to/lastmile_qr_scan"}, "lon": -77.04363416666666, "fusion_lon": 0.0, "is_disabled": 0, "lat": 38.9023035, "bike_id": "4732f9575a219765637ee0ba2b233ad6", "name": "4732f9575a219765637ee0ba2b233ad6", "is_reserved": 0, "fusion_lat": 0.0}, {"type": "electric_scooter", "rental_uris": {"ios": "https://dc.lft.to/lastmile_qr_scan", "android": "https://dc.lft.to/lastmile_qr_scan"}, "lon": -77.04355533333333, "fusion_lon": 0.0, "is_disabled": 0, "lat": 38.922436166666664, "bike_id": "d9e693e6b4c00779e4c251b71e2bc9e8", "name": "d9e693e6b4c00779e4c251b71e2bc9e8", "is_reserved": 0, "fusion_lat": 0.0}, {"type": "electric_scooter", "rental_uris": {"ios": "https://dc.lft.to/lastmile_qr_scan", "android": "https://dc.lft.to/lastmile_qr_scan"}, "lon": -76.99030916666666, "fusion_lon": 0.0, "is_disabled": 0, "lat": 38.86367166666667, "bike_id": "3b1ec199f6e12f6fbe51321bccb1e7c7", "name": "3b1ec199f6e12f6fbe51321bccb1e7c7", "is_reserved": 0, "fusion_lat": 0.0}, {"type": "electric_scooter", "rental_uris": {"ios": "https://dc.lft.to/lastmile_qr_scan", "android": "https://dc.lft.to/lastmile_qr_scan"}, "lon": -77.00906116666667, "fusion_lon": 0.0, "is_disabled": 0, "lat": 38.91849, "bike_id": "34649859d8ed76c5210d1ddd4e47e43f", "name": "34649859d8ed76c5210d1ddd4e47e43f", "is_reserved": 0, "fusion_lat": 0.0}, {"type": "electric_scooter", "rental_uris": {"ios": "https://dc.lft.to/lastmile_qr_scan", "android": "https://dc.lft.to/lastmile_qr_scan"}, "lon": -77.04026266666666, "fusion_lon": 0.0, "is_disabled": 0, "lat": 38.92442666666667, "bike_id": "863e057c806c5f4ebf7dab7fe6578135", "name": "863e057c806c5f4ebf7dab7fe6578135", "is_reserved": 0, "fusion_lat": 0.0}, {"type": "electric_scooter", "rental_uris": {"ios": "https://dc.lft.to/lastmile_qr_scan", "android": "https://dc.lft.to/lastmile_qr_scan"}, "lon": -77.0418105, "fusion_lon": 0.0, "is_disabled": 0, "lat": 38.90549883333333, "bike_id": "01c536230b996bc8528fabf51ed7cd1b", "name": "01c536230b996bc8528fabf51ed7cd1b", "is_reserved": 0, "fusion_lat": 0.0}, {"type": "electric_scooter", "rental_uris": {"ios": "https://dc.lft.to/lastmile_qr_scan", "android": "https://dc.lft.to/lastmile_qr_scan"}, "lon": -77.03449583333334, "fusion_lon": 0.0, "is_disabled": 0, "lat": 38.90267216666667, "bike_id": "90b37384d6e562280b293a0c523afabd", "name": "90b37384d6e562280b293a0c523afabd", "is_reserved": 0, "fusion_lat": 0.0}, {"type": "electric_scooter", "rental_uris": {"ios": "https://dc.lft.to/lastmile_qr_scan", "android": "https://dc.lft.to/lastmile_qr_scan"}, "lon": -77.01460933333334, "fusion_lon": 0.0, "is_disabled": 0, "lat": 38.877303, "bike_id": "50ede4d7a04202601901c28985d54a32", "name": "50ede4d7a04202601901c28985d54a32", "is_reserved": 0, "fusion_lat": 0.0}, {"type": "electric_scooter", "rental_uris": {"ios": "https://dc.lft.to/lastmile_qr_scan", "android": "https://dc.lft.to/lastmile_qr_scan"}, "lon": -77.00211433333334, "fusion_lon": 0.0, "is_disabled": 0, "lat": 38.90033116666667, "bike_id": "ccbb78be7fb4304ab4d292c2a0a7baba", "name": "ccbb78be7fb4304ab4d292c2a0a7baba", "is_reserved": 0, "fusion_lat": 0.0}, {"type": "electric_scooter", "rental_uris": {"ios": "https://dc.lft.to/lastmile_qr_scan", "android": "https://dc.lft.to/lastmile_qr_scan"}, "lon": -76.96981033333333, "fusion_lon": 0.0, "is_disabled": 0, "lat": 38.919514666666664, "bike_id": "8c2030d4df9bb72fbac82d000b667072", "name": "8c2030d4df9bb72fbac82d000b667072", "is_reserved": 0, "fusion_lat": 0.0}, {"type": "electric_bike", "rental_uris": {"ios": "https://dc.lft.to/lastmile_qr_scan", "android": "https://dc.lft.to/lastmile_qr_scan"}, "lon": -76.9841525, "fusion_lon": 0.0, "is_disabled": 0, "lat": 38.855170666666666, "bike_id": "78ac371adf428de24e99a1ec5462fd42", "name": "78ac371adf428de24e99a1ec5462fd42", "is_reserved": 0, "fusion_lat": 0.0}, {"type": "electric_bike", "rental_uris": {"ios": "https://dc.lft.to/lastmile_qr_scan", "android": "https://dc.lft.to/lastmile_qr_scan"}, "lon": -76.97521483333334, "fusion_lon": 0.0, "is_disabled": 0, "lat": 38.967045666666664, "bike_id": "bbb2bfc324fb800e08d6a63b4a5ae241", "name": "bbb2bfc324fb800e08d6a63b4a5ae241", "is_reserved": 0, "fusion_lat": 0.0}, {"type": "electric_scooter", "rental_uris": {"ios": "https://dc.lft.to/lastmile_qr_scan", "android": "https://dc.lft.to/lastmile_qr_scan"}, "lon": -77.02324816666666, "fusion_lon": 0.0, "is_disabled": 0, "lat": 38.93061766666667, "bike_id": "e9e4ae579bae8cc43401f9ad5eec7f0d", "name": "e9e4ae579bae8cc43401f9ad5eec7f0d", "is_reserved": 0, "fusion_lat": 0.0}, {"type": "electric_scooter", "rental_uris": {"ios": "https://dc.lft.to/lastmile_qr_scan", "android": "https://dc.lft.to/lastmile_qr_scan"}, "lon": -77.02624316666666, "fusion_lon": 0.0, "is_disabled": 0, "lat": 38.892232666666665, "bike_id": "1bd6df44ef8e2865220a1e0f084d68e6", "name": "1bd6df44ef8e2865220a1e0f084d68e6", "is_reserved": 0, "fusion_lat": 0.0}, {"type": "electric_scooter", "rental_uris": {"ios": "https://dc.lft.to/lastmile_qr_scan", "android": "https://dc.lft.to/lastmile_qr_scan"}, "lon": -77.03947066666667, "fusion_lon": 0.0, "is_disabled": 0, "lat": 38.9170735, "bike_id": "f795e5aea3a18a313886615604a98831", "name": "f795e5aea3a18a313886615604a98831", "is_reserved": 0, "fusion_lat": 0.0}, {"type": "electric_scooter", "rental_uris": {"ios": "https://dc.lft.to/lastmile_qr_scan", "android": "https://dc.lft.to/lastmile_qr_scan"}, "lon": -76.99028433333334, "fusion_lon": 0.0, "is_disabled": 0, "lat": 38.865271666666665, "bike_id": "e110faf058ee018153e1e24302e4a6fd", "name": "e110faf058ee018153e1e24302e4a6fd", "is_reserved": 0, "fusion_lat": 0.0}, {"type": "electric_scooter", "rental_uris": {"ios": "https://dc.lft.to/lastmile_qr_scan", "android": "https://dc.lft.to/lastmile_qr_scan"}, "lon": -77.01485333333333, "fusion_lon": 0.0, "is_disabled": 0, "lat": 38.87635566666667, "bike_id": "ea5c77bbabd657cdb63a16a245c919e2", "name": "ea5c77bbabd657cdb63a16a245c919e2", "is_reserved": 0, "fusion_lat": 0.0}, {"type": "electric_scooter", "rental_uris": {"ios": "https://dc.lft.to/lastmile_qr_scan", "android": "https://dc.lft.to/lastmile_qr_scan"}, "lon": -77.0402255, "fusion_lon": 0.0, "is_disabled": 0, "lat": 38.9245225, "bike_id": "cad731572d6f230a15bd005fc667ff74", "name": "cad731572d6f230a15bd005fc667ff74", "is_reserved": 0, "fusion_lat": 0.0}, {"type": "electric_scooter", "rental_uris": {"ios": "https://dc.lft.to/lastmile_qr_scan", "android": "https://dc.lft.to/lastmile_qr_scan"}, "lon": -77.04338983333334, "fusion_lon": 0.0, "is_disabled": 0, "lat": 38.90445366666667, "bike_id": "fdae0072c57911450b26e989e390e8b6", "name": "fdae0072c57911450b26e989e390e8b6", "is_reserved": 0, "fusion_lat": 0.0}, {"type": "electric_scooter", "rental_uris": {"ios": "https://dc.lft.to/lastmile_qr_scan", "android": "https://dc.lft.to/lastmile_qr_scan"}, "lon": -77.046134, "fusion_lon": 0.0, "is_disabled": 0, "lat": 38.91558033333333, "bike_id": "35c599fd80aa0526e5e55553562e4e7c", "name": "35c599fd80aa0526e5e55553562e4e7c", "is_reserved": 0, "fusion_lat": 0.0}, {"type": "electric_scooter", "rental_uris": {"ios": "https://dc.lft.to/lastmile_qr_scan", "android": "https://dc.lft.to/lastmile_qr_scan"}, "lon": -77.0401, "fusion_lon": 0.0, "is_disabled": 0, "lat": 38.90999983333333, "bike_id": "ab601dd829ce28539d531abda03b7f43", "name": "ab601dd829ce28539d531abda03b7f43", "is_reserved": 0, "fusion_lat": 0.0}, {"type": "electric_scooter", "rental_uris": {"ios": "https://dc.lft.to/lastmile_qr_scan", "android": "https://dc.lft.to/lastmile_qr_scan"}, "lon": -77.0367395, "fusion_lon": 0.0, "is_disabled": 0, "lat": 38.917114166666664, "bike_id": "ffdebf240e10b6a8eaf5ae39ba5d7f69", "name": "ffdebf240e10b6a8eaf5ae39ba5d7f69", "is_reserved": 0, "fusion_lat": 0.0}, {"type": "electric_bike", "rental_uris": {"ios": "https://dc.lft.to/lastmile_qr_scan", "android": "https://dc.lft.to/lastmile_qr_scan"}, "lon": -76.9810485, "fusion_lon": 0.0, "is_disabled": 0, "lat": 38.953547666666665, "bike_id": "32278c61ecb86395285b7dd9eedc8199", "name": "32278c61ecb86395285b7dd9eedc8199", "is_reserved": 0, "fusion_lat": 0.0}, {"type": "electric_scooter", "rental_uris": {"ios": "https://dc.lft.to/lastmile_qr_scan", "android": "https://dc.lft.to/lastmile_qr_scan"}, "lon": -77.0438095, "fusion_lon": 0.0, "is_disabled": 0, "lat": 38.93337366666667, "bike_id": "87bee226f57cf9ad396304e1e7db4e95", "name": "87bee226f57cf9ad396304e1e7db4e95", "is_reserved": 0, "fusion_lat": 0.0}, {"type": "electric_bike", "rental_uris": {"ios": "https://dc.lft.to/lastmile_qr_scan", "android": "https://dc.lft.to/lastmile_qr_scan"}, "lon": -77.129583, "fusion_lon": 0.0, "is_disabled": 0, "lat": 38.85222666666667, "bike_id": "e11534ee9ef51e0626c3b7c5955eb874", "name": "e11534ee9ef51e0626c3b7c5955eb874", "is_reserved": 0, "fusion_lat": 0.0}, {"type": "electric_scooter", "rental_uris": {"ios": "https://dc.lft.to/lastmile_qr_scan", "android": "https://dc.lft.to/lastmile_qr_scan"}, "lon": -77.03185316666666, "fusion_lon": 0.0, "is_disabled": 0, "lat": 38.909797, "bike_id": "5ff1bfc05f1a8b5896972d06b1813d50", "name": "5ff1bfc05f1a8b5896972d06b1813d50", "is_reserved": 0, "fusion_lat": 0.0}, {"type": "electric_bike", "rental_uris": {"ios": "https://dc.lft.to/lastmile_qr_scan", "android": "https://dc.lft.to/lastmile_qr_scan"}, "lon": -76.93231483333334, "fusion_lon": 0.0, "is_disabled": 0, "lat": 38.865969666666665, "bike_id": "c185b6bac18572c47a39b6c85598d88b", "name": "c185b6bac18572c47a39b6c85598d88b", "is_reserved": 0, "fusion_lat": 0.0}, {"type": "electric_scooter", "rental_uris": {"ios": "https://dc.lft.to/lastmile_qr_scan", "android": "https://dc.lft.to/lastmile_qr_scan"}, "lon": -77.02422616666666, "fusion_lon": 0.0, "is_disabled": 0, "lat": 38.89830583333333, "bike_id": "d16d0f07a5a3b60ed1e7954f95e0ef7f", "name": "d16d0f07a5a3b60ed1e7954f95e0ef7f", "is_reserved": 0, "fusion_lat": 0.0}, {"type": "electric_bike", "rental_uris": {"ios": "https://dc.lft.to/lastmile_qr_scan", "android": "https://dc.lft.to/lastmile_qr_scan"}, "lon": -77.09476083333334, "fusion_lon": 0.0, "is_disabled": 0, "lat": 38.80752566666666, "bike_id": "88a59b0d1e65dc2a697b97c5e2d98d4e", "name": "88a59b0d1e65dc2a697b97c5e2d98d4e", "is_reserved": 0, "fusion_lat": 0.0}, {"type": "electric_bike", "rental_uris": {"ios": "https://dc.lft.to/lastmile_qr_scan", "android": "https://dc.lft.to/lastmile_qr_scan"}, "lon": -77.03433816666667, "fusion_lon": 0.0, "is_disabled": 0, "lat": 38.92051566666667, "bike_id": "90427c5316d0b77aa552c5b40ea08c06", "name": "90427c5316d0b77aa552c5b40ea08c06", "is_reserved": 0, "fusion_lat": 0.0}, {"type": "electric_scooter", "rental_uris": {"ios": "https://dc.lft.to/lastmile_qr_scan", "android": "https://dc.lft.to/lastmile_qr_scan"}, "lon": -77.01759216666666, "fusion_lon": 0.0, "is_disabled": 0, "lat": 38.87676366666667, "bike_id": "4703d9e964557a2d22013845438f6ede", "name": "4703d9e964557a2d22013845438f6ede", "is_reserved": 0, "fusion_lat": 0.0}, {"type": "electric_scooter", "rental_uris": {"ios": "https://dc.lft.to/lastmile_qr_scan", "android": "https://dc.lft.to/lastmile_qr_scan"}, "lon": -77.0201145, "fusion_lon": 0.0, "is_disabled": 0, "lat": 38.91121733333333, "bike_id": "3def7f49ae1c5800aba7e743d4d84e37", "name": "3def7f49ae1c5800aba7e743d4d84e37", "is_reserved": 0, "fusion_lat": 0.0}, {"type": "electric_scooter", "rental_uris": {"ios": "https://dc.lft.to/lastmile_qr_scan", "android": "https://dc.lft.to/lastmile_qr_scan"}, "lon": -77.02797283333334, "fusion_lon": 0.0, "is_disabled": 0, "lat": 38.892365166666664, "bike_id": "1a8d46258ff25b06282a23a989e9bc69", "name": "1a8d46258ff25b06282a23a989e9bc69", "is_reserved": 0, "fusion_lat": 0.0}, {"type": "electric_scooter", "rental_uris": {"ios": "https://dc.lft.to/lastmile_qr_scan", "android": "https://dc.lft.to/lastmile_qr_scan"}, "lon": -77.03178183333333, "fusion_lon": 0.0, "is_disabled": 0, "lat": 38.9181705, "bike_id": "cebf0671e68917123d964ceeb45a8699", "name": "cebf0671e68917123d964ceeb45a8699", "is_reserved": 0, "fusion_lat": 0.0}, {"type": "electric_scooter", "rental_uris": {"ios": "https://dc.lft.to/lastmile_qr_scan", "android": "https://dc.lft.to/lastmile_qr_scan"},