{"data": {"bikes": [{"rental_uris": {"ios": "https://dc.lft.to/lastmile_qr_scan", "android": "https://dc.lft.to/lastmile_qr_scan"}, "type": "electric_bike", "name": "88c0ae088cda2329449daa5a0415e23b", "is_reserved": 0, "lon": -76.98810666666667, "is_disabled": 0, "fusion_lat": 0.0, "lat": 38.84278916666667, "bike_id": "88c0ae088cda2329449daa5a0415e23b", "fusion_lon": 0.0}, {"rental_uris": {"ios": "https://dc.lft.to/lastmile_qr_scan", "android": "https://dc.lft.to/lastmile_qr_scan"}, "type": "electric_scooter", "name": "c603de343caef5dcc5ca6175c1bfff26", "is_reserved": 0, "lon": -77.02316166666667, "is_disabled": 0, "fusion_lat": 0.0, "lat": 38.91788866666667, "bike_id": "c603de343caef5dcc5ca6175c1bfff26", "fusion_lon": 0.0}, {"rental_uris": {"ios": "https://dc.lft.to/lastmile_qr_scan", "android": "https://dc.lft.to/lastmile_qr_scan"}, "type": "electric_scooter", "name": "9caa7b4576cfd5d4698d91ac542949d4", "is_reserved": 0, "lon": -77.02583783333333, "is_disabled": 0, "fusion_lat": 0.0, "lat": 38.914581166666665, "bike_id": "9caa7b4576cfd5d4698d91ac542949d4", "fusion_lon": 0.0}, {"rental_uris": {"ios": "https://dc.lft.to/lastmile_qr_scan", "android": "https://dc.lft.to/lastmile_qr_scan"}, "type": "electric_scooter", "name": "c3310b7b152c34eabaf7608a43e60b42", "is_reserved": 0, "lon": -77.03518516666666, "is_disabled": 0, "fusion_lat": 0.0, "lat": 38.90967033333333, "bike_id": "c3310b7b152c34eabaf7608a43e60b42", "fusion_lon": 0.0}, {"rental_uris": {"ios": "https://dc.lft.to/lastmile_qr_scan", "android": "https://dc.lft.to/lastmile_qr_scan"}, "type": "electric_scooter", "name": "d5255ba494afd34a6980bd241c3e43c0", "is_reserved": 0, "lon": -77.035791, "is_disabled": 0, "fusion_lat": 0.0, "lat": 38.910469166666665, "bike_id": "d5255ba494afd34a6980bd241c3e43c0", "fusion_lon": 0.0}, {"rental_uris": {"ios": "https://dc.lft.to/lastmile_qr_scan", "android": "https://dc.lft.to/lastmile_qr_scan"}, "type": "electric_scooter", "name": "de282ccb41b3bb3541942b7a010652bb", "is_reserved": 0, "lon": -77.02813816666666, "is_disabled": 0, "fusion_lat": 0.0, "lat": 38.923709, "bike_id": "de282ccb41b3bb3541942b7a010652bb", "fusion_lon": 0.0}, {"rental_uris": {"ios": "https://dc.lft.to/lastmile_qr_scan", "android": "https://dc.lft.to/lastmile_qr_scan"}, "type": "electric_scooter", "name": "5197ea8b4359bba17909ec2f38cb769f", "is_reserved": 0, "lon": -77.04128266666666, "is_disabled": 0, "fusion_lat": 0.0, "lat": 38.906324833333336, "bike_id": "5197ea8b4359bba17909ec2f38cb769f", "fusion_lon": 0.0}, {"rental_uris": {"ios": "https://dc.lft.to/lastmile_qr_scan", "android": "https://dc.lft.to/lastmile_qr_scan"}, "type": "electric_scooter", "name": "af8e38764c187fa52966eb23c9fb421b", "is_reserved": 0, "lon": -77.0261485, "is_disabled": 0, "fusion_lat": 0.0, "lat": 38.88398933333333, "bike_id": "af8e38764c187fa52966eb23c9fb421b", "fusion_lon": 0.0}, {"rental_uris": {"ios": "https://dc.lft.to/lastmile_qr_scan", "android": "https://dc.lft.to/lastmile_qr_scan"}, "type": "electric_bike", "name": "9310736b435c9dbf4dfe834ca2b62440", "is_reserved": 0, "lon": -77.036428, "is_disabled": 0, "fusion_lat": 0.0, "lat": 38.991421, "bike_id": "9310736b435c9dbf4dfe834ca2b62440", "fusion_lon": 0.0}, {"rental_uris": {"ios": "https://dc.lft.to/lastmile_qr_scan", "android": "https://dc.lft.to/lastmile_qr_scan"}, "type": "electric_bike", "name": "15c3f4c20710ade2b2d87b3588f540d9", "is_reserved": 0, "lon": -77.02801383333333, "is_disabled": 0, "fusion_lat": 0.0, "lat": 38.91101033333333, "bike_id": "15c3f4c20710ade2b2d87b3588f540d9", "fusion_lon": 0.0}, {"rental_uris": {"ios": "https://dc.lft.to/lastmile_qr_scan", "android": "https://dc.lft.to/lastmile_qr_scan"}, "type": "electric_scooter", "name": "473bd8a99995f69e501ba942b324c766", "is_reserved": 0, "lon": -77.059063, "is_disabled": 0, "fusion_lat": 0.0, "lat": 38.902187, "bike_id": "473bd8a99995f69e501ba942b324c766", "fusion_lon": 0.0}, {"rental_uris": {"ios": "https://dc.lft.to/lastmile_qr_scan", "android": "https://dc.lft.to/lastmile_qr_scan"}, "type": "electric_scooter", "name": "f9bd4e769a690ac536d5736a7b3e9ac0", "is_reserved": 0, "lon": -77.04504433333334, "is_disabled": 0, "fusion_lat": 0.0, "lat": 38.89731666666667, "bike_id": "f9bd4e769a690ac536d5736a7b3e9ac0", "fusion_lon": 0.0}, {"rental_uris": {"ios": "https://dc.lft.to/lastmile_qr_scan", "android": "https://dc.lft.to/lastmile_qr_scan"}, "type": "electric_scooter", "name": "cacaaa1ecb1d33938f590e01efa31254", "is_reserved": 0, "lon": -77.04447166666667, "is_disabled": 0, "fusion_lat": 0.0, "lat": 38.901312833333336, "bike_id": "cacaaa1ecb1d33938f590e01efa31254", "fusion_lon": 0.0}, {"rental_uris": {"ios": "https://dc.lft.to/lastmile_qr_scan", "android": "https://dc.lft.to/lastmile_qr_scan"}, "type": "electric_scooter", "name": "5f4bb4b5a8dac28958d9f6988253a8d1", "is_reserved": 0, "lon": -77.021586, "is_disabled": 0, "fusion_lat": 0.0, "lat": 38.89553383333333, "bike_id": "5f4bb4b5a8dac28958d9f6988253a8d1", "fusion_lon": 0.0}, {"rental_uris": {"ios": "https://dc.lft.to/lastmile_qr_scan", "android": "https://dc.lft.to/lastmile_qr_scan"}, "type": "electric_scooter", "name": "1256744a70eeb70910909350390c4eed", "is_reserved": 0, "lon": -77.0484375, "is_disabled": 0, "fusion_lat": 0.0, "lat": 38.905221833333336, "bike_id": "1256744a70eeb70910909350390c4eed", "fusion_lon": 0.0}, {"rental_uris": {"ios": "https://dc.lft.to/lastmile_qr_scan", "android": "https://dc.lft.to/lastmile_qr_scan"}, "type": "electric_scooter", "name": "39230f82dfcb5066b1ac3d714fed6162", "is_reserved": 0, "lon": -76.99954666666666, "is_disabled": 0, "fusion_lat": 0.0, "lat": 38.908550166666664, "bike_id": "39230f82dfcb5066b1ac3d714fed6162", "fusion_lon": 0.0}, {"rental_uris": {"ios": "https://dc.lft.to/lastmile_qr_scan", "android": "https://dc.lft.to/lastmile_qr_scan"}, "type": "electric_scooter", "name": "3a1b2d91394ff6a991f0a9cda9a2e911", "is_reserved": 0, "lon": -77.04338183333333, "is_disabled": 0, "fusion_lat": 0.0, "lat": 38.917812, "bike_id": "3a1b2d91394ff6a991f0a9cda9a2e911", "fusion_lon": 0.0}, {"rental_uris": {"ios": "https://dc.lft.to/lastmile_qr_scan", "android": "https://dc.lft.to/lastmile_qr_scan"}, "type": "electric_scooter", "name": "67da7493a3ffd44a749a15777006a582", "is_reserved": 0, "lon": -77.01916433333334, "is_disabled": 0, "fusion_lat": 0.0, "lat": 38.9023215, "bike_id": "67da7493a3ffd44a749a15777006a582", "fusion_lon": 0.0}, {"rental_uris": {"ios": "https://dc.lft.to/lastmile_qr_scan", "android": "https://dc.lft.to/lastmile_qr_scan"}, "type": "electric_bike", "name": "b2fe1e67c5d3167d2a0fc12dc87c5189", "is_reserved": 0, "lon": -76.97313566666666, "is_disabled": 0, "fusion_lat": 0.0, "lat": 38.917587, "bike_id": "b2fe1e67c5d3167d2a0fc12dc87c5189", "fusion_lon": 0.0}, {"rental_uris": {"ios": "https://dc.lft.to/lastmile_qr_scan", "android": "https://dc.lft.to/lastmile_qr_scan"}, "type": "electric_scooter", "name": "4565b88f238d907e6baad21ddd9753ab", "is_reserved": 0, "lon": -77.0297, "is_disabled": 0, "fusion_lat": 0.0, "lat": 38.906501, "bike_id": "4565b88f238d907e6baad21ddd9753ab", "fusion_lon": 0.0}, {"rental_uris": {"ios": "https://dc.lft.to/lastmile_qr_scan", "android": "https://dc.lft.to/lastmile_qr_scan"}, "type": "electric_bike", "name": "c8bcaf8b2e59de8187bda67a5b067fd9", "is_reserved": 0, "lon": -76.960891, "is_disabled": 0, "fusion_lat": 0.0, "lat": 38.91852216666667, "bike_id": "c8bcaf8b2e59de8187bda67a5b067fd9", "fusion_lon": 0.0}, {"rental_uris": {"ios": "https://dc.lft.to/lastmile_qr_scan", "android": "https://dc.lft.to/lastmile_qr_scan"}, "type": "electric_scooter", "name": "741cb4e8cc3f349783185143cb9f4d3c", "is_reserved": 0, "lon": -77.054983, "is_disabled": 0, "fusion_lat": 0.0, "lat": 38.915488333333336, "bike_id": "741cb4e8cc3f349783185143cb9f4d3c", "fusion_lon": 0.0}, {"rental_uris": {"ios": "https://dc.lft.to/lastmile_qr_scan", "android": "https://dc.lft.to/lastmile_qr_scan"}, "type": "electric_scooter", "name": "a8aa7e56c2f364b2250db3498cd5cc11", "is_reserved": 0, "lon": -77.01940416666666, "is_disabled": 0, "fusion_lat": 0.0, "lat": 38.9469795, "bike_id": "a8aa7e56c2f364b2250db3498cd5cc11", "fusion_lon": 0.0}, {"rental_uris": {"ios": "https://dc.lft.to/lastmile_qr_scan", "android": "https://dc.lft.to/lastmile_qr_scan"}, "type": "electric_scooter", "name": "229582c033738e1ff1ccdbc01270114c", "is_reserved": 0, "lon": -77.00819566666667, "is_disabled": 0, "fusion_lat": 0.0, "lat": 38.917043, "bike_id": "229582c033738e1ff1ccdbc01270114c", "fusion_lon": 0.0}, {"rental_uris": {"ios": "https://dc.lft.to/lastmile_qr_scan", "android": "https://dc.lft.to/lastmile_qr_scan"}, "type": "electric_scooter", "name": "304e53559bb0fe587386be54753805cd", "is_reserved": 0, "lon": -77.02215416666667, "is_disabled": 0, "fusion_lat": 0.0, "lat": 38.924698666666664, "bike_id": "304e53559bb0fe587386be54753805cd", "fusion_lon": 0.0}, {"rental_uris": {"ios": "https://dc.lft.to/lastmile_qr_scan", "android": "https://dc.lft.to/lastmile_qr_scan"}, "type": "electric_scooter", "name": "7e780c2fd273b95d92ca9775185675f5", "is_reserved": 0, "lon": -77.02485716666666, "is_disabled": 0, "fusion_lat": 0.0, "lat": 38.91817566666667, "bike_id": "7e780c2fd273b95d92ca9775185675f5", "fusion_lon": 0.0}, {"rental_uris": {"ios": "https://dc.lft.to/lastmile_qr_scan", "android": "https://dc.lft.to/lastmile_qr_scan"}, "type": "electric_scooter", "name": "ba3730f7d618309e275e877a79dcfb9f", "is_reserved": 0, "lon": -77.05869683333333, "is_disabled": 0, "fusion_lat": 0.0, "lat": 38.9423605, "bike_id": "ba3730f7d618309e275e877a79dcfb9f", "fusion_lon": 0.0}, {"rental_uris": {"ios": "https://dc.lft.to/lastmile_qr_scan", "android": "https://dc.lft.to/lastmile_qr_scan"}, "type": "electric_scooter", "name": "757767edd9d3afbe71955244ab1f6893", "is_reserved": 0, "lon": -76.9713935, "is_disabled": 0, "fusion_lat": 0.0, "lat": 38.87860666666667, "bike_id": "757767edd9d3afbe71955244ab1f6893", "fusion_lon": 0.0}, {"rental_uris": {"ios": "https://dc.lft.to/lastmile_qr_scan", "android": "https://dc.lft.to/lastmile_qr_scan"}, "type": "electric_scooter", "name": "75e3e30423ab301468f72c2d8fc17151", "is_reserved": 0, "lon": -76.99556516666667, "is_disabled": 0, "fusion_lat": 0.0, "lat": 38.926756833333336, "bike_id": "75e3e30423ab301468f72c2d8fc17151", "fusion_lon": 0.0}, {"rental_uris": {"ios": "https://dc.lft.to/lastmile_qr_scan", "android": "https://dc.lft.to/lastmile_qr_scan"}, "type": "electric_scooter", "name": "8faff1f4d04cb9bf1f1b60d6c96bc6b1", "is_reserved": 0, "lon": -77.0095455, "is_disabled": 0, "fusion_lat": 0.0, "lat": 38.87631716666667, "bike_id": "8faff1f4d04cb9bf1f1b60d6c96bc6b1", "fusion_lon": 0.0}, {"rental_uris": {"ios": "https://dc.lft.to/lastmile_qr_scan", "android": "https://dc.lft.to/lastmile_qr_scan"}, "type": "electric_scooter", "name": "9e577329a682b6509bad11fb52ef2327", "is_reserved": 0, "lon": -77.04192766666667, "is_disabled": 0, "fusion_lat": 0.0, "lat": 38.922058, "bike_id": "9e577329a682b6509bad11fb52ef2327", "fusion_lon": 0.0}, {"rental_uris": {"ios": "https://dc.lft.to/lastmile_qr_scan", "android": "https://dc.lft.to/lastmile_qr_scan"}, "type": "electric_scooter", "name": "059cba3818fe1a10b27023998e31626a", "is_reserved": 0, "lon": -77.02376983333333, "is_disabled": 0, "fusion_lat": 0.0, "lat": 38.90946116666667, "bike_id": "059cba3818fe1a10b27023998e31626a", "fusion_lon": 0.0}, {"rental_uris": {"ios": "https://dc.lft.to/lastmile_qr_scan", "android": "https://dc.lft.to/lastmile_qr_scan"}, "type": "electric_scooter", "name": "6b4e583cf84bda8efc61c072c600d66e", "is_reserved": 0, "lon": -77.0315585, "is_disabled": 0, "fusion_lat": 0.0, "lat": 38.91699583333333, "bike_id": "6b4e583cf84bda8efc61c072c600d66e", "fusion_lon": 0.0}, {"rental_uris": {"ios": "https://dc.lft.to/lastmile_qr_scan", "android": "https://dc.lft.to/lastmile_qr_scan"}, "type": "electric_scooter", "name": "2d1f9b6f53bc3ea6e5600a9142721cd7", "is_reserved": 0, "lon": -76.92924583333334, "is_disabled": 0, "fusion_lat": 0.0, "lat": 38.8866025, "bike_id": "2d1f9b6f53bc3ea6e5600a9142721cd7", "fusion_lon": 0.0}, {"rental_uris": {"ios": "https://dc.lft.to/lastmile_qr_scan", "android": "https://dc.lft.to/lastmile_qr_scan"}, "type": "electric_scooter", "name": "6f3c1123c8ee326d2dead0125234b27a", "is_reserved": 0, "lon": -77.05521366666666, "is_disabled": 0, "fusion_lat": 0.0, "lat": 38.9077625, "bike_id": "6f3c1123c8ee326d2dead0125234b27a", "fusion_lon": 0.0}, {"rental_uris": {"ios": "https://dc.lft.to/lastmile_qr_scan", "android": "https://dc.lft.to/lastmile_qr_scan"}, "type": "electric_scooter", "name": "f7bb5cac4d29cb130252f6067559d9df", "is_reserved": 0, "lon": -76.9873405, "is_disabled": 0, "fusion_lat": 0.0, "lat": 38.842205166666666, "bike_id": "f7bb5cac4d29cb130252f6067559d9df", "fusion_lon": 0.0}, {"rental_uris": {"ios": "https://dc.lft.to/lastmile_qr_scan", "android": "https://dc.lft.to/lastmile_qr_scan"}, "type": "electric_scooter", "name": "e227fe08d8dc80c0af155a72d298e163", "is_reserved": 0, "lon": -77.04427366666667, "is_disabled": 0, "fusion_lat": 0.0, "lat": 38.90899616666667, "bike_id": "e227fe08d8dc80c0af155a72d298e163", "fusion_lon": 0.0}, {"rental_uris": {"ios": "https://dc.lft.to/lastmile_qr_scan", "android": "https://dc.lft.to/lastmile_qr_scan"}, "type": "electric_scooter", "name": "aeed324ebf0fd646aa1076132c1bad08", "is_reserved": 0, "lon": -77.0364995, "is_disabled": 0, "fusion_lat": 0.0, "lat": 38.95462633333333, "bike_id": "aeed324ebf0fd646aa1076132c1bad08", "fusion_lon": 0.0}, {"rental_uris": {"ios": "https://dc.lft.to/lastmile_qr_scan", "android": "https://dc.lft.to/lastmile_qr_scan"}, "type": "electric_scooter", "name": "3c30f5f7f1c07b8aef4ddda85467f9fd", "is_reserved": 0, "lon": -77.02148083333333, "is_disabled": 0, "fusion_lat": 0.0, "lat": 38.91552433333333, "bike_id": "3c30f5f7f1c07b8aef4ddda85467f9fd", "fusion_lon": 0.0}, {"rental_uris": {"ios": "https://dc.lft.to/lastmile_qr_scan", "android": "https://dc.lft.to/lastmile_qr_scan"}, "type": "electric_scooter", "name": "1b34438c2066e67c06202ce67af87b9a", "is_reserved": 0, "lon": -77.02111066666667, "is_disabled": 0, "fusion_lat": 0.0, "lat": 38.909403, "bike_id": "1b34438c2066e67c06202ce67af87b9a", "fusion_lon": 0.0}, {"rental_uris": {"ios": "https://dc.lft.to/lastmile_qr_scan", "android": "https://dc.lft.to/lastmile_qr_scan"}, "type": "electric_scooter", "name": "1a59806d5866300cdca0202284b68bc7", "is_reserved": 0, "lon": -77.03235116666667, "is_disabled": 0, "fusion_lat": 0.0, "lat": 38.92747583333333, "bike_id": "1a59806d5866300cdca0202284b68bc7", "fusion_lon": 0.0}, {"rental_uris": {"ios": "https://dc.lft.to/lastmile_qr_scan", "android": "https://dc.lft.to/lastmile_qr_scan"}, "type": "electric_scooter", "name": "fcdeb7f880c7ac7245d3b665a383f18e", "is_reserved": 0, "lon": -77.00674233333334, "is_disabled": 0, "fusion_lat": 0.0, "lat": 38.87141, "bike_id": "fcdeb7f880c7ac7245d3b665a383f18e", "fusion_lon": 0.0}, {"rental_uris": {"ios": "https://dc.lft.to/lastmile_qr_scan", "android": "https://dc.lft.to/lastmile_qr_scan"}, "type": "electric_scooter", "name": "6f9e175541d6a74be23c5acbf7e2ee01", "is_reserved": 0, "lon": -77.03224116666667, "is_disabled": 0, "fusion_lat": 0.0, "lat": 38.892307833333334, "bike_id": "6f9e175541d6a74be23c5acbf7e2ee01", "fusion_lon": 0.0}, {"rental_uris": {"ios": "https://dc.lft.to/lastmile_qr_scan", "android": "https://dc.lft.to/lastmile_qr_scan"}, "type": "electric_scooter", "name": "7e4fb741e0dc81105f1e53e54e64f38d", "is_reserved": 0, "lon": -77.04503483333333, "is_disabled": 0, "fusion_lat": 0.0, "lat": 38.892227166666665, "bike_id": "7e4fb741e0dc81105f1e53e54e64f38d", "fusion_lon": 0.0}, {"rental_uris": {"ios": "https://dc.lft.to/lastmile_qr_scan", "android": "https://dc.lft.to/lastmile_qr_scan"}, "type": "electric_scooter", "name": "1e4eb2fbba176e632512b2fce5270fdd", "is_reserved": 0, "lon": -77.02219666666667, "is_disabled": 0, "fusion_lat": 0.0, "lat": 38.91416916666667, "bike_id": "1e4eb2fbba176e632512b2fce5270fdd", "fusion_lon": 0.0}, {"rental_uris": {"ios": "https://dc.lft.to/lastmile_qr_scan", "android": "https://dc.lft.to/lastmile_qr_scan"}, "type": "electric_bike", "name": "290dc012c238ecff6844acf3d7a561c8", "is_reserved": 0, "lon": -77.09454333333333, "is_disabled": 0, "fusion_lat": 0.0, "lat": 38.80754366666667, "bike_id": "290dc012c238ecff6844acf3d7a561c8", "fusion_lon": 0.0}, {"rental_uris": {"ios": "https://dc.lft.to/lastmile_qr_scan", "android": "https://dc.lft.to/lastmile_qr_scan"}, "type": "electric_scooter", "name": "fb2ec2b311f521a2bc445b48561096bf", "is_reserved": 0, "lon": -76.94874633333333, "is_disabled": 0, "fusion_lat": 0.0, "lat": 38.894855166666666, "bike_id": "fb2ec2b311f521a2bc445b48561096bf", "fusion_lon": 0.0}, {"rental_uris": {"ios": "https://dc.lft.to/lastmile_qr_scan", "android": "https://dc.lft.to/lastmile_qr_scan"}, "type": "electric_scooter", "name": "7f53df6b2ee6001e127b4937432a871f", "is_reserved": 0, "lon": -77.02704216666666, "is_disabled": 0, "fusion_lat": 0.0, "lat": 38.906732833333336, "bike_id": "7f53df6b2ee6001e127b4937432a871f", "fusion_lon": 0.0}, {"rental_uris": {"ios": "https://dc.lft.to/lastmile_qr_scan", "android": "https://dc.lft.to/lastmile_qr_scan"}, "type": "electric_scooter", "name": "44036acb0b8b1d3ef595633de75103fe", "is_reserved": 0, "lon": -77.02203933333334, "is_disabled": 0, "fusion_lat": 0.0, "lat": 38.95153283333333, "bike_id": "44036acb0b8b1d3ef595633de75103fe", "fusion_lon": 0.0}, {"rental_uris": {"ios": "https://dc.lft.to/lastmile_qr_scan", "android": "https://dc.lft.to/lastmile_qr_scan"}, "type": "electric_scooter", "name": "c62c5a468fcde01b1bdf0743b5a0fce5", "is_reserved": 0, "lon": -77.02155233333333, "is_disabled": 0, "fusion_lat": 0.0, "lat": 38.926065, "bike_id": "c62c5a468fcde01b1bdf0743b5a0fce5", "fusion_lon": 0.0}, {"rental_uris": {"ios": "https://dc.lft.to/lastmile_qr_scan", "android": "https://dc.lft.to/lastmile_qr_scan"}, "type": "electric_scooter", "name": "bef22b122547b7cce30228e84aaa2b23", "is_reserved": 0, "lon": -77.02627916666667, "is_disabled": 0, "fusion_lat": 0.0, "lat": 38.902789166666665, "bike_id": "bef22b122547b7cce30228e84aaa2b23", "fusion_lon": 0.0}, {"rental_uris": {"ios": "https://dc.lft.to/lastmile_qr_scan", "android": "https://dc.lft.to/lastmile_qr_scan"}, "type": "electric_scooter", "name": "9bbf9e05944adb372af21685216b8477", "is_reserved": 0, "lon": -77.07875366666667, "is_disabled": 0, "fusion_lat": 0.0, "lat": 38.946153, "bike_id": "9bbf9e05944adb372af21685216b8477", "fusion_lon": 0.0}, {"rental_uris": {"ios": "https://dc.lft.to/lastmile_qr_scan", "android": "https://dc.lft.to/lastmile_qr_scan"}, "type": "electric_scooter", "name": "3c92dc61ec7bb6265d6f7d409be6a491", "is_reserved": 0, "lon": -77.02347216666666, "is_disabled": 0, "fusion_lat": 0.0, "lat": 38.929917333333336, "bike_id": "3c92dc61ec7bb6265d6f7d409be6a491", "fusion_lon": 0.0}, {"rental_uris": {"ios": "https://dc.lft.to/lastmile_qr_scan", "android": "https://dc.lft.to/lastmile_qr_scan"}, "type": "electric_bike", "name": "5e30f07819259457ae1ca6e9ab516288", "is_reserved": 0, "lon": -77.07520233333334, "is_disabled": 0, "fusion_lat": 0.0, "lat": 38.84286383333333, "bike_id": "5e30f07819259457ae1ca6e9ab516288", "fusion_lon": 0.0}, {"rental_uris": {"ios": "https://dc.lft.to/lastmile_qr_scan", "android": "https://dc.lft.to/lastmile_qr_scan"}, "type": "electric_scooter", "name": "111141209c52f2e0b4b239edc512c5d2", "is_reserved": 0, "lon": -76.937326, "is_disabled": 0, "fusion_lat": 0.0, "lat": 38.8888495, "bike_id": "111141209c52f2e0b4b239edc512c5d2", "fusion_lon": 0.0}, {"rental_uris": {"ios": "https://dc.lft.to/lastmile_qr_scan", "android": "https://dc.lft.to/lastmile_qr_scan"}, "type": "electric_scooter", "name": "3a759397590c59c415beac0ec2f1442b", "is_reserved": 0, "lon": -77.04682266666667, "is_disabled": 0, "fusion_lat": 0.0, "lat": 38.9028985, "bike_id": "3a759397590c59c415beac0ec2f1442b", "fusion_lon": 0.0}, {"rental_uris": {"ios": "https://dc.lft.to/lastmile_qr_scan", "android": "https://dc.lft.to/lastmile_qr_scan"}, "type": "electric_scooter", "name": "216174decfc1b46117831a6a12e77c97", "is_reserved": 0, "lon": -77.03497083333333, "is_disabled": 0, "fusion_lat": 0.0, "lat": 38.90323216666667, "bike_id": "216174decfc1b46117831a6a12e77c97", "fusion_lon": 0.0}, {"rental_uris": {"ios": "https://dc.lft.to/lastmile_qr_scan", "android": "https://dc.lft.to/lastmile_qr_scan"}, "type": "electric_bike", "name": "06924176e8684427b2670ed89e2e40d7", "is_reserved": 0, "lon": -76.99416966666666, "is_disabled": 0, "fusion_lat": 0.0, "lat": 38.958759666666666, "bike_id": "06924176e8684427b2670ed89e2e40d7", "fusion_lon": 0.0}, {"rental_uris": {"ios": "https://dc.lft.to/lastmile_qr_scan", "android": "https://dc.lft.to/lastmile_qr_scan"}, "type": "electric_bike", "name": "fb12e654530a34696b7f888f46c17740", "is_reserved": 0, "lon": -77.12733716666666, "is_disabled": 0, "fusion_lat": 0.0, "lat": 38.895641833333336, "bike_id": "fb12e654530a34696b7f888f46c17740", "fusion_lon": 0.0}, {"rental_uris": {"ios": "https://dc.lft.to/lastmile_qr_scan", "android": "https://dc.lft.to/lastmile_qr_scan"}, "type": "electric_scooter", "name": "166e61cc7c8926849dbd840d3c72a7b3", "is_reserved": 0, "lon": -77.03590866666667, "is_disabled": 0, "fusion_lat": 0.0, "lat": 38.9023895, "bike_id": "166e61cc7c8926849dbd840d3c72a7b3", "fusion_lon": 0.0}, {"rental_uris": {"ios": "https://dc.lft.to/lastmile_qr_scan", "android": "https://dc.lft.to/lastmile_qr_scan"}, "type": "electric_scooter", "name": "e4437855246791eef5e0570b9474d43e", "is_reserved": 0, "lon": -77.0380655, "is_disabled": 0, "fusion_lat": 0.0, "lat": 38.910453833333335, "bike_id": "e4437855246791eef5e0570b9474d43e", "fusion_lon": 0.0}, {"rental_uris": {"ios": "https://dc.lft.to/lastmile_qr_scan", "android": "https://dc.lft.to/lastmile_qr_scan"}, "type": "electric_scooter", "name": "bd4bda27de0a2bcdfb9d79a76d106de0", "is_reserved": 0, "lon": -77.03792483333334, "is_disabled": 0, "fusion_lat": 0.0, "lat": 38.93106, "bike_id": "bd4bda27de0a2bcdfb9d79a76d106de0", "fusion_lon": 0.0}, {"rental_uris": {"ios": "https://dc.lft.to/lastmile_qr_scan", "android": "https://dc.lft.to/lastmile_qr_scan"}, "type": "electric_scooter", "name": "0ddcb47736a7f6ccf8ab9317d6280b5d", "is_reserved": 0, "lon": -77.0790475, "is_disabled": 0, "fusion_lat": 0.0, "lat": 38.9479195, "bike_id": "0ddcb47736a7f6ccf8ab9317d6280b5d", "fusion_lon": 0.0}, {"rental_uris": {"ios": "https://dc.lft.to/lastmile_qr_scan", "android": "https://dc.lft.to/lastmile_qr_scan"}, "type": "electric_scooter", "name": "7f77e85ab8e889eefa99612d47c090ec", "is_reserved": 0, "lon": -77.02835366666666, "is_disabled": 0, "fusion_lat": 0.0, "lat": 38.88734133333333, "bike_id": "7f77e85ab8e889eefa99612d47c090ec", "fusion_lon": 0.0}, {"rental_uris": {"ios": "https://dc.lft.to/lastmile_qr_scan", "android": "https://dc.lft.to/lastmile_qr_scan"}, "type": "electric_scooter", "name": "d13084c5d50e4ca0fb79776a4dcef265", "is_reserved": 0, "lon": -77.031775, "is_disabled": 0, "fusion_lat": 0.0, "lat": 38.9193075, "bike_id": "d13084c5d50e4ca0fb79776a4dcef265", "fusion_lon": 0.0}, {"rental_uris": {"ios": "https://dc.lft.to/lastmile_qr_scan", "android": "https://dc.lft.to/lastmile_qr_scan"}, "type": "electric_scooter", "name": "180ec0de8f43d68842002e714d4a195b", "is_reserved": 0, "lon": -77.04490933333334, "is_disabled": 0, "fusion_lat": 0.0, "lat": 38.91447316666667, "bike_id": "180ec0de8f43d68842002e714d4a195b", "fusion_lon": 0.0}, {"rental_uris": {"ios": "https://dc.lft.to/lastmile_qr_scan", "android": "https://dc.lft.to/lastmile_qr_scan"}, "type": "electric_scooter", "name": "c1592f6a8c031eae97c8385ad181f39c", "is_reserved": 0, "lon": -77.03438616666666, "is_disabled": 0, "fusion_lat": 0.0, "lat": 38.90843433333333, "bike_id": "c1592f6a8c031eae97c8385ad181f39c", "fusion_lon": 0.0}, {"rental_uris": {"ios": "https://dc.lft.to/lastmile_qr_scan", "android": "https://dc.lft.to/lastmile_qr_scan"}, "type": "electric_scooter", "name": "d045da177e5e336abae890e193cb83fa", "is_reserved": 0, "lon": -77.04233133333334, "is_disabled": 0, "fusion_lat": 0.0, "lat": 38.91643166666667, "bike_id": "d045da177e5e336abae890e193cb83fa", "fusion_lon": 0.0}, {"rental_uris": {"ios": "https://dc.lft.to/lastmile_qr_scan", "android": "https://dc.lft.to/lastmile_qr_scan"}, "type": "electric_scooter", "name": "e60eac2978211b42a53363ae5be9fcc8", "is_reserved": 0, "lon": -77.044704, "is_disabled": 0, "fusion_lat": 0.0, "lat": 38.90822516666667, "bike_id": "e60eac2978211b42a53363ae5be9fcc8", "fusion_lon": 0.0}, {"rental_uris": {"ios": "https://dc.lft.to/lastmile_qr_scan", "android": "https://dc.lft.to/lastmile_qr_scan"}, "type": "electric_scooter", "name": "0730ca585c77ef594421d220d6d25f40", "is_reserved": 0, "lon": -77.04475933333333, "is_disabled": 0, "fusion_lat": 0.0, "lat": 38.900747333333335, "bike_id": "0730ca585c77ef594421d220d6d25f40", "fusion_lon": 0.0}, {"rental_uris": {"ios": "https://dc.lft.to/lastmile_qr_scan", "android": "https://dc.lft.to/lastmile_qr_scan"}, "type": "electric_scooter", "name": "71c9b9767cea144e6513570bf8fb4c17", "is_reserved": 0, "lon": -77.04131766666667, "is_disabled": 0, "fusion_lat": 0.0, "lat": 38.92540533333333, "bike_id": "71c9b9767cea144e6513570bf8fb4c17", "fusion_lon": 0.0}, {"rental_uris": {"ios": "https://dc.lft.to/lastmile_qr_scan", "android": "https://dc.lft.to/lastmile_qr_scan"}, "type": "electric_scooter", "name": "df99cb5f3bab0d8e96c193b6124d1c72", "is_reserved": 0, "lon": -77.00595, "is_disabled": 0, "fusion_lat": 0.0, "lat": 38.87569833333333, "bike_id": "df99cb5f3bab0d8e96c193b6124d1c72", "fusion_lon": 0.0}, {"rental_uris": {"ios": "https://dc.lft.to/lastmile_qr_scan", "android": "https://dc.lft.to/lastmile_qr_scan"}, "type": "electric_scooter", "name": "57f7fa8d5030c6927cf6c8fe03cc2415", "is_reserved": 0, "lon": -77.02748333333334, "is_disabled": 0, "fusion_lat": 0.0, "lat": 38.9577115, "bike_id": "57f7fa8d5030c6927cf6c8fe03cc2415", "fusion_lon": 0.0}, {"rental_uris": {"ios": "https://dc.lft.to/lastmile_qr_scan", "android": "https://dc.lft.to/lastmile_qr_scan"}, "type": "electric_scooter", "name": "cbb6583968d284a85a6481e35bf84842", "is_reserved": 0, "lon": -76.94874116666666, "is_disabled": 0, "fusion_lat": 0.0, "lat": 38.8948505, "bike_id": "cbb6583968d284a85a6481e35bf84842", "fusion_lon": 0.0}, {"rental_uris": {"ios": "https://dc.lft.to/lastmile_qr_scan", "android": "https://dc.lft.to/lastmile_qr_scan"}, "type": "electric_scooter", "name": "5f2819f5a4194046a0a3f10a4b325e49", "is_reserved": 0, "lon": -76.9655955, "is_disabled": 0, "fusion_lat": 0.0, "lat": 38.9186585, "bike_id": "5f2819f5a4194046a0a3f10a4b325e49", "fusion_lon": 0.0}, {"rental_uris": {"ios": "https://dc.lft.to/lastmile_qr_scan", "android": "https://dc.lft.to/lastmile_qr_scan"}, "type": "electric_scooter", "name": "1fb5d5f33d6e6fdd6ec3b16f70c6c4c0", "is_reserved": 0, "lon": -76.98539316666667, "is_disabled": 0, "fusion_lat": 0.0, "lat": 38.9095445, "bike_id": "1fb5d5f33d6e6fdd6ec3b16f70c6c4c0", "fusion_lon": 0.0}, {"rental_uris": {"ios": "https://dc.lft.to/lastmile_qr_scan", "android": "https://dc.lft.to/lastmile_qr_scan"}, "type": "electric_scooter", "name": "000d9509be041992267e94c85d4f60a6", "is_reserved": 0, "lon": -77.04153366666667, "is_disabled": 0, "fusion_lat": 0.0, "lat": 38.92566133333333, "bike_id": "000d9509be041992267e94c85d4f60a6", "fusion_lon": 0.0}, {"rental_uris": {"ios": "https://dc.lft.to/lastmile_qr_scan", "android": "https://dc.lft.to/lastmile_qr_scan"}, "type": "electric_scooter", "name": "20eb6b50c90ff80eac7dbf690ff8920f", "is_reserved": 0, "lon": -77.024537, "is_disabled": 0, "fusion_lat": 0.0, "lat": 38.90311416666667, "bike_id": "20eb6b50c90ff80eac7dbf690ff8920f", "fusion_lon": 0.0}, {"rental_uris": {"ios": "https://dc.lft.to/lastmile_qr_scan", "android": "https://dc.lft.to/lastmile_qr_scan"}, "type": "electric_scooter", "name": "f4894e447eac67611de3ad2c912b495a", "is_reserved": 0, "lon": -76.98503583333333, "is_disabled": 0, "fusion_lat": 0.0, "lat": 38.879987666666665, "bike_id": "f4894e447eac67611de3ad2c912b495a", "fusion_lon": 0.0}, {"rental_uris": {"ios": "https://dc.lft.to/lastmile_qr_scan", "android": "https://dc.lft.to/lastmile_qr_scan"}, "type": "electric_bike", "name": "f36887ff5cfdb7d4835dfc91c2cf2dfb", "is_reserved": 0, "lon": -77.126501, "is_disabled": 0, "fusion_lat": 0.0, "lat": 38.81912333333333, "bike_id": "f36887ff5cfdb7d4835dfc91c2cf2dfb", "fusion_lon": 0.0}, {"rental_uris": {"ios": "https://dc.lft.to/lastmile_qr_scan", "android": "https://dc.lft.to/lastmile_qr_scan"}, "type": "electric_scooter", "name": "554eaf8ddee1b55049b3423ed8ca8e5e", "is_reserved": 0, "lon": -77.0319635, "is_disabled": 0, "fusion_lat": 0.0, "lat": 38.915689, "bike_id": "554eaf8ddee1b55049b3423ed8ca8e5e", "fusion_lon": 0.0}, {"rental_uris": {"ios": "https://dc.lft.to/lastmile_qr_scan", "android": "https://dc.lft.to/lastmile_qr_scan"}, "type": "electric_bike", "name": "7ccf6c73adb8eb525c4cc8b78a6a82cf", "is_reserved": 0, "lon": -77.08526083333334, "is_disabled": 0, "fusion_lat": 0.0, "lat": 38.85649383333333, "bike_id": "7ccf6c73adb8eb525c4cc8b78a6a82cf", "fusion_lon": 0.0}, {"rental_uris": {"ios": "https://dc.lft.to/lastmile_qr_scan", "android": "https://dc.lft.to/lastmile_qr_scan"}, "type": "electric_scooter", "name": "65e971cdc7d3ba05f2fa20a0fce390d2", "is_reserved": 0, "lon": -77.03415733333334, "is_disabled": 0, "fusion_lat": 0.0, "lat": 38.922128, "bike_id": "65e971cdc7d3ba05f2fa20a0fce390d2", "fusion_lon": 0.0}, {"rental_uris": {"ios": "https://dc.lft.to/lastmile_qr_scan", "android": "https://dc.lft.to/lastmile_qr_scan"}, "type": "electric_scooter", "name": "eba2840ed2144e2c92125d8993c7aa9c", "is_reserved": 0, "lon": -77.02790933333333, "is_disabled": 0, "fusion_lat": 0.0, "lat": 38.930815333333335, "bike_id": "eba2840ed2144e2c92125d8993c7aa9c", "fusion_lon": 0.0}, {"rental_uris": {"ios": "https://dc.lft.to/lastmile_qr_scan", "android": "https://dc.lft.to/lastmile_qr_scan"}, "type": "electric_scooter", "name": "6a3b96013690c20508bf19c55db80bc5", "is_reserved": 0, "lon": -77.0404535, "is_disabled": 0, "fusion_lat": 0.0, "lat": 38.90397466666667, "bike_id": "6a3b96013690c20508bf19c55db80bc5", "fusion_lon": 0.0}, {"rental_uris": {"ios": "https://dc.lft.to/lastmile_qr_scan", "android": "https://dc.lft.to/lastmile_qr_scan"}, "type": "electric_scooter", "name": "7b563f534c407732469ddca81eae74a0", "is_reserved": 0, "lon": -77.05921016666667, "is_disabled": 0, "fusion_lat": 0.0, "lat": 38.902796333333335, "bike_id": "7b563f534c407732469ddca81eae74a0", "fusion_lon": 0.0}, {"rental_uris": {"ios": "https://dc.lft.to/lastmile_qr_scan", "android": "https://dc.lft.to/lastmile_qr_scan"}, "type": "electric_scooter", "name": "7614a85eaea30f7259045e930bd227d3", "is_reserved": 0, "lon": -77.00598333333333, "is_disabled": 0, "fusion_lat": 0.0, "lat": 38.875667166666666, "bike_id": "7614a85eaea30f7259045e930bd227d3", "fusion_lon": 0.0}, {"rental_uris": {"ios": "https://dc.lft.to/lastmile_qr_scan", "android": "https://dc.lft.to/lastmile_qr_scan"}, "type": "electric_scooter", "name": "94b527312ff8c62ecb1f1925b046ef2a", "is_reserved": 0, "lon": -77.04154033333333, "is_disabled": 0, "fusion_lat": 0.0, "lat": 38.90149066666667, "bike_id": "94b527312ff8c62ecb1f1925b046ef2a", "fusion_lon": 0.0}, {"rental_uris": {"ios": "https://dc.lft.to/lastmile_qr_scan", "android": "https://dc.lft.to/lastmile_qr_scan"}, "type": "electric_bike", "name": "5d59367f82fc0bb0f531c3d1df8171bc", "is_reserved": 0, "lon": -77.09615066666667, "is_disabled": 0, "fusion_lat": 0.0, "lat": 38.9744185, "bike_id": "5d59367f82fc0bb0f531c3d1df8171bc", "fusion_lon": 0.0}, {"rental_uris": {"ios": "https://dc.lft.to/lastmile_qr_scan", "android": "https://dc.lft.to/lastmile_qr_scan"}, "type": "electric_scooter", "name": "8ecb61172fbfd6948f04c3ddfb9d0413", "is_reserved": 0, "lon": -76.996292, "is_disabled": 0, "fusion_lat": 0.0, "lat": 38.877383333333334, "bike_id": "8ecb61172fbfd6948f04c3ddfb9d0413", "fusion_lon": 0.0}, {"rental_uris": {"ios": "https://dc.lft.to/lastmile_qr_scan", "android": "https://dc.lft.to/lastmile_qr_scan"}, "type": "electric_scooter", "name": "f31f299bea5d52df7257c9165e1f5b9b", "is_reserved": 0, "lon": -77.05694833333334, "is_disabled": 0, "fusion_lat": 0.0, "lat": 38.9053485, "bike_id": "f31f299bea5d52df7257c9165e1f5b9b", "fusion_lon": 0.0}, {"rental_uris": {"ios": "https://dc.lft.to/lastmile_qr_scan", "android": "https://dc.lft.to/lastmile_qr_scan"}, "type": "electric_scooter", "name": "e5f6e7ae6781cd67c74afc87fdc08723", "is_reserved": 0, "lon": -76.94651483333334, "is_disabled": 0, "fusion_lat": 0.0, "lat": 38.898267, "bike_id": "e5f6e7ae6781cd67c74afc87fdc08723", "fusion_lon": 0.0}, {"rental_uris": {"ios": "https://dc.lft.to/lastmile_qr_scan", "android": "https://dc.lft.to/lastmile_qr_scan"}, "type": "electric_scooter", "name": "89f98383f128362ca27041b1b56ef7f2", "is_reserved": 0, "lon": -77.0144385, "is_disabled": 0, "fusion_lat": 0.0, "lat": 38.91321666666666, "bike_id": "89f98383f128362ca27041b1b56ef7f2", "fusion_lon": 0.0}, {"rental_uris": {"ios": "https://dc.lft.to/lastmile_qr_scan", "android": "https://dc.lft.to/lastmile_qr_scan"}, "type": "electric_scooter", "name": "789989f0a7933fc7a7baf93c910579f7", "is_reserved": 0, "lon": -77.0337955, "is_disabled": 0, "fusion_lat": 0.0, "lat": 38.909675166666666, "bike_id": "789989f0a7933fc7a7baf93c910579f7", "fusion_lon": 0.0}, {"rental_uris": {"ios": "https://dc.lft.to/lastmile_qr_scan", "android": "https://dc.lft.to/lastmile_qr_scan"}, "type": "electric_bike", "name": "81e889e04c4d05072a75fd69d71b1c07", "is_reserved": 0, "lon": -76.9332755, "is_disabled": 0, "fusion_lat": 0.0, "lat": 38.9515245, "bike_id": "81e889e04c4d05072a75fd69d71b1c07", "fusion_lon": 0.0}, {"rental_uris": {"ios": "https://dc.lft.to/lastmile_qr_scan", "android": "https://dc.lft.to/lastmile_qr_scan"}, "type": "electric_bike", "name": "ec93a7c217ea4097935166d3e52f4c28", "is_reserved": 0, "lon": -76.99257166666666, "is_disabled": 0, "fusion_lat": 0.0, "lat": 38.941730166666666, "bike_id": "ec93a7c217ea4097935166d3e52f4c28", "fusion_lon": 0.0}, {"rental_uris": {"ios": "https://dc.lft.to/lastmile_qr_scan", "android": "https://dc.lft.to/lastmile_qr_scan"}, "type": "electric_bike", "name": "5fc1ffc0c8a8da7e7b8597a6450ca445", "is_reserved": 0, "lon": -77.12839383333333, "is_disabled": 0, "fusion_lat": 0.0, "lat": 38.800532833333335, "bike_id": "5fc1ffc0c8a8da7e7b8597a6450ca445", "fusion_lon": 0.0}, {"rental_uris": {"ios": "https://dc.lft.to/lastmile_qr_scan", "android": "https://dc.lft.to/lastmile_qr_scan"}, "type": "electric_scooter", "name": "85dcad4e19af83510a975ecf01eabcf9", "is_reserved": 0, "lon": -77.001871, "is_disabled": 0, "fusion_lat": 0.0, "lat": 38.90047083333333, "bike_id": "85dcad4e19af83510a975ecf01eabcf9", "fusion_lon": 0.0}, {"rental_uris": {"ios": "https://dc.lft.to/lastmile_qr_scan", "android": "https://dc.lft.to/lastmile_qr_scan"}, "type": "electric_scooter", "name": "5b157240945d09b65999e773429018e3", "is_reserved": 0, "lon": -77.02682633333333, "is_disabled": 0, "fusion_lat": 0.0, "lat": 38.902479166666666, "bike_id": "5b157240945d09b65999e773429018e3", "fusion_lon": 0.0}, {"rental_uris": {"ios": "https://dc.lft.to/lastmile_qr_scan", "android": "https://dc.lft.to/lastmile_qr_scan"}, "type": "electric_scooter", "name": "3e12b887474ad7ebcba255ab737ebc0b", "is_reserved": 0, "lon": -77.00955033333334, "is_disabled": 0, "fusion_lat": 0.0, "lat": 38.8763465, "bike_id": "3e12b887474ad7ebcba255ab737ebc0b", "fusion_lon": 0.0}, {"rental_uris": {"ios": "https://dc.lft.to/lastmile_qr_scan", "android": "https://dc.lft.to/lastmile_qr_scan"}, "type": "electric_scooter", "name": "5bb176435e70d27afce6bd75e5a259f9", "is_reserved": 0, "lon": -76.997286, "is_disabled": 0, "fusion_lat": 0.0, "lat": 38.90013583333333, "bike_id": "5bb176435e70d27afce6bd75e5a259f9", "fusion_lon": 0.0}, {"rental_uris": {"ios": "https://dc.lft.to/lastmile_qr_scan", "android": "https://dc.lft.to/lastmile_qr_scan"}, "type": "electric_scooter", "name": "0c5f39c5c6ba8b0151764d5520a284a9", "is_reserved": 0, "lon": -77.04151366666666, "is_disabled": 0, "fusion_lat": 0.0, "lat": 38.91040783333333, "bike_id": "0c5f39c5c6ba8b0151764d5520a284a9", "fusion_lon": 0.0}, {"rental_uris": {"ios": "https://dc.lft.to/lastmile_qr_scan", "android": "https://dc.lft.to/lastmile_qr_scan"}, "type": "electric_scooter", "name": "05c6547ac07a2573a6eb5b4f8e3e18d4", "is_reserved": 0, "lon": -77.02298066666667, "is_disabled": 0, "fusion_lat": 0.0, "lat": 38.925154666666664, "bike_id": "05c6547ac07a2573a6eb5b4f8e3e18d4", "fusion_lon": 0.0}, {"rental_uris": {"ios": "https://dc.lft.to/lastmile_qr_scan", "android": "https://dc.lft.to/lastmile_qr_scan"}, "type": "electric_scooter", "name": "cb5ccfcfcc3a01986eedd3e00caa0a2a", "is_reserved": 0, "lon": -77.04088183333333, "is_disabled": 0, "fusion_lat": 0.0, "lat": 38.904966333333334, "bike_id": "cb5ccfcfcc3a01986eedd3e00caa0a2a", "fusion_lon": 0.0}, {"rental_uris": {"ios": "https://dc.lft.to/lastmile_qr_scan", "android": "https://dc.lft.to/lastmile_qr_scan"}, "type": "electric_scooter", "name": "1c69449964f3ba745c5532a773b9dc4a", "is_reserved": 0, "lon": -77.027122, "is_disabled": 0, "fusion_lat": 0.0, "lat": 38.897253166666665, "bike_id": "1c69449964f3ba745c5532a773b9dc4a", "fusion_lon": 0.0}, {"rental_uris": {"ios": "https://dc.lft.to/lastmile_qr_scan", "android": "https://dc.lft.to/lastmile_qr_scan"}, "type": "electric_bike", "name": "dff2d6c238f9b2fa8c643ca7820a1636", "is_reserved": 0, "lon": -77.03886116666666, "is_disabled": 0, "fusion_lat": 0.0, "lat": 39.0263875, "bike_id": "dff2d6c238f9b2fa8c643ca7820a1636", "fusion_lon": 0.0}, {"rental_uris": {"ios": "https://dc.lft.to/lastmile_qr_scan", "android": "https://dc.lft.to/lastmile_qr_scan"}, "type": "electric_scooter", "name": "e614695a1e2391dab98085aa535a71c2", "is_reserved": 0, "lon": -77.0330215, "is_disabled": 0, "fusion_lat": 0.0, "lat": 38.90742266666667, "bike_id": "e614695a1e2391dab98085aa535a71c2", "fusion_lon": 0.0}, {"rental_uris": {"ios": "https://dc.lft.to/lastmile_qr_scan", "android": "https://dc.lft.to/lastmile_qr_scan"}, "type": "electric_bike", "name": "8ec2660aedd314168f2c48866890c191", "is_reserved": 0, "lon": -77.16228883333333, "is_disabled": 0, "fusion_lat": 0.0, "lat": 38.886646166666665, "bike_id": "8ec2660aedd314168f2c48866890c191", "fusion_lon": 0.0}, {"rental_uris": {"ios": "https://dc.lft.to/lastmile_qr_scan", "android": "https://dc.lft.to/lastmile_qr_scan"}, "type": "electric_scooter", "name": "38471c47ada48d1f76a617e65f8c32b3", "is_reserved": 0, "lon": -77.05841066666666, "is_disabled": 0, "fusion_lat": 0.0, "lat": 38.886189333333334, "bike_id": "38471c47ada48d1f76a617e65f8c32b3", "fusion_lon": 0.0}, {"rental_uris": {"ios": "https://dc.lft.to/lastmile_qr_scan", "android": "https://dc.lft.to/lastmile_qr_scan"}, "type": "electric_scooter", "name": "ae3b09cae7ba1dbae9fb5e4d4b8e176c", "is_reserved": 0, "lon": -76.98589616666666, "is_disabled": 0, "fusion_lat": 0.0, "lat": 38.91425133333333, "bike_id": "ae3b09cae7ba1dbae9fb5e4d4b8e176c", "fusion_lon": 0.0}, {"rental_uris": {"ios": "https://dc.lft.to/lastmile_qr_scan", "android": "https://dc.lft.to/lastmile_qr_scan"}, "type": "electric_scooter", "name": "38d6a4560723206841b064bc23ed60cb", "is_reserved": 0, "lon": -77.02228616666666, "is_disabled": 0, "fusion_lat": 0.0, "lat": 38.879106166666666, "bike_id": "38d6a4560723206841b064bc23ed60cb", "fusion_lon": 0.0}, {"rental_uris": {"ios": "https://dc.lft.to/lastmile_qr_scan", "android": "https://dc.lft.to/lastmile_qr_scan"}, "type": "electric_scooter", "name": "7335016f4dc2648199aa75bc9912a33a", "is_reserved": 0, "lon": -76.995229, "is_disabled": 0, "fusion_lat": 0.0, "lat": 38.92061566666667, "bike_id": "7335016f4dc2648199aa75bc9912a33a", "fusion_lon": 0.0}, {"rental_uris": {"ios": "https://dc.lft.to/lastmile_qr_scan", "android": "https://dc.lft.to/lastmile_qr_scan"}, "type": "electric_bike", "name": "08479007696654a92d10b437d3d59b22", "is_reserved": 0, "lon": -77.09628283333333, "is_disabled": 0, "fusion_lat": 0.0, "lat": 38.952478, "bike_id": "08479007696654a92d10b437d3d59b22", "fusion_lon": 0.0}, {"rental_uris": {"ios": "https://dc.lft.to/lastmile_qr_scan", "android": "https://dc.lft.to/lastmile_qr_scan"}, "type": "electric_scooter", "name": "5c4500235cf2ba4c70a25cf7c7430f1d", "is_reserved": 0, "lon": -77.024271, "is_disabled": 0, "fusion_lat": 0.0, "lat": 38.92317416666667, "bike_id": "5c4500235cf2ba4c70a25cf7c7430f1d", "fusion_lon": 0.0}, {"rental_uris": {"ios": "https://dc.lft.to/lastmile_qr_scan", "android": "https://dc.lft.to/lastmile_qr_scan"}, "type": "electric_bike", "name": "b4312ab67441f0c856fb83e36e457052", "is_reserved": 0, "lon": -77.084537, "is_disabled": 0, "fusion_lat": 0.0, "lat": 38.8918135, "bike_id": "b4312ab67441f0c856fb83e36e457052", "fusion_lon": 0.0}, {"rental_uris": {"ios": "https://dc.lft.to/lastmile_qr_scan", "android": "https://dc.lft.to/lastmile_qr_scan"}, "type": "electric_scooter", "name": "cdd8514678e1d4f8eadff4173890e07e", "is_reserved": 0, "lon": -77.03147033333333, "is_disabled": 0, "fusion_lat": 0.0, "lat": 38.91268933333333, "bike_id": "cdd8514678e1d4f8eadff4173890e07e", "fusion_lon": 0.0}, {"rental_uris": {"ios": "https://dc.lft.to/lastmile_qr_scan", "android": "https://dc.lft.to/lastmile_qr_scan"}, "type": "electric_scooter", "name": "5748f0e436b37966ee596936e70877fc", "is_reserved": 0, "lon": -77.01797116666667, "is_disabled": 0, "fusion_lat": 0.0, "lat": 38.9213905, "bike_id": "5748f0e436b37966ee596936e70877fc", "fusion_lon": 0.0}, {"rental_uris": {"ios": "https://dc.lft.to/lastmile_qr_scan", "android": "https://dc.lft.to/lastmile_qr_scan"}, "type": "electric_scooter", "name": "d2172525c1bec2a74e804a7a3e2e41c9", "is_reserved": 0, "lon": -77.0005915, "is_disabled": 0, "fusion_lat": 0.0, "lat": 38.87379983333334, "bike_id": "d2172525c1bec2a74e804a7a3e2e41c9", "fusion_lon": 0.0}, {"rental_uris": {"ios": "https://dc.lft.to/lastmile_qr_scan", "android": "https://dc.lft.to/lastmile_qr_scan"}, "type": "electric_scooter", "name": "b2204c7915680eb3280cc2a630dac029", "is_reserved": 0, "lon": -77.02411316666667, "is_disabled": 0, "fusion_lat": 0.0, "lat": 38.9381615, "bike_id": "b2204c7915680eb3280cc2a630dac029", "fusion_lon": 0.0}, {"rental_uris": {"ios": "https://dc.lft.to/lastmile_qr_scan", "android": "https://dc.lft.to/lastmile_qr_scan"}, "type": "electric_scooter", "name": "4a016df1178abd0614f4df24e799f848", "is_reserved": 0, "lon": -77.00574816666666, "is_disabled": 0, "fusion_lat": 0.0, "lat": 38.90243616666667, "bike_id": "4a016df1178abd0614f4df24e799f848", "fusion_lon": 0.0}, {"rental_uris": {"ios": "https://dc.lft.to/lastmile_qr_scan", "android": "https://dc.lft.to/lastmile_qr_scan"}, "type": "electric_scooter", "name": "2cb424b47a9c8ebbcbf25f4a486e0a99", "is_reserved": 0, "lon": -76.98357616666667, "is_disabled": 0, "fusion_lat": 0.0, "lat": 38.88738566666667, "bike_id": "2cb424b47a9c8ebbcbf25f4a486e0a99", "fusion_lon": 0.0}, {"rental_uris": {"ios": "https://dc.lft.to/lastmile_qr_scan", "android": "https://dc.lft.to/lastmile_qr_scan"}, "type": "electric_scooter", "name": "cef0675aff1e351220dfd0fe32448455", "is_reserved": 0, "lon": -76.998722, "is_disabled": 0, "fusion_lat": 0.0, "lat": 38.90033, "bike_id": "cef0675aff1e351220dfd0fe32448455", "fusion_lon": 0.0}, {"rental_uris": {"ios": "https://dc.lft.to/lastmile_qr_scan", "android": "https://dc.lft.to/lastmile_qr_scan"}, "type": "electric_scooter", "name": "150d56a3992cf1ff3739c450b48a5b72", "is_reserved": 0, "lon": -77.02570933333334, "is_disabled": 0, "fusion_lat": 0.0, "lat": 38.880883, "bike_id": "150d56a3992cf1ff3739c450b48a5b72", "fusion_lon": 0.0}, {"rental_uris": {"ios": "https://dc.lft.to/lastmile_qr_scan", "android": "https://dc.lft.to/lastmile_qr_scan"}, "type": "electric_scooter", "name": "0f597b47d148ede98307adb4922cf069", "is_reserved": 0, "lon": -77.02971816666667, "is_disabled": 0, "fusion_lat": 0.0, "lat": 38.91686583333333, "bike_id": "0f597b47d148ede98307adb4922cf069", "fusion_lon": 0.0}, {"rental_uris": {"ios": "https://dc.lft.to/lastmile_qr_scan", "android": "https://dc.lft.to/lastmile_qr_scan"}, "type": "electric_scooter", "name": "d6abcd7583cdb32615737109f014afca", "is_reserved": 0, "lon": -77.01866533333333, "is_disabled": 0, "fusion_lat": 0.0, "lat": 38.951531, "bike_id": "d6abcd7583cdb32615737109f014afca", "fusion_lon": 0.0}, {"rental_uris": {"ios": "https://dc.lft.to/lastmile_qr_scan", "android": "https://dc.lft.to/lastmile_qr_scan"}, "type": "electric_scooter", "name": "b37d2ba9626f728fcefcdbc89e4bb43a", "is_reserved": 0, "lon": -77.04343666666666, "is_disabled": 0, "fusion_lat": 0.0, "lat": 38.92187116666667, "bike_id": "b37d2ba9626f728fcefcdbc89e4bb43a", "fusion_lon": 0.0}, {"rental_uris": {"ios": "https://dc.lft.to/lastmile_qr_scan", "android": "https://dc.lft.to/lastmile_qr_scan"}, "type": "electric_scooter", "name": "019bf2199fac865c3fd560a2a8dc8871", "is_reserved": 0, "lon": -77.062753, "is_disabled": 0, "fusion_lat": 0.0, "lat": 38.9050885, "bike_id": "019bf2199fac865c3fd560a2a8dc8871", "fusion_lon": 0.0}, {"rental_uris": {"ios": "https://dc.lft.to/lastmile_qr_scan", "android": "https://dc.lft.to/lastmile_qr_scan"}, "type": "electric_bike", "name": "07c7f7c4d7f22dc587e8de3510606db4", "is_reserved": 0, "lon": -77.07653666666667, "is_disabled": 0, "fusion_lat": 0.0, "lat": 38.888541833333335, "bike_id": "07c7f7c4d7f22dc587e8de3510606db4", "fusion_lon": 0.0}, {"rental_uris": {"ios": "https://dc.lft.to/lastmile_qr_scan", "android": "https://dc.lft.to/lastmile_qr_scan"}, "type": "electric_scooter", "name": "583f3434400450e606c6ba1e3315f315", "is_reserved": 0, "lon": -76.983167, "is_disabled": 0, "fusion_lat": 0.0, "lat": 38.9258855, "bike_id": "583f3434400450e606c6ba1e3315f315", "fusion_lon": 0.0}, {"rental_uris": {"ios": "https://dc.lft.to/lastmile_qr_scan", "android": "https://dc.lft.to/lastmile_qr_scan"}, "type": "electric_scooter", "name": "63ab3d8117e031ca7098e272195a8c81", "is_reserved": 0, "lon": -77.031048, "is_disabled": 0, "fusion_lat": 0.0, "lat": 38.9466775, "bike_id": "63ab3d8117e031ca7098e272195a8c81", "fusion_lon": 0.0}, {"rental_uris": {"ios": "https://dc.lft.to/lastmile_qr_scan", "android": "https://dc.lft.to/lastmile_qr_scan"}, "type": "electric_scooter", "name": "65e61742fc6aaaaf95b4fe889d0a0b6a", "is_reserved": 0, "lon": -77.04505683333333, "is_disabled": 0, "fusion_lat": 0.0, "lat": 38.91612333333333, "bike_id": "65e61742fc6aaaaf95b4fe889d0a0b6a", "fusion_lon": 0.0}, {"rental_uris": {"ios": "https://dc.lft.to/lastmile_qr_scan", "android": "https://dc.lft.to/lastmile_qr_scan"}, "type": "electric_scooter", "name": "9a50a147b149d7d363d961d94de47792", "is_reserved": 0, "lon": -77.06370733333333, "is_disabled": 0, "fusion_lat": 0.0, "lat": 38.93562566666667, "bike_id": "9a50a147b149d7d363d961d94de47792", "fusion_lon": 0.0}, {"rental_uris": {"ios": "https://dc.lft.to/lastmile_qr_scan", "android": "https://dc.lft.to/lastmile_qr_scan"}, "type": "electric_scooter", "name": "3f19fbab07ff28db7ecb3a55f6003652", "is_reserved": 0, "lon": -76.9282955, "is_disabled": 0, "fusion_lat": 0.0, "lat": 38.901801166666665, "bike_id": "3f19fbab07ff28db7ecb3a55f6003652", "fusion_lon": 0.0}, {"rental_uris": {"ios": "https://dc.lft.to/lastmile_qr_scan", "android": "https://dc.lft.to/lastmile_qr_scan"}, "type": "electric_scooter", "name": "e5d45cd3257a4c721031be2d8ff47576", "is_reserved": 0, "lon": -77.03588933333333, "is_disabled": 0, "fusion_lat": 0.0, "lat": 38.927937, "bike_id": "e5d45cd3257a4c721031be2d8ff47576", "fusion_lon": 0.0}, {"rental_uris": {"ios": "https://dc.lft.to/lastmile_qr_scan", "android": "https://dc.lft.to/lastmile_qr_scan"}, "type": "electric_scooter", "name": "e5fef1c1af2354a1276c866357d14d4c", "is_reserved": 0, "lon": -77.04343433333334, "is_disabled": 0, "fusion_lat": 0.0, "lat": 38.907951833333335, "bike_id": "e5fef1c1af2354a1276c866357d14d4c", "fusion_lon": 0.0}, {"rental_uris": {"ios": "https://dc.lft.to/lastmile_qr_scan", "android": "https://dc.lft.to/lastmile_qr_scan"}, "type": "electric_scooter", "name": "8f7b3d1063e39e0bdd5f93b69c7eee73", "is_reserved": 0, "lon": -77.03368, "is_disabled": 0, "fusion_lat": 0.0, "lat": 38.9009895, "bike_id": "8f7b3d1063e39e0bdd5f93b69c7eee73", "fusion_lon": 0.0}, {"rental_uris": {"ios": "https://dc.lft.to/lastmile_qr_scan", "android": "https://dc.lft.to/lastmile_qr_scan"}, "type": "electric_scooter", "name": "63ac4d857558c1120df86d6e5910997f", "is_reserved": 0, "lon": -77.03571816666667, "is_disabled": 0, "fusion_lat": 0.0, "lat": 38.90405716666667, "bike_id": "63ac4d857558c1120df86d6e5910997f", "fusion_lon": 0.0}, {"rental_uris": {"ios": "https://dc.lft.to/lastmile_qr_scan", "android": "https://dc.lft.to/lastmile_qr_scan"}, "type": "electric_scooter", "name": "0d7b3b68129db280e69f0a6b943935df", "is_reserved": 0, "lon": -76.94709033333334, "is_disabled": 0, "fusion_lat": 0.0, "lat": 38.892993, "bike_id": "0d7b3b68129db280e69f0a6b943935df", "fusion_lon": 0.0}, {"rental_uris": {"ios": "https://dc.lft.to/lastmile_qr_scan", "android": "https://dc.lft.to/lastmile_qr_scan"}, "type": "electric_bike", "name": "e90c44d203f51b57bfc52cc115195457", "is_reserved": 0, "lon": -76.95254, "is_disabled": 0, "fusion_lat": 0.0, "lat": 38.90695633333333, "bike_id": "e90c44d203f51b57bfc52cc115195457", "fusion_lon": 0.0}, {"rental_uris": {"ios": "https://dc.lft.to/lastmile_qr_scan", "android": "https://dc.lft.to/lastmile_qr_scan"}, "type": "electric_scooter", "name": "456c3d1bb76587bb651dd1198b62b4dc", "is_reserved": 0, "lon": -77.04456266666666, "is_disabled": 0, "fusion_lat": 0.0, "lat": 38.905365, "bike_id": "456c3d1bb76587bb651dd1198b62b4dc", "fusion_lon": 0.0}, {"rental_uris": {"ios": "https://dc.lft.to/lastmile_qr_scan", "android": "https://dc.lft.to/lastmile_qr_scan"}, "type": "electric_scooter", "name": "d67107d190d0f1e25382732fb6c81636", "is_reserved": 0, "lon": -77.02819166666667, "is_disabled": 0, "fusion_lat": 0.0, "lat": 38.916601666666665, "bike_id": "d67107d190d0f1e25382732fb6c81636", "fusion_lon": 0.0}, {"rental_uris": {"ios": "https://dc.lft.to/lastmile_qr_scan", "android": "https://dc.lft.to/lastmile_qr_scan"}, "type": "electric_bike", "name": "06c5718e0b51a8c89e29293b7fe6e023", "is_reserved": 0, "lon": -77.12647783333334, "is_disabled": 0, "fusion_lat": 0.0, "lat": 38.81904333333333, "bike_id": "06c5718e0b51a8c89e29293b7fe6e023", "fusion_lon": 0.0}, {"rental_uris": {"ios": "https://dc.lft.to/lastmile_qr_scan", "android": "https://dc.lft.to/lastmile_qr_scan"}, "type": "electric_scooter", "name": "ba1640743fdabe6c219ae31a8c4e6cb4", "is_reserved": 0, "lon": -77.06397633333333, "is_disabled": 0, "fusion_lat": 0.0, "lat": 38.908638333333336, "bike_id": "ba1640743fdabe6c219ae31a8c4e6cb4", "fusion_lon": 0.0}, {"rental_uris": {"ios": "https://dc.lft.to/lastmile_qr_scan", "android": "https://dc.lft.to/lastmile_qr_scan"}, "type": "electric_scooter", "name": "63037a93d8978d1fa20452084bf5f920", "is_reserved": 0, "lon": -77.0123765, "is_disabled": 0, "fusion_lat": 0.0, "lat": 38.911116, "bike_id": "63037a93d8978d1fa20452084bf5f920", "fusion_lon": 0.0}, {"rental_uris": {"ios": "https://dc.lft.to/lastmile_qr_scan", "android": "https://dc.lft.to/lastmile_qr_scan"}, "type": "electric_scooter", "name": "2610cdd12ca892ad72c0bc3436cd5407", "is_reserved": 0, "lon": -77.04964933333333, "is_disabled": 0, "fusion_lat": 0.0, "lat": 38.90541016666667, "bike_id": "2610cdd12ca892ad72c0bc3436cd5407", "fusion_lon": 0.0}, {"rental_uris": {"ios": "https://dc.lft.to/lastmile_qr_scan", "android": "https://dc.lft.to/lastmile_qr_scan"}, "type": "electric_scooter", "name": "8474f851285f73debe5abb036da2d9b1", "is_reserved": 0, "lon": -77.03498066666667, "is_disabled": 0, "fusion_lat": 0.0, "lat": 38.909708, "bike_id": "8474f851285f73debe5abb036da2d9b1", "fusion_lon": 0.0}, {"rental_uris": {"ios": "https://dc.lft.to/lastmile_qr_scan", "android": "https://dc.lft.to/lastmile_qr_scan"}, "type": "electric_bike", "name": "d526fdf4de299130dc41a2afde54d947", "is_reserved": 0, "lon": -77.01231116666666, "is_disabled": 0, "fusion_lat": 0.0, "lat": 38.95083866666667, "bike_id": "d526fdf4de299130dc41a2afde54d947", "fusion_lon": 0.0}, {"rental_uris": {"ios": "https://dc.lft.to/lastmile_qr_scan", "android": "https://dc.lft.to/lastmile_qr_scan"}, "type": "electric_scooter", "name": "a4af5fc2bce6c4a0678eef448e4b6ccf", "is_reserved": 0, "lon": -77.02877516666666, "is_disabled": 0, "fusion_lat": 0.0, "lat": 38.926716, "bike_id": "a4af5fc2bce6c4a0678eef448e4b6ccf", "fusion_lon": 0.0}, {"rental_uris": {"ios": "https://dc.lft.to/lastmile_qr_scan", "android": "https://dc.lft.to/lastmile_qr_scan"}, "type": "electric_scooter", "name": "306fe0ef4df7557b834695f6c27c2308", "is_reserved": 0, "lon": -77.039622, "is_disabled": 0, "fusion_lat": 0.0, "lat": 38.8986055, "bike_id": "306fe0ef4df7557b834695f6c27c2308", "fusion_lon": 0.0}, {"rental_uris": {"ios": "https://dc.lft.to/lastmile_qr_scan", "android": "https://dc.lft.to/lastmile_qr_scan"}, "type": "electric_scooter", "name": "94592d695c5f523843221f5e5648934e", "is_reserved": 0, "lon": -77.0581345, "is_disabled": 0, "fusion_lat": 0.0, "lat": 38.905573, "bike_id": "94592d695c5f523843221f5e5648934e", "fusion_lon": 0.0}, {"rental_uris": {"ios": "https://dc.lft.to/lastmile_qr_scan", "android": "https://dc.lft.to/lastmile_qr_scan"}, "type": "electric_scooter", "name": "aba9e44ebdf3d0270bc549ed21fe4add", "is_reserved": 0, "lon": -76.93434316666666, "is_disabled": 0, "fusion_lat": 0.0, "lat": 38.893503833333334, "bike_id": "aba9e44ebdf3d0270bc549ed21fe4add", "fusion_lon": 0.0}, {"rental_uris": {"ios": "https://dc.lft.to/lastmile_qr_scan", "android": "https://dc.lft.to/lastmile_qr_scan"}, "type": "electric_scooter", "name": "4bed900591b1d8c1ae7da8766ea18356", "is_reserved": 0, "lon": -77.0414505, "is_disabled": 0, "fusion_lat": 0.0, "lat": 38.90737166666667, "bike_id": "4bed900591b1d8c1ae7da8766ea18356", "fusion_lon": 0.0}, {"rental_uris": {"ios": "https://dc.lft.to/lastmile_qr_scan", "android": "https://dc.lft.to/lastmile_qr_scan"}, "type": "electric_scooter", "name": "a35d189020133fd13fe962d3e209bb83", "is_reserved": 0, "lon": -77.02599683333334, "is_disabled": 0, "fusion_lat": 0.0, "lat": 38.90059733333333, "bike_id": "a35d189020133fd13fe962d3e209bb83", "fusion_lon": 0.0}, {"rental_uris": {"ios": "https://dc.lft.to/lastmile_qr_scan", "android": "https://dc.lft.to/lastmile_qr_scan"}, "type": "electric_scooter", "name": "94d49bb072a77b22ded50de47f395a0c", "is_reserved": 0, "lon": -77.023595, "is_disabled": 0, "fusion_lat": 0.0, "lat": 38.92052116666667, "bike_id": "94d49bb072a77b22ded50de47f395a0c", "fusion_lon": 0.0}, {"rental_uris": {"ios": "https://dc.lft.to/lastmile_qr_scan", "android": "https://dc.lft.to/lastmile_qr_scan"}, "type": "electric_bike", "name": "e76d95220f7c5ab02dfa84188542293c", "is_reserved": 0, "lon": -76.996803, "is_disabled": 0, "fusion_lat": 0.0, "lat": 38.838153, "bike_id": "e76d95220f7c5ab02dfa84188542293c", "fusion_lon": 0.0}, {"rental_uris": {"ios": "https://dc.lft.to/lastmile_qr_scan", "android": "https://dc.lft.to/lastmile_qr_scan"}, "type": "electric_scooter", "name": "77c8aea542106503375628845185a259", "is_reserved": 0, "lon": -77.0243345, "is_disabled": 0, "fusion_lat": 0.0, "lat": 38.907200333333336, "bike_id": "77c8aea542106503375628845185a259", "fusion_lon": 0.0}, {"rental_uris": {"ios": "https://dc.lft.to/lastmile_qr_scan", "android": "https://dc.lft.to/lastmile_qr_scan"}, "type": "electric_scooter", "name": "a6bcddfd678bd04053968fd2bc9d0436", "is_reserved": 0, "lon": -77.02971533333333, "is_disabled": 0, "fusion_lat": 0.0, "lat": 38.916852, "bike_id": "a6bcddfd678bd04053968fd2bc9d0436", "fusion_lon": 0.0}, {"rental_uris": {"ios": "https://dc.lft.to/lastmile_qr_scan", "android": "https://dc.lft.to/lastmile_qr_scan"}, "type": "electric_scooter", "name": "f27654610d31b3f00034808c9ea825c4", "is_reserved": 0, "lon": -77.07848533333333, "is_disabled": 0, "fusion_lat": 0.0, "lat": 38.931362666666665, "bike_id": "f27654610d31b3f00034808c9ea825c4", "fusion_lon": 0.0}, {"rental_uris": {"ios": "https://dc.lft.to/lastmile_qr_scan", "android": "https://dc.lft.to/lastmile_qr_scan"}, "type": "electric_bike", "name": "2e6b58efd7c083c0516b51b665e8dfc7", "is_reserved": 0, "lon": -77.08140233333333, "is_disabled": 0, "fusion_lat": 0.0, "lat": 38.822996, "bike_id": "2e6b58efd7c083c0516b51b665e8dfc7", "fusion_lon": 0.0}, {"rental_uris": {"ios": "https://dc.lft.to/lastmile_qr_scan", "android": "https://dc.lft.to/lastmile_qr_scan"}, "type": "electric_scooter", "name": "ade895698a12ab1f02b9dfa9abf39a79", "is_reserved": 0, "lon": -77.031996, "is_disabled": 0, "fusion_lat": 0.0, "lat": 38.91321516666667, "bike_id": "ade895698a12ab1f02b9dfa9abf39a79", "fusion_lon": 0.0}, {"rental_uris": {"ios": "https://dc.lft.to/lastmile_qr_scan", "android": "https://dc.lft.to/lastmile_qr_scan"}, "type": "electric_bike", "name": "ffaab5cb8e845fb09933d9454d7da002", "is_reserved": 0, "lon": -76.96325933333334, "is_disabled": 0, "fusion_lat": 0.0, "lat": 38.93894366666667, "bike_id": "ffaab5cb8e845fb09933d9454d7da002", "fusion_lon": 0.0}, {"rental_uris": {"ios": "https://dc.lft.to/lastmile_qr_scan", "android": "https://dc.lft.to/lastmile_qr_scan"}, "type": "electric_scooter", "name": "1fe11ac2d45f7e61acaeec57c9ef15b3", "is_reserved": 0, "lon": -77.04186566666667, "is_disabled": 0, "fusion_lat": 0.0, "lat": 38.916748166666665, "bike_id": "1fe11ac2d45f7e61acaeec57c9ef15b3", "fusion_lon": 0.0}, {"rental_uris": {"ios": "https://dc.lft.to/lastmile_qr_scan", "android": "https://dc.lft.to/lastmile_qr_scan"}, "type": "electric_scooter", "name": "e1a53f47dadfe06ed5ec46328b9618f1", "is_reserved": 0, "lon": -77.0428005, "is_disabled": 0, "fusion_lat": 0.0, "lat": 38.92270033333333, "bike_id": "e1a53f47dadfe06ed5ec46328b9618f1", "fusion_lon": 0.0}, {"rental_uris": {"ios": "https://dc.lft.to/lastmile_qr_scan", "android": "https://dc.lft.to/lastmile_qr_scan"}, "type": "electric_scooter", "name": "f017001e72714e24b98d87c8413a50f7", "is_reserved": 0, "lon": -77.03151483333333, "is_disabled": 0, "fusion_lat": 0.0, "lat": 38.91415083333333, "bike_id": "f017001e72714e24b98d87c8413a50f7", "fusion_lon": 0.0}, {"rental_uris": {"ios": "https://dc.lft.to/lastmile_qr_scan", "android": "https://dc.lft.to/lastmile_qr_scan"}, "type": "electric_scooter", "name": "57c83d3451289e652d2e680673c71a5c", "is_reserved": 0, "lon": -77.03850016666667, "is_disabled": 0, "fusion_lat": 0.0, "lat": 38.9084105, "bike_id": "57c83d3451289e652d2e680673c71a5c", "fusion_lon": 0.0}, {"rental_uris": {"ios": "https://dc.lft.to/lastmile_qr_scan", "android": "https://dc.lft.to/lastmile_qr_scan"}, "type": "electric_scooter", "name": "e625d873c7f8386158729a42c9752156", "is_reserved": 0, "lon": -77.02962483333333, "is_disabled": 0, "fusion_lat": 0.0, "lat": 38.928467833333336, "bike_id": "e625d873c7f8386158729a42c9752156", "fusion_lon": 0.0}, {"rental_uris": {"ios": "https://dc.lft.to/lastmile_qr_scan", "android": "https://dc.lft.to/lastmile_qr_scan"}, "type": "electric_bike", "name": "7f73494e90be4e717b4885b7ec156a1f", "is_reserved": 0, "lon": -76.963082, "is_disabled": 0, "fusion_lat": 0.0, "lat": 38.89700916666666, "bike_id": "7f73494e90be4e717b4885b7ec156a1f", "fusion_lon": 0.0}, {"rental_uris": {"ios": "https://dc.lft.to/lastmile_qr_scan", "android": "https://dc.lft.to/lastmile_qr_scan"}, "type": "electric_scooter", "name": "c935fd2f7f07d7a46f7ebf67f8dd1ba8", "is_reserved": 0, "lon": -76.98495633333333, "is_disabled": 0, "fusion_lat": 0.0, "lat": 38.92007566666667, "bike_id": "c935fd2f7f07d7a46f7ebf67f8dd1ba8", "fusion_lon": 0.0}, {"rental_uris": {"ios": "https://dc.lft.to/lastmile_qr_scan", "android": "https://dc.lft.to/lastmile_qr_scan"}, "type": "electric_scooter", "name": "4849aac33ddfef70d42aeedfdfbbcbf1", "is_reserved": 0, "lon": -77.020547, "is_disabled": 0, "fusion_lat": 0.0, "lat": 38.923989, "bike_id": "4849aac33ddfef70d42aeedfdfbbcbf1", "fusion_lon": 0.0}, {"rental_uris": {"ios": "https://dc.lft.to/lastmile_qr_scan", "android": "https://dc.lft.to/lastmile_qr_scan"}, "type": "electric_scooter", "name": "5d8ddba3021a39305951ae2a60642ac7", "is_reserved": 0, "lon": -77.04353533333334, "is_disabled": 0, "fusion_lat": 0.0, "lat": 38.921427333333334, "bike_id": "5d8ddba3021a39305951ae2a60642ac7", "fusion_lon": 0.0}, {"rental_uris": {"ios": "https://dc.lft.to/lastmile_qr_scan", "android": "https://dc.lft.to/lastmile_qr_scan"}, "type": "electric_scooter", "name": "39cb81fec448ce0ce4c9f140cb5484b3", "is_reserved": 0, "lon": -77.0158695, "is_disabled": 0, "fusion_lat": 0.0, "lat": 38.8722065, "bike_id": "39cb81fec448ce0ce4c9f140cb5484b3", "fusion_lon": 0.0}, {"rental_uris": {"ios": "https://dc.lft.to/lastmile_qr_scan", "android": "https://dc.lft.to/lastmile_qr_scan"}, "type": "electric_scooter", "name": "36484e7f9a37f7f5066ec959c291041b", "is_reserved": 0, "lon": -76.92943583333333, "is_disabled": 0, "fusion_lat": 0.0, "lat": 38.903424, "bike_id": "36484e7f9a37f7f5066ec959c291041b", "fusion_lon": 0.0}, {"rental_uris": {"ios": "https://dc.lft.to/lastmile_qr_scan", "android": "https://dc.lft.to/lastmile_qr_scan"}, "type": "electric_scooter", "name": "3eca934774605954475af3ff9f090b10", "is_reserved": 0, "lon": -77.029699, "is_disabled": 0, "fusion_lat": 0.0, "lat": 38.907318, "bike_id": "3eca934774605954475af3ff9f090b10", "fusion_lon": 0.0}, {"rental_uris": {"ios": "https://dc.lft.to/lastmile_qr_scan", "android": "https://dc.lft.to/lastmile_qr_scan"}, "type": "electric_scooter", "name": "327a5b5278d09117396f87bf5e8d57b7", "is_reserved": 0, "lon": -77.02580366666666, "is_disabled": 0, "fusion_lat": 0.0, "lat": 38.880913166666666, "bike_id": "327a5b5278d09117396f87bf5e8d57b7", "fusion_lon": 0.0}, {"rental_uris": {"ios": "https://dc.lft.to/lastmile_qr_scan", "android": "https://dc.lft.to/lastmile_qr_scan"}, "type": "electric_scooter", "name": "c2f6c74006649b8761546a8df96d1ff4", "is_reserved": 0, "lon": -77.0020615, "is_disabled": 0, "fusion_lat": 0.0, "lat": 38.9015595, "bike_id": "c2f6c74006649b8761546a8df96d1ff4", "fusion_lon": 0.0}, {"rental_uris": {"ios": "https://dc.lft.to/lastmile_qr_scan", "android": "https://dc.lft.to/lastmile_qr_scan"}, "type": "electric_scooter", "name": "586a940628282f6607a9ba2fde70e6e2", "is_reserved": 0, "lon": -77.02872, "is_disabled": 0, "fusion_lat": 0.0, "lat": 38.91268916666667, "bike_id": "586a940628282f6607a9ba2fde70e6e2", "fusion_lon": 0.0}, {"rental_uris": {"ios": "https://dc.lft.to/lastmile_qr_scan", "android": "https://dc.lft.to/lastmile_qr_scan"}, "type": "electric_scooter", "name": "42e87e20a8d69636a2e05ff2e4a8b22d", "is_reserved": 0, "lon": -77.01101733333333, "is_disabled": 0, "fusion_lat": 0.0, "lat": 38.88540733333333, "bike_id": "42e87e20a8d69636a2e05ff2e4a8b22d", "fusion_lon": 0.0}, {"rental_uris": {"ios": "https://dc.lft.to/lastmile_qr_scan", "android": "https://dc.lft.to/lastmile_qr_scan"}, "type": "electric_scooter", "name": "5438cbfc6449baea3de2af4659b82c28", "is_reserved": 0, "lon": -77.0268615, "is_disabled": 0, "fusion_lat": 0.0, "lat": 38.899764166666664, "bike_id": "5438cbfc6449baea3de2af4659b82c28", "fusion_lon": 0.0}, {"rental_uris": {"ios": "https://dc.lft.to/lastmile_qr_scan", "android": "https://dc.lft.to/lastmile_qr_scan"}, "type": "electric_scooter", "name": "7014519e9aeb4ea68d65e88e34dc20e0", "is_reserved": 0, "lon": -77.05216966666667, "is_disabled": 0, "fusion_lat": 0.0, "lat": 38.92495533333334, "bike_id": "7014519e9aeb4ea68d65e88e34dc20e0", "fusion_lon": 0.0}, {"rental_uris": {"ios": "https://dc.lft.to/lastmile_qr_scan", "android": "https://dc.lft.to/lastmile_qr_scan"}, "type": "electric_scooter", "name": "418527da8113a86b88ea81466c32243f", "is_reserved": 0, "lon": -77.0405925, "is_disabled": 0, "fusion_lat": 0.0, "lat": 38.917673666666666, "bike_id": "418527da8113a86b88ea81466c32243f", "fusion_lon": 0.0}, {"rental_uris": {"ios": "https://dc.lft.to/lastmile_qr_scan", "android": "https://dc.lft.to/lastmile_qr_scan"}, "type": "electric_scooter", "name": "d3c4f6422a675589f8dfdec7c9875f0a", "is_reserved": 0, "lon": -77.0122735, "is_disabled": 0, "fusion_lat": 0.0, "lat": 38.920378666666664, "bike_id": "d3c4f6422a675589f8dfdec7c9875f0a", "fusion_lon": 0.0}, {"rental_uris": {"ios": "https://dc.lft.to/lastmile_qr_scan", "android": "https://dc.lft.to/lastmile_qr_scan"}, "type": "electric_bike", "name": "d3c418f9ad495b170b6b1a6b9a7e381e", "is_reserved": 0, "lon": -76.96097616666667, "is_disabled": 0, "fusion_lat": 0.0, "lat": 38.949636166666664, "bike_id": "d3c418f9ad495b170b6b1a6b9a7e381e", "fusion_lon": 0.0}, {"rental_uris": {"ios": "https://dc.lft.to/lastmile_qr_scan", "android": "https://dc.lft.to/lastmile_qr_scan"}, "type": "electric_scooter", "name": "6dc2bf9131f7c7b1d0b48b05d44190e2", "is_reserved": 0, "lon": -77.04648416666667, "is_disabled": 0, "fusion_lat": 0.0, "lat": 38.90067833333333, "bike_id": "6dc2bf9131f7c7b1d0b48b05d44190e2", "fusion_lon": 0.0}, {"rental_uris": {"ios": "https://dc.lft.to/lastmile_qr_scan", "android": "https://dc.lft.to/lastmile_qr_scan"}, "type": "electric_scooter", "name": "bbf41708ce32d28e8400c839afbe1293", "is_reserved": 0, "lon": -77.05970016666667, "is_disabled": 0, "fusion_lat": 0.0, "lat": 38.90525016666667, "bike_id": "bbf41708ce32d28e8400c839afbe1293", "fusion_lon": 0.0}, {"rental_uris": {"ios": "https://dc.lft.to/lastmile_qr_scan", "android": "https://dc.lft.to/lastmile_qr_scan"}, "type": "electric_scooter", "name": "4be9f8fa0482f24fc3684b506afda246", "is_reserved": 0, "lon": -77.03985566666667, "is_disabled": 0, "fusion_lat": 0.0, "lat": 38.90981216666667, "bike_id": "4be9f8fa0482f24fc3684b506afda246", "fusion_lon": 0.0}, {"rental_uris": {"ios": "https://dc.lft.to/lastmile_qr_scan", "android": "https://dc.lft.to/lastmile_qr_scan"}, "type": "electric_scooter", "name": "b0344271ae7cda924ddd6fe0827eedb4", "is_reserved": 0, "lon": -77.012234, "is_disabled": 0, "fusion_lat": 0.0, "lat": 38.86722233333333, "bike_id": "b0344271ae7cda924ddd6fe0827eedb4", "fusion_lon": 0.0}, {"rental_uris": {"ios": "https://dc.lft.to/lastmile_qr_scan", "android": "https://dc.lft.to/lastmile_qr_scan"}, "type": "electric_scooter", "name": "47969483bf7f40fbfb8b3ae56c39bcca", "is_reserved": 0, "lon": -77.041689, "is_disabled": 0, "fusion_lat": 0.0, "lat": 38.911241, "bike_id": "47969483bf7f40fbfb8b3ae56c39bcca", "fusion_lon": 0.0}, {"rental_uris": {"ios": "https://dc.lft.to/lastmile_qr_scan", "android": "https://dc.lft.to/lastmile_qr_scan"}, "type": "electric_scooter", "name": "708a5da0a1931040b422638d0135b8a4", "is_reserved": 0, "lon": -77.03089483333333, "is_disabled": 0, "fusion_lat": 0.0, "lat": 38.91085183333333, "bike_id": "708a5da0a1931040b422638d0135b8a4", "fusion_lon": 0.0}, {"rental_uris": {"ios": "https://dc.lft.to/lastmile_qr_scan", "android": "https://dc.lft.to/lastmile_qr_scan"}, "type": "electric_scooter", "name": "288ac638d7d8afbe9533e2b0fc64c2a5", "is_reserved": 0, "lon": -77.064264, "is_disabled": 0, "fusion_lat": 0.0, "lat": 38.909128833333334, "bike_id": "288ac638d7d8afbe9533e2b0fc64c2a5", "fusion_lon": 0.0}, {"rental_uris": {"ios": "https://dc.lft.to/lastmile_qr_scan", "android": "https://dc.lft.to/lastmile_qr_scan"}, "type": "electric_scooter", "name": "d0ba83a68248603269417e279a5295ba", "is_reserved": 0, "lon": -76.96556316666667, "is_disabled": 0, "fusion_lat": 0.0, "lat": 38.9186535, "bike_id": "d0ba83a68248603269417e279a5295ba", "fusion_lon": 0.0}, {"rental_uris": {"ios": "https://dc.lft.to/lastmile_qr_scan", "android": "https://dc.lft.to/lastmile_qr_scan"}, "type": "electric_scooter", "name": "79c8088e51475be6cf886551745f600a", "is_reserved": 0, "lon": -77.04760366666666, "is_disabled": 0, "fusion_lat": 0.0, "lat": 38.94092466666667, "bike_id": "79c8088e51475be6cf886551745f600a", "fusion_lon": 0.0}, {"rental_uris": {"ios": "https://dc.lft.to/lastmile_qr_scan", "android": "https://dc.lft.to/lastmile_qr_scan"}, "type": "electric_bike", "name": "ebb6b16364bd69370a2f3dabe86971b2", "is_reserved": 0, "lon": -76.90734033333334, "is_disabled": 0, "fusion_lat": 0.0, "lat": 38.8961715, "bike_id": "ebb6b16364bd69370a2f3dabe86971b2", "fusion_lon": 0.0}, {"rental_uris": {"ios": "https://dc.lft.to/lastmile_qr_scan", "android": "https://dc.lft.to/lastmile_qr_scan"}, "type": "electric_scooter", "name": "5a6de9d5241d6ea34a3d9d3d0dc8f50b", "is_reserved": 0, "lon": -77.05625666666667, "is_disabled": 0, "fusion_lat": 0.0, "lat": 38.90685416666667, "bike_id": "5a6de9d5241d6ea34a3d9d3d0dc8f50b", "fusion_lon": 0.0}, {"rental_uris": {"ios": "https://dc.lft.to/lastmile_qr_scan", "android": "https://dc.lft.to/lastmile_qr_scan"}, "type": "electric_scooter", "name": "14db13582438c8a79bff869cc8f32679", "is_reserved": 0, "lon": -77.0319395, "is_disabled": 0, "fusion_lat": 0.0, "lat": 38.91321116666667, "bike_id": "14db13582438c8a79bff869cc8f32679", "fusion_lon": 0.0}, {"rental_uris": {"ios": "https://dc.lft.to/lastmile_qr_scan", "android": "https://dc.lft.to/lastmile_qr_scan"}, "type": "electric_scooter", "name": "fc4aff7fcb8c028ea8ba5a405c37f52a", "is_reserved": 0, "lon": -76.99227266666666, "is_disabled": 0, "fusion_lat": 0.0, "lat": 38.887489333333335, "bike_id": "fc4aff7fcb8c028ea8ba5a405c37f52a", "fusion_lon": 0.0}, {"rental_uris": {"ios": "https://dc.lft.to/lastmile_qr_scan", "android": "https://dc.lft.to/lastmile_qr_scan"}, "type": "electric_scooter", "name": "ad065543fe36ffdde35d50cc06b3e456", "is_reserved": 0, "lon": -77.00826716666667, "is_disabled": 0, "fusion_lat": 0.0, "lat": 38.91370783333333, "bike_id": "ad065543fe36ffdde35d50cc06b3e456", "fusion_lon": 0.0}, {"rental_uris": {"ios": "https://dc.lft.to/lastmile_qr_scan", "android": "https://dc.lft.to/lastmile_qr_scan"}, "type": "electric_scooter", "name": "d1d88858853606148ea672fadf968357", "is_reserved": 0, "lon": -77.04012916666667, "is_disabled": 0, "fusion_lat": 0.0, "lat": 38.90407, "bike_id": "d1d88858853606148ea672fadf968357", "fusion_lon": 0.0}, {"rental_uris": {"ios": "https://dc.lft.to/lastmile_qr_scan", "android": "https://dc.lft.to/lastmile_qr_scan"}, "type": "electric_scooter", "name": "f9d48795541e699852647f32fb83d6b4", "is_reserved": 0, "lon": -76.987687, "is_disabled": 0, "fusion_lat": 0.0, "lat": 38.91204283333333, "bike_id": "f9d48795541e699852647f32fb83d6b4", "fusion_lon": 0.0}, {"rental_uris": {"ios": "https://dc.lft.to/lastmile_qr_scan", "android": "https://dc.lft.to/lastmile_qr_scan"}, "type": "electric_scooter", "name": "a7ea3ca6ab482b3671c119a1889df062", "is_reserved": 0, "lon": -77.02527183333333, "is_disabled": 0, "fusion_lat": 0.0, "lat": 38.918118666666665, "bike_id": "a7ea3ca6ab482b3671c119a1889df062", "fusion_lon": 0.0}, {"rental_uris": {"ios": "https://dc.lft.to/lastmile_qr_scan", "android": "https://dc.lft.to/lastmile_qr_scan"}, "type": "electric_scooter", "name": "2f1ec94acdb6152f8a7007496ef421b2", "is_reserved": 0, "lon": -77.02111716666667, "is_disabled": 0, "fusion_lat": 0.0, "lat": 38.966778166666664, "bike_id": "2f1ec94acdb6152f8a7007496ef421b2", "fusion_lon": 0.0}, {"rental_uris": {"ios": "https://dc.lft.to/lastmile_qr_scan", "android": "https://dc.lft.to/lastmile_qr_scan"}, "type": "electric_bike", "name": "555c1fb6a388314aec3447bf21a1f802", "is_reserved": 0, "lon": -77.019143, "is_disabled": 0, "fusion_lat": 0.0, "lat": 38.97661866666667, "bike_id": "555c1fb6a388314aec3447bf21a1f802", "fusion_lon": 0.0}, {"rental_uris": {"ios": "https://dc.lft.to/lastmile_qr_scan", "android": "https://dc.lft.to/lastmile_qr_scan"}, "type": "electric_scooter", "name": "1bc20c6e04556b5825569de75965bc81", "is_reserved": 0, "lon": -76.99035733333334, "is_disabled": 0, "fusion_lat": 0.0, "lat": 38.88880783333333, "bike_id": "1bc20c6e04556b5825569de75965bc81", "fusion_lon": 0.0}, {"rental_uris": {"ios": "https://dc.lft.to/lastmile_qr_scan", "android": "https://dc.lft.to/lastmile_qr_scan"}, "type": "electric_scooter", "name": "2f3b17d9d849c8fc2b78a62e0bbfca60", "is_reserved": 0, "lon": -77.02390416666667, "is_disabled": 0, "fusion_lat": 0.0, "lat": 38.905788333333334, "bike_id": "2f3b17d9d849c8fc2b78a62e0bbfca60", "fusion_lon": 0.0}, {"rental_uris": {"ios": "https://dc.lft.to/lastmile_qr_scan", "android": "https://dc.lft.to/lastmile_qr_scan"}, "type": "electric_scooter", "name": "0cd7bf4d26b0cac04962ed1477039987", "is_reserved": 0, "lon": -77.03863533333333, "is_disabled": 0, "fusion_lat": 0.0, "lat": 38.911084833333334, "bike_id": "0cd7bf4d26b0cac04962ed1477039987", "fusion_lon": 0.0}, {"rental_uris": {"ios": "https://dc.lft.to/lastmile_qr_scan", "android": "https://dc.lft.to/lastmile_qr_scan"}, "type": "electric_scooter", "name": "882ebc85c8dd33ad3b8cde2401ba21e5", "is_reserved": 0, "lon": -77.02712566666666, "is_disabled": 0, "fusion_lat": 0.0, "lat": 38.91222916666667, "bike_id": "882ebc85c8dd33ad3b8cde2401ba21e5", "fusion_lon": 0.0}, {"rental_uris": {"ios": "https://dc.lft.to/lastmile_qr_scan", "android": "https://dc.lft.to/lastmile_qr_scan"}, "type": "electric_scooter", "name": "8c584040cd47b81920b0fa0da6cbe958", "is_reserved": 0, "lon": -77.00554316666667, "is_disabled": 0, "fusion_lat": 0.0, "lat": 38.9118165, "bike_id": "8c584040cd47b81920b0fa0da6cbe958", "fusion_lon": 0.0}, {"rental_uris": {"ios": "https://dc.lft.to/lastmile_qr_scan", "android": "https://dc.lft.to/lastmile_qr_scan"}, "type": "electric_bike", "name": "bec9fd832a65b919b79ec5a915a90b09", "is_reserved": 0, "lon": -77.0207285, "is_disabled": 0, "fusion_lat": 0.0, "lat": 38.964425, "bike_id": "bec9fd832a65b919b79ec5a915a90b09", "fusion_lon": 0.0}, {"rental_uris": {"ios": "https://dc.lft.to/lastmile_qr_scan", "android": "https://dc.lft.to/lastmile_qr_scan"}, "type": "electric_bike", "name": "e0e18a77c20d8d2863630a7548944bcd", "is_reserved": 0, "lon": -77.076588, "is_disabled": 0, "fusion_lat": 0.0, "lat": 38.809779, "bike_id": "e0e18a77c20d8d2863630a7548944bcd", "fusion_lon": 0.0}, {"rental_uris": {"ios": "https://dc.lft.to/lastmile_qr_scan", "android": "https://dc.lft.to/lastmile_qr_scan"}, "type": "electric_scooter", "name": "b4b67c49660a2edaa9cdc7554598dae2", "is_reserved": 0, "lon": -77.0602735, "is_disabled": 0, "fusion_lat": 0.0, "lat": 38.938792666666664, "bike_id": "b4b67c49660a2edaa9cdc7554598dae2", "fusion_lon": 0.0}, {"rental_uris": {"ios": "https://dc.lft.to/lastmile_qr_scan", "android": "https://dc.lft.to/lastmile_qr_scan"}, "type": "electric_scooter", "name": "d3ef958de7fd0bfad650b034f661e856", "is_reserved": 0, "lon": -76.98536166666666, "is_disabled": 0, "fusion_lat": 0.0, "lat": 38.914554, "bike_id": "d3ef958de7fd0bfad650b034f661e856", "fusion_lon": 0.0}, {"rental_uris": {"ios": "https://dc.lft.to/lastmile_qr_scan", "android": "https://dc.lft.to/lastmile_qr_scan"}, "type": "electric_scooter", "name": "b1da16136ecc1468c4820c2fed4ec445", "is_reserved": 0, "lon": -76.99157033333333, "is_disabled": 0, "fusion_lat": 0.0, "lat": 38.90036, "bike_id": "b1da16136ecc1468c4820c2fed4ec445", "fusion_lon": 0.0}, {"rental_uris": {"ios": "https://dc.lft.to/lastmile_qr_scan", "android": "https://dc.lft.to/lastmile_qr_scan"}, "type": "electric_scooter", "name": "fa5ddc0e1617f7ab09c0278e3df587b7", "is_reserved": 0, "lon": -77.03623466666667, "is_disabled": 0, "fusion_lat": 0.0, "lat": 38.942913833333336, "bike_id": "fa5ddc0e1617f7ab09c0278e3df587b7", "fusion_lon": 0.0}, {"rental_uris": {"ios": "https://dc.lft.to/lastmile_qr_scan", "android": "https://dc.lft.to/lastmile_qr_scan"}, "type": "electric_scooter", "name": "9e2d5d682ea98880bf143ec92ea04562", "is_reserved": 0, "lon": -76.99955583333333, "is_disabled": 0, "fusion_lat": 0.0, "lat": 38.90848666666667, "bike_id": "9e2d5d682ea98880bf143ec92ea04562", "fusion_lon": 0.0}, {"rental_uris": {"ios": "https://dc.lft.to/lastmile_qr_scan", "android": "https://dc.lft.to/lastmile_qr_scan"}, "type": "electric_scooter", "name": "bf3849265203f349abce762293f85c81", "is_reserved": 0, "lon": -76.928915, "is_disabled": 0, "fusion_lat": 0.0, "lat": 38.87946383333333, "bike_id": "bf3849265203f349abce762293f85c81", "fusion_lon": 0.0}, {"rental_uris": {"ios": "https://dc.lft.to/lastmile_qr_scan", "android": "https://dc.lft.to/lastmile_qr_scan"}, "type": "electric_scooter", "name": "cc03a81fa71bbaf88b09ed116a070063", "is_reserved": 0, "lon": -77.0098085, "is_disabled": 0, "fusion_lat": 0.0, "lat": 38.905636333333334, "bike_id": "cc03a81fa71bbaf88b09ed116a070063", "fusion_lon": 0.0}, {"rental_uris": {"ios": "https://dc.lft.to/lastmile_qr_scan", "android": "https://dc.lft.to/lastmile_qr_scan"}, "type": "electric_scooter", "name": "19211764ac96e091457831ff61b0edca", "is_reserved": 0, "lon": -77.03264583333333, "is_disabled": 0, "fusion_lat": 0.0, "lat": 38.904581, "bike_id": "19211764ac96e091457831ff61b0edca", "fusion_lon": 0.0}, {"rental_uris": {"ios": "https://dc.lft.to/lastmile_qr_scan", "android": "https://dc.lft.to/lastmile_qr_scan"}, "type": "electric_scooter", "name": "883a01ffd38e3fc511e4e4c46f28676f", "is_reserved": 0, "lon": -77.00559966666667, "is_disabled": 0, "fusion_lat": 0.0, "lat": 38.8747075, "bike_id": "883a01ffd38e3fc511e4e4c46f28676f", "fusion_lon": 0.0}, {"rental_uris": {"ios": "https://dc.lft.to/lastmile_qr_scan", "android": "https://dc.lft.to/lastmile_qr_scan"}, "type": "electric_bike", "name": "b7a62fe47365c9742c720057c175e587", "is_reserved": 0, "lon": -77.0217305, "is_disabled": 0, "fusion_lat": 0.0, "lat": 38.89482816666667, "bike_id": "b7a62fe47365c9742c720057c175e587", "fusion_lon": 0.0}, {"rental_uris": {"ios": "https://dc.lft.to/lastmile_qr_scan", "android": "https://dc.lft.to/lastmile_qr_scan"}, "type": "electric_scooter", "name": "c46c896729cccfdb54bd31e3db7bae01", "is_reserved": 0, "lon": -77.04039683333333, "is_disabled": 0, "fusion_lat": 0.0, "lat": 38.92448066666667, "bike_id": "c46c896729cccfdb54bd31e3db7bae01", "fusion_lon": 0.0}, {"rental_uris": {"ios": "https://dc.lft.to/lastmile_qr_scan", "android": "https://dc.lft.to/lastmile_qr_scan"}, "type": "electric_scooter", "name": "a15db377ddcefb1cbee738ece752a57f", "is_reserved": 0, "lon": -76.9849095, "is_disabled": 0, "fusion_lat": 0.0, "lat": 38.903623, "bike_id": "a15db377ddcefb1cbee738ece752a57f", "fusion_lon": 0.0}, {"rental_uris": {"ios": "https://dc.lft.to/lastmile_qr_scan", "android": "https://dc.lft.to/lastmile_qr_scan"}, "type": "electric_scooter", "name": "4b48a5fa01d0780cc8dd7b96bb12e68d", "is_reserved": 0, "lon": -77.0733165, "is_disabled": 0, "fusion_lat": 0.0, "lat": 38.91365616666667, "bike_id": "4b48a5fa01d0780cc8dd7b96bb12e68d", "fusion_lon": 0.0}, {"rental_uris": {"ios": "https://dc.lft.to/lastmile_qr_scan", "android": "https://dc.lft.to/lastmile_qr_scan"}, "type": "electric_scooter", "name": "19ef3020d8d887a25409d5b660d8bb23", "is_reserved": 0, "lon": -77.0308575, "is_disabled": 0, "fusion_lat": 0.0, "lat": 38.922497166666666, "bike_id": "19ef3020d8d887a25409d5b660d8bb23", "fusion_lon": 0.0}, {"rental_uris": {"ios": "https://dc.lft.to/lastmile_qr_scan", "android": "https://dc.lft.to/lastmile_qr_scan"}, "type": "electric_scooter", "name": "bb81176364a73791857d411e0fc98e97", "is_reserved": 0, "lon": -77.0834055, "is_disabled": 0, "fusion_lat": 0.0, "lat": 38.894212333333336, "bike_id": "bb81176364a73791857d411e0fc98e97", "fusion_lon": 0.0}, {"rental_uris": {"ios": "https://dc.lft.to/lastmile_qr_scan", "android": "https://dc.lft.to/lastmile_qr_scan"}, "type": "electric_scooter", "name": "0a7cc1cb0586fbd635e6a775874cc8a1", "is_reserved": 0, "lon": -77.0406205, "is_disabled": 0, "fusion_lat": 0.0, "lat": 38.904491666666665, "bike_id": "0a7cc1cb0586fbd635e6a775874cc8a1", "fusion_lon": 0.0}, {"rental_uris": {"ios": "https://dc.lft.to/lastmile_qr_scan", "android": "https://dc.lft.to/lastmile_qr_scan"}, "type": "electric_scooter", "name": "d2a434e4dacbcc3ec317c11fd1f28aa7", "is_reserved": 0, "lon": -77.04557683333333, "is_disabled": 0, "fusion_lat": 0.0, "lat": 38.919338, "bike_id": "d2a434e4dacbcc3ec317c11fd1f28aa7", "fusion_lon": 0.0}, {"rental_uris": {"ios": "https://dc.lft.to/lastmile_qr_scan", "android": "https://dc.lft.to/lastmile_qr_scan"}, "type": "electric_scooter", "name": "68b3a0447a9c949eae860498c79f8b36", "is_reserved": 0, "lon": -76.99688133333333, "is_disabled": 0, "fusion_lat": 0.0, "lat": 38.9219265, "bike_id": "68b3a0447a9c949eae860498c79f8b36", "fusion_lon": 0.0}, {"rental_uris": {"ios": "https://dc.lft.to/lastmile_qr_scan", "android": "https://dc.lft.to/lastmile_qr_scan"}, "type": "electric_scooter", "name": "25613bb59aa87db07dd691616cc1bf1a", "is_reserved": 0, "lon": -77.0259395, "is_disabled": 0, "fusion_lat": 0.0, "lat": 38.88457316666667, "bike_id": "25613bb59aa87db07dd691616cc1bf1a", "fusion_lon": 0.0}, {"rental_uris": {"ios": "https://dc.lft.to/lastmile_qr_scan", "android": "https://dc.lft.to/lastmile_qr_scan"}, "type": "electric_scooter", "name": "3274377f51bc802263e33c6590409220", "is_reserved": 0, "lon": -77.03228, "is_disabled": 0, "fusion_lat": 0.0, "lat": 38.938736666666664, "bike_id": "3274377f51bc802263e33c6590409220", "fusion_lon": 0.0}, {"rental_uris": {"ios": "https://dc.lft.to/lastmile_qr_scan", "android": "https://dc.lft.to/lastmile_qr_scan"}, "type": "electric_bike", "name": "f63d5102f59e0bb681718cb13f7ef318", "is_reserved": 0, "lon": -77.02367616666666, "is_disabled": 0, "fusion_lat": 0.0, "lat": 38.88480933333334, "bike_id": "f63d5102f59e0bb681718cb13f7ef318", "fusion_lon": 0.0}, {"rental_uris": {"ios": "https://dc.lft.to/lastmile_qr_scan", "android": "https://dc.lft.to/lastmile_qr_scan"}, "type": "electric_scooter", "name": "eabefb11309b41acd88de1df04c7b214", "is_reserved": 0, "lon": -76.99217716666666, "is_disabled": 0, "fusion_lat": 0.0, "lat": 38.8896985, "bike_id": "eabefb11309b41acd88de1df04c7b214", "fusion_lon": 0.0}, {"rental_uris": {"ios": "https://dc.lft.to/lastmile_qr_scan", "android": "https://dc.lft.to/lastmile_qr_scan"}, "type": "electric_scooter", "name": "83a665121482ef62d61c68be423a8f8e", "is_reserved": 0, "lon": -76.9947835, "is_disabled": 0, "fusion_lat": 0.0, "lat": 38.862123, "bike_id": "83a665121482ef62d61c68be423a8f8e", "fusion_lon": 0.0}, {"rental_uris": {"ios": "https://dc.lft.to/lastmile_qr_scan", "android": "https://dc.lft.to/lastmile_qr_scan"}, "type": "electric_scooter", "name": "e97bea69d06b4ec9cbbf6f3f04d1ef2e", "is_reserved": 0, "lon": -77.06143233333333, "is_disabled": 0, "fusion_lat": 0.0, "lat": 38.91294466666667, "bike_id": "e97bea69d06b4ec9cbbf6f3f04d1ef2e", "fusion_lon": 0.0}, {"rental_uris": {"ios": "https://dc.lft.to/lastmile_qr_scan", "android": "https://dc.lft.to/lastmile_qr_scan"}, "type": "electric_scooter", "name": "1edb93ca65dddf8d246c5b01d0eb827a", "is_reserved": 0, "lon": -77.03064416666666, "is_disabled": 0, "fusion_lat": 0.0, "lat": 38.908282666666665, "bike_id": "1edb93ca65dddf8d246c5b01d0eb827a", "fusion_lon": 0.0}, {"rental_uris": {"ios": "https://dc.lft.to/lastmile_qr_scan", "android": "https://dc.lft.to/lastmile_qr_scan"}, "type": "electric_scooter", "name": "46b981066e0ff4bc7ee11b8cbb7e3754", "is_reserved": 0, "lon": -77.00551083333333, "is_disabled": 0, "fusion_lat": 0.0, "lat": 38.875326333333334, "bike_id": "46b981066e0ff4bc7ee11b8cbb7e3754", "fusion_lon": 0.0}, {"rental_uris": {"ios": "https://dc.lft.to/lastmile_qr_scan", "android": "https://dc.lft.to/lastmile_qr_scan"}, "type": "electric_scooter", "name": "b020e81666a1f6135a9e002892ef48f5", "is_reserved": 0, "lon": -77.02353033333333, "is_disabled": 0, "fusion_lat": 0.0, "lat": 38.92056133333333, "bike_id": "b020e81666a1f6135a9e002892ef48f5", "fusion_lon": 0.0}, {"rental_uris": {"ios": "https://dc.lft.to/lastmile_qr_scan", "android": "https://dc.lft.to/lastmile_qr_scan"}, "type": "electric_bike", "name": "c741c8c6a2e35854aeb393dc4a6b9231", "is_reserved": 0, "lon": -77.10751733333333, "is_disabled": 0, "fusion_lat": 0.0, "lat": 38.85546266666667, "bike_id": "c741c8c6a2e35854aeb393dc4a6b9231", "fusion_lon": 0.0}, {"rental_uris": {"ios": "https://dc.lft.to/lastmile_qr_scan", "android": "https://dc.lft.to/lastmile_qr_scan"}, "type": "electric_scooter", "name": "74b13ba104a99cf3cd1d936fc920bed4", "is_reserved": 0, "lon": -77.04007016666667, "is_disabled": 0, "fusion_lat": 0.0, "lat": 38.911866, "bike_id": "74b13ba104a99cf3cd1d936fc920bed4", "fusion_lon": 0.0}, {"rental_uris": {"ios": "https://dc.lft.to/lastmile_qr_scan", "android": "https://dc.lft.to/lastmile_qr_scan"}, "type": "electric_scooter", "name": "75933b189dce45e9dadbd7ad0848f412", "is_reserved": 0, "lon": -77.0020025, "is_disabled": 0, "fusion_lat": 0.0, "lat": 38.90836066666667, "bike_id": "75933b189dce45e9dadbd7ad0848f412", "fusion_lon": 0.0}, {"rental_uris": {"ios": "https://dc.lft.to/lastmile_qr_scan", "android": "https://dc.lft.to/lastmile_qr_scan"}, "type": "electric_scooter", "name": "e1ebd5f2c0a3541b1d8fbe9ece92eb2d", "is_reserved": 0, "lon": -77.03254516666667, "is_disabled": 0, "fusion_lat": 0.0, "lat": 38.92967433333333, "bike_id": "e1ebd5f2c0a3541b1d8fbe9ece92eb2d", "fusion_lon": 0.0}, {"rental_uris": {"ios": "https://dc.lft.to/lastmile_qr_scan", "android": "https://dc.lft.to/lastmile_qr_scan"}, "type": "electric_scooter", "name": "2ea8453ff84efcb6d5693fb3b5650ede", "is_reserved": 0, "lon": -77.03190066666667, "is_disabled": 0, "fusion_lat": 0.0, "lat": 38.918520666666666, "bike_id": "2ea8453ff84efcb6d5693fb3b5650ede", "fusion_lon": 0.0}, {"rental_uris": {"ios": "https://dc.lft.to/lastmile_qr_scan", "android": "https://dc.lft.to/lastmile_qr_scan"}, "type": "electric_bike", "name": "5beb880f2aff81449155e8ae0fb0bde3", "is_reserved": 0, "lon": -76.98844366666667, "is_disabled": 0, "fusion_lat": 0.0, "lat": 38.84276833333333, "bike_id": "5beb880f2aff81449155e8ae0fb0bde3", "fusion_lon": 0.0}, {"rental_uris": {"ios": "https://dc.lft.to/lastmile_qr_scan", "android": "https://dc.lft.to/lastmile_qr_scan"}, "type": "electric_scooter", "name": "678b98e4fd08061e590985e1f2f1352c", "is_reserved": 0, "lon": -77.0192765, "is_disabled": 0, "fusion_lat": 0.0, "lat": 38.937343, "bike_id": "678b98e4fd08061e590985e1f2f1352c", "fusion_lon": 0.0}, {"rental_uris": {"ios": "https://dc.lft.to/lastmile_qr_scan", "android": "https://dc.lft.to/lastmile_qr_scan"}, "type": "electric_scooter", "name": "979b026312f4272327329eeecc238042", "is_reserved": 0, "lon": -77.03347366666667, "is_disabled": 0, "fusion_lat": 0.0, "lat": 38.91711466666667, "bike_id": "979b026312f4272327329eeecc238042", "fusion_lon": 0.0}, {"rental_uris": {"ios": "https://dc.lft.to/lastmile_qr_scan", "android": "https://dc.lft.to/lastmile_qr_scan"}, "type": "electric_scooter", "name": "b3175e1e1bbd54b1fa9351dc9dc9a479", "is_reserved": 0, "lon": -77.0250075, "is_disabled": 0, "fusion_lat": 0.0, "lat": 38.91984766666667, "bike_id": "b3175e1e1bbd54b1fa9351dc9dc9a479", "fusion_lon": 0.0}, {"rental_uris": {"ios": "https://dc.lft.to/lastmile_qr_scan", "android": "https://dc.lft.to/lastmile_qr_scan"}, "type": "electric_scooter", "name": "869a7f83d0b069f08015a4f4e211a6e9", "is_reserved": 0, "lon": -77.04815116666667, "is_disabled": 0, "fusion_lat": 0.0, "lat": 38.9047245, "bike_id": "869a7f83d0b069f08015a4f4e211a6e9", "fusion_lon": 0.0}, {"rental_uris": {"ios": "https://dc.lft.to/lastmile_qr_scan", "android": "https://dc.lft.to/lastmile_qr_scan"}, "type": "electric_bike", "name": "22a896c3ec84261fa84b38f5a7f34ce2", "is_reserved": 0, "lon": -77.10288383333334, "is_disabled": 0, "fusion_lat": 0.0, "lat": 38.8525405, "bike_id": "22a896c3ec84261fa84b38f5a7f34ce2", "fusion_lon": 0.0}, {"rental_uris": {"ios": "https://dc.lft.to/lastmile_qr_scan", "android": "https://dc.lft.to/lastmile_qr_scan"}, "type": "electric_scooter", "name": "ac69565146498583d8e425d6ac8728b8", "is_reserved": 0, "lon": -77.02007133333333, "is_disabled": 0, "fusion_lat": 0.0, "lat": 38.92805583333333, "bike_id": "ac69565146498583d8e425d6ac8728b8", "fusion_lon": 0.0}, {"rental_uris": {"ios": "https://dc.lft.to/lastmile_qr_scan", "android": "https://dc.lft.to/lastmile_qr_scan"}, "type": "electric_scooter", "name": "c4d6b99731ee3643401c673f5671f01d", "is_reserved": 0, "lon": -76.98646916666667, "is_disabled": 0, "fusion_lat": 0.0, "lat": 38.905371, "bike_id": "c4d6b99731ee3643401c673f5671f01d", "fusion_lon": 0.0}, {"rental_uris": {"ios": "https://dc.lft.to/lastmile_qr_scan", "android": "https://dc.lft.to/lastmile_qr_scan"}, "type": "electric_scooter", "name": "48febca03da754cffac6a602248d4538", "is_reserved": 0, "lon": -77.02571966666666, "is_disabled": 0, "fusion_lat": 0.0, "lat": 38.94848433333333, "bike_id": "48febca03da754cffac6a602248d4538", "fusion_lon": 0.0}, {"rental_uris": {"ios": "https://dc.lft.to/lastmile_qr_scan", "android": "https://dc.lft.to/lastmile_qr_scan"}, "type": "electric_bike", "name": "70264202841c7820376d7d613f21e1db", "is_reserved": 0, "lon": -77.064869, "is_disabled": 0, "fusion_lat": 0.0, "lat": 38.90980183333333, "bike_id": "70264202841c7820376d7d613f21e1db", "fusion_lon": 0.0}, {"rental_uris": {"ios": "https://dc.lft.to/lastmile_qr_scan", "android": "https://dc.lft.to/lastmile_qr_scan"}, "type": "electric_scooter", "name": "a40e62e7546ecdffef1d612e93a9339d", "is_reserved": 0, "lon": -77.02761733333334, "is_disabled": 0, "fusion_lat": 0.0, "lat": 38.913458, "bike_id": "a40e62e7546ecdffef1d612e93a9339d", "fusion_lon": 0.0}, {"rental_uris": {"ios": "https://dc.lft.to/lastmile_qr_scan", "android": "https://dc.lft.to/lastmile_qr_scan"}, "type": "electric_scooter", "name": "11473b7f2efaed6a94fb49eb080201bf", "is_reserved": 0, "lon": -77.07402016666667, "is_disabled": 0, "fusion_lat": 0.0, "lat": 38.89727, "bike_id": "11473b7f2efaed6a94fb49eb080201bf", "fusion_lon": 0.0}, {"rental_uris": {"ios": "https://dc.lft.to/lastmile_qr_scan", "android": "https://dc.lft.to/lastmile_qr_scan"}, "type": "electric_scooter", "name": "ddcfdd6ab537241d0637669622e9ab46", "is_reserved": 0, "lon": -77.00578716666666, "is_disabled": 0, "fusion_lat": 0.0, "lat": 38.876694666666666, "bike_id": "ddcfdd6ab537241d0637669622e9ab46", "fusion_lon": 0.0}, {"rental_uris": {"ios": "https://dc.lft.to/lastmile_qr_scan", "android": "https://dc.lft.to/lastmile_qr_scan"}, "type": "electric_scooter", "name": "990c9c5059008582bf170ac4518f0519", "is_reserved": 0, "lon": -76.9230145, "is_disabled": 0, "fusion_lat": 0.0, "lat": 38.8938835, "bike_id": "990c9c5059008582bf170ac4518f0519", "fusion_lon": 0.0}, {"rental_uris": {"ios": "https://dc.lft.to/lastmile_qr_scan", "android": "https://dc.lft.to/lastmile_qr_scan"}, "type": "electric_scooter", "name": "b2367e8a9ed975811e3ac3b25b3aac6e", "is_reserved": 0, "lon": -77.04381316666667, "is_disabled": 0, "fusion_lat": 0.0, "lat": 38.91665233333333, "bike_id": "b2367e8a9ed975811e3ac3b25b3aac6e", "fusion_lon": 0.0}, {"rental_uris": {"ios": "https://dc.lft.to/lastmile_qr_scan", "android": "https://dc.lft.to/lastmile_qr_scan"}, "type": "electric_scooter", "name": "41233ac6637c46a41d1d374ff1d4a768", "is_reserved": 0, "lon": -77.03407866666667, "is_disabled": 0, "fusion_lat": 0.0, "lat": 38.90140433333333, "bike_id": "41233ac6637c46a41d1d374ff1d4a768", "fusion_lon": 0.0}, {"rental_uris": {"ios": "https://dc.lft.to/lastmile_qr_scan", "android": "https://dc.lft.to/lastmile_qr_scan"}, "type": "electric_scooter", "name": "a85fb9edbaf72b5b293ab5c15dca7be5", "is_reserved": 0, "lon": -77.00758683333333, "is_disabled": 0, "fusion_lat": 0.0, "lat": 38.925316, "bike_id": "a85fb9edbaf72b5b293ab5c15dca7be5", "fusion_lon": 0.0}, {"rental_uris": {"ios": "https://dc.lft.to/lastmile_qr_scan", "android": "https://dc.lft.to/lastmile_qr_scan"}, "type": "electric_scooter", "name": "bb78da09f55df42eb2fb82791d15ee48", "is_reserved": 0, "lon": -76.95883933333333, "is_disabled": 0, "fusion_lat": 0.0, "lat": 38.858430166666665, "bike_id": "bb78da09f55df42eb2fb82791d15ee48", "fusion_lon": 0.0}, {"rental_uris": {"ios": "https://dc.lft.to/lastmile_qr_scan", "android": "https://dc.lft.to/lastmile_qr_scan"}, "type": "electric_scooter", "name": "64d18c546804cbb262ed9e390ac1bfa5", "is_reserved": 0, "lon": -76.98614266666667, "is_disabled": 0, "fusion_lat": 0.0, "lat": 38.9035135, "bike_id": "64d18c546804cbb262ed9e390ac1bfa5", "fusion_lon": 0.0}, {"rental_uris": {"ios": "https://dc.lft.to/lastmile_qr_scan", "android": "https://dc.lft.to/lastmile_qr_scan"}, "type": "electric_scooter", "name": "49784fbf355db5c6101e132ccb1f8b08", "is_reserved": 0, "lon": -77.02559133333334, "is_disabled": 0, "fusion_lat": 0.0, "lat": 38.93859883333333, "bike_id": "49784fbf355db5c6101e132ccb1f8b08", "fusion_lon": 0.0}, {"rental_uris": {"ios": "https://dc.lft.to/lastmile_qr_scan", "android": "https://dc.lft.to/lastmile_qr_scan"}, "type": "electric_scooter", "name": "6b3a9dd7ed2a2767dd8cc1fd91723b50", "is_reserved": 0, "lon": -77.02352083333334, "is_disabled": 0, "fusion_lat": 0.0, "lat": 38.9317975, "bike_id": "6b3a9dd7ed2a2767dd8cc1fd91723b50", "fusion_lon": 0.0}, {"rental_uris": {"ios": "https://dc.lft.to/lastmile_qr_scan", "android": "https://dc.lft.to/lastmile_qr_scan"}, "type": "electric_bike", "name": "4e4e25b4769fe06e7e54ccb726b05d39", "is_reserved": 0, "lon": -77.126911, "is_disabled": 0, "fusion_lat": 0.0, "lat": 38.895696, "bike_id": "4e4e25b4769fe06e7e54ccb726b05d39", "fusion_lon": 0.0}, {"rental_uris": {"ios": "https://dc.lft.to/lastmile_qr_scan", "android": "https://dc.lft.to/lastmile_qr_scan"}, "type": "electric_scooter", "name": "215a7c9661bf42d0ecc613bb13da0f4b", "is_reserved": 0, "lon": -77.02798016666667, "is_disabled": 0, "fusion_lat": 0.0, "lat": 38.90737216666667, "bike_id": "215a7c9661bf42d0ecc613bb13da0f4b", "fusion_lon": 0.0}, {"rental_uris": {"ios": "https://dc.lft.to/lastmile_qr_scan", "android": "https://dc.lft.to/lastmile_qr_scan"}, "type": "electric_scooter", "name": "e19111bcb05d8a85f61043f7fc8a209c", "is_reserved": 0, "lon": -76.985792, "is_disabled": 0, "fusion_lat": 0.0, "lat": 38.861847166666664, "bike_id": "e19111bcb05d8a85f61043f7fc8a209c", "fusion_lon": 0.0}, {"rental_uris": {"ios": "https://dc.lft.to/lastmile_qr_scan", "android": "https://dc.lft.to/lastmile_qr_scan"}, "type": "electric_scooter", "name": "1b4eb8007956e014f7a87fc8458696f2", "is_reserved": 0, "lon": -77.02424933333333, "is_disabled": 0, "fusion_lat": 0.0, "lat": 38.903078666666666, "bike_id": "1b4eb8007956e014f7a87fc8458696f2", "fusion_lon": 0.0}, {"rental_uris": {"ios": "https://dc.lft.to/lastmile_qr_scan", "android": "https://dc.lft.to/lastmile_qr_scan"}, "type": "electric_scooter", "name": "543ffed6fde18274b4b24851e82598f8", "is_reserved": 0, "lon": -76.98356566666666, "is_disabled": 0, "fusion_lat": 0.0, "lat": 38.887396333333335, "bike_id": "543ffed6fde18274b4b24851e82598f8", "fusion_lon": 0.0}, {"rental_uris": {"ios": "https://dc.lft.to/lastmile_qr_scan", "android": "https://dc.lft.to/lastmile_qr_scan"}, "type": "electric_bike", "name": "c5c7ae081a3a9566a7fed2144f4306c2", "is_reserved": 0, "lon": -76.95682066666667, "is_disabled": 0, "fusion_lat": 0.0, "lat": 38.850980666666665, "bike_id": "c5c7ae081a3a9566a7fed2144f4306c2", "fusion_lon": 0.0}, {"rental_uris": {"ios": "https://dc.lft.to/lastmile_qr_scan", "android": "https://dc.lft.to/lastmile_qr_scan"}, "type": "electric_scooter", "name": "4af9bd2bcca34ed122de063e5477bd9b", "is_reserved": 0, "lon": -77.0266735, "is_disabled": 0, "fusion_lat": 0.0, "lat": 38.8849065, "bike_id": "4af9bd2bcca34ed122de063e5477bd9b", "fusion_lon": 0.0}, {"rental_uris": {"ios": "https://dc.lft.to/lastmile_qr_scan", "android": "https://dc.lft.to/lastmile_qr_scan"}, "type": "electric_bike", "name": "be3e77241dd98b81dbf12500bce7f11d", "is_reserved": 0, "lon": -77.09019283333333, "is_disabled": 0, "fusion_lat": 0.0, "lat": 38.92649433333333, "bike_id": "be3e77241dd98b81dbf12500bce7f11d", "fusion_lon": 0.0}, {"rental_uris": {"ios": "https://dc.lft.to/lastmile_qr_scan", "android": "https://dc.lft.to/lastmile_qr_scan"}, "type": "electric_scooter", "name": "ab458fe656bb9c121299b44bc9306f48", "is_reserved": 0, "lon": -77.03638633333334, "is_disabled": 0, "fusion_lat": 0.0, "lat": 38.918586833333336, "bike_id": "ab458fe656bb9c121299b44bc9306f48", "fusion_lon": 0.0}, {"rental_uris": {"ios": "https://dc.lft.to/lastmile_qr_scan", "android": "https://dc.lft.to/lastmile_qr_scan"}, "type": "electric_scooter", "name": "14a390459fd3ee0d9ea3445b4679e1d0", "is_reserved": 0, "lon": -77.026907, "is_disabled": 0, "fusion_lat": 0.0, "lat": 38.911495333333335, "bike_id": "14a390459fd3ee0d9ea3445b4679e1d0", "fusion_lon": 0.0}, {"rental_uris": {"ios": "https://dc.lft.to/lastmile_qr_scan", "android": "https://dc.lft.to/lastmile_qr_scan"}, "type": "electric_scooter", "name": "8c8613b41008b076334fdf1ef2e4ee15", "is_reserved": 0, "lon": -77.03353266666667, "is_disabled": 0, "fusion_lat": 0.0, "lat": 38.930636166666666, "bike_id": "8c8613b41008b076334fdf1ef2e4ee15", "fusion_lon": 0.0}, {"rental_uris": {"ios": "https://dc.lft.to/lastmile_qr_scan", "android": "https://dc.lft.to/lastmile_qr_scan"}, "type": "electric_scooter", "name": "e368d506fceb4d2abd55571ccda369c9", "is_reserved": 0, "lon": -77.03056233333334, "is_disabled": 0, "fusion_lat": 0.0, "lat": 38.909642166666664, "bike_id": "e368d506fceb4d2abd55571ccda369c9", "fusion_lon": 0.0}, {"rental_uris": {"ios": "https://dc.lft.to/lastmile_qr_scan", "android": "https://dc.lft.to/lastmile_qr_scan"}, "type": "electric_scooter", "name": "2e5c8f6a705adb42f1366584fa4b19d8", "is_reserved": 0, "lon": -77.02145466666667, "is_disabled": 0, "fusion_lat": 0.0, "lat": 38.91335016666667, "bike_id": "2e5c8f6a705adb42f1366584fa4b19d8", "fusion_lon": 0.0}, {"rental_uris": {"ios": "https://dc.lft.to/lastmile_qr_scan", "android": "https://dc.lft.to/lastmile_qr_scan"}, "type": "electric_scooter", "name": "705271d095b5c10916f0949917539e74", "is_reserved": 0, "lon": -77.048356, "is_disabled": 0, "fusion_lat": 0.0, "lat": 38.91264, "bike_id": "705271d095b5c10916f0949917539e74", "fusion_lon": 0.0}, {"rental_uris": {"ios": "https://dc.lft.to/lastmile_qr_scan", "android": "https://dc.lft.to/lastmile_qr_scan"}, "type": "electric_scooter", "name": "6432aa64a3cefedfbc4b813d40027333", "is_reserved": 0, "lon": -77.01528883333333, "is_disabled": 0, "fusion_lat": 0.0, "lat": 38.8873765, "bike_id": "6432aa64a3cefedfbc4b813d40027333", "fusion_lon": 0.0}, {"rental_uris": {"ios": "https://dc.lft.to/lastmile_qr_scan", "android": "https://dc.lft.to/lastmile_qr_scan"}, "type": "electric_scooter", "name": "835ac517cb82d6deb349ff783a8126af", "is_reserved": 0, "lon": -77.05594016666667, "is_disabled": 0, "fusion_lat": 0.0, "lat": 38.894268, "bike_id": "835ac517cb82d6deb349ff783a8126af", "fusion_lon": 0.0}, {"rental_uris": {"ios": "https://dc.lft.to/lastmile_qr_scan", "android": "https://dc.lft.to/lastmile_qr_scan"}, "type": "electric_scooter", "name": "de2fc7cad383702ce6d53f67531d5553", "is_reserved": 0, "lon": -77.037106, "is_disabled": 0, "fusion_lat": 0.0, "lat": 38.9283805, "bike_id": "de2fc7cad383702ce6d53f67531d5553", "fusion_lon": 0.0}, {"rental_uris": {"ios": "https://dc.lft.to/lastmile_qr_scan", "android": "https://dc.lft.to/lastmile_qr_scan"}, "type": "electric_scooter", "name": "a712c915c1860cf519d1542ca336b514", "is_reserved": 0, "lon": -76.99155833333333, "is_disabled": 0, "fusion_lat": 0.0, "lat": 38.90040616666667, "bike_id": "a712c915c1860cf519d1542ca336b514", "fusion_lon": 0.0}, {"rental_uris": {"ios": "https://dc.lft.to/lastmile_qr_scan", "android": "https://dc.lft.to/lastmile_qr_scan"}, "type": "electric_scooter", "name": "4cfdd03f8cb2395370ee0613b281011b", "is_reserved": 0, "lon": -77.019941, "is_disabled": 0, "fusion_lat": 0.0, "lat": 38.89823633333334, "bike_id": "4cfdd03f8cb2395370ee0613b281011b", "fusion_lon": 0.0}, {"rental_uris": {"ios": "https://dc.lft.to/lastmile_qr_scan", "android": "https://dc.lft.to/lastmile_qr_scan"}, "type": "electric_scooter", "name": "a2500fe2f8638c5bb1f3a94437d18dfa", "is_reserved": 0, "lon": -77.032969, "is_disabled": 0, "fusion_lat": 0.0, "lat": 38.924618333333335, "bike_id": "a2500fe2f8638c5bb1f3a94437d18dfa", "fusion_lon": 0.0}, {"rental_uris": {"ios": "https://dc.lft.to/lastmile_qr_scan", "android": "https://dc.lft.to/lastmile_qr_scan"}, "type": "electric_scooter", "name": "9a20aba39d6ca62f8a82925150d3468a", "is_reserved": 0, "lon": -77.03228616666667, "is_disabled": 0, "fusion_lat": 0.0, "lat": 38.928978, "bike_id": "9a20aba39d6ca62f8a82925150d3468a", "fusion_lon": 0.0}, {"rental_uris": {"ios": "https://dc.lft.to/lastmile_qr_scan", "android": "https://dc.lft.to/lastmile_qr_scan"},