{"data": {"bikes": [{"name": "9d178902e2e816306078cd1598a83c5c", "type": "electric_scooter", "lat": 38.88607983333333, "is_reserved": 0, "lon": -76.99508783333333, "fusion_lon": 0.0, "is_disabled": 0, "fusion_lat": 0.0, "bike_id": "9d178902e2e816306078cd1598a83c5c", "rental_uris": {"ios": "https://dc.lft.to/lastmile_qr_scan", "android": "https://dc.lft.to/lastmile_qr_scan"}}, {"name": "6f5c569087b5f88bc5f830fe69b3c415", "type": "electric_scooter", "lat": 38.882209, "is_reserved": 0, "lon": -76.941776, "fusion_lon": 0.0, "is_disabled": 0, "fusion_lat": 0.0, "bike_id": "6f5c569087b5f88bc5f830fe69b3c415", "rental_uris": {"ios": "https://dc.lft.to/lastmile_qr_scan", "android": "https://dc.lft.to/lastmile_qr_scan"}}, {"name": "68051998adb9f22abfe56348f56cfc8f", "type": "electric_scooter", "lat": 38.90329283333333, "is_reserved": 0, "lon": -76.98968166666667, "fusion_lon": 0.0, "is_disabled": 0, "fusion_lat": 0.0, "bike_id": "68051998adb9f22abfe56348f56cfc8f", "rental_uris": {"ios": "https://dc.lft.to/lastmile_qr_scan", "android": "https://dc.lft.to/lastmile_qr_scan"}}, {"name": "0c7859c71a7a10953cbc19c68726218a", "type": "electric_scooter", "lat": 38.922093333333336, "is_reserved": 0, "lon": -77.04235333333334, "fusion_lon": 0.0, "is_disabled": 0, "fusion_lat": 0.0, "bike_id": "0c7859c71a7a10953cbc19c68726218a", "rental_uris": {"ios": "https://dc.lft.to/lastmile_qr_scan", "android": "https://dc.lft.to/lastmile_qr_scan"}}, {"name": "a450de3b503554f8f6b6b37db54171f5", "type": "electric_scooter", "lat": 38.91560783333333, "is_reserved": 0, "lon": -77.02726966666667, "fusion_lon": 0.0, "is_disabled": 0, "fusion_lat": 0.0, "bike_id": "a450de3b503554f8f6b6b37db54171f5", "rental_uris": {"ios": "https://dc.lft.to/lastmile_qr_scan", "android": "https://dc.lft.to/lastmile_qr_scan"}}, {"name": "31f894a50985929d1e6200493834a104", "type": "electric_scooter", "lat": 38.90279783333333, "is_reserved": 0, "lon": -77.03174583333333, "fusion_lon": 0.0, "is_disabled": 0, "fusion_lat": 0.0, "bike_id": "31f894a50985929d1e6200493834a104", "rental_uris": {"ios": "https://dc.lft.to/lastmile_qr_scan", "android": "https://dc.lft.to/lastmile_qr_scan"}}, {"name": "0c88219dd34ff343c1b62b71c6e1b614", "type": "electric_scooter", "lat": 38.905706333333335, "is_reserved": 0, "lon": -77.0058635, "fusion_lon": 0.0, "is_disabled": 0, "fusion_lat": 0.0, "bike_id": "0c88219dd34ff343c1b62b71c6e1b614", "rental_uris": {"ios": "https://dc.lft.to/lastmile_qr_scan", "android": "https://dc.lft.to/lastmile_qr_scan"}}, {"name": "4f02f1b12568060d6a96e2cfdd8a4d8d", "type": "electric_scooter", "lat": 38.9025285, "is_reserved": 0, "lon": -77.01753133333334, "fusion_lon": 0.0, "is_disabled": 0, "fusion_lat": 0.0, "bike_id": "4f02f1b12568060d6a96e2cfdd8a4d8d", "rental_uris": {"ios": "https://dc.lft.to/lastmile_qr_scan", "android": "https://dc.lft.to/lastmile_qr_scan"}}, {"name": "4ce0961e868baab59972333d02aa11cd", "type": "electric_scooter", "lat": 38.90729116666667, "is_reserved": 0, "lon": -77.01130266666667, "fusion_lon": 0.0, "is_disabled": 0, "fusion_lat": 0.0, "bike_id": "4ce0961e868baab59972333d02aa11cd", "rental_uris": {"ios": "https://dc.lft.to/lastmile_qr_scan", "android": "https://dc.lft.to/lastmile_qr_scan"}}, {"name": "fe3739b2ae6967b0f868f978376f5576", "type": "electric_scooter", "lat": 38.92158166666667, "is_reserved": 0, "lon": -77.03379683333333, "fusion_lon": 0.0, "is_disabled": 0, "fusion_lat": 0.0, "bike_id": "fe3739b2ae6967b0f868f978376f5576", "rental_uris": {"ios": "https://dc.lft.to/lastmile_qr_scan", "android": "https://dc.lft.to/lastmile_qr_scan"}}, {"name": "2f1f18661201f610b456496ac987bbb7", "type": "electric_bike", "lat": 38.96493683333333, "is_reserved": 0, "lon": -77.06487866666667, "fusion_lon": 0.0, "is_disabled": 0, "fusion_lat": 0.0, "bike_id": "2f1f18661201f610b456496ac987bbb7", "rental_uris": {"ios": "https://dc.lft.to/lastmile_qr_scan", "android": "https://dc.lft.to/lastmile_qr_scan"}}, {"name": "8ffdf5406500ed25891368340e5ee4f1", "type": "electric_scooter", "lat": 38.92338916666667, "is_reserved": 0, "lon": -77.05065483333334, "fusion_lon": 0.0, "is_disabled": 0, "fusion_lat": 0.0, "bike_id": "8ffdf5406500ed25891368340e5ee4f1", "rental_uris": {"ios": "https://dc.lft.to/lastmile_qr_scan", "android": "https://dc.lft.to/lastmile_qr_scan"}}, {"name": "25c308f1d34b829a81e3202fd3d5bfa6", "type": "electric_scooter", "lat": 38.895083166666666, "is_reserved": 0, "lon": -77.00336433333334, "fusion_lon": 0.0, "is_disabled": 0, "fusion_lat": 0.0, "bike_id": "25c308f1d34b829a81e3202fd3d5bfa6", "rental_uris": {"ios": "https://dc.lft.to/lastmile_qr_scan", "android": "https://dc.lft.to/lastmile_qr_scan"}}, {"name": "5747a6bd00ec1fe8b3b90be78b3a6a14", "type": "electric_scooter", "lat": 38.89471016666667, "is_reserved": 0, "lon": -77.001348, "fusion_lon": 0.0, "is_disabled": 0, "fusion_lat": 0.0, "bike_id": "5747a6bd00ec1fe8b3b90be78b3a6a14", "rental_uris": {"ios": "https://dc.lft.to/lastmile_qr_scan", "android": "https://dc.lft.to/lastmile_qr_scan"}}, {"name": "9b1961172702b59cdb92ff30869079b8", "type": "electric_scooter", "lat": 38.920736166666664, "is_reserved": 0, "lon": -77.0220455, "fusion_lon": 0.0, "is_disabled": 0, "fusion_lat": 0.0, "bike_id": "9b1961172702b59cdb92ff30869079b8", "rental_uris": {"ios": "https://dc.lft.to/lastmile_qr_scan", "android": "https://dc.lft.to/lastmile_qr_scan"}}, {"name": "de3a099d02dc2e36ed2eeee3196f3a0c", "type": "electric_scooter", "lat": 38.899274, "is_reserved": 0, "lon": -77.03914066666667, "fusion_lon": 0.0, "is_disabled": 0, "fusion_lat": 0.0, "bike_id": "de3a099d02dc2e36ed2eeee3196f3a0c", "rental_uris": {"ios": "https://dc.lft.to/lastmile_qr_scan", "android": "https://dc.lft.to/lastmile_qr_scan"}}, {"name": "79b74925b5840850be6a70b238ac41c3", "type": "electric_scooter", "lat": 38.890338166666666, "is_reserved": 0, "lon": -77.029693, "fusion_lon": 0.0, "is_disabled": 0, "fusion_lat": 0.0, "bike_id": "79b74925b5840850be6a70b238ac41c3", "rental_uris": {"ios": "https://dc.lft.to/lastmile_qr_scan", "android": "https://dc.lft.to/lastmile_qr_scan"}}, {"name": "896f74fc14cd85b2d7e3fe1c9f8a9373", "type": "electric_scooter", "lat": 38.9209475, "is_reserved": 0, "lon": -77.025129, "fusion_lon": 0.0, "is_disabled": 0, "fusion_lat": 0.0, "bike_id": "896f74fc14cd85b2d7e3fe1c9f8a9373", "rental_uris": {"ios": "https://dc.lft.to/lastmile_qr_scan", "android": "https://dc.lft.to/lastmile_qr_scan"}}, {"name": "022d189176f78af930d2c7152d5ab4b1", "type": "electric_scooter", "lat": 38.895323166666664, "is_reserved": 0, "lon": -77.0334615, "fusion_lon": 0.0, "is_disabled": 0, "fusion_lat": 0.0, "bike_id": "022d189176f78af930d2c7152d5ab4b1", "rental_uris": {"ios": "https://dc.lft.to/lastmile_qr_scan", "android": "https://dc.lft.to/lastmile_qr_scan"}}, {"name": "0b742703697f4eaab939df449f78d162", "type": "electric_scooter", "lat": 38.90036533333333, "is_reserved": 0, "lon": -76.98838783333333, "fusion_lon": 0.0, "is_disabled": 0, "fusion_lat": 0.0, "bike_id": "0b742703697f4eaab939df449f78d162", "rental_uris": {"ios": "https://dc.lft.to/lastmile_qr_scan", "android": "https://dc.lft.to/lastmile_qr_scan"}}, {"name": "ba4d1cf79355cae8021116d6ed710ff9", "type": "electric_bike", "lat": 38.903627166666666, "is_reserved": 0, "lon": -76.98322216666666, "fusion_lon": 0.0, "is_disabled": 0, "fusion_lat": 0.0, "bike_id": "ba4d1cf79355cae8021116d6ed710ff9", "rental_uris": {"ios": "https://dc.lft.to/lastmile_qr_scan", "android": "https://dc.lft.to/lastmile_qr_scan"}}, {"name": "d1ae7470469254562cd2109b982cd46c", "type": "electric_scooter", "lat": 38.863520333333334, "is_reserved": 0, "lon": -76.99057016666667, "fusion_lon": 0.0, "is_disabled": 0, "fusion_lat": 0.0, "bike_id": "d1ae7470469254562cd2109b982cd46c", "rental_uris": {"ios": "https://dc.lft.to/lastmile_qr_scan", "android": "https://dc.lft.to/lastmile_qr_scan"}}, {"name": "00b892552762cc65eacc4f0701514d3c", "type": "electric_scooter", "lat": 38.90174066666667, "is_reserved": 0, "lon": -76.9999785, "fusion_lon": 0.0, "is_disabled": 0, "fusion_lat": 0.0, "bike_id": "00b892552762cc65eacc4f0701514d3c", "rental_uris": {"ios": "https://dc.lft.to/lastmile_qr_scan", "android": "https://dc.lft.to/lastmile_qr_scan"}}, {"name": "795314b9e8e12ad4e5925d7650f9ebbd", "type": "electric_scooter", "lat": 38.90556183333333, "is_reserved": 0, "lon": -77.04670616666667, "fusion_lon": 0.0, "is_disabled": 0, "fusion_lat": 0.0, "bike_id": "795314b9e8e12ad4e5925d7650f9ebbd", "rental_uris": {"ios": "https://dc.lft.to/lastmile_qr_scan", "android": "https://dc.lft.to/lastmile_qr_scan"}}, {"name": "ab5c99f722ab4877ba09141e19c08f03", "type": "electric_scooter", "lat": 38.88492266666667, "is_reserved": 0, "lon": -77.02850583333333, "fusion_lon": 0.0, "is_disabled": 0, "fusion_lat": 0.0, "bike_id": "ab5c99f722ab4877ba09141e19c08f03", "rental_uris": {"ios": "https://dc.lft.to/lastmile_qr_scan", "android": "https://dc.lft.to/lastmile_qr_scan"}}, {"name": "0a65f09d5c62322e8029d212fbfafa8b", "type": "electric_scooter", "lat": 38.94112533333333, "is_reserved": 0, "lon": -77.02654383333333, "fusion_lon": 0.0, "is_disabled": 0, "fusion_lat": 0.0, "bike_id": "0a65f09d5c62322e8029d212fbfafa8b", "rental_uris": {"ios": "https://dc.lft.to/lastmile_qr_scan", "android": "https://dc.lft.to/lastmile_qr_scan"}}, {"name": "be13e2c35941abb7b8dd450b5dc3e0c5", "type": "electric_scooter", "lat": 38.9037665, "is_reserved": 0, "lon": -77.04465566666667, "fusion_lon": 0.0, "is_disabled": 0, "fusion_lat": 0.0, "bike_id": "be13e2c35941abb7b8dd450b5dc3e0c5", "rental_uris": {"ios": "https://dc.lft.to/lastmile_qr_scan", "android": "https://dc.lft.to/lastmile_qr_scan"}}, {"name": "d2be1abb02690d7460ec683c8ed122fe", "type": "electric_scooter", "lat": 38.908617166666666, "is_reserved": 0, "lon": -76.98618483333334, "fusion_lon": 0.0, "is_disabled": 0, "fusion_lat": 0.0, "bike_id": "d2be1abb02690d7460ec683c8ed122fe", "rental_uris": {"ios": "https://dc.lft.to/lastmile_qr_scan", "android": "https://dc.lft.to/lastmile_qr_scan"}}, {"name": "ddbed1b00943dec35b66356a6756956c", "type": "electric_scooter", "lat": 38.89820566666667, "is_reserved": 0, "lon": -77.0333035, "fusion_lon": 0.0, "is_disabled": 0, "fusion_lat": 0.0, "bike_id": "ddbed1b00943dec35b66356a6756956c", "rental_uris": {"ios": "https://dc.lft.to/lastmile_qr_scan", "android": "https://dc.lft.to/lastmile_qr_scan"}}, {"name": "288660503fd90c96d93ec1473d79f2f1", "type": "electric_scooter", "lat": 38.9051325, "is_reserved": 0, "lon": -77.065852, "fusion_lon": 0.0, "is_disabled": 0, "fusion_lat": 0.0, "bike_id": "288660503fd90c96d93ec1473d79f2f1", "rental_uris": {"ios": "https://dc.lft.to/lastmile_qr_scan", "android": "https://dc.lft.to/lastmile_qr_scan"}}, {"name": "7ea0791b6adbcc510be39b1c671ff89b", "type": "electric_scooter", "lat": 38.938872833333335, "is_reserved": 0, "lon": -77.02468383333333, "fusion_lon": 0.0, "is_disabled": 0, "fusion_lat": 0.0, "bike_id": "7ea0791b6adbcc510be39b1c671ff89b", "rental_uris": {"ios": "https://dc.lft.to/lastmile_qr_scan", "android": "https://dc.lft.to/lastmile_qr_scan"}}, {"name": "acf85cffdee0812473d9bb099b8bb7b7", "type": "electric_scooter", "lat": 38.92635583333333, "is_reserved": 0, "lon": -77.03789983333333, "fusion_lon": 0.0, "is_disabled": 0, "fusion_lat": 0.0, "bike_id": "acf85cffdee0812473d9bb099b8bb7b7", "rental_uris": {"ios": "https://dc.lft.to/lastmile_qr_scan", "android": "https://dc.lft.to/lastmile_qr_scan"}}, {"name": "b4756d8d23fccdfb162f88a0499d541e", "type": "electric_scooter", "lat": 38.925807166666665, "is_reserved": 0, "lon": -77.0047325, "fusion_lon": 0.0, "is_disabled": 0, "fusion_lat": 0.0, "bike_id": "b4756d8d23fccdfb162f88a0499d541e", "rental_uris": {"ios": "https://dc.lft.to/lastmile_qr_scan", "android": "https://dc.lft.to/lastmile_qr_scan"}}, {"name": "65f3f4bfb1a9238a2caa49b886c7b667", "type": "electric_scooter", "lat": 38.93140983333333, "is_reserved": 0, "lon": -77.0384885, "fusion_lon": 0.0, "is_disabled": 0, "fusion_lat": 0.0, "bike_id": "65f3f4bfb1a9238a2caa49b886c7b667", "rental_uris": {"ios": "https://dc.lft.to/lastmile_qr_scan", "android": "https://dc.lft.to/lastmile_qr_scan"}}, {"name": "a4a2ea2727c85a2b34a8a63090c5e47b", "type": "electric_scooter", "lat": 38.902506, "is_reserved": 0, "lon": -77.0460765, "fusion_lon": 0.0, "is_disabled": 0, "fusion_lat": 0.0, "bike_id": "a4a2ea2727c85a2b34a8a63090c5e47b", "rental_uris": {"ios": "https://dc.lft.to/lastmile_qr_scan", "android": "https://dc.lft.to/lastmile_qr_scan"}}, {"name": "f180d8789cfb61fded1907c22d0816c7", "type": "electric_scooter", "lat": 38.877084333333336, "is_reserved": 0, "lon": -76.9937885, "fusion_lon": 0.0, "is_disabled": 0, "fusion_lat": 0.0, "bike_id": "f180d8789cfb61fded1907c22d0816c7", "rental_uris": {"ios": "https://dc.lft.to/lastmile_qr_scan", "android": "https://dc.lft.to/lastmile_qr_scan"}}, {"name": "af3727b1a47d08df16bcbe66b7b16ef5", "type": "electric_scooter", "lat": 38.8988035, "is_reserved": 0, "lon": -77.03281566666666, "fusion_lon": 0.0, "is_disabled": 0, "fusion_lat": 0.0, "bike_id": "af3727b1a47d08df16bcbe66b7b16ef5", "rental_uris": {"ios": "https://dc.lft.to/lastmile_qr_scan", "android": "https://dc.lft.to/lastmile_qr_scan"}}, {"name": "5936fd9c03a400222113e718bd74c67a", "type": "electric_scooter", "lat": 38.887678, "is_reserved": 0, "lon": -76.927098, "fusion_lon": 0.0, "is_disabled": 0, "fusion_lat": 0.0, "bike_id": "5936fd9c03a400222113e718bd74c67a", "rental_uris": {"ios": "https://dc.lft.to/lastmile_qr_scan", "android": "https://dc.lft.to/lastmile_qr_scan"}}, {"name": "a263fa89fb67d8beeaf8250aa08ee5cb", "type": "electric_scooter", "lat": 38.90656583333333, "is_reserved": 0, "lon": -77.01147316666666, "fusion_lon": 0.0, "is_disabled": 0, "fusion_lat": 0.0, "bike_id": "a263fa89fb67d8beeaf8250aa08ee5cb", "rental_uris": {"ios": "https://dc.lft.to/lastmile_qr_scan", "android": "https://dc.lft.to/lastmile_qr_scan"}}, {"name": "3a0fc31479b9a77c7ecce302350e1e2e", "type": "electric_scooter", "lat": 38.902209, "is_reserved": 0, "lon": -77.01636566666667, "fusion_lon": 0.0, "is_disabled": 0, "fusion_lat": 0.0, "bike_id": "3a0fc31479b9a77c7ecce302350e1e2e", "rental_uris": {"ios": "https://dc.lft.to/lastmile_qr_scan", "android": "https://dc.lft.to/lastmile_qr_scan"}}, {"name": "e876a729899626fc1e6dfdc0411f9450", "type": "electric_scooter", "lat": 38.9186985, "is_reserved": 0, "lon": -77.01625516666667, "fusion_lon": 0.0, "is_disabled": 0, "fusion_lat": 0.0, "bike_id": "e876a729899626fc1e6dfdc0411f9450", "rental_uris": {"ios": "https://dc.lft.to/lastmile_qr_scan", "android": "https://dc.lft.to/lastmile_qr_scan"}}, {"name": "7eb59cf3542669467cab1c84175bd856", "type": "electric_scooter", "lat": 38.90572366666667, "is_reserved": 0, "lon": -77.00254733333334, "fusion_lon": 0.0, "is_disabled": 0, "fusion_lat": 0.0, "bike_id": "7eb59cf3542669467cab1c84175bd856", "rental_uris": {"ios": "https://dc.lft.to/lastmile_qr_scan", "android": "https://dc.lft.to/lastmile_qr_scan"}}, {"name": "14e8ce170a2d5ab37bf2304d4b2f2ed2", "type": "electric_scooter", "lat": 38.91328016666667, "is_reserved": 0, "lon": -77.0486965, "fusion_lon": 0.0, "is_disabled": 0, "fusion_lat": 0.0, "bike_id": "14e8ce170a2d5ab37bf2304d4b2f2ed2", "rental_uris": {"ios": "https://dc.lft.to/lastmile_qr_scan", "android": "https://dc.lft.to/lastmile_qr_scan"}}, {"name": "68ade14340f214331695f358e2aa0974", "type": "electric_scooter", "lat": 38.89869366666667, "is_reserved": 0, "lon": -77.02611066666667, "fusion_lon": 0.0, "is_disabled": 0, "fusion_lat": 0.0, "bike_id": "68ade14340f214331695f358e2aa0974", "rental_uris": {"ios": "https://dc.lft.to/lastmile_qr_scan", "android": "https://dc.lft.to/lastmile_qr_scan"}}, {"name": "c2eacb69d3141ca096e92a0e0103bf3c", "type": "electric_bike", "lat": 38.970849, "is_reserved": 0, "lon": -77.06960233333334, "fusion_lon": 0.0, "is_disabled": 0, "fusion_lat": 0.0, "bike_id": "c2eacb69d3141ca096e92a0e0103bf3c", "rental_uris": {"ios": "https://dc.lft.to/lastmile_qr_scan", "android": "https://dc.lft.to/lastmile_qr_scan"}}, {"name": "3d2f336dc65b4afa9f5ab57d93bd7663", "type": "electric_scooter", "lat": 38.91093033333333, "is_reserved": 0, "lon": -77.00496583333333, "fusion_lon": 0.0, "is_disabled": 0, "fusion_lat": 0.0, "bike_id": "3d2f336dc65b4afa9f5ab57d93bd7663", "rental_uris": {"ios": "https://dc.lft.to/lastmile_qr_scan", "android": "https://dc.lft.to/lastmile_qr_scan"}}, {"name": "c252247922ae939a6ab75459282529f9", "type": "electric_scooter", "lat": 38.906628833333336, "is_reserved": 0, "lon": -77.05135233333333, "fusion_lon": 0.0, "is_disabled": 0, "fusion_lat": 0.0, "bike_id": "c252247922ae939a6ab75459282529f9", "rental_uris": {"ios": "https://dc.lft.to/lastmile_qr_scan", "android": "https://dc.lft.to/lastmile_qr_scan"}}, {"name": "003326f14be5afa8bfa6240da325aebe", "type": "electric_scooter", "lat": 38.900069, "is_reserved": 0, "lon": -77.0402515, "fusion_lon": 0.0, "is_disabled": 0, "fusion_lat": 0.0, "bike_id": "003326f14be5afa8bfa6240da325aebe", "rental_uris": {"ios": "https://dc.lft.to/lastmile_qr_scan", "android": "https://dc.lft.to/lastmile_qr_scan"}}, {"name": "d4ba2168ac943ba7eca9c88e8adb1f16", "type": "electric_scooter", "lat": 38.930124166666666, "is_reserved": 0, "lon": -77.02336766666667, "fusion_lon": 0.0, "is_disabled": 0, "fusion_lat": 0.0, "bike_id": "d4ba2168ac943ba7eca9c88e8adb1f16", "rental_uris": {"ios": "https://dc.lft.to/lastmile_qr_scan", "android": "https://dc.lft.to/lastmile_qr_scan"}}, {"name": "b323dadc896c3ccded48f6af29c0f8a3", "type": "electric_scooter", "lat": 38.90565383333333, "is_reserved": 0, "lon": -77.034482, "fusion_lon": 0.0, "is_disabled": 0, "fusion_lat": 0.0, "bike_id": "b323dadc896c3ccded48f6af29c0f8a3", "rental_uris": {"ios": "https://dc.lft.to/lastmile_qr_scan", "android": "https://dc.lft.to/lastmile_qr_scan"}}, {"name": "efc929decd7d86236f04bff2cb464b6c", "type": "electric_scooter", "lat": 38.9002855, "is_reserved": 0, "lon": -77.011842, "fusion_lon": 0.0, "is_disabled": 0, "fusion_lat": 0.0, "bike_id": "efc929decd7d86236f04bff2cb464b6c", "rental_uris": {"ios": "https://dc.lft.to/lastmile_qr_scan", "android": "https://dc.lft.to/lastmile_qr_scan"}}, {"name": "4101d01ba30be6e6033037bd17566f85", "type": "electric_scooter", "lat": 38.907493, "is_reserved": 0, "lon": -77.04167366666667, "fusion_lon": 0.0, "is_disabled": 0, "fusion_lat": 0.0, "bike_id": "4101d01ba30be6e6033037bd17566f85", "rental_uris": {"ios": "https://dc.lft.to/lastmile_qr_scan", "android": "https://dc.lft.to/lastmile_qr_scan"}}, {"name": "115576e1ffef5b96d94cd75fc6dc46fb", "type": "electric_scooter", "lat": 38.89724866666667, "is_reserved": 0, "lon": -77.0433035, "fusion_lon": 0.0, "is_disabled": 0, "fusion_lat": 0.0, "bike_id": "115576e1ffef5b96d94cd75fc6dc46fb", "rental_uris": {"ios": "https://dc.lft.to/lastmile_qr_scan", "android": "https://dc.lft.to/lastmile_qr_scan"}}, {"name": "704321b7692cb297e35aeb0f6653d990", "type": "electric_scooter", "lat": 38.906355166666664, "is_reserved": 0, "lon": -77.05131183333333, "fusion_lon": 0.0, "is_disabled": 0, "fusion_lat": 0.0, "bike_id": "704321b7692cb297e35aeb0f6653d990", "rental_uris": {"ios": "https://dc.lft.to/lastmile_qr_scan", "android": "https://dc.lft.to/lastmile_qr_scan"}}, {"name": "714d72699447c0427f75f8271451516c", "type": "electric_bike", "lat": 38.840591, "is_reserved": 0, "lon": -77.064062, "fusion_lon": 0.0, "is_disabled": 0, "fusion_lat": 0.0, "bike_id": "714d72699447c0427f75f8271451516c", "rental_uris": {"ios": "https://dc.lft.to/lastmile_qr_scan", "android": "https://dc.lft.to/lastmile_qr_scan"}}, {"name": "b2d0d2355e09ae3bb1a28569bb427aed", "type": "electric_scooter", "lat": 38.897456166666665, "is_reserved": 0, "lon": -77.010545, "fusion_lon": 0.0, "is_disabled": 0, "fusion_lat": 0.0, "bike_id": "b2d0d2355e09ae3bb1a28569bb427aed", "rental_uris": {"ios": "https://dc.lft.to/lastmile_qr_scan", "android": "https://dc.lft.to/lastmile_qr_scan"}}, {"name": "1be86535c4f88d962c441e51729ca9c6", "type": "electric_bike", "lat": 38.875264, "is_reserved": 0, "lon": -77.19908283333334, "fusion_lon": 0.0, "is_disabled": 0, "fusion_lat": 0.0, "bike_id": "1be86535c4f88d962c441e51729ca9c6", "rental_uris": {"ios": "https://dc.lft.to/lastmile_qr_scan", "android": "https://dc.lft.to/lastmile_qr_scan"}}, {"name": "51ed2e96b0f7c79e81d8317bfa453024", "type": "electric_scooter", "lat": 38.902609, "is_reserved": 0, "lon": -77.01746033333333, "fusion_lon": 0.0, "is_disabled": 0, "fusion_lat": 0.0, "bike_id": "51ed2e96b0f7c79e81d8317bfa453024", "rental_uris": {"ios": "https://dc.lft.to/lastmile_qr_scan", "android": "https://dc.lft.to/lastmile_qr_scan"}}, {"name": "b64d3e826e15073d930779a4212ba42a", "type": "electric_scooter", "lat": 38.898457, "is_reserved": 0, "lon": -76.94474683333334, "fusion_lon": 0.0, "is_disabled": 0, "fusion_lat": 0.0, "bike_id": "b64d3e826e15073d930779a4212ba42a", "rental_uris": {"ios": "https://dc.lft.to/lastmile_qr_scan", "android": "https://dc.lft.to/lastmile_qr_scan"}}, {"name": "70db1d4f046d46e69bce8a1d1a0d124d", "type": "electric_bike", "lat": 39.09458166666667, "is_reserved": 0, "lon": -77.14995183333333, "fusion_lon": 0.0, "is_disabled": 0, "fusion_lat": 0.0, "bike_id": "70db1d4f046d46e69bce8a1d1a0d124d", "rental_uris": {"ios": "https://dc.lft.to/lastmile_qr_scan", "android": "https://dc.lft.to/lastmile_qr_scan"}}, {"name": "287429073d8cd2df69b78cce1a75a682", "type": "electric_scooter", "lat": 38.862439, "is_reserved": 0, "lon": -76.99497366666667, "fusion_lon": 0.0, "is_disabled": 0, "fusion_lat": 0.0, "bike_id": "287429073d8cd2df69b78cce1a75a682", "rental_uris": {"ios": "https://dc.lft.to/lastmile_qr_scan", "android": "https://dc.lft.to/lastmile_qr_scan"}}, {"name": "d62e376cc897799497c05cbcf801e148", "type": "electric_bike", "lat": 38.82790683333333, "is_reserved": 0, "lon": -77.00905816666666, "fusion_lon": 0.0, "is_disabled": 0, "fusion_lat": 0.0, "bike_id": "d62e376cc897799497c05cbcf801e148", "rental_uris": {"ios": "https://dc.lft.to/lastmile_qr_scan", "android": "https://dc.lft.to/lastmile_qr_scan"}}, {"name": "4039ae1b1ea4b50aa06bb69157c174f5", "type": "electric_scooter", "lat": 38.8949675, "is_reserved": 0, "lon": -77.0021405, "fusion_lon": 0.0, "is_disabled": 0, "fusion_lat": 0.0, "bike_id": "4039ae1b1ea4b50aa06bb69157c174f5", "rental_uris": {"ios": "https://dc.lft.to/lastmile_qr_scan", "android": "https://dc.lft.to/lastmile_qr_scan"}}, {"name": "33fc1ce546ee247043d758eb63baf073", "type": "electric_bike", "lat": 38.862761666666664, "is_reserved": 0, "lon": -77.0634035, "fusion_lon": 0.0, "is_disabled": 0, "fusion_lat": 0.0, "bike_id": "33fc1ce546ee247043d758eb63baf073", "rental_uris": {"ios": "https://dc.lft.to/lastmile_qr_scan", "android": "https://dc.lft.to/lastmile_qr_scan"}}, {"name": "90fa3bfba93c64c7eecfe3f0e6ea313b", "type": "electric_scooter", "lat": 38.92728866666667, "is_reserved": 0, "lon": -77.00562433333333, "fusion_lon": 0.0, "is_disabled": 0, "fusion_lat": 0.0, "bike_id": "90fa3bfba93c64c7eecfe3f0e6ea313b", "rental_uris": {"ios": "https://dc.lft.to/lastmile_qr_scan", "android": "https://dc.lft.to/lastmile_qr_scan"}}, {"name": "2cfb511614a5e72c7a4f1f4840e1d2f5", "type": "electric_bike", "lat": 38.86752516666667, "is_reserved": 0, "lon": -76.94531683333334, "fusion_lon": 0.0, "is_disabled": 0, "fusion_lat": 0.0, "bike_id": "2cfb511614a5e72c7a4f1f4840e1d2f5", "rental_uris": {"ios": "https://dc.lft.to/lastmile_qr_scan", "android": "https://dc.lft.to/lastmile_qr_scan"}}, {"name": "82b8088446e363bdf2f48a1c8563161c", "type": "electric_scooter", "lat": 38.929442, "is_reserved": 0, "lon": -77.05507233333333, "fusion_lon": 0.0, "is_disabled": 0, "fusion_lat": 0.0, "bike_id": "82b8088446e363bdf2f48a1c8563161c", "rental_uris": {"ios": "https://dc.lft.to/lastmile_qr_scan", "android": "https://dc.lft.to/lastmile_qr_scan"}}, {"name": "8617d9a24940b1d99962caa4117cd8b2", "type": "electric_scooter", "lat": 38.91871733333333, "is_reserved": 0, "lon": -77.04197366666666, "fusion_lon": 0.0, "is_disabled": 0, "fusion_lat": 0.0, "bike_id": "8617d9a24940b1d99962caa4117cd8b2", "rental_uris": {"ios": "https://dc.lft.to/lastmile_qr_scan", "android": "https://dc.lft.to/lastmile_qr_scan"}}, {"name": "9c7d73232eb38d502951e046d5abf87f", "type": "electric_scooter", "lat": 38.918796, "is_reserved": 0, "lon": -77.03495966666667, "fusion_lon": 0.0, "is_disabled": 0, "fusion_lat": 0.0, "bike_id": "9c7d73232eb38d502951e046d5abf87f", "rental_uris": {"ios": "https://dc.lft.to/lastmile_qr_scan", "android": "https://dc.lft.to/lastmile_qr_scan"}}, {"name": "55dafc32aed57f67e58c8a7fd265c554", "type": "electric_scooter", "lat": 38.89961983333333, "is_reserved": 0, "lon": -76.937664, "fusion_lon": 0.0, "is_disabled": 0, "fusion_lat": 0.0, "bike_id": "55dafc32aed57f67e58c8a7fd265c554", "rental_uris": {"ios": "https://dc.lft.to/lastmile_qr_scan", "android": "https://dc.lft.to/lastmile_qr_scan"}}, {"name": "0fb84384a4128b690bbbb6fdd2912419", "type": "electric_scooter", "lat": 38.914373166666664, "is_reserved": 0, "lon": -77.00339866666667, "fusion_lon": 0.0, "is_disabled": 0, "fusion_lat": 0.0, "bike_id": "0fb84384a4128b690bbbb6fdd2912419", "rental_uris": {"ios": "https://dc.lft.to/lastmile_qr_scan", "android": "https://dc.lft.to/lastmile_qr_scan"}}, {"name": "2ef8542b8ea9dedf6c2a96ebdf04564f", "type": "electric_scooter", "lat": 38.87687233333333, "is_reserved": 0, "lon": -77.00067466666667, "fusion_lon": 0.0, "is_disabled": 0, "fusion_lat": 0.0, "bike_id": "2ef8542b8ea9dedf6c2a96ebdf04564f", "rental_uris": {"ios": "https://dc.lft.to/lastmile_qr_scan", "android": "https://dc.lft.to/lastmile_qr_scan"}}, {"name": "1411ec7a43e396f30e8cd158969dd1c0", "type": "electric_scooter", "lat": 38.90030183333333, "is_reserved": 0, "lon": -76.998649, "fusion_lon": 0.0, "is_disabled": 0, "fusion_lat": 0.0, "bike_id": "1411ec7a43e396f30e8cd158969dd1c0", "rental_uris": {"ios": "https://dc.lft.to/lastmile_qr_scan", "android": "https://dc.lft.to/lastmile_qr_scan"}}, {"name": "8dfc70fb3d9408051921993a7fa35673", "type": "electric_scooter", "lat": 38.94279683333333, "is_reserved": 0, "lon": -77.0250215, "fusion_lon": 0.0, "is_disabled": 0, "fusion_lat": 0.0, "bike_id": "8dfc70fb3d9408051921993a7fa35673", "rental_uris": {"ios": "https://dc.lft.to/lastmile_qr_scan", "android": "https://dc.lft.to/lastmile_qr_scan"}}, {"name": "b2da45809bc10729084db68f7555eacb", "type": "electric_scooter", "lat": 38.928863166666666, "is_reserved": 0, "lon": -77.054476, "fusion_lon": 0.0, "is_disabled": 0, "fusion_lat": 0.0, "bike_id": "b2da45809bc10729084db68f7555eacb", "rental_uris": {"ios": "https://dc.lft.to/lastmile_qr_scan", "android": "https://dc.lft.to/lastmile_qr_scan"}}, {"name": "dfe17a3f80d355d8e5f729c94c11f894", "type": "electric_scooter", "lat": 38.906704500000004, "is_reserved": 0, "lon": -77.0271145, "fusion_lon": 0.0, "is_disabled": 0, "fusion_lat": 0.0, "bike_id": "dfe17a3f80d355d8e5f729c94c11f894", "rental_uris": {"ios": "https://dc.lft.to/lastmile_qr_scan", "android": "https://dc.lft.to/lastmile_qr_scan"}}, {"name": "ab7954979df5947b9b870b3364a6a8bc", "type": "electric_scooter", "lat": 38.9056355, "is_reserved": 0, "lon": -76.9814535, "fusion_lon": 0.0, "is_disabled": 0, "fusion_lat": 0.0, "bike_id": "ab7954979df5947b9b870b3364a6a8bc", "rental_uris": {"ios": "https://dc.lft.to/lastmile_qr_scan", "android": "https://dc.lft.to/lastmile_qr_scan"}}, {"name": "c605f77aef88b6343bbee2b38ad00a9f", "type": "electric_scooter", "lat": 38.8973515, "is_reserved": 0, "lon": -77.0292135, "fusion_lon": 0.0, "is_disabled": 0, "fusion_lat": 0.0, "bike_id": "c605f77aef88b6343bbee2b38ad00a9f", "rental_uris": {"ios": "https://dc.lft.to/lastmile_qr_scan", "android": "https://dc.lft.to/lastmile_qr_scan"}}, {"name": "b34a4cbbd5c82fc39a7c1ad8c5360d21", "type": "electric_scooter", "lat": 38.90849333333333, "is_reserved": 0, "lon": -77.08525516666667, "fusion_lon": 0.0, "is_disabled": 0, "fusion_lat": 0.0, "bike_id": "b34a4cbbd5c82fc39a7c1ad8c5360d21", "rental_uris": {"ios": "https://dc.lft.to/lastmile_qr_scan", "android": "https://dc.lft.to/lastmile_qr_scan"}}, {"name": "3cbed519fad97694f57ce0c82ff1d461", "type": "electric_scooter", "lat": 38.926338666666666, "is_reserved": 0, "lon": -77.03507666666667, "fusion_lon": 0.0, "is_disabled": 0, "fusion_lat": 0.0, "bike_id": "3cbed519fad97694f57ce0c82ff1d461", "rental_uris": {"ios": "https://dc.lft.to/lastmile_qr_scan", "android": "https://dc.lft.to/lastmile_qr_scan"}}, {"name": "5640ba4e97c952a4ea1119456d53fa9c", "type": "electric_scooter", "lat": 38.919655, "is_reserved": 0, "lon": -77.00102666666666, "fusion_lon": 0.0, "is_disabled": 0, "fusion_lat": 0.0, "bike_id": "5640ba4e97c952a4ea1119456d53fa9c", "rental_uris": {"ios": "https://dc.lft.to/lastmile_qr_scan", "android": "https://dc.lft.to/lastmile_qr_scan"}}, {"name": "b12da010146c3673f3d3ef273417af4b", "type": "electric_scooter", "lat": 38.90244966666667, "is_reserved": 0, "lon": -77.01757716666667, "fusion_lon": 0.0, "is_disabled": 0, "fusion_lat": 0.0, "bike_id": "b12da010146c3673f3d3ef273417af4b", "rental_uris": {"ios": "https://dc.lft.to/lastmile_qr_scan", "android": "https://dc.lft.to/lastmile_qr_scan"}}, {"name": "bc072fe5a53f8c81f39c62e491791e8a", "type": "electric_scooter", "lat": 38.9058695, "is_reserved": 0, "lon": -77.065148, "fusion_lon": 0.0, "is_disabled": 0, "fusion_lat": 0.0, "bike_id": "bc072fe5a53f8c81f39c62e491791e8a", "rental_uris": {"ios": "https://dc.lft.to/lastmile_qr_scan", "android": "https://dc.lft.to/lastmile_qr_scan"}}, {"name": "51bb803844a765caf9d83a929e4f6ad4", "type": "electric_scooter", "lat": 38.920551333333336, "is_reserved": 0, "lon": -77.0297325, "fusion_lon": 0.0, "is_disabled": 0, "fusion_lat": 0.0, "bike_id": "51bb803844a765caf9d83a929e4f6ad4", "rental_uris": {"ios": "https://dc.lft.to/lastmile_qr_scan", "android": "https://dc.lft.to/lastmile_qr_scan"}}, {"name": "b3cc6c859ddc9ff8d99758545acb9a03", "type": "electric_bike", "lat": 38.95538783333333, "is_reserved": 0, "lon": -77.02297066666667, "fusion_lon": 0.0, "is_disabled": 0, "fusion_lat": 0.0, "bike_id": "b3cc6c859ddc9ff8d99758545acb9a03", "rental_uris": {"ios": "https://dc.lft.to/lastmile_qr_scan", "android": "https://dc.lft.to/lastmile_qr_scan"}}, {"name": "ab924e4f069e836356036ae3531f690d", "type": "electric_scooter", "lat": 38.92346233333333, "is_reserved": 0, "lon": -77.01897783333334, "fusion_lon": 0.0, "is_disabled": 0, "fusion_lat": 0.0, "bike_id": "ab924e4f069e836356036ae3531f690d", "rental_uris": {"ios": "https://dc.lft.to/lastmile_qr_scan", "android": "https://dc.lft.to/lastmile_qr_scan"}}, {"name": "4f671ff9d251c69a2d0cd7e89c1686bb", "type": "electric_scooter", "lat": 38.92064583333333, "is_reserved": 0, "lon": -76.97801233333334, "fusion_lon": 0.0, "is_disabled": 0, "fusion_lat": 0.0, "bike_id": "4f671ff9d251c69a2d0cd7e89c1686bb", "rental_uris": {"ios": "https://dc.lft.to/lastmile_qr_scan", "android": "https://dc.lft.to/lastmile_qr_scan"}}, {"name": "fd90fdc751427c9d49437b61ba65edb0", "type": "electric_scooter", "lat": 38.90516916666667, "is_reserved": 0, "lon": -77.06384916666667, "fusion_lon": 0.0, "is_disabled": 0, "fusion_lat": 0.0, "bike_id": "fd90fdc751427c9d49437b61ba65edb0", "rental_uris": {"ios": "https://dc.lft.to/lastmile_qr_scan", "android": "https://dc.lft.to/lastmile_qr_scan"}}, {"name": "8eb7901cac75bb8174645eb619480618", "type": "electric_scooter", "lat": 38.9096685, "is_reserved": 0, "lon": -77.01119016666667, "fusion_lon": 0.0, "is_disabled": 0, "fusion_lat": 0.0, "bike_id": "8eb7901cac75bb8174645eb619480618", "rental_uris": {"ios": "https://dc.lft.to/lastmile_qr_scan", "android": "https://dc.lft.to/lastmile_qr_scan"}}, {"name": "d61f58562754d51ec4bba59035f0f47f", "type": "electric_scooter", "lat": 38.90585816666667, "is_reserved": 0, "lon": -77.06520466666667, "fusion_lon": 0.0, "is_disabled": 0, "fusion_lat": 0.0, "bike_id": "d61f58562754d51ec4bba59035f0f47f", "rental_uris": {"ios": "https://dc.lft.to/lastmile_qr_scan", "android": "https://dc.lft.to/lastmile_qr_scan"}}, {"name": "b8ec091bef187c001902b9e09876dd47", "type": "electric_bike", "lat": 38.85797816666667, "is_reserved": 0, "lon": -76.98746983333334, "fusion_lon": 0.0, "is_disabled": 0, "fusion_lat": 0.0, "bike_id": "b8ec091bef187c001902b9e09876dd47", "rental_uris": {"ios": "https://dc.lft.to/lastmile_qr_scan", "android": "https://dc.lft.to/lastmile_qr_scan"}}, {"name": "5b8b9ba6cebeec616bc12efccadcac60", "type": "electric_scooter", "lat": 38.90128933333333, "is_reserved": 0, "lon": -77.0443255, "fusion_lon": 0.0, "is_disabled": 0, "fusion_lat": 0.0, "bike_id": "5b8b9ba6cebeec616bc12efccadcac60", "rental_uris": {"ios": "https://dc.lft.to/lastmile_qr_scan", "android": "https://dc.lft.to/lastmile_qr_scan"}}, {"name": "6b9522a90c18cbc2a274413a99c0f469", "type": "electric_scooter", "lat": 38.952884833333336, "is_reserved": 0, "lon": -77.0682835, "fusion_lon": 0.0, "is_disabled": 0, "fusion_lat": 0.0, "bike_id": "6b9522a90c18cbc2a274413a99c0f469", "rental_uris": {"ios": "https://dc.lft.to/lastmile_qr_scan", "android": "https://dc.lft.to/lastmile_qr_scan"}}, {"name": "2dbbe8762359266aad6e1ba227a2c418", "type": "electric_scooter", "lat": 38.897678666666664, "is_reserved": 0, "lon": -77.0511715, "fusion_lon": 0.0, "is_disabled": 0, "fusion_lat": 0.0, "bike_id": "2dbbe8762359266aad6e1ba227a2c418", "rental_uris": {"ios": "https://dc.lft.to/lastmile_qr_scan", "android": "https://dc.lft.to/lastmile_qr_scan"}}, {"name": "139650bc4948425e5811c85964fcdc72", "type": "electric_scooter", "lat": 38.920275, "is_reserved": 0, "lon": -77.01117183333334, "fusion_lon": 0.0, "is_disabled": 0, "fusion_lat": 0.0, "bike_id": "139650bc4948425e5811c85964fcdc72", "rental_uris": {"ios": "https://dc.lft.to/lastmile_qr_scan", "android": "https://dc.lft.to/lastmile_qr_scan"}}, {"name": "05b989edda6602de9a18f03f135b22dc", "type": "electric_scooter", "lat": 38.91822833333333, "is_reserved": 0, "lon": -77.03440716666667, "fusion_lon": 0.0, "is_disabled": 0, "fusion_lat": 0.0, "bike_id": "05b989edda6602de9a18f03f135b22dc", "rental_uris": {"ios": "https://dc.lft.to/lastmile_qr_scan", "android": "https://dc.lft.to/lastmile_qr_scan"}}, {"name": "cd23a3e930585c6cf67b09319e861b44", "type": "electric_scooter", "lat": 38.93307333333333, "is_reserved": 0, "lon": -77.0280255, "fusion_lon": 0.0, "is_disabled": 0, "fusion_lat": 0.0, "bike_id": "cd23a3e930585c6cf67b09319e861b44", "rental_uris": {"ios": "https://dc.lft.to/lastmile_qr_scan", "android": "https://dc.lft.to/lastmile_qr_scan"}}, {"name": "d451d3f3b6b3de0d972929ba7cd2169d", "type": "electric_scooter", "lat": 38.903533333333336, "is_reserved": 0, "lon": -77.04023366666667, "fusion_lon": 0.0, "is_disabled": 0, "fusion_lat": 0.0, "bike_id": "d451d3f3b6b3de0d972929ba7cd2169d", "rental_uris": {"ios": "https://dc.lft.to/lastmile_qr_scan", "android": "https://dc.lft.to/lastmile_qr_scan"}}, {"name": "43d2a5d732ea05850d8c6cfe264ccbdf", "type": "electric_scooter", "lat": 38.84290983333333, "is_reserved": 0, "lon": -76.9994225, "fusion_lon": 0.0, "is_disabled": 0, "fusion_lat": 0.0, "bike_id": "43d2a5d732ea05850d8c6cfe264ccbdf", "rental_uris": {"ios": "https://dc.lft.to/lastmile_qr_scan", "android": "https://dc.lft.to/lastmile_qr_scan"}}, {"name": "1c6e9a6bb8086075a873a55f1fe650a6", "type": "electric_scooter", "lat": 38.974744, "is_reserved": 0, "lon": -77.01895066666667, "fusion_lon": 0.0, "is_disabled": 0, "fusion_lat": 0.0, "bike_id": "1c6e9a6bb8086075a873a55f1fe650a6", "rental_uris": {"ios": "https://dc.lft.to/lastmile_qr_scan", "android": "https://dc.lft.to/lastmile_qr_scan"}}, {"name": "65dae1c15065555affe5269c76bf2be7", "type": "electric_scooter", "lat": 38.9257865, "is_reserved": 0, "lon": -77.0526035, "fusion_lon": 0.0, "is_disabled": 0, "fusion_lat": 0.0, "bike_id": "65dae1c15065555affe5269c76bf2be7", "rental_uris": {"ios": "https://dc.lft.to/lastmile_qr_scan", "android": "https://dc.lft.to/lastmile_qr_scan"}}, {"name": "075827b444e77f62f51a8339e2afba00", "type": "electric_scooter", "lat": 38.89607766666666, "is_reserved": 0, "lon": -77.0450805, "fusion_lon": 0.0, "is_disabled": 0, "fusion_lat": 0.0, "bike_id": "075827b444e77f62f51a8339e2afba00", "rental_uris": {"ios": "https://dc.lft.to/lastmile_qr_scan", "android": "https://dc.lft.to/lastmile_qr_scan"}}, {"name": "9182d0f19d0aa2b8e09bd004cab47f86", "type": "electric_scooter", "lat": 38.8983515, "is_reserved": 0, "lon": -77.04268633333334, "fusion_lon": 0.0, "is_disabled": 0, "fusion_lat": 0.0, "bike_id": "9182d0f19d0aa2b8e09bd004cab47f86", "rental_uris": {"ios": "https://dc.lft.to/lastmile_qr_scan", "android": "https://dc.lft.to/lastmile_qr_scan"}}, {"name": "7b5582715ebd794ba0494e44c071ef41", "type": "electric_scooter", "lat": 38.934592, "is_reserved": 0, "lon": -77.02931733333334, "fusion_lon": 0.0, "is_disabled": 0, "fusion_lat": 0.0, "bike_id": "7b5582715ebd794ba0494e44c071ef41", "rental_uris": {"ios": "https://dc.lft.to/lastmile_qr_scan", "android": "https://dc.lft.to/lastmile_qr_scan"}}, {"name": "14d6fa8af053ac7e17d60f10ab2be90e", "type": "electric_scooter", "lat": 38.917811, "is_reserved": 0, "lon": -77.040966, "fusion_lon": 0.0, "is_disabled": 0, "fusion_lat": 0.0, "bike_id": "14d6fa8af053ac7e17d60f10ab2be90e", "rental_uris": {"ios": "https://dc.lft.to/lastmile_qr_scan", "android": "https://dc.lft.to/lastmile_qr_scan"}}, {"name": "ee112ae650b183f367f991b78c3ae014", "type": "electric_scooter", "lat": 38.887241333333336, "is_reserved": 0, "lon": -77.02824783333334, "fusion_lon": 0.0, "is_disabled": 0, "fusion_lat": 0.0, "bike_id": "ee112ae650b183f367f991b78c3ae014", "rental_uris": {"ios": "https://dc.lft.to/lastmile_qr_scan", "android": "https://dc.lft.to/lastmile_qr_scan"}}, {"name": "e115dce2b16c042c970aff1d3f9a6e19", "type": "electric_bike", "lat": 39.02934166666667, "is_reserved": 0, "lon": -77.04925333333334, "fusion_lon": 0.0, "is_disabled": 0, "fusion_lat": 0.0, "bike_id": "e115dce2b16c042c970aff1d3f9a6e19", "rental_uris": {"ios": "https://dc.lft.to/lastmile_qr_scan", "android": "https://dc.lft.to/lastmile_qr_scan"}}, {"name": "8133d83ab72c3480ed23683fb0288ea5", "type": "electric_scooter", "lat": 38.933061333333335, "is_reserved": 0, "lon": -77.03768666666667, "fusion_lon": 0.0, "is_disabled": 0, "fusion_lat": 0.0, "bike_id": "8133d83ab72c3480ed23683fb0288ea5", "rental_uris": {"ios": "https://dc.lft.to/lastmile_qr_scan", "android": "https://dc.lft.to/lastmile_qr_scan"}}, {"name": "a34551afc9dd015dff9af2d5c509ae05", "type": "electric_scooter", "lat": 38.90638116666667, "is_reserved": 0, "lon": -77.05135166666666, "fusion_lon": 0.0, "is_disabled": 0, "fusion_lat": 0.0, "bike_id": "a34551afc9dd015dff9af2d5c509ae05", "rental_uris": {"ios": "https://dc.lft.to/lastmile_qr_scan", "android": "https://dc.lft.to/lastmile_qr_scan"}}, {"name": "5a6b43b6bf8f474c6b72c5651e97dcc3", "type": "electric_scooter", "lat": 38.9205625, "is_reserved": 0, "lon": -77.0235565, "fusion_lon": 0.0, "is_disabled": 0, "fusion_lat": 0.0, "bike_id": "5a6b43b6bf8f474c6b72c5651e97dcc3", "rental_uris": {"ios": "https://dc.lft.to/lastmile_qr_scan", "android": "https://dc.lft.to/lastmile_qr_scan"}}, {"name": "d640e50089a06d712a552c8e9bf99473", "type": "electric_scooter", "lat": 38.96821533333333, "is_reserved": 0, "lon": -77.01789283333333, "fusion_lon": 0.0, "is_disabled": 0, "fusion_lat": 0.0, "bike_id": "d640e50089a06d712a552c8e9bf99473", "rental_uris": {"ios": "https://dc.lft.to/lastmile_qr_scan", "android": "https://dc.lft.to/lastmile_qr_scan"}}, {"name": "1c9140f9cbe5323689913f0dcd3714bc", "type": "electric_scooter", "lat": 38.9086835, "is_reserved": 0, "lon": -76.999589, "fusion_lon": 0.0, "is_disabled": 0, "fusion_lat": 0.0, "bike_id": "1c9140f9cbe5323689913f0dcd3714bc", "rental_uris": {"ios": "https://dc.lft.to/lastmile_qr_scan", "android": "https://dc.lft.to/lastmile_qr_scan"}}, {"name": "bbc714bee3b6519b715dc464bbc2643e", "type": "electric_scooter", "lat": 38.908409166666665, "is_reserved": 0, "lon": -77.02694333333334, "fusion_lon": 0.0, "is_disabled": 0, "fusion_lat": 0.0, "bike_id": "bbc714bee3b6519b715dc464bbc2643e", "rental_uris": {"ios": "https://dc.lft.to/lastmile_qr_scan", "android": "https://dc.lft.to/lastmile_qr_scan"}}, {"name": "2078ed55700531e0287664dbc42266ec", "type": "electric_bike", "lat": 38.9929475, "is_reserved": 0, "lon": -77.02540233333333, "fusion_lon": 0.0, "is_disabled": 0, "fusion_lat": 0.0, "bike_id": "2078ed55700531e0287664dbc42266ec", "rental_uris": {"ios": "https://dc.lft.to/lastmile_qr_scan", "android": "https://dc.lft.to/lastmile_qr_scan"}}, {"name": "9caa05e1039cae3bfcf23e0f043ba518", "type": "electric_scooter", "lat": 38.93537766666667, "is_reserved": 0, "lon": -77.03699366666666, "fusion_lon": 0.0, "is_disabled": 0, "fusion_lat": 0.0, "bike_id": "9caa05e1039cae3bfcf23e0f043ba518", "rental_uris": {"ios": "https://dc.lft.to/lastmile_qr_scan", "android": "https://dc.lft.to/lastmile_qr_scan"}}, {"name": "e5258c56a554f55349a38c0080f910c0", "type": "electric_bike", "lat": 38.88005716666667, "is_reserved": 0, "lon": -76.915973, "fusion_lon": 0.0, "is_disabled": 0, "fusion_lat": 0.0, "bike_id": "e5258c56a554f55349a38c0080f910c0", "rental_uris": {"ios": "https://dc.lft.to/lastmile_qr_scan", "android": "https://dc.lft.to/lastmile_qr_scan"}}, {"name": "d3b17ecfc0013c458f4648cf8a85659a", "type": "electric_scooter", "lat": 38.9253325, "is_reserved": 0, "lon": -77.05547166666666, "fusion_lon": 0.0, "is_disabled": 0, "fusion_lat": 0.0, "bike_id": "d3b17ecfc0013c458f4648cf8a85659a", "rental_uris": {"ios": "https://dc.lft.to/lastmile_qr_scan", "android": "https://dc.lft.to/lastmile_qr_scan"}}, {"name": "58d7d4ce551424c70c858e0cc73c5159", "type": "electric_scooter", "lat": 38.91873916666667, "is_reserved": 0, "lon": -77.0437675, "fusion_lon": 0.0, "is_disabled": 0, "fusion_lat": 0.0, "bike_id": "58d7d4ce551424c70c858e0cc73c5159", "rental_uris": {"ios": "https://dc.lft.to/lastmile_qr_scan", "android": "https://dc.lft.to/lastmile_qr_scan"}}, {"name": "c8d470909cc0f18fd40733404307e0c3", "type": "electric_scooter", "lat": 38.92685933333333, "is_reserved": 0, "lon": -77.09553, "fusion_lon": 0.0, "is_disabled": 0, "fusion_lat": 0.0, "bike_id": "c8d470909cc0f18fd40733404307e0c3", "rental_uris": {"ios": "https://dc.lft.to/lastmile_qr_scan", "android": "https://dc.lft.to/lastmile_qr_scan"}}, {"name": "4675d7947e77110feb7550e07f9cc7f8", "type": "electric_scooter", "lat": 38.901497166666665, "is_reserved": 0, "lon": -76.93061883333333, "fusion_lon": 0.0, "is_disabled": 0, "fusion_lat": 0.0, "bike_id": "4675d7947e77110feb7550e07f9cc7f8", "rental_uris": {"ios": "https://dc.lft.to/lastmile_qr_scan", "android": "https://dc.lft.to/lastmile_qr_scan"}}, {"name": "7769c7fbf3a1005982eedd02606f12b7", "type": "electric_scooter", "lat": 38.915841, "is_reserved": 0, "lon": -77.04475033333334, "fusion_lon": 0.0, "is_disabled": 0, "fusion_lat": 0.0, "bike_id": "7769c7fbf3a1005982eedd02606f12b7", "rental_uris": {"ios": "https://dc.lft.to/lastmile_qr_scan", "android": "https://dc.lft.to/lastmile_qr_scan"}}, {"name": "572c0c1a3e3459fe2f2e207d23ae950f", "type": "electric_scooter", "lat": 38.935794666666666, "is_reserved": 0, "lon": -76.99110883333333, "fusion_lon": 0.0, "is_disabled": 0, "fusion_lat": 0.0, "bike_id": "572c0c1a3e3459fe2f2e207d23ae950f", "rental_uris": {"ios": "https://dc.lft.to/lastmile_qr_scan", "android": "https://dc.lft.to/lastmile_qr_scan"}}, {"name": "0b397b90b8796f912c89cf861eb883e1", "type": "electric_scooter", "lat": 38.924612333333336, "is_reserved": 0, "lon": -77.03762016666667, "fusion_lon": 0.0, "is_disabled": 0, "fusion_lat": 0.0, "bike_id": "0b397b90b8796f912c89cf861eb883e1", "rental_uris": {"ios": "https://dc.lft.to/lastmile_qr_scan", "android": "https://dc.lft.to/lastmile_qr_scan"}}, {"name": "60ff85816475ada6724031bdcf969fce", "type": "electric_scooter", "lat": 38.92228516666667, "is_reserved": 0, "lon": -77.03335333333334, "fusion_lon": 0.0, "is_disabled": 0, "fusion_lat": 0.0, "bike_id": "60ff85816475ada6724031bdcf969fce", "rental_uris": {"ios": "https://dc.lft.to/lastmile_qr_scan", "android": "https://dc.lft.to/lastmile_qr_scan"}}, {"name": "70b0bbc0c16694a990452f3c8e7fe960", "type": "electric_scooter", "lat": 38.92470933333333, "is_reserved": 0, "lon": -77.02834816666666, "fusion_lon": 0.0, "is_disabled": 0, "fusion_lat": 0.0, "bike_id": "70b0bbc0c16694a990452f3c8e7fe960", "rental_uris": {"ios": "https://dc.lft.to/lastmile_qr_scan", "android": "https://dc.lft.to/lastmile_qr_scan"}}, {"name": "3e10fac39322531c30ec76c17b751ae8", "type": "electric_scooter", "lat": 38.91085833333333, "is_reserved": 0, "lon": -77.03846383333334, "fusion_lon": 0.0, "is_disabled": 0, "fusion_lat": 0.0, "bike_id": "3e10fac39322531c30ec76c17b751ae8", "rental_uris": {"ios": "https://dc.lft.to/lastmile_qr_scan", "android": "https://dc.lft.to/lastmile_qr_scan"}}, {"name": "204936242bbe3c27284a4d6d8984bc9b", "type": "electric_scooter", "lat": 38.893994, "is_reserved": 0, "lon": -76.94799516666667, "fusion_lon": 0.0, "is_disabled": 0, "fusion_lat": 0.0, "bike_id": "204936242bbe3c27284a4d6d8984bc9b", "rental_uris": {"ios": "https://dc.lft.to/lastmile_qr_scan", "android": "https://dc.lft.to/lastmile_qr_scan"}}, {"name": "53dd46bce31dfb0bc26f2cdaa262f791", "type": "electric_scooter", "lat": 38.905043, "is_reserved": 0, "lon": -77.06748216666666, "fusion_lon": 0.0, "is_disabled": 0, "fusion_lat": 0.0, "bike_id": "53dd46bce31dfb0bc26f2cdaa262f791", "rental_uris": {"ios": "https://dc.lft.to/lastmile_qr_scan", "android": "https://dc.lft.to/lastmile_qr_scan"}}, {"name": "86ffca178d79734a142aaac72623a3e3", "type": "electric_scooter", "lat": 38.931104833333336, "is_reserved": 0, "lon": -77.0383425, "fusion_lon": 0.0, "is_disabled": 0, "fusion_lat": 0.0, "bike_id": "86ffca178d79734a142aaac72623a3e3", "rental_uris": {"ios": "https://dc.lft.to/lastmile_qr_scan", "android": "https://dc.lft.to/lastmile_qr_scan"}}, {"name": "244032b5a37ee1af4f1bde696e371fa9", "type": "electric_bike", "lat": 38.89217166666667, "is_reserved": 0, "lon": -77.10774916666666, "fusion_lon": 0.0, "is_disabled": 0, "fusion_lat": 0.0, "bike_id": "244032b5a37ee1af4f1bde696e371fa9", "rental_uris": {"ios": "https://dc.lft.to/lastmile_qr_scan", "android": "https://dc.lft.to/lastmile_qr_scan"}}, {"name": "264c78a7c2c25f25aa91c0ad013e5fd8", "type": "electric_scooter", "lat": 38.942918666666664, "is_reserved": 0, "lon": -77.02176166666666, "fusion_lon": 0.0, "is_disabled": 0, "fusion_lat": 0.0, "bike_id": "264c78a7c2c25f25aa91c0ad013e5fd8", "rental_uris": {"ios": "https://dc.lft.to/lastmile_qr_scan", "android": "https://dc.lft.to/lastmile_qr_scan"}}, {"name": "e262076f4d2f1492ecd14e85fe8f1a08", "type": "electric_scooter", "lat": 38.933923, "is_reserved": 0, "lon": -77.03578416666667, "fusion_lon": 0.0, "is_disabled": 0, "fusion_lat": 0.0, "bike_id": "e262076f4d2f1492ecd14e85fe8f1a08", "rental_uris": {"ios": "https://dc.lft.to/lastmile_qr_scan", "android": "https://dc.lft.to/lastmile_qr_scan"}}, {"name": "b7cd78ec039f4c03a9a283432a50d6b9", "type": "electric_scooter", "lat": 38.9186515, "is_reserved": 0, "lon": -77.04029583333333, "fusion_lon": 0.0, "is_disabled": 0, "fusion_lat": 0.0, "bike_id": "b7cd78ec039f4c03a9a283432a50d6b9", "rental_uris": {"ios": "https://dc.lft.to/lastmile_qr_scan", "android": "https://dc.lft.to/lastmile_qr_scan"}}, {"name": "15e7f1ceb8df64ee5a731598b983f48c", "type": "electric_scooter", "lat": 38.932970166666664, "is_reserved": 0, "lon": -77.02854616666667, "fusion_lon": 0.0, "is_disabled": 0, "fusion_lat": 0.0, "bike_id": "15e7f1ceb8df64ee5a731598b983f48c", "rental_uris": {"ios": "https://dc.lft.to/lastmile_qr_scan", "android": "https://dc.lft.to/lastmile_qr_scan"}}, {"name": "39e031a75cf81e2bd15eb586b058c54f", "type": "electric_scooter", "lat": 38.912104166666666, "is_reserved": 0, "lon": -77.006526, "fusion_lon": 0.0, "is_disabled": 0, "fusion_lat": 0.0, "bike_id": "39e031a75cf81e2bd15eb586b058c54f", "rental_uris": {"ios": "https://dc.lft.to/lastmile_qr_scan", "android": "https://dc.lft.to/lastmile_qr_scan"}}, {"name": "b45412e59121567231dfc15769c42cc8", "type": "electric_scooter", "lat": 38.92713783333333, "is_reserved": 0, "lon": -77.02086716666666, "fusion_lon": 0.0, "is_disabled": 0, "fusion_lat": 0.0, "bike_id": "b45412e59121567231dfc15769c42cc8", "rental_uris": {"ios": "https://dc.lft.to/lastmile_qr_scan", "android": "https://dc.lft.to/lastmile_qr_scan"}}, {"name": "c89be34f537a385f4c6336ecff16a8f1", "type": "electric_scooter", "lat": 38.90529816666667, "is_reserved": 0, "lon": -77.05153983333334, "fusion_lon": 0.0, "is_disabled": 0, "fusion_lat": 0.0, "bike_id": "c89be34f537a385f4c6336ecff16a8f1", "rental_uris": {"ios": "https://dc.lft.to/lastmile_qr_scan", "android": "https://dc.lft.to/lastmile_qr_scan"}}, {"name": "a5d7f9a33e58dc5db3253e8bc495d083", "type": "electric_scooter", "lat": 38.902363, "is_reserved": 0, "lon": -77.05340183333334, "fusion_lon": 0.0, "is_disabled": 0, "fusion_lat": 0.0, "bike_id": "a5d7f9a33e58dc5db3253e8bc495d083", "rental_uris": {"ios": "https://dc.lft.to/lastmile_qr_scan", "android": "https://dc.lft.to/lastmile_qr_scan"}}, {"name": "ceb7235da8ec01e9687428fed911cfdd", "type": "electric_bike", "lat": 38.937163, "is_reserved": 0, "lon": -77.02098733333334, "fusion_lon": 0.0, "is_disabled": 0, "fusion_lat": 0.0, "bike_id": "ceb7235da8ec01e9687428fed911cfdd", "rental_uris": {"ios": "https://dc.lft.to/lastmile_qr_scan", "android": "https://dc.lft.to/lastmile_qr_scan"}}, {"name": "e43164f41de77dcbd7200efcb33c7259", "type": "electric_bike", "lat": 38.8747975, "is_reserved": 0, "lon": -76.96531666666667, "fusion_lon": 0.0, "is_disabled": 0, "fusion_lat": 0.0, "bike_id": "e43164f41de77dcbd7200efcb33c7259", "rental_uris": {"ios": "https://dc.lft.to/lastmile_qr_scan", "android": "https://dc.lft.to/lastmile_qr_scan"}}, {"name": "83227ba94e7a28e63c2a3c4a1430ff5a", "type": "electric_scooter", "lat": 38.92530166666667, "is_reserved": 0, "lon": -77.03520816666666, "fusion_lon": 0.0, "is_disabled": 0, "fusion_lat": 0.0, "bike_id": "83227ba94e7a28e63c2a3c4a1430ff5a", "rental_uris": {"ios": "https://dc.lft.to/lastmile_qr_scan", "android": "https://dc.lft.to/lastmile_qr_scan"}}, {"name": "d49d68bc3e166ce67b1425f6434a8a28", "type": "electric_scooter", "lat": 38.89800966666667, "is_reserved": 0, "lon": -77.026921, "fusion_lon": 0.0, "is_disabled": 0, "fusion_lat": 0.0, "bike_id": "d49d68bc3e166ce67b1425f6434a8a28", "rental_uris": {"ios": "https://dc.lft.to/lastmile_qr_scan", "android": "https://dc.lft.to/lastmile_qr_scan"}}, {"name": "a6036be5b2de0b569fdf10abefb76e0c", "type": "electric_scooter", "lat": 38.92164416666667, "is_reserved": 0, "lon": -77.026802, "fusion_lon": 0.0, "is_disabled": 0, "fusion_lat": 0.0, "bike_id": "a6036be5b2de0b569fdf10abefb76e0c", "rental_uris": {"ios": "https://dc.lft.to/lastmile_qr_scan", "android": "https://dc.lft.to/lastmile_qr_scan"}}, {"name": "aa9883d309d7980f7f6191212d4c57b7", "type": "electric_scooter", "lat": 38.917096666666666, "is_reserved": 0, "lon": -77.03345116666667, "fusion_lon": 0.0, "is_disabled": 0, "fusion_lat": 0.0, "bike_id": "aa9883d309d7980f7f6191212d4c57b7", "rental_uris": {"ios": "https://dc.lft.to/lastmile_qr_scan", "android": "https://dc.lft.to/lastmile_qr_scan"}}, {"name": "cff839e5309a1f1f7d9795350df334ae", "type": "electric_scooter", "lat": 38.90676, "is_reserved": 0, "lon": -77.03814416666667, "fusion_lon": 0.0, "is_disabled": 0, "fusion_lat": 0.0, "bike_id": "cff839e5309a1f1f7d9795350df334ae", "rental_uris": {"ios": "https://dc.lft.to/lastmile_qr_scan", "android": "https://dc.lft.to/lastmile_qr_scan"}}, {"name": "6f53a6220ea17e02c6174db1ab6e09e0", "type": "electric_scooter", "lat": 38.90879666666667, "is_reserved": 0, "lon": -77.04269116666667, "fusion_lon": 0.0, "is_disabled": 0, "fusion_lat": 0.0, "bike_id": "6f53a6220ea17e02c6174db1ab6e09e0", "rental_uris": {"ios": "https://dc.lft.to/lastmile_qr_scan", "android": "https://dc.lft.to/lastmile_qr_scan"}}, {"name": "e57331f8211b5463d9f8cba564f50900", "type": "electric_scooter", "lat": 38.893738666666664, "is_reserved": 0, "lon": -76.949871, "fusion_lon": 0.0, "is_disabled": 0, "fusion_lat": 0.0, "bike_id": "e57331f8211b5463d9f8cba564f50900", "rental_uris": {"ios": "https://dc.lft.to/lastmile_qr_scan", "android": "https://dc.lft.to/lastmile_qr_scan"}}, {"name": "189165f9bed66c16638de89af66384d1", "type": "electric_scooter", "lat": 38.93160483333333, "is_reserved": 0, "lon": -77.023529, "fusion_lon": 0.0, "is_disabled": 0, "fusion_lat": 0.0, "bike_id": "189165f9bed66c16638de89af66384d1", "rental_uris": {"ios": "https://dc.lft.to/lastmile_qr_scan", "android": "https://dc.lft.to/lastmile_qr_scan"}}, {"name": "17f045ebb806de4d5701eb6248d8cd91", "type": "electric_scooter", "lat": 38.90281616666667, "is_reserved": 0, "lon": -77.03372066666667, "fusion_lon": 0.0, "is_disabled": 0, "fusion_lat": 0.0, "bike_id": "17f045ebb806de4d5701eb6248d8cd91", "rental_uris": {"ios": "https://dc.lft.to/lastmile_qr_scan", "android": "https://dc.lft.to/lastmile_qr_scan"}}, {"name": "e2c8964c259872f33561f47b615e9008", "type": "electric_scooter", "lat": 38.862112, "is_reserved": 0, "lon": -76.99467616666666, "fusion_lon": 0.0, "is_disabled": 0, "fusion_lat": 0.0, "bike_id": "e2c8964c259872f33561f47b615e9008", "rental_uris": {"ios": "https://dc.lft.to/lastmile_qr_scan", "android": "https://dc.lft.to/lastmile_qr_scan"}}, {"name": "38f9d77674eb4ef20d571639d29a5050", "type": "electric_scooter", "lat": 38.90227933333333, "is_reserved": 0, "lon": -77.039741, "fusion_lon": 0.0, "is_disabled": 0, "fusion_lat": 0.0, "bike_id": "38f9d77674eb4ef20d571639d29a5050", "rental_uris": {"ios": "https://dc.lft.to/lastmile_qr_scan", "android": "https://dc.lft.to/lastmile_qr_scan"}}, {"name": "dd6769b5556e563c44c5ac2d3eb89c4d", "type": "electric_scooter", "lat": 38.93254366666667, "is_reserved": 0, "lon": -77.03275816666667, "fusion_lon": 0.0, "is_disabled": 0, "fusion_lat": 0.0, "bike_id": "dd6769b5556e563c44c5ac2d3eb89c4d", "rental_uris": {"ios": "https://dc.lft.to/lastmile_qr_scan", "android": "https://dc.lft.to/lastmile_qr_scan"}}, {"name": "2ee08707a3b2e5ef5e7bc0218e683705", "type": "electric_scooter", "lat": 38.928433166666665, "is_reserved": 0, "lon": -77.01369416666667, "fusion_lon": 0.0, "is_disabled": 0, "fusion_lat": 0.0, "bike_id": "2ee08707a3b2e5ef5e7bc0218e683705", "rental_uris": {"ios": "https://dc.lft.to/lastmile_qr_scan", "android": "https://dc.lft.to/lastmile_qr_scan"}}, {"name": "2ba4a5302394eae2488fc805af56be43", "type": "electric_scooter", "lat": 38.92252166666667, "is_reserved": 0, "lon": -77.01946383333333, "fusion_lon": 0.0, "is_disabled": 0, "fusion_lat": 0.0, "bike_id": "2ba4a5302394eae2488fc805af56be43", "rental_uris": {"ios": "https://dc.lft.to/lastmile_qr_scan", "android": "https://dc.lft.to/lastmile_qr_scan"}}, {"name": "fa3416546ce10303a4bad807ccbc9fe8", "type": "electric_bike", "lat": 38.81311566666667, "is_reserved": 0, "lon": -77.05095733333333, "fusion_lon": 0.0, "is_disabled": 0, "fusion_lat": 0.0, "bike_id": "fa3416546ce10303a4bad807ccbc9fe8", "rental_uris": {"ios": "https://dc.lft.to/lastmile_qr_scan", "android": "https://dc.lft.to/lastmile_qr_scan"}}, {"name": "9a2d0e31055bf23b619b271785b32805", "type": "electric_scooter", "lat": 38.924539833333334, "is_reserved": 0, "lon": -77.0328425, "fusion_lon": 0.0, "is_disabled": 0, "fusion_lat": 0.0, "bike_id": "9a2d0e31055bf23b619b271785b32805", "rental_uris": {"ios": "https://dc.lft.to/lastmile_qr_scan", "android": "https://dc.lft.to/lastmile_qr_scan"}}, {"name": "c010d04e52988329c92464c9e83707a0", "type": "electric_scooter", "lat": 38.8767375, "is_reserved": 0, "lon": -77.01782, "fusion_lon": 0.0, "is_disabled": 0, "fusion_lat": 0.0, "bike_id": "c010d04e52988329c92464c9e83707a0", "rental_uris": {"ios": "https://dc.lft.to/lastmile_qr_scan", "android": "https://dc.lft.to/lastmile_qr_scan"}}, {"name": "170f54ba0c9e082619f279a90387ebca", "type": "electric_scooter", "lat": 38.91410533333333, "is_reserved": 0, "lon": -77.0381015, "fusion_lon": 0.0, "is_disabled": 0, "fusion_lat": 0.0, "bike_id": "170f54ba0c9e082619f279a90387ebca", "rental_uris": {"ios": "https://dc.lft.to/lastmile_qr_scan", "android": "https://dc.lft.to/lastmile_qr_scan"}}, {"name": "0bfa8787582195b7fadd32193f79b569", "type": "electric_scooter", "lat": 38.902679166666665, "is_reserved": 0, "lon": -77.01761166666667, "fusion_lon": 0.0, "is_disabled": 0, "fusion_lat": 0.0, "bike_id": "0bfa8787582195b7fadd32193f79b569", "rental_uris": {"ios": "https://dc.lft.to/lastmile_qr_scan", "android": "https://dc.lft.to/lastmile_qr_scan"}}, {"name": "b603092ab868e103779f5110f9637f55", "type": "electric_scooter", "lat": 38.89554583333334, "is_reserved": 0, "lon": -76.95028866666667, "fusion_lon": 0.0, "is_disabled": 0, "fusion_lat": 0.0, "bike_id": "b603092ab868e103779f5110f9637f55", "rental_uris": {"ios": "https://dc.lft.to/lastmile_qr_scan", "android": "https://dc.lft.to/lastmile_qr_scan"}}, {"name": "396965e74024d367260f75f78cf35f35", "type": "electric_scooter", "lat": 38.92152683333333, "is_reserved": 0, "lon": -77.033491, "fusion_lon": 0.0, "is_disabled": 0, "fusion_lat": 0.0, "bike_id": "396965e74024d367260f75f78cf35f35", "rental_uris": {"ios": "https://dc.lft.to/lastmile_qr_scan", "android": "https://dc.lft.to/lastmile_qr_scan"}}, {"name": "68c814978d69c014215507ceec26201e", "type": "electric_scooter", "lat": 38.92156716666667, "is_reserved": 0, "lon": -77.03847266666666, "fusion_lon": 0.0, "is_disabled": 0, "fusion_lat": 0.0, "bike_id": "68c814978d69c014215507ceec26201e", "rental_uris": {"ios": "https://dc.lft.to/lastmile_qr_scan", "android": "https://dc.lft.to/lastmile_qr_scan"}}, {"name": "98ab11bdb578ca31c9971dacb87a8ed0", "type": "electric_scooter", "lat": 38.90449516666666, "is_reserved": 0, "lon": -77.05143516666666, "fusion_lon": 0.0, "is_disabled": 0, "fusion_lat": 0.0, "bike_id": "98ab11bdb578ca31c9971dacb87a8ed0", "rental_uris": {"ios": "https://dc.lft.to/lastmile_qr_scan", "android": "https://dc.lft.to/lastmile_qr_scan"}}, {"name": "8d1e5616148fd3b44f7a64561754c198", "type": "electric_scooter", "lat": 38.91917733333333, "is_reserved": 0, "lon": -77.0342195, "fusion_lon": 0.0, "is_disabled": 0, "fusion_lat": 0.0, "bike_id": "8d1e5616148fd3b44f7a64561754c198", "rental_uris": {"ios": "https://dc.lft.to/lastmile_qr_scan", "android": "https://dc.lft.to/lastmile_qr_scan"}}, {"name": "536520d5754a168ae0a92a0ce9a1b922", "type": "electric_scooter", "lat": 38.906634833333335, "is_reserved": 0, "lon": -77.0385875, "fusion_lon": 0.0, "is_disabled": 0, "fusion_lat": 0.0, "bike_id": "536520d5754a168ae0a92a0ce9a1b922", "rental_uris": {"ios": "https://dc.lft.to/lastmile_qr_scan", "android": "https://dc.lft.to/lastmile_qr_scan"}}, {"name": "e7b5bb788b9dea9a24ceeb96ad03efb8", "type": "electric_scooter", "lat": 38.92018683333333, "is_reserved": 0, "lon": -77.03869666666667, "fusion_lon": 0.0, "is_disabled": 0, "fusion_lat": 0.0, "bike_id": "e7b5bb788b9dea9a24ceeb96ad03efb8", "rental_uris": {"ios": "https://dc.lft.to/lastmile_qr_scan", "android": "https://dc.lft.to/lastmile_qr_scan"}}, {"name": "c9a318c3402d4b61b2a3f63a608173d2", "type": "electric_scooter", "lat": 38.922476833333334, "is_reserved": 0, "lon": -77.03086783333333, "fusion_lon": 0.0, "is_disabled": 0, "fusion_lat": 0.0, "bike_id": "c9a318c3402d4b61b2a3f63a608173d2", "rental_uris": {"ios": "https://dc.lft.to/lastmile_qr_scan", "android": "https://dc.lft.to/lastmile_qr_scan"}}, {"name": "fcd55bd50d9a9027826a280d6e60cd29", "type": "electric_scooter", "lat": 38.8850905, "is_reserved": 0, "lon": -77.033468, "fusion_lon": 0.0, "is_disabled": 0, "fusion_lat": 0.0, "bike_id": "fcd55bd50d9a9027826a280d6e60cd29", "rental_uris": {"ios": "https://dc.lft.to/lastmile_qr_scan", "android": "https://dc.lft.to/lastmile_qr_scan"}}, {"name": "caa8d3c12262716d081f435da3726870", "type": "electric_scooter", "lat": 38.90409366666667, "is_reserved": 0, "lon": -76.97326366666667, "fusion_lon": 0.0, "is_disabled": 0, "fusion_lat": 0.0, "bike_id": "caa8d3c12262716d081f435da3726870", "rental_uris": {"ios": "https://dc.lft.to/lastmile_qr_scan", "android": "https://dc.lft.to/lastmile_qr_scan"}}, {"name": "811dbac6049d25f838330c6f6dd01e5a", "type": "electric_scooter", "lat": 38.885212833333334, "is_reserved": 0, "lon": -76.97710083333334, "fusion_lon": 0.0, "is_disabled": 0, "fusion_lat": 0.0, "bike_id": "811dbac6049d25f838330c6f6dd01e5a", "rental_uris": {"ios": "https://dc.lft.to/lastmile_qr_scan", "android": "https://dc.lft.to/lastmile_qr_scan"}}, {"name": "3c240da4a5f4ec59a67f658e88ce8bad", "type": "electric_scooter", "lat": 38.892211333333336, "is_reserved": 0, "lon": -77.032088, "fusion_lon": 0.0, "is_disabled": 0, "fusion_lat": 0.0, "bike_id": "3c240da4a5f4ec59a67f658e88ce8bad", "rental_uris": {"ios": "https://dc.lft.to/lastmile_qr_scan", "android": "https://dc.lft.to/lastmile_qr_scan"}}, {"name": "37968fd837d422328c04845b40e8b968", "type": "electric_scooter", "lat": 38.90265333333333, "is_reserved": 0, "lon": -77.05311866666666, "fusion_lon": 0.0, "is_disabled": 0, "fusion_lat": 0.0, "bike_id": "37968fd837d422328c04845b40e8b968", "rental_uris": {"ios": "https://dc.lft.to/lastmile_qr_scan", "android": "https://dc.lft.to/lastmile_qr_scan"}}, {"name": "e9285c98b3aef56557cdd37956734408", "type": "electric_scooter", "lat": 38.9087265, "is_reserved": 0, "lon": -77.04319583333333, "fusion_lon": 0.0, "is_disabled": 0, "fusion_lat": 0.0, "bike_id": "e9285c98b3aef56557cdd37956734408", "rental_uris": {"ios": "https://dc.lft.to/lastmile_qr_scan", "android": "https://dc.lft.to/lastmile_qr_scan"}}, {"name": "c2968c5a1b074e9489fa1dab9cfaea86", "type": "electric_scooter", "lat": 38.93168883333333, "is_reserved": 0, "lon": -77.02846666666667, "fusion_lon": 0.0, "is_disabled": 0, "fusion_lat": 0.0, "bike_id": "c2968c5a1b074e9489fa1dab9cfaea86", "rental_uris": {"ios": "https://dc.lft.to/lastmile_qr_scan", "android": "https://dc.lft.to/lastmile_qr_scan"}}, {"name": "734283b2e8876050818b531aba0b124d", "type": "electric_scooter", "lat": 38.910120166666665, "is_reserved": 0, "lon": -77.02200966666666, "fusion_lon": 0.0, "is_disabled": 0, "fusion_lat": 0.0, "bike_id": "734283b2e8876050818b531aba0b124d", "rental_uris": {"ios": "https://dc.lft.to/lastmile_qr_scan", "android": "https://dc.lft.to/lastmile_qr_scan"}}, {"name": "f5fdf936f877c46f5b9a27149697c10c", "type": "electric_bike", "lat": 38.8826725, "is_reserved": 0, "lon": -76.999346, "fusion_lon": 0.0, "is_disabled": 0, "fusion_lat": 0.0, "bike_id": "f5fdf936f877c46f5b9a27149697c10c", "rental_uris": {"ios": "https://dc.lft.to/lastmile_qr_scan", "android": "https://dc.lft.to/lastmile_qr_scan"}}, {"name": "785634c2de21af4c1171d08d1b7b78ff", "type": "electric_scooter", "lat": 38.90437466666667, "is_reserved": 0, "lon": -76.9848745, "fusion_lon": 0.0, "is_disabled": 0, "fusion_lat": 0.0, "bike_id": "785634c2de21af4c1171d08d1b7b78ff", "rental_uris": {"ios": "https://dc.lft.to/lastmile_qr_scan", "android": "https://dc.lft.to/lastmile_qr_scan"}}, {"name": "51d083550f35c16b55406b02ad076536", "type": "electric_scooter", "lat": 38.940135166666664, "is_reserved": 0, "lon": -77.07168666666666, "fusion_lon": 0.0, "is_disabled": 0, "fusion_lat": 0.0, "bike_id": "51d083550f35c16b55406b02ad076536", "rental_uris": {"ios": "https://dc.lft.to/lastmile_qr_scan", "android": "https://dc.lft.to/lastmile_qr_scan"}}, {"name": "13a0905a1e2ec7a3097310f58a66aa82", "type": "electric_scooter", "lat": 38.91695166666667, "is_reserved": 0, "lon": -77.01231816666666, "fusion_lon": 0.0, "is_disabled": 0, "fusion_lat": 0.0, "bike_id": "13a0905a1e2ec7a3097310f58a66aa82", "rental_uris": {"ios": "https://dc.lft.to/lastmile_qr_scan", "android": "https://dc.lft.to/lastmile_qr_scan"}}, {"name": "13521fb688e7deff939fa191797a3ed6", "type": "electric_bike", "lat": 38.89838266666667, "is_reserved": 0, "lon": -77.00578833333333, "fusion_lon": 0.0, "is_disabled": 0, "fusion_lat": 0.0, "bike_id": "13521fb688e7deff939fa191797a3ed6", "rental_uris": {"ios": "https://dc.lft.to/lastmile_qr_scan", "android": "https://dc.lft.to/lastmile_qr_scan"}}, {"name": "2c02927000f31557b9e68ff44675d76e", "type": "electric_scooter", "lat": 38.9164445, "is_reserved": 0, "lon": -77.03197066666667, "fusion_lon": 0.0, "is_disabled": 0, "fusion_lat": 0.0, "bike_id": "2c02927000f31557b9e68ff44675d76e", "rental_uris": {"ios": "https://dc.lft.to/lastmile_qr_scan", "android": "https://dc.lft.to/lastmile_qr_scan"}}, {"name": "8eb4b8857c4dd3da62dc8ffd699e9ff0", "type": "electric_scooter", "lat": 38.8991935, "is_reserved": 0, "lon": -76.93381783333334, "fusion_lon": 0.0, "is_disabled": 0, "fusion_lat": 0.0, "bike_id": "8eb4b8857c4dd3da62dc8ffd699e9ff0", "rental_uris": {"ios": "https://dc.lft.to/lastmile_qr_scan", "android": "https://dc.lft.to/lastmile_qr_scan"}}, {"name": "ae039739c497589e1b50ba229c951f97", "type": "electric_bike", "lat": 38.9116465, "is_reserved": 0, "lon": -77.00283433333334, "fusion_lon": 0.0, "is_disabled": 0, "fusion_lat": 0.0, "bike_id": "ae039739c497589e1b50ba229c951f97", "rental_uris": {"ios": "https://dc.lft.to/lastmile_qr_scan", "android": "https://dc.lft.to/lastmile_qr_scan"}}, {"name": "6c96953718d8fd42d24c29c7871bd625", "type": "electric_scooter", "lat": 38.95732266666667, "is_reserved": 0, "lon": -77.02401783333333, "fusion_lon": 0.0, "is_disabled": 0, "fusion_lat": 0.0, "bike_id": "6c96953718d8fd42d24c29c7871bd625", "rental_uris": {"ios": "https://dc.lft.to/lastmile_qr_scan", "android": "https://dc.lft.to/lastmile_qr_scan"}}, {"name": "bfb1ae8994b3b4e6f3b68cdb6208a0a0", "type": "electric_scooter", "lat": 38.922338333333336, "is_reserved": 0, "lon": -77.04619516666666, "fusion_lon": 0.0, "is_disabled": 0, "fusion_lat": 0.0, "bike_id": "bfb1ae8994b3b4e6f3b68cdb6208a0a0", "rental_uris": {"ios": "https://dc.lft.to/lastmile_qr_scan", "android": "https://dc.lft.to/lastmile_qr_scan"}}, {"name": "02e8447e23b29b8676022cb1a00153b0", "type": "electric_scooter", "lat": 38.901425, "is_reserved": 0, "lon": -77.04507816666667, "fusion_lon": 0.0, "is_disabled": 0, "fusion_lat": 0.0, "bike_id": "02e8447e23b29b8676022cb1a00153b0", "rental_uris": {"ios": "https://dc.lft.to/lastmile_qr_scan", "android": "https://dc.lft.to/lastmile_qr_scan"}}, {"name": "e2756e95ec47eef9865bfd2d88e85973", "type": "electric_scooter", "lat": 38.90240166666667, "is_reserved": 0, "lon": -76.97928916666666, "fusion_lon": 0.0, "is_disabled": 0, "fusion_lat": 0.0, "bike_id": "e2756e95ec47eef9865bfd2d88e85973", "rental_uris": {"ios": "https://dc.lft.to/lastmile_qr_scan", "android": "https://dc.lft.to/lastmile_qr_scan"}}, {"name": "a59b9ddff4c8c30b9cd707d2a3fe6abd", "type": "electric_bike", "lat": 38.8515755, "is_reserved": 0, "lon": -77.12875266666667, "fusion_lon": 0.0, "is_disabled": 0, "fusion_lat": 0.0, "bike_id": "a59b9ddff4c8c30b9cd707d2a3fe6abd", "rental_uris": {"ios": "https://dc.lft.to/lastmile_qr_scan", "android": "https://dc.lft.to/lastmile_qr_scan"}}, {"name": "c8647174365196da1756bbaac5e2583a", "type": "electric_bike", "lat": 38.884011666666666, "is_reserved": 0, "lon": -77.04645216666667, "fusion_lon": 0.0, "is_disabled": 0, "fusion_lat": 0.0, "bike_id": "c8647174365196da1756bbaac5e2583a", "rental_uris": {"ios": "https://dc.lft.to/lastmile_qr_scan", "android": "https://dc.lft.to/lastmile_qr_scan"}}, {"name": "9b7fcaaf4b018ee71732d11da7410add", "type": "electric_scooter", "lat": 38.9065565, "is_reserved": 0, "lon": -77.04285533333334, "fusion_lon": 0.0, "is_disabled": 0, "fusion_lat": 0.0, "bike_id": "9b7fcaaf4b018ee71732d11da7410add", "rental_uris": {"ios": "https://dc.lft.to/lastmile_qr_scan", "android": "https://dc.lft.to/lastmile_qr_scan"}}, {"name": "846f0f779d1687b003114fff0182341e", "type": "electric_scooter", "lat": 38.928627666666664, "is_reserved": 0, "lon": -77.0330855, "fusion_lon": 0.0, "is_disabled": 0, "fusion_lat": 0.0, "bike_id": "846f0f779d1687b003114fff0182341e", "rental_uris": {"ios": "https://dc.lft.to/lastmile_qr_scan", "android": "https://dc.lft.to/lastmile_qr_scan"}}, {"name": "e98eee2251aaaa0bce3b6d6d1ad3ad48", "type": "electric_scooter", "lat": 38.894729833333336, "is_reserved": 0, "lon": -76.98402333333334, "fusion_lon": 0.0, "is_disabled": 0, "fusion_lat": 0.0, "bike_id": "e98eee2251aaaa0bce3b6d6d1ad3ad48", "rental_uris": {"ios": "https://dc.lft.to/lastmile_qr_scan", "android": "https://dc.lft.to/lastmile_qr_scan"}}, {"name": "f90695a8be3e00f5102e876efc9bd6aa", "type": "electric_scooter", "lat": 38.86568883333333, "is_reserved": 0, "lon": -76.98947016666666, "fusion_lon": 0.0, "is_disabled": 0, "fusion_lat": 0.0, "bike_id": "f90695a8be3e00f5102e876efc9bd6aa", "rental_uris": {"ios": "https://dc.lft.to/lastmile_qr_scan", "android": "https://dc.lft.to/lastmile_qr_scan"}}, {"name": "800f067c4a2eab5471f47ab307bc8623", "type": "electric_scooter", "lat": 38.93060283333333, "is_reserved": 0, "lon": -77.03942633333334, "fusion_lon": 0.0, "is_disabled": 0, "fusion_lat": 0.0, "bike_id": "800f067c4a2eab5471f47ab307bc8623", "rental_uris": {"ios": "https://dc.lft.to/lastmile_qr_scan", "android": "https://dc.lft.to/lastmile_qr_scan"}}, {"name": "b3ca10394d465a573bc5c636a38f7d87", "type": "electric_scooter", "lat": 38.943115666666664, "is_reserved": 0, "lon": -77.05915133333333, "fusion_lon": 0.0, "is_disabled": 0, "fusion_lat": 0.0, "bike_id": "b3ca10394d465a573bc5c636a38f7d87", "rental_uris": {"ios": "https://dc.lft.to/lastmile_qr_scan", "android": "https://dc.lft.to/lastmile_qr_scan"}}, {"name": "aaee45feacf2f28dc295d3cc0253c0ac", "type": "electric_scooter", "lat": 38.8789545, "is_reserved": 0, "lon": -77.02201916666667, "fusion_lon": 0.0, "is_disabled": 0, "fusion_lat": 0.0, "bike_id": "aaee45feacf2f28dc295d3cc0253c0ac", "rental_uris": {"ios": "https://dc.lft.to/lastmile_qr_scan", "android": "https://dc.lft.to/lastmile_qr_scan"}}, {"name": "90d427a1a4e855e77a53fe86d56cf3b2", "type": "electric_bike", "lat": 38.85436116666666, "is_reserved": 0, "lon": -77.117051, "fusion_lon": 0.0, "is_disabled": 0, "fusion_lat": 0.0, "bike_id": "90d427a1a4e855e77a53fe86d56cf3b2", "rental_uris": {"ios": "https://dc.lft.to/lastmile_qr_scan", "android": "https://dc.lft.to/lastmile_qr_scan"}}, {"name": "3e9d844a948af758e08af5aa55f49ccf", "type": "electric_scooter", "lat": 38.89742233333333, "is_reserved": 0, "lon": -77.04680116666667, "fusion_lon": 0.0, "is_disabled": 0, "fusion_lat": 0.0, "bike_id": "3e9d844a948af758e08af5aa55f49ccf", "rental_uris": {"ios": "https://dc.lft.to/lastmile_qr_scan", "android": "https://dc.lft.to/lastmile_qr_scan"}}, {"name": "a4bdc4f5ab9146f85d4809277ce5beb1", "type": "electric_scooter", "lat": 38.910600333333335, "is_reserved": 0, "lon": -77.03029483333333, "fusion_lon": 0.0, "is_disabled": 0, "fusion_lat": 0.0, "bike_id": "a4bdc4f5ab9146f85d4809277ce5beb1", "rental_uris": {"ios": "https://dc.lft.to/lastmile_qr_scan", "android": "https://dc.lft.to/lastmile_qr_scan"}}, {"name": "ce126c28e7ceeff3af38939daf02769f", "type": "electric_scooter", "lat": 38.89745, "is_reserved": 0, "lon": -77.04686683333334, "fusion_lon": 0.0, "is_disabled": 0, "fusion_lat": 0.0, "bike_id": "ce126c28e7ceeff3af38939daf02769f", "rental_uris": {"ios": "https://dc.lft.to/lastmile_qr_scan", "android": "https://dc.lft.to/lastmile_qr_scan"}}, {"name": "db2a09909408454d7c7bccbb66698f1f", "type": "electric_scooter", "lat": 38.92685566666667, "is_reserved": 0, "lon": -77.02158533333333, "fusion_lon": 0.0, "is_disabled": 0, "fusion_lat": 0.0, "bike_id": "db2a09909408454d7c7bccbb66698f1f", "rental_uris": {"ios": "https://dc.lft.to/lastmile_qr_scan", "android": "https://dc.lft.to/lastmile_qr_scan"}}, {"name": "fa8c2d857bb4e6c26457107640b2ae7a", "type": "electric_scooter", "lat": 38.920596, "is_reserved": 0, "lon": -77.032241, "fusion_lon": 0.0, "is_disabled": 0, "fusion_lat": 0.0, "bike_id": "fa8c2d857bb4e6c26457107640b2ae7a", "rental_uris": {"ios": "https://dc.lft.to/lastmile_qr_scan", "android": "https://dc.lft.to/lastmile_qr_scan"}}, {"name": "0a185d9c5805ae1add17e8377c7f35d5", "type": "electric_scooter", "lat": 38.895273333333336, "is_reserved": 0, "lon": -77.01607016666667, "fusion_lon": 0.0, "is_disabled": 0, "fusion_lat": 0.0, "bike_id": "0a185d9c5805ae1add17e8377c7f35d5", "rental_uris": {"ios": "https://dc.lft.to/lastmile_qr_scan", "android": "https://dc.lft.to/lastmile_qr_scan"}}, {"name": "d30c77cd4e0b4541f0863f39dabed7d1", "type": "electric_scooter", "lat": 38.907947666666665, "is_reserved": 0, "lon": -76.99700433333334, "fusion_lon": 0.0, "is_disabled": 0, "fusion_lat": 0.0, "bike_id": "d30c77cd4e0b4541f0863f39dabed7d1", "rental_uris": {"ios": "https://dc.lft.to/lastmile_qr_scan", "android": "https://dc.lft.to/lastmile_qr_scan"}}, {"name": "8e4d39a0b8123de27e43dbcad939be82", "type": "electric_bike", "lat": 38.948878, "is_reserved": 0, "lon": -77.01924266666667, "fusion_lon": 0.0, "is_disabled": 0, "fusion_lat": 0.0, "bike_id": "8e4d39a0b8123de27e43dbcad939be82", "rental_uris": {"ios": "https://dc.lft.to/lastmile_qr_scan", "android": "https://dc.lft.to/lastmile_qr_scan"}}, {"name": "af881195295879fc50d2a38a8d264ef7", "type": "electric_scooter", "lat": 38.935011333333335, "is_reserved": 0, "lon": -77.02853783333333, "fusion_lon": 0.0, "is_disabled": 0, "fusion_lat": 0.0, "bike_id": "af881195295879fc50d2a38a8d264ef7", "rental_uris": {"ios": "https://dc.lft.to/lastmile_qr_scan", "android": "https://dc.lft.to/lastmile_qr_scan"}}, {"name": "e40b9332c4e0c4e24a0212cc0870d0f7", "type": "electric_scooter", "lat": 38.9071835, "is_reserved": 0, "lon": -77.02504783333333, "fusion_lon": 0.0, "is_disabled": 0, "fusion_lat": 0.0, "bike_id": "e40b9332c4e0c4e24a0212cc0870d0f7", "rental_uris": {"ios": "https://dc.lft.to/lastmile_qr_scan", "android": "https://dc.lft.to/lastmile_qr_scan"}}, {"name": "5beafc87d55324b129518fec17f36d5e", "type": "electric_bike", "lat": 38.918074833333336, "is_reserved": 0, "lon": -77.0330265, "fusion_lon": 0.0, "is_disabled": 0, "fusion_lat": 0.0, "bike_id": "5beafc87d55324b129518fec17f36d5e", "rental_uris": {"ios": "https://dc.lft.to/lastmile_qr_scan", "android": "https://dc.lft.to/lastmile_qr_scan"}}, {"name": "31b9e748689636b37e36d85a9738f5c0", "type": "electric_scooter", "lat": 38.941792666666665, "is_reserved": 0, "lon": -77.030889, "fusion_lon": 0.0, "is_disabled": 0, "fusion_lat": 0.0, "bike_id": "31b9e748689636b37e36d85a9738f5c0", "rental_uris": {"ios": "https://dc.lft.to/lastmile_qr_scan", "android": "https://dc.lft.to/lastmile_qr_scan"}}, {"name": "712c9a247529cda1314d1d5f43bd97b3", "type": "electric_scooter", "lat": 38.9060475, "is_reserved": 0, "lon": -77.01319333333333, "fusion_lon": 0.0, "is_disabled": 0, "fusion_lat": 0.0, "bike_id": "712c9a247529cda1314d1d5f43bd97b3", "rental_uris": {"ios": "https://dc.lft.to/lastmile_qr_scan", "android": "https://dc.lft.to/lastmile_qr_scan"}}, {"name": "1ada892b0495baca6a1ff0ee306bbadf", "type": "electric_scooter", "lat": 38.92001783333333, "is_reserved": 0, "lon": -77.032168, "fusion_lon": 0.0, "is_disabled": 0, "fusion_lat": 0.0, "bike_id": "1ada892b0495baca6a1ff0ee306bbadf", "rental_uris": {"ios": "https://dc.lft.to/lastmile_qr_scan", "android": "https://dc.lft.to/lastmile_qr_scan"}}, {"name": "30cbb3ced1239423202221fbd0894bb1", "type": "electric_scooter", "lat": 38.924792, "is_reserved": 0, "lon": -77.0283585, "fusion_lon": 0.0, "is_disabled": 0, "fusion_lat": 0.0, "bike_id": "30cbb3ced1239423202221fbd0894bb1", "rental_uris": {"ios": "https://dc.lft.to/lastmile_qr_scan", "android": "https://dc.lft.to/lastmile_qr_scan"}}, {"name": "f2cdd582926fbba51a1b363bb88079bd", "type": "electric_scooter", "lat": 38.92882, "is_reserved": 0, "lon": -77.0375735, "fusion_lon": 0.0, "is_disabled": 0, "fusion_lat": 0.0, "bike_id": "f2cdd582926fbba51a1b363bb88079bd", "rental_uris": {"ios": "https://dc.lft.to/lastmile_qr_scan", "android": "https://dc.lft.to/lastmile_qr_scan"}}, {"name": "aae64402ec13a5faa633d091a69b2438", "type": "electric_scooter", "lat": 38.87845466666667, "is_reserved": 0, "lon": -77.01963316666667, "fusion_lon": 0.0, "is_disabled": 0, "fusion_lat": 0.0, "bike_id": "aae64402ec13a5faa633d091a69b2438", "rental_uris": {"ios": "https://dc.lft.to/lastmile_qr_scan", "android": "https://dc.lft.to/lastmile_qr_scan"}}, {"name": "5c81b841b77759bc34b5a0c05f52f55b", "type": "electric_scooter", "lat": 38.915584333333335, "is_reserved": 0, "lon": -77.021818, "fusion_lon": 0.0, "is_disabled": 0, "fusion_lat": 0.0, "bike_id": "5c81b841b77759bc34b5a0c05f52f55b", "rental_uris": {"ios": "https://dc.lft.to/lastmile_qr_scan", "android": "https://dc.lft.to/lastmile_qr_scan"}}, {"name": "c41c395b219ac377cb7ae89f4ef91c6c", "type": "electric_scooter", "lat": 38.89927733333333, "is_reserved": 0, "lon": -77.03109683333334, "fusion_lon": 0.0, "is_disabled": 0, "fusion_lat": 0.0, "bike_id": "c41c395b219ac377cb7ae89f4ef91c6c", "rental_uris": {"ios": "https://dc.lft.to/lastmile_qr_scan", "android": "https://dc.lft.to/lastmile_qr_scan"}}, {"name": "fca1f7d0e5214e418ed84bd232c3fee3", "type": "electric_bike", "lat": 38.95908416666666, "is_reserved": 0, "lon": -77.00151966666667, "fusion_lon": 0.0, "is_disabled": 0, "fusion_lat": 0.0, "bike_id": "fca1f7d0e5214e418ed84bd232c3fee3", "rental_uris": {"ios": "https://dc.lft.to/lastmile_qr_scan", "android": "https://dc.lft.to/lastmile_qr_scan"}}, {"name": "035554f76367cdca129cc224af8e5a30", "type": "electric_scooter", "lat": 38.921456166666665, "is_reserved": 0, "lon": -77.03453266666666, "fusion_lon": 0.0, "is_disabled": 0, "fusion_lat": 0.0, "bike_id": "035554f76367cdca129cc224af8e5a30", "rental_uris": {"ios": "https://dc.lft.to/lastmile_qr_scan", "android": "https://dc.lft.to/lastmile_qr_scan"}}, {"name": "caa56e258517ad95eae80550458ae928", "type": "electric_scooter", "lat": 38.854540166666666, "is_reserved": 0, "lon": -76.98576333333334, "fusion_lon": 0.0, "is_disabled": 0, "fusion_lat": 0.0, "bike_id": "caa56e258517ad95eae80550458ae928", "rental_uris": {"ios": "https://dc.lft.to/lastmile_qr_scan", "android": "https://dc.lft.to/lastmile_qr_scan"}}, {"name": "8bf75310edfdfbb2190556cf5295ab46", "type": "electric_scooter", "lat": 38.91864783333333, "is_reserved": 0, "lon": -77.043512, "fusion_lon": 0.0, "is_disabled": 0, "fusion_lat": 0.0, "bike_id": "8bf75310edfdfbb2190556cf5295ab46", "rental_uris": {"ios": "https://dc.lft.to/lastmile_qr_scan", "android": "https://dc.lft.to/lastmile_qr_scan"}}, {"name": "07e8b0f99374b666666457df2f1b6a56", "type": "electric_scooter", "lat": 38.94103616666666, "is_reserved": 0, "lon": -77.021087, "fusion_lon": 0.0, "is_disabled": 0, "fusion_lat": 0.0, "bike_id": "07e8b0f99374b666666457df2f1b6a56", "rental_uris": {"ios": "https://dc.lft.to/lastmile_qr_scan", "android": "https://dc.lft.to/lastmile_qr_scan"}}, {"name": "1c3422ae0bd38eef4cabd69b2949c638", "type": "electric_scooter", "lat": 38.923329333333335, "is_reserved": 0, "lon": -77.047439, "fusion_lon": 0.0, "is_disabled": 0, "fusion_lat": 0.0, "bike_id": "1c3422ae0bd38eef4cabd69b2949c638", "rental_uris": {"ios": "https://dc.lft.to/lastmile_qr_scan", "android": "https://dc.lft.to/lastmile_qr_scan"}}, {"name": "c6c2d5c80bcfc69746c2bf28bcaff596", "type": "electric_scooter", "lat": 38.9154945, "is_reserved": 0, "lon": -77.038517, "fusion_lon": 0.0, "is_disabled": 0, "fusion_lat": 0.0, "bike_id": "c6c2d5c80bcfc69746c2bf28bcaff596", "rental_uris": {"ios": "https://dc.lft.to/lastmile_qr_scan", "android": "https://dc.lft.to/lastmile_qr_scan"}}, {"name": "904d00e95b95940333746a5ed64a39e5", "type": "electric_scooter", "lat": 38.898258166666665, "is_reserved": 0, "lon": -76.946481, "fusion_lon": 0.0, "is_disabled": 0, "fusion_lat": 0.0, "bike_id": "904d00e95b95940333746a5ed64a39e5", "rental_uris": {"ios": "https://dc.lft.to/lastmile_qr_scan", "android": "https://dc.lft.to/lastmile_qr_scan"}}, {"name": "8130641b4c9eaa3be29a0fd335c19c86", "type": "electric_scooter", "lat": 38.89830933333333, "is_reserved": 0, "lon": -76.94648416666666, "fusion_lon": 0.0, "is_disabled": 0, "fusion_lat": 0.0, "bike_id": "8130641b4c9eaa3be29a0fd335c19c86", "rental_uris": {"ios": "https://dc.lft.to/lastmile_qr_scan", "android": "https://dc.lft.to/lastmile_qr_scan"}}, {"name": "d97aeb9c1d4d96b5fa9406d60178f095", "type": "electric_scooter", "lat": 38.89222933333333, "is_reserved": 0, "lon": -77.048669, "fusion_lon": 0.0, "is_disabled": 0, "fusion_lat": 0.0, "bike_id": "d97aeb9c1d4d96b5fa9406d60178f095", "rental_uris": {"ios": "https://dc.lft.to/lastmile_qr_scan", "android": "https://dc.lft.to/lastmile_qr_scan"}}, {"name": "d7f6588cc16c64bcf0e22b5c1aa0543c", "type": "electric_scooter", "lat": 38.9225015, "is_reserved": 0, "lon": -77.0346135, "fusion_lon": 0.0, "is_disabled": 0, "fusion_lat": 0.0, "bike_id": "d7f6588cc16c64bcf0e22b5c1aa0543c", "rental_uris": {"ios": "https://dc.lft.to/lastmile_qr_scan", "android": "https://dc.lft.to/lastmile_qr_scan"}}, {"name": "3c25d99ee19b918cf0210a7bbe55b892", "type": "electric_scooter", "lat": 38.887753833333335, "is_reserved": 0, "lon": -76.93262933333334, "fusion_lon": 0.0, "is_disabled": 0, "fusion_lat": 0.0, "bike_id": "3c25d99ee19b918cf0210a7bbe55b892", "rental_uris": {"ios": "https://dc.lft.to/lastmile_qr_scan", "android": "https://dc.lft.to/lastmile_qr_scan"}}, {"name": "6f6d4faec52eba08106e18a4206a4f6d", "type": "electric_scooter", "lat": 38.929682, "is_reserved": 0, "lon": -77.00529416666667, "fusion_lon": 0.0, "is_disabled": 0, "fusion_lat": 0.0, "bike_id": "6f6d4faec52eba08106e18a4206a4f6d", "rental_uris": {"ios": "https://dc.lft.to/lastmile_qr_scan", "android": "https://dc.lft.to/lastmile_qr_scan"}}, {"name": "6ec87d413ef51319177b636ba6e2f2b0", "type": "electric_bike", "lat": 38.91667783333333, "is_reserved": 0, "lon": -77.04697316666666, "fusion_lon": 0.0, "is_disabled": 0, "fusion_lat": 0.0, "bike_id": "6ec87d413ef51319177b636ba6e2f2b0", "rental_uris": {"ios": "https://dc.lft.to/lastmile_qr_scan", "android": "https://dc.lft.to/lastmile_qr_scan"}}, {"name": "d94eddb1cf2273482a77a14bd5ec1945", "type": "electric_scooter", "lat": 38.90019016666667, "is_reserved": 0, "lon": -77.01194083333333, "fusion_lon": 0.0, "is_disabled": 0, "fusion_lat": 0.0, "bike_id": "d94eddb1cf2273482a77a14bd5ec1945", "rental_uris": {"ios": "https://dc.lft.to/lastmile_qr_scan", "android": "https://dc.lft.to/lastmile_qr_scan"}}, {"name": "ff1a93d8746069105ef1dd51c08b9eb8", "type": "electric_scooter", "lat": 38.89684483333333, "is_reserved": 0, "lon": -77.0260775, "fusion_lon": 0.0, "is_disabled": 0, "fusion_lat": 0.0, "bike_id": "ff1a93d8746069105ef1dd51c08b9eb8", "rental_uris": {"ios": "https://dc.lft.to/lastmile_qr_scan", "android": "https://dc.lft.to/lastmile_qr_scan"}}, {"name": "c390f92924d28302fc80877d2ed3f412", "type": "electric_scooter", "lat": 38.906734, "is_reserved": 0, "lon": -77.038193, "fusion_lon": 0.0, "is_disabled": 0, "fusion_lat": 0.0, "bike_id": "c390f92924d28302fc80877d2ed3f412", "rental_uris": {"ios": "https://dc.lft.to/lastmile_qr_scan", "android": "https://dc.lft.to/lastmile_qr_scan"}}, {"name": "d1959727deb04aafae05a72a1767cdb5", "type": "electric_scooter", "lat": 38.90534516666666, "is_reserved": 0, "lon": -77.050216, "fusion_lon": 0.0, "is_disabled": 0, "fusion_lat": 0.0, "bike_id": "d1959727deb04aafae05a72a1767cdb5", "rental_uris": {"ios": "https://dc.lft.to/lastmile_qr_scan", "android": "https://dc.lft.to/lastmile_qr_scan"}}, {"name": "e49e845df0f41a1f220eb4a5dd1ff635", "type": "electric_scooter", "lat": 38.90110333333333, "is_reserved": 0, "lon": -77.049801, "fusion_lon": 0.0, "is_disabled": 0, "fusion_lat": 0.0, "bike_id": "e49e845df0f41a1f220eb4a5dd1ff635", "rental_uris": {"ios": "https://dc.lft.to/lastmile_qr_scan", "android": "https://dc.lft.to/lastmile_qr_scan"}}, {"name": "7e4dd669fb5fadf2415db2b20dabb0ef", "type": "electric_scooter", "lat": 38.9314825, "is_reserved": 0, "lon": -77.03830283333333, "fusion_lon": 0.0, "is_disabled": 0, "fusion_lat": 0.0, "bike_id": "7e4dd669fb5fadf2415db2b20dabb0ef", "rental_uris": {"ios": "https://dc.lft.to/lastmile_qr_scan", "android": "https://dc.lft.to/lastmile_qr_scan"}}, {"name": "462635169e0fdc599be55a624a9353b1", "type": "electric_scooter", "lat": 38.92117366666667, "is_reserved": 0, "lon": -77.036538, "fusion_lon": 0.0, "is_disabled": 0, "fusion_lat": 0.0, "bike_id": "462635169e0fdc599be55a624a9353b1", "rental_uris": {"ios": "https://dc.lft.to/lastmile_qr_scan", "android": "https://dc.lft.to/lastmile_qr_scan"}}, {"name": "7c9674f7a12617379d89767c6dcd1ad3", "type": "electric_scooter", "lat": 38.90249466666667, "is_reserved": 0, "lon": -77.01722716666667, "fusion_lon": 0.0, "is_disabled": 0, "fusion_lat": 0.0, "bike_id": "7c9674f7a12617379d89767c6dcd1ad3", "rental_uris": {"ios": "https://dc.lft.to/lastmile_qr_scan", "android": "https://dc.lft.to/lastmile_qr_scan"}}, {"name": "b2e533612074b66b01b034913a066c85", "type": "electric_scooter", "lat": 38.903697666666666, "is_reserved": 0, "lon": -77.04009333333333, "fusion_lon": 0.0, "is_disabled": 0, "fusion_lat": 0.0, "bike_id": "b2e533612074b66b01b034913a066c85", "rental_uris": {"ios": "https://dc.lft.to/lastmile_qr_scan", "android": "https://dc.lft.to/lastmile_qr_scan"}}, {"name": "3b082b5b46baf260b815f9b585391180", "type": "electric_scooter", "lat": 38.9066745, "is_reserved": 0, "lon": -77.03869716666667, "fusion_lon": 0.0, "is_disabled": 0, "fusion_lat": 0.0, "bike_id": "3b082b5b46baf260b815f9b585391180", "rental_uris": {"ios": "https://dc.lft.to/lastmile_qr_scan", "android": "https://dc.lft.to/lastmile_qr_scan"}}, {"name": "35b530ae286bb34328bc0b3196a4e5be", "type": "electric_scooter", "lat": 38.863539, "is_reserved": 0, "lon": -76.99064716666666, "fusion_lon": 0.0, "is_disabled": 0, "fusion_lat": 0.0, "bike_id": "35b530ae286bb34328bc0b3196a4e5be", "rental_uris": {"ios": "https://dc.lft.to/lastmile_qr_scan", "android": "https://dc.lft.to/lastmile_qr_scan"}}, {"name": "e38c879c33036df86bb026ed56c97fb4", "type": "electric_scooter", "lat": 38.8922655, "is_reserved": 0, "lon": -77.032074, "fusion_lon": 0.0, "is_disabled": 0, "fusion_lat": 0.0, "bike_id": "e38c879c33036df86bb026ed56c97fb4", "rental_uris": {"ios": "https://dc.lft.to/lastmile_qr_scan", "android": "https://dc.lft.to/lastmile_qr_scan"}}, {"name": "ae0ac558b1420695657bce5fe5c262d0", "type": "electric_scooter", "lat": 38.923754, "is_reserved": 0, "lon": -77.03132033333333, "fusion_lon": 0.0, "is_disabled": 0, "fusion_lat": 0.0, "bike_id": "ae0ac558b1420695657bce5fe5c262d0", "rental_uris": {"ios": "https://dc.lft.to/lastmile_qr_scan", "android": "https://dc.lft.to/lastmile_qr_scan"}}, {"name": "c464c9f86ef37253d6a5d2ae6e026f78", "type": "electric_scooter", "lat": 38.9023965, "is_reserved": 0, "lon": -77.01764566666667, "fusion_lon": 0.0, "is_disabled": 0, "fusion_lat": 0.0, "bike_id": "c464c9f86ef37253d6a5d2ae6e026f78", "rental_uris": {"ios": "https://dc.lft.to/lastmile_qr_scan", "android": "https://dc.lft.to/lastmile_qr_scan"}}, {"name": "60af65dc7e818854d35caf1e30c9c7e8", "type": "electric_scooter", "lat": 38.913365666666664, "is_reserved": 0, "lon": -77.04830116666666, "fusion_lon": 0.0, "is_disabled": 0, "fusion_lat": 0.0, "bike_id": "60af65dc7e818854d35caf1e30c9c7e8", "rental_uris": {"ios": "https://dc.lft.to/lastmile_qr_scan", "android": "https://dc.lft.to/lastmile_qr_scan"}}, {"name": "cd73068e88a658903559488c61d347c7", "type": "electric_scooter", "lat": 38.878333833333336, "is_reserved": 0, "lon": -76.98836983333334, "fusion_lon": 0.0, "is_disabled": 0, "fusion_lat": 0.0, "bike_id": "cd73068e88a658903559488c61d347c7", "rental_uris": {"ios": "https://dc.lft.to/lastmile_qr_scan", "android": "https://dc.lft.to/lastmile_qr_scan"}}, {"name": "8e18d0a1157d8b279f844b597b66bdf8", "type": "electric_scooter", "lat": 38.88052966666667, "is_reserved": 0, "lon": -77.01324033333333, "fusion_lon": 0.0, "is_disabled": 0, "fusion_lat": 0.0, "bike_id": "8e18d0a1157d8b279f844b597b66bdf8", "rental_uris": {"ios": "https://dc.lft.to/lastmile_qr_scan", "android": "https://dc.lft.to/lastmile_qr_scan"}}, {"name": "623efe6405bf872915b2261798c14910", "type": "electric_scooter", "lat": 38.895195333333334, "is_reserved": 0, "lon": -76.99150383333334, "fusion_lon": 0.0, "is_disabled": 0, "fusion_lat": 0.0, "bike_id": "623efe6405bf872915b2261798c14910", "rental_uris": {"ios": "https://dc.lft.to/lastmile_qr_scan", "android": "https://dc.lft.to/lastmile_qr_scan"}}, {"name": "3c6eb11de4ba2f326e7ca2c6e30891b4", "type": "electric_scooter", "lat": 38.898841833333336, "is_reserved": 0, "lon": -76.93171916666667, "fusion_lon": 0.0, "is_disabled": 0, "fusion_lat": 0.0, "bike_id": "3c6eb11de4ba2f326e7ca2c6e30891b4", "rental_uris": {"ios": "https://dc.lft.to/lastmile_qr_scan", "android": "https://dc.lft.to/lastmile_qr_scan"}}, {"name": "2f30aa266c61129a3210f6b77ee08164", "type": "electric_bike", "lat": 38.935762, "is_reserved": 0, "lon": -77.02124966666666, "fusion_lon": 0.0, "is_disabled": 0, "fusion_lat": 0.0, "bike_id": "2f30aa266c61129a3210f6b77ee08164", "rental_uris": {"ios": "https://dc.lft.to/lastmile_qr_scan", "android": "https://dc.lft.to/lastmile_qr_scan"}}, {"name": "f36f480c48b699f943cb6709aa3acd91", "type": "electric_scooter", "lat": 38.94208416666667, "is_reserved": 0, "lon": -77.0358375, "fusion_lon": 0.0, "is_disabled": 0, "fusion_lat": 0.0, "bike_id": "f36f480c48b699f943cb6709aa3acd91", "rental_uris": {"ios": "https://dc.lft.to/lastmile_qr_scan", "android": "https://dc.lft.to/lastmile_qr_scan"}}, {"name": "186117c892fdd15b4df37525716c2f58", "type": "electric_scooter", "lat": 38.9124, "is_reserved": 0, "lon": -77.04867416666667, "fusion_lon": 0.0, "is_disabled": 0, "fusion_lat": 0.0, "bike_id": "186117c892fdd15b4df37525716c2f58", "rental_uris": {"ios": "https://dc.lft.to/lastmile_qr_scan", "android": "https://dc.lft.to/lastmile_qr_scan"}}, {"name": "d25dbda79b4fef1d012909593b428351", "type": "electric_scooter", "lat": 38.90966233333333, "is_reserved": 0, "lon": -77.01116433333334, "fusion_lon": 0.0, "is_disabled": 0, "fusion_lat": 0.0, "bike_id": "d25dbda79b4fef1d012909593b428351", "rental_uris": {"ios": "https://dc.lft.to/lastmile_qr_scan", "android": "https://dc.lft.to/lastmile_qr_scan"}}, {"name": "3d1139dd627d95e6d879c91dd42e7145", "type": "electric_scooter", "lat": 38.92435416666667, "is_reserved": 0, "lon": -77.04250983333333, "fusion_lon": 0.0, "is_disabled": 0, "fusion_lat": 0.0, "bike_id": "3d1139dd627d95e6d879c91dd42e7145", "rental_uris": {"ios": "https://dc.lft.to/lastmile_qr_scan", "android": "https://dc.lft.to/lastmile_qr_scan"}}, {"name": "521417d330ece9065759a6e207787ef0", "type": "electric_scooter", "lat": 38.906633666666664, "is_reserved": 0, "lon": -77.0269015, "fusion_lon": 0.0, "is_disabled": 0, "fusion_lat": 0.0, "bike_id": "521417d330ece9065759a6e207787ef0", "rental_uris": {"ios": "https://dc.lft.to/lastmile_qr_scan", "android": "https://dc.lft.to/lastmile_qr_scan"}}, {"name": "f3064fbc079224f40a712b572c14be0d", "type": "electric_scooter", "lat": 38.915505333333336, "is_reserved": 0, "lon": -77.03841783333333, "fusion_lon": 0.0, "is_disabled": 0, "fusion_lat": 0.0, "bike_id": "f3064fbc079224f40a712b572c14be0d", "rental_uris": {"ios": "https://dc.lft.to/lastmile_qr_scan", "android": "https://dc.lft.to/lastmile_qr_scan"}}, {"name": "138cf72cf57bf2208127762729f42f40", "type": "electric_scooter", "lat": 38.86963866666667, "is_reserved": 0, "lon": -77.01378983333333, "fusion_lon": 0.0, "is_disabled": 0, "fusion_lat": 0.0, "bike_id": "138cf72cf57bf2208127762729f42f40", "rental_uris": {"ios": "https://dc.lft.to/lastmile_qr_scan", "android": "https://dc.lft.to/lastmile_qr_scan"}}, {"name": "13e95077f75242ba29c069b12da2d961", "type": "electric_bike", "lat": 38.939605, "is_reserved": 0, "lon": -77.36094633333333, "fusion_lon": 0.0, "is_disabled": 0, "fusion_lat": 0.0, "bike_id": "13e95077f75242ba29c069b12da2d961", "rental_uris": {"ios": "https://dc.lft.to/lastmile_qr_scan", "android": "https://dc.lft.to/lastmile_qr_scan"}}, {"name": "ade402a992026bcc3a38106fcd58dd92", "type": "electric_scooter", "lat": 38.974975, "is_reserved": 0, "lon": -77.01685816666667, "fusion_lon": 0.0, "is_disabled": 0, "fusion_lat": 0.0, "bike_id": "ade402a992026bcc3a38106fcd58dd92", "rental_uris": {"ios": "https://dc.lft.to/lastmile_qr_scan", "android": "https://dc.lft.to/lastmile_qr_scan"}}, {"name": "36143e1ba75376f516b0b9a67605003f", "type": "electric_bike", "lat": 38.95330366666666, "is_reserved": 0, "lon": -76.9824655, "fusion_lon": 0.0, "is_disabled": 0, "fusion_lat": 0.0, "bike_id": "36143e1ba75376f516b0b9a67605003f", "rental_uris": {"ios": "https://dc.lft.to/lastmile_qr_scan", "android": "https://dc.lft.to/lastmile_qr_scan"}}, {"name": "2ad3545a11b95d5cb593960bccf66471", "type": "electric_scooter", "lat": 38.90266833333333, "is_reserved": 0, "lon": -77.03851966666667, "fusion_lon": 0.0, "is_disabled": 0, "fusion_lat": 0.0, "bike_id": "2ad3545a11b95d5cb593960bccf66471", "rental_uris": {"ios": "https://dc.lft.to/lastmile_qr_scan", "android": "https://dc.lft.to/lastmile_qr_scan"}}, {"name": "5a7bf47e3c697e1a8ca87a70fdb22129", "type": "electric_bike", "lat": 38.959323166666664, "is_reserved": 0, "lon": -76.92525883333333, "fusion_lon": 0.0, "is_disabled": 0, "fusion_lat": 0.0, "bike_id": "5a7bf47e3c697e1a8ca87a70fdb22129", "rental_uris": {"ios": "https://dc.lft.to/lastmile_qr_scan", "android": "https://dc.lft.to/lastmile_qr_scan"}}, {"name": "b23bb03802648fefda9a0c7d3d1a0ce3", "type": "electric_scooter", "lat": 38.885148, "is_reserved": 0, "lon": -77.00571183333334, "fusion_lon": 0.0, "is_disabled": 0, "fusion_lat": 0.0, "bike_id": "b23bb03802648fefda9a0c7d3d1a0ce3", "rental_uris": {"ios": "https://dc.lft.to/lastmile_qr_scan", "android": "https://dc.lft.to/lastmile_qr_scan"}}, {"name": "ca032a9f4c4cdc62013f4a8e0fe235be", "type": "electric_scooter", "lat": 38.92244016666667, "is_reserved": 0, "lon": -77.03084, "fusion_lon": 0.0, "is_disabled": 0, "fusion_lat": 0.0, "bike_id": "ca032a9f4c4cdc62013f4a8e0fe235be", "rental_uris": {"ios": "https://dc.lft.to/lastmile_qr_scan", "android": "https://dc.lft.to/lastmile_qr_scan"}}, {"name": "ca2fa092f23136ae24b3b6c5b0b71c69", "type": "electric_scooter", "lat": 38.89818866666667, "is_reserved": 0, "lon": -77.03132816666667, "fusion_lon": 0.0, "is_disabled": 0, "fusion_lat": 0.0, "bike_id": "ca2fa092f23136ae24b3b6c5b0b71c69", "rental_uris": {"ios": "https://dc.lft.to/lastmile_qr_scan", "android": "https://dc.lft.to/lastmile_qr_scan"}}, {"name": "d34bfdb5e1e16fe38cd22797122bb7cc", "type": "electric_scooter", "lat": 38.91403966666667, "is_reserved": 0, "lon": -77.0084095, "fusion_lon": 0.0, "is_disabled": 0, "fusion_lat": 0.0, "bike_id": "d34bfdb5e1e16fe38cd22797122bb7cc", "rental_uris": {"ios": "https://dc.lft.to/lastmile_qr_scan", "android": "https://dc.lft.to/lastmile_qr_scan"}}, {"name": "feba4e3c145704f5a24ddb97785c996d", "type": "electric_scooter", "lat": 38.903788166666665, "is_reserved": 0, "lon": -77.01742866666666, "fusion_lon": 0.0, "is_disabled": 0, "fusion_lat": 0.0, "bike_id": "feba4e3c145704f5a24ddb97785c996d", "rental_uris": {"ios": "https://dc.lft.to/lastmile_qr_scan", "android": "https://dc.lft.to/lastmile_qr_scan"}}, {"name": "74c15febd295ff5598be7d6bfb4d57f1", "type": "electric_scooter", "lat": 38.895103166666665, "is_reserved": 0, "lon": -77.0112885, "fusion_lon": 0.0, "is_disabled": 0, "fusion_lat": 0.0, "bike_id": "74c15febd295ff5598be7d6bfb4d57f1", "rental_uris": {"ios": "https://dc.lft.to/lastmile_qr_scan", "android": "https://dc.lft.to/lastmile_qr_scan"}}, {"name": "31f733e41298ef7c5774e50baca8a0f0", "type": "electric_scooter", "lat": 38.917612166666665, "is_reserved": 0, "lon": -77.02710233333333, "fusion_lon": 0.0, "is_disabled": 0, "fusion_lat": 0.0, "bike_id": "31f733e41298ef7c5774e50baca8a0f0", "rental_uris": {"ios": "https://dc.lft.to/lastmile_qr_scan", "android": "https://dc.lft.to/lastmile_qr_scan"}}, {"name": "576d0e654bfffb52f8cc472d92cc10e2", "type": "electric_bike", "lat": 38.88083066666667, "is_reserved": 0, "lon": -76.9852955, "fusion_lon": 0.0, "is_disabled": 0, "fusion_lat": 0.0, "bike_id": "576d0e654bfffb52f8cc472d92cc10e2", "rental_uris": {"ios": "https://dc.lft.to/lastmile_qr_scan", "android": "https://dc.lft.to/lastmile_qr_scan"}}, {"name": "268f8ca1386129998acd0e5e5820d491", "type": "electric_scooter", "lat": 38.90862116666667, "is_reserved": 0, "lon": -77.02501333333333, "fusion_lon": 0.0, "is_disabled": 0, "fusion_lat": 0.0, "bike_id": "268f8ca1386129998acd0e5e5820d491", "rental_uris": {"ios": "https://dc.lft.to/lastmile_qr_scan", "android": "https://dc.lft.to/lastmile_qr_scan"}}, {"name": "7304e043ccf1936c688c0cef0a076dfb", "type": "electric_scooter", "lat": 38.90372683333333, "is_reserved": 0, "lon": -77.04483733333333, "fusion_lon": 0.0, "is_disabled": 0, "fusion_lat": 0.0, "bike_id": "7304e043ccf1936c688c0cef0a076dfb", "rental_uris": {"ios": "https://dc.lft.to/lastmile_qr_scan", "android": "https://dc.lft.to/lastmile_qr_scan"}}, {"name": "c1abdbd909674cfd63b439a3d6b3363a", "type": "electric_scooter", "lat": 38.90270116666667, "is_reserved": 0, "lon": -77.05313383333333, "fusion_lon": 0.0, "is_disabled": 0, "fusion_lat": 0.0, "bike_id": "c1abdbd909674cfd63b439a3d6b3363a", "rental_uris": {"ios": "https://dc.lft.to/lastmile_qr_scan", "android": "https://dc.lft.to/lastmile_qr_scan"}}, {"name": "8e7450ae87923b68449647115719395c", "type": "electric_scooter", "lat": 38.91569966666667, "is_reserved": 0, "lon": -77.04607366666667, "fusion_lon": 0.0, "is_disabled": 0, "fusion_lat": 0.0, "bike_id": "8e7450ae87923b68449647115719395c", "rental_uris": {"ios": "https://dc.lft.to/lastmile_qr_scan", "android": "https://dc.lft.to/lastmile_qr_scan"}}, {"name": "85dd88920abb4b144a49d40ad7430c2d", "type": "electric_scooter", "lat": 38.902385, "is_reserved": 0, "lon": -77.00196733333334, "fusion_lon": 0.0, "is_disabled": 0, "fusion_lat": 0.0, "bike_id": "85dd88920abb4b144a49d40ad7430c2d", "rental_uris": {"ios": "https://dc.lft.to/lastmile_qr_scan", "android": "https://dc.lft.to/lastmile_qr_scan"}}, {"name": "4d672018f5a6c14417100aa75a01d669", "type": "electric_scooter", "lat": 38.9170415, "is_reserved": 0, "lon": -77.03121666666667, "fusion_lon": 0.0, "is_disabled": 0, "fusion_lat": 0.0, "bike_id": "4d672018f5a6c14417100aa75a01d669", "rental_uris": {"ios": "https://dc.lft.to/lastmile_qr_scan", "android": "https://dc.lft.to/lastmile_qr_scan"}}, {"name": "04ee429aaf2da5a0315d535a1f6fec4b", "type": "electric_scooter", "lat": 38.893281, "is_reserved": 0, "lon": -76.92990916666666, "fusion_lon": 0.0, "is_disabled": 0, "fusion_lat": 0.0, "bike_id": "04ee429aaf2da5a0315d535a1f6fec4b", "rental_uris": {"ios": "https://dc.lft.to/lastmile_qr_scan", "android": "https://dc.lft.to/lastmile_qr_scan"}}, {"name": "9ddd7a289624e51bb174c7cf3bd645ab", "type": "electric_scooter", "lat": 38.93646116666667, "is_reserved": 0, "lon": -77.03677383333333, "fusion_lon": 0.0, "is_disabled": 0, "fusion_lat": 0.0, "bike_id": "9ddd7a289624e51bb174c7cf3bd645ab", "rental_uris": {"ios": "https://dc.lft.to/lastmile_qr_scan", "android": "https://dc.lft.to/lastmile_qr_scan"}}, {"name": "f10655d6e88b1c78c30b8c086f6a7103", "type": "electric_scooter", "lat": 38.90667283333333, "is_reserved": 0, "lon": -77.038665, "fusion_lon": 0.0, "is_disabled": 0, "fusion_lat": 0.0, "bike_id": "f10655d6e88b1c78c30b8c086f6a7103", "rental_uris": {"ios": "https://dc.lft.to/lastmile_qr_scan", "android": "https://dc.lft.to/lastmile_qr_scan"}}, {"name": "49e18e7a28591d8127f586f424235098", "type": "electric_scooter", "lat": 38.922859, "is_reserved": 0, "lon": -77.03660216666667, "fusion_lon": 0.0, "is_disabled": 0, "fusion_lat": 0.0, "bike_id": "49e18e7a28591d8127f586f424235098", "rental_uris": {"ios": "https://dc.lft.to/lastmile_qr_scan", "android": "https://dc.lft.to/lastmile_qr_scan"}}, {"name": "b634a95af4af7f60861956e471b172c7", "type": "electric_scooter", "lat": 38.828937833333335, "is_reserved": 0, "lon": -76.996995, "fusion_lon": 0.0, "is_disabled": 0, "fusion_lat": 0.0, "bike_id": "b634a95af4af7f60861956e471b172c7", "rental_uris": {"ios": "https://dc.lft.to/lastmile_qr_scan", "android": "https://dc.lft.to/lastmile_qr_scan"}}, {"name": "4ac4a71a78020abfb42e7623363a97c0", "type": "electric_scooter", "lat": 38.910057333333334, "is_reserved": 0, "lon": -77.04006466666667, "fusion_lon": 0.0, "is_disabled": 0, "fusion_lat": 0.0, "bike_id": "4ac4a71a78020abfb42e7623363a97c0", "rental_uris": {"ios": "https://dc.lft.to/lastmile_qr_scan", "android": "https://dc.lft.to/lastmile_qr_scan"}},