{"data": {"bikes": [{"rental_uris": {"ios": "https://dc.lft.to/lastmile_qr_scan", "android": "https://dc.lft.to/lastmile_qr_scan"}, "fusion_lat": 0.0, "name": "e2cb49dfbf9c36e24980e964e8b62de1", "bike_id": "e2cb49dfbf9c36e24980e964e8b62de1", "is_disabled": 0, "type": "electric_scooter", "lat": 38.924636666666665, "lon": -77.052347, "is_reserved": 0, "fusion_lon": 0.0}, {"rental_uris": {"ios": "https://dc.lft.to/lastmile_qr_scan", "android": "https://dc.lft.to/lastmile_qr_scan"}, "fusion_lat": 0.0, "name": "24effa64412499d9e97a59e245704b72", "bike_id": "24effa64412499d9e97a59e245704b72", "is_disabled": 0, "type": "electric_scooter", "lat": 38.89502566666667, "lon": -77.01094483333334, "is_reserved": 0, "fusion_lon": 0.0}, {"rental_uris": {"ios": "https://dc.lft.to/lastmile_qr_scan", "android": "https://dc.lft.to/lastmile_qr_scan"}, "fusion_lat": 0.0, "name": "e3381fffc3be15acbf63f58f9391a29b", "bike_id": "e3381fffc3be15acbf63f58f9391a29b", "is_disabled": 0, "type": "electric_scooter", "lat": 38.892308, "lon": -77.02840283333333, "is_reserved": 0, "fusion_lon": 0.0}, {"rental_uris": {"ios": "https://dc.lft.to/lastmile_qr_scan", "android": "https://dc.lft.to/lastmile_qr_scan"}, "fusion_lat": 0.0, "name": "2723f5a95e86503acd6afadab492ac35", "bike_id": "2723f5a95e86503acd6afadab492ac35", "is_disabled": 0, "type": "electric_scooter", "lat": 38.862527166666666, "lon": -76.99513983333334, "is_reserved": 0, "fusion_lon": 0.0}, {"rental_uris": {"ios": "https://dc.lft.to/lastmile_qr_scan", "android": "https://dc.lft.to/lastmile_qr_scan"}, "fusion_lat": 0.0, "name": "f2a1d758c5f473c048da39f7818157be", "bike_id": "f2a1d758c5f473c048da39f7818157be", "is_disabled": 0, "type": "electric_scooter", "lat": 38.930617, "lon": -77.038142, "is_reserved": 0, "fusion_lon": 0.0}, {"rental_uris": {"ios": "https://dc.lft.to/lastmile_qr_scan", "android": "https://dc.lft.to/lastmile_qr_scan"}, "fusion_lat": 0.0, "name": "a00ce3f585e46929000e74c938462309", "bike_id": "a00ce3f585e46929000e74c938462309", "is_disabled": 0, "type": "electric_bike", "lat": 38.832195166666665, "lon": -77.04974216666666, "is_reserved": 0, "fusion_lon": 0.0}, {"rental_uris": {"ios": "https://dc.lft.to/lastmile_qr_scan", "android": "https://dc.lft.to/lastmile_qr_scan"}, "fusion_lat": 0.0, "name": "4b834e090a293064ab51e197534e3cbd", "bike_id": "4b834e090a293064ab51e197534e3cbd", "is_disabled": 0, "type": "electric_scooter", "lat": 38.916929833333334, "lon": -77.03595366666667, "is_reserved": 0, "fusion_lon": 0.0}, {"rental_uris": {"ios": "https://dc.lft.to/lastmile_qr_scan", "android": "https://dc.lft.to/lastmile_qr_scan"}, "fusion_lat": 0.0, "name": "a3395199656529dd14690874c5b7146c", "bike_id": "a3395199656529dd14690874c5b7146c", "is_disabled": 0, "type": "electric_scooter", "lat": 38.909366166666665, "lon": -77.04473316666666, "is_reserved": 0, "fusion_lon": 0.0}, {"rental_uris": {"ios": "https://dc.lft.to/lastmile_qr_scan", "android": "https://dc.lft.to/lastmile_qr_scan"}, "fusion_lat": 0.0, "name": "e333b92e0304e60a1c1d171481d1ce26", "bike_id": "e333b92e0304e60a1c1d171481d1ce26", "is_disabled": 0, "type": "electric_scooter", "lat": 38.91966266666667, "lon": -77.0450205, "is_reserved": 0, "fusion_lon": 0.0}, {"rental_uris": {"ios": "https://dc.lft.to/lastmile_qr_scan", "android": "https://dc.lft.to/lastmile_qr_scan"}, "fusion_lat": 0.0, "name": "ad32ca8e0b43055f26aa6e79a997641d", "bike_id": "ad32ca8e0b43055f26aa6e79a997641d", "is_disabled": 0, "type": "electric_scooter", "lat": 38.8649505, "lon": -76.98987116666666, "is_reserved": 0, "fusion_lon": 0.0}, {"rental_uris": {"ios": "https://dc.lft.to/lastmile_qr_scan", "android": "https://dc.lft.to/lastmile_qr_scan"}, "fusion_lat": 0.0, "name": "85f7d9404001628a0a1b85b24e9150f6", "bike_id": "85f7d9404001628a0a1b85b24e9150f6", "is_disabled": 0, "type": "electric_scooter", "lat": 38.92047383333333, "lon": -77.00207216666666, "is_reserved": 0, "fusion_lon": 0.0}, {"rental_uris": {"ios": "https://dc.lft.to/lastmile_qr_scan", "android": "https://dc.lft.to/lastmile_qr_scan"}, "fusion_lat": 0.0, "name": "bb780d3e44887346ff81506aa48c881b", "bike_id": "bb780d3e44887346ff81506aa48c881b", "is_disabled": 0, "type": "electric_scooter", "lat": 38.934772, "lon": -77.03575883333333, "is_reserved": 0, "fusion_lon": 0.0}, {"rental_uris": {"ios": "https://dc.lft.to/lastmile_qr_scan", "android": "https://dc.lft.to/lastmile_qr_scan"}, "fusion_lat": 0.0, "name": "84ceba6b627674162b35dce41b0a21f1", "bike_id": "84ceba6b627674162b35dce41b0a21f1", "is_disabled": 0, "type": "electric_scooter", "lat": 38.922072, "lon": -77.03654933333334, "is_reserved": 0, "fusion_lon": 0.0}, {"rental_uris": {"ios": "https://dc.lft.to/lastmile_qr_scan", "android": "https://dc.lft.to/lastmile_qr_scan"}, "fusion_lat": 0.0, "name": "cb1d165752f2792d8b82b4dbe6434bdf", "bike_id": "cb1d165752f2792d8b82b4dbe6434bdf", "is_disabled": 0, "type": "electric_scooter", "lat": 38.89217983333333, "lon": -77.02317066666667, "is_reserved": 0, "fusion_lon": 0.0}, {"rental_uris": {"ios": "https://dc.lft.to/lastmile_qr_scan", "android": "https://dc.lft.to/lastmile_qr_scan"}, "fusion_lat": 0.0, "name": "48f1ce3fbcfc9a14366755615d5e4570", "bike_id": "48f1ce3fbcfc9a14366755615d5e4570", "is_disabled": 0, "type": "electric_scooter", "lat": 38.87492483333333, "lon": -76.99796166666667, "is_reserved": 0, "fusion_lon": 0.0}, {"rental_uris": {"ios": "https://dc.lft.to/lastmile_qr_scan", "android": "https://dc.lft.to/lastmile_qr_scan"}, "fusion_lat": 0.0, "name": "cc49e558d3e4f633d78904eebc15ea8e", "bike_id": "cc49e558d3e4f633d78904eebc15ea8e", "is_disabled": 0, "type": "electric_scooter", "lat": 38.91255566666667, "lon": -77.044401, "is_reserved": 0, "fusion_lon": 0.0}, {"rental_uris": {"ios": "https://dc.lft.to/lastmile_qr_scan", "android": "https://dc.lft.to/lastmile_qr_scan"}, "fusion_lat": 0.0, "name": "83129b6ffb842ccc53ac5c9adf6c42c7", "bike_id": "83129b6ffb842ccc53ac5c9adf6c42c7", "is_disabled": 0, "type": "electric_scooter", "lat": 38.88744033333333, "lon": -77.021261, "is_reserved": 0, "fusion_lon": 0.0}, {"rental_uris": {"ios": "https://dc.lft.to/lastmile_qr_scan", "android": "https://dc.lft.to/lastmile_qr_scan"}, "fusion_lat": 0.0, "name": "202ca9248b6e4c94ecbafd88d0518f9b", "bike_id": "202ca9248b6e4c94ecbafd88d0518f9b", "is_disabled": 0, "type": "electric_bike", "lat": 38.924585666666665, "lon": -77.20836733333333, "is_reserved": 0, "fusion_lon": 0.0}, {"rental_uris": {"ios": "https://dc.lft.to/lastmile_qr_scan", "android": "https://dc.lft.to/lastmile_qr_scan"}, "fusion_lat": 0.0, "name": "83901e1af18eec279415aea6eb7e634a", "bike_id": "83901e1af18eec279415aea6eb7e634a", "is_disabled": 0, "type": "electric_scooter", "lat": 38.908068166666666, "lon": -77.03440816666667, "is_reserved": 0, "fusion_lon": 0.0}, {"rental_uris": {"ios": "https://dc.lft.to/lastmile_qr_scan", "android": "https://dc.lft.to/lastmile_qr_scan"}, "fusion_lat": 0.0, "name": "60d552d78179924b95a463dddaa76b79", "bike_id": "60d552d78179924b95a463dddaa76b79", "is_disabled": 0, "type": "electric_scooter", "lat": 38.90373233333333, "lon": -77.0450825, "is_reserved": 0, "fusion_lon": 0.0}, {"rental_uris": {"ios": "https://dc.lft.to/lastmile_qr_scan", "android": "https://dc.lft.to/lastmile_qr_scan"}, "fusion_lat": 0.0, "name": "b49065cbe1eafa41e0431ed2c909769d", "bike_id": "b49065cbe1eafa41e0431ed2c909769d", "is_disabled": 0, "type": "electric_scooter", "lat": 38.89606716666667, "lon": -77.04643766666666, "is_reserved": 0, "fusion_lon": 0.0}, {"rental_uris": {"ios": "https://dc.lft.to/lastmile_qr_scan", "android": "https://dc.lft.to/lastmile_qr_scan"}, "fusion_lat": 0.0, "name": "4a32c31042b9376e5eaa616a5adb5fcc", "bike_id": "4a32c31042b9376e5eaa616a5adb5fcc", "is_disabled": 0, "type": "electric_scooter", "lat": 38.92414633333333, "lon": -77.01939866666666, "is_reserved": 0, "fusion_lon": 0.0}, {"rental_uris": {"ios": "https://dc.lft.to/lastmile_qr_scan", "android": "https://dc.lft.to/lastmile_qr_scan"}, "fusion_lat": 0.0, "name": "e099db73c967257350e6e2322e20d5a5", "bike_id": "e099db73c967257350e6e2322e20d5a5", "is_disabled": 0, "type": "electric_scooter", "lat": 38.91706833333333, "lon": -77.0324305, "is_reserved": 0, "fusion_lon": 0.0}, {"rental_uris": {"ios": "https://dc.lft.to/lastmile_qr_scan", "android": "https://dc.lft.to/lastmile_qr_scan"}, "fusion_lat": 0.0, "name": "21af4f2135f107136213dfa77cfed35c", "bike_id": "21af4f2135f107136213dfa77cfed35c", "is_disabled": 0, "type": "electric_bike", "lat": 38.831578666666665, "lon": -77.11307833333333, "is_reserved": 0, "fusion_lon": 0.0}, {"rental_uris": {"ios": "https://dc.lft.to/lastmile_qr_scan", "android": "https://dc.lft.to/lastmile_qr_scan"}, "fusion_lat": 0.0, "name": "09d092173e84c3591996189a383f31f7", "bike_id": "09d092173e84c3591996189a383f31f7", "is_disabled": 0, "type": "electric_scooter", "lat": 38.915604, "lon": -77.01997833333333, "is_reserved": 0, "fusion_lon": 0.0}, {"rental_uris": {"ios": "https://dc.lft.to/lastmile_qr_scan", "android": "https://dc.lft.to/lastmile_qr_scan"}, "fusion_lat": 0.0, "name": "50d1cc1486374d93368ac8ab0c51fef1", "bike_id": "50d1cc1486374d93368ac8ab0c51fef1", "is_disabled": 0, "type": "electric_scooter", "lat": 38.9028275, "lon": -77.03464416666667, "is_reserved": 0, "fusion_lon": 0.0}, {"rental_uris": {"ios": "https://dc.lft.to/lastmile_qr_scan", "android": "https://dc.lft.to/lastmile_qr_scan"}, "fusion_lat": 0.0, "name": "0c4b6ee382a14f971498f98f1009fe14", "bike_id": "0c4b6ee382a14f971498f98f1009fe14", "is_disabled": 0, "type": "electric_scooter", "lat": 38.922456833333335, "lon": -77.03658116666666, "is_reserved": 0, "fusion_lon": 0.0}, {"rental_uris": {"ios": "https://dc.lft.to/lastmile_qr_scan", "android": "https://dc.lft.to/lastmile_qr_scan"}, "fusion_lat": 0.0, "name": "1c47a432df40d181efad551bb039c398", "bike_id": "1c47a432df40d181efad551bb039c398", "is_disabled": 0, "type": "electric_scooter", "lat": 38.90826366666667, "lon": -76.99696833333333, "is_reserved": 0, "fusion_lon": 0.0}, {"rental_uris": {"ios": "https://dc.lft.to/lastmile_qr_scan", "android": "https://dc.lft.to/lastmile_qr_scan"}, "fusion_lat": 0.0, "name": "d9e8b21965812e481281ad6274d379ff", "bike_id": "d9e8b21965812e481281ad6274d379ff", "is_disabled": 0, "type": "electric_bike", "lat": 38.81507116666667, "lon": -77.12648666666666, "is_reserved": 0, "fusion_lon": 0.0}, {"rental_uris": {"ios": "https://dc.lft.to/lastmile_qr_scan", "android": "https://dc.lft.to/lastmile_qr_scan"}, "fusion_lat": 0.0, "name": "620913517e87355a8d85283b3ba52035", "bike_id": "620913517e87355a8d85283b3ba52035", "is_disabled": 0, "type": "electric_scooter", "lat": 38.887152, "lon": -77.01773583333333, "is_reserved": 0, "fusion_lon": 0.0}, {"rental_uris": {"ios": "https://dc.lft.to/lastmile_qr_scan", "android": "https://dc.lft.to/lastmile_qr_scan"}, "fusion_lat": 0.0, "name": "e33be1cb33fc73592144acd1f2370d21", "bike_id": "e33be1cb33fc73592144acd1f2370d21", "is_disabled": 0, "type": "electric_scooter", "lat": 38.90261983333333, "lon": -77.04367666666667, "is_reserved": 0, "fusion_lon": 0.0}, {"rental_uris": {"ios": "https://dc.lft.to/lastmile_qr_scan", "android": "https://dc.lft.to/lastmile_qr_scan"}, "fusion_lat": 0.0, "name": "b013cc9f00bd438c59489eddeb656513", "bike_id": "b013cc9f00bd438c59489eddeb656513", "is_disabled": 0, "type": "electric_scooter", "lat": 38.961608, "lon": -77.02783016666666, "is_reserved": 0, "fusion_lon": 0.0}, {"rental_uris": {"ios": "https://dc.lft.to/lastmile_qr_scan", "android": "https://dc.lft.to/lastmile_qr_scan"}, "fusion_lat": 0.0, "name": "fa8e4937340810eb037d4ec7c48598a7", "bike_id": "fa8e4937340810eb037d4ec7c48598a7", "is_disabled": 0, "type": "electric_scooter", "lat": 38.9032955, "lon": -77.04010633333333, "is_reserved": 0, "fusion_lon": 0.0}, {"rental_uris": {"ios": "https://dc.lft.to/lastmile_qr_scan", "android": "https://dc.lft.to/lastmile_qr_scan"}, "fusion_lat": 0.0, "name": "9d5c1754cd3e75c664c65e9e41c81825", "bike_id": "9d5c1754cd3e75c664c65e9e41c81825", "is_disabled": 0, "type": "electric_scooter", "lat": 38.923507666666666, "lon": -77.03506116666667, "is_reserved": 0, "fusion_lon": 0.0}, {"rental_uris": {"ios": "https://dc.lft.to/lastmile_qr_scan", "android": "https://dc.lft.to/lastmile_qr_scan"}, "fusion_lat": 0.0, "name": "857aec2b8eb0f39f14aa1f8061ce25d1", "bike_id": "857aec2b8eb0f39f14aa1f8061ce25d1", "is_disabled": 0, "type": "electric_scooter", "lat": 38.916316, "lon": -77.0320565, "is_reserved": 0, "fusion_lon": 0.0}, {"rental_uris": {"ios": "https://dc.lft.to/lastmile_qr_scan", "android": "https://dc.lft.to/lastmile_qr_scan"}, "fusion_lat": 0.0, "name": "cbf0d521f71600ff45b90c626908ad3e", "bike_id": "cbf0d521f71600ff45b90c626908ad3e", "is_disabled": 0, "type": "electric_scooter", "lat": 38.89247366666667, "lon": -77.03343966666667, "is_reserved": 0, "fusion_lon": 0.0}, {"rental_uris": {"ios": "https://dc.lft.to/lastmile_qr_scan", "android": "https://dc.lft.to/lastmile_qr_scan"}, "fusion_lat": 0.0, "name": "80160bb0b01bd8b1e1e18ad97b75cf2c", "bike_id": "80160bb0b01bd8b1e1e18ad97b75cf2c", "is_disabled": 0, "type": "electric_scooter", "lat": 38.9247935, "lon": -77.0349125, "is_reserved": 0, "fusion_lon": 0.0}, {"rental_uris": {"ios": "https://dc.lft.to/lastmile_qr_scan", "android": "https://dc.lft.to/lastmile_qr_scan"}, "fusion_lat": 0.0, "name": "d698fcc6c556a2587d40590c3dacb0c7", "bike_id": "d698fcc6c556a2587d40590c3dacb0c7", "is_disabled": 0, "type": "electric_scooter", "lat": 38.91548316666667, "lon": -77.0241175, "is_reserved": 0, "fusion_lon": 0.0}, {"rental_uris": {"ios": "https://dc.lft.to/lastmile_qr_scan", "android": "https://dc.lft.to/lastmile_qr_scan"}, "fusion_lat": 0.0, "name": "b434c2ce002aa0ca18fff01e1dd72679", "bike_id": "b434c2ce002aa0ca18fff01e1dd72679", "is_disabled": 0, "type": "electric_scooter", "lat": 38.914197333333334, "lon": -77.03203733333334, "is_reserved": 0, "fusion_lon": 0.0}, {"rental_uris": {"ios": "https://dc.lft.to/lastmile_qr_scan", "android": "https://dc.lft.to/lastmile_qr_scan"}, "fusion_lat": 0.0, "name": "507bccbaaa98d6e238c6c6152a21bda9", "bike_id": "507bccbaaa98d6e238c6c6152a21bda9", "is_disabled": 0, "type": "electric_scooter", "lat": 38.919019166666665, "lon": -77.03185466666666, "is_reserved": 0, "fusion_lon": 0.0}, {"rental_uris": {"ios": "https://dc.lft.to/lastmile_qr_scan", "android": "https://dc.lft.to/lastmile_qr_scan"}, "fusion_lat": 0.0, "name": "ab6244508025917c5010b3154b9aab80", "bike_id": "ab6244508025917c5010b3154b9aab80", "is_disabled": 0, "type": "electric_scooter", "lat": 38.890123333333335, "lon": -76.93731166666667, "is_reserved": 0, "fusion_lon": 0.0}, {"rental_uris": {"ios": "https://dc.lft.to/lastmile_qr_scan", "android": "https://dc.lft.to/lastmile_qr_scan"}, "fusion_lat": 0.0, "name": "bac768837dbbed601da965344e614504", "bike_id": "bac768837dbbed601da965344e614504", "is_disabled": 0, "type": "electric_scooter", "lat": 38.90972933333333, "lon": -77.03436783333333, "is_reserved": 0, "fusion_lon": 0.0}, {"rental_uris": {"ios": "https://dc.lft.to/lastmile_qr_scan", "android": "https://dc.lft.to/lastmile_qr_scan"}, "fusion_lat": 0.0, "name": "79bec681115877e57de9adc31f2ef977", "bike_id": "79bec681115877e57de9adc31f2ef977", "is_disabled": 0, "type": "electric_scooter", "lat": 38.871768833333334, "lon": -77.00609533333333, "is_reserved": 0, "fusion_lon": 0.0}, {"rental_uris": {"ios": "https://dc.lft.to/lastmile_qr_scan", "android": "https://dc.lft.to/lastmile_qr_scan"}, "fusion_lat": 0.0, "name": "efb3afb08a3fd8739158fc73c290b77a", "bike_id": "efb3afb08a3fd8739158fc73c290b77a", "is_disabled": 0, "type": "electric_scooter", "lat": 38.9097265, "lon": -77.04403866666667, "is_reserved": 0, "fusion_lon": 0.0}, {"rental_uris": {"ios": "https://dc.lft.to/lastmile_qr_scan", "android": "https://dc.lft.to/lastmile_qr_scan"}, "fusion_lat": 0.0, "name": "89afc5daf6d658bad95a70fc34b12d3d", "bike_id": "89afc5daf6d658bad95a70fc34b12d3d", "is_disabled": 0, "type": "electric_scooter", "lat": 38.91134533333334, "lon": -77.02194883333334, "is_reserved": 0, "fusion_lon": 0.0}, {"rental_uris": {"ios": "https://dc.lft.to/lastmile_qr_scan", "android": "https://dc.lft.to/lastmile_qr_scan"}, "fusion_lat": 0.0, "name": "21f5fd24c6262d25bc4aa0981e325e78", "bike_id": "21f5fd24c6262d25bc4aa0981e325e78", "is_disabled": 0, "type": "electric_scooter", "lat": 38.912706, "lon": -77.03643333333333, "is_reserved": 0, "fusion_lon": 0.0}, {"rental_uris": {"ios": "https://dc.lft.to/lastmile_qr_scan", "android": "https://dc.lft.to/lastmile_qr_scan"}, "fusion_lat": 0.0, "name": "36c4a9e6d79a4b630df0467a77d091d3", "bike_id": "36c4a9e6d79a4b630df0467a77d091d3", "is_disabled": 0, "type": "electric_scooter", "lat": 38.915628166666664, "lon": -77.0251045, "is_reserved": 0, "fusion_lon": 0.0}, {"rental_uris": {"ios": "https://dc.lft.to/lastmile_qr_scan", "android": "https://dc.lft.to/lastmile_qr_scan"}, "fusion_lat": 0.0, "name": "4b5db4653636214842e64c3d76ded4f5", "bike_id": "4b5db4653636214842e64c3d76ded4f5", "is_disabled": 0, "type": "electric_scooter", "lat": 38.93241916666667, "lon": -76.99522533333334, "is_reserved": 0, "fusion_lon": 0.0}, {"rental_uris": {"ios": "https://dc.lft.to/lastmile_qr_scan", "android": "https://dc.lft.to/lastmile_qr_scan"}, "fusion_lat": 0.0, "name": "79ad6547cc84cbeb09cbd3c7ce5a7890", "bike_id": "79ad6547cc84cbeb09cbd3c7ce5a7890", "is_disabled": 0, "type": "electric_scooter", "lat": 38.91695283333333, "lon": -77.02674116666667, "is_reserved": 0, "fusion_lon": 0.0}, {"rental_uris": {"ios": "https://dc.lft.to/lastmile_qr_scan", "android": "https://dc.lft.to/lastmile_qr_scan"}, "fusion_lat": 0.0, "name": "e93ec8caa406b824517eab407d934af2", "bike_id": "e93ec8caa406b824517eab407d934af2", "is_disabled": 0, "type": "electric_scooter", "lat": 38.949532166666664, "lon": -77.0271875, "is_reserved": 0, "fusion_lon": 0.0}, {"rental_uris": {"ios": "https://dc.lft.to/lastmile_qr_scan", "android": "https://dc.lft.to/lastmile_qr_scan"}, "fusion_lat": 0.0, "name": "dd67e8e6ecc4e08088d9bb2292a4c2fa", "bike_id": "dd67e8e6ecc4e08088d9bb2292a4c2fa", "is_disabled": 0, "type": "electric_scooter", "lat": 38.90667166666667, "lon": -77.02703616666666, "is_reserved": 0, "fusion_lon": 0.0}, {"rental_uris": {"ios": "https://dc.lft.to/lastmile_qr_scan", "android": "https://dc.lft.to/lastmile_qr_scan"}, "fusion_lat": 0.0, "name": "daf8964824a463cafd67148ed251a8a8", "bike_id": "daf8964824a463cafd67148ed251a8a8", "is_disabled": 0, "type": "electric_scooter", "lat": 38.908502166666665, "lon": -76.99801483333333, "is_reserved": 0, "fusion_lon": 0.0}, {"rental_uris": {"ios": "https://dc.lft.to/lastmile_qr_scan", "android": "https://dc.lft.to/lastmile_qr_scan"}, "fusion_lat": 0.0, "name": "4f7bb4c122a312fc6769c56df40b1df6", "bike_id": "4f7bb4c122a312fc6769c56df40b1df6", "is_disabled": 0, "type": "electric_scooter", "lat": 38.90395783333334, "lon": -77.0404975, "is_reserved": 0, "fusion_lon": 0.0}, {"rental_uris": {"ios": "https://dc.lft.to/lastmile_qr_scan", "android": "https://dc.lft.to/lastmile_qr_scan"}, "fusion_lat": 0.0, "name": "357144820fa0f0903ac6062eb44fb23a", "bike_id": "357144820fa0f0903ac6062eb44fb23a", "is_disabled": 0, "type": "electric_scooter", "lat": 38.91677383333333, "lon": -77.029702, "is_reserved": 0, "fusion_lon": 0.0}, {"rental_uris": {"ios": "https://dc.lft.to/lastmile_qr_scan", "android": "https://dc.lft.to/lastmile_qr_scan"}, "fusion_lat": 0.0, "name": "277b1b261a15d9a7e11a76d8b3f0f34e", "bike_id": "277b1b261a15d9a7e11a76d8b3f0f34e", "is_disabled": 0, "type": "electric_scooter", "lat": 38.911053833333334, "lon": -77.044641, "is_reserved": 0, "fusion_lon": 0.0}, {"rental_uris": {"ios": "https://dc.lft.to/lastmile_qr_scan", "android": "https://dc.lft.to/lastmile_qr_scan"}, "fusion_lat": 0.0, "name": "64a389e902b539bca171460cd7de1989", "bike_id": "64a389e902b539bca171460cd7de1989", "is_disabled": 0, "type": "electric_scooter", "lat": 38.8857305, "lon": -76.91912666666667, "is_reserved": 0, "fusion_lon": 0.0}, {"rental_uris": {"ios": "https://dc.lft.to/lastmile_qr_scan", "android": "https://dc.lft.to/lastmile_qr_scan"}, "fusion_lat": 0.0, "name": "e10aedb5fe11790374993c187771b6ee", "bike_id": "e10aedb5fe11790374993c187771b6ee", "is_disabled": 0, "type": "electric_scooter", "lat": 38.91266866666667, "lon": -77.03644933333334, "is_reserved": 0, "fusion_lon": 0.0}, {"rental_uris": {"ios": "https://dc.lft.to/lastmile_qr_scan", "android": "https://dc.lft.to/lastmile_qr_scan"}, "fusion_lat": 0.0, "name": "51a2f1544828634039f4d831d21a1334", "bike_id": "51a2f1544828634039f4d831d21a1334", "is_disabled": 0, "type": "electric_scooter", "lat": 38.915652333333334, "lon": -77.01196916666666, "is_reserved": 0, "fusion_lon": 0.0}, {"rental_uris": {"ios": "https://dc.lft.to/lastmile_qr_scan", "android": "https://dc.lft.to/lastmile_qr_scan"}, "fusion_lat": 0.0, "name": "ddf9779a7abadd5c415933e1f0e93ba8", "bike_id": "ddf9779a7abadd5c415933e1f0e93ba8", "is_disabled": 0, "type": "electric_scooter", "lat": 38.89222433333333, "lon": -77.0333715, "is_reserved": 0, "fusion_lon": 0.0}, {"rental_uris": {"ios": "https://dc.lft.to/lastmile_qr_scan", "android": "https://dc.lft.to/lastmile_qr_scan"}, "fusion_lat": 0.0, "name": "d1d49074f0b6be5671d204346e15643e", "bike_id": "d1d49074f0b6be5671d204346e15643e", "is_disabled": 0, "type": "electric_scooter", "lat": 38.90246233333333, "lon": -77.03421066666667, "is_reserved": 0, "fusion_lon": 0.0}, {"rental_uris": {"ios": "https://dc.lft.to/lastmile_qr_scan", "android": "https://dc.lft.to/lastmile_qr_scan"}, "fusion_lat": 0.0, "name": "dc2ef5f53f2c10357273e9f5e2387295", "bike_id": "dc2ef5f53f2c10357273e9f5e2387295", "is_disabled": 0, "type": "electric_scooter", "lat": 38.9111855, "lon": -77.04358533333334, "is_reserved": 0, "fusion_lon": 0.0}, {"rental_uris": {"ios": "https://dc.lft.to/lastmile_qr_scan", "android": "https://dc.lft.to/lastmile_qr_scan"}, "fusion_lat": 0.0, "name": "181ed51c2c86618b9ddf2a1fcbb437c3", "bike_id": "181ed51c2c86618b9ddf2a1fcbb437c3", "is_disabled": 0, "type": "electric_scooter", "lat": 38.90571816666667, "lon": -77.00597316666666, "is_reserved": 0, "fusion_lon": 0.0}, {"rental_uris": {"ios": "https://dc.lft.to/lastmile_qr_scan", "android": "https://dc.lft.to/lastmile_qr_scan"}, "fusion_lat": 0.0, "name": "ed5c7b2b7ad40791603d2304314ca3b4", "bike_id": "ed5c7b2b7ad40791603d2304314ca3b4", "is_disabled": 0, "type": "electric_scooter", "lat": 38.89221583333333, "lon": -77.02655283333333, "is_reserved": 0, "fusion_lon": 0.0}, {"rental_uris": {"ios": "https://dc.lft.to/lastmile_qr_scan", "android": "https://dc.lft.to/lastmile_qr_scan"}, "fusion_lat": 0.0, "name": "4fa5b78d51bcd5517a7279fed4950cd3", "bike_id": "4fa5b78d51bcd5517a7279fed4950cd3", "is_disabled": 0, "type": "electric_scooter", "lat": 38.9132695, "lon": -77.032648, "is_reserved": 0, "fusion_lon": 0.0}, {"rental_uris": {"ios": "https://dc.lft.to/lastmile_qr_scan", "android": "https://dc.lft.to/lastmile_qr_scan"}, "fusion_lat": 0.0, "name": "e1a26ba6a08fead8ccf2f9535d527350", "bike_id": "e1a26ba6a08fead8ccf2f9535d527350", "is_disabled": 0, "type": "electric_scooter", "lat": 38.89216616666667, "lon": -77.046843, "is_reserved": 0, "fusion_lon": 0.0}, {"rental_uris": {"ios": "https://dc.lft.to/lastmile_qr_scan", "android": "https://dc.lft.to/lastmile_qr_scan"}, "fusion_lat": 0.0, "name": "60582e1b8e1f84daddb9d66014005b48", "bike_id": "60582e1b8e1f84daddb9d66014005b48", "is_disabled": 0, "type": "electric_scooter", "lat": 38.940842333333336, "lon": -77.027253, "is_reserved": 0, "fusion_lon": 0.0}, {"rental_uris": {"ios": "https://dc.lft.to/lastmile_qr_scan", "android": "https://dc.lft.to/lastmile_qr_scan"}, "fusion_lat": 0.0, "name": "fbfc78aa5895a124654dffa6500855ea", "bike_id": "fbfc78aa5895a124654dffa6500855ea", "is_disabled": 0, "type": "electric_scooter", "lat": 38.93455433333333, "lon": -77.0386605, "is_reserved": 0, "fusion_lon": 0.0}, {"rental_uris": {"ios": "https://dc.lft.to/lastmile_qr_scan", "android": "https://dc.lft.to/lastmile_qr_scan"}, "fusion_lat": 0.0, "name": "01df2618e487b6a66f83976c4e753e1a", "bike_id": "01df2618e487b6a66f83976c4e753e1a", "is_disabled": 0, "type": "electric_scooter", "lat": 38.8811875, "lon": -77.016578, "is_reserved": 0, "fusion_lon": 0.0}, {"rental_uris": {"ios": "https://dc.lft.to/lastmile_qr_scan", "android": "https://dc.lft.to/lastmile_qr_scan"}, "fusion_lat": 0.0, "name": "33f97b39913bc9a02724430308a8585d", "bike_id": "33f97b39913bc9a02724430308a8585d", "is_disabled": 0, "type": "electric_scooter", "lat": 38.909770333333334, "lon": -77.0344515, "is_reserved": 0, "fusion_lon": 0.0}, {"rental_uris": {"ios": "https://dc.lft.to/lastmile_qr_scan", "android": "https://dc.lft.to/lastmile_qr_scan"}, "fusion_lat": 0.0, "name": "9c9bd98f87a64c23d8619811eaa34f75", "bike_id": "9c9bd98f87a64c23d8619811eaa34f75", "is_disabled": 0, "type": "electric_bike", "lat": 38.920615166666664, "lon": -76.9977125, "is_reserved": 0, "fusion_lon": 0.0}, {"rental_uris": {"ios": "https://dc.lft.to/lastmile_qr_scan", "android": "https://dc.lft.to/lastmile_qr_scan"}, "fusion_lat": 0.0, "name": "82f519df05dd4c2fe86309ef2d6ce985", "bike_id": "82f519df05dd4c2fe86309ef2d6ce985", "is_disabled": 0, "type": "electric_bike", "lat": 38.959536166666666, "lon": -77.100872, "is_reserved": 0, "fusion_lon": 0.0}, {"rental_uris": {"ios": "https://dc.lft.to/lastmile_qr_scan", "android": "https://dc.lft.to/lastmile_qr_scan"}, "fusion_lat": 0.0, "name": "be7b6c89cd40a7daef9c901c4be87cf2", "bike_id": "be7b6c89cd40a7daef9c901c4be87cf2", "is_disabled": 0, "type": "electric_scooter", "lat": 38.895227, "lon": -77.02799283333333, "is_reserved": 0, "fusion_lon": 0.0}, {"rental_uris": {"ios": "https://dc.lft.to/lastmile_qr_scan", "android": "https://dc.lft.to/lastmile_qr_scan"}, "fusion_lat": 0.0, "name": "cf631ab6eda06935169f3831eed52331", "bike_id": "cf631ab6eda06935169f3831eed52331", "is_disabled": 0, "type": "electric_scooter", "lat": 38.917449, "lon": -77.02398666666667, "is_reserved": 0, "fusion_lon": 0.0}, {"rental_uris": {"ios": "https://dc.lft.to/lastmile_qr_scan", "android": "https://dc.lft.to/lastmile_qr_scan"}, "fusion_lat": 0.0, "name": "81bc263c30945d3123d0057c5b5bc44b", "bike_id": "81bc263c30945d3123d0057c5b5bc44b", "is_disabled": 0, "type": "electric_scooter", "lat": 38.949572333333336, "lon": -77.02722466666667, "is_reserved": 0, "fusion_lon": 0.0}, {"rental_uris": {"ios": "https://dc.lft.to/lastmile_qr_scan", "android": "https://dc.lft.to/lastmile_qr_scan"}, "fusion_lat": 0.0, "name": "6a8c2e3618322d90b6d9f26c49fc240c", "bike_id": "6a8c2e3618322d90b6d9f26c49fc240c", "is_disabled": 0, "type": "electric_scooter", "lat": 38.9064225, "lon": -77.00611033333334, "is_reserved": 0, "fusion_lon": 0.0}, {"rental_uris": {"ios": "https://dc.lft.to/lastmile_qr_scan", "android": "https://dc.lft.to/lastmile_qr_scan"}, "fusion_lat": 0.0, "name": "399b1e8aaff54117d525dcd0e88153fe", "bike_id": "399b1e8aaff54117d525dcd0e88153fe", "is_disabled": 0, "type": "electric_scooter", "lat": 38.912251, "lon": -77.03192216666666, "is_reserved": 0, "fusion_lon": 0.0}, {"rental_uris": {"ios": "https://dc.lft.to/lastmile_qr_scan", "android": "https://dc.lft.to/lastmile_qr_scan"}, "fusion_lat": 0.0, "name": "351bf30fae46de3cf5449fd9a4643158", "bike_id": "351bf30fae46de3cf5449fd9a4643158", "is_disabled": 0, "type": "electric_scooter", "lat": 38.902597666666665, "lon": -77.01733783333333, "is_reserved": 0, "fusion_lon": 0.0}, {"rental_uris": {"ios": "https://dc.lft.to/lastmile_qr_scan", "android": "https://dc.lft.to/lastmile_qr_scan"}, "fusion_lat": 0.0, "name": "bd0dff3143464a20e8a2970497b1e267", "bike_id": "bd0dff3143464a20e8a2970497b1e267", "is_disabled": 0, "type": "electric_scooter", "lat": 38.9439935, "lon": -77.026162, "is_reserved": 0, "fusion_lon": 0.0}, {"rental_uris": {"ios": "https://dc.lft.to/lastmile_qr_scan", "android": "https://dc.lft.to/lastmile_qr_scan"}, "fusion_lat": 0.0, "name": "3968b376f7ad29a018b5a30be98da39f", "bike_id": "3968b376f7ad29a018b5a30be98da39f", "is_disabled": 0, "type": "electric_bike", "lat": 38.838093666666666, "lon": -77.0952265, "is_reserved": 0, "fusion_lon": 0.0}, {"rental_uris": {"ios": "https://dc.lft.to/lastmile_qr_scan", "android": "https://dc.lft.to/lastmile_qr_scan"}, "fusion_lat": 0.0, "name": "454d9a10092e29f7ba17bd55dae2e97b", "bike_id": "454d9a10092e29f7ba17bd55dae2e97b", "is_disabled": 0, "type": "electric_scooter", "lat": 38.90056033333333, "lon": -77.0513885, "is_reserved": 0, "fusion_lon": 0.0}, {"rental_uris": {"ios": "https://dc.lft.to/lastmile_qr_scan", "android": "https://dc.lft.to/lastmile_qr_scan"}, "fusion_lat": 0.0, "name": "0ed572b8496cc28f605351d8767dfdd0", "bike_id": "0ed572b8496cc28f605351d8767dfdd0", "is_disabled": 0, "type": "electric_scooter", "lat": 38.91687483333333, "lon": -77.02978133333333, "is_reserved": 0, "fusion_lon": 0.0}, {"rental_uris": {"ios": "https://dc.lft.to/lastmile_qr_scan", "android": "https://dc.lft.to/lastmile_qr_scan"}, "fusion_lat": 0.0, "name": "2e58a4d5b6d450ca3d9ded5a6258264c", "bike_id": "2e58a4d5b6d450ca3d9ded5a6258264c", "is_disabled": 0, "type": "electric_scooter", "lat": 38.89218916666667, "lon": -77.03212933333333, "is_reserved": 0, "fusion_lon": 0.0}, {"rental_uris": {"ios": "https://dc.lft.to/lastmile_qr_scan", "android": "https://dc.lft.to/lastmile_qr_scan"}, "fusion_lat": 0.0, "name": "390116e3b69d242618915d13042b574d", "bike_id": "390116e3b69d242618915d13042b574d", "is_disabled": 0, "type": "electric_scooter", "lat": 38.907796166666664, "lon": -77.038584, "is_reserved": 0, "fusion_lon": 0.0}, {"rental_uris": {"ios": "https://dc.lft.to/lastmile_qr_scan", "android": "https://dc.lft.to/lastmile_qr_scan"}, "fusion_lat": 0.0, "name": "28a4ccc0ee44e9eeee18ca05a16d85a2", "bike_id": "28a4ccc0ee44e9eeee18ca05a16d85a2", "is_disabled": 0, "type": "electric_scooter", "lat": 38.927997166666664, "lon": -77.03243683333334, "is_reserved": 0, "fusion_lon": 0.0}, {"rental_uris": {"ios": "https://dc.lft.to/lastmile_qr_scan", "android": "https://dc.lft.to/lastmile_qr_scan"}, "fusion_lat": 0.0, "name": "a3d54e112f547a2861fbdb5fdd0e3044", "bike_id": "a3d54e112f547a2861fbdb5fdd0e3044", "is_disabled": 0, "type": "electric_scooter", "lat": 38.91687916666667, "lon": -77.03138483333333, "is_reserved": 0, "fusion_lon": 0.0}, {"rental_uris": {"ios": "https://dc.lft.to/lastmile_qr_scan", "android": "https://dc.lft.to/lastmile_qr_scan"}, "fusion_lat": 0.0, "name": "52e2ee808203426592b09f4c25b09de9", "bike_id": "52e2ee808203426592b09f4c25b09de9", "is_disabled": 0, "type": "electric_scooter", "lat": 38.91273733333333, "lon": -77.03181916666666, "is_reserved": 0, "fusion_lon": 0.0}, {"rental_uris": {"ios": "https://dc.lft.to/lastmile_qr_scan", "android": "https://dc.lft.to/lastmile_qr_scan"}, "fusion_lat": 0.0, "name": "7a28f7738932711915332c1d3e816fa7", "bike_id": "7a28f7738932711915332c1d3e816fa7", "is_disabled": 0, "type": "electric_scooter", "lat": 38.91548, "lon": -77.022119, "is_reserved": 0, "fusion_lon": 0.0}, {"rental_uris": {"ios": "https://dc.lft.to/lastmile_qr_scan", "android": "https://dc.lft.to/lastmile_qr_scan"}, "fusion_lat": 0.0, "name": "1f5579d190c19e261126034f4775d975", "bike_id": "1f5579d190c19e261126034f4775d975", "is_disabled": 0, "type": "electric_scooter", "lat": 38.91105983333333, "lon": -77.04322333333333, "is_reserved": 0, "fusion_lon": 0.0}, {"rental_uris": {"ios": "https://dc.lft.to/lastmile_qr_scan", "android": "https://dc.lft.to/lastmile_qr_scan"}, "fusion_lat": 0.0, "name": "7cf4ae7d62b1d53c26882cec496c215b", "bike_id": "7cf4ae7d62b1d53c26882cec496c215b", "is_disabled": 0, "type": "electric_scooter", "lat": 38.915547833333335, "lon": -77.03858716666667, "is_reserved": 0, "fusion_lon": 0.0}, {"rental_uris": {"ios": "https://dc.lft.to/lastmile_qr_scan", "android": "https://dc.lft.to/lastmile_qr_scan"}, "fusion_lat": 0.0, "name": "984734e43f88bc5e3df63151d28b1337", "bike_id": "984734e43f88bc5e3df63151d28b1337", "is_disabled": 0, "type": "electric_scooter", "lat": 38.880193, "lon": -76.9881975, "is_reserved": 0, "fusion_lon": 0.0}, {"rental_uris": {"ios": "https://dc.lft.to/lastmile_qr_scan", "android": "https://dc.lft.to/lastmile_qr_scan"}, "fusion_lat": 0.0, "name": "0ca7a80918389b1021e0107d50025bb4", "bike_id": "0ca7a80918389b1021e0107d50025bb4", "is_disabled": 0, "type": "electric_bike", "lat": 38.918059666666664, "lon": -77.22329516666667, "is_reserved": 0, "fusion_lon": 0.0}, {"rental_uris": {"ios": "https://dc.lft.to/lastmile_qr_scan", "android": "https://dc.lft.to/lastmile_qr_scan"}, "fusion_lat": 0.0, "name": "d7b523c4390566b4a7f624c79e937a39", "bike_id": "d7b523c4390566b4a7f624c79e937a39", "is_disabled": 0, "type": "electric_scooter", "lat": 38.90043466666667, "lon": -77.04350916666667, "is_reserved": 0, "fusion_lon": 0.0}, {"rental_uris": {"ios": "https://dc.lft.to/lastmile_qr_scan", "android": "https://dc.lft.to/lastmile_qr_scan"}, "fusion_lat": 0.0, "name": "585a4d4c889c2ce25031169c51709a6c", "bike_id": "585a4d4c889c2ce25031169c51709a6c", "is_disabled": 0, "type": "electric_scooter", "lat": 38.9222845, "lon": -77.022384, "is_reserved": 0, "fusion_lon": 0.0}, {"rental_uris": {"ios": "https://dc.lft.to/lastmile_qr_scan", "android": "https://dc.lft.to/lastmile_qr_scan"}, "fusion_lat": 0.0, "name": "13d96fb47375d8bf223658e1757973d7", "bike_id": "13d96fb47375d8bf223658e1757973d7", "is_disabled": 0, "type": "electric_bike", "lat": 38.87731483333334, "lon": -76.99484583333333, "is_reserved": 0, "fusion_lon": 0.0}, {"rental_uris": {"ios": "https://dc.lft.to/lastmile_qr_scan", "android": "https://dc.lft.to/lastmile_qr_scan"}, "fusion_lat": 0.0, "name": "dfd046c824028b88b31da650873d1031", "bike_id": "dfd046c824028b88b31da650873d1031", "is_disabled": 0, "type": "electric_scooter", "lat": 38.9047245, "lon": -77.04863316666666, "is_reserved": 0, "fusion_lon": 0.0}, {"rental_uris": {"ios": "https://dc.lft.to/lastmile_qr_scan", "android": "https://dc.lft.to/lastmile_qr_scan"}, "fusion_lat": 0.0, "name": "1969c087b4f69d72737980c573fe9298", "bike_id": "1969c087b4f69d72737980c573fe9298", "is_disabled": 0, "type": "electric_scooter", "lat": 38.886666166666664, "lon": -76.93615266666667, "is_reserved": 0, "fusion_lon": 0.0}, {"rental_uris": {"ios": "https://dc.lft.to/lastmile_qr_scan", "android": "https://dc.lft.to/lastmile_qr_scan"}, "fusion_lat": 0.0, "name": "fead4cdc0cb9bf4201a9b54ac272e88a", "bike_id": "fead4cdc0cb9bf4201a9b54ac272e88a", "is_disabled": 0, "type": "electric_scooter", "lat": 38.869557666666665, "lon": -76.96679, "is_reserved": 0, "fusion_lon": 0.0}, {"rental_uris": {"ios": "https://dc.lft.to/lastmile_qr_scan", "android": "https://dc.lft.to/lastmile_qr_scan"}, "fusion_lat": 0.0, "name": "3bcc6dbf7f7bf5e80fb8296eeb6f9200", "bike_id": "3bcc6dbf7f7bf5e80fb8296eeb6f9200", "is_disabled": 0, "type": "electric_bike", "lat": 38.86385716666667, "lon": -76.98989433333334, "is_reserved": 0, "fusion_lon": 0.0}, {"rental_uris": {"ios": "https://dc.lft.to/lastmile_qr_scan", "android": "https://dc.lft.to/lastmile_qr_scan"}, "fusion_lat": 0.0, "name": "1db0e5d3e6fdd9f5cdb5d0fcabd942d3", "bike_id": "1db0e5d3e6fdd9f5cdb5d0fcabd942d3", "is_disabled": 0, "type": "electric_scooter", "lat": 38.95423916666667, "lon": -77.02768566666667, "is_reserved": 0, "fusion_lon": 0.0}, {"rental_uris": {"ios": "https://dc.lft.to/lastmile_qr_scan", "android": "https://dc.lft.to/lastmile_qr_scan"}, "fusion_lat": 0.0, "name": "b44c3fd59d544c1b8ac3356cf326cb2e", "bike_id": "b44c3fd59d544c1b8ac3356cf326cb2e", "is_disabled": 0, "type": "electric_scooter", "lat": 38.88731383333333, "lon": -77.02824016666666, "is_reserved": 0, "fusion_lon": 0.0}, {"rental_uris": {"ios": "https://dc.lft.to/lastmile_qr_scan", "android": "https://dc.lft.to/lastmile_qr_scan"}, "fusion_lat": 0.0, "name": "0e18b75ff3e054749426da437ee46078", "bike_id": "0e18b75ff3e054749426da437ee46078", "is_disabled": 0, "type": "electric_scooter", "lat": 38.93193183333333, "lon": -77.03308316666667, "is_reserved": 0, "fusion_lon": 0.0}, {"rental_uris": {"ios": "https://dc.lft.to/lastmile_qr_scan", "android": "https://dc.lft.to/lastmile_qr_scan"}, "fusion_lat": 0.0, "name": "ad9a5489a21e954272717c419f9b35bc", "bike_id": "ad9a5489a21e954272717c419f9b35bc", "is_disabled": 0, "type": "electric_scooter", "lat": 38.935523333333336, "lon": -77.02223966666666, "is_reserved": 0, "fusion_lon": 0.0}, {"rental_uris": {"ios": "https://dc.lft.to/lastmile_qr_scan", "android": "https://dc.lft.to/lastmile_qr_scan"}, "fusion_lat": 0.0, "name": "69a98a198332dae7dd42dc915ce6be57", "bike_id": "69a98a198332dae7dd42dc915ce6be57", "is_disabled": 0, "type": "electric_bike", "lat": 38.962845333333334, "lon": -76.9830155, "is_reserved": 0, "fusion_lon": 0.0}, {"rental_uris": {"ios": "https://dc.lft.to/lastmile_qr_scan", "android": "https://dc.lft.to/lastmile_qr_scan"}, "fusion_lat": 0.0, "name": "2e49b64cdba2d284a57b12583a67374d", "bike_id": "2e49b64cdba2d284a57b12583a67374d", "is_disabled": 0, "type": "electric_scooter", "lat": 38.90681933333333, "lon": -77.0269145, "is_reserved": 0, "fusion_lon": 0.0}, {"rental_uris": {"ios": "https://dc.lft.to/lastmile_qr_scan", "android": "https://dc.lft.to/lastmile_qr_scan"}, "fusion_lat": 0.0, "name": "7c688cbb3ff7f1c2ab605345e4102e87", "bike_id": "7c688cbb3ff7f1c2ab605345e4102e87", "is_disabled": 0, "type": "electric_scooter", "lat": 38.938865166666666, "lon": -77.02490866666666, "is_reserved": 0, "fusion_lon": 0.0}, {"rental_uris": {"ios": "https://dc.lft.to/lastmile_qr_scan", "android": "https://dc.lft.to/lastmile_qr_scan"}, "fusion_lat": 0.0, "name": "f74d58b780a1789e73c2fba765fe909a", "bike_id": "f74d58b780a1789e73c2fba765fe909a", "is_disabled": 0, "type": "electric_bike", "lat": 38.9864715, "lon": -77.056319, "is_reserved": 0, "fusion_lon": 0.0}, {"rental_uris": {"ios": "https://dc.lft.to/lastmile_qr_scan", "android": "https://dc.lft.to/lastmile_qr_scan"}, "fusion_lat": 0.0, "name": "dcf78b37cc6c4e8899a9b0780c15ad8c", "bike_id": "dcf78b37cc6c4e8899a9b0780c15ad8c", "is_disabled": 0, "type": "electric_scooter", "lat": 38.9055045, "lon": -77.03453316666666, "is_reserved": 0, "fusion_lon": 0.0}, {"rental_uris": {"ios": "https://dc.lft.to/lastmile_qr_scan", "android": "https://dc.lft.to/lastmile_qr_scan"}, "fusion_lat": 0.0, "name": "820636c6b5c48cd30b05a4b0bd65f2c8", "bike_id": "820636c6b5c48cd30b05a4b0bd65f2c8", "is_disabled": 0, "type": "electric_scooter", "lat": 38.923908833333336, "lon": -77.03543866666666, "is_reserved": 0, "fusion_lon": 0.0}, {"rental_uris": {"ios": "https://dc.lft.to/lastmile_qr_scan", "android": "https://dc.lft.to/lastmile_qr_scan"}, "fusion_lat": 0.0, "name": "dfec1628de53e26161d0ac3548fe50da", "bike_id": "dfec1628de53e26161d0ac3548fe50da", "is_disabled": 0, "type": "electric_scooter", "lat": 38.924330166666664, "lon": -77.05214833333334, "is_reserved": 0, "fusion_lon": 0.0}, {"rental_uris": {"ios": "https://dc.lft.to/lastmile_qr_scan", "android": "https://dc.lft.to/lastmile_qr_scan"}, "fusion_lat": 0.0, "name": "db4305d5a29f00ed6529496e6785363c", "bike_id": "db4305d5a29f00ed6529496e6785363c", "is_disabled": 0, "type": "electric_scooter", "lat": 38.9462035, "lon": -77.0251895, "is_reserved": 0, "fusion_lon": 0.0}, {"rental_uris": {"ios": "https://dc.lft.to/lastmile_qr_scan", "android": "https://dc.lft.to/lastmile_qr_scan"}, "fusion_lat": 0.0, "name": "92bd22be72f1bd8edb357c992255f953", "bike_id": "92bd22be72f1bd8edb357c992255f953", "is_disabled": 0, "type": "electric_scooter", "lat": 38.92783683333333, "lon": -77.053154, "is_reserved": 0, "fusion_lon": 0.0}, {"rental_uris": {"ios": "https://dc.lft.to/lastmile_qr_scan", "android": "https://dc.lft.to/lastmile_qr_scan"}, "fusion_lat": 0.0, "name": "a8f4e000a6cd339f5474249a08b2542e", "bike_id": "a8f4e000a6cd339f5474249a08b2542e", "is_disabled": 0, "type": "electric_scooter", "lat": 38.884276166666666, "lon": -76.95754566666666, "is_reserved": 0, "fusion_lon": 0.0}, {"rental_uris": {"ios": "https://dc.lft.to/lastmile_qr_scan", "android": "https://dc.lft.to/lastmile_qr_scan"}, "fusion_lat": 0.0, "name": "552a3e0cf27602551e48175d98376473", "bike_id": "552a3e0cf27602551e48175d98376473", "is_disabled": 0, "type": "electric_scooter", "lat": 38.89836066666667, "lon": -76.94636116666666, "is_reserved": 0, "fusion_lon": 0.0}, {"rental_uris": {"ios": "https://dc.lft.to/lastmile_qr_scan", "android": "https://dc.lft.to/lastmile_qr_scan"}, "fusion_lat": 0.0, "name": "c3ab58726b9f34a07951e35e874b82fe", "bike_id": "c3ab58726b9f34a07951e35e874b82fe", "is_disabled": 0, "type": "electric_scooter", "lat": 38.84431283333333, "lon": -76.9977505, "is_reserved": 0, "fusion_lon": 0.0}, {"rental_uris": {"ios": "https://dc.lft.to/lastmile_qr_scan", "android": "https://dc.lft.to/lastmile_qr_scan"}, "fusion_lat": 0.0, "name": "50ea5edb8ecf90be57cad1813e6eb020", "bike_id": "50ea5edb8ecf90be57cad1813e6eb020", "is_disabled": 0, "type": "electric_bike", "lat": 38.8622145, "lon": -77.05067666666666, "is_reserved": 0, "fusion_lon": 0.0}, {"rental_uris": {"ios": "https://dc.lft.to/lastmile_qr_scan", "android": "https://dc.lft.to/lastmile_qr_scan"}, "fusion_lat": 0.0, "name": "87461540f34483666b95e7250f86dfbb", "bike_id": "87461540f34483666b95e7250f86dfbb", "is_disabled": 0, "type": "electric_scooter", "lat": 38.8922635, "lon": -77.03373233333333, "is_reserved": 0, "fusion_lon": 0.0}, {"rental_uris": {"ios": "https://dc.lft.to/lastmile_qr_scan", "android": "https://dc.lft.to/lastmile_qr_scan"}, "fusion_lat": 0.0, "name": "6aa935b6d5374761fc731c668d5e84aa", "bike_id": "6aa935b6d5374761fc731c668d5e84aa", "is_disabled": 0, "type": "electric_scooter", "lat": 38.908535666666666, "lon": -77.04441866666667, "is_reserved": 0, "fusion_lon": 0.0}, {"rental_uris": {"ios": "https://dc.lft.to/lastmile_qr_scan", "android": "https://dc.lft.to/lastmile_qr_scan"}, "fusion_lat": 0.0, "name": "7252dba7586834573b47452124bc3a68", "bike_id": "7252dba7586834573b47452124bc3a68", "is_disabled": 0, "type": "electric_scooter", "lat": 38.92375, "lon": -77.01895433333334, "is_reserved": 0, "fusion_lon": 0.0}, {"rental_uris": {"ios": "https://dc.lft.to/lastmile_qr_scan", "android": "https://dc.lft.to/lastmile_qr_scan"}, "fusion_lat": 0.0, "name": "a20dac827663e9b48f47996e33abf223", "bike_id": "a20dac827663e9b48f47996e33abf223", "is_disabled": 0, "type": "electric_bike", "lat": 38.871409166666666, "lon": -76.93698033333334, "is_reserved": 0, "fusion_lon": 0.0}, {"rental_uris": {"ios": "https://dc.lft.to/lastmile_qr_scan", "android": "https://dc.lft.to/lastmile_qr_scan"}, "fusion_lat": 0.0, "name": "32a2362e3dea1e41d2524d158b74658d", "bike_id": "32a2362e3dea1e41d2524d158b74658d", "is_disabled": 0, "type": "electric_scooter", "lat": 38.92246683333333, "lon": -77.03012333333334, "is_reserved": 0, "fusion_lon": 0.0}, {"rental_uris": {"ios": "https://dc.lft.to/lastmile_qr_scan", "android": "https://dc.lft.to/lastmile_qr_scan"}, "fusion_lat": 0.0, "name": "f01bf5134eb750a9c903baccbf9d7013", "bike_id": "f01bf5134eb750a9c903baccbf9d7013", "is_disabled": 0, "type": "electric_scooter", "lat": 38.8904385, "lon": -76.937596, "is_reserved": 0, "fusion_lon": 0.0}, {"rental_uris": {"ios": "https://dc.lft.to/lastmile_qr_scan", "android": "https://dc.lft.to/lastmile_qr_scan"}, "fusion_lat": 0.0, "name": "d2bd933953173ef4e444280052d92e41", "bike_id": "d2bd933953173ef4e444280052d92e41", "is_disabled": 0, "type": "electric_scooter", "lat": 38.84426583333333, "lon": -76.9977605, "is_reserved": 0, "fusion_lon": 0.0}, {"rental_uris": {"ios": "https://dc.lft.to/lastmile_qr_scan", "android": "https://dc.lft.to/lastmile_qr_scan"}, "fusion_lat": 0.0, "name": "dae987af3cd4c71697b6cf0a216d7066", "bike_id": "dae987af3cd4c71697b6cf0a216d7066", "is_disabled": 0, "type": "electric_bike", "lat": 38.857198, "lon": -76.97071166666667, "is_reserved": 0, "fusion_lon": 0.0}, {"rental_uris": {"ios": "https://dc.lft.to/lastmile_qr_scan", "android": "https://dc.lft.to/lastmile_qr_scan"}, "fusion_lat": 0.0, "name": "1729a438024320ceeb70f7d6bfdc740f", "bike_id": "1729a438024320ceeb70f7d6bfdc740f", "is_disabled": 0, "type": "electric_scooter", "lat": 38.9020255, "lon": -77.05116433333333, "is_reserved": 0, "fusion_lon": 0.0}, {"rental_uris": {"ios": "https://dc.lft.to/lastmile_qr_scan", "android": "https://dc.lft.to/lastmile_qr_scan"}, "fusion_lat": 0.0, "name": "cda13995f93a590a1d696b6cc6ad5939", "bike_id": "cda13995f93a590a1d696b6cc6ad5939", "is_disabled": 0, "type": "electric_scooter", "lat": 38.916658, "lon": -77.02333383333334, "is_reserved": 0, "fusion_lon": 0.0}, {"rental_uris": {"ios": "https://dc.lft.to/lastmile_qr_scan", "android": "https://dc.lft.to/lastmile_qr_scan"}, "fusion_lat": 0.0, "name": "d43143c673e81fcef7167657e4a53e82", "bike_id": "d43143c673e81fcef7167657e4a53e82", "is_disabled": 0, "type": "electric_scooter", "lat": 38.961357, "lon": -77.022319, "is_reserved": 0, "fusion_lon": 0.0}, {"rental_uris": {"ios": "https://dc.lft.to/lastmile_qr_scan", "android": "https://dc.lft.to/lastmile_qr_scan"}, "fusion_lat": 0.0, "name": "1f537853ba559d3fd52b0f936acfb2e2", "bike_id": "1f537853ba559d3fd52b0f936acfb2e2", "is_disabled": 0, "type": "electric_scooter", "lat": 38.851932, "lon": -76.9763085, "is_reserved": 0, "fusion_lon": 0.0}, {"rental_uris": {"ios": "https://dc.lft.to/lastmile_qr_scan", "android": "https://dc.lft.to/lastmile_qr_scan"}, "fusion_lat": 0.0, "name": "b97f7db120af1a8423d346b3bb764ec6", "bike_id": "b97f7db120af1a8423d346b3bb764ec6", "is_disabled": 0, "type": "electric_scooter", "lat": 38.91114966666667, "lon": -77.044654, "is_reserved": 0, "fusion_lon": 0.0}, {"rental_uris": {"ios": "https://dc.lft.to/lastmile_qr_scan", "android": "https://dc.lft.to/lastmile_qr_scan"}, "fusion_lat": 0.0, "name": "21660fb15a4622fe716ec3fface7db63", "bike_id": "21660fb15a4622fe716ec3fface7db63", "is_disabled": 0, "type": "electric_scooter", "lat": 38.90010016666667, "lon": -77.04886616666667, "is_reserved": 0, "fusion_lon": 0.0}, {"rental_uris": {"ios": "https://dc.lft.to/lastmile_qr_scan", "android": "https://dc.lft.to/lastmile_qr_scan"}, "fusion_lat": 0.0, "name": "b374a7a3bfe22adffb8acbdfb541bf87", "bike_id": "b374a7a3bfe22adffb8acbdfb541bf87", "is_disabled": 0, "type": "electric_scooter", "lat": 38.912672, "lon": -77.0455105, "is_reserved": 0, "fusion_lon": 0.0}, {"rental_uris": {"ios": "https://dc.lft.to/lastmile_qr_scan", "android": "https://dc.lft.to/lastmile_qr_scan"}, "fusion_lat": 0.0, "name": "515b5c2d3a9dbd9c4dfd3569d9b95a37", "bike_id": "515b5c2d3a9dbd9c4dfd3569d9b95a37", "is_disabled": 0, "type": "electric_scooter", "lat": 38.918733, "lon": -77.03500766666667, "is_reserved": 0, "fusion_lon": 0.0}, {"rental_uris": {"ios": "https://dc.lft.to/lastmile_qr_scan", "android": "https://dc.lft.to/lastmile_qr_scan"}, "fusion_lat": 0.0, "name": "4ec55c93cdac6281ccd1c61c1516152c", "bike_id": "4ec55c93cdac6281ccd1c61c1516152c", "is_disabled": 0, "type": "electric_scooter", "lat": 38.90278433333334, "lon": -77.03373416666666, "is_reserved": 0, "fusion_lon": 0.0}, {"rental_uris": {"ios": "https://dc.lft.to/lastmile_qr_scan", "android": "https://dc.lft.to/lastmile_qr_scan"}, "fusion_lat": 0.0, "name": "107bbf22810ff6613860216d9f2d86ae", "bike_id": "107bbf22810ff6613860216d9f2d86ae", "is_disabled": 0, "type": "electric_scooter", "lat": 38.86506966666666, "lon": -76.9897745, "is_reserved": 0, "fusion_lon": 0.0}, {"rental_uris": {"ios": "https://dc.lft.to/lastmile_qr_scan", "android": "https://dc.lft.to/lastmile_qr_scan"}, "fusion_lat": 0.0, "name": "96ef38fc2af518b85c0f2bbc0e2993a4", "bike_id": "96ef38fc2af518b85c0f2bbc0e2993a4", "is_disabled": 0, "type": "electric_bike", "lat": 38.9341005, "lon": -77.0251015, "is_reserved": 0, "fusion_lon": 0.0}, {"rental_uris": {"ios": "https://dc.lft.to/lastmile_qr_scan", "android": "https://dc.lft.to/lastmile_qr_scan"}, "fusion_lat": 0.0, "name": "921cd9e50baf6e0e0e36067dbabb90b6", "bike_id": "921cd9e50baf6e0e0e36067dbabb90b6", "is_disabled": 0, "type": "electric_scooter", "lat": 38.896084333333334, "lon": -77.0454555, "is_reserved": 0, "fusion_lon": 0.0}, {"rental_uris": {"ios": "https://dc.lft.to/lastmile_qr_scan", "android": "https://dc.lft.to/lastmile_qr_scan"}, "fusion_lat": 0.0, "name": "b8e0a5783b4033defd0ee270c7367334", "bike_id": "b8e0a5783b4033defd0ee270c7367334", "is_disabled": 0, "type": "electric_scooter", "lat": 38.903769833333335, "lon": -77.03219433333334, "is_reserved": 0, "fusion_lon": 0.0}, {"rental_uris": {"ios": "https://dc.lft.to/lastmile_qr_scan", "android": "https://dc.lft.to/lastmile_qr_scan"}, "fusion_lat": 0.0, "name": "6b6fc9de8de8c99d627ea281556d6539", "bike_id": "6b6fc9de8de8c99d627ea281556d6539", "is_disabled": 0, "type": "electric_scooter", "lat": 38.920630333333335, "lon": -77.043621, "is_reserved": 0, "fusion_lon": 0.0}, {"rental_uris": {"ios": "https://dc.lft.to/lastmile_qr_scan", "android": "https://dc.lft.to/lastmile_qr_scan"}, "fusion_lat": 0.0, "name": "1576c7b24e0562d6c5bf4028aeb00288", "bike_id": "1576c7b24e0562d6c5bf4028aeb00288", "is_disabled": 0, "type": "electric_scooter", "lat": 38.88726966666667, "lon": -77.02827083333334, "is_reserved": 0, "fusion_lon": 0.0}, {"rental_uris": {"ios": "https://dc.lft.to/lastmile_qr_scan", "android": "https://dc.lft.to/lastmile_qr_scan"}, "fusion_lat": 0.0, "name": "780add36d5b1de055d0311160a25fda3", "bike_id": "780add36d5b1de055d0311160a25fda3", "is_disabled": 0, "type": "electric_scooter", "lat": 38.909699333333336, "lon": -77.037901, "is_reserved": 0, "fusion_lon": 0.0}, {"rental_uris": {"ios": "https://dc.lft.to/lastmile_qr_scan", "android": "https://dc.lft.to/lastmile_qr_scan"}, "fusion_lat": 0.0, "name": "987894b377441f198da4e91d81d39e73", "bike_id": "987894b377441f198da4e91d81d39e73", "is_disabled": 0, "type": "electric_bike", "lat": 38.929045333333335, "lon": -77.0274885, "is_reserved": 0, "fusion_lon": 0.0}, {"rental_uris": {"ios": "https://dc.lft.to/lastmile_qr_scan", "android": "https://dc.lft.to/lastmile_qr_scan"}, "fusion_lat": 0.0, "name": "58ce0fd52a0f7cf341fc0330cab62e02", "bike_id": "58ce0fd52a0f7cf341fc0330cab62e02", "is_disabled": 0, "type": "electric_scooter", "lat": 38.8996875, "lon": -77.030778, "is_reserved": 0, "fusion_lon": 0.0}, {"rental_uris": {"ios": "https://dc.lft.to/lastmile_qr_scan", "android": "https://dc.lft.to/lastmile_qr_scan"}, "fusion_lat": 0.0, "name": "a1486a7db0dd21c37d58fe49868897a5", "bike_id": "a1486a7db0dd21c37d58fe49868897a5", "is_disabled": 0, "type": "electric_scooter", "lat": 38.8857275, "lon": -77.03066883333334, "is_reserved": 0, "fusion_lon": 0.0}, {"rental_uris": {"ios": "https://dc.lft.to/lastmile_qr_scan", "android": "https://dc.lft.to/lastmile_qr_scan"}, "fusion_lat": 0.0, "name": "66bba3aac082380e474c0b71baa4c4d8", "bike_id": "66bba3aac082380e474c0b71baa4c4d8", "is_disabled": 0, "type": "electric_scooter", "lat": 38.90559566666667, "lon": -77.02715233333333, "is_reserved": 0, "fusion_lon": 0.0}, {"rental_uris": {"ios": "https://dc.lft.to/lastmile_qr_scan", "android": "https://dc.lft.to/lastmile_qr_scan"}, "fusion_lat": 0.0, "name": "e6c84db49036d8f2939fecd294aa23a8", "bike_id": "e6c84db49036d8f2939fecd294aa23a8", "is_disabled": 0, "type": "electric_scooter", "lat": 38.89412516666667, "lon": -77.02183916666667, "is_reserved": 0, "fusion_lon": 0.0}, {"rental_uris": {"ios": "https://dc.lft.to/lastmile_qr_scan", "android": "https://dc.lft.to/lastmile_qr_scan"}, "fusion_lat": 0.0, "name": "6c9a651dc5a26d88bfb217b849a793c2", "bike_id": "6c9a651dc5a26d88bfb217b849a793c2", "is_disabled": 0, "type": "electric_scooter", "lat": 38.893498666666666, "lon": -77.041379, "is_reserved": 0, "fusion_lon": 0.0}, {"rental_uris": {"ios": "https://dc.lft.to/lastmile_qr_scan", "android": "https://dc.lft.to/lastmile_qr_scan"}, "fusion_lat": 0.0, "name": "d3163c0c2190df87c8bc5b2da2101b0e", "bike_id": "d3163c0c2190df87c8bc5b2da2101b0e", "is_disabled": 0, "type": "electric_scooter", "lat": 38.91332716666667, "lon": -77.031622, "is_reserved": 0, "fusion_lon": 0.0}, {"rental_uris": {"ios": "https://dc.lft.to/lastmile_qr_scan", "android": "https://dc.lft.to/lastmile_qr_scan"}, "fusion_lat": 0.0, "name": "8ec0680ba25d1411a6a1fc12e9ddff14", "bike_id": "8ec0680ba25d1411a6a1fc12e9ddff14", "is_disabled": 0, "type": "electric_scooter", "lat": 38.905543, "lon": -77.002857, "is_reserved": 0, "fusion_lon": 0.0}, {"rental_uris": {"ios": "https://dc.lft.to/lastmile_qr_scan", "android": "https://dc.lft.to/lastmile_qr_scan"}, "fusion_lat": 0.0, "name": "3a562637d317b617907c20900bdfd022", "bike_id": "3a562637d317b617907c20900bdfd022", "is_disabled": 0, "type": "electric_bike", "lat": 38.94552516666667, "lon": -76.89538183333333, "is_reserved": 0, "fusion_lon": 0.0}, {"rental_uris": {"ios": "https://dc.lft.to/lastmile_qr_scan", "android": "https://dc.lft.to/lastmile_qr_scan"}, "fusion_lat": 0.0, "name": "abb099ff45a41b95d71dbdd0f4fa574d", "bike_id": "abb099ff45a41b95d71dbdd0f4fa574d", "is_disabled": 0, "type": "electric_scooter", "lat": 38.932453333333335, "lon": -77.029739, "is_reserved": 0, "fusion_lon": 0.0}, {"rental_uris": {"ios": "https://dc.lft.to/lastmile_qr_scan", "android": "https://dc.lft.to/lastmile_qr_scan"}, "fusion_lat": 0.0, "name": "95b3beab2a2d7dba9a3937949ce12854", "bike_id": "95b3beab2a2d7dba9a3937949ce12854", "is_disabled": 0, "type": "electric_scooter", "lat": 38.912630166666666, "lon": -77.07250583333334, "is_reserved": 0, "fusion_lon": 0.0}, {"rental_uris": {"ios": "https://dc.lft.to/lastmile_qr_scan", "android": "https://dc.lft.to/lastmile_qr_scan"}, "fusion_lat": 0.0, "name": "860893f9a32bb1869c3959e049e1ee82", "bike_id": "860893f9a32bb1869c3959e049e1ee82", "is_disabled": 0, "type": "electric_scooter", "lat": 38.89296783333333, "lon": -77.02176716666666, "is_reserved": 0, "fusion_lon": 0.0}, {"rental_uris": {"ios": "https://dc.lft.to/lastmile_qr_scan", "android": "https://dc.lft.to/lastmile_qr_scan"}, "fusion_lat": 0.0, "name": "807859a955da49185e995c979fa092e4", "bike_id": "807859a955da49185e995c979fa092e4", "is_disabled": 0, "type": "electric_scooter", "lat": 38.90498, "lon": -77.0344155, "is_reserved": 0, "fusion_lon": 0.0}, {"rental_uris": {"ios": "https://dc.lft.to/lastmile_qr_scan", "android": "https://dc.lft.to/lastmile_qr_scan"}, "fusion_lat": 0.0, "name": "b1cd7fb038a9429ab344f75fc77042f2", "bike_id": "b1cd7fb038a9429ab344f75fc77042f2", "is_disabled": 0, "type": "electric_scooter", "lat": 38.93353966666667, "lon": -77.02414083333333, "is_reserved": 0, "fusion_lon": 0.0}, {"rental_uris": {"ios": "https://dc.lft.to/lastmile_qr_scan", "android": "https://dc.lft.to/lastmile_qr_scan"}, "fusion_lat": 0.0, "name": "ad16ce81218e762b01ba854557b8be91", "bike_id": "ad16ce81218e762b01ba854557b8be91", "is_disabled": 0, "type": "electric_scooter", "lat": 38.925626333333334, "lon": -77.05761616666666, "is_reserved": 0, "fusion_lon": 0.0}, {"rental_uris": {"ios": "https://dc.lft.to/lastmile_qr_scan", "android": "https://dc.lft.to/lastmile_qr_scan"}, "fusion_lat": 0.0, "name": "6755f99ae61a58445ec50c2497648d1e", "bike_id": "6755f99ae61a58445ec50c2497648d1e", "is_disabled": 0, "type": "electric_scooter", "lat": 38.90240216666667, "lon": -77.024305, "is_reserved": 0, "fusion_lon": 0.0}, {"rental_uris": {"ios": "https://dc.lft.to/lastmile_qr_scan", "android": "https://dc.lft.to/lastmile_qr_scan"}, "fusion_lat": 0.0, "name": "90574a4de49d4fd8b7d77bbe95f6d854", "bike_id": "90574a4de49d4fd8b7d77bbe95f6d854", "is_disabled": 0, "type": "electric_scooter", "lat": 38.892233833333336, "lon": -77.0315725, "is_reserved": 0, "fusion_lon": 0.0}, {"rental_uris": {"ios": "https://dc.lft.to/lastmile_qr_scan", "android": "https://dc.lft.to/lastmile_qr_scan"}, "fusion_lat": 0.0, "name": "644407ba3983920146a07f9562eaebf5", "bike_id": "644407ba3983920146a07f9562eaebf5", "is_disabled": 0, "type": "electric_scooter", "lat": 38.892178666666666, "lon": -77.02218866666666, "is_reserved": 0, "fusion_lon": 0.0}, {"rental_uris": {"ios": "https://dc.lft.to/lastmile_qr_scan", "android": "https://dc.lft.to/lastmile_qr_scan"}, "fusion_lat": 0.0, "name": "db5f499132beb8ac12999d9c5bb1ea93", "bike_id": "db5f499132beb8ac12999d9c5bb1ea93", "is_disabled": 0, "type": "electric_scooter", "lat": 38.919854, "lon": -77.03216316666666, "is_reserved": 0, "fusion_lon": 0.0}, {"rental_uris": {"ios": "https://dc.lft.to/lastmile_qr_scan", "android": "https://dc.lft.to/lastmile_qr_scan"}, "fusion_lat": 0.0, "name": "de2faf543fc7a5737c289db21117b2cd", "bike_id": "de2faf543fc7a5737c289db21117b2cd", "is_disabled": 0, "type": "electric_scooter", "lat": 38.877823166666666, "lon": -76.99409666666666, "is_reserved": 0, "fusion_lon": 0.0}, {"rental_uris": {"ios": "https://dc.lft.to/lastmile_qr_scan", "android": "https://dc.lft.to/lastmile_qr_scan"}, "fusion_lat": 0.0, "name": "c2ed1b17033099c530c55667c150cbf9", "bike_id": "c2ed1b17033099c530c55667c150cbf9", "is_disabled": 0, "type": "electric_scooter", "lat": 38.93519216666667, "lon": -77.0326185, "is_reserved": 0, "fusion_lon": 0.0}, {"rental_uris": {"ios": "https://dc.lft.to/lastmile_qr_scan", "android": "https://dc.lft.to/lastmile_qr_scan"}, "fusion_lat": 0.0, "name": "b8a474453a57d2551ae61d4e4a215e95", "bike_id": "b8a474453a57d2551ae61d4e4a215e95", "is_disabled": 0, "type": "electric_scooter", "lat": 38.9284035, "lon": -77.01588683333334, "is_reserved": 0, "fusion_lon": 0.0}, {"rental_uris": {"ios": "https://dc.lft.to/lastmile_qr_scan", "android": "https://dc.lft.to/lastmile_qr_scan"}, "fusion_lat": 0.0, "name": "0e6188952f3bd263c2c6983a08a48ab0", "bike_id": "0e6188952f3bd263c2c6983a08a48ab0", "is_disabled": 0, "type": "electric_scooter", "lat": 38.904124, "lon": -77.0258655, "is_reserved": 0, "fusion_lon": 0.0}, {"rental_uris": {"ios": "https://dc.lft.to/lastmile_qr_scan", "android": "https://dc.lft.to/lastmile_qr_scan"}, "fusion_lat": 0.0, "name": "2f9ce4d511eee1ea180cbd1b88f3fb0b", "bike_id": "2f9ce4d511eee1ea180cbd1b88f3fb0b", "is_disabled": 0, "type": "electric_scooter", "lat": 38.90251933333333, "lon": -77.0459735, "is_reserved": 0, "fusion_lon": 0.0}, {"rental_uris": {"ios": "https://dc.lft.to/lastmile_qr_scan", "android": "https://dc.lft.to/lastmile_qr_scan"}, "fusion_lat": 0.0, "name": "d9e871b9a21608975cf828885b4b500e", "bike_id": "d9e871b9a21608975cf828885b4b500e", "is_disabled": 0, "type": "electric_scooter", "lat": 38.88265633333334, "lon": -76.99015133333333, "is_reserved": 0, "fusion_lon": 0.0}, {"rental_uris": {"ios": "https://dc.lft.to/lastmile_qr_scan", "android": "https://dc.lft.to/lastmile_qr_scan"}, "fusion_lat": 0.0, "name": "8d7b40b748aada1ed02af61050d6f47c", "bike_id": "8d7b40b748aada1ed02af61050d6f47c", "is_disabled": 0, "type": "electric_scooter", "lat": 38.908591333333334, "lon": -77.04620833333334, "is_reserved": 0, "fusion_lon": 0.0}, {"rental_uris": {"ios": "https://dc.lft.to/lastmile_qr_scan", "android": "https://dc.lft.to/lastmile_qr_scan"}, "fusion_lat": 0.0, "name": "52b3794eaf6aec764cc237fd3121cac8", "bike_id": "52b3794eaf6aec764cc237fd3121cac8", "is_disabled": 0, "type": "electric_scooter", "lat": 38.8811345, "lon": -76.998494, "is_reserved": 0, "fusion_lon": 0.0}, {"rental_uris": {"ios": "https://dc.lft.to/lastmile_qr_scan", "android": "https://dc.lft.to/lastmile_qr_scan"}, "fusion_lat": 0.0, "name": "056f239ab20234ecfdf5aaf2d188c199", "bike_id": "056f239ab20234ecfdf5aaf2d188c199", "is_disabled": 0, "type": "electric_scooter", "lat": 38.881172166666666, "lon": -77.01655733333334, "is_reserved": 0, "fusion_lon": 0.0}, {"rental_uris": {"ios": "https://dc.lft.to/lastmile_qr_scan", "android": "https://dc.lft.to/lastmile_qr_scan"}, "fusion_lat": 0.0, "name": "2d1786677f2e5f797fb2b2fe45ed4766", "bike_id": "2d1786677f2e5f797fb2b2fe45ed4766", "is_disabled": 0, "type": "electric_scooter", "lat": 38.921539833333334, "lon": -77.02423366666666, "is_reserved": 0, "fusion_lon": 0.0}, {"rental_uris": {"ios": "https://dc.lft.to/lastmile_qr_scan", "android": "https://dc.lft.to/lastmile_qr_scan"}, "fusion_lat": 0.0, "name": "8b7ac09340726e9c1d516773df608708", "bike_id": "8b7ac09340726e9c1d516773df608708", "is_disabled": 0, "type": "electric_scooter", "lat": 38.87086083333333, "lon": -76.968644, "is_reserved": 0, "fusion_lon": 0.0}, {"rental_uris": {"ios": "https://dc.lft.to/lastmile_qr_scan", "android": "https://dc.lft.to/lastmile_qr_scan"}, "fusion_lat": 0.0, "name": "1a73d9e01dbe5e7ff50ec3e6e4cd6a45", "bike_id": "1a73d9e01dbe5e7ff50ec3e6e4cd6a45", "is_disabled": 0, "type": "electric_scooter", "lat": 38.914356833333336, "lon": -77.021641, "is_reserved": 0, "fusion_lon": 0.0}, {"rental_uris": {"ios": "https://dc.lft.to/lastmile_qr_scan", "android": "https://dc.lft.to/lastmile_qr_scan"}, "fusion_lat": 0.0, "name": "536b5c18a8cc5d3c006652eb3f5ff728", "bike_id": "536b5c18a8cc5d3c006652eb3f5ff728", "is_disabled": 0, "type": "electric_scooter", "lat": 38.8986175, "lon": -77.02943616666667, "is_reserved": 0, "fusion_lon": 0.0}, {"rental_uris": {"ios": "https://dc.lft.to/lastmile_qr_scan", "android": "https://dc.lft.to/lastmile_qr_scan"}, "fusion_lat": 0.0, "name": "838ca11c7fff6b99e3e45d7d85903afb", "bike_id": "838ca11c7fff6b99e3e45d7d85903afb", "is_disabled": 0, "type": "electric_scooter", "lat": 38.90784266666667, "lon": -77.009564, "is_reserved": 0, "fusion_lon": 0.0}, {"rental_uris": {"ios": "https://dc.lft.to/lastmile_qr_scan", "android": "https://dc.lft.to/lastmile_qr_scan"}, "fusion_lat": 0.0, "name": "46d4b5331a7347bc6cbd53e3926f3cdd", "bike_id": "46d4b5331a7347bc6cbd53e3926f3cdd", "is_disabled": 0, "type": "electric_scooter", "lat": 38.907903, "lon": -77.03430633333333, "is_reserved": 0, "fusion_lon": 0.0}, {"rental_uris": {"ios": "https://dc.lft.to/lastmile_qr_scan", "android": "https://dc.lft.to/lastmile_qr_scan"}, "fusion_lat": 0.0, "name": "84b1cb9d0adce6b27e5acba9821665cb", "bike_id": "84b1cb9d0adce6b27e5acba9821665cb", "is_disabled": 0, "type": "electric_scooter", "lat": 38.844308833333336, "lon": -76.99778266666667, "is_reserved": 0, "fusion_lon": 0.0}, {"rental_uris": {"ios": "https://dc.lft.to/lastmile_qr_scan", "android": "https://dc.lft.to/lastmile_qr_scan"}, "fusion_lat": 0.0, "name": "003a9bbd90a631499092707c5efb42a0", "bike_id": "003a9bbd90a631499092707c5efb42a0", "is_disabled": 0, "type": "electric_scooter", "lat": 38.9169055, "lon": -77.025976, "is_reserved": 0, "fusion_lon": 0.0}, {"rental_uris": {"ios": "https://dc.lft.to/lastmile_qr_scan", "android": "https://dc.lft.to/lastmile_qr_scan"}, "fusion_lat": 0.0, "name": "c6dd8d2505b8462f1ad5a113acc2e126", "bike_id": "c6dd8d2505b8462f1ad5a113acc2e126", "is_disabled": 0, "type": "electric_scooter", "lat": 38.8623725, "lon": -76.99491283333333, "is_reserved": 0, "fusion_lon": 0.0}, {"rental_uris": {"ios": "https://dc.lft.to/lastmile_qr_scan", "android": "https://dc.lft.to/lastmile_qr_scan"}, "fusion_lat": 0.0, "name": "568910fcaab3afa25ad448c900f9a4e7", "bike_id": "568910fcaab3afa25ad448c900f9a4e7", "is_disabled": 0, "type": "electric_bike", "lat": 38.870647, "lon": -76.97836533333333, "is_reserved": 0, "fusion_lon": 0.0}, {"rental_uris": {"ios": "https://dc.lft.to/lastmile_qr_scan", "android": "https://dc.lft.to/lastmile_qr_scan"}, "fusion_lat": 0.0, "name": "c580cc5f8d5c49e3cb196fc9b9446f90", "bike_id": "c580cc5f8d5c49e3cb196fc9b9446f90", "is_disabled": 0, "type": "electric_scooter", "lat": 38.9073785, "lon": -76.98336283333333, "is_reserved": 0, "fusion_lon": 0.0}, {"rental_uris": {"ios": "https://dc.lft.to/lastmile_qr_scan", "android": "https://dc.lft.to/lastmile_qr_scan"}, "fusion_lat": 0.0, "name": "43134e07bb12188578c9282b7bc765ee", "bike_id": "43134e07bb12188578c9282b7bc765ee", "is_disabled": 0, "type": "electric_scooter", "lat": 38.910713333333334, "lon": -77.04385283333333, "is_reserved": 0, "fusion_lon": 0.0}, {"rental_uris": {"ios": "https://dc.lft.to/lastmile_qr_scan", "android": "https://dc.lft.to/lastmile_qr_scan"}, "fusion_lat": 0.0, "name": "246ab02df2f4d6e0aadc64a0304026d9", "bike_id": "246ab02df2f4d6e0aadc64a0304026d9", "is_disabled": 0, "type": "electric_bike", "lat": 38.893967833333335, "lon": -76.94802033333333, "is_reserved": 0, "fusion_lon": 0.0}, {"rental_uris": {"ios": "https://dc.lft.to/lastmile_qr_scan", "android": "https://dc.lft.to/lastmile_qr_scan"}, "fusion_lat": 0.0, "name": "994c5814c5b3dcd4a881c9809d7856f7", "bike_id": "994c5814c5b3dcd4a881c9809d7856f7", "is_disabled": 0, "type": "electric_scooter", "lat": 38.90354133333334, "lon": -77.03197833333333, "is_reserved": 0, "fusion_lon": 0.0}, {"rental_uris": {"ios": "https://dc.lft.to/lastmile_qr_scan", "android": "https://dc.lft.to/lastmile_qr_scan"}, "fusion_lat": 0.0, "name": "0382f4d956c6238266d94a37fe621047", "bike_id": "0382f4d956c6238266d94a37fe621047", "is_disabled": 0, "type": "electric_scooter", "lat": 38.90612433333333, "lon": -77.06270833333333, "is_reserved": 0, "fusion_lon": 0.0}, {"rental_uris": {"ios": "https://dc.lft.to/lastmile_qr_scan", "android": "https://dc.lft.to/lastmile_qr_scan"}, "fusion_lat": 0.0, "name": "265dc970126b11afc4997ee690bea3de", "bike_id": "265dc970126b11afc4997ee690bea3de", "is_disabled": 0, "type": "electric_bike", "lat": 38.954778166666664, "lon": -76.9901535, "is_reserved": 0, "fusion_lon": 0.0}, {"rental_uris": {"ios": "https://dc.lft.to/lastmile_qr_scan", "android": "https://dc.lft.to/lastmile_qr_scan"}, "fusion_lat": 0.0, "name": "5c59028a1abd506424b3beb9602a30cb", "bike_id": "5c59028a1abd506424b3beb9602a30cb", "is_disabled": 0, "type": "electric_scooter", "lat": 38.8718025, "lon": -77.00606616666667, "is_reserved": 0, "fusion_lon": 0.0}, {"rental_uris": {"ios": "https://dc.lft.to/lastmile_qr_scan", "android": "https://dc.lft.to/lastmile_qr_scan"}, "fusion_lat": 0.0, "name": "90b27701bc382ecdf74c59eaecbfda8e", "bike_id": "90b27701bc382ecdf74c59eaecbfda8e", "is_disabled": 0, "type": "electric_scooter", "lat": 38.867497166666666, "lon": -77.03857266666667, "is_reserved": 0, "fusion_lon": 0.0}, {"rental_uris": {"ios": "https://dc.lft.to/lastmile_qr_scan", "android": "https://dc.lft.to/lastmile_qr_scan"}, "fusion_lat": 0.0, "name": "4334d11d090590dce2930601b807508f", "bike_id": "4334d11d090590dce2930601b807508f", "is_disabled": 0, "type": "electric_bike", "lat": 38.94505066666667, "lon": -77.00672466666667, "is_reserved": 0, "fusion_lon": 0.0}, {"rental_uris": {"ios": "https://dc.lft.to/lastmile_qr_scan", "android": "https://dc.lft.to/lastmile_qr_scan"}, "fusion_lat": 0.0, "name": "c6a2f286cb139af0343fe2d07b74ad1c", "bike_id": "c6a2f286cb139af0343fe2d07b74ad1c", "is_disabled": 0, "type": "electric_scooter", "lat": 38.90395016666667, "lon": -77.02200083333334, "is_reserved": 0, "fusion_lon": 0.0}, {"rental_uris": {"ios": "https://dc.lft.to/lastmile_qr_scan", "android": "https://dc.lft.to/lastmile_qr_scan"}, "fusion_lat": 0.0, "name": "03a43bb13440d8370b3f1b3a0a194796", "bike_id": "03a43bb13440d8370b3f1b3a0a194796", "is_disabled": 0, "type": "electric_scooter", "lat": 38.912477, "lon": -77.02227716666667, "is_reserved": 0, "fusion_lon": 0.0}, {"rental_uris": {"ios": "https://dc.lft.to/lastmile_qr_scan", "android": "https://dc.lft.to/lastmile_qr_scan"}, "fusion_lat": 0.0, "name": "47353d6b130760f49ae0990080e8ff53", "bike_id": "47353d6b130760f49ae0990080e8ff53", "is_disabled": 0, "type": "electric_scooter", "lat": 38.9171405, "lon": -77.03203233333333, "is_reserved": 0, "fusion_lon": 0.0}, {"rental_uris": {"ios": "https://dc.lft.to/lastmile_qr_scan", "android": "https://dc.lft.to/lastmile_qr_scan"}, "fusion_lat": 0.0, "name": "c75f59fc98aba4a2fd51280a96b311e1", "bike_id": "c75f59fc98aba4a2fd51280a96b311e1", "is_disabled": 0, "type": "electric_scooter", "lat": 38.907254333333334, "lon": -77.0343145, "is_reserved": 0, "fusion_lon": 0.0}, {"rental_uris": {"ios": "https://dc.lft.to/lastmile_qr_scan", "android": "https://dc.lft.to/lastmile_qr_scan"}, "fusion_lat": 0.0, "name": "bdec037fe4909ac97fcc44cc06545628", "bike_id": "bdec037fe4909ac97fcc44cc06545628", "is_disabled": 0, "type": "electric_bike", "lat": 38.882451333333336, "lon": -76.96254683333333, "is_reserved": 0, "fusion_lon": 0.0}, {"rental_uris": {"ios": "https://dc.lft.to/lastmile_qr_scan", "android": "https://dc.lft.to/lastmile_qr_scan"}, "fusion_lat": 0.0, "name": "c860277ff10385afda41abeaf8a48a29", "bike_id": "c860277ff10385afda41abeaf8a48a29", "is_disabled": 0, "type": "electric_scooter", "lat": 38.888162666666666, "lon": -77.01481933333334, "is_reserved": 0, "fusion_lon": 0.0}, {"rental_uris": {"ios": "https://dc.lft.to/lastmile_qr_scan", "android": "https://dc.lft.to/lastmile_qr_scan"}, "fusion_lat": 0.0, "name": "838b37be4c9049cfdef15e4d2c227e52", "bike_id": "838b37be4c9049cfdef15e4d2c227e52", "is_disabled": 0, "type": "electric_bike", "lat": 38.851994166666664, "lon": -77.10125083333334, "is_reserved": 0, "fusion_lon": 0.0}, {"rental_uris": {"ios": "https://dc.lft.to/lastmile_qr_scan", "android": "https://dc.lft.to/lastmile_qr_scan"}, "fusion_lat": 0.0, "name": "2db4d327ccc3d7cff9525d8e56375179", "bike_id": "2db4d327ccc3d7cff9525d8e56375179", "is_disabled": 0, "type": "electric_scooter", "lat": 38.9070015, "lon": -77.033758, "is_reserved": 0, "fusion_lon": 0.0}, {"rental_uris": {"ios": "https://dc.lft.to/lastmile_qr_scan", "android": "https://dc.lft.to/lastmile_qr_scan"}, "fusion_lat": 0.0, "name": "8a041798bc55c35a638b361259bcda89", "bike_id": "8a041798bc55c35a638b361259bcda89", "is_disabled": 0, "type": "electric_scooter", "lat": 38.903774166666665, "lon": -77.0450845, "is_reserved": 0, "fusion_lon": 0.0}, {"rental_uris": {"ios": "https://dc.lft.to/lastmile_qr_scan", "android": "https://dc.lft.to/lastmile_qr_scan"}, "fusion_lat": 0.0, "name": "2feaca3d6dd0381bf9b88987823c9f50", "bike_id": "2feaca3d6dd0381bf9b88987823c9f50", "is_disabled": 0, "type": "electric_scooter", "lat": 38.87915116666667, "lon": -77.03087883333333, "is_reserved": 0, "fusion_lon": 0.0}, {"rental_uris": {"ios": "https://dc.lft.to/lastmile_qr_scan", "android": "https://dc.lft.to/lastmile_qr_scan"}, "fusion_lat": 0.0, "name": "0fd530b6830d42aa0cf5795c6d6e6eba", "bike_id": "0fd530b6830d42aa0cf5795c6d6e6eba", "is_disabled": 0, "type": "electric_scooter", "lat": 38.8922355, "lon": -77.04365916666667, "is_reserved": 0, "fusion_lon": 0.0}, {"rental_uris": {"ios": "https://dc.lft.to/lastmile_qr_scan", "android": "https://dc.lft.to/lastmile_qr_scan"}, "fusion_lat": 0.0, "name": "42907b56f5fbfb00ba0dbede546907dd", "bike_id": "42907b56f5fbfb00ba0dbede546907dd", "is_disabled": 0, "type": "electric_scooter", "lat": 38.884137333333335, "lon": -76.995422, "is_reserved": 0, "fusion_lon": 0.0}, {"rental_uris": {"ios": "https://dc.lft.to/lastmile_qr_scan", "android": "https://dc.lft.to/lastmile_qr_scan"}, "fusion_lat": 0.0, "name": "6aebd57c21057ba91842cd979ebbf5df", "bike_id": "6aebd57c21057ba91842cd979ebbf5df", "is_disabled": 0, "type": "electric_scooter", "lat": 38.92571483333333, "lon": -77.02905766666667, "is_reserved": 0, "fusion_lon": 0.0}, {"rental_uris": {"ios": "https://dc.lft.to/lastmile_qr_scan", "android": "https://dc.lft.to/lastmile_qr_scan"}, "fusion_lat": 0.0, "name": "5a2fb430acb7206ad2a1cb7f40511056", "bike_id": "5a2fb430acb7206ad2a1cb7f40511056", "is_disabled": 0, "type": "electric_scooter", "lat": 38.905062, "lon": -77.04088966666667, "is_reserved": 0, "fusion_lon": 0.0}, {"rental_uris": {"ios": "https://dc.lft.to/lastmile_qr_scan", "android": "https://dc.lft.to/lastmile_qr_scan"}, "fusion_lat": 0.0, "name": "222fee983f984f4f5d4c149fef4311d6", "bike_id": "222fee983f984f4f5d4c149fef4311d6", "is_disabled": 0, "type": "electric_scooter", "lat": 38.891938, "lon": -77.02407516666666, "is_reserved": 0, "fusion_lon": 0.0}, {"rental_uris": {"ios": "https://dc.lft.to/lastmile_qr_scan", "android": "https://dc.lft.to/lastmile_qr_scan"}, "fusion_lat": 0.0, "name": "d818a23564a2756b007b3a8ba3fe3df6", "bike_id": "d818a23564a2756b007b3a8ba3fe3df6", "is_disabled": 0, "type": "electric_scooter", "lat": 38.89872916666667, "lon": -76.931832, "is_reserved": 0, "fusion_lon": 0.0}, {"rental_uris": {"ios": "https://dc.lft.to/lastmile_qr_scan", "android": "https://dc.lft.to/lastmile_qr_scan"}, "fusion_lat": 0.0, "name": "7f2474dd9eae1bc3f1064e674bde39d8", "bike_id": "7f2474dd9eae1bc3f1064e674bde39d8", "is_disabled": 0, "type": "electric_scooter", "lat": 38.9094785, "lon": -77.0320115, "is_reserved": 0, "fusion_lon": 0.0}, {"rental_uris": {"ios": "https://dc.lft.to/lastmile_qr_scan", "android": "https://dc.lft.to/lastmile_qr_scan"}, "fusion_lat": 0.0, "name": "c201ee8d521909887cc343177a3d9e6d", "bike_id": "c201ee8d521909887cc343177a3d9e6d", "is_disabled": 0, "type": "electric_scooter", "lat": 38.918121166666666, "lon": -77.02707616666666, "is_reserved": 0, "fusion_lon": 0.0}, {"rental_uris": {"ios": "https://dc.lft.to/lastmile_qr_scan", "android": "https://dc.lft.to/lastmile_qr_scan"}, "fusion_lat": 0.0, "name": "3d6eb42bcd18995d72d69d12e3da28de", "bike_id": "3d6eb42bcd18995d72d69d12e3da28de", "is_disabled": 0, "type": "electric_scooter", "lat": 38.91707366666667, "lon": -77.025758, "is_reserved": 0, "fusion_lon": 0.0}, {"rental_uris": {"ios": "https://dc.lft.to/lastmile_qr_scan", "android": "https://dc.lft.to/lastmile_qr_scan"}, "fusion_lat": 0.0, "name": "f12e7d6c51be165f9eb48659ee491598", "bike_id": "f12e7d6c51be165f9eb48659ee491598", "is_disabled": 0, "type": "electric_scooter", "lat": 38.916782833333336, "lon": -77.02973433333334, "is_reserved": 0, "fusion_lon": 0.0}, {"rental_uris": {"ios": "https://dc.lft.to/lastmile_qr_scan", "android": "https://dc.lft.to/lastmile_qr_scan"}, "fusion_lat": 0.0, "name": "4c35c3d42523148c394972f428e1c9c0", "bike_id": "4c35c3d42523148c394972f428e1c9c0", "is_disabled": 0, "type": "electric_scooter", "lat": 38.917079666666666, "lon": -77.02660983333334, "is_reserved": 0, "fusion_lon": 0.0}, {"rental_uris": {"ios": "https://dc.lft.to/lastmile_qr_scan", "android": "https://dc.lft.to/lastmile_qr_scan"}, "fusion_lat": 0.0, "name": "d05da3fcc1633f7843ed047167783a8a", "bike_id": "d05da3fcc1633f7843ed047167783a8a", "is_disabled": 0, "type": "electric_scooter", "lat": 38.90675733333333, "lon": -77.02693283333333, "is_reserved": 0, "fusion_lon": 0.0}, {"rental_uris": {"ios": "https://dc.lft.to/lastmile_qr_scan", "android": "https://dc.lft.to/lastmile_qr_scan"}, "fusion_lat": 0.0, "name": "ab349a71dfba4f8a850bde0c75c68049", "bike_id": "ab349a71dfba4f8a850bde0c75c68049", "is_disabled": 0, "type": "electric_scooter", "lat": 38.91847766666667, "lon": -76.9653595, "is_reserved": 0, "fusion_lon": 0.0}, {"rental_uris": {"ios": "https://dc.lft.to/lastmile_qr_scan", "android": "https://dc.lft.to/lastmile_qr_scan"}, "fusion_lat": 0.0, "name": "db21eebbce0be72ace1afe9149718c44", "bike_id": "db21eebbce0be72ace1afe9149718c44", "is_disabled": 0, "type": "electric_scooter", "lat": 38.887405, "lon": -77.0212395, "is_reserved": 0, "fusion_lon": 0.0}, {"rental_uris": {"ios": "https://dc.lft.to/lastmile_qr_scan", "android": "https://dc.lft.to/lastmile_qr_scan"}, "fusion_lat": 0.0, "name": "7947c24466da0398b01f1c3e03ec2820", "bike_id": "7947c24466da0398b01f1c3e03ec2820", "is_disabled": 0, "type": "electric_scooter", "lat": 38.90402666666667, "lon": -77.04341433333333, "is_reserved": 0, "fusion_lon": 0.0}, {"rental_uris": {"ios": "https://dc.lft.to/lastmile_qr_scan", "android": "https://dc.lft.to/lastmile_qr_scan"}, "fusion_lat": 0.0, "name": "96292cedbb7b13d0218d0b331d0b29fc", "bike_id": "96292cedbb7b13d0218d0b331d0b29fc", "is_disabled": 0, "type": "electric_scooter", "lat": 38.91478466666667, "lon": -77.02165216666667, "is_reserved": 0, "fusion_lon": 0.0}, {"rental_uris": {"ios": "https://dc.lft.to/lastmile_qr_scan", "android": "https://dc.lft.to/lastmile_qr_scan"}, "fusion_lat": 0.0, "name": "60448429b9a83955c5fdad1bb3baa3aa", "bike_id": "60448429b9a83955c5fdad1bb3baa3aa", "is_disabled": 0, "type": "electric_scooter", "lat": 38.909728333333334, "lon": -77.04234916666667, "is_reserved": 0, "fusion_lon": 0.0}, {"rental_uris": {"ios": "https://dc.lft.to/lastmile_qr_scan", "android": "https://dc.lft.to/lastmile_qr_scan"}, "fusion_lat": 0.0, "name": "3799a9fad901dfd424ece65c91a6b9e8", "bike_id": "3799a9fad901dfd424ece65c91a6b9e8", "is_disabled": 0, "type": "electric_scooter", "lat": 38.902275333333336, "lon": -77.06051933333333, "is_reserved": 0, "fusion_lon": 0.0}, {"rental_uris": {"ios": "https://dc.lft.to/lastmile_qr_scan", "android": "https://dc.lft.to/lastmile_qr_scan"}, "fusion_lat": 0.0, "name": "ff06da94c82a4ce4b7c95ba37d9b8003", "bike_id": "ff06da94c82a4ce4b7c95ba37d9b8003", "is_disabled": 0, "type": "electric_scooter", "lat": 38.927838333333334, "lon": -77.0141495, "is_reserved": 0, "fusion_lon": 0.0}, {"rental_uris": {"ios": "https://dc.lft.to/lastmile_qr_scan", "android": "https://dc.lft.to/lastmile_qr_scan"}, "fusion_lat": 0.0, "name": "6ce5cd9529d44a8b20819cc3573d2cb1", "bike_id": "6ce5cd9529d44a8b20819cc3573d2cb1", "is_disabled": 0, "type": "electric_scooter", "lat": 38.90873333333333, "lon": -77.032381, "is_reserved": 0, "fusion_lon": 0.0}, {"rental_uris": {"ios": "https://dc.lft.to/lastmile_qr_scan", "android": "https://dc.lft.to/lastmile_qr_scan"}, "fusion_lat": 0.0, "name": "e6f4b9c230f8a9a052e6f8c2d25f959f", "bike_id": "e6f4b9c230f8a9a052e6f8c2d25f959f", "is_disabled": 0, "type": "electric_scooter", "lat": 38.933663333333335, "lon": -77.0573355, "is_reserved": 0, "fusion_lon": 0.0}, {"rental_uris": {"ios": "https://dc.lft.to/lastmile_qr_scan", "android": "https://dc.lft.to/lastmile_qr_scan"}, "fusion_lat": 0.0, "name": "d8a1f83fb6eca75cb32e6690d10b5661", "bike_id": "d8a1f83fb6eca75cb32e6690d10b5661", "is_disabled": 0, "type": "electric_scooter", "lat": 38.89682966666667, "lon": -76.93608683333333, "is_reserved": 0, "fusion_lon": 0.0}, {"rental_uris": {"ios": "https://dc.lft.to/lastmile_qr_scan", "android": "https://dc.lft.to/lastmile_qr_scan"}, "fusion_lat": 0.0, "name": "d85e6025e278ee6b1f9b7f4b09de949c", "bike_id": "d85e6025e278ee6b1f9b7f4b09de949c", "is_disabled": 0, "type": "electric_scooter", "lat": 38.9282065, "lon": -77.026219, "is_reserved": 0, "fusion_lon": 0.0}, {"rental_uris": {"ios": "https://dc.lft.to/lastmile_qr_scan", "android": "https://dc.lft.to/lastmile_qr_scan"}, "fusion_lat": 0.0, "name": "814fd3b27ae3a989ada754090c094c8a", "bike_id": "814fd3b27ae3a989ada754090c094c8a", "is_disabled": 0, "type": "electric_scooter", "lat": 38.912661, "lon": -77.0455055, "is_reserved": 0, "fusion_lon": 0.0}, {"rental_uris": {"ios": "https://dc.lft.to/lastmile_qr_scan", "android": "https://dc.lft.to/lastmile_qr_scan"}, "fusion_lat": 0.0, "name": "6144b305999eefa602c1dc27999cfe66", "bike_id": "6144b305999eefa602c1dc27999cfe66", "is_disabled": 0, "type": "electric_scooter", "lat": 38.94824766666667, "lon": -76.998988, "is_reserved": 0, "fusion_lon": 0.0}, {"rental_uris": {"ios": "https://dc.lft.to/lastmile_qr_scan", "android": "https://dc.lft.to/lastmile_qr_scan"}, "fusion_lat": 0.0, "name": "4e5fc67b3e801cfcfc2be6502f77c596", "bike_id": "4e5fc67b3e801cfcfc2be6502f77c596", "is_disabled": 0, "type": "electric_bike", "lat": 38.9027125, "lon": -77.04462766666667, "is_reserved": 0, "fusion_lon": 0.0}, {"rental_uris": {"ios": "https://dc.lft.to/lastmile_qr_scan", "android": "https://dc.lft.to/lastmile_qr_scan"}, "fusion_lat": 0.0, "name": "3b7e27e242870fa97fbf358cde94d9d8", "bike_id": "3b7e27e242870fa97fbf358cde94d9d8", "is_disabled": 0, "type": "electric_scooter", "lat": 38.896108, "lon": -77.02607666666667, "is_reserved": 0, "fusion_lon": 0.0}, {"rental_uris": {"ios": "https://dc.lft.to/lastmile_qr_scan", "android": "https://dc.lft.to/lastmile_qr_scan"}, "fusion_lat": 0.0, "name": "8698ff2b12425919b796d52d9066cf80", "bike_id": "8698ff2b12425919b796d52d9066cf80", "is_disabled": 0, "type": "electric_scooter", "lat": 38.9167885, "lon": -77.02972066666666, "is_reserved": 0, "fusion_lon": 0.0}, {"rental_uris": {"ios": "https://dc.lft.to/lastmile_qr_scan", "android": "https://dc.lft.to/lastmile_qr_scan"}, "fusion_lat": 0.0, "name": "c7541aba82e8b9ffb8725fbf5da85dd4", "bike_id": "c7541aba82e8b9ffb8725fbf5da85dd4", "is_disabled": 0, "type": "electric_scooter", "lat": 38.92505083333333, "lon": -77.00225166666667, "is_reserved": 0, "fusion_lon": 0.0}, {"rental_uris": {"ios": "https://dc.lft.to/lastmile_qr_scan", "android": "https://dc.lft.to/lastmile_qr_scan"}, "fusion_lat": 0.0, "name": "5c88ef84201e2c1bf4c6097d0dc85717", "bike_id": "5c88ef84201e2c1bf4c6097d0dc85717", "is_disabled": 0, "type": "electric_scooter", "lat": 38.904261166666664, "lon": -77.03448683333333, "is_reserved": 0, "fusion_lon": 0.0}, {"rental_uris": {"ios": "https://dc.lft.to/lastmile_qr_scan", "android": "https://dc.lft.to/lastmile_qr_scan"}, "fusion_lat": 0.0, "name": "e818640e4798e681d10bbdcfc00fd83a", "bike_id": "e818640e4798e681d10bbdcfc00fd83a", "is_disabled": 0, "type": "electric_scooter", "lat": 38.8921905, "lon": -77.02648083333334, "is_reserved": 0, "fusion_lon": 0.0}, {"rental_uris": {"ios": "https://dc.lft.to/lastmile_qr_scan", "android": "https://dc.lft.to/lastmile_qr_scan"}, "fusion_lat": 0.0, "name": "b4afb74164e8f41babcf53fda2c04e98", "bike_id": "b4afb74164e8f41babcf53fda2c04e98", "is_disabled": 0, "type": "electric_scooter", "lat": 38.89218283333334, "lon": -77.02778183333334, "is_reserved": 0, "fusion_lon": 0.0}, {"rental_uris": {"ios": "https://dc.lft.to/lastmile_qr_scan", "android": "https://dc.lft.to/lastmile_qr_scan"}, "fusion_lat": 0.0, "name": "e4f2a746842253e941db519078f6ce27", "bike_id": "e4f2a746842253e941db519078f6ce27", "is_disabled": 0, "type": "electric_scooter", "lat": 38.8903375, "lon": -76.93754016666666, "is_reserved": 0, "fusion_lon": 0.0}, {"rental_uris": {"ios": "https://dc.lft.to/lastmile_qr_scan", "android": "https://dc.lft.to/lastmile_qr_scan"}, "fusion_lat": 0.0, "name": "af4212cff0194237bdef1289b91e12ef", "bike_id": "af4212cff0194237bdef1289b91e12ef", "is_disabled": 0, "type": "electric_scooter", "lat": 38.862119, "lon": -76.99480383333334, "is_reserved": 0, "fusion_lon": 0.0}, {"rental_uris": {"ios": "https://dc.lft.to/lastmile_qr_scan", "android": "https://dc.lft.to/lastmile_qr_scan"}, "fusion_lat": 0.0, "name": "cc7cdb6385fc53b32f85722058109140", "bike_id": "cc7cdb6385fc53b32f85722058109140", "is_disabled": 0, "type": "electric_scooter", "lat": 38.91686083333333, "lon": -77.02321033333334, "is_reserved": 0, "fusion_lon": 0.0}, {"rental_uris": {"ios": "https://dc.lft.to/lastmile_qr_scan", "android": "https://dc.lft.to/lastmile_qr_scan"}, "fusion_lat": 0.0, "name": "4aaef6ae3c674c812a35946c2e1eca09", "bike_id": "4aaef6ae3c674c812a35946c2e1eca09", "is_disabled": 0, "type": "electric_scooter", "lat": 38.870900166666665, "lon": -76.96866883333334, "is_reserved": 0, "fusion_lon": 0.0}, {"rental_uris": {"ios": "https://dc.lft.to/lastmile_qr_scan", "android": "https://dc.lft.to/lastmile_qr_scan"}, "fusion_lat": 0.0, "name": "76644f79c46df3629f60ad7aaa5bb0d6", "bike_id": "76644f79c46df3629f60ad7aaa5bb0d6", "is_disabled": 0, "type": "electric_scooter", "lat": 38.926169333333334, "lon": -77.03795916666667, "is_reserved": 0, "fusion_lon": 0.0}, {"rental_uris": {"ios": "https://dc.lft.to/lastmile_qr_scan", "android": "https://dc.lft.to/lastmile_qr_scan"}, "fusion_lat": 0.0, "name": "d115818e27eb9a1fe169fd556cfb6cf0", "bike_id": "d115818e27eb9a1fe169fd556cfb6cf0", "is_disabled": 0, "type": "electric_scooter", "lat": 38.918159833333334, "lon": -77.0451705, "is_reserved": 0, "fusion_lon": 0.0}, {"rental_uris": {"ios": "https://dc.lft.to/lastmile_qr_scan", "android": "https://dc.lft.to/lastmile_qr_scan"}, "fusion_lat": 0.0, "name": "fae55494ddb2595bf218b81412d969cf", "bike_id": "fae55494ddb2595bf218b81412d969cf", "is_disabled": 0, "type": "electric_scooter", "lat": 38.920589166666666, "lon": -77.04193566666666, "is_reserved": 0, "fusion_lon": 0.0}, {"rental_uris": {"ios": "https://dc.lft.to/lastmile_qr_scan", "android": "https://dc.lft.to/lastmile_qr_scan"}, "fusion_lat": 0.0, "name": "926a749cf4a01ded2de4658e368b2db8", "bike_id": "926a749cf4a01ded2de4658e368b2db8", "is_disabled": 0, "type": "electric_scooter", "lat": 38.906644666666665, "lon": -77.02703783333334, "is_reserved": 0, "fusion_lon": 0.0}, {"rental_uris": {"ios": "https://dc.lft.to/lastmile_qr_scan", "android": "https://dc.lft.to/lastmile_qr_scan"}, "fusion_lat": 0.0, "name": "a35e13c4ff02aed3509939cc8e9121ac", "bike_id": "a35e13c4ff02aed3509939cc8e9121ac", "is_disabled": 0, "type": "electric_bike", "lat": 38.87150066666667, "lon": -76.936466, "is_reserved": 0, "fusion_lon": 0.0}, {"rental_uris": {"ios": "https://dc.lft.to/lastmile_qr_scan", "android": "https://dc.lft.to/lastmile_qr_scan"}, "fusion_lat": 0.0, "name": "8761b86845bcfb336e6fc6c1f4741d6a", "bike_id": "8761b86845bcfb336e6fc6c1f4741d6a", "is_disabled": 0, "type": "electric_scooter", "lat": 38.886284333333336, "lon": -77.00094, "is_reserved": 0, "fusion_lon": 0.0}, {"rental_uris": {"ios": "https://dc.lft.to/lastmile_qr_scan", "android": "https://dc.lft.to/lastmile_qr_scan"}, "fusion_lat": 0.0, "name": "54a0cd1e7958d037d617c41022f41e1a", "bike_id": "54a0cd1e7958d037d617c41022f41e1a", "is_disabled": 0, "type": "electric_scooter", "lat": 38.88756883333333, "lon": -77.03364133333334, "is_reserved": 0, "fusion_lon": 0.0}, {"rental_uris": {"ios": "https://dc.lft.to/lastmile_qr_scan", "android": "https://dc.lft.to/lastmile_qr_scan"}, "fusion_lat": 0.0, "name": "b4042456c44097ad515178b4ce2ee541", "bike_id": "b4042456c44097ad515178b4ce2ee541", "is_disabled": 0, "type": "electric_scooter", "lat": 38.9324715, "lon": -77.03847833333333, "is_reserved": 0, "fusion_lon": 0.0}, {"rental_uris": {"ios": "https://dc.lft.to/lastmile_qr_scan", "android": "https://dc.lft.to/lastmile_qr_scan"}, "fusion_lat": 0.0, "name": "2297c00b4785a04c8e42792b41e421cd", "bike_id": "2297c00b4785a04c8e42792b41e421cd", "is_disabled": 0, "type": "electric_scooter", "lat": 38.89240483333333, "lon": -77.046613, "is_reserved": 0, "fusion_lon": 0.0}, {"rental_uris": {"ios": "https://dc.lft.to/lastmile_qr_scan", "android": "https://dc.lft.to/lastmile_qr_scan"}, "fusion_lat": 0.0, "name": "6fee0c085a9f29a85f062ef8c1284faa", "bike_id": "6fee0c085a9f29a85f062ef8c1284faa", "is_disabled": 0, "type": "electric_scooter", "lat": 38.873885666666666, "lon": -76.9660595, "is_reserved": 0, "fusion_lon": 0.0}, {"rental_uris": {"ios": "https://dc.lft.to/lastmile_qr_scan", "android": "https://dc.lft.to/lastmile_qr_scan"}, "fusion_lat": 0.0, "name": "00e03cf9251065c476b3afd6c5ed35dc", "bike_id": "00e03cf9251065c476b3afd6c5ed35dc", "is_disabled": 0, "type": "electric_scooter", "lat": 38.921138, "lon": -77.04367333333333, "is_reserved": 0, "fusion_lon": 0.0}, {"rental_uris": {"ios": "https://dc.lft.to/lastmile_qr_scan", "android": "https://dc.lft.to/lastmile_qr_scan"}, "fusion_lat": 0.0, "name": "f9efb44cd4dced830590270e3ca63fb6", "bike_id": "f9efb44cd4dced830590270e3ca63fb6", "is_disabled": 0, "type": "electric_scooter", "lat": 38.90789433333333, "lon": -77.03188333333334, "is_reserved": 0, "fusion_lon": 0.0}, {"rental_uris": {"ios": "https://dc.lft.to/lastmile_qr_scan", "android": "https://dc.lft.to/lastmile_qr_scan"}, "fusion_lat": 0.0, "name": "68c8b28fa2f93de108010a66576d2221", "bike_id": "68c8b28fa2f93de108010a66576d2221", "is_disabled": 0, "type": "electric_scooter", "lat": 38.907770166666666, "lon": -76.98006566666666, "is_reserved": 0, "fusion_lon": 0.0}, {"rental_uris": {"ios": "https://dc.lft.to/lastmile_qr_scan", "android": "https://dc.lft.to/lastmile_qr_scan"}, "fusion_lat": 0.0, "name": "67280ad2e685baac9e0d803d23505df6", "bike_id": "67280ad2e685baac9e0d803d23505df6", "is_disabled": 0, "type": "electric_scooter", "lat": 38.95423316666667, "lon": -77.02763933333334, "is_reserved": 0, "fusion_lon": 0.0}, {"rental_uris": {"ios": "https://dc.lft.to/lastmile_qr_scan", "android": "https://dc.lft.to/lastmile_qr_scan"}, "fusion_lat": 0.0, "name": "bffb24b7df9d96f5545d4b2df5a16edb", "bike_id": "bffb24b7df9d96f5545d4b2df5a16edb", "is_disabled": 0, "type": "electric_scooter", "lat": 38.892221, "lon": -77.0432395, "is_reserved": 0, "fusion_lon": 0.0}, {"rental_uris": {"ios": "https://dc.lft.to/lastmile_qr_scan", "android": "https://dc.lft.to/lastmile_qr_scan"}, "fusion_lat": 0.0, "name": "5640238620c7b545cd4347cad7f592bd", "bike_id": "5640238620c7b545cd4347cad7f592bd", "is_disabled": 0, "type": "electric_scooter", "lat": 38.90137283333333, "lon": -77.0034405, "is_reserved": 0, "fusion_lon": 0.0}, {"rental_uris": {"ios": "https://dc.lft.to/lastmile_qr_scan", "android": "https://dc.lft.to/lastmile_qr_scan"}, "fusion_lat": 0.0, "name": "6caa659bcb016343c5249db7d899da98", "bike_id": "6caa659bcb016343c5249db7d899da98", "is_disabled": 0, "type": "electric_bike", "lat": 38.917853666666666, "lon": -76.97188383333334, "is_reserved": 0, "fusion_lon": 0.0}, {"rental_uris": {"ios": "https://dc.lft.to/lastmile_qr_scan", "android": "https://dc.lft.to/lastmile_qr_scan"}, "fusion_lat": 0.0, "name": "480e75c29467404fee5d299d9e7255b9", "bike_id": "480e75c29467404fee5d299d9e7255b9", "is_disabled": 0, "type": "electric_scooter", "lat": 38.909667, "lon": -77.03399983333334, "is_reserved": 0, "fusion_lon": 0.0}, {"rental_uris": {"ios": "https://dc.lft.to/lastmile_qr_scan", "android": "https://dc.lft.to/lastmile_qr_scan"}, "fusion_lat": 0.0, "name": "6291d9a3d93ccf7b0f685468dc72334a", "bike_id": "6291d9a3d93ccf7b0f685468dc72334a", "is_disabled": 0, "type": "electric_scooter", "lat": 38.900143, "lon": -77.04315233333334, "is_reserved": 0, "fusion_lon": 0.0}, {"rental_uris": {"ios": "https://dc.lft.to/lastmile_qr_scan", "android": "https://dc.lft.to/lastmile_qr_scan"}, "fusion_lat": 0.0, "name": "833b1fca9a0e6827b0347631599602fd", "bike_id": "833b1fca9a0e6827b0347631599602fd", "is_disabled": 0, "type": "electric_scooter", "lat": 38.892233, "lon": -77.0432415, "is_reserved": 0, "fusion_lon": 0.0}, {"rental_uris": {"ios": "https://dc.lft.to/lastmile_qr_scan", "android": "https://dc.lft.to/lastmile_qr_scan"}, "fusion_lat": 0.0, "name": "a2d71dda71022b50646fda7a4f65427f", "bike_id": "a2d71dda71022b50646fda7a4f65427f", "is_disabled": 0, "type": "electric_scooter", "lat": 38.91586783333333, "lon": -77.01722733333334, "is_reserved": 0, "fusion_lon": 0.0}, {"rental_uris": {"ios": "https://dc.lft.to/lastmile_qr_scan", "android": "https://dc.lft.to/lastmile_qr_scan"}, "fusion_lat": 0.0, "name": "e5e5423c88495d5c8daf789dc23d5a0c", "bike_id": "e5e5423c88495d5c8daf789dc23d5a0c", "is_disabled": 0, "type": "electric_scooter", "lat": 38.89220566666667, "lon": -77.03984083333333, "is_reserved": 0, "fusion_lon": 0.0}, {"rental_uris": {"ios": "https://dc.lft.to/lastmile_qr_scan", "android": "https://dc.lft.to/lastmile_qr_scan"}, "fusion_lat": 0.0, "name": "9b1851397b26027fe5c65b3c355e0250", "bike_id": "9b1851397b26027fe5c65b3c355e0250", "is_disabled": 0, "type": "electric_bike", "lat": 38.90096833333333, "lon": -77.04273233333333, "is_reserved": 0, "fusion_lon": 0.0}, {"rental_uris": {"ios": "https://dc.lft.to/lastmile_qr_scan", "android": "https://dc.lft.to/lastmile_qr_scan"}, "fusion_lat": 0.0, "name": "57f06e87df590135ea0eda048b0835c8", "bike_id": "57f06e87df590135ea0eda048b0835c8", "is_disabled": 0, "type": "electric_scooter", "lat": 38.90975533333334, "lon": -77.03227416666667, "is_reserved": 0, "fusion_lon": 0.0}, {"rental_uris": {"ios": "https://dc.lft.to/lastmile_qr_scan", "android": "https://dc.lft.to/lastmile_qr_scan"}, "fusion_lat": 0.0, "name": "7bd1e30698cec43d8336f1dff6575e4c", "bike_id": "7bd1e30698cec43d8336f1dff6575e4c", "is_disabled": 0, "type": "electric_scooter", "lat": 38.90447616666667, "lon": -77.02703533333333, "is_reserved": 0, "fusion_lon": 0.0}, {"rental_uris": {"ios": "https://dc.lft.to/lastmile_qr_scan", "android": "https://dc.lft.to/lastmile_qr_scan"}, "fusion_lat": 0.0, "name": "627cd640d50519ef1ce2346d0e862bb7", "bike_id": "627cd640d50519ef1ce2346d0e862bb7", "is_disabled": 0, "type": "electric_scooter", "lat": 38.89223666666667, "lon": -77.03164216666667, "is_reserved": 0, "fusion_lon": 0.0}, {"rental_uris": {"ios": "https://dc.lft.to/lastmile_qr_scan", "android": "https://dc.lft.to/lastmile_qr_scan"}, "fusion_lat": 0.0, "name": "bf074b52f47749eebfc136f36cca6daf", "bike_id": "bf074b52f47749eebfc136f36cca6daf", "is_disabled": 0, "type": "electric_scooter", "lat": 38.89798066666667, "lon": -77.04608616666667, "is_reserved": 0, "fusion_lon": 0.0}, {"rental_uris": {"ios": "https://dc.lft.to/lastmile_qr_scan", "android": "https://dc.lft.to/lastmile_qr_scan"}, "fusion_lat": 0.0, "name": "0a3194effe5d9b89456ece986ecfaa61", "bike_id": "0a3194effe5d9b89456ece986ecfaa61", "is_disabled": 0, "type": "electric_scooter", "lat": 38.927399666666666, "lon": -77.03407783333333, "is_reserved": 0, "fusion_lon": 0.0}, {"rental_uris": {"ios": "https://dc.lft.to/lastmile_qr_scan", "android": "https://dc.lft.to/lastmile_qr_scan"}, "fusion_lat": 0.0, "name": "73f4a73da62f0fa1cee682e162aa3be4", "bike_id": "73f4a73da62f0fa1cee682e162aa3be4", "is_disabled": 0, "type": "electric_scooter", "lat": 38.89218733333333, "lon": -77.032188, "is_reserved": 0, "fusion_lon": 0.0}, {"rental_uris": {"ios": "https://dc.lft.to/lastmile_qr_scan", "android": "https://dc.lft.to/lastmile_qr_scan"}, "fusion_lat": 0.0, "name": "5d08a27d60100de0871611f14063662c", "bike_id": "5d08a27d60100de0871611f14063662c", "is_disabled": 0, "type": "electric_scooter", "lat": 38.92838066666667, "lon": -76.99366133333334, "is_reserved": 0, "fusion_lon": 0.0}, {"rental_uris": {"ios": "https://dc.lft.to/lastmile_qr_scan", "android": "https://dc.lft.to/lastmile_qr_scan"}, "fusion_lat": 0.0, "name": "a8281569ad0b18e2b4c72a107581614c", "bike_id": "a8281569ad0b18e2b4c72a107581614c", "is_disabled": 0, "type": "electric_scooter", "lat": 38.923443166666665, "lon": -77.03501566666667, "is_reserved": 0, "fusion_lon": 0.0}, {"rental_uris": {"ios": "https://dc.lft.to/lastmile_qr_scan", "android": "https://dc.lft.to/lastmile_qr_scan"}, "fusion_lat": 0.0, "name": "81ec37ef993019dd0e0fc5c54a22ff9b", "bike_id": "81ec37ef993019dd0e0fc5c54a22ff9b", "is_disabled": 0, "type": "electric_scooter", "lat": 38.892209333333334, "lon": -77.03219066666666, "is_reserved": 0, "fusion_lon": 0.0}, {"rental_uris": {"ios": "https://dc.lft.to/lastmile_qr_scan", "android": "https://dc.lft.to/lastmile_qr_scan"}, "fusion_lat": 0.0, "name": "6a34a12ce0f39f2d55ee3f67996f8b6c", "bike_id": "6a34a12ce0f39f2d55ee3f67996f8b6c", "is_disabled": 0, "type": "electric_scooter", "lat": 38.903711666666666, "lon": -77.03850166666666, "is_reserved": 0, "fusion_lon": 0.0}, {"rental_uris": {"ios": "https://dc.lft.to/lastmile_qr_scan", "android": "https://dc.lft.to/lastmile_qr_scan"}, "fusion_lat": 0.0, "name": "3919aa4c17545128a1eca10a5de70c4b", "bike_id": "3919aa4c17545128a1eca10a5de70c4b", "is_disabled": 0, "type": "electric_scooter", "lat": 38.9211485, "lon": -77.03184933333333, "is_reserved": 0, "fusion_lon": 0.0}, {"rental_uris": {"ios": "https://dc.lft.to/lastmile_qr_scan", "android": "https://dc.lft.to/lastmile_qr_scan"}, "fusion_lat": 0.0, "name": "d8a2bcacaf6d06f11cb06d97fec39896", "bike_id": "d8a2bcacaf6d06f11cb06d97fec39896", "is_disabled": 0, "type": "electric_scooter", "lat": 38.934042833333336, "lon": -77.045499, "is_reserved": 0, "fusion_lon": 0.0}, {"rental_uris": {"ios": "https://dc.lft.to/lastmile_qr_scan", "android": "https://dc.lft.to/lastmile_qr_scan"}, "fusion_lat": 0.0, "name": "ffa7dff2a2e041b089b0cc83da2e686c", "bike_id": "ffa7dff2a2e041b089b0cc83da2e686c", "is_disabled": 0, "type": "electric_scooter", "lat": 38.916827, "lon": -77.02287866666667, "is_reserved": 0, "fusion_lon": 0.0}, {"rental_uris": {"ios": "https://dc.lft.to/lastmile_qr_scan", "android": "https://dc.lft.to/lastmile_qr_scan"}, "fusion_lat": 0.0, "name": "08e39496d4eb4ff23724feee8f6ead85", "bike_id": "08e39496d4eb4ff23724feee8f6ead85", "is_disabled": 0, "type": "electric_scooter", "lat": 38.88116816666667, "lon": -77.0166135, "is_reserved": 0, "fusion_lon": 0.0}, {"rental_uris": {"ios": "https://dc.lft.to/lastmile_qr_scan", "android": "https://dc.lft.to/lastmile_qr_scan"}, "fusion_lat": 0.0, "name": "b7fb10fc3c8eb98075ef64ff3cf205df", "bike_id": "b7fb10fc3c8eb98075ef64ff3cf205df", "is_disabled": 0, "type": "electric_scooter", "lat": 38.87075016666667, "lon": -77.01371133333333, "is_reserved": 0, "fusion_lon": 0.0}, {"rental_uris": {"ios": "https://dc.lft.to/lastmile_qr_scan", "android": "https://dc.lft.to/lastmile_qr_scan"}, "fusion_lat": 0.0, "name": "69944b2e041c5069ff41df439b576988", "bike_id": "69944b2e041c5069ff41df439b576988", "is_disabled": 0, "type": "electric_scooter", "lat": 38.92172683333333, "lon": -77.03829366666666, "is_reserved": 0, "fusion_lon": 0.0}, {"rental_uris": {"ios": "https://dc.lft.to/lastmile_qr_scan", "android": "https://dc.lft.to/lastmile_qr_scan"}, "fusion_lat": 0.0, "name": "9b8e802e9d935caecacb3d13f695d3f1", "bike_id": "9b8e802e9d935caecacb3d13f695d3f1", "is_disabled": 0, "type": "electric_scooter", "lat": 38.923617166666666, "lon": -77.051301, "is_reserved": 0, "fusion_lon": 0.0}, {"rental_uris": {"ios": "https://dc.lft.to/lastmile_qr_scan", "android": "https://dc.lft.to/lastmile_qr_scan"}, "fusion_lat": 0.0, "name": "d805354dab1ea6c37003e1995c08e173", "bike_id": "d805354dab1ea6c37003e1995c08e173", "is_disabled": 0, "type": "electric_scooter", "lat": 38.90256083333333, "lon": -77.017411, "is_reserved": 0, "fusion_lon": 0.0}, {"rental_uris": {"ios": "https://dc.lft.to/lastmile_qr_scan", "android": "https://dc.lft.to/lastmile_qr_scan"}, "fusion_lat": 0.0, "name": "b7ed6e18b8c726ee6d59eb46f35028e4", "bike_id": "b7ed6e18b8c726ee6d59eb46f35028e4", "is_disabled": 0, "type": "electric_scooter", "lat": 38.86886616666666, "lon": -76.98310833333333, "is_reserved": 0, "fusion_lon": 0.0}, {"rental_uris": {"ios": "https://dc.lft.to/lastmile_qr_scan", "android": "https://dc.lft.to/lastmile_qr_scan"}, "fusion_lat": 0.0, "name": "b519f4e62c5b54497b408c760881c6c3", "bike_id": "b519f4e62c5b54497b408c760881c6c3", "is_disabled": 0, "type": "electric_scooter", "lat": 38.8934355, "lon": -77.0110645, "is_reserved": 0, "fusion_lon": 0.0}, {"rental_uris": {"ios": "https://dc.lft.to/lastmile_qr_scan", "android": "https://dc.lft.to/lastmile_qr_scan"}, "fusion_lat": 0.0, "name": "0e98471012e62d53291927738090b87d", "bike_id": "0e98471012e62d53291927738090b87d", "is_disabled": 0, "type": "electric_scooter", "lat": 38.898491166666666, "lon": -76.9903025, "is_reserved": 0, "fusion_lon": 0.0}, {"rental_uris": {"ios": "https://dc.lft.to/lastmile_qr_scan", "android": "https://dc.lft.to/lastmile_qr_scan"}, "fusion_lat": 0.0, "name": "a2d34fb871337a2d1b80d6bea9aeeb14", "bike_id": "a2d34fb871337a2d1b80d6bea9aeeb14", "is_disabled": 0, "type": "electric_scooter", "lat": 38.924705833333334, "lon": -77.03156933333334, "is_reserved": 0, "fusion_lon": 0.0}, {"rental_uris": {"ios": "https://dc.lft.to/lastmile_qr_scan", "android": "https://dc.lft.to/lastmile_qr_scan"}, "fusion_lat": 0.0, "name": "8399c47aea0e069265488fe1d4c5aa93", "bike_id": "8399c47aea0e069265488fe1d4c5aa93", "is_disabled": 0, "type": "electric_bike", "lat": 38.82784133333333, "lon": -77.009136, "is_reserved": 0, "fusion_lon": 0.0}, {"rental_uris": {"ios": "https://dc.lft.to/lastmile_qr_scan", "android": "https://dc.lft.to/lastmile_qr_scan"}, "fusion_lat": 0.0, "name": "90d8fe2a6489dc42c4150f13581b525b", "bike_id": "90d8fe2a6489dc42c4150f13581b525b", "is_disabled": 0, "type": "electric_scooter", "lat": 38.887309333333334, "lon": -77.0282455, "is_reserved": 0, "fusion_lon": 0.0}, {"rental_uris": {"ios": "https://dc.lft.to/lastmile_qr_scan", "android": "https://dc.lft.to/lastmile_qr_scan"}, "fusion_lat": 0.0, "name": "b11025603b45825c55a63c0ac0ab4fd0", "bike_id": "b11025603b45825c55a63c0ac0ab4fd0", "is_disabled": 0, "type": "electric_scooter", "lat": 38.898795666666665, "lon": -76.93177983333334, "is_reserved": 0, "fusion_lon": 0.0}, {"rental_uris": {"ios": "https://dc.lft.to/lastmile_qr_scan", "android": "https://dc.lft.to/lastmile_qr_scan"}, "fusion_lat": 0.0, "name": "e49d6a69d55e2c3f7b29028919448275", "bike_id": "e49d6a69d55e2c3f7b29028919448275", "is_disabled": 0, "type": "electric_scooter", "lat": 38.90394466666667, "lon": -76.980882, "is_reserved": 0, "fusion_lon": 0.0}, {"rental_uris": {"ios": "https://dc.lft.to/lastmile_qr_scan", "android": "https://dc.lft.to/lastmile_qr_scan"}, "fusion_lat": 0.0, "name": "01415e04b56d80af902018013cbc4801", "bike_id": "01415e04b56d80af902018013cbc4801", "is_disabled": 0, "type": "electric_scooter", "lat": 38.844323833333334, "lon": -76.997771, "is_reserved": 0, "fusion_lon": 0.0}, {"rental_uris": {"ios": "https://dc.lft.to/lastmile_qr_scan", "android": "https://dc.lft.to/lastmile_qr_scan"},