{"data": {"bikes": [{"lon": -77.02796033333334, "bike_id": "8500fe197889e44df19814d23e29a036", "lat": 38.930158666666664, "fusion_lon": 0.0, "fusion_lat": 0.0, "type": "electric_scooter", "name": "8500fe197889e44df19814d23e29a036", "is_disabled": 0, "rental_uris": {"ios": "https://dc.lft.to/lastmile_qr_scan", "android": "https://dc.lft.to/lastmile_qr_scan"}, "is_reserved": 0}, {"lon": -77.07762566666666, "bike_id": "57b947e2c0d2aa89eb36ac8bc90c8bf2", "lat": 38.92558366666667, "fusion_lon": 0.0, "fusion_lat": 0.0, "type": "electric_scooter", "name": "57b947e2c0d2aa89eb36ac8bc90c8bf2", "is_disabled": 0, "rental_uris": {"ios": "https://dc.lft.to/lastmile_qr_scan", "android": "https://dc.lft.to/lastmile_qr_scan"}, "is_reserved": 0}, {"lon": -77.02500133333334, "bike_id": "b1fbc9937e95e0b3ba806f9eb1b81b45", "lat": 38.930956, "fusion_lon": 0.0, "fusion_lat": 0.0, "type": "electric_scooter", "name": "b1fbc9937e95e0b3ba806f9eb1b81b45", "is_disabled": 0, "rental_uris": {"ios": "https://dc.lft.to/lastmile_qr_scan", "android": "https://dc.lft.to/lastmile_qr_scan"}, "is_reserved": 0}, {"lon": -77.02983433333333, "bike_id": "21b5deda634ba9bfe3216392cf88a5ab", "lat": 38.907237, "fusion_lon": 0.0, "fusion_lat": 0.0, "type": "electric_scooter", "name": "21b5deda634ba9bfe3216392cf88a5ab", "is_disabled": 0, "rental_uris": {"ios": "https://dc.lft.to/lastmile_qr_scan", "android": "https://dc.lft.to/lastmile_qr_scan"}, "is_reserved": 0}, {"lon": -76.93757016666666, "bike_id": "84385f9c12830b2f2245d81b38b89d5f", "lat": 38.8904175, "fusion_lon": 0.0, "fusion_lat": 0.0, "type": "electric_scooter", "name": "84385f9c12830b2f2245d81b38b89d5f", "is_disabled": 0, "rental_uris": {"ios": "https://dc.lft.to/lastmile_qr_scan", "android": "https://dc.lft.to/lastmile_qr_scan"}, "is_reserved": 0}, {"lon": -76.93738866666666, "bike_id": "133f643a2fa4225f34d8c21c09ed061c", "lat": 38.890108166666664, "fusion_lon": 0.0, "fusion_lat": 0.0, "type": "electric_scooter", "name": "133f643a2fa4225f34d8c21c09ed061c", "is_disabled": 0, "rental_uris": {"ios": "https://dc.lft.to/lastmile_qr_scan", "android": "https://dc.lft.to/lastmile_qr_scan"}, "is_reserved": 0}, {"lon": -77.00501866666667, "bike_id": "3714585b701365081af7ac746fc98695", "lat": 38.90561666666667, "fusion_lon": 0.0, "fusion_lat": 0.0, "type": "electric_scooter", "name": "3714585b701365081af7ac746fc98695", "is_disabled": 0, "rental_uris": {"ios": "https://dc.lft.to/lastmile_qr_scan", "android": "https://dc.lft.to/lastmile_qr_scan"}, "is_reserved": 0}, {"lon": -77.0450245, "bike_id": "425b50c575ac9e2786e1d2b9f6580bf8", "lat": 38.913932833333334, "fusion_lon": 0.0, "fusion_lat": 0.0, "type": "electric_scooter", "name": "425b50c575ac9e2786e1d2b9f6580bf8", "is_disabled": 0, "rental_uris": {"ios": "https://dc.lft.to/lastmile_qr_scan", "android": "https://dc.lft.to/lastmile_qr_scan"}, "is_reserved": 0}, {"lon": -77.01659416666666, "bike_id": "30af7064467c69e9a3da1ff1997680e9", "lat": 38.92891683333333, "fusion_lon": 0.0, "fusion_lat": 0.0, "type": "electric_scooter", "name": "30af7064467c69e9a3da1ff1997680e9", "is_disabled": 0, "rental_uris": {"ios": "https://dc.lft.to/lastmile_qr_scan", "android": "https://dc.lft.to/lastmile_qr_scan"}, "is_reserved": 0}, {"lon": -77.04191733333333, "bike_id": "6b3561ca5a36fc4ff14334904a956486", "lat": 38.911357833333334, "fusion_lon": 0.0, "fusion_lat": 0.0, "type": "electric_scooter", "name": "6b3561ca5a36fc4ff14334904a956486", "is_disabled": 0, "rental_uris": {"ios": "https://dc.lft.to/lastmile_qr_scan", "android": "https://dc.lft.to/lastmile_qr_scan"}, "is_reserved": 0}, {"lon": -77.07340983333333, "bike_id": "9dd3a4f53b4c2e0004ee1a4a08a512be", "lat": 38.935607, "fusion_lon": 0.0, "fusion_lat": 0.0, "type": "electric_scooter", "name": "9dd3a4f53b4c2e0004ee1a4a08a512be", "is_disabled": 0, "rental_uris": {"ios": "https://dc.lft.to/lastmile_qr_scan", "android": "https://dc.lft.to/lastmile_qr_scan"}, "is_reserved": 0}, {"lon": -76.9892365, "bike_id": "3b1c3cdfecd657c260b351b2e2fbc9fb", "lat": 38.85808933333333, "fusion_lon": 0.0, "fusion_lat": 0.0, "type": "electric_scooter", "name": "3b1c3cdfecd657c260b351b2e2fbc9fb", "is_disabled": 0, "rental_uris": {"ios": "https://dc.lft.to/lastmile_qr_scan", "android": "https://dc.lft.to/lastmile_qr_scan"}, "is_reserved": 0}, {"lon": -77.0345185, "bike_id": "3a91397c1e0f5ddbc9a2c6c378e31f9a", "lat": 38.909443333333336, "fusion_lon": 0.0, "fusion_lat": 0.0, "type": "electric_scooter", "name": "3a91397c1e0f5ddbc9a2c6c378e31f9a", "is_disabled": 0, "rental_uris": {"ios": "https://dc.lft.to/lastmile_qr_scan", "android": "https://dc.lft.to/lastmile_qr_scan"}, "is_reserved": 0}, {"lon": -76.97193733333333, "bike_id": "b42ad8950868816580512338b160f78c", "lat": 38.8738475, "fusion_lon": 0.0, "fusion_lat": 0.0, "type": "electric_scooter", "name": "b42ad8950868816580512338b160f78c", "is_disabled": 0, "rental_uris": {"ios": "https://dc.lft.to/lastmile_qr_scan", "android": "https://dc.lft.to/lastmile_qr_scan"}, "is_reserved": 0}, {"lon": -77.02210516666666, "bike_id": "157f49a48480e99f6c0979119bf87c39", "lat": 38.926011833333334, "fusion_lon": 0.0, "fusion_lat": 0.0, "type": "electric_scooter", "name": "157f49a48480e99f6c0979119bf87c39", "is_disabled": 0, "rental_uris": {"ios": "https://dc.lft.to/lastmile_qr_scan", "android": "https://dc.lft.to/lastmile_qr_scan"}, "is_reserved": 0}, {"lon": -77.0375675, "bike_id": "fe1ec630ec4e9e626814f8d4a91abf17", "lat": 38.9288645, "fusion_lon": 0.0, "fusion_lat": 0.0, "type": "electric_scooter", "name": "fe1ec630ec4e9e626814f8d4a91abf17", "is_disabled": 0, "rental_uris": {"ios": "https://dc.lft.to/lastmile_qr_scan", "android": "https://dc.lft.to/lastmile_qr_scan"}, "is_reserved": 0}, {"lon": -77.0224405, "bike_id": "2f3e512ce67c81fe7395361707b383d1", "lat": 38.96209016666667, "fusion_lon": 0.0, "fusion_lat": 0.0, "type": "electric_bike", "name": "2f3e512ce67c81fe7395361707b383d1", "is_disabled": 0, "rental_uris": {"ios": "https://dc.lft.to/lastmile_qr_scan", "android": "https://dc.lft.to/lastmile_qr_scan"}, "is_reserved": 0}, {"lon": -77.04834416666667, "bike_id": "71fd2e704d0e6900fb2d612429d2963a", "lat": 38.8974265, "fusion_lon": 0.0, "fusion_lat": 0.0, "type": "electric_scooter", "name": "71fd2e704d0e6900fb2d612429d2963a", "is_disabled": 0, "rental_uris": {"ios": "https://dc.lft.to/lastmile_qr_scan", "android": "https://dc.lft.to/lastmile_qr_scan"}, "is_reserved": 0}, {"lon": -77.0438885, "bike_id": "08167afd93602703e9f3e7ce999e0332", "lat": 39.04719166666667, "fusion_lon": 0.0, "fusion_lat": 0.0, "type": "electric_bike", "name": "08167afd93602703e9f3e7ce999e0332", "is_disabled": 0, "rental_uris": {"ios": "https://dc.lft.to/lastmile_qr_scan", "android": "https://dc.lft.to/lastmile_qr_scan"}, "is_reserved": 0}, {"lon": -77.02110216666667, "bike_id": "f4eb88436340f476b254ca42a3b16bfe", "lat": 38.90600033333333, "fusion_lon": 0.0, "fusion_lat": 0.0, "type": "electric_scooter", "name": "f4eb88436340f476b254ca42a3b16bfe", "is_disabled": 0, "rental_uris": {"ios": "https://dc.lft.to/lastmile_qr_scan", "android": "https://dc.lft.to/lastmile_qr_scan"}, "is_reserved": 0}, {"lon": -77.02845716666667, "bike_id": "a001739d39f685111139c1120bcc14b9", "lat": 38.925684833333335, "fusion_lon": 0.0, "fusion_lat": 0.0, "type": "electric_scooter", "name": "a001739d39f685111139c1120bcc14b9", "is_disabled": 0, "rental_uris": {"ios": "https://dc.lft.to/lastmile_qr_scan", "android": "https://dc.lft.to/lastmile_qr_scan"}, "is_reserved": 0}, {"lon": -77.04534416666667, "bike_id": "6d11df14abc56e63de66e4e97ac8db6b", "lat": 38.91337033333333, "fusion_lon": 0.0, "fusion_lat": 0.0, "type": "electric_scooter", "name": "6d11df14abc56e63de66e4e97ac8db6b", "is_disabled": 0, "rental_uris": {"ios": "https://dc.lft.to/lastmile_qr_scan", "android": "https://dc.lft.to/lastmile_qr_scan"}, "is_reserved": 0}, {"lon": -77.0326025, "bike_id": "6add85a88512063aa14767b779ab74d5", "lat": 38.9376405, "fusion_lon": 0.0, "fusion_lat": 0.0, "type": "electric_scooter", "name": "6add85a88512063aa14767b779ab74d5", "is_disabled": 0, "rental_uris": {"ios": "https://dc.lft.to/lastmile_qr_scan", "android": "https://dc.lft.to/lastmile_qr_scan"}, "is_reserved": 0}, {"lon": -77.03175633333333, "bike_id": "dd66a33559426955f442dcfcb3f143bf", "lat": 38.887383, "fusion_lon": 0.0, "fusion_lat": 0.0, "type": "electric_scooter", "name": "dd66a33559426955f442dcfcb3f143bf", "is_disabled": 0, "rental_uris": {"ios": "https://dc.lft.to/lastmile_qr_scan", "android": "https://dc.lft.to/lastmile_qr_scan"}, "is_reserved": 0}, {"lon": -77.02608833333333, "bike_id": "1e656e7aecbe7a22798c415d23405f04", "lat": 38.904909, "fusion_lon": 0.0, "fusion_lat": 0.0, "type": "electric_scooter", "name": "1e656e7aecbe7a22798c415d23405f04", "is_disabled": 0, "rental_uris": {"ios": "https://dc.lft.to/lastmile_qr_scan", "android": "https://dc.lft.to/lastmile_qr_scan"}, "is_reserved": 0}, {"lon": -76.98644616666667, "bike_id": "0093b55b10e8082e224dea9abad1e12b", "lat": 38.898287833333335, "fusion_lon": 0.0, "fusion_lat": 0.0, "type": "electric_scooter", "name": "0093b55b10e8082e224dea9abad1e12b", "is_disabled": 0, "rental_uris": {"ios": "https://dc.lft.to/lastmile_qr_scan", "android": "https://dc.lft.to/lastmile_qr_scan"}, "is_reserved": 0}, {"lon": -77.02171583333333, "bike_id": "fe61fa8bdf03c2f9e4e078bb0b6e0380", "lat": 38.897353833333334, "fusion_lon": 0.0, "fusion_lat": 0.0, "type": "electric_scooter", "name": "fe61fa8bdf03c2f9e4e078bb0b6e0380", "is_disabled": 0, "rental_uris": {"ios": "https://dc.lft.to/lastmile_qr_scan", "android": "https://dc.lft.to/lastmile_qr_scan"}, "is_reserved": 0}, {"lon": -77.0226005, "bike_id": "0ac6be54b86516337701a4bd0c884042", "lat": 38.94097716666667, "fusion_lon": 0.0, "fusion_lat": 0.0, "type": "electric_scooter", "name": "0ac6be54b86516337701a4bd0c884042", "is_disabled": 0, "rental_uris": {"ios": "https://dc.lft.to/lastmile_qr_scan", "android": "https://dc.lft.to/lastmile_qr_scan"}, "is_reserved": 0}, {"lon": -77.0290355, "bike_id": "6c2be6a8bcf5c2d4d4caa256dc00388c", "lat": 38.92814383333334, "fusion_lon": 0.0, "fusion_lat": 0.0, "type": "electric_scooter", "name": "6c2be6a8bcf5c2d4d4caa256dc00388c", "is_disabled": 0, "rental_uris": {"ios": "https://dc.lft.to/lastmile_qr_scan", "android": "https://dc.lft.to/lastmile_qr_scan"}, "is_reserved": 0}, {"lon": -77.03602933333333, "bike_id": "119655fa7b01bc4eb903a1fd0cbd36b2", "lat": 38.93651333333333, "fusion_lon": 0.0, "fusion_lat": 0.0, "type": "electric_scooter", "name": "119655fa7b01bc4eb903a1fd0cbd36b2", "is_disabled": 0, "rental_uris": {"ios": "https://dc.lft.to/lastmile_qr_scan", "android": "https://dc.lft.to/lastmile_qr_scan"}, "is_reserved": 0}, {"lon": -77.04507416666667, "bike_id": "ca009b08c0450f8c6d474290ffca6203", "lat": 38.91932166666667, "fusion_lon": 0.0, "fusion_lat": 0.0, "type": "electric_scooter", "name": "ca009b08c0450f8c6d474290ffca6203", "is_disabled": 0, "rental_uris": {"ios": "https://dc.lft.to/lastmile_qr_scan", "android": "https://dc.lft.to/lastmile_qr_scan"}, "is_reserved": 0}, {"lon": -76.98839816666667, "bike_id": "561d4dd0139f4aaabbac295a32952b83", "lat": 38.901264166666664, "fusion_lon": 0.0, "fusion_lat": 0.0, "type": "electric_scooter", "name": "561d4dd0139f4aaabbac295a32952b83", "is_disabled": 0, "rental_uris": {"ios": "https://dc.lft.to/lastmile_qr_scan", "android": "https://dc.lft.to/lastmile_qr_scan"}, "is_reserved": 0}, {"lon": -77.0149165, "bike_id": "8356328c38906fbe52e9e74de108c7bc", "lat": 38.91760416666666, "fusion_lon": 0.0, "fusion_lat": 0.0, "type": "electric_scooter", "name": "8356328c38906fbe52e9e74de108c7bc", "is_disabled": 0, "rental_uris": {"ios": "https://dc.lft.to/lastmile_qr_scan", "android": "https://dc.lft.to/lastmile_qr_scan"}, "is_reserved": 0}, {"lon": -77.02777033333334, "bike_id": "3c09707f300383bc309d6709a4d9aed7", "lat": 38.927726, "fusion_lon": 0.0, "fusion_lat": 0.0, "type": "electric_scooter", "name": "3c09707f300383bc309d6709a4d9aed7", "is_disabled": 0, "rental_uris": {"ios": "https://dc.lft.to/lastmile_qr_scan", "android": "https://dc.lft.to/lastmile_qr_scan"}, "is_reserved": 0}, {"lon": -76.98659183333334, "bike_id": "4f7081adf055f418bd67af210f7fe9e9", "lat": 38.9124705, "fusion_lon": 0.0, "fusion_lat": 0.0, "type": "electric_scooter", "name": "4f7081adf055f418bd67af210f7fe9e9", "is_disabled": 0, "rental_uris": {"ios": "https://dc.lft.to/lastmile_qr_scan", "android": "https://dc.lft.to/lastmile_qr_scan"}, "is_reserved": 0}, {"lon": -77.02960083333333, "bike_id": "d7f18e27dffae4fad9bf3d19323ec2cd", "lat": 38.90502383333333, "fusion_lon": 0.0, "fusion_lat": 0.0, "type": "electric_scooter", "name": "d7f18e27dffae4fad9bf3d19323ec2cd", "is_disabled": 0, "rental_uris": {"ios": "https://dc.lft.to/lastmile_qr_scan", "android": "https://dc.lft.to/lastmile_qr_scan"}, "is_reserved": 0}, {"lon": -77.03642083333334, "bike_id": "dd4fcf6ad339608aadf94ba4b0d50453", "lat": 38.90353533333333, "fusion_lon": 0.0, "fusion_lat": 0.0, "type": "electric_scooter", "name": "dd4fcf6ad339608aadf94ba4b0d50453", "is_disabled": 0, "rental_uris": {"ios": "https://dc.lft.to/lastmile_qr_scan", "android": "https://dc.lft.to/lastmile_qr_scan"}, "is_reserved": 0}, {"lon": -77.0487865, "bike_id": "60969e1865215485491a4783421f4c4f", "lat": 38.8923455, "fusion_lon": 0.0, "fusion_lat": 0.0, "type": "electric_scooter", "name": "60969e1865215485491a4783421f4c4f", "is_disabled": 0, "rental_uris": {"ios": "https://dc.lft.to/lastmile_qr_scan", "android": "https://dc.lft.to/lastmile_qr_scan"}, "is_reserved": 0}, {"lon": -77.032031, "bike_id": "20283fb64534ac253f0fb2d1adf3a887", "lat": 38.9305365, "fusion_lon": 0.0, "fusion_lat": 0.0, "type": "electric_scooter", "name": "20283fb64534ac253f0fb2d1adf3a887", "is_disabled": 0, "rental_uris": {"ios": "https://dc.lft.to/lastmile_qr_scan", "android": "https://dc.lft.to/lastmile_qr_scan"}, "is_reserved": 0}, {"lon": -77.027733, "bike_id": "3f3b3313b6f3d9c3ce66f80d749324be", "lat": 38.902655333333335, "fusion_lon": 0.0, "fusion_lat": 0.0, "type": "electric_scooter", "name": "3f3b3313b6f3d9c3ce66f80d749324be", "is_disabled": 0, "rental_uris": {"ios": "https://dc.lft.to/lastmile_qr_scan", "android": "https://dc.lft.to/lastmile_qr_scan"}, "is_reserved": 0}, {"lon": -77.0551635, "bike_id": "4732e8de36cd7b5d7cb0bd26d33cca9c", "lat": 38.899643833333336, "fusion_lon": 0.0, "fusion_lat": 0.0, "type": "electric_scooter", "name": "4732e8de36cd7b5d7cb0bd26d33cca9c", "is_disabled": 0, "rental_uris": {"ios": "https://dc.lft.to/lastmile_qr_scan", "android": "https://dc.lft.to/lastmile_qr_scan"}, "is_reserved": 0}, {"lon": -76.9937275, "bike_id": "076fced2507cfd85ff460722cd2dca2a", "lat": 38.879666666666665, "fusion_lon": 0.0, "fusion_lat": 0.0, "type": "electric_scooter", "name": "076fced2507cfd85ff460722cd2dca2a", "is_disabled": 0, "rental_uris": {"ios": "https://dc.lft.to/lastmile_qr_scan", "android": "https://dc.lft.to/lastmile_qr_scan"}, "is_reserved": 0}, {"lon": -77.03784983333334, "bike_id": "1eaadbd54a781e4c7ffce96501aec6b3", "lat": 38.925704333333336, "fusion_lon": 0.0, "fusion_lat": 0.0, "type": "electric_scooter", "name": "1eaadbd54a781e4c7ffce96501aec6b3", "is_disabled": 0, "rental_uris": {"ios": "https://dc.lft.to/lastmile_qr_scan", "android": "https://dc.lft.to/lastmile_qr_scan"}, "is_reserved": 0}, {"lon": -76.97929866666666, "bike_id": "2a0b8337c2406ca9b42e93cb2a98aed2", "lat": 38.90500383333333, "fusion_lon": 0.0, "fusion_lat": 0.0, "type": "electric_scooter", "name": "2a0b8337c2406ca9b42e93cb2a98aed2", "is_disabled": 0, "rental_uris": {"ios": "https://dc.lft.to/lastmile_qr_scan", "android": "https://dc.lft.to/lastmile_qr_scan"}, "is_reserved": 0}, {"lon": -76.99003083333334, "bike_id": "e9c444e2fdd318b53a5bfd5345f7e0e1", "lat": 38.865084833333334, "fusion_lon": 0.0, "fusion_lat": 0.0, "type": "electric_scooter", "name": "e9c444e2fdd318b53a5bfd5345f7e0e1", "is_disabled": 0, "rental_uris": {"ios": "https://dc.lft.to/lastmile_qr_scan", "android": "https://dc.lft.to/lastmile_qr_scan"}, "is_reserved": 0}, {"lon": -77.0986895, "bike_id": "3769b48100fa47fc092a44343da08d75", "lat": 38.94965033333333, "fusion_lon": 0.0, "fusion_lat": 0.0, "type": "electric_scooter", "name": "3769b48100fa47fc092a44343da08d75", "is_disabled": 0, "rental_uris": {"ios": "https://dc.lft.to/lastmile_qr_scan", "android": "https://dc.lft.to/lastmile_qr_scan"}, "is_reserved": 0}, {"lon": -77.02725016666666, "bike_id": "50e5bed32251e98f06548c53d53188df", "lat": 38.8972905, "fusion_lon": 0.0, "fusion_lat": 0.0, "type": "electric_scooter", "name": "50e5bed32251e98f06548c53d53188df", "is_disabled": 0, "rental_uris": {"ios": "https://dc.lft.to/lastmile_qr_scan", "android": "https://dc.lft.to/lastmile_qr_scan"}, "is_reserved": 0}, {"lon": -76.9945775, "bike_id": "0e25d28ae97c1bdbfdc2895ca5e57fa4", "lat": 38.966183666666666, "fusion_lon": 0.0, "fusion_lat": 0.0, "type": "electric_bike", "name": "0e25d28ae97c1bdbfdc2895ca5e57fa4", "is_disabled": 0, "rental_uris": {"ios": "https://dc.lft.to/lastmile_qr_scan", "android": "https://dc.lft.to/lastmile_qr_scan"}, "is_reserved": 0}, {"lon": -77.037449, "bike_id": "38bcfd52857f48e7b0bdd8b588b601a0", "lat": 38.918007333333335, "fusion_lon": 0.0, "fusion_lat": 0.0, "type": "electric_scooter", "name": "38bcfd52857f48e7b0bdd8b588b601a0", "is_disabled": 0, "rental_uris": {"ios": "https://dc.lft.to/lastmile_qr_scan", "android": "https://dc.lft.to/lastmile_qr_scan"}, "is_reserved": 0}, {"lon": -77.01317583333334, "bike_id": "8e41339c71d56d59c69bb62cfcabc37b", "lat": 38.87156, "fusion_lon": 0.0, "fusion_lat": 0.0, "type": "electric_scooter", "name": "8e41339c71d56d59c69bb62cfcabc37b", "is_disabled": 0, "rental_uris": {"ios": "https://dc.lft.to/lastmile_qr_scan", "android": "https://dc.lft.to/lastmile_qr_scan"}, "is_reserved": 0}, {"lon": -77.01148383333333, "bike_id": "8d809959b5ed933f3974998b6a217694", "lat": 38.90000366666666, "fusion_lon": 0.0, "fusion_lat": 0.0, "type": "electric_scooter", "name": "8d809959b5ed933f3974998b6a217694", "is_disabled": 0, "rental_uris": {"ios": "https://dc.lft.to/lastmile_qr_scan", "android": "https://dc.lft.to/lastmile_qr_scan"}, "is_reserved": 0}, {"lon": -77.0451475, "bike_id": "d63c37436b0191e1c379a03011f7d420", "lat": 38.8860095, "fusion_lon": 0.0, "fusion_lat": 0.0, "type": "electric_scooter", "name": "d63c37436b0191e1c379a03011f7d420", "is_disabled": 0, "rental_uris": {"ios": "https://dc.lft.to/lastmile_qr_scan", "android": "https://dc.lft.to/lastmile_qr_scan"}, "is_reserved": 0}, {"lon": -77.03579866666666, "bike_id": "59d1aa440aa0af2ca8ba086f7b425656", "lat": 38.91761666666667, "fusion_lon": 0.0, "fusion_lat": 0.0, "type": "electric_scooter", "name": "59d1aa440aa0af2ca8ba086f7b425656", "is_disabled": 0, "rental_uris": {"ios": "https://dc.lft.to/lastmile_qr_scan", "android": "https://dc.lft.to/lastmile_qr_scan"}, "is_reserved": 0}, {"lon": -77.109181, "bike_id": "2d79600a910549fcbd32731af45eb561", "lat": 39.052002, "fusion_lon": 0.0, "fusion_lat": 0.0, "type": "electric_bike", "name": "2d79600a910549fcbd32731af45eb561", "is_disabled": 0, "rental_uris": {"ios": "https://dc.lft.to/lastmile_qr_scan", "android": "https://dc.lft.to/lastmile_qr_scan"}, "is_reserved": 0}, {"lon": -77.04019666666667, "bike_id": "c3344a0f54c56bd82fc26b6736ebbc67", "lat": 38.91115166666667, "fusion_lon": 0.0, "fusion_lat": 0.0, "type": "electric_scooter", "name": "c3344a0f54c56bd82fc26b6736ebbc67", "is_disabled": 0, "rental_uris": {"ios": "https://dc.lft.to/lastmile_qr_scan", "android": "https://dc.lft.to/lastmile_qr_scan"}, "is_reserved": 0}, {"lon": -76.93001883333334, "bike_id": "553470ca7ea91a1728682a5909e01b1f", "lat": 38.901862666666666, "fusion_lon": 0.0, "fusion_lat": 0.0, "type": "electric_scooter", "name": "553470ca7ea91a1728682a5909e01b1f", "is_disabled": 0, "rental_uris": {"ios": "https://dc.lft.to/lastmile_qr_scan", "android": "https://dc.lft.to/lastmile_qr_scan"}, "is_reserved": 0}, {"lon": -77.02085566666666, "bike_id": "b3ee5fcd21bb43d816704d89ee28b275", "lat": 38.930089, "fusion_lon": 0.0, "fusion_lat": 0.0, "type": "electric_scooter", "name": "b3ee5fcd21bb43d816704d89ee28b275", "is_disabled": 0, "rental_uris": {"ios": "https://dc.lft.to/lastmile_qr_scan", "android": "https://dc.lft.to/lastmile_qr_scan"}, "is_reserved": 0}, {"lon": -77.0319155, "bike_id": "215fc505ecf95af6211ad81358569410", "lat": 38.8962615, "fusion_lon": 0.0, "fusion_lat": 0.0, "type": "electric_scooter", "name": "215fc505ecf95af6211ad81358569410", "is_disabled": 0, "rental_uris": {"ios": "https://dc.lft.to/lastmile_qr_scan", "android": "https://dc.lft.to/lastmile_qr_scan"}, "is_reserved": 0}, {"lon": -77.01417333333333, "bike_id": "627e154b1c8b2c1cb9b0feeb121990d2", "lat": 38.928307833333335, "fusion_lon": 0.0, "fusion_lat": 0.0, "type": "electric_scooter", "name": "627e154b1c8b2c1cb9b0feeb121990d2", "is_disabled": 0, "rental_uris": {"ios": "https://dc.lft.to/lastmile_qr_scan", "android": "https://dc.lft.to/lastmile_qr_scan"}, "is_reserved": 0}, {"lon": -77.03892783333333, "bike_id": "abb87c9d2af4d6dc66f186534ebae4d2", "lat": 38.9200705, "fusion_lon": 0.0, "fusion_lat": 0.0, "type": "electric_scooter", "name": "abb87c9d2af4d6dc66f186534ebae4d2", "is_disabled": 0, "rental_uris": {"ios": "https://dc.lft.to/lastmile_qr_scan", "android": "https://dc.lft.to/lastmile_qr_scan"}, "is_reserved": 0}, {"lon": -77.02715816666667, "bike_id": "126f2c71b25e91537d610f02cce80845", "lat": 38.92766133333333, "fusion_lon": 0.0, "fusion_lat": 0.0, "type": "electric_scooter", "name": "126f2c71b25e91537d610f02cce80845", "is_disabled": 0, "rental_uris": {"ios": "https://dc.lft.to/lastmile_qr_scan", "android": "https://dc.lft.to/lastmile_qr_scan"}, "is_reserved": 0}, {"lon": -77.03679433333333, "bike_id": "4c9b778f1a142f00d4702c79f2e5a7c4", "lat": 38.93639566666667, "fusion_lon": 0.0, "fusion_lat": 0.0, "type": "electric_scooter", "name": "4c9b778f1a142f00d4702c79f2e5a7c4", "is_disabled": 0, "rental_uris": {"ios": "https://dc.lft.to/lastmile_qr_scan", "android": "https://dc.lft.to/lastmile_qr_scan"}, "is_reserved": 0}, {"lon": -77.11780433333334, "bike_id": "80fb2d845b270e2f4ee28d7d1542c623", "lat": 39.054904666666665, "fusion_lon": 0.0, "fusion_lat": 0.0, "type": "electric_bike", "name": "80fb2d845b270e2f4ee28d7d1542c623", "is_disabled": 0, "rental_uris": {"ios": "https://dc.lft.to/lastmile_qr_scan", "android": "https://dc.lft.to/lastmile_qr_scan"}, "is_reserved": 0}, {"lon": -77.07861616666666, "bike_id": "f9d0389816e028ca7e6fc245639fd03d", "lat": 38.92462233333333, "fusion_lon": 0.0, "fusion_lat": 0.0, "type": "electric_scooter", "name": "f9d0389816e028ca7e6fc245639fd03d", "is_disabled": 0, "rental_uris": {"ios": "https://dc.lft.to/lastmile_qr_scan", "android": "https://dc.lft.to/lastmile_qr_scan"}, "is_reserved": 0}, {"lon": -77.032897, "bike_id": "f25e7f0ccb048a222529dbd812a0714e", "lat": 38.95650933333334, "fusion_lon": 0.0, "fusion_lat": 0.0, "type": "electric_scooter", "name": "f25e7f0ccb048a222529dbd812a0714e", "is_disabled": 0, "rental_uris": {"ios": "https://dc.lft.to/lastmile_qr_scan", "android": "https://dc.lft.to/lastmile_qr_scan"}, "is_reserved": 0}, {"lon": -77.02484533333333, "bike_id": "db6d5f4661252772aab34776d937b70e", "lat": 38.93617883333334, "fusion_lon": 0.0, "fusion_lat": 0.0, "type": "electric_scooter", "name": "db6d5f4661252772aab34776d937b70e", "is_disabled": 0, "rental_uris": {"ios": "https://dc.lft.to/lastmile_qr_scan", "android": "https://dc.lft.to/lastmile_qr_scan"}, "is_reserved": 0}, {"lon": -76.99049733333334, "bike_id": "ce62f503e9cdd58a4a67be54b21c5e1e", "lat": 38.863807666666666, "fusion_lon": 0.0, "fusion_lat": 0.0, "type": "electric_scooter", "name": "ce62f503e9cdd58a4a67be54b21c5e1e", "is_disabled": 0, "rental_uris": {"ios": "https://dc.lft.to/lastmile_qr_scan", "android": "https://dc.lft.to/lastmile_qr_scan"}, "is_reserved": 0}, {"lon": -77.17846283333333, "bike_id": "fd6e35fd00129d2fc1901f8946af0faf", "lat": 39.088599333333335, "fusion_lon": 0.0, "fusion_lat": 0.0, "type": "electric_bike", "name": "fd6e35fd00129d2fc1901f8946af0faf", "is_disabled": 0, "rental_uris": {"ios": "https://dc.lft.to/lastmile_qr_scan", "android": "https://dc.lft.to/lastmile_qr_scan"}, "is_reserved": 0}, {"lon": -77.0347145, "bike_id": "62b1ee2c3df6c11ab49bf13e54e1b11d", "lat": 38.91691683333333, "fusion_lon": 0.0, "fusion_lat": 0.0, "type": "electric_scooter", "name": "62b1ee2c3df6c11ab49bf13e54e1b11d", "is_disabled": 0, "rental_uris": {"ios": "https://dc.lft.to/lastmile_qr_scan", "android": "https://dc.lft.to/lastmile_qr_scan"}, "is_reserved": 0}, {"lon": -77.01861666666667, "bike_id": "94884355bbae42e60361afef8ab19309", "lat": 38.93015833333333, "fusion_lon": 0.0, "fusion_lat": 0.0, "type": "electric_bike", "name": "94884355bbae42e60361afef8ab19309", "is_disabled": 0, "rental_uris": {"ios": "https://dc.lft.to/lastmile_qr_scan", "android": "https://dc.lft.to/lastmile_qr_scan"}, "is_reserved": 0}, {"lon": -77.05608333333333, "bike_id": "d6ee628f6c107030715701305d139e36", "lat": 38.937045833333336, "fusion_lon": 0.0, "fusion_lat": 0.0, "type": "electric_bike", "name": "d6ee628f6c107030715701305d139e36", "is_disabled": 0, "rental_uris": {"ios": "https://dc.lft.to/lastmile_qr_scan", "android": "https://dc.lft.to/lastmile_qr_scan"}, "is_reserved": 0}, {"lon": -76.99230133333333, "bike_id": "881a27e1132618684c5c33f6c350412c", "lat": 38.9221815, "fusion_lon": 0.0, "fusion_lat": 0.0, "type": "electric_scooter", "name": "881a27e1132618684c5c33f6c350412c", "is_disabled": 0, "rental_uris": {"ios": "https://dc.lft.to/lastmile_qr_scan", "android": "https://dc.lft.to/lastmile_qr_scan"}, "is_reserved": 0}, {"lon": -76.99885633333334, "bike_id": "1a4ca5d228cf4649c275c0c0742ffdb2", "lat": 38.90952216666667, "fusion_lon": 0.0, "fusion_lat": 0.0, "type": "electric_scooter", "name": "1a4ca5d228cf4649c275c0c0742ffdb2", "is_disabled": 0, "rental_uris": {"ios": "https://dc.lft.to/lastmile_qr_scan", "android": "https://dc.lft.to/lastmile_qr_scan"}, "is_reserved": 0}, {"lon": -77.04877066666667, "bike_id": "64d7ecb090c506b2b42ecff4a3a9527b", "lat": 38.8923205, "fusion_lon": 0.0, "fusion_lat": 0.0, "type": "electric_scooter", "name": "64d7ecb090c506b2b42ecff4a3a9527b", "is_disabled": 0, "rental_uris": {"ios": "https://dc.lft.to/lastmile_qr_scan", "android": "https://dc.lft.to/lastmile_qr_scan"}, "is_reserved": 0}, {"lon": -77.04765033333334, "bike_id": "c9357b179d8407c06266d2deebbe67a4", "lat": 38.917670666666666, "fusion_lon": 0.0, "fusion_lat": 0.0, "type": "electric_scooter", "name": "c9357b179d8407c06266d2deebbe67a4", "is_disabled": 0, "rental_uris": {"ios": "https://dc.lft.to/lastmile_qr_scan", "android": "https://dc.lft.to/lastmile_qr_scan"}, "is_reserved": 0}, {"lon": -77.02953016666666, "bike_id": "2e25eebd7154176c818caa5806a73fd7", "lat": 38.90639733333333, "fusion_lon": 0.0, "fusion_lat": 0.0, "type": "electric_scooter", "name": "2e25eebd7154176c818caa5806a73fd7", "is_disabled": 0, "rental_uris": {"ios": "https://dc.lft.to/lastmile_qr_scan", "android": "https://dc.lft.to/lastmile_qr_scan"}, "is_reserved": 0}, {"lon": -77.02235583333334, "bike_id": "7ef6db0e9667b4af0b7499d019a89e97", "lat": 38.96204616666667, "fusion_lon": 0.0, "fusion_lat": 0.0, "type": "electric_scooter", "name": "7ef6db0e9667b4af0b7499d019a89e97", "is_disabled": 0, "rental_uris": {"ios": "https://dc.lft.to/lastmile_qr_scan", "android": "https://dc.lft.to/lastmile_qr_scan"}, "is_reserved": 0}, {"lon": -76.98237716666667, "bike_id": "00beab2534b543a21362bdfe03d6aef0", "lat": 38.91660483333333, "fusion_lon": 0.0, "fusion_lat": 0.0, "type": "electric_scooter", "name": "00beab2534b543a21362bdfe03d6aef0", "is_disabled": 0, "rental_uris": {"ios": "https://dc.lft.to/lastmile_qr_scan", "android": "https://dc.lft.to/lastmile_qr_scan"}, "is_reserved": 0}, {"lon": -77.0282525, "bike_id": "077f5db3599997f23c8a5db851799b77", "lat": 38.8952675, "fusion_lon": 0.0, "fusion_lat": 0.0, "type": "electric_scooter", "name": "077f5db3599997f23c8a5db851799b77", "is_disabled": 0, "rental_uris": {"ios": "https://dc.lft.to/lastmile_qr_scan", "android": "https://dc.lft.to/lastmile_qr_scan"}, "is_reserved": 0}, {"lon": -77.03758816666667, "bike_id": "5b240d2dd5f149bc38abd6670de3a327", "lat": 38.92885583333333, "fusion_lon": 0.0, "fusion_lat": 0.0, "type": "electric_scooter", "name": "5b240d2dd5f149bc38abd6670de3a327", "is_disabled": 0, "rental_uris": {"ios": "https://dc.lft.to/lastmile_qr_scan", "android": "https://dc.lft.to/lastmile_qr_scan"}, "is_reserved": 0}, {"lon": -77.03865583333334, "bike_id": "0ce524fe2472403f0b31db2358d3700f", "lat": 38.91019416666666, "fusion_lon": 0.0, "fusion_lat": 0.0, "type": "electric_scooter", "name": "0ce524fe2472403f0b31db2358d3700f", "is_disabled": 0, "rental_uris": {"ios": "https://dc.lft.to/lastmile_qr_scan", "android": "https://dc.lft.to/lastmile_qr_scan"}, "is_reserved": 0}, {"lon": -77.02695666666666, "bike_id": "d9e7067f10e185b79ecb980166d024a5", "lat": 38.91630816666667, "fusion_lon": 0.0, "fusion_lat": 0.0, "type": "electric_scooter", "name": "d9e7067f10e185b79ecb980166d024a5", "is_disabled": 0, "rental_uris": {"ios": "https://dc.lft.to/lastmile_qr_scan", "android": "https://dc.lft.to/lastmile_qr_scan"}, "is_reserved": 0}, {"lon": -77.03254833333334, "bike_id": "176a92d424a8cdf45f426be4dfbedacf", "lat": 38.941553166666665, "fusion_lon": 0.0, "fusion_lat": 0.0, "type": "electric_scooter", "name": "176a92d424a8cdf45f426be4dfbedacf", "is_disabled": 0, "rental_uris": {"ios": "https://dc.lft.to/lastmile_qr_scan", "android": "https://dc.lft.to/lastmile_qr_scan"}, "is_reserved": 0}, {"lon": -77.03332883333333, "bike_id": "cdd8e1290eb8d3a8fb6638a64734a481", "lat": 38.915603833333336, "fusion_lon": 0.0, "fusion_lat": 0.0, "type": "electric_scooter", "name": "cdd8e1290eb8d3a8fb6638a64734a481", "is_disabled": 0, "rental_uris": {"ios": "https://dc.lft.to/lastmile_qr_scan", "android": "https://dc.lft.to/lastmile_qr_scan"}, "is_reserved": 0}, {"lon": -76.9846155, "bike_id": "c31e51a281bc5cbb1952e14b0866a71e", "lat": 38.905512333333334, "fusion_lon": 0.0, "fusion_lat": 0.0, "type": "electric_scooter", "name": "c31e51a281bc5cbb1952e14b0866a71e", "is_disabled": 0, "rental_uris": {"ios": "https://dc.lft.to/lastmile_qr_scan", "android": "https://dc.lft.to/lastmile_qr_scan"}, "is_reserved": 0}, {"lon": -77.03156583333333, "bike_id": "52cae35d11a3b1d900cddb2b9a0b220d", "lat": 38.8830205, "fusion_lon": 0.0, "fusion_lat": 0.0, "type": "electric_scooter", "name": "52cae35d11a3b1d900cddb2b9a0b220d", "is_disabled": 0, "rental_uris": {"ios": "https://dc.lft.to/lastmile_qr_scan", "android": "https://dc.lft.to/lastmile_qr_scan"}, "is_reserved": 0}, {"lon": -77.03642733333334, "bike_id": "64737f6d71e36d654bbe92590312fdac", "lat": 38.916851333333334, "fusion_lon": 0.0, "fusion_lat": 0.0, "type": "electric_scooter", "name": "64737f6d71e36d654bbe92590312fdac", "is_disabled": 0, "rental_uris": {"ios": "https://dc.lft.to/lastmile_qr_scan", "android": "https://dc.lft.to/lastmile_qr_scan"}, "is_reserved": 0}, {"lon": -77.00343883333333, "bike_id": "bc9a4d1857517c602495864a7b34f752", "lat": 38.91625333333333, "fusion_lon": 0.0, "fusion_lat": 0.0, "type": "electric_scooter", "name": "bc9a4d1857517c602495864a7b34f752", "is_disabled": 0, "rental_uris": {"ios": "https://dc.lft.to/lastmile_qr_scan", "android": "https://dc.lft.to/lastmile_qr_scan"}, "is_reserved": 0}, {"lon": -76.99177233333333, "bike_id": "7e93b0be2838b2c9631b11f55091347a", "lat": 38.8898665, "fusion_lon": 0.0, "fusion_lat": 0.0, "type": "electric_scooter", "name": "7e93b0be2838b2c9631b11f55091347a", "is_disabled": 0, "rental_uris": {"ios": "https://dc.lft.to/lastmile_qr_scan", "android": "https://dc.lft.to/lastmile_qr_scan"}, "is_reserved": 0}, {"lon": -77.0243975, "bike_id": "62f09a2d08eb6e47037f29ee2fede08f", "lat": 38.92349466666667, "fusion_lon": 0.0, "fusion_lat": 0.0, "type": "electric_scooter", "name": "62f09a2d08eb6e47037f29ee2fede08f", "is_disabled": 0, "rental_uris": {"ios": "https://dc.lft.to/lastmile_qr_scan", "android": "https://dc.lft.to/lastmile_qr_scan"}, "is_reserved": 0}, {"lon": -77.040959, "bike_id": "11dd4af3d245938b08f6ebd03903314a", "lat": 38.90978366666667, "fusion_lon": 0.0, "fusion_lat": 0.0, "type": "electric_scooter", "name": "11dd4af3d245938b08f6ebd03903314a", "is_disabled": 0, "rental_uris": {"ios": "https://dc.lft.to/lastmile_qr_scan", "android": "https://dc.lft.to/lastmile_qr_scan"}, "is_reserved": 0}, {"lon": -77.05066216666667, "bike_id": "3aee4ee7b93036cb3d0e16e8a0b541f3", "lat": 38.92585483333333, "fusion_lon": 0.0, "fusion_lat": 0.0, "type": "electric_scooter", "name": "3aee4ee7b93036cb3d0e16e8a0b541f3", "is_disabled": 0, "rental_uris": {"ios": "https://dc.lft.to/lastmile_qr_scan", "android": "https://dc.lft.to/lastmile_qr_scan"}, "is_reserved": 0}, {"lon": -77.00925533333333, "bike_id": "baead697dee0d70d3777104da0e8e1d1", "lat": 38.910978166666666, "fusion_lon": 0.0, "fusion_lat": 0.0, "type": "electric_scooter", "name": "baead697dee0d70d3777104da0e8e1d1", "is_disabled": 0, "rental_uris": {"ios": "https://dc.lft.to/lastmile_qr_scan", "android": "https://dc.lft.to/lastmile_qr_scan"}, "is_reserved": 0}, {"lon": -76.98962266666666, "bike_id": "91ccf823334ca466f56f3619c80b0639", "lat": 38.90127066666667, "fusion_lon": 0.0, "fusion_lat": 0.0, "type": "electric_scooter", "name": "91ccf823334ca466f56f3619c80b0639", "is_disabled": 0, "rental_uris": {"ios": "https://dc.lft.to/lastmile_qr_scan", "android": "https://dc.lft.to/lastmile_qr_scan"}, "is_reserved": 0}, {"lon": -77.01364983333333, "bike_id": "67263a1882d1075837a81114806feb0a", "lat": 38.906191, "fusion_lon": 0.0, "fusion_lat": 0.0, "type": "electric_scooter", "name": "67263a1882d1075837a81114806feb0a", "is_disabled": 0, "rental_uris": {"ios": "https://dc.lft.to/lastmile_qr_scan", "android": "https://dc.lft.to/lastmile_qr_scan"}, "is_reserved": 0}, {"lon": -77.0467225, "bike_id": "2d8e9fa9d82f090a9c6cbc255003655d", "lat": 38.90542466666667, "fusion_lon": 0.0, "fusion_lat": 0.0, "type": "electric_scooter", "name": "2d8e9fa9d82f090a9c6cbc255003655d", "is_disabled": 0, "rental_uris": {"ios": "https://dc.lft.to/lastmile_qr_scan", "android": "https://dc.lft.to/lastmile_qr_scan"}, "is_reserved": 0}, {"lon": -77.0174715, "bike_id": "0063598ac8a21ec847f4081c0be7c791", "lat": 38.88057966666667, "fusion_lon": 0.0, "fusion_lat": 0.0, "type": "electric_scooter", "name": "0063598ac8a21ec847f4081c0be7c791", "is_disabled": 0, "rental_uris": {"ios": "https://dc.lft.to/lastmile_qr_scan", "android": "https://dc.lft.to/lastmile_qr_scan"}, "is_reserved": 0}, {"lon": -77.03568033333333, "bike_id": "7799a42c57574d85dd72f160f41d02a6", "lat": 38.904791333333336, "fusion_lon": 0.0, "fusion_lat": 0.0, "type": "electric_scooter", "name": "7799a42c57574d85dd72f160f41d02a6", "is_disabled": 0, "rental_uris": {"ios": "https://dc.lft.to/lastmile_qr_scan", "android": "https://dc.lft.to/lastmile_qr_scan"}, "is_reserved": 0}, {"lon": -76.98172916666667, "bike_id": "ce9d60b4f6379a1b418cd84908bbb1ad", "lat": 38.9167005, "fusion_lon": 0.0, "fusion_lat": 0.0, "type": "electric_scooter", "name": "ce9d60b4f6379a1b418cd84908bbb1ad", "is_disabled": 0, "rental_uris": {"ios": "https://dc.lft.to/lastmile_qr_scan", "android": "https://dc.lft.to/lastmile_qr_scan"}, "is_reserved": 0}, {"lon": -77.0174445, "bike_id": "4cda6159bc0384c504faae5b93d9f705", "lat": 38.881175, "fusion_lon": 0.0, "fusion_lat": 0.0, "type": "electric_scooter", "name": "4cda6159bc0384c504faae5b93d9f705", "is_disabled": 0, "rental_uris": {"ios": "https://dc.lft.to/lastmile_qr_scan", "android": "https://dc.lft.to/lastmile_qr_scan"}, "is_reserved": 0}, {"lon": -76.88396866666666, "bike_id": "d63d45324c53fecf66a92e8d695e2744", "lat": 38.931688, "fusion_lon": 0.0, "fusion_lat": 0.0, "type": "electric_bike", "name": "d63d45324c53fecf66a92e8d695e2744", "is_disabled": 0, "rental_uris": {"ios": "https://dc.lft.to/lastmile_qr_scan", "android": "https://dc.lft.to/lastmile_qr_scan"}, "is_reserved": 0}, {"lon": -77.127427, "bike_id": "47632a8b2a8e48353a6e4a50f5182475", "lat": 38.89567233333333, "fusion_lon": 0.0, "fusion_lat": 0.0, "type": "electric_bike", "name": "47632a8b2a8e48353a6e4a50f5182475", "is_disabled": 0, "rental_uris": {"ios": "https://dc.lft.to/lastmile_qr_scan", "android": "https://dc.lft.to/lastmile_qr_scan"}, "is_reserved": 0}, {"lon": -77.03881633333333, "bike_id": "259be2f84a26dff0d5d9d7564fb0589e", "lat": 38.948697833333334, "fusion_lon": 0.0, "fusion_lat": 0.0, "type": "electric_scooter", "name": "259be2f84a26dff0d5d9d7564fb0589e", "is_disabled": 0, "rental_uris": {"ios": "https://dc.lft.to/lastmile_qr_scan", "android": "https://dc.lft.to/lastmile_qr_scan"}, "is_reserved": 0}, {"lon": -76.97427383333333, "bike_id": "9e2808b7873809fec8a4952dc4259638", "lat": 38.93237, "fusion_lon": 0.0, "fusion_lat": 0.0, "type": "electric_bike", "name": "9e2808b7873809fec8a4952dc4259638", "is_disabled": 0, "rental_uris": {"ios": "https://dc.lft.to/lastmile_qr_scan", "android": "https://dc.lft.to/lastmile_qr_scan"}, "is_reserved": 0}, {"lon": -77.0465455, "bike_id": "18b2310345efc4ba521db094a95855e7", "lat": 39.05500883333333, "fusion_lon": 0.0, "fusion_lat": 0.0, "type": "electric_bike", "name": "18b2310345efc4ba521db094a95855e7", "is_disabled": 0, "rental_uris": {"ios": "https://dc.lft.to/lastmile_qr_scan", "android": "https://dc.lft.to/lastmile_qr_scan"}, "is_reserved": 0}, {"lon": -77.0558205, "bike_id": "2a6d0285a0c3f348796e52273e1ac041", "lat": 38.93352466666666, "fusion_lon": 0.0, "fusion_lat": 0.0, "type": "electric_scooter", "name": "2a6d0285a0c3f348796e52273e1ac041", "is_disabled": 0, "rental_uris": {"ios": "https://dc.lft.to/lastmile_qr_scan", "android": "https://dc.lft.to/lastmile_qr_scan"}, "is_reserved": 0}, {"lon": -77.02755283333333, "bike_id": "fbac1fde136ed8daddf9f3fbd05e5d4b", "lat": 38.965676333333334, "fusion_lon": 0.0, "fusion_lat": 0.0, "type": "electric_bike", "name": "fbac1fde136ed8daddf9f3fbd05e5d4b", "is_disabled": 0, "rental_uris": {"ios": "https://dc.lft.to/lastmile_qr_scan", "android": "https://dc.lft.to/lastmile_qr_scan"}, "is_reserved": 0}, {"lon": -77.01769583333333, "bike_id": "221f55bdb958a0b8ddd2adef4741b600", "lat": 38.88739966666667, "fusion_lon": 0.0, "fusion_lat": 0.0, "type": "electric_scooter", "name": "221f55bdb958a0b8ddd2adef4741b600", "is_disabled": 0, "rental_uris": {"ios": "https://dc.lft.to/lastmile_qr_scan", "android": "https://dc.lft.to/lastmile_qr_scan"}, "is_reserved": 0}, {"lon": -77.0603265, "bike_id": "4c340aa24cb2c8048036d7476d635dd3", "lat": 38.933582, "fusion_lon": 0.0, "fusion_lat": 0.0, "type": "electric_scooter", "name": "4c340aa24cb2c8048036d7476d635dd3", "is_disabled": 0, "rental_uris": {"ios": "https://dc.lft.to/lastmile_qr_scan", "android": "https://dc.lft.to/lastmile_qr_scan"}, "is_reserved": 0}, {"lon": -76.96135816666667, "bike_id": "bdffe35d6af961e7b7997b7ede1a60f8", "lat": 38.942078, "fusion_lon": 0.0, "fusion_lat": 0.0, "type": "electric_bike", "name": "bdffe35d6af961e7b7997b7ede1a60f8", "is_disabled": 0, "rental_uris": {"ios": "https://dc.lft.to/lastmile_qr_scan", "android": "https://dc.lft.to/lastmile_qr_scan"}, "is_reserved": 0}, {"lon": -76.95652383333334, "bike_id": "f8b7d97629be6a6a42e44155dce097b7", "lat": 38.896202833333334, "fusion_lon": 0.0, "fusion_lat": 0.0, "type": "electric_scooter", "name": "f8b7d97629be6a6a42e44155dce097b7", "is_disabled": 0, "rental_uris": {"ios": "https://dc.lft.to/lastmile_qr_scan", "android": "https://dc.lft.to/lastmile_qr_scan"}, "is_reserved": 0}, {"lon": -77.0523535, "bike_id": "951675114a786b22b81a643fe1de5240", "lat": 38.924657333333336, "fusion_lon": 0.0, "fusion_lat": 0.0, "type": "electric_scooter", "name": "951675114a786b22b81a643fe1de5240", "is_disabled": 0, "rental_uris": {"ios": "https://dc.lft.to/lastmile_qr_scan", "android": "https://dc.lft.to/lastmile_qr_scan"}, "is_reserved": 0}, {"lon": -77.03158316666666, "bike_id": "2e3c18f11dfbe061ba070d0e76e10d02", "lat": 38.92856583333333, "fusion_lon": 0.0, "fusion_lat": 0.0, "type": "electric_scooter", "name": "2e3c18f11dfbe061ba070d0e76e10d02", "is_disabled": 0, "rental_uris": {"ios": "https://dc.lft.to/lastmile_qr_scan", "android": "https://dc.lft.to/lastmile_qr_scan"}, "is_reserved": 0}, {"lon": -77.036736, "bike_id": "7743ba373a5794943579a936f158d85a", "lat": 38.93206133333333, "fusion_lon": 0.0, "fusion_lat": 0.0, "type": "electric_scooter", "name": "7743ba373a5794943579a936f158d85a", "is_disabled": 0, "rental_uris": {"ios": "https://dc.lft.to/lastmile_qr_scan", "android": "https://dc.lft.to/lastmile_qr_scan"}, "is_reserved": 0}, {"lon": -77.01811383333333, "bike_id": "30593ce96388bfb6452c1eac13275cf4", "lat": 38.964832666666666, "fusion_lon": 0.0, "fusion_lat": 0.0, "type": "electric_scooter", "name": "30593ce96388bfb6452c1eac13275cf4", "is_disabled": 0, "rental_uris": {"ios": "https://dc.lft.to/lastmile_qr_scan", "android": "https://dc.lft.to/lastmile_qr_scan"}, "is_reserved": 0}, {"lon": -77.04175533333333, "bike_id": "8363c8ea44fa5cf2f80925fc00287d05", "lat": 38.905468166666665, "fusion_lon": 0.0, "fusion_lat": 0.0, "type": "electric_scooter", "name": "8363c8ea44fa5cf2f80925fc00287d05", "is_disabled": 0, "rental_uris": {"ios": "https://dc.lft.to/lastmile_qr_scan", "android": "https://dc.lft.to/lastmile_qr_scan"}, "is_reserved": 0}, {"lon": -77.02030916666666, "bike_id": "0f74066ccf8c2291d57370d0fe20f344", "lat": 38.89903916666667, "fusion_lon": 0.0, "fusion_lat": 0.0, "type": "electric_scooter", "name": "0f74066ccf8c2291d57370d0fe20f344", "is_disabled": 0, "rental_uris": {"ios": "https://dc.lft.to/lastmile_qr_scan", "android": "https://dc.lft.to/lastmile_qr_scan"}, "is_reserved": 0}, {"lon": -77.05858566666667, "bike_id": "23052cd4870e9c926ce00c88d8d26839", "lat": 38.93606716666667, "fusion_lon": 0.0, "fusion_lat": 0.0, "type": "electric_scooter", "name": "23052cd4870e9c926ce00c88d8d26839", "is_disabled": 0, "rental_uris": {"ios": "https://dc.lft.to/lastmile_qr_scan", "android": "https://dc.lft.to/lastmile_qr_scan"}, "is_reserved": 0}, {"lon": -77.05511116666666, "bike_id": "1bcfd0a8079088f85b7dedb9060fa7d6", "lat": 38.899683, "fusion_lon": 0.0, "fusion_lat": 0.0, "type": "electric_scooter", "name": "1bcfd0a8079088f85b7dedb9060fa7d6", "is_disabled": 0, "rental_uris": {"ios": "https://dc.lft.to/lastmile_qr_scan", "android": "https://dc.lft.to/lastmile_qr_scan"}, "is_reserved": 0}, {"lon": -77.04242033333334, "bike_id": "4fdcc94e9fb97166d20555219ad2d9d3", "lat": 38.9147745, "fusion_lon": 0.0, "fusion_lat": 0.0, "type": "electric_scooter", "name": "4fdcc94e9fb97166d20555219ad2d9d3", "is_disabled": 0, "rental_uris": {"ios": "https://dc.lft.to/lastmile_qr_scan", "android": "https://dc.lft.to/lastmile_qr_scan"}, "is_reserved": 0}, {"lon": -77.0276175, "bike_id": "4bb2e71753d6b5438e8437ec6d7fa86a", "lat": 38.943979166666665, "fusion_lon": 0.0, "fusion_lat": 0.0, "type": "electric_scooter", "name": "4bb2e71753d6b5438e8437ec6d7fa86a", "is_disabled": 0, "rental_uris": {"ios": "https://dc.lft.to/lastmile_qr_scan", "android": "https://dc.lft.to/lastmile_qr_scan"}, "is_reserved": 0}, {"lon": -77.021449, "bike_id": "5599d739d4d4c73cf014c8a4472e40eb", "lat": 38.90101666666666, "fusion_lon": 0.0, "fusion_lat": 0.0, "type": "electric_scooter", "name": "5599d739d4d4c73cf014c8a4472e40eb", "is_disabled": 0, "rental_uris": {"ios": "https://dc.lft.to/lastmile_qr_scan", "android": "https://dc.lft.to/lastmile_qr_scan"}, "is_reserved": 0}, {"lon": -77.03323333333333, "bike_id": "89936e514bd31e284dc6ba0145948386", "lat": 38.915626, "fusion_lon": 0.0, "fusion_lat": 0.0, "type": "electric_scooter", "name": "89936e514bd31e284dc6ba0145948386", "is_disabled": 0, "rental_uris": {"ios": "https://dc.lft.to/lastmile_qr_scan", "android": "https://dc.lft.to/lastmile_qr_scan"}, "is_reserved": 0}, {"lon": -77.03068883333333, "bike_id": "8849029854c748e6280ed9b77c03eaaf", "lat": 38.902707166666666, "fusion_lon": 0.0, "fusion_lat": 0.0, "type": "electric_scooter", "name": "8849029854c748e6280ed9b77c03eaaf", "is_disabled": 0, "rental_uris": {"ios": "https://dc.lft.to/lastmile_qr_scan", "android": "https://dc.lft.to/lastmile_qr_scan"}, "is_reserved": 0}, {"lon": -77.02211166666666, "bike_id": "c517dc0680a4499cf4005c69b90648d2", "lat": 38.9097955, "fusion_lon": 0.0, "fusion_lat": 0.0, "type": "electric_scooter", "name": "c517dc0680a4499cf4005c69b90648d2", "is_disabled": 0, "rental_uris": {"ios": "https://dc.lft.to/lastmile_qr_scan", "android": "https://dc.lft.to/lastmile_qr_scan"}, "is_reserved": 0}, {"lon": -77.020067, "bike_id": "c883f90919a48defcb111e88f4533e77", "lat": 38.9136635, "fusion_lon": 0.0, "fusion_lat": 0.0, "type": "electric_scooter", "name": "c883f90919a48defcb111e88f4533e77", "is_disabled": 0, "rental_uris": {"ios": "https://dc.lft.to/lastmile_qr_scan", "android": "https://dc.lft.to/lastmile_qr_scan"}, "is_reserved": 0}, {"lon": -77.03685516666667, "bike_id": "b854b5cc2a94497eb529cd252f461dca", "lat": 38.912627666666666, "fusion_lon": 0.0, "fusion_lat": 0.0, "type": "electric_scooter", "name": "b854b5cc2a94497eb529cd252f461dca", "is_disabled": 0, "rental_uris": {"ios": "https://dc.lft.to/lastmile_qr_scan", "android": "https://dc.lft.to/lastmile_qr_scan"}, "is_reserved": 0}, {"lon": -77.01015766666667, "bike_id": "3cca3fe3ae7086d8238cb741f3096390", "lat": 38.867296333333336, "fusion_lon": 0.0, "fusion_lat": 0.0, "type": "electric_scooter", "name": "3cca3fe3ae7086d8238cb741f3096390", "is_disabled": 0, "rental_uris": {"ios": "https://dc.lft.to/lastmile_qr_scan", "android": "https://dc.lft.to/lastmile_qr_scan"}, "is_reserved": 0}, {"lon": -77.01161366666666, "bike_id": "7a13c214cbffc8ce004ae7f5949b4d98", "lat": 38.914038, "fusion_lon": 0.0, "fusion_lat": 0.0, "type": "electric_scooter", "name": "7a13c214cbffc8ce004ae7f5949b4d98", "is_disabled": 0, "rental_uris": {"ios": "https://dc.lft.to/lastmile_qr_scan", "android": "https://dc.lft.to/lastmile_qr_scan"}, "is_reserved": 0}, {"lon": -77.01746066666666, "bike_id": "62b8ee6c21e0c971feda168fbdb4e7a8", "lat": 38.9027065, "fusion_lon": 0.0, "fusion_lat": 0.0, "type": "electric_scooter", "name": "62b8ee6c21e0c971feda168fbdb4e7a8", "is_disabled": 0, "rental_uris": {"ios": "https://dc.lft.to/lastmile_qr_scan", "android": "https://dc.lft.to/lastmile_qr_scan"}, "is_reserved": 0}, {"lon": -76.9753865, "bike_id": "29d989f368adc41602c0eb6ed3b5efe6", "lat": 38.903272666666666, "fusion_lon": 0.0, "fusion_lat": 0.0, "type": "electric_bike", "name": "29d989f368adc41602c0eb6ed3b5efe6", "is_disabled": 0, "rental_uris": {"ios": "https://dc.lft.to/lastmile_qr_scan", "android": "https://dc.lft.to/lastmile_qr_scan"}, "is_reserved": 0}, {"lon": -76.97330066666666, "bike_id": "dc3f2332b7f51e7dcec74103e096b023", "lat": 38.904780333333335, "fusion_lon": 0.0, "fusion_lat": 0.0, "type": "electric_bike", "name": "dc3f2332b7f51e7dcec74103e096b023", "is_disabled": 0, "rental_uris": {"ios": "https://dc.lft.to/lastmile_qr_scan", "android": "https://dc.lft.to/lastmile_qr_scan"}, "is_reserved": 0}, {"lon": -77.00264766666666, "bike_id": "f616e5527b80ca02277a37f7d6351b0f", "lat": 38.91107383333333, "fusion_lon": 0.0, "fusion_lat": 0.0, "type": "electric_scooter", "name": "f616e5527b80ca02277a37f7d6351b0f", "is_disabled": 0, "rental_uris": {"ios": "https://dc.lft.to/lastmile_qr_scan", "android": "https://dc.lft.to/lastmile_qr_scan"}, "is_reserved": 0}, {"lon": -77.02104116666666, "bike_id": "5b5490d1e24bcb0e870d1407a30657c9", "lat": 38.89974816666667, "fusion_lon": 0.0, "fusion_lat": 0.0, "type": "electric_scooter", "name": "5b5490d1e24bcb0e870d1407a30657c9", "is_disabled": 0, "rental_uris": {"ios": "https://dc.lft.to/lastmile_qr_scan", "android": "https://dc.lft.to/lastmile_qr_scan"}, "is_reserved": 0}, {"lon": -76.98212933333333, "bike_id": "a1801e148af9dfd3daf62837766f7ce2", "lat": 38.86625016666667, "fusion_lon": 0.0, "fusion_lat": 0.0, "type": "electric_scooter", "name": "a1801e148af9dfd3daf62837766f7ce2", "is_disabled": 0, "rental_uris": {"ios": "https://dc.lft.to/lastmile_qr_scan", "android": "https://dc.lft.to/lastmile_qr_scan"}, "is_reserved": 0}, {"lon": -77.05132583333334, "bike_id": "b99833a66699ff1bd0cae58100c2aa58", "lat": 38.923655, "fusion_lon": 0.0, "fusion_lat": 0.0, "type": "electric_scooter", "name": "b99833a66699ff1bd0cae58100c2aa58", "is_disabled": 0, "rental_uris": {"ios": "https://dc.lft.to/lastmile_qr_scan", "android": "https://dc.lft.to/lastmile_qr_scan"}, "is_reserved": 0}, {"lon": -77.05578466666667, "bike_id": "159879867b729f79da04c0bf838912da", "lat": 38.91600666666667, "fusion_lon": 0.0, "fusion_lat": 0.0, "type": "electric_scooter", "name": "159879867b729f79da04c0bf838912da", "is_disabled": 0, "rental_uris": {"ios": "https://dc.lft.to/lastmile_qr_scan", "android": "https://dc.lft.to/lastmile_qr_scan"}, "is_reserved": 0}, {"lon": -77.02684, "bike_id": "9e84052c750b4ff683c51717dc13b878", "lat": 38.90051316666667, "fusion_lon": 0.0, "fusion_lat": 0.0, "type": "electric_scooter", "name": "9e84052c750b4ff683c51717dc13b878", "is_disabled": 0, "rental_uris": {"ios": "https://dc.lft.to/lastmile_qr_scan", "android": "https://dc.lft.to/lastmile_qr_scan"}, "is_reserved": 0}, {"lon": -76.9159905, "bike_id": "912e83517c6d8e300cd36affa2ef1df4", "lat": 38.87984016666667, "fusion_lon": 0.0, "fusion_lat": 0.0, "type": "electric_bike", "name": "912e83517c6d8e300cd36affa2ef1df4", "is_disabled": 0, "rental_uris": {"ios": "https://dc.lft.to/lastmile_qr_scan", "android": "https://dc.lft.to/lastmile_qr_scan"}, "is_reserved": 0}, {"lon": -77.05860066666666, "bike_id": "f5e1d3b31eb41e65c14c8c0311ef3302", "lat": 38.93603183333333, "fusion_lon": 0.0, "fusion_lat": 0.0, "type": "electric_scooter", "name": "f5e1d3b31eb41e65c14c8c0311ef3302", "is_disabled": 0, "rental_uris": {"ios": "https://dc.lft.to/lastmile_qr_scan", "android": "https://dc.lft.to/lastmile_qr_scan"}, "is_reserved": 0}, {"lon": -77.0217605, "bike_id": "f7f9fabc2ac8ef584f9a15c6ce3e2200", "lat": 38.897569, "fusion_lon": 0.0, "fusion_lat": 0.0, "type": "electric_scooter", "name": "f7f9fabc2ac8ef584f9a15c6ce3e2200", "is_disabled": 0, "rental_uris": {"ios": "https://dc.lft.to/lastmile_qr_scan", "android": "https://dc.lft.to/lastmile_qr_scan"}, "is_reserved": 0}, {"lon": -77.0734605, "bike_id": "da73c7a3bb8e6a13f14e180a740da2c3", "lat": 38.9110335, "fusion_lon": 0.0, "fusion_lat": 0.0, "type": "electric_scooter", "name": "da73c7a3bb8e6a13f14e180a740da2c3", "is_disabled": 0, "rental_uris": {"ios": "https://dc.lft.to/lastmile_qr_scan", "android": "https://dc.lft.to/lastmile_qr_scan"}, "is_reserved": 0}, {"lon": -76.9904855, "bike_id": "841c24660793c4358e83a020866c748d", "lat": 38.884183, "fusion_lon": 0.0, "fusion_lat": 0.0, "type": "electric_scooter", "name": "841c24660793c4358e83a020866c748d", "is_disabled": 0, "rental_uris": {"ios": "https://dc.lft.to/lastmile_qr_scan", "android": "https://dc.lft.to/lastmile_qr_scan"}, "is_reserved": 0}, {"lon": -77.04177266666666, "bike_id": "d76d81581c0cb64bb22d915abffbd211", "lat": 38.919172, "fusion_lon": 0.0, "fusion_lat": 0.0, "type": "electric_scooter", "name": "d76d81581c0cb64bb22d915abffbd211", "is_disabled": 0, "rental_uris": {"ios": "https://dc.lft.to/lastmile_qr_scan", "android": "https://dc.lft.to/lastmile_qr_scan"}, "is_reserved": 0}, {"lon": -76.93278483333333, "bike_id": "e9fa2d8a86edd035e3d433eeb6af0dcd", "lat": 38.95420166666667, "fusion_lon": 0.0, "fusion_lat": 0.0, "type": "electric_bike", "name": "e9fa2d8a86edd035e3d433eeb6af0dcd", "is_disabled": 0, "rental_uris": {"ios": "https://dc.lft.to/lastmile_qr_scan", "android": "https://dc.lft.to/lastmile_qr_scan"}, "is_reserved": 0}, {"lon": -77.001359, "bike_id": "9e59d5d72251f688b2911bbdceed64fa", "lat": 38.87814866666667, "fusion_lon": 0.0, "fusion_lat": 0.0, "type": "electric_scooter", "name": "9e59d5d72251f688b2911bbdceed64fa", "is_disabled": 0, "rental_uris": {"ios": "https://dc.lft.to/lastmile_qr_scan", "android": "https://dc.lft.to/lastmile_qr_scan"}, "is_reserved": 0}, {"lon": -77.0222745, "bike_id": "283177f1cf623f1bbc8f5cdde94c6895", "lat": 38.95683433333333, "fusion_lon": 0.0, "fusion_lat": 0.0, "type": "electric_bike", "name": "283177f1cf623f1bbc8f5cdde94c6895", "is_disabled": 0, "rental_uris": {"ios": "https://dc.lft.to/lastmile_qr_scan", "android": "https://dc.lft.to/lastmile_qr_scan"}, "is_reserved": 0}, {"lon": -77.02377283333334, "bike_id": "07c077976b53dd3b3b98cc1fcdcf1035", "lat": 38.906316, "fusion_lon": 0.0, "fusion_lat": 0.0, "type": "electric_scooter", "name": "07c077976b53dd3b3b98cc1fcdcf1035", "is_disabled": 0, "rental_uris": {"ios": "https://dc.lft.to/lastmile_qr_scan", "android": "https://dc.lft.to/lastmile_qr_scan"}, "is_reserved": 0}, {"lon": -77.01747866666666, "bike_id": "1c3824dd607d72f2bf1e59eea13d13e5", "lat": 38.903674, "fusion_lon": 0.0, "fusion_lat": 0.0, "type": "electric_scooter", "name": "1c3824dd607d72f2bf1e59eea13d13e5", "is_disabled": 0, "rental_uris": {"ios": "https://dc.lft.to/lastmile_qr_scan", "android": "https://dc.lft.to/lastmile_qr_scan"}, "is_reserved": 0}, {"lon": -77.072592, "bike_id": "6ce81957b10f2fc689a3b5a164709182", "lat": 38.934383, "fusion_lon": 0.0, "fusion_lat": 0.0, "type": "electric_scooter", "name": "6ce81957b10f2fc689a3b5a164709182", "is_disabled": 0, "rental_uris": {"ios": "https://dc.lft.to/lastmile_qr_scan", "android": "https://dc.lft.to/lastmile_qr_scan"}, "is_reserved": 0}, {"lon": -77.04334866666666, "bike_id": "ca247e27addf3b5820538bef9db648cf", "lat": 38.91873733333333, "fusion_lon": 0.0, "fusion_lat": 0.0, "type": "electric_scooter", "name": "ca247e27addf3b5820538bef9db648cf", "is_disabled": 0, "rental_uris": {"ios": "https://dc.lft.to/lastmile_qr_scan", "android": "https://dc.lft.to/lastmile_qr_scan"}, "is_reserved": 0}, {"lon": -77.01653033333334, "bike_id": "63ff6474620d43ae8e249544aabbb8b8", "lat": 38.899782, "fusion_lon": 0.0, "fusion_lat": 0.0, "type": "electric_scooter", "name": "63ff6474620d43ae8e249544aabbb8b8", "is_disabled": 0, "rental_uris": {"ios": "https://dc.lft.to/lastmile_qr_scan", "android": "https://dc.lft.to/lastmile_qr_scan"}, "is_reserved": 0}, {"lon": -77.05417116666666, "bike_id": "6c17cf070427bfb7db969f8ef800105e", "lat": 38.928409, "fusion_lon": 0.0, "fusion_lat": 0.0, "type": "electric_scooter", "name": "6c17cf070427bfb7db969f8ef800105e", "is_disabled": 0, "rental_uris": {"ios": "https://dc.lft.to/lastmile_qr_scan", "android": "https://dc.lft.to/lastmile_qr_scan"}, "is_reserved": 0}, {"lon": -77.032142, "bike_id": "2aa9ed0c6976cfaea7f0f0844f69b653", "lat": 38.93621366666667, "fusion_lon": 0.0, "fusion_lat": 0.0, "type": "electric_scooter", "name": "2aa9ed0c6976cfaea7f0f0844f69b653", "is_disabled": 0, "rental_uris": {"ios": "https://dc.lft.to/lastmile_qr_scan", "android": "https://dc.lft.to/lastmile_qr_scan"}, "is_reserved": 0}, {"lon": -77.0363875, "bike_id": "b38ae4b70ec67f4be8a651390e833ae3", "lat": 38.91554216666667, "fusion_lon": 0.0, "fusion_lat": 0.0, "type": "electric_scooter", "name": "b38ae4b70ec67f4be8a651390e833ae3", "is_disabled": 0, "rental_uris": {"ios": "https://dc.lft.to/lastmile_qr_scan", "android": "https://dc.lft.to/lastmile_qr_scan"}, "is_reserved": 0}, {"lon": -77.0054065, "bike_id": "eaf997a269412a06efaa139f7df7fa50", "lat": 38.87545433333333, "fusion_lon": 0.0, "fusion_lat": 0.0, "type": "electric_scooter", "name": "eaf997a269412a06efaa139f7df7fa50", "is_disabled": 0, "rental_uris": {"ios": "https://dc.lft.to/lastmile_qr_scan", "android": "https://dc.lft.to/lastmile_qr_scan"}, "is_reserved": 0}, {"lon": -77.01922533333334, "bike_id": "b8ea3c4c1ef3ee1deecebf14abc124c7", "lat": 38.878257, "fusion_lon": 0.0, "fusion_lat": 0.0, "type": "electric_bike", "name": "b8ea3c4c1ef3ee1deecebf14abc124c7", "is_disabled": 0, "rental_uris": {"ios": "https://dc.lft.to/lastmile_qr_scan", "android": "https://dc.lft.to/lastmile_qr_scan"}, "is_reserved": 0}, {"lon": -77.031764, "bike_id": "2d091cae378654befe9d2700278c8e55", "lat": 38.88411833333333, "fusion_lon": 0.0, "fusion_lat": 0.0, "type": "electric_scooter", "name": "2d091cae378654befe9d2700278c8e55", "is_disabled": 0, "rental_uris": {"ios": "https://dc.lft.to/lastmile_qr_scan", "android": "https://dc.lft.to/lastmile_qr_scan"}, "is_reserved": 0}, {"lon": -76.98272733333333, "bike_id": "740395c9322444aca8ba2a565f704186", "lat": 38.8852815, "fusion_lon": 0.0, "fusion_lat": 0.0, "type": "electric_scooter", "name": "740395c9322444aca8ba2a565f704186", "is_disabled": 0, "rental_uris": {"ios": "https://dc.lft.to/lastmile_qr_scan", "android": "https://dc.lft.to/lastmile_qr_scan"}, "is_reserved": 0}, {"lon": -77.029891, "bike_id": "c2f68c41040462cb4d36e1ab85a73cea", "lat": 38.939339, "fusion_lon": 0.0, "fusion_lat": 0.0, "type": "electric_scooter", "name": "c2f68c41040462cb4d36e1ab85a73cea", "is_disabled": 0, "rental_uris": {"ios": "https://dc.lft.to/lastmile_qr_scan", "android": "https://dc.lft.to/lastmile_qr_scan"}, "is_reserved": 0}, {"lon": -76.98340316666666, "bike_id": "ac2eb11f53880b98dfe08df84ee263a6", "lat": 38.9009585, "fusion_lon": 0.0, "fusion_lat": 0.0, "type": "electric_scooter", "name": "ac2eb11f53880b98dfe08df84ee263a6", "is_disabled": 0, "rental_uris": {"ios": "https://dc.lft.to/lastmile_qr_scan", "android": "https://dc.lft.to/lastmile_qr_scan"}, "is_reserved": 0}, {"lon": -77.00212466666666, "bike_id": "f1bc6f321341943264738fae6ef9afa9", "lat": 38.895467333333336, "fusion_lon": 0.0, "fusion_lat": 0.0, "type": "electric_scooter", "name": "f1bc6f321341943264738fae6ef9afa9", "is_disabled": 0, "rental_uris": {"ios": "https://dc.lft.to/lastmile_qr_scan", "android": "https://dc.lft.to/lastmile_qr_scan"}, "is_reserved": 0}, {"lon": -77.02040566666666, "bike_id": "71484bc2bdf01a5060eb783e75ea8381", "lat": 38.90863983333333, "fusion_lon": 0.0, "fusion_lat": 0.0, "type": "electric_scooter", "name": "71484bc2bdf01a5060eb783e75ea8381", "is_disabled": 0, "rental_uris": {"ios": "https://dc.lft.to/lastmile_qr_scan", "android": "https://dc.lft.to/lastmile_qr_scan"}, "is_reserved": 0}, {"lon": -77.00535183333334, "bike_id": "99444a755665ccb0530f1b374d00080f", "lat": 38.92980083333333, "fusion_lon": 0.0, "fusion_lat": 0.0, "type": "electric_scooter", "name": "99444a755665ccb0530f1b374d00080f", "is_disabled": 0, "rental_uris": {"ios": "https://dc.lft.to/lastmile_qr_scan", "android": "https://dc.lft.to/lastmile_qr_scan"}, "is_reserved": 0}, {"lon": -76.92624683333334, "bike_id": "72586e392932132d9e6204f5679b1b31", "lat": 38.884565333333335, "fusion_lon": 0.0, "fusion_lat": 0.0, "type": "electric_scooter", "name": "72586e392932132d9e6204f5679b1b31", "is_disabled": 0, "rental_uris": {"ios": "https://dc.lft.to/lastmile_qr_scan", "android": "https://dc.lft.to/lastmile_qr_scan"}, "is_reserved": 0}, {"lon": -77.02210633333333, "bike_id": "07ce4b5e98445e7afa1c00bdd52a61a0", "lat": 38.89352733333333, "fusion_lon": 0.0, "fusion_lat": 0.0, "type": "electric_scooter", "name": "07ce4b5e98445e7afa1c00bdd52a61a0", "is_disabled": 0, "rental_uris": {"ios": "https://dc.lft.to/lastmile_qr_scan", "android": "https://dc.lft.to/lastmile_qr_scan"}, "is_reserved": 0}, {"lon": -77.022686, "bike_id": "39d36d01b0e0161486fc5b4bcdb3edfb", "lat": 38.93769066666667, "fusion_lon": 0.0, "fusion_lat": 0.0, "type": "electric_scooter", "name": "39d36d01b0e0161486fc5b4bcdb3edfb", "is_disabled": 0, "rental_uris": {"ios": "https://dc.lft.to/lastmile_qr_scan", "android": "https://dc.lft.to/lastmile_qr_scan"}, "is_reserved": 0}, {"lon": -77.05412916666667, "bike_id": "f664e35d585aa19f82b7e4e891e60e87", "lat": 38.9504415, "fusion_lon": 0.0, "fusion_lat": 0.0, "type": "electric_scooter", "name": "f664e35d585aa19f82b7e4e891e60e87", "is_disabled": 0, "rental_uris": {"ios": "https://dc.lft.to/lastmile_qr_scan", "android": "https://dc.lft.to/lastmile_qr_scan"}, "is_reserved": 0}, {"lon": -77.01476133333334, "bike_id": "c71658da6b899a24ab6e0f9443b1a513", "lat": 38.940655166666666, "fusion_lon": 0.0, "fusion_lat": 0.0, "type": "electric_bike", "name": "c71658da6b899a24ab6e0f9443b1a513", "is_disabled": 0, "rental_uris": {"ios": "https://dc.lft.to/lastmile_qr_scan", "android": "https://dc.lft.to/lastmile_qr_scan"}, "is_reserved": 0}, {"lon": -77.02803283333333, "bike_id": "8bb2e09032a49e0cbb998ccbf9b2fef2", "lat": 38.9168025, "fusion_lon": 0.0, "fusion_lat": 0.0, "type": "electric_scooter", "name": "8bb2e09032a49e0cbb998ccbf9b2fef2", "is_disabled": 0, "rental_uris": {"ios": "https://dc.lft.to/lastmile_qr_scan", "android": "https://dc.lft.to/lastmile_qr_scan"}, "is_reserved": 0}, {"lon": -76.976051, "bike_id": "f8a3418f0c108ce1ab3f9d1e8cc9d7f1", "lat": 38.905703833333334, "fusion_lon": 0.0, "fusion_lat": 0.0, "type": "electric_scooter", "name": "f8a3418f0c108ce1ab3f9d1e8cc9d7f1", "is_disabled": 0, "rental_uris": {"ios": "https://dc.lft.to/lastmile_qr_scan", "android": "https://dc.lft.to/lastmile_qr_scan"}, "is_reserved": 0}, {"lon": -77.0294385, "bike_id": "425c098b1eb0307c4e83b87c9e47dea6", "lat": 38.887453666666666, "fusion_lon": 0.0, "fusion_lat": 0.0, "type": "electric_scooter", "name": "425c098b1eb0307c4e83b87c9e47dea6", "is_disabled": 0, "rental_uris": {"ios": "https://dc.lft.to/lastmile_qr_scan", "android": "https://dc.lft.to/lastmile_qr_scan"}, "is_reserved": 0}, {"lon": -77.03947383333333, "bike_id": "d178b63ccb9300ca882897d0fc491c96", "lat": 38.93061733333333, "fusion_lon": 0.0, "fusion_lat": 0.0, "type": "electric_scooter", "name": "d178b63ccb9300ca882897d0fc491c96", "is_disabled": 0, "rental_uris": {"ios": "https://dc.lft.to/lastmile_qr_scan", "android": "https://dc.lft.to/lastmile_qr_scan"}, "is_reserved": 0}, {"lon": -77.02974983333333, "bike_id": "efef87ab40ddfd1adb98ffad0446c37f", "lat": 38.9328, "fusion_lon": 0.0, "fusion_lat": 0.0, "type": "electric_scooter", "name": "efef87ab40ddfd1adb98ffad0446c37f", "is_disabled": 0, "rental_uris": {"ios": "https://dc.lft.to/lastmile_qr_scan", "android": "https://dc.lft.to/lastmile_qr_scan"}, "is_reserved": 0}, {"lon": -77.03173916666667, "bike_id": "f212c5844de0016c3d32ad6c34844438", "lat": 38.887348333333335, "fusion_lon": 0.0, "fusion_lat": 0.0, "type": "electric_scooter", "name": "f212c5844de0016c3d32ad6c34844438", "is_disabled": 0, "rental_uris": {"ios": "https://dc.lft.to/lastmile_qr_scan", "android": "https://dc.lft.to/lastmile_qr_scan"}, "is_reserved": 0}, {"lon": -76.98180283333333, "bike_id": "a33fc8234211e3b8607c7c93635fca19", "lat": 38.895770166666665, "fusion_lon": 0.0, "fusion_lat": 0.0, "type": "electric_scooter", "name": "a33fc8234211e3b8607c7c93635fca19", "is_disabled": 0, "rental_uris": {"ios": "https://dc.lft.to/lastmile_qr_scan", "android": "https://dc.lft.to/lastmile_qr_scan"}, "is_reserved": 0}, {"lon": -77.0434235, "bike_id": "29721d4066d59f6f55404438dd05e434", "lat": 38.9296455, "fusion_lon": 0.0, "fusion_lat": 0.0, "type": "electric_scooter", "name": "29721d4066d59f6f55404438dd05e434", "is_disabled": 0, "rental_uris": {"ios": "https://dc.lft.to/lastmile_qr_scan", "android": "https://dc.lft.to/lastmile_qr_scan"}, "is_reserved": 0}, {"lon": -76.9837025, "bike_id": "d90d1abc9affaa112c5aeec17fd1db3f", "lat": 38.899786, "fusion_lon": 0.0, "fusion_lat": 0.0, "type": "electric_scooter", "name": "d90d1abc9affaa112c5aeec17fd1db3f", "is_disabled": 0, "rental_uris": {"ios": "https://dc.lft.to/lastmile_qr_scan", "android": "https://dc.lft.to/lastmile_qr_scan"}, "is_reserved": 0}, {"lon": -77.02807833333334, "bike_id": "03d557c5a795ea9fb599de9638d9d3c4", "lat": 38.902473, "fusion_lon": 0.0, "fusion_lat": 0.0, "type": "electric_scooter", "name": "03d557c5a795ea9fb599de9638d9d3c4", "is_disabled": 0, "rental_uris": {"ios": "https://dc.lft.to/lastmile_qr_scan", "android": "https://dc.lft.to/lastmile_qr_scan"}, "is_reserved": 0}, {"lon": -77.02290266666667, "bike_id": "ec3083bbdac46ab89d423d81e324961c", "lat": 38.9097645, "fusion_lon": 0.0, "fusion_lat": 0.0, "type": "electric_scooter", "name": "ec3083bbdac46ab89d423d81e324961c", "is_disabled": 0, "rental_uris": {"ios": "https://dc.lft.to/lastmile_qr_scan", "android": "https://dc.lft.to/lastmile_qr_scan"}, "is_reserved": 0}, {"lon": -77.01821633333333, "bike_id": "63f458d17ed39612218c9c875d7189f3", "lat": 38.902844, "fusion_lon": 0.0, "fusion_lat": 0.0, "type": "electric_scooter", "name": "63f458d17ed39612218c9c875d7189f3", "is_disabled": 0, "rental_uris": {"ios": "https://dc.lft.to/lastmile_qr_scan", "android": "https://dc.lft.to/lastmile_qr_scan"}, "is_reserved": 0}, {"lon": -76.93368833333334, "bike_id": "2d4ea69427fbc564b08e68d72cb58645", "lat": 38.8990885, "fusion_lon": 0.0, "fusion_lat": 0.0, "type": "electric_scooter", "name": "2d4ea69427fbc564b08e68d72cb58645", "is_disabled": 0, "rental_uris": {"ios": "https://dc.lft.to/lastmile_qr_scan", "android": "https://dc.lft.to/lastmile_qr_scan"}, "is_reserved": 0}, {"lon": -77.073544, "bike_id": "b23aa88c896efbe166ba2747e13270db", "lat": 38.924995, "fusion_lon": 0.0, "fusion_lat": 0.0, "type": "electric_bike", "name": "b23aa88c896efbe166ba2747e13270db", "is_disabled": 0, "rental_uris": {"ios": "https://dc.lft.to/lastmile_qr_scan", "android": "https://dc.lft.to/lastmile_qr_scan"}, "is_reserved": 0}, {"lon": -77.03666266666667, "bike_id": "7dcb53890874ad0ff550dd7263583083", "lat": 38.922597833333334, "fusion_lon": 0.0, "fusion_lat": 0.0, "type": "electric_scooter", "name": "7dcb53890874ad0ff550dd7263583083", "is_disabled": 0, "rental_uris": {"ios": "https://dc.lft.to/lastmile_qr_scan", "android": "https://dc.lft.to/lastmile_qr_scan"}, "is_reserved": 0}, {"lon": -77.024739, "bike_id": "e5d1e0fa6b72783bb0d0774e77578000", "lat": 38.90402316666667, "fusion_lon": 0.0, "fusion_lat": 0.0, "type": "electric_scooter", "name": "e5d1e0fa6b72783bb0d0774e77578000", "is_disabled": 0, "rental_uris": {"ios": "https://dc.lft.to/lastmile_qr_scan", "android": "https://dc.lft.to/lastmile_qr_scan"}, "is_reserved": 0}, {"lon": -77.05696783333333, "bike_id": "c383fe82d19e41f4295b4431072728fa", "lat": 38.937141, "fusion_lon": 0.0, "fusion_lat": 0.0, "type": "electric_scooter", "name": "c383fe82d19e41f4295b4431072728fa", "is_disabled": 0, "rental_uris": {"ios": "https://dc.lft.to/lastmile_qr_scan", "android": "https://dc.lft.to/lastmile_qr_scan"}, "is_reserved": 0}, {"lon": -77.05508266666666, "bike_id": "3aa91588e7f997ad895c6f313ba5467f", "lat": 38.89969, "fusion_lon": 0.0, "fusion_lat": 0.0, "type": "electric_scooter", "name": "3aa91588e7f997ad895c6f313ba5467f", "is_disabled": 0, "rental_uris": {"ios": "https://dc.lft.to/lastmile_qr_scan", "android": "https://dc.lft.to/lastmile_qr_scan"}, "is_reserved": 0}, {"lon": -77.00625966666666, "bike_id": "34b342cb533ec1043abd01afbd37f40a", "lat": 38.91258416666667, "fusion_lon": 0.0, "fusion_lat": 0.0, "type": "electric_scooter", "name": "34b342cb533ec1043abd01afbd37f40a", "is_disabled": 0, "rental_uris": {"ios": "https://dc.lft.to/lastmile_qr_scan", "android": "https://dc.lft.to/lastmile_qr_scan"}, "is_reserved": 0}, {"lon": -76.98231066666666, "bike_id": "fc248b0bf870f64f2b69f9910b8daf38", "lat": 38.88646266666667, "fusion_lon": 0.0, "fusion_lat": 0.0, "type": "electric_scooter", "name": "fc248b0bf870f64f2b69f9910b8daf38", "is_disabled": 0, "rental_uris": {"ios": "https://dc.lft.to/lastmile_qr_scan", "android": "https://dc.lft.to/lastmile_qr_scan"}, "is_reserved": 0}, {"lon": -76.9822825, "bike_id": "a92f40e6774d046dbc15027ba6140705", "lat": 38.916512833333336, "fusion_lon": 0.0, "fusion_lat": 0.0, "type": "electric_scooter", "name": "a92f40e6774d046dbc15027ba6140705", "is_disabled": 0, "rental_uris": {"ios": "https://dc.lft.to/lastmile_qr_scan", "android": "https://dc.lft.to/lastmile_qr_scan"}, "is_reserved": 0}, {"lon": -77.05724683333334, "bike_id": "9f779f95397169c6f6ebbcb615e4a2f1", "lat": 38.933596333333334, "fusion_lon": 0.0, "fusion_lat": 0.0, "type": "electric_scooter", "name": "9f779f95397169c6f6ebbcb615e4a2f1", "is_disabled": 0, "rental_uris": {"ios": "https://dc.lft.to/lastmile_qr_scan", "android": "https://dc.lft.to/lastmile_qr_scan"}, "is_reserved": 0}, {"lon": -77.05301816666666, "bike_id": "7ba44be31f8a7510333523d7ccd44402", "lat": 38.92552166666667, "fusion_lon": 0.0, "fusion_lat": 0.0, "type": "electric_scooter", "name": "7ba44be31f8a7510333523d7ccd44402", "is_disabled": 0, "rental_uris": {"ios": "https://dc.lft.to/lastmile_qr_scan", "android": "https://dc.lft.to/lastmile_qr_scan"}, "is_reserved": 0}, {"lon": -77.04399483333333, "bike_id": "3b43d20e2802f2a8088f060929244ff3", "lat": 38.921353, "fusion_lon": 0.0, "fusion_lat": 0.0, "type": "electric_scooter", "name": "3b43d20e2802f2a8088f060929244ff3", "is_disabled": 0, "rental_uris": {"ios": "https://dc.lft.to/lastmile_qr_scan", "android": "https://dc.lft.to/lastmile_qr_scan"}, "is_reserved": 0}, {"lon": -77.03761983333334, "bike_id": "771e2250a3fc1963b5ad8c83c42d9a24", "lat": 38.90779933333334, "fusion_lon": 0.0, "fusion_lat": 0.0, "type": "electric_scooter", "name": "771e2250a3fc1963b5ad8c83c42d9a24", "is_disabled": 0, "rental_uris": {"ios": "https://dc.lft.to/lastmile_qr_scan", "android": "https://dc.lft.to/lastmile_qr_scan"}, "is_reserved": 0}, {"lon": -76.99532066666667, "bike_id": "9382da3ec040e13a728484356673a7ba", "lat": 38.8837695, "fusion_lon": 0.0, "fusion_lat": 0.0, "type": "electric_scooter", "name": "9382da3ec040e13a728484356673a7ba", "is_disabled": 0, "rental_uris": {"ios": "https://dc.lft.to/lastmile_qr_scan", "android": "https://dc.lft.to/lastmile_qr_scan"}, "is_reserved": 0}, {"lon": -76.99511133333333, "bike_id": "3cc85c18e1bacf917bb0ae2e47b91779", "lat": 38.87779366666667, "fusion_lon": 0.0, "fusion_lat": 0.0, "type": "electric_scooter", "name": "3cc85c18e1bacf917bb0ae2e47b91779", "is_disabled": 0, "rental_uris": {"ios": "https://dc.lft.to/lastmile_qr_scan", "android": "https://dc.lft.to/lastmile_qr_scan"}, "is_reserved": 0}, {"lon": -77.03096583333334, "bike_id": "2ee78665bc8274bb527c4b255960184e", "lat": 38.928589833333334, "fusion_lon": 0.0, "fusion_lat": 0.0, "type": "electric_scooter", "name": "2ee78665bc8274bb527c4b255960184e", "is_disabled": 0, "rental_uris": {"ios": "https://dc.lft.to/lastmile_qr_scan", "android": "https://dc.lft.to/lastmile_qr_scan"}, "is_reserved": 0}, {"lon": -77.00071383333334, "bike_id": "ea15a707d3edfd8c742a6b060b389566", "lat": 38.89497816666667, "fusion_lon": 0.0, "fusion_lat": 0.0, "type": "electric_scooter", "name": "ea15a707d3edfd8c742a6b060b389566", "is_disabled": 0, "rental_uris": {"ios": "https://dc.lft.to/lastmile_qr_scan", "android": "https://dc.lft.to/lastmile_qr_scan"}, "is_reserved": 0}, {"lon": -77.01212483333333, "bike_id": "92e0823ad8f9e50801a64e0b9b2cbe6b", "lat": 38.92120766666667, "fusion_lon": 0.0, "fusion_lat": 0.0, "type": "electric_scooter", "name": "92e0823ad8f9e50801a64e0b9b2cbe6b", "is_disabled": 0, "rental_uris": {"ios": "https://dc.lft.to/lastmile_qr_scan", "android": "https://dc.lft.to/lastmile_qr_scan"}, "is_reserved": 0}, {"lon": -77.11152083333333, "bike_id": "5b57614b27cad55cf70df5db8a3611ed", "lat": 38.855075666666664, "fusion_lon": 0.0, "fusion_lat": 0.0, "type": "electric_bike", "name": "5b57614b27cad55cf70df5db8a3611ed", "is_disabled": 0, "rental_uris": {"ios": "https://dc.lft.to/lastmile_qr_scan", "android": "https://dc.lft.to/lastmile_qr_scan"}, "is_reserved": 0}, {"lon": -77.05163916666666, "bike_id": "f1359057b3538cb7ad076397588e63f8", "lat": 39.043181, "fusion_lon": 0.0, "fusion_lat": 0.0, "type": "electric_bike", "name": "f1359057b3538cb7ad076397588e63f8", "is_disabled": 0, "rental_uris": {"ios": "https://dc.lft.to/lastmile_qr_scan", "android": "https://dc.lft.to/lastmile_qr_scan"}, "is_reserved": 0}, {"lon": -77.104935, "bike_id": "f9be898f5dd4d276c9263099a5769ca7", "lat": 38.856054, "fusion_lon": 0.0, "fusion_lat": 0.0, "type": "electric_bike", "name": "f9be898f5dd4d276c9263099a5769ca7", "is_disabled": 0, "rental_uris": {"ios": "https://dc.lft.to/lastmile_qr_scan", "android": "https://dc.lft.to/lastmile_qr_scan"}, "is_reserved": 0}, {"lon": -77.01873716666667, "bike_id": "ea94d1eb9e64841476d314a1b2f4521a", "lat": 38.918316, "fusion_lon": 0.0, "fusion_lat": 0.0, "type": "electric_scooter", "name": "ea94d1eb9e64841476d314a1b2f4521a", "is_disabled": 0, "rental_uris": {"ios": "https://dc.lft.to/lastmile_qr_scan", "android": "https://dc.lft.to/lastmile_qr_scan"}, "is_reserved": 0}, {"lon": -77.03181016666667, "bike_id": "7de71a355dc21d7dc2295c5e71f7250d", "lat": 38.9368705, "fusion_lon": 0.0, "fusion_lat": 0.0, "type": "electric_scooter", "name": "7de71a355dc21d7dc2295c5e71f7250d", "is_disabled": 0, "rental_uris": {"ios": "https://dc.lft.to/lastmile_qr_scan", "android": "https://dc.lft.to/lastmile_qr_scan"}, "is_reserved": 0}, {"lon": -76.97330816666667, "bike_id": "bd0231af2ba36ace8eaa0530e4cfce01", "lat": 38.865618833333336, "fusion_lon": 0.0, "fusion_lat": 0.0, "type": "electric_scooter", "name": "bd0231af2ba36ace8eaa0530e4cfce01", "is_disabled": 0, "rental_uris": {"ios": "https://dc.lft.to/lastmile_qr_scan", "android": "https://dc.lft.to/lastmile_qr_scan"}, "is_reserved": 0}, {"lon": -77.033589, "bike_id": "5d885a023c1f4ad5cd7ce5bf381c4f15", "lat": 38.907335333333336, "fusion_lon": 0.0, "fusion_lat": 0.0, "type": "electric_scooter", "name": "5d885a023c1f4ad5cd7ce5bf381c4f15", "is_disabled": 0, "rental_uris": {"ios": "https://dc.lft.to/lastmile_qr_scan", "android": "https://dc.lft.to/lastmile_qr_scan"}, "is_reserved": 0}, {"lon": -77.02575133333333, "bike_id": "594b57d560417103346203255dbcb9e2", "lat": 38.93078083333333, "fusion_lon": 0.0, "fusion_lat": 0.0, "type": "electric_scooter", "name": "594b57d560417103346203255dbcb9e2", "is_disabled": 0, "rental_uris": {"ios": "https://dc.lft.to/lastmile_qr_scan", "android": "https://dc.lft.to/lastmile_qr_scan"}, "is_reserved": 0}, {"lon": -76.9301375, "bike_id": "a2b47907560ac98220d8d56f7c68b5b8", "lat": 38.8919315, "fusion_lon": 0.0, "fusion_lat": 0.0, "type": "electric_scooter", "name": "a2b47907560ac98220d8d56f7c68b5b8", "is_disabled": 0, "rental_uris": {"ios": "https://dc.lft.to/lastmile_qr_scan", "android": "https://dc.lft.to/lastmile_qr_scan"}, "is_reserved": 0}, {"lon": -77.00716266666667, "bike_id": "c502429955597bc37a902e577aa2b785", "lat": 38.905476166666666, "fusion_lon": 0.0, "fusion_lat": 0.0, "type": "electric_scooter", "name": "c502429955597bc37a902e577aa2b785", "is_disabled": 0, "rental_uris": {"ios": "https://dc.lft.to/lastmile_qr_scan", "android": "https://dc.lft.to/lastmile_qr_scan"}, "is_reserved": 0}, {"lon": -77.05584983333334, "bike_id": "0da1ebd21c770f1384207ce3b85b8657", "lat": 38.89307133333333, "fusion_lon": 0.0, "fusion_lat": 0.0, "type": "electric_scooter", "name": "0da1ebd21c770f1384207ce3b85b8657", "is_disabled": 0, "rental_uris": {"ios": "https://dc.lft.to/lastmile_qr_scan", "android": "https://dc.lft.to/lastmile_qr_scan"}, "is_reserved": 0}, {"lon": -77.04470066666667, "bike_id": "3ae27e09e58aadecae89285998979444", "lat": 38.90719466666667, "fusion_lon": 0.0, "fusion_lat": 0.0, "type": "electric_scooter", "name": "3ae27e09e58aadecae89285998979444", "is_disabled": 0, "rental_uris": {"ios": "https://dc.lft.to/lastmile_qr_scan", "android": "https://dc.lft.to/lastmile_qr_scan"}, "is_reserved": 0}, {"lon": -77.0034065, "bike_id": "39c0e284c9646e3d03798f8aef485759", "lat": 38.891937666666664, "fusion_lon": 0.0, "fusion_lat": 0.0, "type": "electric_scooter", "name": "39c0e284c9646e3d03798f8aef485759", "is_disabled": 0, "rental_uris": {"ios": "https://dc.lft.to/lastmile_qr_scan", "android": "https://dc.lft.to/lastmile_qr_scan"}, "is_reserved": 0}, {"lon": -77.05210366666667, "bike_id": "cf6f679c65bdf23920d17521f826b0c7", "lat": 38.900780833333336, "fusion_lon": 0.0, "fusion_lat": 0.0, "type": "electric_scooter", "name": "cf6f679c65bdf23920d17521f826b0c7", "is_disabled": 0, "rental_uris": {"ios": "https://dc.lft.to/lastmile_qr_scan", "android": "https://dc.lft.to/lastmile_qr_scan"}, "is_reserved": 0}, {"lon": -77.04628666666666, "bike_id": "32fecbc09246512d96abcb644c2a1775", "lat": 38.91566366666667, "fusion_lon": 0.0, "fusion_lat": 0.0, "type": "electric_scooter", "name": "32fecbc09246512d96abcb644c2a1775", "is_disabled": 0, "rental_uris": {"ios": "https://dc.lft.to/lastmile_qr_scan", "android": "https://dc.lft.to/lastmile_qr_scan"}, "is_reserved": 0}, {"lon": -77.023948, "bike_id": "f1c7bacf075e61c442806fb700f700ae", "lat": 38.920103166666664, "fusion_lon": 0.0, "fusion_lat": 0.0, "type": "electric_scooter", "name": "f1c7bacf075e61c442806fb700f700ae", "is_disabled": 0, "rental_uris": {"ios": "https://dc.lft.to/lastmile_qr_scan", "android": "https://dc.lft.to/lastmile_qr_scan"}, "is_reserved": 0}, {"lon": -77.04667866666666, "bike_id": "924613587bce2e1b67c23a1ce222bbe5", "lat": 38.9054025, "fusion_lon": 0.0, "fusion_lat": 0.0, "type": "electric_scooter", "name": "924613587bce2e1b67c23a1ce222bbe5", "is_disabled": 0, "rental_uris": {"ios": "https://dc.lft.to/lastmile_qr_scan", "android": "https://dc.lft.to/lastmile_qr_scan"}, "is_reserved": 0}, {"lon": -76.99548216666666, "bike_id": "97c876760e34447a670ea9433f7498ef", "lat": 38.926712333333334, "fusion_lon": 0.0, "fusion_lat": 0.0, "type": "electric_scooter", "name": "97c876760e34447a670ea9433f7498ef", "is_disabled": 0, "rental_uris": {"ios": "https://dc.lft.to/lastmile_qr_scan", "android": "https://dc.lft.to/lastmile_qr_scan"}, "is_reserved": 0}, {"lon": -77.0323805, "bike_id": "042ac026c2d04b2f892d0f4d9469d894", "lat": 38.92872216666667, "fusion_lon": 0.0, "fusion_lat": 0.0, "type": "electric_scooter", "name": "042ac026c2d04b2f892d0f4d9469d894", "is_disabled": 0, "rental_uris": {"ios": "https://dc.lft.to/lastmile_qr_scan", "android": "https://dc.lft.to/lastmile_qr_scan"}, "is_reserved": 0}, {"lon": -77.03762366666666, "bike_id": "b38bc3a8c3de249778abbb5b26388e46", "lat": 38.9246515, "fusion_lon": 0.0, "fusion_lat": 0.0, "type": "electric_scooter", "name": "b38bc3a8c3de249778abbb5b26388e46", "is_disabled": 0, "rental_uris": {"ios": "https://dc.lft.to/lastmile_qr_scan", "android": "https://dc.lft.to/lastmile_qr_scan"}, "is_reserved": 0}, {"lon": -77.02116533333333, "bike_id": "140cc924191fa58d51cd6abdc3c98919", "lat": 38.9370055, "fusion_lon": 0.0, "fusion_lat": 0.0, "type": "electric_scooter", "name": "140cc924191fa58d51cd6abdc3c98919", "is_disabled": 0, "rental_uris": {"ios": "https://dc.lft.to/lastmile_qr_scan", "android": "https://dc.lft.to/lastmile_qr_scan"}, "is_reserved": 0}, {"lon": -76.98884266666667, "bike_id": "b21ecbc8fbfd1e0330d29f403cdcadb2", "lat": 38.8665595, "fusion_lon": 0.0, "fusion_lat": 0.0, "type": "electric_scooter", "name": "b21ecbc8fbfd1e0330d29f403cdcadb2", "is_disabled": 0, "rental_uris": {"ios": "https://dc.lft.to/lastmile_qr_scan", "android": "https://dc.lft.to/lastmile_qr_scan"}, "is_reserved": 0}, {"lon": -77.02582166666667, "bike_id": "1e2078f86b9425f0024ee41b55a062b0", "lat": 38.887362833333334, "fusion_lon": 0.0, "fusion_lat": 0.0, "type": "electric_scooter", "name": "1e2078f86b9425f0024ee41b55a062b0", "is_disabled": 0, "rental_uris": {"ios": "https://dc.lft.to/lastmile_qr_scan", "android": "https://dc.lft.to/lastmile_qr_scan"}, "is_reserved": 0}, {"lon": -77.03593483333333, "bike_id": "5441d96b5accc81c6c09de7472304d33", "lat": 38.93670866666667, "fusion_lon": 0.0, "fusion_lat": 0.0, "type": "electric_scooter", "name": "5441d96b5accc81c6c09de7472304d33", "is_disabled": 0, "rental_uris": {"ios": "https://dc.lft.to/lastmile_qr_scan", "android": "https://dc.lft.to/lastmile_qr_scan"}, "is_reserved": 0}, {"lon": -77.0295085, "bike_id": "654d1c7811ae14e04f5becd396fc082b", "lat": 38.90500933333333, "fusion_lon": 0.0, "fusion_lat": 0.0, "type": "electric_scooter", "name": "654d1c7811ae14e04f5becd396fc082b", "is_disabled": 0, "rental_uris": {"ios": "https://dc.lft.to/lastmile_qr_scan", "android": "https://dc.lft.to/lastmile_qr_scan"}, "is_reserved": 0}, {"lon": -77.029915, "bike_id": "4fa91467f44472401337cc2107dbf7cc", "lat": 38.92375883333333, "fusion_lon": 0.0, "fusion_lat": 0.0, "type": "electric_bike", "name": "4fa91467f44472401337cc2107dbf7cc", "is_disabled": 0, "rental_uris": {"ios": "https://dc.lft.to/lastmile_qr_scan", "android": "https://dc.lft.to/lastmile_qr_scan"}, "is_reserved": 0}, {"lon": -77.005536, "bike_id": "9a5a7a1a4247808b80082a477d7e5491", "lat": 38.90553933333333, "fusion_lon": 0.0, "fusion_lat": 0.0, "type": "electric_scooter", "name": "9a5a7a1a4247808b80082a477d7e5491", "is_disabled": 0, "rental_uris": {"ios": "https://dc.lft.to/lastmile_qr_scan", "android": "https://dc.lft.to/lastmile_qr_scan"}, "is_reserved": 0}, {"lon": -77.03192416666667, "bike_id": "29c6ef801888dfd4cadad4b2f872d4dc", "lat": 38.921142, "fusion_lon": 0.0, "fusion_lat": 0.0, "type": "electric_scooter", "name": "29c6ef801888dfd4cadad4b2f872d4dc", "is_disabled": 0, "rental_uris": {"ios": "https://dc.lft.to/lastmile_qr_scan", "android": "https://dc.lft.to/lastmile_qr_scan"}, "is_reserved": 0}, {"lon": -77.04281716666667, "bike_id": "b3916af50cbe49764fbf80c13cfd69b2", "lat": 38.9340975, "fusion_lon": 0.0, "fusion_lat": 0.0, "type": "electric_scooter", "name": "b3916af50cbe49764fbf80c13cfd69b2", "is_disabled": 0, "rental_uris": {"ios": "https://dc.lft.to/lastmile_qr_scan", "android": "https://dc.lft.to/lastmile_qr_scan"}, "is_reserved": 0}, {"lon": -77.03466066666667, "bike_id": "eaba31a6d42a281e88620d1b4b873e72", "lat": 38.926451, "fusion_lon": 0.0, "fusion_lat": 0.0, "type": "electric_scooter", "name": "eaba31a6d42a281e88620d1b4b873e72", "is_disabled": 0, "rental_uris": {"ios": "https://dc.lft.to/lastmile_qr_scan", "android": "https://dc.lft.to/lastmile_qr_scan"}, "is_reserved": 0}, {"lon": -77.02367533333333, "bike_id": "c075298e66cc3a25af3917ddc85e20cf", "lat": 38.8962635, "fusion_lon": 0.0, "fusion_lat": 0.0, "type": "electric_scooter", "name": "c075298e66cc3a25af3917ddc85e20cf", "is_disabled": 0, "rental_uris": {"ios": "https://dc.lft.to/lastmile_qr_scan", "android": "https://dc.lft.to/lastmile_qr_scan"}, "is_reserved": 0}, {"lon": -77.02705716666667, "bike_id": "509b3f7acf33ec4c05ed46d40bab25b8", "lat": 38.89783716666667, "fusion_lon": 0.0, "fusion_lat": 0.0, "type": "electric_scooter", "name": "509b3f7acf33ec4c05ed46d40bab25b8", "is_disabled": 0, "rental_uris": {"ios": "https://dc.lft.to/lastmile_qr_scan", "android": "https://dc.lft.to/lastmile_qr_scan"}, "is_reserved": 0}, {"lon": -76.994697, "bike_id": "cf5e9c5d0e0ed7edb8cfcbbeb0691ddf", "lat": 38.94065783333333, "fusion_lon": 0.0, "fusion_lat": 0.0, "type": "electric_bike", "name": "cf5e9c5d0e0ed7edb8cfcbbeb0691ddf", "is_disabled": 0, "rental_uris": {"ios": "https://dc.lft.to/lastmile_qr_scan", "android": "https://dc.lft.to/lastmile_qr_scan"}, "is_reserved": 0}, {"lon": -77.03075033333333, "bike_id": "30cc6018dcfbc4f63e59d5863e670a2c", "lat": 38.88035683333333, "fusion_lon": 0.0, "fusion_lat": 0.0, "type": "electric_scooter", "name": "30cc6018dcfbc4f63e59d5863e670a2c", "is_disabled": 0, "rental_uris": {"ios": "https://dc.lft.to/lastmile_qr_scan", "android": "https://dc.lft.to/lastmile_qr_scan"}, "is_reserved": 0}, {"lon": -77.02219683333334, "bike_id": "e19db285ef00570fb3eb2b6d4e7de991", "lat": 38.940937, "fusion_lon": 0.0, "fusion_lat": 0.0, "type": "electric_scooter", "name": "e19db285ef00570fb3eb2b6d4e7de991", "is_disabled": 0, "rental_uris": {"ios": "https://dc.lft.to/lastmile_qr_scan", "android": "https://dc.lft.to/lastmile_qr_scan"}, "is_reserved": 0}, {"lon": -77.04596083333334, "bike_id": "60c961a29dfb32ae98268fc9a0bc6352", "lat": 38.913539, "fusion_lon": 0.0, "fusion_lat": 0.0, "type": "electric_scooter", "name": "60c961a29dfb32ae98268fc9a0bc6352", "is_disabled": 0, "rental_uris": {"ios": "https://dc.lft.to/lastmile_qr_scan", "android": "https://dc.lft.to/lastmile_qr_scan"}, "is_reserved": 0}, {"lon": -77.10809266666666, "bike_id": "8df7c1dbd13101f09799c78b5462e658", "lat": 38.81202033333334, "fusion_lon": 0.0, "fusion_lat": 0.0, "type": "electric_bike", "name": "8df7c1dbd13101f09799c78b5462e658", "is_disabled": 0, "rental_uris": {"ios": "https://dc.lft.to/lastmile_qr_scan", "android": "https://dc.lft.to/lastmile_qr_scan"}, "is_reserved": 0}, {"lon": -77.00582583333333, "bike_id": "384abb9e2e677451f92fd7b3dddebb90", "lat": 38.905593833333334, "fusion_lon": 0.0, "fusion_lat": 0.0, "type": "electric_scooter", "name": "384abb9e2e677451f92fd7b3dddebb90", "is_disabled": 0, "rental_uris": {"ios": "https://dc.lft.to/lastmile_qr_scan", "android": "https://dc.lft.to/lastmile_qr_scan"}, "is_reserved": 0}, {"lon": -77.02184016666666, "bike_id": "071982926106237dfa95aa2cc2f1e713", "lat": 38.89351533333333, "fusion_lon": 0.0, "fusion_lat": 0.0, "type": "electric_scooter", "name": "071982926106237dfa95aa2cc2f1e713", "is_disabled": 0, "rental_uris": {"ios": "https://dc.lft.to/lastmile_qr_scan", "android": "https://dc.lft.to/lastmile_qr_scan"}, "is_reserved": 0}, {"lon": -77.05433383333333, "bike_id": "cf7a674c3abc60c32df52229551e2e01", "lat": 38.92849433333333, "fusion_lon": 0.0, "fusion_lat": 0.0, "type": "electric_bike", "name": "cf7a674c3abc60c32df52229551e2e01", "is_disabled": 0, "rental_uris": {"ios": "https://dc.lft.to/lastmile_qr_scan", "android": "https://dc.lft.to/lastmile_qr_scan"}, "is_reserved": 0}, {"lon": -76.97425716666666, "bike_id": "5933378cd495034f3d78b60b8934a134", "lat": 38.903993, "fusion_lon": 0.0, "fusion_lat": 0.0, "type": "electric_scooter", "name": "5933378cd495034f3d78b60b8934a134", "is_disabled": 0, "rental_uris": {"ios": "https://dc.lft.to/lastmile_qr_scan", "android": "https://dc.lft.to/lastmile_qr_scan"}, "is_reserved": 0}, {"lon": -77.0417415, "bike_id": "661a1932e9afc349d6d826059c51923b", "lat": 38.905451166666666, "fusion_lon": 0.0, "fusion_lat": 0.0, "type": "electric_scooter", "name": "661a1932e9afc349d6d826059c51923b", "is_disabled": 0, "rental_uris": {"ios": "https://dc.lft.to/lastmile_qr_scan", "android": "https://dc.lft.to/lastmile_qr_scan"}, "is_reserved": 0}, {"lon": -77.03988566666666, "bike_id": "79fedd765809e4760ee788aa5a60d6e3", "lat": 38.9339155, "fusion_lon": 0.0, "fusion_lat": 0.0, "type": "electric_bike", "name": "79fedd765809e4760ee788aa5a60d6e3", "is_disabled": 0, "rental_uris": {"ios": "https://dc.lft.to/lastmile_qr_scan", "android": "https://dc.lft.to/lastmile_qr_scan"}, "is_reserved": 0}, {"lon": -77.0000965, "bike_id": "1e7dc582d9b0f5733446128dae81e9b0", "lat": 38.89742533333333, "fusion_lon": 0.0, "fusion_lat": 0.0, "type": "electric_scooter", "name": "1e7dc582d9b0f5733446128dae81e9b0", "is_disabled": 0, "rental_uris": {"ios": "https://dc.lft.to/lastmile_qr_scan", "android": "https://dc.lft.to/lastmile_qr_scan"}, "is_reserved": 0}, {"lon": -77.03350016666667, "bike_id": "4dbb349d065fd4ec2e0597fc491924d6", "lat": 38.90714, "fusion_lon": 0.0, "fusion_lat": 0.0, "type": "electric_scooter", "name": "4dbb349d065fd4ec2e0597fc491924d6", "is_disabled": 0, "rental_uris": {"ios": "https://dc.lft.to/lastmile_qr_scan", "android": "https://dc.lft.to/lastmile_qr_scan"}, "is_reserved": 0}, {"lon": -77.02511966666667, "bike_id": "b9b82b5e4c8f9a51efc62838486da552", "lat": 38.920755166666666, "fusion_lon": 0.0, "fusion_lat": 0.0, "type": "electric_scooter", "name": "b9b82b5e4c8f9a51efc62838486da552", "is_disabled": 0, "rental_uris": {"ios": "https://dc.lft.to/lastmile_qr_scan", "android": "https://dc.lft.to/lastmile_qr_scan"}, "is_reserved": 0}, {"lon": -77.032122, "bike_id": "6aeeeb8cffb41b91a5629e80b2cd2ce5", "lat": 38.892192333333334, "fusion_lon": 0.0, "fusion_lat": 0.0, "type": "electric_scooter", "name": "6aeeeb8cffb41b91a5629e80b2cd2ce5", "is_disabled": 0, "rental_uris": {"ios": "https://dc.lft.to/lastmile_qr_scan", "android": "https://dc.lft.to/lastmile_qr_scan"}, "is_reserved": 0}, {"lon": -77.01537116666667, "bike_id": "4afd286ac7039360688542154397989a", "lat": 38.8848885, "fusion_lon": 0.0, "fusion_lat": 0.0, "type": "electric_scooter", "name": "4afd286ac7039360688542154397989a", "is_disabled": 0, "rental_uris": {"ios": "https://dc.lft.to/lastmile_qr_scan", "android": "https://dc.lft.to/lastmile_qr_scan"}, "is_reserved": 0}, {"lon": -77.0319855, "bike_id": "8ea5245f492d38cde5e827b9c2f9c887", "lat": 38.9028835, "fusion_lon": 0.0, "fusion_lat": 0.0, "type": "electric_scooter", "name": "8ea5245f492d38cde5e827b9c2f9c887", "is_disabled": 0, "rental_uris": {"ios": "https://dc.lft.to/lastmile_qr_scan", "android": "https://dc.lft.to/lastmile_qr_scan"}, "is_reserved": 0}, {"lon": -77.0351185, "bike_id": "e5fcd5e0ac1f5d2e8e81609bbad75d80", "lat": 38.9214945, "fusion_lon": 0.0, "fusion_lat": 0.0, "type": "electric_scooter", "name": "e5fcd5e0ac1f5d2e8e81609bbad75d80", "is_disabled": 0, "rental_uris": {"ios": "https://dc.lft.to/lastmile_qr_scan", "android": "https://dc.lft.to/lastmile_qr_scan"}, "is_reserved": 0}, {"lon": -77.06488133333333, "bike_id": "c20ea88bdf9c50142535d15e1aaa44fe", "lat": 38.9097215, "fusion_lon": 0.0, "fusion_lat": 0.0, "type": "electric_scooter", "name": "c20ea88bdf9c50142535d15e1aaa44fe", "is_disabled": 0, "rental_uris": {"ios": "https://dc.lft.to/lastmile_qr_scan", "android": "https://dc.lft.to/lastmile_qr_scan"}, "is_reserved": 0}, {"lon": -76.997538, "bike_id": "dc12ba01c3458abefa1edf2fb11d18d6", "lat": 38.95017283333333, "fusion_lon": 0.0, "fusion_lat": 0.0, "type": "electric_bike", "name": "dc12ba01c3458abefa1edf2fb11d18d6", "is_disabled": 0, "rental_uris": {"ios": "https://dc.lft.to/lastmile_qr_scan", "android": "https://dc.lft.to/lastmile_qr_scan"}, "is_reserved": 0}, {"lon": -77.0040525, "bike_id": "bb9d463a718bd73991792dd409a64f35", "lat": 38.921338166666665, "fusion_lon": 0.0, "fusion_lat": 0.0, "type": "electric_scooter", "name": "bb9d463a718bd73991792dd409a64f35", "is_disabled": 0, "rental_uris": {"ios": "https://dc.lft.to/lastmile_qr_scan", "android": "https://dc.lft.to/lastmile_qr_scan"}, "is_reserved": 0}, {"lon": -77.023248, "bike_id": "d7cead9cdad4ab84e745d28e724ccb01", "lat": 38.935248333333334, "fusion_lon": 0.0, "fusion_lat": 0.0, "type": "electric_scooter", "name": "d7cead9cdad4ab84e745d28e724ccb01", "is_disabled": 0, "rental_uris": {"ios": "https://dc.lft.to/lastmile_qr_scan", "android": "https://dc.lft.to/lastmile_qr_scan"}, "is_reserved": 0}, {"lon": -77.01552316666667, "bike_id": "602b7842e1fa3081995ba6a5c018ea07", "lat": 38.88307416666667, "fusion_lon": 0.0, "fusion_lat": 0.0, "type": "electric_scooter", "name": "602b7842e1fa3081995ba6a5c018ea07", "is_disabled": 0, "rental_uris": {"ios": "https://dc.lft.to/lastmile_qr_scan", "android": "https://dc.lft.to/lastmile_qr_scan"}, "is_reserved": 0}, {"lon": -77.07714566666667, "bike_id": "cf7b2db332c0caba64c7bec0c8c39a5d", "lat": 38.9252075, "fusion_lon": 0.0, "fusion_lat": 0.0, "type": "electric_scooter", "name": "cf7b2db332c0caba64c7bec0c8c39a5d", "is_disabled": 0, "rental_uris": {"ios": "https://dc.lft.to/lastmile_qr_scan", "android": "https://dc.lft.to/lastmile_qr_scan"}, "is_reserved": 0}, {"lon": -76.949997, "bike_id": "67ee145767d87380908eadc4fdb82cd9", "lat": 38.89382833333333, "fusion_lon": 0.0, "fusion_lat": 0.0, "type": "electric_scooter", "name": "67ee145767d87380908eadc4fdb82cd9", "is_disabled": 0, "rental_uris": {"ios": "https://dc.lft.to/lastmile_qr_scan", "android": "https://dc.lft.to/lastmile_qr_scan"}, "is_reserved": 0}, {"lon": -77.011034, "bike_id": "ef16919a305630aee253aa572a2d5c09", "lat": 38.90844116666667, "fusion_lon": 0.0, "fusion_lat": 0.0, "type": "electric_scooter", "name": "ef16919a305630aee253aa572a2d5c09", "is_disabled": 0, "rental_uris": {"ios": "https://dc.lft.to/lastmile_qr_scan", "android": "https://dc.lft.to/lastmile_qr_scan"}, "is_reserved": 0}, {"lon": -77.03261483333333, "bike_id": "29fdc676e4bf274cde86000ff44afe46", "lat": 38.93773316666667, "fusion_lon": 0.0, "fusion_lat": 0.0, "type": "electric_scooter", "name": "29fdc676e4bf274cde86000ff44afe46", "is_disabled": 0, "rental_uris": {"ios": "https://dc.lft.to/lastmile_qr_scan", "android": "https://dc.lft.to/lastmile_qr_scan"}, "is_reserved": 0}, {"lon": -77.01441, "bike_id": "a7c6033e3000d9cd49e0b0d0258b7f3f", "lat": 38.905468666666664, "fusion_lon": 0.0, "fusion_lat": 0.0, "type": "electric_scooter", "name": "a7c6033e3000d9cd49e0b0d0258b7f3f", "is_disabled": 0, "rental_uris": {"ios": "https://dc.lft.to/lastmile_qr_scan", "android": "https://dc.lft.to/lastmile_qr_scan"}, "is_reserved": 0}, {"lon": -77.03254216666667, "bike_id": "e65ef4dbbfb9709c599e81de67f41ce2", "lat": 38.93135183333333, "fusion_lon": 0.0, "fusion_lat": 0.0, "type": "electric_scooter", "name": "e65ef4dbbfb9709c599e81de67f41ce2", "is_disabled": 0, "rental_uris": {"ios": "https://dc.lft.to/lastmile_qr_scan", "android": "https://dc.lft.to/lastmile_qr_scan"}, "is_reserved": 0}, {"lon": -76.97561583333334, "bike_id": "79f1ba413bf71cebfcd081f57fd43b95", "lat": 38.92458583333333, "fusion_lon": 0.0, "fusion_lat": 0.0, "type": "electric_bike", "name": "79f1ba413bf71cebfcd081f57fd43b95", "is_disabled": 0, "rental_uris": {"ios": "https://dc.lft.to/lastmile_qr_scan", "android": "https://dc.lft.to/lastmile_qr_scan"}, "is_reserved": 0}, {"lon": -76.97857816666667, "bike_id": "3a44e507442ff443f93ff2844e95ee41", "lat": 38.907216166666664, "fusion_lon": 0.0, "fusion_lat": 0.0, "type": "electric_scooter", "name": "3a44e507442ff443f93ff2844e95ee41", "is_disabled": 0, "rental_uris": {"ios": "https://dc.lft.to/lastmile_qr_scan", "android": "https://dc.lft.to/lastmile_qr_scan"}, "is_reserved": 0}, {"lon": -77.04192183333333, "bike_id": "9286112bdf659c77168d826f8ec5d029", "lat": 38.92610416666667, "fusion_lon": 0.0, "fusion_lat": 0.0, "type": "electric_scooter", "name": "9286112bdf659c77168d826f8ec5d029", "is_disabled": 0, "rental_uris": {"ios": "https://dc.lft.to/lastmile_qr_scan", "android": "https://dc.lft.to/lastmile_qr_scan"}, "is_reserved": 0}, {"lon": -77.0599555, "bike_id": "c8b8348059c8c3ed07c68168ff6dc6bb", "lat": 38.8072235, "fusion_lon": 0.0, "fusion_lat": 0.0, "type": "electric_bike", "name": "c8b8348059c8c3ed07c68168ff6dc6bb", "is_disabled": 0, "rental_uris": {"ios": "https://dc.lft.to/lastmile_qr_scan", "android": "https://dc.lft.to/lastmile_qr_scan"}, "is_reserved": 0}, {"lon": -77.03924466666666, "bike_id": "45fe3792ff81b15ede43c74a12fc93e7", "lat": 38.927985666666665, "fusion_lon": 0.0, "fusion_lat": 0.0, "type": "electric_scooter", "name": "45fe3792ff81b15ede43c74a12fc93e7", "is_disabled": 0, "rental_uris": {"ios": "https://dc.lft.to/lastmile_qr_scan", "android": "https://dc.lft.to/lastmile_qr_scan"}, "is_reserved": 0}, {"lon": -77.00712783333333, "bike_id": "6183d557c26e324daed06c8342b57e2b", "lat": 38.9003685, "fusion_lon": 0.0, "fusion_lat": 0.0, "type": "electric_scooter", "name": "6183d557c26e324daed06c8342b57e2b", "is_disabled": 0, "rental_uris": {"ios": "https://dc.lft.to/lastmile_qr_scan", "android": "https://dc.lft.to/lastmile_qr_scan"}, "is_reserved": 0}, {"lon": -77.03640833333333, "bike_id": "85795d727ec073338956d89536cf8e9e", "lat": 38.92463583333333, "fusion_lon": 0.0, "fusion_lat": 0.0, "type": "electric_scooter", "name": "85795d727ec073338956d89536cf8e9e", "is_disabled": 0, "rental_uris": {"ios": "https://dc.lft.to/lastmile_qr_scan", "android": "https://dc.lft.to/lastmile_qr_scan"}, "is_reserved": 0}, {"lon": -76.99778633333334, "bike_id": "43c5f84baeed1d3d6f39b1d3337c3a69", "lat": 38.9104495, "fusion_lon": 0.0, "fusion_lat": 0.0, "type": "electric_scooter", "name": "43c5f84baeed1d3d6f39b1d3337c3a69", "is_disabled": 0, "rental_uris": {"ios": "https://dc.lft.to/lastmile_qr_scan", "android": "https://dc.lft.to/lastmile_qr_scan"}, "is_reserved": 0}, {"lon": -77.03183016666667, "bike_id": "6b194ea7d08fac95da6771f80c9eda61", "lat": 38.905219, "fusion_lon": 0.0, "fusion_lat": 0.0, "type": "electric_scooter", "name": "6b194ea7d08fac95da6771f80c9eda61", "is_disabled": 0, "rental_uris": {"ios": "https://dc.lft.to/lastmile_qr_scan", "android": "https://dc.lft.to/lastmile_qr_scan"}, "is_reserved": 0}, {"lon": -77.041974, "bike_id": "71a4314c389611b6ff9b233570814db9", "lat": 38.921000166666666, "fusion_lon": 0.0, "fusion_lat": 0.0, "type": "electric_scooter", "name": "71a4314c389611b6ff9b233570814db9", "is_disabled": 0, "rental_uris": {"ios": "https://dc.lft.to/lastmile_qr_scan", "android": "https://dc.lft.to/lastmile_qr_scan"}, "is_reserved": 0}, {"lon": -76.97617966666667, "bike_id": "714b72b78c1a1276ccb1f0227bf24661", "lat": 38.92650366666667, "fusion_lon": 0.0, "fusion_lat": 0.0, "type": "electric_scooter", "name": "714b72b78c1a1276ccb1f0227bf24661", "is_disabled": 0, "rental_uris": {"ios": "https://dc.lft.to/lastmile_qr_scan", "android": "https://dc.lft.to/lastmile_qr_scan"}, "is_reserved": 0}, {"lon": -77.08813533333333, "bike_id": "d5cfe3a97dcc47ef1569806eb7b06eeb", "lat": 38.91176133333333, "fusion_lon": 0.0, "fusion_lat": 0.0, "type": "electric_bike", "name": "d5cfe3a97dcc47ef1569806eb7b06eeb", "is_disabled": 0, "rental_uris": {"ios": "https://dc.lft.to/lastmile_qr_scan", "android": "https://dc.lft.to/lastmile_qr_scan"}, "is_reserved": 0}, {"lon": -77.01865233333334, "bike_id": "44449faf74a416bed7161083ff84a458", "lat": 38.95148416666667, "fusion_lon": 0.0, "fusion_lat": 0.0, "type": "electric_scooter", "name": "44449faf74a416bed7161083ff84a458", "is_disabled": 0, "rental_uris": {"ios": "https://dc.lft.to/lastmile_qr_scan", "android": "https://dc.lft.to/lastmile_qr_scan"}, "is_reserved": 0}, {"lon": -76.99100816666666, "bike_id": "8ef0c7469a14431fe77cb68a472eb923", "lat": 38.903165, "fusion_lon": 0.0, "fusion_lat": 0.0, "type": "electric_scooter", "name": "8ef0c7469a14431fe77cb68a472eb923", "is_disabled": 0, "rental_uris": {"ios": "https://dc.lft.to/lastmile_qr_scan", "android": "https://dc.lft.to/lastmile_qr_scan"}, "is_reserved": 0}, {"lon": -77.00565566666667, "bike_id": "4a0444b273da60dc1798486ca2cabab1", "lat": 38.905566666666665, "fusion_lon": 0.0, "fusion_lat": 0.0, "type": "electric_scooter", "name": "4a0444b273da60dc1798486ca2cabab1", "is_disabled": 0, "rental_uris": {"ios": "https://dc.lft.to/lastmile_qr_scan", "android": "https://dc.lft.to/lastmile_qr_scan"}, "is_reserved": 0}, {"lon": -77.02746883333333, "bike_id": "42d8d4c46a9f3550eea419f8ddfa2698", "lat": 38.92893616666667, "fusion_lon": 0.0, "fusion_lat": 0.0, "type": "electric_scooter", "name": "42d8d4c46a9f3550eea419f8ddfa2698", "is_disabled": 0, "rental_uris": {"ios": "https://dc.lft.to/lastmile_qr_scan", "android": "https://dc.lft.to/lastmile_qr_scan"}, "is_reserved": 0}, {"lon": -77.01346366666667, "bike_id": "4e76f44b0c4e0d4d273591dbf8ea9067", "lat": 38.8781245, "fusion_lon": 0.0, "fusion_lat": 0.0, "type": "electric_scooter", "name": "4e76f44b0c4e0d4d273591dbf8ea9067", "is_disabled": 0, "rental_uris": {"ios": "https://dc.lft.to/lastmile_qr_scan", "android": "https://dc.lft.to/lastmile_qr_scan"}, "is_reserved": 0}, {"lon": -77.028772, "bike_id": "e830d0ff84297216cb422b118d30e317", "lat": 38.9170845, "fusion_lon": 0.0, "fusion_lat": 0.0, "type": "electric_scooter", "name": "e830d0ff84297216cb422b118d30e317", "is_disabled": 0, "rental_uris": {"ios": "https://dc.lft.to/lastmile_qr_scan", "android": "https://dc.lft.to/lastmile_qr_scan"}, "is_reserved": 0}, {"lon": -77.02529183333333, "bike_id": "6161ad48e82046b0e129eb6b6ca3bb35", "lat": 38.92889866666667, "fusion_lon": 0.0, "fusion_lat": 0.0, "type": "electric_scooter", "name": "6161ad48e82046b0e129eb6b6ca3bb35", "is_disabled": 0, "rental_uris": {"ios": "https://dc.lft.to/lastmile_qr_scan", "android": "https://dc.lft.to/lastmile_qr_scan"}, "is_reserved": 0}, {"lon": -77.02084683333334, "bike_id": "cb77a87a936dc4fedc34d30e9049e8e1", "lat": 38.88180783333333, "fusion_lon": 0.0, "fusion_lat": 0.0, "type": "electric_scooter", "name": "cb77a87a936dc4fedc34d30e9049e8e1", "is_disabled": 0, "rental_uris": {"ios": "https://dc.lft.to/lastmile_qr_scan", "android": "https://dc.lft.to/lastmile_qr_scan"}, "is_reserved": 0}, {"lon": -77.100303, "bike_id": "8bad7aff99e4ca00aa27aeba428d8f58", "lat": 38.87134316666667, "fusion_lon": 0.0, "fusion_lat": 0.0, "type": "electric_bike", "name": "8bad7aff99e4ca00aa27aeba428d8f58", "is_disabled": 0, "rental_uris": {"ios": "https://dc.lft.to/lastmile_qr_scan", "android": "https://dc.lft.to/lastmile_qr_scan"}, "is_reserved": 0}, {"lon": -76.965279, "bike_id": "38f6b92ca8dff0f9989b3c5a98c1763d", "lat": 38.876284166666665, "fusion_lon": 0.0, "fusion_lat": 0.0, "type": "electric_scooter", "name": "38f6b92ca8dff0f9989b3c5a98c1763d", "is_disabled": 0, "rental_uris": {"ios": "https://dc.lft.to/lastmile_qr_scan", "android": "https://dc.lft.to/lastmile_qr_scan"}, "is_reserved": 0},