{"data": {"bikes": [{"bike_id": "1f54b4d504853b9a0b608a355456a3fa", "fusion_lon": 0.0, "type": "electric_scooter", "name": "1f54b4d504853b9a0b608a355456a3fa", "rental_uris": {"android": "https://dc.lft.to/lastmile_qr_scan", "ios": "https://dc.lft.to/lastmile_qr_scan"}, "fusion_lat": 0.0, "lat": 38.909654833333335, "is_disabled": 0, "lon": -77.0240215, "is_reserved": 0}, {"bike_id": "c8481a03c07d127e9a2a03cab531d6ba", "fusion_lon": 0.0, "type": "electric_scooter", "name": "c8481a03c07d127e9a2a03cab531d6ba", "rental_uris": {"android": "https://dc.lft.to/lastmile_qr_scan", "ios": "https://dc.lft.to/lastmile_qr_scan"}, "fusion_lat": 0.0, "lat": 38.90562383333334, "is_disabled": 0, "lon": -77.02419366666666, "is_reserved": 0}, {"bike_id": "37e7cb1c76aca326ea9b40197c33cab9", "fusion_lon": 0.0, "type": "electric_scooter", "name": "37e7cb1c76aca326ea9b40197c33cab9", "rental_uris": {"android": "https://dc.lft.to/lastmile_qr_scan", "ios": "https://dc.lft.to/lastmile_qr_scan"}, "fusion_lat": 0.0, "lat": 38.916987, "is_disabled": 0, "lon": -77.03746016666666, "is_reserved": 0}, {"bike_id": "78583e46da5fb57c2e85b54812e68ab5", "fusion_lon": 0.0, "type": "electric_scooter", "name": "78583e46da5fb57c2e85b54812e68ab5", "rental_uris": {"android": "https://dc.lft.to/lastmile_qr_scan", "ios": "https://dc.lft.to/lastmile_qr_scan"}, "fusion_lat": 0.0, "lat": 38.8842785, "is_disabled": 0, "lon": -76.95757166666667, "is_reserved": 0}, {"bike_id": "c581ac54726d1fe0fbc65bccc8518221", "fusion_lon": 0.0, "type": "electric_bike", "name": "c581ac54726d1fe0fbc65bccc8518221", "rental_uris": {"android": "https://dc.lft.to/lastmile_qr_scan", "ios": "https://dc.lft.to/lastmile_qr_scan"}, "fusion_lat": 0.0, "lat": 38.898880166666665, "is_disabled": 0, "lon": -76.98387716666667, "is_reserved": 0}, {"bike_id": "2fd651516af8d80cfc5b5d7733657b37", "fusion_lon": 0.0, "type": "electric_bike", "name": "2fd651516af8d80cfc5b5d7733657b37", "rental_uris": {"android": "https://dc.lft.to/lastmile_qr_scan", "ios": "https://dc.lft.to/lastmile_qr_scan"}, "fusion_lat": 0.0, "lat": 38.99685016666667, "is_disabled": 0, "lon": -77.038051, "is_reserved": 0}, {"bike_id": "4af77ac77770ba83d26fee1c83ec8487", "fusion_lon": 0.0, "type": "electric_scooter", "name": "4af77ac77770ba83d26fee1c83ec8487", "rental_uris": {"android": "https://dc.lft.to/lastmile_qr_scan", "ios": "https://dc.lft.to/lastmile_qr_scan"}, "fusion_lat": 0.0, "lat": 38.88044416666666, "is_disabled": 0, "lon": -77.0306985, "is_reserved": 0}, {"bike_id": "28cd2247d7b7933a7a87a45c68e6c9cd", "fusion_lon": 0.0, "type": "electric_scooter", "name": "28cd2247d7b7933a7a87a45c68e6c9cd", "rental_uris": {"android": "https://dc.lft.to/lastmile_qr_scan", "ios": "https://dc.lft.to/lastmile_qr_scan"}, "fusion_lat": 0.0, "lat": 38.915778833333334, "is_disabled": 0, "lon": -77.0467855, "is_reserved": 0}, {"bike_id": "57495dae226b506c90e9856fbbdea337", "fusion_lon": 0.0, "type": "electric_scooter", "name": "57495dae226b506c90e9856fbbdea337", "rental_uris": {"android": "https://dc.lft.to/lastmile_qr_scan", "ios": "https://dc.lft.to/lastmile_qr_scan"}, "fusion_lat": 0.0, "lat": 38.883651666666665, "is_disabled": 0, "lon": -77.02574616666666, "is_reserved": 0}, {"bike_id": "5ea469146a0ab784924a566dc239543b", "fusion_lon": 0.0, "type": "electric_scooter", "name": "5ea469146a0ab784924a566dc239543b", "rental_uris": {"android": "https://dc.lft.to/lastmile_qr_scan", "ios": "https://dc.lft.to/lastmile_qr_scan"}, "fusion_lat": 0.0, "lat": 38.879087166666665, "is_disabled": 0, "lon": -76.9915885, "is_reserved": 0}, {"bike_id": "310e9ce40edc46e12cdb7057b8becf8d", "fusion_lon": 0.0, "type": "electric_scooter", "name": "310e9ce40edc46e12cdb7057b8becf8d", "rental_uris": {"android": "https://dc.lft.to/lastmile_qr_scan", "ios": "https://dc.lft.to/lastmile_qr_scan"}, "fusion_lat": 0.0, "lat": 38.91687316666667, "is_disabled": 0, "lon": -77.0295285, "is_reserved": 0}, {"bike_id": "0e84cc213c54835c6ab2e9caa4cb244c", "fusion_lon": 0.0, "type": "electric_bike", "name": "0e84cc213c54835c6ab2e9caa4cb244c", "rental_uris": {"android": "https://dc.lft.to/lastmile_qr_scan", "ios": "https://dc.lft.to/lastmile_qr_scan"}, "fusion_lat": 0.0, "lat": 38.8691245, "is_disabled": 0, "lon": -77.13175516666666, "is_reserved": 0}, {"bike_id": "d9b41ac35c2974b29a3a7cfd0f5ae877", "fusion_lon": 0.0, "type": "electric_scooter", "name": "d9b41ac35c2974b29a3a7cfd0f5ae877", "rental_uris": {"android": "https://dc.lft.to/lastmile_qr_scan", "ios": "https://dc.lft.to/lastmile_qr_scan"}, "fusion_lat": 0.0, "lat": 38.9295025, "is_disabled": 0, "lon": -77.03413266666666, "is_reserved": 0}, {"bike_id": "296130900dae6cf4e2477486836e8d63", "fusion_lon": 0.0, "type": "electric_scooter", "name": "296130900dae6cf4e2477486836e8d63", "rental_uris": {"android": "https://dc.lft.to/lastmile_qr_scan", "ios": "https://dc.lft.to/lastmile_qr_scan"}, "fusion_lat": 0.0, "lat": 38.89995733333333, "is_disabled": 0, "lon": -77.01710166666666, "is_reserved": 0}, {"bike_id": "8ec661314a2819803e6948c92fee3c98", "fusion_lon": 0.0, "type": "electric_scooter", "name": "8ec661314a2819803e6948c92fee3c98", "rental_uris": {"android": "https://dc.lft.to/lastmile_qr_scan", "ios": "https://dc.lft.to/lastmile_qr_scan"}, "fusion_lat": 0.0, "lat": 38.881879166666664, "is_disabled": 0, "lon": -77.00353416666667, "is_reserved": 0}, {"bike_id": "4da11152efe217a8f8a8b13602ddc873", "fusion_lon": 0.0, "type": "electric_scooter", "name": "4da11152efe217a8f8a8b13602ddc873", "rental_uris": {"android": "https://dc.lft.to/lastmile_qr_scan", "ios": "https://dc.lft.to/lastmile_qr_scan"}, "fusion_lat": 0.0, "lat": 38.9437185, "is_disabled": 0, "lon": -77.060956, "is_reserved": 0}, {"bike_id": "4ec12ccfa7bdc3a8e52544ec73996d52", "fusion_lon": 0.0, "type": "electric_scooter", "name": "4ec12ccfa7bdc3a8e52544ec73996d52", "rental_uris": {"android": "https://dc.lft.to/lastmile_qr_scan", "ios": "https://dc.lft.to/lastmile_qr_scan"}, "fusion_lat": 0.0, "lat": 38.89555133333333, "is_disabled": 0, "lon": -76.99154266666666, "is_reserved": 0}, {"bike_id": "5a32b5ef95abb1c01768db34880a55d4", "fusion_lon": 0.0, "type": "electric_scooter", "name": "5a32b5ef95abb1c01768db34880a55d4", "rental_uris": {"android": "https://dc.lft.to/lastmile_qr_scan", "ios": "https://dc.lft.to/lastmile_qr_scan"}, "fusion_lat": 0.0, "lat": 38.92233383333333, "is_disabled": 0, "lon": -77.04613583333334, "is_reserved": 0}, {"bike_id": "ff45d442c1f874cf274445b9cb860bd2", "fusion_lon": 0.0, "type": "electric_scooter", "name": "ff45d442c1f874cf274445b9cb860bd2", "rental_uris": {"android": "https://dc.lft.to/lastmile_qr_scan", "ios": "https://dc.lft.to/lastmile_qr_scan"}, "fusion_lat": 0.0, "lat": 38.90415866666667, "is_disabled": 0, "lon": -77.05006366666667, "is_reserved": 0}, {"bike_id": "a3e5fbb7d513854530c39a4f4cd5b06d", "fusion_lon": 0.0, "type": "electric_scooter", "name": "a3e5fbb7d513854530c39a4f4cd5b06d", "rental_uris": {"android": "https://dc.lft.to/lastmile_qr_scan", "ios": "https://dc.lft.to/lastmile_qr_scan"}, "fusion_lat": 0.0, "lat": 38.92441216666667, "is_disabled": 0, "lon": -77.0202795, "is_reserved": 0}, {"bike_id": "f95e0fecd3685be6e895bc5d785481da", "fusion_lon": 0.0, "type": "electric_scooter", "name": "f95e0fecd3685be6e895bc5d785481da", "rental_uris": {"android": "https://dc.lft.to/lastmile_qr_scan", "ios": "https://dc.lft.to/lastmile_qr_scan"}, "fusion_lat": 0.0, "lat": 38.864067, "is_disabled": 0, "lon": -76.9902755, "is_reserved": 0}, {"bike_id": "ce250d37b26d934ead9c8eb2d0188b41", "fusion_lon": 0.0, "type": "electric_scooter", "name": "ce250d37b26d934ead9c8eb2d0188b41", "rental_uris": {"android": "https://dc.lft.to/lastmile_qr_scan", "ios": "https://dc.lft.to/lastmile_qr_scan"}, "fusion_lat": 0.0, "lat": 38.881796666666666, "is_disabled": 0, "lon": -77.028096, "is_reserved": 0}, {"bike_id": "166860448ddd1dfe05261bd49fdec2b7", "fusion_lon": 0.0, "type": "electric_scooter", "name": "166860448ddd1dfe05261bd49fdec2b7", "rental_uris": {"android": "https://dc.lft.to/lastmile_qr_scan", "ios": "https://dc.lft.to/lastmile_qr_scan"}, "fusion_lat": 0.0, "lat": 38.89366966666667, "is_disabled": 0, "lon": -76.94963916666667, "is_reserved": 0}, {"bike_id": "fc7b6f71ca0d25da8a243fc9ccddd578", "fusion_lon": 0.0, "type": "electric_scooter", "name": "fc7b6f71ca0d25da8a243fc9ccddd578", "rental_uris": {"android": "https://dc.lft.to/lastmile_qr_scan", "ios": "https://dc.lft.to/lastmile_qr_scan"}, "fusion_lat": 0.0, "lat": 38.9343675, "is_disabled": 0, "lon": -77.05848883333333, "is_reserved": 0}, {"bike_id": "f6c85fc19aedced57861262f4fcce353", "fusion_lon": 0.0, "type": "electric_scooter", "name": "f6c85fc19aedced57861262f4fcce353", "rental_uris": {"android": "https://dc.lft.to/lastmile_qr_scan", "ios": "https://dc.lft.to/lastmile_qr_scan"}, "fusion_lat": 0.0, "lat": 38.884100333333336, "is_disabled": 0, "lon": -77.03056416666666, "is_reserved": 0}, {"bike_id": "35d957c06d2bb58b2c04177c2a892545", "fusion_lon": 0.0, "type": "electric_scooter", "name": "35d957c06d2bb58b2c04177c2a892545", "rental_uris": {"android": "https://dc.lft.to/lastmile_qr_scan", "ios": "https://dc.lft.to/lastmile_qr_scan"}, "fusion_lat": 0.0, "lat": 38.90373533333333, "is_disabled": 0, "lon": -77.06761783333333, "is_reserved": 0}, {"bike_id": "1874d89ebca3884bfe1e5ba740e95669", "fusion_lon": 0.0, "type": "electric_scooter", "name": "1874d89ebca3884bfe1e5ba740e95669", "rental_uris": {"android": "https://dc.lft.to/lastmile_qr_scan", "ios": "https://dc.lft.to/lastmile_qr_scan"}, "fusion_lat": 0.0, "lat": 38.912741, "is_disabled": 0, "lon": -77.03124216666667, "is_reserved": 0}, {"bike_id": "9e73842c7029a4ac4537d75df9acfe81", "fusion_lon": 0.0, "type": "electric_scooter", "name": "9e73842c7029a4ac4537d75df9acfe81", "rental_uris": {"android": "https://dc.lft.to/lastmile_qr_scan", "ios": "https://dc.lft.to/lastmile_qr_scan"}, "fusion_lat": 0.0, "lat": 38.92829066666667, "is_disabled": 0, "lon": -77.01413383333333, "is_reserved": 0}, {"bike_id": "ae68b9ad8ed6987981140e799fc04f30", "fusion_lon": 0.0, "type": "electric_scooter", "name": "ae68b9ad8ed6987981140e799fc04f30", "rental_uris": {"android": "https://dc.lft.to/lastmile_qr_scan", "ios": "https://dc.lft.to/lastmile_qr_scan"}, "fusion_lat": 0.0, "lat": 38.842923666666664, "is_disabled": 0, "lon": -76.99951683333333, "is_reserved": 0}, {"bike_id": "d3e61b8582f21323b8e7c657ef336b39", "fusion_lon": 0.0, "type": "electric_bike", "name": "d3e61b8582f21323b8e7c657ef336b39", "rental_uris": {"android": "https://dc.lft.to/lastmile_qr_scan", "ios": "https://dc.lft.to/lastmile_qr_scan"}, "fusion_lat": 0.0, "lat": 38.845159333333335, "is_disabled": 0, "lon": -77.07795333333334, "is_reserved": 0}, {"bike_id": "feb077a52f5cccd542e132cd3abbf8e7", "fusion_lon": 0.0, "type": "electric_scooter", "name": "feb077a52f5cccd542e132cd3abbf8e7", "rental_uris": {"android": "https://dc.lft.to/lastmile_qr_scan", "ios": "https://dc.lft.to/lastmile_qr_scan"}, "fusion_lat": 0.0, "lat": 38.887383666666665, "is_disabled": 0, "lon": -77.01534733333334, "is_reserved": 0}, {"bike_id": "52b4700dc4f3f0db00cb7e9720f41ae9", "fusion_lon": 0.0, "type": "electric_scooter", "name": "52b4700dc4f3f0db00cb7e9720f41ae9", "rental_uris": {"android": "https://dc.lft.to/lastmile_qr_scan", "ios": "https://dc.lft.to/lastmile_qr_scan"}, "fusion_lat": 0.0, "lat": 38.91778033333333, "is_disabled": 0, "lon": -77.023485, "is_reserved": 0}, {"bike_id": "401d4cae0a498f83ec14eccb04360a2e", "fusion_lon": 0.0, "type": "electric_scooter", "name": "401d4cae0a498f83ec14eccb04360a2e", "rental_uris": {"android": "https://dc.lft.to/lastmile_qr_scan", "ios": "https://dc.lft.to/lastmile_qr_scan"}, "fusion_lat": 0.0, "lat": 38.9279175, "is_disabled": 0, "lon": -77.03194333333333, "is_reserved": 0}, {"bike_id": "42a94abdc89caa3ff06742b4714cadee", "fusion_lon": 0.0, "type": "electric_scooter", "name": "42a94abdc89caa3ff06742b4714cadee", "rental_uris": {"android": "https://dc.lft.to/lastmile_qr_scan", "ios": "https://dc.lft.to/lastmile_qr_scan"}, "fusion_lat": 0.0, "lat": 38.862021, "is_disabled": 0, "lon": -76.99510233333334, "is_reserved": 0}, {"bike_id": "1afeacdfc8ba72c47812cf2de92fc459", "fusion_lon": 0.0, "type": "electric_scooter", "name": "1afeacdfc8ba72c47812cf2de92fc459", "rental_uris": {"android": "https://dc.lft.to/lastmile_qr_scan", "ios": "https://dc.lft.to/lastmile_qr_scan"}, "fusion_lat": 0.0, "lat": 38.879296333333336, "is_disabled": 0, "lon": -77.02155466666666, "is_reserved": 0}, {"bike_id": "f79d1fb63be305a109dfff0d2af90a2a", "fusion_lon": 0.0, "type": "electric_scooter", "name": "f79d1fb63be305a109dfff0d2af90a2a", "rental_uris": {"android": "https://dc.lft.to/lastmile_qr_scan", "ios": "https://dc.lft.to/lastmile_qr_scan"}, "fusion_lat": 0.0, "lat": 38.972358666666665, "is_disabled": 0, "lon": -77.027148, "is_reserved": 0}, {"bike_id": "9d3805af6998b3b7539440e743e9665b", "fusion_lon": 0.0, "type": "electric_scooter", "name": "9d3805af6998b3b7539440e743e9665b", "rental_uris": {"android": "https://dc.lft.to/lastmile_qr_scan", "ios": "https://dc.lft.to/lastmile_qr_scan"}, "fusion_lat": 0.0, "lat": 38.902545, "is_disabled": 0, "lon": -77.0204465, "is_reserved": 0}, {"bike_id": "92a61edf3049cb040b97e83ebb124b17", "fusion_lon": 0.0, "type": "electric_scooter", "name": "92a61edf3049cb040b97e83ebb124b17", "rental_uris": {"android": "https://dc.lft.to/lastmile_qr_scan", "ios": "https://dc.lft.to/lastmile_qr_scan"}, "fusion_lat": 0.0, "lat": 38.8635905, "is_disabled": 0, "lon": -76.99096633333333, "is_reserved": 0}, {"bike_id": "c30faed87301cee433497bad4a4f170e", "fusion_lon": 0.0, "type": "electric_scooter", "name": "c30faed87301cee433497bad4a4f170e", "rental_uris": {"android": "https://dc.lft.to/lastmile_qr_scan", "ios": "https://dc.lft.to/lastmile_qr_scan"}, "fusion_lat": 0.0, "lat": 38.900420833333335, "is_disabled": 0, "lon": -76.993579, "is_reserved": 0}, {"bike_id": "39e215586e2ee3a039f5a291bcb3002a", "fusion_lon": 0.0, "type": "electric_bike", "name": "39e215586e2ee3a039f5a291bcb3002a", "rental_uris": {"android": "https://dc.lft.to/lastmile_qr_scan", "ios": "https://dc.lft.to/lastmile_qr_scan"}, "fusion_lat": 0.0, "lat": 38.93668183333333, "is_disabled": 0, "lon": -76.952051, "is_reserved": 0}, {"bike_id": "7dc702e7fc48fac791da9e2da18cc04e", "fusion_lon": 0.0, "type": "electric_scooter", "name": "7dc702e7fc48fac791da9e2da18cc04e", "rental_uris": {"android": "https://dc.lft.to/lastmile_qr_scan", "ios": "https://dc.lft.to/lastmile_qr_scan"}, "fusion_lat": 0.0, "lat": 38.95707933333333, "is_disabled": 0, "lon": -77.024097, "is_reserved": 0}, {"bike_id": "332475223f1439dfd2a0b9a5c15fac6f", "fusion_lon": 0.0, "type": "electric_scooter", "name": "332475223f1439dfd2a0b9a5c15fac6f", "rental_uris": {"android": "https://dc.lft.to/lastmile_qr_scan", "ios": "https://dc.lft.to/lastmile_qr_scan"}, "fusion_lat": 0.0, "lat": 38.9299555, "is_disabled": 0, "lon": -77.03214133333333, "is_reserved": 0}, {"bike_id": "d71faadb588e3ffd1f4b8aaf4507f1bf", "fusion_lon": 0.0, "type": "electric_scooter", "name": "d71faadb588e3ffd1f4b8aaf4507f1bf", "rental_uris": {"android": "https://dc.lft.to/lastmile_qr_scan", "ios": "https://dc.lft.to/lastmile_qr_scan"}, "fusion_lat": 0.0, "lat": 38.887432, "is_disabled": 0, "lon": -77.0283245, "is_reserved": 0}, {"bike_id": "c1fe4057145000118d84ea0c6d71d988", "fusion_lon": 0.0, "type": "electric_scooter", "name": "c1fe4057145000118d84ea0c6d71d988", "rental_uris": {"android": "https://dc.lft.to/lastmile_qr_scan", "ios": "https://dc.lft.to/lastmile_qr_scan"}, "fusion_lat": 0.0, "lat": 38.8672545, "is_disabled": 0, "lon": -76.9872795, "is_reserved": 0}, {"bike_id": "365e3ce5093cd637da1857fc971e614e", "fusion_lon": 0.0, "type": "electric_scooter", "name": "365e3ce5093cd637da1857fc971e614e", "rental_uris": {"android": "https://dc.lft.to/lastmile_qr_scan", "ios": "https://dc.lft.to/lastmile_qr_scan"}, "fusion_lat": 0.0, "lat": 38.881127, "is_disabled": 0, "lon": -77.02639083333334, "is_reserved": 0}, {"bike_id": "39aef92dcb73aab51ad2db00cc760519", "fusion_lon": 0.0, "type": "electric_scooter", "name": "39aef92dcb73aab51ad2db00cc760519", "rental_uris": {"android": "https://dc.lft.to/lastmile_qr_scan", "ios": "https://dc.lft.to/lastmile_qr_scan"}, "fusion_lat": 0.0, "lat": 38.905109833333334, "is_disabled": 0, "lon": -77.04362266666666, "is_reserved": 0}, {"bike_id": "a812777e9950073280ac9772c310d1ce", "fusion_lon": 0.0, "type": "electric_scooter", "name": "a812777e9950073280ac9772c310d1ce", "rental_uris": {"android": "https://dc.lft.to/lastmile_qr_scan", "ios": "https://dc.lft.to/lastmile_qr_scan"}, "fusion_lat": 0.0, "lat": 38.89854533333333, "is_disabled": 0, "lon": -77.03308333333334, "is_reserved": 0}, {"bike_id": "6aaec66d48f7130057d91a956e745d6b", "fusion_lon": 0.0, "type": "electric_scooter", "name": "6aaec66d48f7130057d91a956e745d6b", "rental_uris": {"android": "https://dc.lft.to/lastmile_qr_scan", "ios": "https://dc.lft.to/lastmile_qr_scan"}, "fusion_lat": 0.0, "lat": 38.91111, "is_disabled": 0, "lon": -77.04230616666666, "is_reserved": 0}, {"bike_id": "3aae8ca8bf1607817bb5bfea24e16b11", "fusion_lon": 0.0, "type": "electric_scooter", "name": "3aae8ca8bf1607817bb5bfea24e16b11", "rental_uris": {"android": "https://dc.lft.to/lastmile_qr_scan", "ios": "https://dc.lft.to/lastmile_qr_scan"}, "fusion_lat": 0.0, "lat": 38.88028533333333, "is_disabled": 0, "lon": -76.98822883333334, "is_reserved": 0}, {"bike_id": "3b9ce56797175221b9822d7427ffaca2", "fusion_lon": 0.0, "type": "electric_scooter", "name": "3b9ce56797175221b9822d7427ffaca2", "rental_uris": {"android": "https://dc.lft.to/lastmile_qr_scan", "ios": "https://dc.lft.to/lastmile_qr_scan"}, "fusion_lat": 0.0, "lat": 38.899066, "is_disabled": 0, "lon": -77.02400433333334, "is_reserved": 0}, {"bike_id": "6be646a4af4b5cb79745fa75c2a36866", "fusion_lon": 0.0, "type": "electric_scooter", "name": "6be646a4af4b5cb79745fa75c2a36866", "rental_uris": {"android": "https://dc.lft.to/lastmile_qr_scan", "ios": "https://dc.lft.to/lastmile_qr_scan"}, "fusion_lat": 0.0, "lat": 38.90270266666667, "is_disabled": 0, "lon": -77.03467, "is_reserved": 0}, {"bike_id": "b3ee72aa88d612908337716f83192819", "fusion_lon": 0.0, "type": "electric_scooter", "name": "b3ee72aa88d612908337716f83192819", "rental_uris": {"android": "https://dc.lft.to/lastmile_qr_scan", "ios": "https://dc.lft.to/lastmile_qr_scan"}, "fusion_lat": 0.0, "lat": 38.899589166666665, "is_disabled": 0, "lon": -76.98449, "is_reserved": 0}, {"bike_id": "4dfa7c5a9e63baa99187a634e5e5672f", "fusion_lon": 0.0, "type": "electric_scooter", "name": "4dfa7c5a9e63baa99187a634e5e5672f", "rental_uris": {"android": "https://dc.lft.to/lastmile_qr_scan", "ios": "https://dc.lft.to/lastmile_qr_scan"}, "fusion_lat": 0.0, "lat": 38.9190315, "is_disabled": 0, "lon": -77.04180516666666, "is_reserved": 0}, {"bike_id": "0b2266514b98cf27b0fbda248ad1e5e9", "fusion_lon": 0.0, "type": "electric_scooter", "name": "0b2266514b98cf27b0fbda248ad1e5e9", "rental_uris": {"android": "https://dc.lft.to/lastmile_qr_scan", "ios": "https://dc.lft.to/lastmile_qr_scan"}, "fusion_lat": 0.0, "lat": 38.93080233333333, "is_disabled": 0, "lon": -77.0279345, "is_reserved": 0}, {"bike_id": "ea2030f847d4117cee46a3b208cb06b1", "fusion_lon": 0.0, "type": "electric_scooter", "name": "ea2030f847d4117cee46a3b208cb06b1", "rental_uris": {"android": "https://dc.lft.to/lastmile_qr_scan", "ios": "https://dc.lft.to/lastmile_qr_scan"}, "fusion_lat": 0.0, "lat": 38.90060483333333, "is_disabled": 0, "lon": -77.0291315, "is_reserved": 0}, {"bike_id": "f717a5ecf4bb9d0eb262b989691eb896", "fusion_lon": 0.0, "type": "electric_scooter", "name": "f717a5ecf4bb9d0eb262b989691eb896", "rental_uris": {"android": "https://dc.lft.to/lastmile_qr_scan", "ios": "https://dc.lft.to/lastmile_qr_scan"}, "fusion_lat": 0.0, "lat": 38.89850533333333, "is_disabled": 0, "lon": -77.03304316666667, "is_reserved": 0}, {"bike_id": "b77b3fe2a18215c8238e95ac18ff4ed5", "fusion_lon": 0.0, "type": "electric_scooter", "name": "b77b3fe2a18215c8238e95ac18ff4ed5", "rental_uris": {"android": "https://dc.lft.to/lastmile_qr_scan", "ios": "https://dc.lft.to/lastmile_qr_scan"}, "fusion_lat": 0.0, "lat": 38.92338, "is_disabled": 0, "lon": -77.03559316666667, "is_reserved": 0}, {"bike_id": "f82ecb6700ef3dd7470395fe67137549", "fusion_lon": 0.0, "type": "electric_scooter", "name": "f82ecb6700ef3dd7470395fe67137549", "rental_uris": {"android": "https://dc.lft.to/lastmile_qr_scan", "ios": "https://dc.lft.to/lastmile_qr_scan"}, "fusion_lat": 0.0, "lat": 38.91880916666667, "is_disabled": 0, "lon": -77.04711533333334, "is_reserved": 0}, {"bike_id": "f82705194c61287d556766c5331c3a01", "fusion_lon": 0.0, "type": "electric_scooter", "name": "f82705194c61287d556766c5331c3a01", "rental_uris": {"android": "https://dc.lft.to/lastmile_qr_scan", "ios": "https://dc.lft.to/lastmile_qr_scan"}, "fusion_lat": 0.0, "lat": 38.90393483333333, "is_disabled": 0, "lon": -76.99000366666667, "is_reserved": 0}, {"bike_id": "428644294d2b8c61ba496123a229d294", "fusion_lon": 0.0, "type": "electric_scooter", "name": "428644294d2b8c61ba496123a229d294", "rental_uris": {"android": "https://dc.lft.to/lastmile_qr_scan", "ios": "https://dc.lft.to/lastmile_qr_scan"}, "fusion_lat": 0.0, "lat": 38.90289833333333, "is_disabled": 0, "lon": -76.936543, "is_reserved": 0}, {"bike_id": "dd75d71506b4208c191a7856a1b89baa", "fusion_lon": 0.0, "type": "electric_bike", "name": "dd75d71506b4208c191a7856a1b89baa", "rental_uris": {"android": "https://dc.lft.to/lastmile_qr_scan", "ios": "https://dc.lft.to/lastmile_qr_scan"}, "fusion_lat": 0.0, "lat": 38.88822183333333, "is_disabled": 0, "lon": -77.1274465, "is_reserved": 0}, {"bike_id": "874fd35493e679b982411f5dc61ddfcb", "fusion_lon": 0.0, "type": "electric_scooter", "name": "874fd35493e679b982411f5dc61ddfcb", "rental_uris": {"android": "https://dc.lft.to/lastmile_qr_scan", "ios": "https://dc.lft.to/lastmile_qr_scan"}, "fusion_lat": 0.0, "lat": 38.914232166666665, "is_disabled": 0, "lon": -77.040192, "is_reserved": 0}, {"bike_id": "b360583893d21faacd8911668039c561", "fusion_lon": 0.0, "type": "electric_scooter", "name": "b360583893d21faacd8911668039c561", "rental_uris": {"android": "https://dc.lft.to/lastmile_qr_scan", "ios": "https://dc.lft.to/lastmile_qr_scan"}, "fusion_lat": 0.0, "lat": 38.887386166666666, "is_disabled": 0, "lon": -77.0239195, "is_reserved": 0}, {"bike_id": "20a7a1273b0bb4eb439202efdb6ebcf2", "fusion_lon": 0.0, "type": "electric_scooter", "name": "20a7a1273b0bb4eb439202efdb6ebcf2", "rental_uris": {"android": "https://dc.lft.to/lastmile_qr_scan", "ios": "https://dc.lft.to/lastmile_qr_scan"}, "fusion_lat": 0.0, "lat": 38.8556815, "is_disabled": 0, "lon": -76.98694816666666, "is_reserved": 0}, {"bike_id": "82b0307ed1585ad28e6fbb472e3b894a", "fusion_lon": 0.0, "type": "electric_scooter", "name": "82b0307ed1585ad28e6fbb472e3b894a", "rental_uris": {"android": "https://dc.lft.to/lastmile_qr_scan", "ios": "https://dc.lft.to/lastmile_qr_scan"}, "fusion_lat": 0.0, "lat": 38.910840666666665, "is_disabled": 0, "lon": -77.02191783333333, "is_reserved": 0}, {"bike_id": "ae2af10934f74f9175be3b56f4b29467", "fusion_lon": 0.0, "type": "electric_scooter", "name": "ae2af10934f74f9175be3b56f4b29467", "rental_uris": {"android": "https://dc.lft.to/lastmile_qr_scan", "ios": "https://dc.lft.to/lastmile_qr_scan"}, "fusion_lat": 0.0, "lat": 38.94226416666667, "is_disabled": 0, "lon": -77.0616045, "is_reserved": 0}, {"bike_id": "54d81d642e66cf13a4eb8997d8cbfb2a", "fusion_lon": 0.0, "type": "electric_scooter", "name": "54d81d642e66cf13a4eb8997d8cbfb2a", "rental_uris": {"android": "https://dc.lft.to/lastmile_qr_scan", "ios": "https://dc.lft.to/lastmile_qr_scan"}, "fusion_lat": 0.0, "lat": 38.898854666666665, "is_disabled": 0, "lon": -76.931595, "is_reserved": 0}, {"bike_id": "7fb005694907de92a9c58b789857a706", "fusion_lon": 0.0, "type": "electric_scooter", "name": "7fb005694907de92a9c58b789857a706", "rental_uris": {"android": "https://dc.lft.to/lastmile_qr_scan", "ios": "https://dc.lft.to/lastmile_qr_scan"}, "fusion_lat": 0.0, "lat": 38.911125, "is_disabled": 0, "lon": -77.038322, "is_reserved": 0}, {"bike_id": "964865f475a8cdc1174fd6da9e94243f", "fusion_lon": 0.0, "type": "electric_scooter", "name": "964865f475a8cdc1174fd6da9e94243f", "rental_uris": {"android": "https://dc.lft.to/lastmile_qr_scan", "ios": "https://dc.lft.to/lastmile_qr_scan"}, "fusion_lat": 0.0, "lat": 38.9240785, "is_disabled": 0, "lon": -77.02538716666666, "is_reserved": 0}, {"bike_id": "cd94277cec4de651126a739d3453419d", "fusion_lon": 0.0, "type": "electric_scooter", "name": "cd94277cec4de651126a739d3453419d", "rental_uris": {"android": "https://dc.lft.to/lastmile_qr_scan", "ios": "https://dc.lft.to/lastmile_qr_scan"}, "fusion_lat": 0.0, "lat": 38.9185335, "is_disabled": 0, "lon": -77.041848, "is_reserved": 0}, {"bike_id": "4a5070070447a902bffcde183cfd2268", "fusion_lon": 0.0, "type": "electric_scooter", "name": "4a5070070447a902bffcde183cfd2268", "rental_uris": {"android": "https://dc.lft.to/lastmile_qr_scan", "ios": "https://dc.lft.to/lastmile_qr_scan"}, "fusion_lat": 0.0, "lat": 38.911713, "is_disabled": 0, "lon": -76.98774783333333, "is_reserved": 0}, {"bike_id": "f197d4ab3f363c8b89a41b4363f4ab90", "fusion_lon": 0.0, "type": "electric_scooter", "name": "f197d4ab3f363c8b89a41b4363f4ab90", "rental_uris": {"android": "https://dc.lft.to/lastmile_qr_scan", "ios": "https://dc.lft.to/lastmile_qr_scan"}, "fusion_lat": 0.0, "lat": 38.903634333333336, "is_disabled": 0, "lon": -77.028796, "is_reserved": 0}, {"bike_id": "1b55fb57cfec47d3b26220b5e118b183", "fusion_lon": 0.0, "type": "electric_scooter", "name": "1b55fb57cfec47d3b26220b5e118b183", "rental_uris": {"android": "https://dc.lft.to/lastmile_qr_scan", "ios": "https://dc.lft.to/lastmile_qr_scan"}, "fusion_lat": 0.0, "lat": 38.90432833333333, "is_disabled": 0, "lon": -77.0466715, "is_reserved": 0}, {"bike_id": "e739ffeaa1bab206ecd0a3d6ebcda207", "fusion_lon": 0.0, "type": "electric_scooter", "name": "e739ffeaa1bab206ecd0a3d6ebcda207", "rental_uris": {"android": "https://dc.lft.to/lastmile_qr_scan", "ios": "https://dc.lft.to/lastmile_qr_scan"}, "fusion_lat": 0.0, "lat": 38.908004, "is_disabled": 0, "lon": -76.941201, "is_reserved": 0}, {"bike_id": "0c11e75b8589dfb3ed6e0937b767829d", "fusion_lon": 0.0, "type": "electric_scooter", "name": "0c11e75b8589dfb3ed6e0937b767829d", "rental_uris": {"android": "https://dc.lft.to/lastmile_qr_scan", "ios": "https://dc.lft.to/lastmile_qr_scan"}, "fusion_lat": 0.0, "lat": 38.898467333333336, "is_disabled": 0, "lon": -77.01777966666667, "is_reserved": 0}, {"bike_id": "852a1dfcf791865c213cbdb06698d942", "fusion_lon": 0.0, "type": "electric_scooter", "name": "852a1dfcf791865c213cbdb06698d942", "rental_uris": {"android": "https://dc.lft.to/lastmile_qr_scan", "ios": "https://dc.lft.to/lastmile_qr_scan"}, "fusion_lat": 0.0, "lat": 38.92333766666667, "is_disabled": 0, "lon": -77.04435266666667, "is_reserved": 0}, {"bike_id": "0a439a632e9e56c50c92093377584de7", "fusion_lon": 0.0, "type": "electric_scooter", "name": "0a439a632e9e56c50c92093377584de7", "rental_uris": {"android": "https://dc.lft.to/lastmile_qr_scan", "ios": "https://dc.lft.to/lastmile_qr_scan"}, "fusion_lat": 0.0, "lat": 38.90028783333333, "is_disabled": 0, "lon": -76.987795, "is_reserved": 0}, {"bike_id": "065605425b72fd58632ed80540b08e90", "fusion_lon": 0.0, "type": "electric_scooter", "name": "065605425b72fd58632ed80540b08e90", "rental_uris": {"android": "https://dc.lft.to/lastmile_qr_scan", "ios": "https://dc.lft.to/lastmile_qr_scan"}, "fusion_lat": 0.0, "lat": 38.904437, "is_disabled": 0, "lon": -76.97563966666667, "is_reserved": 0}, {"bike_id": "b7f461b413c34231f633658edf0d5b4b", "fusion_lon": 0.0, "type": "electric_scooter", "name": "b7f461b413c34231f633658edf0d5b4b", "rental_uris": {"android": "https://dc.lft.to/lastmile_qr_scan", "ios": "https://dc.lft.to/lastmile_qr_scan"}, "fusion_lat": 0.0, "lat": 38.8609855, "is_disabled": 0, "lon": -76.986035, "is_reserved": 0}, {"bike_id": "2c77cd420b5dde8c5488c9cf1fa6a777", "fusion_lon": 0.0, "type": "electric_scooter", "name": "2c77cd420b5dde8c5488c9cf1fa6a777", "rental_uris": {"android": "https://dc.lft.to/lastmile_qr_scan", "ios": "https://dc.lft.to/lastmile_qr_scan"}, "fusion_lat": 0.0, "lat": 38.900094, "is_disabled": 0, "lon": -77.00139133333333, "is_reserved": 0}, {"bike_id": "71f42d145e4cec30ea2fa11d6e937c96", "fusion_lon": 0.0, "type": "electric_scooter", "name": "71f42d145e4cec30ea2fa11d6e937c96", "rental_uris": {"android": "https://dc.lft.to/lastmile_qr_scan", "ios": "https://dc.lft.to/lastmile_qr_scan"}, "fusion_lat": 0.0, "lat": 38.892194, "is_disabled": 0, "lon": -77.02845, "is_reserved": 0}, {"bike_id": "753ca9c64338ce7c9d977d84595582bb", "fusion_lon": 0.0, "type": "electric_scooter", "name": "753ca9c64338ce7c9d977d84595582bb", "rental_uris": {"android": "https://dc.lft.to/lastmile_qr_scan", "ios": "https://dc.lft.to/lastmile_qr_scan"}, "fusion_lat": 0.0, "lat": 38.91665116666667, "is_disabled": 0, "lon": -76.98230533333333, "is_reserved": 0}, {"bike_id": "bc0aba585459194ff1375128ba356ee3", "fusion_lon": 0.0, "type": "electric_scooter", "name": "bc0aba585459194ff1375128ba356ee3", "rental_uris": {"android": "https://dc.lft.to/lastmile_qr_scan", "ios": "https://dc.lft.to/lastmile_qr_scan"}, "fusion_lat": 0.0, "lat": 38.9359475, "is_disabled": 0, "lon": -77.03808883333333, "is_reserved": 0}, {"bike_id": "8e1062387f5a714301e04cd84d7c2be2", "fusion_lon": 0.0, "type": "electric_scooter", "name": "8e1062387f5a714301e04cd84d7c2be2", "rental_uris": {"android": "https://dc.lft.to/lastmile_qr_scan", "ios": "https://dc.lft.to/lastmile_qr_scan"}, "fusion_lat": 0.0, "lat": 38.8624635, "is_disabled": 0, "lon": -76.99492166666667, "is_reserved": 0}, {"bike_id": "a3712e57642724eae102117a53d29c08", "fusion_lon": 0.0, "type": "electric_scooter", "name": "a3712e57642724eae102117a53d29c08", "rental_uris": {"android": "https://dc.lft.to/lastmile_qr_scan", "ios": "https://dc.lft.to/lastmile_qr_scan"}, "fusion_lat": 0.0, "lat": 38.922368, "is_disabled": 0, "lon": -77.03528133333333, "is_reserved": 0}, {"bike_id": "6edd075d415ee2c118661da60f3e241d", "fusion_lon": 0.0, "type": "electric_bike", "name": "6edd075d415ee2c118661da60f3e241d", "rental_uris": {"android": "https://dc.lft.to/lastmile_qr_scan", "ios": "https://dc.lft.to/lastmile_qr_scan"}, "fusion_lat": 0.0, "lat": 38.91938416666667, "is_disabled": 0, "lon": -76.97501333333334, "is_reserved": 0}, {"bike_id": "07efaa02703f09184c5f12de4113fd59", "fusion_lon": 0.0, "type": "electric_scooter", "name": "07efaa02703f09184c5f12de4113fd59", "rental_uris": {"android": "https://dc.lft.to/lastmile_qr_scan", "ios": "https://dc.lft.to/lastmile_qr_scan"}, "fusion_lat": 0.0, "lat": 38.919272666666664, "is_disabled": 0, "lon": -77.04593566666667, "is_reserved": 0}, {"bike_id": "0925c762357fe2dcfc3ce64d5ea9c667", "fusion_lon": 0.0, "type": "electric_bike", "name": "0925c762357fe2dcfc3ce64d5ea9c667", "rental_uris": {"android": "https://dc.lft.to/lastmile_qr_scan", "ios": "https://dc.lft.to/lastmile_qr_scan"}, "fusion_lat": 0.0, "lat": 38.808452333333335, "is_disabled": 0, "lon": -77.08367033333333, "is_reserved": 0}, {"bike_id": "e70f3d1360060259e8e04803966b94b8", "fusion_lon": 0.0, "type": "electric_scooter", "name": "e70f3d1360060259e8e04803966b94b8", "rental_uris": {"android": "https://dc.lft.to/lastmile_qr_scan", "ios": "https://dc.lft.to/lastmile_qr_scan"}, "fusion_lat": 0.0, "lat": 38.915583833333336, "is_disabled": 0, "lon": -77.03836166666666, "is_reserved": 0}, {"bike_id": "fef556d86bf43d9e78adce22f3eda112", "fusion_lon": 0.0, "type": "electric_bike", "name": "fef556d86bf43d9e78adce22f3eda112", "rental_uris": {"android": "https://dc.lft.to/lastmile_qr_scan", "ios": "https://dc.lft.to/lastmile_qr_scan"}, "fusion_lat": 0.0, "lat": 38.846042833333335, "is_disabled": 0, "lon": -76.96876233333333, "is_reserved": 0}, {"bike_id": "9d9dc0ee04b42e9aa3f27e8aba419f88", "fusion_lon": 0.0, "type": "electric_scooter", "name": "9d9dc0ee04b42e9aa3f27e8aba419f88", "rental_uris": {"android": "https://dc.lft.to/lastmile_qr_scan", "ios": "https://dc.lft.to/lastmile_qr_scan"}, "fusion_lat": 0.0, "lat": 38.92421733333333, "is_disabled": 0, "lon": -77.03635266666667, "is_reserved": 0}, {"bike_id": "6b86a6fc90d1cc098d710f55d0ba20c2", "fusion_lon": 0.0, "type": "electric_bike", "name": "6b86a6fc90d1cc098d710f55d0ba20c2", "rental_uris": {"android": "https://dc.lft.to/lastmile_qr_scan", "ios": "https://dc.lft.to/lastmile_qr_scan"}, "fusion_lat": 0.0, "lat": 38.84481066666667, "is_disabled": 0, "lon": -76.97223583333333, "is_reserved": 0}, {"bike_id": "d2afec8eb11e91036e7098c27550a65d", "fusion_lon": 0.0, "type": "electric_bike", "name": "d2afec8eb11e91036e7098c27550a65d", "rental_uris": {"android": "https://dc.lft.to/lastmile_qr_scan", "ios": "https://dc.lft.to/lastmile_qr_scan"}, "fusion_lat": 0.0, "lat": 38.922228, "is_disabled": 0, "lon": -77.02238233333334, "is_reserved": 0}, {"bike_id": "f665b0389047356c2cd934fd31fa0d99", "fusion_lon": 0.0, "type": "electric_scooter", "name": "f665b0389047356c2cd934fd31fa0d99", "rental_uris": {"android": "https://dc.lft.to/lastmile_qr_scan", "ios": "https://dc.lft.to/lastmile_qr_scan"}, "fusion_lat": 0.0, "lat": 38.924104, "is_disabled": 0, "lon": -77.0200735, "is_reserved": 0}, {"bike_id": "e6628544822cae9c127ef042b73ca5d4", "fusion_lon": 0.0, "type": "electric_scooter", "name": "e6628544822cae9c127ef042b73ca5d4", "rental_uris": {"android": "https://dc.lft.to/lastmile_qr_scan", "ios": "https://dc.lft.to/lastmile_qr_scan"}, "fusion_lat": 0.0, "lat": 38.959705166666666, "is_disabled": 0, "lon": -77.007316, "is_reserved": 0}, {"bike_id": "eac8be3554036ccbcb33848a08bd8c5d", "fusion_lon": 0.0, "type": "electric_scooter", "name": "eac8be3554036ccbcb33848a08bd8c5d", "rental_uris": {"android": "https://dc.lft.to/lastmile_qr_scan", "ios": "https://dc.lft.to/lastmile_qr_scan"}, "fusion_lat": 0.0, "lat": 38.909472666666666, "is_disabled": 0, "lon": -77.03183466666667, "is_reserved": 0}, {"bike_id": "1253e083d175471e621b04debb366936", "fusion_lon": 0.0, "type": "electric_scooter", "name": "1253e083d175471e621b04debb366936", "rental_uris": {"android": "https://dc.lft.to/lastmile_qr_scan", "ios": "https://dc.lft.to/lastmile_qr_scan"}, "fusion_lat": 0.0, "lat": 38.949702333333335, "is_disabled": 0, "lon": -77.0676515, "is_reserved": 0}, {"bike_id": "0ea9340067ea9553c16a2a72f8fa1268", "fusion_lon": 0.0, "type": "electric_scooter", "name": "0ea9340067ea9553c16a2a72f8fa1268", "rental_uris": {"android": "https://dc.lft.to/lastmile_qr_scan", "ios": "https://dc.lft.to/lastmile_qr_scan"}, "fusion_lat": 0.0, "lat": 38.90852816666667, "is_disabled": 0, "lon": -77.023816, "is_reserved": 0}, {"bike_id": "a5005a88c3f745e001ec9dd3a4970354", "fusion_lon": 0.0, "type": "electric_scooter", "name": "a5005a88c3f745e001ec9dd3a4970354", "rental_uris": {"android": "https://dc.lft.to/lastmile_qr_scan", "ios": "https://dc.lft.to/lastmile_qr_scan"}, "fusion_lat": 0.0, "lat": 38.87636466666667, "is_disabled": 0, "lon": -77.003405, "is_reserved": 0}, {"bike_id": "2f5ecb6cd3e98f1d56bbff3c303f6ed6", "fusion_lon": 0.0, "type": "electric_scooter", "name": "2f5ecb6cd3e98f1d56bbff3c303f6ed6", "rental_uris": {"android": "https://dc.lft.to/lastmile_qr_scan", "ios": "https://dc.lft.to/lastmile_qr_scan"}, "fusion_lat": 0.0, "lat": 38.898929, "is_disabled": 0, "lon": -76.97846, "is_reserved": 0}, {"bike_id": "f76192bfde445e10e8dc60906db52ba3", "fusion_lon": 0.0, "type": "electric_bike", "name": "f76192bfde445e10e8dc60906db52ba3", "rental_uris": {"android": "https://dc.lft.to/lastmile_qr_scan", "ios": "https://dc.lft.to/lastmile_qr_scan"}, "fusion_lat": 0.0, "lat": 38.99964883333333, "is_disabled": 0, "lon": -77.05121366666667, "is_reserved": 0}, {"bike_id": "8850578a2462f4c5ea180421a42fbd65", "fusion_lon": 0.0, "type": "electric_scooter", "name": "8850578a2462f4c5ea180421a42fbd65", "rental_uris": {"android": "https://dc.lft.to/lastmile_qr_scan", "ios": "https://dc.lft.to/lastmile_qr_scan"}, "fusion_lat": 0.0, "lat": 38.917893, "is_disabled": 0, "lon": -76.97342216666667, "is_reserved": 0}, {"bike_id": "8a7fcfe9f68d9861b5dd000ccb754678", "fusion_lon": 0.0, "type": "electric_bike", "name": "8a7fcfe9f68d9861b5dd000ccb754678", "rental_uris": {"android": "https://dc.lft.to/lastmile_qr_scan", "ios": "https://dc.lft.to/lastmile_qr_scan"}, "fusion_lat": 0.0, "lat": 39.115166, "is_disabled": 0, "lon": -77.19543383333334, "is_reserved": 0}, {"bike_id": "c1e3a24c358a2d9eaeae930b48269870", "fusion_lon": 0.0, "type": "electric_bike", "name": "c1e3a24c358a2d9eaeae930b48269870", "rental_uris": {"android": "https://dc.lft.to/lastmile_qr_scan", "ios": "https://dc.lft.to/lastmile_qr_scan"}, "fusion_lat": 0.0, "lat": 38.96604816666667, "is_disabled": 0, "lon": -76.983281, "is_reserved": 0}, {"bike_id": "eb17fca30ed88e086271a1ac3adbfeba", "fusion_lon": 0.0, "type": "electric_scooter", "name": "eb17fca30ed88e086271a1ac3adbfeba", "rental_uris": {"android": "https://dc.lft.to/lastmile_qr_scan", "ios": "https://dc.lft.to/lastmile_qr_scan"}, "fusion_lat": 0.0, "lat": 38.93691166666667, "is_disabled": 0, "lon": -77.03280366666667, "is_reserved": 0}, {"bike_id": "188675c28649ba1356b10b7e745db983", "fusion_lon": 0.0, "type": "electric_scooter", "name": "188675c28649ba1356b10b7e745db983", "rental_uris": {"android": "https://dc.lft.to/lastmile_qr_scan", "ios": "https://dc.lft.to/lastmile_qr_scan"}, "fusion_lat": 0.0, "lat": 38.904765833333336, "is_disabled": 0, "lon": -76.9960945, "is_reserved": 0}, {"bike_id": "34a0e05fcd064083d741602066e314d8", "fusion_lon": 0.0, "type": "electric_bike", "name": "34a0e05fcd064083d741602066e314d8", "rental_uris": {"android": "https://dc.lft.to/lastmile_qr_scan", "ios": "https://dc.lft.to/lastmile_qr_scan"}, "fusion_lat": 0.0, "lat": 38.91812183333333, "is_disabled": 0, "lon": -77.101842, "is_reserved": 0}, {"bike_id": "50b5e5859a1ceed14e06cc89949e19c9", "fusion_lon": 0.0, "type": "electric_scooter", "name": "50b5e5859a1ceed14e06cc89949e19c9", "rental_uris": {"android": "https://dc.lft.to/lastmile_qr_scan", "ios": "https://dc.lft.to/lastmile_qr_scan"}, "fusion_lat": 0.0, "lat": 38.898435666666664, "is_disabled": 0, "lon": -77.03335666666666, "is_reserved": 0}, {"bike_id": "75083c91fa24787cffb202817fea38c1", "fusion_lon": 0.0, "type": "electric_scooter", "name": "75083c91fa24787cffb202817fea38c1", "rental_uris": {"android": "https://dc.lft.to/lastmile_qr_scan", "ios": "https://dc.lft.to/lastmile_qr_scan"}, "fusion_lat": 0.0, "lat": 38.88723266666667, "is_disabled": 0, "lon": -77.02209633333334, "is_reserved": 0}, {"bike_id": "3c61e42f376397e54f140ac3180777f3", "fusion_lon": 0.0, "type": "electric_bike", "name": "3c61e42f376397e54f140ac3180777f3", "rental_uris": {"android": "https://dc.lft.to/lastmile_qr_scan", "ios": "https://dc.lft.to/lastmile_qr_scan"}, "fusion_lat": 0.0, "lat": 38.8966985, "is_disabled": 0, "lon": -76.981208, "is_reserved": 0}, {"bike_id": "f72e8304b8e10b2daad8c8b71880a88d", "fusion_lon": 0.0, "type": "electric_scooter", "name": "f72e8304b8e10b2daad8c8b71880a88d", "rental_uris": {"android": "https://dc.lft.to/lastmile_qr_scan", "ios": "https://dc.lft.to/lastmile_qr_scan"}, "fusion_lat": 0.0, "lat": 38.8850515, "is_disabled": 0, "lon": -77.00617966666667, "is_reserved": 0}, {"bike_id": "bfbaf15d69e7bd68ad73a0f36f9cd8ec", "fusion_lon": 0.0, "type": "electric_scooter", "name": "bfbaf15d69e7bd68ad73a0f36f9cd8ec", "rental_uris": {"android": "https://dc.lft.to/lastmile_qr_scan", "ios": "https://dc.lft.to/lastmile_qr_scan"}, "fusion_lat": 0.0, "lat": 38.91819233333333, "is_disabled": 0, "lon": -77.04014516666666, "is_reserved": 0}, {"bike_id": "2e2ca6a51833c90dcc841eed56c65b81", "fusion_lon": 0.0, "type": "electric_bike", "name": "2e2ca6a51833c90dcc841eed56c65b81", "rental_uris": {"android": "https://dc.lft.to/lastmile_qr_scan", "ios": "https://dc.lft.to/lastmile_qr_scan"}, "fusion_lat": 0.0, "lat": 38.812243, "is_disabled": 0, "lon": -77.11233483333334, "is_reserved": 0}, {"bike_id": "48296b4b86d1746646a7834774ebb9a2", "fusion_lon": 0.0, "type": "electric_scooter", "name": "48296b4b86d1746646a7834774ebb9a2", "rental_uris": {"android": "https://dc.lft.to/lastmile_qr_scan", "ios": "https://dc.lft.to/lastmile_qr_scan"}, "fusion_lat": 0.0, "lat": 38.95848433333333, "is_disabled": 0, "lon": -77.02904666666667, "is_reserved": 0}, {"bike_id": "e3090c3260fcf889b85547d62bcd72d1", "fusion_lon": 0.0, "type": "electric_scooter", "name": "e3090c3260fcf889b85547d62bcd72d1", "rental_uris": {"android": "https://dc.lft.to/lastmile_qr_scan", "ios": "https://dc.lft.to/lastmile_qr_scan"}, "fusion_lat": 0.0, "lat": 38.88469683333334, "is_disabled": 0, "lon": -77.02340016666666, "is_reserved": 0}, {"bike_id": "88bff95cbea2c1a065dff66df9cc6611", "fusion_lon": 0.0, "type": "electric_bike", "name": "88bff95cbea2c1a065dff66df9cc6611", "rental_uris": {"android": "https://dc.lft.to/lastmile_qr_scan", "ios": "https://dc.lft.to/lastmile_qr_scan"}, "fusion_lat": 0.0, "lat": 38.90971233333333, "is_disabled": 0, "lon": -77.088258, "is_reserved": 0}, {"bike_id": "4980ff37e27bc9bc2d38bceb731f7b73", "fusion_lon": 0.0, "type": "electric_scooter", "name": "4980ff37e27bc9bc2d38bceb731f7b73", "rental_uris": {"android": "https://dc.lft.to/lastmile_qr_scan", "ios": "https://dc.lft.to/lastmile_qr_scan"}, "fusion_lat": 0.0, "lat": 38.86717516666667, "is_disabled": 0, "lon": -76.98733316666667, "is_reserved": 0}, {"bike_id": "adeaa87af89e70f9bb75f5537c2d0308", "fusion_lon": 0.0, "type": "electric_scooter", "name": "adeaa87af89e70f9bb75f5537c2d0308", "rental_uris": {"android": "https://dc.lft.to/lastmile_qr_scan", "ios": "https://dc.lft.to/lastmile_qr_scan"}, "fusion_lat": 0.0, "lat": 38.93715816666667, "is_disabled": 0, "lon": -77.0246695, "is_reserved": 0}, {"bike_id": "8caedad6fbb69611c157fa2fc8156677", "fusion_lon": 0.0, "type": "electric_scooter", "name": "8caedad6fbb69611c157fa2fc8156677", "rental_uris": {"android": "https://dc.lft.to/lastmile_qr_scan", "ios": "https://dc.lft.to/lastmile_qr_scan"}, "fusion_lat": 0.0, "lat": 38.923944, "is_disabled": 0, "lon": -77.04093816666666, "is_reserved": 0}, {"bike_id": "e38ab41b82df0f4446d32a7ecfaa1756", "fusion_lon": 0.0, "type": "electric_scooter", "name": "e38ab41b82df0f4446d32a7ecfaa1756", "rental_uris": {"android": "https://dc.lft.to/lastmile_qr_scan", "ios": "https://dc.lft.to/lastmile_qr_scan"}, "fusion_lat": 0.0, "lat": 38.89994016666667, "is_disabled": 0, "lon": -77.0197585, "is_reserved": 0}, {"bike_id": "e56d703c3112ed20b8b252ec1ffc6628", "fusion_lon": 0.0, "type": "electric_scooter", "name": "e56d703c3112ed20b8b252ec1ffc6628", "rental_uris": {"android": "https://dc.lft.to/lastmile_qr_scan", "ios": "https://dc.lft.to/lastmile_qr_scan"}, "fusion_lat": 0.0, "lat": 38.902652, "is_disabled": 0, "lon": -77.03225683333334, "is_reserved": 0}, {"bike_id": "bcd373cc58c554520c22578fd41bc7b8", "fusion_lon": 0.0, "type": "electric_scooter", "name": "bcd373cc58c554520c22578fd41bc7b8", "rental_uris": {"android": "https://dc.lft.to/lastmile_qr_scan", "ios": "https://dc.lft.to/lastmile_qr_scan"}, "fusion_lat": 0.0, "lat": 38.9094825, "is_disabled": 0, "lon": -77.03218383333333, "is_reserved": 0}, {"bike_id": "521dd772bb3d2547a51e765afb261b83", "fusion_lon": 0.0, "type": "electric_scooter", "name": "521dd772bb3d2547a51e765afb261b83", "rental_uris": {"android": "https://dc.lft.to/lastmile_qr_scan", "ios": "https://dc.lft.to/lastmile_qr_scan"}, "fusion_lat": 0.0, "lat": 38.91496083333333, "is_disabled": 0, "lon": -77.01205066666667, "is_reserved": 0}, {"bike_id": "8456e1dbf452ac9afda5965f01003e86", "fusion_lon": 0.0, "type": "electric_scooter", "name": "8456e1dbf452ac9afda5965f01003e86", "rental_uris": {"android": "https://dc.lft.to/lastmile_qr_scan", "ios": "https://dc.lft.to/lastmile_qr_scan"}, "fusion_lat": 0.0, "lat": 38.8961885, "is_disabled": 0, "lon": -76.999347, "is_reserved": 0}, {"bike_id": "99a086ccdbe39e16082ce25bd0b07165", "fusion_lon": 0.0, "type": "electric_bike", "name": "99a086ccdbe39e16082ce25bd0b07165", "rental_uris": {"android": "https://dc.lft.to/lastmile_qr_scan", "ios": "https://dc.lft.to/lastmile_qr_scan"}, "fusion_lat": 0.0, "lat": 39.0242025, "is_disabled": 0, "lon": -77.12503666666667, "is_reserved": 0}, {"bike_id": "170689bcb00fed15f132acf74ac60702", "fusion_lon": 0.0, "type": "electric_scooter", "name": "170689bcb00fed15f132acf74ac60702", "rental_uris": {"android": "https://dc.lft.to/lastmile_qr_scan", "ios": "https://dc.lft.to/lastmile_qr_scan"}, "fusion_lat": 0.0, "lat": 38.92224066666667, "is_disabled": 0, "lon": -77.04333066666666, "is_reserved": 0}, {"bike_id": "2078e01e5685f38c316eca0226f078ff", "fusion_lon": 0.0, "type": "electric_scooter", "name": "2078e01e5685f38c316eca0226f078ff", "rental_uris": {"android": "https://dc.lft.to/lastmile_qr_scan", "ios": "https://dc.lft.to/lastmile_qr_scan"}, "fusion_lat": 0.0, "lat": 38.962059333333336, "is_disabled": 0, "lon": -77.0234315, "is_reserved": 0}, {"bike_id": "2ad80f04b342bcb33dae18483ab68ecf", "fusion_lon": 0.0, "type": "electric_scooter", "name": "2ad80f04b342bcb33dae18483ab68ecf", "rental_uris": {"android": "https://dc.lft.to/lastmile_qr_scan", "ios": "https://dc.lft.to/lastmile_qr_scan"}, "fusion_lat": 0.0, "lat": 38.9328655, "is_disabled": 0, "lon": -77.03619216666667, "is_reserved": 0}, {"bike_id": "15e80da0ae119b45a2fcb06d36af89c5", "fusion_lon": 0.0, "type": "electric_scooter", "name": "15e80da0ae119b45a2fcb06d36af89c5", "rental_uris": {"android": "https://dc.lft.to/lastmile_qr_scan", "ios": "https://dc.lft.to/lastmile_qr_scan"}, "fusion_lat": 0.0, "lat": 38.90450233333333, "is_disabled": 0, "lon": -77.01999233333333, "is_reserved": 0}, {"bike_id": "8868d44f6d0265a5175b43a7285a1d31", "fusion_lon": 0.0, "type": "electric_scooter", "name": "8868d44f6d0265a5175b43a7285a1d31", "rental_uris": {"android": "https://dc.lft.to/lastmile_qr_scan", "ios": "https://dc.lft.to/lastmile_qr_scan"}, "fusion_lat": 0.0, "lat": 38.923813833333334, "is_disabled": 0, "lon": -77.03052433333333, "is_reserved": 0}, {"bike_id": "ade8178e29d4271e632246072e940791", "fusion_lon": 0.0, "type": "electric_scooter", "name": "ade8178e29d4271e632246072e940791", "rental_uris": {"android": "https://dc.lft.to/lastmile_qr_scan", "ios": "https://dc.lft.to/lastmile_qr_scan"}, "fusion_lat": 0.0, "lat": 38.899836, "is_disabled": 0, "lon": -77.02475483333333, "is_reserved": 0}, {"bike_id": "20ea9356614f99441e5c55597bc47aff", "fusion_lon": 0.0, "type": "electric_scooter", "name": "20ea9356614f99441e5c55597bc47aff", "rental_uris": {"android": "https://dc.lft.to/lastmile_qr_scan", "ios": "https://dc.lft.to/lastmile_qr_scan"}, "fusion_lat": 0.0, "lat": 38.90379216666667, "is_disabled": 0, "lon": -77.04369766666667, "is_reserved": 0}, {"bike_id": "f06692f0d0761b3636cbb7a775478e03", "fusion_lon": 0.0, "type": "electric_scooter", "name": "f06692f0d0761b3636cbb7a775478e03", "rental_uris": {"android": "https://dc.lft.to/lastmile_qr_scan", "ios": "https://dc.lft.to/lastmile_qr_scan"}, "fusion_lat": 0.0, "lat": 38.90378033333333, "is_disabled": 0, "lon": -77.035194, "is_reserved": 0}, {"bike_id": "280d88b2f0b5ecdcd8e7b6a36c52ffee", "fusion_lon": 0.0, "type": "electric_scooter", "name": "280d88b2f0b5ecdcd8e7b6a36c52ffee", "rental_uris": {"android": "https://dc.lft.to/lastmile_qr_scan", "ios": "https://dc.lft.to/lastmile_qr_scan"}, "fusion_lat": 0.0, "lat": 38.919711, "is_disabled": 0, "lon": -77.0710785, "is_reserved": 0}, {"bike_id": "2de778df7952d33a93995edca9df9406", "fusion_lon": 0.0, "type": "electric_scooter", "name": "2de778df7952d33a93995edca9df9406", "rental_uris": {"android": "https://dc.lft.to/lastmile_qr_scan", "ios": "https://dc.lft.to/lastmile_qr_scan"}, "fusion_lat": 0.0, "lat": 38.915670666666664, "is_disabled": 0, "lon": -77.00595383333334, "is_reserved": 0}, {"bike_id": "121031b8866daa33322414243ade4cbb", "fusion_lon": 0.0, "type": "electric_scooter", "name": "121031b8866daa33322414243ade4cbb", "rental_uris": {"android": "https://dc.lft.to/lastmile_qr_scan", "ios": "https://dc.lft.to/lastmile_qr_scan"}, "fusion_lat": 0.0, "lat": 38.931029833333334, "is_disabled": 0, "lon": -77.02411616666667, "is_reserved": 0}, {"bike_id": "faf6c6e2a67fcdcbefa87e5b4391e472", "fusion_lon": 0.0, "type": "electric_scooter", "name": "faf6c6e2a67fcdcbefa87e5b4391e472", "rental_uris": {"android": "https://dc.lft.to/lastmile_qr_scan", "ios": "https://dc.lft.to/lastmile_qr_scan"}, "fusion_lat": 0.0, "lat": 38.916255166666666, "is_disabled": 0, "lon": -77.0362895, "is_reserved": 0}, {"bike_id": "99f9b1cc14cad8e821026c8232654c90", "fusion_lon": 0.0, "type": "electric_scooter", "name": "99f9b1cc14cad8e821026c8232654c90", "rental_uris": {"android": "https://dc.lft.to/lastmile_qr_scan", "ios": "https://dc.lft.to/lastmile_qr_scan"}, "fusion_lat": 0.0, "lat": 38.90007033333333, "is_disabled": 0, "lon": -77.04497133333334, "is_reserved": 0}, {"bike_id": "67f709bdec28720cd71285e783753501", "fusion_lon": 0.0, "type": "electric_scooter", "name": "67f709bdec28720cd71285e783753501", "rental_uris": {"android": "https://dc.lft.to/lastmile_qr_scan", "ios": "https://dc.lft.to/lastmile_qr_scan"}, "fusion_lat": 0.0, "lat": 38.86484033333333, "is_disabled": 0, "lon": -76.9836455, "is_reserved": 0}, {"bike_id": "6557363a1db712a5826d50da1c998909", "fusion_lon": 0.0, "type": "electric_scooter", "name": "6557363a1db712a5826d50da1c998909", "rental_uris": {"android": "https://dc.lft.to/lastmile_qr_scan", "ios": "https://dc.lft.to/lastmile_qr_scan"}, "fusion_lat": 0.0, "lat": 38.92287283333334, "is_disabled": 0, "lon": -77.02968883333334, "is_reserved": 0}, {"bike_id": "b2593442442c30aa937ea2c1c3d8bdb5", "fusion_lon": 0.0, "type": "electric_bike", "name": "b2593442442c30aa937ea2c1c3d8bdb5", "rental_uris": {"android": "https://dc.lft.to/lastmile_qr_scan", "ios": "https://dc.lft.to/lastmile_qr_scan"}, "fusion_lat": 0.0, "lat": 38.852446, "is_disabled": 0, "lon": -77.11432233333333, "is_reserved": 0}, {"bike_id": "85886f010f70359d1eb2af05b351ae7c", "fusion_lon": 0.0, "type": "electric_scooter", "name": "85886f010f70359d1eb2af05b351ae7c", "rental_uris": {"android": "https://dc.lft.to/lastmile_qr_scan", "ios": "https://dc.lft.to/lastmile_qr_scan"}, "fusion_lat": 0.0, "lat": 38.923776333333336, "is_disabled": 0, "lon": -77.04037116666667, "is_reserved": 0}, {"bike_id": "5bd767c4a0f523812c2428c48766fdf8", "fusion_lon": 0.0, "type": "electric_scooter", "name": "5bd767c4a0f523812c2428c48766fdf8", "rental_uris": {"android": "https://dc.lft.to/lastmile_qr_scan", "ios": "https://dc.lft.to/lastmile_qr_scan"}, "fusion_lat": 0.0, "lat": 38.92513966666667, "is_disabled": 0, "lon": -77.0522545, "is_reserved": 0}, {"bike_id": "d24b48675a5703a30ec7fe10073dbeee", "fusion_lon": 0.0, "type": "electric_scooter", "name": "d24b48675a5703a30ec7fe10073dbeee", "rental_uris": {"android": "https://dc.lft.to/lastmile_qr_scan", "ios": "https://dc.lft.to/lastmile_qr_scan"}, "fusion_lat": 0.0, "lat": 38.892003, "is_disabled": 0, "lon": -77.0155205, "is_reserved": 0}, {"bike_id": "23b0387f376664aaeb463214840e757d", "fusion_lon": 0.0, "type": "electric_scooter", "name": "23b0387f376664aaeb463214840e757d", "rental_uris": {"android": "https://dc.lft.to/lastmile_qr_scan", "ios": "https://dc.lft.to/lastmile_qr_scan"}, "fusion_lat": 0.0, "lat": 38.897033, "is_disabled": 0, "lon": -77.0231185, "is_reserved": 0}, {"bike_id": "7f5ae35ed4e0b510dc9dceaa828e1051", "fusion_lon": 0.0, "type": "electric_scooter", "name": "7f5ae35ed4e0b510dc9dceaa828e1051", "rental_uris": {"android": "https://dc.lft.to/lastmile_qr_scan", "ios": "https://dc.lft.to/lastmile_qr_scan"}, "fusion_lat": 0.0, "lat": 38.89220133333333, "is_disabled": 0, "lon": -77.03223966666667, "is_reserved": 0}, {"bike_id": "72b4019c204f774a9f9db018cbea53d5", "fusion_lon": 0.0, "type": "electric_scooter", "name": "72b4019c204f774a9f9db018cbea53d5", "rental_uris": {"android": "https://dc.lft.to/lastmile_qr_scan", "ios": "https://dc.lft.to/lastmile_qr_scan"}, "fusion_lat": 0.0, "lat": 38.9044995, "is_disabled": 0, "lon": -77.06114033333333, "is_reserved": 0}, {"bike_id": "89e54f0e19621789dbda369ca0613733", "fusion_lon": 0.0, "type": "electric_scooter", "name": "89e54f0e19621789dbda369ca0613733", "rental_uris": {"android": "https://dc.lft.to/lastmile_qr_scan", "ios": "https://dc.lft.to/lastmile_qr_scan"}, "fusion_lat": 0.0, "lat": 38.919943, "is_disabled": 0, "lon": -76.973041, "is_reserved": 0}, {"bike_id": "e38e977dc29c4329c055a298547f328b", "fusion_lon": 0.0, "type": "electric_bike", "name": "e38e977dc29c4329c055a298547f328b", "rental_uris": {"android": "https://dc.lft.to/lastmile_qr_scan", "ios": "https://dc.lft.to/lastmile_qr_scan"}, "fusion_lat": 0.0, "lat": 38.86620683333334, "is_disabled": 0, "lon": -76.94572433333333, "is_reserved": 0}, {"bike_id": "4ac94e025c8ce4a8fea916f55a75bc2f", "fusion_lon": 0.0, "type": "electric_scooter", "name": "4ac94e025c8ce4a8fea916f55a75bc2f", "rental_uris": {"android": "https://dc.lft.to/lastmile_qr_scan", "ios": "https://dc.lft.to/lastmile_qr_scan"}, "fusion_lat": 0.0, "lat": 38.93870416666667, "is_disabled": 0, "lon": -77.02484683333333, "is_reserved": 0}, {"bike_id": "dcd93b384b630fb54314ead917b5d26c", "fusion_lon": 0.0, "type": "electric_scooter", "name": "dcd93b384b630fb54314ead917b5d26c", "rental_uris": {"android": "https://dc.lft.to/lastmile_qr_scan", "ios": "https://dc.lft.to/lastmile_qr_scan"}, "fusion_lat": 0.0, "lat": 38.93287566666667, "is_disabled": 0, "lon": -77.0362705, "is_reserved": 0}, {"bike_id": "c8a054a61fffdf60dec28cc7c24f7ee9", "fusion_lon": 0.0, "type": "electric_scooter", "name": "c8a054a61fffdf60dec28cc7c24f7ee9", "rental_uris": {"android": "https://dc.lft.to/lastmile_qr_scan", "ios": "https://dc.lft.to/lastmile_qr_scan"}, "fusion_lat": 0.0, "lat": 38.94650816666667, "is_disabled": 0, "lon": -77.0303675, "is_reserved": 0}, {"bike_id": "b4b59ebf108cff7b3a682c4d6620c922", "fusion_lon": 0.0, "type": "electric_scooter", "name": "b4b59ebf108cff7b3a682c4d6620c922", "rental_uris": {"android": "https://dc.lft.to/lastmile_qr_scan", "ios": "https://dc.lft.to/lastmile_qr_scan"}, "fusion_lat": 0.0, "lat": 38.93069, "is_disabled": 0, "lon": -77.0320255, "is_reserved": 0}, {"bike_id": "fd4f61d8b4af5b5fde8e096a6aa051bd", "fusion_lon": 0.0, "type": "electric_scooter", "name": "fd4f61d8b4af5b5fde8e096a6aa051bd", "rental_uris": {"android": "https://dc.lft.to/lastmile_qr_scan", "ios": "https://dc.lft.to/lastmile_qr_scan"}, "fusion_lat": 0.0, "lat": 38.8860445, "is_disabled": 0, "lon": -76.99458133333333, "is_reserved": 0}, {"bike_id": "e9aaecb929b5fe8644f7375d6fbab578", "fusion_lon": 0.0, "type": "electric_bike", "name": "e9aaecb929b5fe8644f7375d6fbab578", "rental_uris": {"android": "https://dc.lft.to/lastmile_qr_scan", "ios": "https://dc.lft.to/lastmile_qr_scan"}, "fusion_lat": 0.0, "lat": 38.9622635, "is_disabled": 0, "lon": -77.02630633333334, "is_reserved": 0}, {"bike_id": "b281bf3a291ba97aa3382a4ece2d5595", "fusion_lon": 0.0, "type": "electric_scooter", "name": "b281bf3a291ba97aa3382a4ece2d5595", "rental_uris": {"android": "https://dc.lft.to/lastmile_qr_scan", "ios": "https://dc.lft.to/lastmile_qr_scan"}, "fusion_lat": 0.0, "lat": 38.9068565, "is_disabled": 0, "lon": -77.02698633333333, "is_reserved": 0}, {"bike_id": "c1f0914e9b0d4a52f96b8d68e765800d", "fusion_lon": 0.0, "type": "electric_scooter", "name": "c1f0914e9b0d4a52f96b8d68e765800d", "rental_uris": {"android": "https://dc.lft.to/lastmile_qr_scan", "ios": "https://dc.lft.to/lastmile_qr_scan"}, "fusion_lat": 0.0, "lat": 38.9409785, "is_disabled": 0, "lon": -77.02548033333333, "is_reserved": 0}, {"bike_id": "4937fe2ce6ab89f4b52cc832aa49a852", "fusion_lon": 0.0, "type": "electric_scooter", "name": "4937fe2ce6ab89f4b52cc832aa49a852", "rental_uris": {"android": "https://dc.lft.to/lastmile_qr_scan", "ios": "https://dc.lft.to/lastmile_qr_scan"}, "fusion_lat": 0.0, "lat": 38.956598166666666, "is_disabled": 0, "lon": -77.033333, "is_reserved": 0}, {"bike_id": "50cc03d4a85ca2302b74c463d6e92051", "fusion_lon": 0.0, "type": "electric_scooter", "name": "50cc03d4a85ca2302b74c463d6e92051", "rental_uris": {"android": "https://dc.lft.to/lastmile_qr_scan", "ios": "https://dc.lft.to/lastmile_qr_scan"}, "fusion_lat": 0.0, "lat": 38.88511283333333, "is_disabled": 0, "lon": -77.033499, "is_reserved": 0}, {"bike_id": "a0bb4d03d265e01b1c3c893de12d0716", "fusion_lon": 0.0, "type": "electric_bike", "name": "a0bb4d03d265e01b1c3c893de12d0716", "rental_uris": {"android": "https://dc.lft.to/lastmile_qr_scan", "ios": "https://dc.lft.to/lastmile_qr_scan"}, "fusion_lat": 0.0, "lat": 39.08902166666667, "is_disabled": 0, "lon": -77.1785455, "is_reserved": 0}, {"bike_id": "7e9e3a4ff8c18a9af631940804d1e50b", "fusion_lon": 0.0, "type": "electric_scooter", "name": "7e9e3a4ff8c18a9af631940804d1e50b", "rental_uris": {"android": "https://dc.lft.to/lastmile_qr_scan", "ios": "https://dc.lft.to/lastmile_qr_scan"}, "fusion_lat": 0.0, "lat": 38.913558, "is_disabled": 0, "lon": -77.039734, "is_reserved": 0}, {"bike_id": "ddf5fb560fd91262b96e83ba253f286d", "fusion_lon": 0.0, "type": "electric_scooter", "name": "ddf5fb560fd91262b96e83ba253f286d", "rental_uris": {"android": "https://dc.lft.to/lastmile_qr_scan", "ios": "https://dc.lft.to/lastmile_qr_scan"}, "fusion_lat": 0.0, "lat": 38.8667515, "is_disabled": 0, "lon": -76.988827, "is_reserved": 0}, {"bike_id": "a0a63eabc7b759b417e29cd3b84a00d5", "fusion_lon": 0.0, "type": "electric_scooter", "name": "a0a63eabc7b759b417e29cd3b84a00d5", "rental_uris": {"android": "https://dc.lft.to/lastmile_qr_scan", "ios": "https://dc.lft.to/lastmile_qr_scan"}, "fusion_lat": 0.0, "lat": 38.95069216666667, "is_disabled": 0, "lon": -77.0653795, "is_reserved": 0}, {"bike_id": "78eddf10ffd9038ef22ab93de44819ee", "fusion_lon": 0.0, "type": "electric_bike", "name": "78eddf10ffd9038ef22ab93de44819ee", "rental_uris": {"android": "https://dc.lft.to/lastmile_qr_scan", "ios": "https://dc.lft.to/lastmile_qr_scan"}, "fusion_lat": 0.0, "lat": 38.8562005, "is_disabled": 0, "lon": -77.08547966666667, "is_reserved": 0}, {"bike_id": "d478c92e3998ec4c91e378fc9098584e", "fusion_lon": 0.0, "type": "electric_scooter", "name": "d478c92e3998ec4c91e378fc9098584e", "rental_uris": {"android": "https://dc.lft.to/lastmile_qr_scan", "ios": "https://dc.lft.to/lastmile_qr_scan"}, "fusion_lat": 0.0, "lat": 38.907307, "is_disabled": 0, "lon": -77.034508, "is_reserved": 0}, {"bike_id": "1cb203f69f39537ae7021f446265caa2", "fusion_lon": 0.0, "type": "electric_scooter", "name": "1cb203f69f39537ae7021f446265caa2", "rental_uris": {"android": "https://dc.lft.to/lastmile_qr_scan", "ios": "https://dc.lft.to/lastmile_qr_scan"}, "fusion_lat": 0.0, "lat": 38.872015833333336, "is_disabled": 0, "lon": -77.01251466666666, "is_reserved": 0}, {"bike_id": "f2e6c8fb5e41e9953ff9d6c6073f2b6a", "fusion_lon": 0.0, "type": "electric_scooter", "name": "f2e6c8fb5e41e9953ff9d6c6073f2b6a", "rental_uris": {"android": "https://dc.lft.to/lastmile_qr_scan", "ios": "https://dc.lft.to/lastmile_qr_scan"}, "fusion_lat": 0.0, "lat": 38.90844283333333, "is_disabled": 0, "lon": -77.02696233333333, "is_reserved": 0}, {"bike_id": "142e9a0570eef0997c96874caac1efdf", "fusion_lon": 0.0, "type": "electric_scooter", "name": "142e9a0570eef0997c96874caac1efdf", "rental_uris": {"android": "https://dc.lft.to/lastmile_qr_scan", "ios": "https://dc.lft.to/lastmile_qr_scan"}, "fusion_lat": 0.0, "lat": 38.92579466666667, "is_disabled": 0, "lon": -77.04372766666667, "is_reserved": 0}, {"bike_id": "83dea29923fcd4a80b2a061863711da1", "fusion_lon": 0.0, "type": "electric_scooter", "name": "83dea29923fcd4a80b2a061863711da1", "rental_uris": {"android": "https://dc.lft.to/lastmile_qr_scan", "ios": "https://dc.lft.to/lastmile_qr_scan"}, "fusion_lat": 0.0, "lat": 38.924611166666665, "is_disabled": 0, "lon": -77.02155683333334, "is_reserved": 0}, {"bike_id": "f07638a7690b847b15e0c96ec6b5cc41", "fusion_lon": 0.0, "type": "electric_scooter", "name": "f07638a7690b847b15e0c96ec6b5cc41", "rental_uris": {"android": "https://dc.lft.to/lastmile_qr_scan", "ios": "https://dc.lft.to/lastmile_qr_scan"}, "fusion_lat": 0.0, "lat": 38.912251, "is_disabled": 0, "lon": -77.0380365, "is_reserved": 0}, {"bike_id": "484f275d6c15bdfd797c3f9c6067c785", "fusion_lon": 0.0, "type": "electric_scooter", "name": "484f275d6c15bdfd797c3f9c6067c785", "rental_uris": {"android": "https://dc.lft.to/lastmile_qr_scan", "ios": "https://dc.lft.to/lastmile_qr_scan"}, "fusion_lat": 0.0, "lat": 38.91185266666667, "is_disabled": 0, "lon": -77.0055265, "is_reserved": 0}, {"bike_id": "c4c4d547aa6715439739b369598dd2b5", "fusion_lon": 0.0, "type": "electric_scooter", "name": "c4c4d547aa6715439739b369598dd2b5", "rental_uris": {"android": "https://dc.lft.to/lastmile_qr_scan", "ios": "https://dc.lft.to/lastmile_qr_scan"}, "fusion_lat": 0.0, "lat": 38.9356465, "is_disabled": 0, "lon": -77.02136733333333, "is_reserved": 0}, {"bike_id": "5d3805980cf4bd54a0c0ddff3edbff02", "fusion_lon": 0.0, "type": "electric_scooter", "name": "5d3805980cf4bd54a0c0ddff3edbff02", "rental_uris": {"android": "https://dc.lft.to/lastmile_qr_scan", "ios": "https://dc.lft.to/lastmile_qr_scan"}, "fusion_lat": 0.0, "lat": 38.929734833333335, "is_disabled": 0, "lon": -77.03188983333334, "is_reserved": 0}, {"bike_id": "b0357ae5277ed9eb0143d2eea6014528", "fusion_lon": 0.0, "type": "electric_scooter", "name": "b0357ae5277ed9eb0143d2eea6014528", "rental_uris": {"android": "https://dc.lft.to/lastmile_qr_scan", "ios": "https://dc.lft.to/lastmile_qr_scan"}, "fusion_lat": 0.0, "lat": 38.84291433333333, "is_disabled": 0, "lon": -76.99950683333333, "is_reserved": 0}, {"bike_id": "f9c20ed755eae29f435ee925eded175a", "fusion_lon": 0.0, "type": "electric_scooter", "name": "f9c20ed755eae29f435ee925eded175a", "rental_uris": {"android": "https://dc.lft.to/lastmile_qr_scan", "ios": "https://dc.lft.to/lastmile_qr_scan"}, "fusion_lat": 0.0, "lat": 38.89848116666667, "is_disabled": 0, "lon": -77.03319466666666, "is_reserved": 0}, {"bike_id": "b9022a5cef8da52d91f5a16665908c4b", "fusion_lon": 0.0, "type": "electric_scooter", "name": "b9022a5cef8da52d91f5a16665908c4b", "rental_uris": {"android": "https://dc.lft.to/lastmile_qr_scan", "ios": "https://dc.lft.to/lastmile_qr_scan"}, "fusion_lat": 0.0, "lat": 38.90098483333333, "is_disabled": 0, "lon": -77.04768233333333, "is_reserved": 0}, {"bike_id": "42ebe1ac0002c5866f2c78ee9baf27dc", "fusion_lon": 0.0, "type": "electric_scooter", "name": "42ebe1ac0002c5866f2c78ee9baf27dc", "rental_uris": {"android": "https://dc.lft.to/lastmile_qr_scan", "ios": "https://dc.lft.to/lastmile_qr_scan"}, "fusion_lat": 0.0, "lat": 38.949286666666666, "is_disabled": 0, "lon": -77.01935466666667, "is_reserved": 0}, {"bike_id": "772076047ea49ad0cda936ebd9671061", "fusion_lon": 0.0, "type": "electric_scooter", "name": "772076047ea49ad0cda936ebd9671061", "rental_uris": {"android": "https://dc.lft.to/lastmile_qr_scan", "ios": "https://dc.lft.to/lastmile_qr_scan"}, "fusion_lat": 0.0, "lat": 38.9291825, "is_disabled": 0, "lon": -77.02093283333333, "is_reserved": 0}, {"bike_id": "f07f2e3f130a06bdd09f4a2e9736919d", "fusion_lon": 0.0, "type": "electric_scooter", "name": "f07f2e3f130a06bdd09f4a2e9736919d", "rental_uris": {"android": "https://dc.lft.to/lastmile_qr_scan", "ios": "https://dc.lft.to/lastmile_qr_scan"}, "fusion_lat": 0.0, "lat": 38.90780566666667, "is_disabled": 0, "lon": -77.04515083333334, "is_reserved": 0}, {"bike_id": "ca9c0b5e2246f1c0af020295e73505b4", "fusion_lon": 0.0, "type": "electric_bike", "name": "ca9c0b5e2246f1c0af020295e73505b4", "rental_uris": {"android": "https://dc.lft.to/lastmile_qr_scan", "ios": "https://dc.lft.to/lastmile_qr_scan"}, "fusion_lat": 0.0, "lat": 38.91139366666667, "is_disabled": 0, "lon": -77.06576766666667, "is_reserved": 0}, {"bike_id": "7080cd089ef9bcafe382485db2d9801b", "fusion_lon": 0.0, "type": "electric_scooter", "name": "7080cd089ef9bcafe382485db2d9801b", "rental_uris": {"android": "https://dc.lft.to/lastmile_qr_scan", "ios": "https://dc.lft.to/lastmile_qr_scan"}, "fusion_lat": 0.0, "lat": 38.876629666666666, "is_disabled": 0, "lon": -77.012934, "is_reserved": 0}, {"bike_id": "532c124038195a49e29e74e7d90d69ad", "fusion_lon": 0.0, "type": "electric_bike", "name": "532c124038195a49e29e74e7d90d69ad", "rental_uris": {"android": "https://dc.lft.to/lastmile_qr_scan", "ios": "https://dc.lft.to/lastmile_qr_scan"}, "fusion_lat": 0.0, "lat": 39.0885955, "is_disabled": 0, "lon": -77.1784125, "is_reserved": 0}, {"bike_id": "64d78c1b379104c5c227f407abb0ae9d", "fusion_lon": 0.0, "type": "electric_bike", "name": "64d78c1b379104c5c227f407abb0ae9d", "rental_uris": {"android": "https://dc.lft.to/lastmile_qr_scan", "ios": "https://dc.lft.to/lastmile_qr_scan"}, "fusion_lat": 0.0, "lat": 39.05449766666667, "is_disabled": 0, "lon": -77.04300666666667, "is_reserved": 0}, {"bike_id": "ad155144991efc971660cad08e7451b3", "fusion_lon": 0.0, "type": "electric_scooter", "name": "ad155144991efc971660cad08e7451b3", "rental_uris": {"android": "https://dc.lft.to/lastmile_qr_scan", "ios": "https://dc.lft.to/lastmile_qr_scan"}, "fusion_lat": 0.0, "lat": 38.909727333333336, "is_disabled": 0, "lon": -77.04611, "is_reserved": 0}, {"bike_id": "5b4fccb2213a324957f9021851fc235e", "fusion_lon": 0.0, "type": "electric_scooter", "name": "5b4fccb2213a324957f9021851fc235e", "rental_uris": {"android": "https://dc.lft.to/lastmile_qr_scan", "ios": "https://dc.lft.to/lastmile_qr_scan"}, "fusion_lat": 0.0, "lat": 38.93555283333333, "is_disabled": 0, "lon": -77.08220733333333, "is_reserved": 0}, {"bike_id": "299b3371db0c2be3635fb8c87f59f591", "fusion_lon": 0.0, "type": "electric_scooter", "name": "299b3371db0c2be3635fb8c87f59f591", "rental_uris": {"android": "https://dc.lft.to/lastmile_qr_scan", "ios": "https://dc.lft.to/lastmile_qr_scan"}, "fusion_lat": 0.0, "lat": 38.94995083333333, "is_disabled": 0, "lon": -77.0271105, "is_reserved": 0}, {"bike_id": "afa84cc4323acc23ae95f0049e21694d", "fusion_lon": 0.0, "type": "electric_scooter", "name": "afa84cc4323acc23ae95f0049e21694d", "rental_uris": {"android": "https://dc.lft.to/lastmile_qr_scan", "ios": "https://dc.lft.to/lastmile_qr_scan"}, "fusion_lat": 0.0, "lat": 38.899238833333335, "is_disabled": 0, "lon": -77.01906666666666, "is_reserved": 0}, {"bike_id": "cf70aa07671b7f08a81a5b64f1264dd7", "fusion_lon": 0.0, "type": "electric_scooter", "name": "cf70aa07671b7f08a81a5b64f1264dd7", "rental_uris": {"android": "https://dc.lft.to/lastmile_qr_scan", "ios": "https://dc.lft.to/lastmile_qr_scan"}, "fusion_lat": 0.0, "lat": 38.9002675, "is_disabled": 0, "lon": -77.0002335, "is_reserved": 0}, {"bike_id": "d0ed2f7d16641111a5837e2e69e70aab", "fusion_lon": 0.0, "type": "electric_scooter", "name": "d0ed2f7d16641111a5837e2e69e70aab", "rental_uris": {"android": "https://dc.lft.to/lastmile_qr_scan", "ios": "https://dc.lft.to/lastmile_qr_scan"}, "fusion_lat": 0.0, "lat": 38.92166533333334, "is_disabled": 0, "lon": -77.0391195, "is_reserved": 0}, {"bike_id": "0dd66cf4f6344ac5c68137871effd608", "fusion_lon": 0.0, "type": "electric_scooter", "name": "0dd66cf4f6344ac5c68137871effd608", "rental_uris": {"android": "https://dc.lft.to/lastmile_qr_scan", "ios": "https://dc.lft.to/lastmile_qr_scan"}, "fusion_lat": 0.0, "lat": 38.91725383333333, "is_disabled": 0, "lon": -77.03661283333334, "is_reserved": 0}, {"bike_id": "5683b9bab09c1ed1ccd1d24753e9233e", "fusion_lon": 0.0, "type": "electric_scooter", "name": "5683b9bab09c1ed1ccd1d24753e9233e", "rental_uris": {"android": "https://dc.lft.to/lastmile_qr_scan", "ios": "https://dc.lft.to/lastmile_qr_scan"}, "fusion_lat": 0.0, "lat": 38.91171, "is_disabled": 0, "lon": -77.084486, "is_reserved": 0}, {"bike_id": "8ae770bd80fca7f99308a99d17f7896b", "fusion_lon": 0.0, "type": "electric_scooter", "name": "8ae770bd80fca7f99308a99d17f7896b", "rental_uris": {"android": "https://dc.lft.to/lastmile_qr_scan", "ios": "https://dc.lft.to/lastmile_qr_scan"}, "fusion_lat": 0.0, "lat": 38.93028416666667, "is_disabled": 0, "lon": -77.01297433333333, "is_reserved": 0}, {"bike_id": "bf5c0f976533b523a1b4b251f31d685b", "fusion_lon": 0.0, "type": "electric_scooter", "name": "bf5c0f976533b523a1b4b251f31d685b", "rental_uris": {"android": "https://dc.lft.to/lastmile_qr_scan", "ios": "https://dc.lft.to/lastmile_qr_scan"}, "fusion_lat": 0.0, "lat": 38.911047, "is_disabled": 0, "lon": -77.02413566666667, "is_reserved": 0}, {"bike_id": "62f3c87137f8f43aa368d1cf735ada6e", "fusion_lon": 0.0, "type": "electric_scooter", "name": "62f3c87137f8f43aa368d1cf735ada6e", "rental_uris": {"android": "https://dc.lft.to/lastmile_qr_scan", "ios": "https://dc.lft.to/lastmile_qr_scan"}, "fusion_lat": 0.0, "lat": 38.914884, "is_disabled": 0, "lon": -77.04152866666666, "is_reserved": 0}, {"bike_id": "a866bfa9daaecf4bfe07f94c3c776399", "fusion_lon": 0.0, "type": "electric_scooter", "name": "a866bfa9daaecf4bfe07f94c3c776399", "rental_uris": {"android": "https://dc.lft.to/lastmile_qr_scan", "ios": "https://dc.lft.to/lastmile_qr_scan"}, "fusion_lat": 0.0, "lat": 38.92031033333333, "is_disabled": 0, "lon": -77.017002, "is_reserved": 0}, {"bike_id": "0226831d662ad0a1dc7fe48c2dbee248", "fusion_lon": 0.0, "type": "electric_scooter", "name": "0226831d662ad0a1dc7fe48c2dbee248", "rental_uris": {"android": "https://dc.lft.to/lastmile_qr_scan", "ios": "https://dc.lft.to/lastmile_qr_scan"}, "fusion_lat": 0.0, "lat": 38.92752766666667, "is_disabled": 0, "lon": -77.03297816666667, "is_reserved": 0}, {"bike_id": "fca9a8f27b635826047eb6bdc15beda0", "fusion_lon": 0.0, "type": "electric_scooter", "name": "fca9a8f27b635826047eb6bdc15beda0", "rental_uris": {"android": "https://dc.lft.to/lastmile_qr_scan", "ios": "https://dc.lft.to/lastmile_qr_scan"}, "fusion_lat": 0.0, "lat": 38.90028733333333, "is_disabled": 0, "lon": -77.02614183333333, "is_reserved": 0}, {"bike_id": "6fa9a7312fd403f7b067d32744b6939d", "fusion_lon": 0.0, "type": "electric_scooter", "name": "6fa9a7312fd403f7b067d32744b6939d", "rental_uris": {"android": "https://dc.lft.to/lastmile_qr_scan", "ios": "https://dc.lft.to/lastmile_qr_scan"}, "fusion_lat": 0.0, "lat": 38.87548666666667, "is_disabled": 0, "lon": -76.9648965, "is_reserved": 0}, {"bike_id": "f2b935ef27f124bf67fdd1382f94090a", "fusion_lon": 0.0, "type": "electric_scooter", "name": "f2b935ef27f124bf67fdd1382f94090a", "rental_uris": {"android": "https://dc.lft.to/lastmile_qr_scan", "ios": "https://dc.lft.to/lastmile_qr_scan"}, "fusion_lat": 0.0, "lat": 38.90364833333334, "is_disabled": 0, "lon": -77.01920983333333, "is_reserved": 0}, {"bike_id": "980703a39425f95b44756a8e655cd5a0", "fusion_lon": 0.0, "type": "electric_scooter", "name": "980703a39425f95b44756a8e655cd5a0", "rental_uris": {"android": "https://dc.lft.to/lastmile_qr_scan", "ios": "https://dc.lft.to/lastmile_qr_scan"}, "fusion_lat": 0.0, "lat": 38.85587366666667, "is_disabled": 0, "lon": -76.98565483333333, "is_reserved": 0}, {"bike_id": "3c24e667986589fc6597c295932099c4", "fusion_lon": 0.0, "type": "electric_scooter", "name": "3c24e667986589fc6597c295932099c4", "rental_uris": {"android": "https://dc.lft.to/lastmile_qr_scan", "ios": "https://dc.lft.to/lastmile_qr_scan"}, "fusion_lat": 0.0, "lat": 38.934819166666664, "is_disabled": 0, "lon": -77.07270833333334, "is_reserved": 0}, {"bike_id": "b676f86dd1c6e1956d40a93db919d8bc", "fusion_lon": 0.0, "type": "electric_scooter", "name": "b676f86dd1c6e1956d40a93db919d8bc", "rental_uris": {"android": "https://dc.lft.to/lastmile_qr_scan", "ios": "https://dc.lft.to/lastmile_qr_scan"}, "fusion_lat": 0.0, "lat": 38.89859833333333, "is_disabled": 0, "lon": -77.03295733333333, "is_reserved": 0}, {"bike_id": "5949f68daa52e9769bbf2661ef1e0c71", "fusion_lon": 0.0, "type": "electric_scooter", "name": "5949f68daa52e9769bbf2661ef1e0c71", "rental_uris": {"android": "https://dc.lft.to/lastmile_qr_scan", "ios": "https://dc.lft.to/lastmile_qr_scan"}, "fusion_lat": 0.0, "lat": 38.908744, "is_disabled": 0, "lon": -77.03451016666666, "is_reserved": 0}, {"bike_id": "bc91e295fd6df28a05f5d9f7a9b4d64d", "fusion_lon": 0.0, "type": "electric_bike", "name": "bc91e295fd6df28a05f5d9f7a9b4d64d", "rental_uris": {"android": "https://dc.lft.to/lastmile_qr_scan", "ios": "https://dc.lft.to/lastmile_qr_scan"}, "fusion_lat": 0.0, "lat": 38.82728816666667, "is_disabled": 0, "lon": -77.0086825, "is_reserved": 0}, {"bike_id": "fdc3ced028986e82f887ee804036fb82", "fusion_lon": 0.0, "type": "electric_scooter", "name": "fdc3ced028986e82f887ee804036fb82", "rental_uris": {"android": "https://dc.lft.to/lastmile_qr_scan", "ios": "https://dc.lft.to/lastmile_qr_scan"}, "fusion_lat": 0.0, "lat": 38.90825516666666, "is_disabled": 0, "lon": -77.03685316666666, "is_reserved": 0}, {"bike_id": "ce5e765518635b3916435550d9d76480", "fusion_lon": 0.0, "type": "electric_scooter", "name": "ce5e765518635b3916435550d9d76480", "rental_uris": {"android": "https://dc.lft.to/lastmile_qr_scan", "ios": "https://dc.lft.to/lastmile_qr_scan"}, "fusion_lat": 0.0, "lat": 38.900301166666665, "is_disabled": 0, "lon": -77.0401335, "is_reserved": 0}, {"bike_id": "aefb7da8f1d41e53add28bd4a323b9a3", "fusion_lon": 0.0, "type": "electric_scooter", "name": "aefb7da8f1d41e53add28bd4a323b9a3", "rental_uris": {"android": "https://dc.lft.to/lastmile_qr_scan", "ios": "https://dc.lft.to/lastmile_qr_scan"}, "fusion_lat": 0.0, "lat": 38.9287155, "is_disabled": 0, "lon": -76.99028366666667, "is_reserved": 0}, {"bike_id": "674a7e590c7caac28e4d01d06895b4f3", "fusion_lon": 0.0, "type": "electric_bike", "name": "674a7e590c7caac28e4d01d06895b4f3", "rental_uris": {"android": "https://dc.lft.to/lastmile_qr_scan", "ios": "https://dc.lft.to/lastmile_qr_scan"}, "fusion_lat": 0.0, "lat": 39.00369966666667, "is_disabled": 0, "lon": -77.0131115, "is_reserved": 0}, {"bike_id": "dff596dec322ded58fc0f1017b2ba5ec", "fusion_lon": 0.0, "type": "electric_scooter", "name": "dff596dec322ded58fc0f1017b2ba5ec", "rental_uris": {"android": "https://dc.lft.to/lastmile_qr_scan", "ios": "https://dc.lft.to/lastmile_qr_scan"}, "fusion_lat": 0.0, "lat": 38.91112783333333, "is_disabled": 0, "lon": -77.0450075, "is_reserved": 0}, {"bike_id": "c9609ee0b62bc107422fa650ee323be2", "fusion_lon": 0.0, "type": "electric_scooter", "name": "c9609ee0b62bc107422fa650ee323be2", "rental_uris": {"android": "https://dc.lft.to/lastmile_qr_scan", "ios": "https://dc.lft.to/lastmile_qr_scan"}, "fusion_lat": 0.0, "lat": 38.892199, "is_disabled": 0, "lon": -77.02550283333333, "is_reserved": 0}, {"bike_id": "0a69e344cb3a7960e6254cf13f8dd7d6", "fusion_lon": 0.0, "type": "electric_scooter", "name": "0a69e344cb3a7960e6254cf13f8dd7d6", "rental_uris": {"android": "https://dc.lft.to/lastmile_qr_scan", "ios": "https://dc.lft.to/lastmile_qr_scan"}, "fusion_lat": 0.0, "lat": 38.88592933333334, "is_disabled": 0, "lon": -77.01721366666666, "is_reserved": 0}, {"bike_id": "c7774c4e31631c5c0c35c5b950036dbc", "fusion_lon": 0.0, "type": "electric_scooter", "name": "c7774c4e31631c5c0c35c5b950036dbc", "rental_uris": {"android": "https://dc.lft.to/lastmile_qr_scan", "ios": "https://dc.lft.to/lastmile_qr_scan"}, "fusion_lat": 0.0, "lat": 38.923460666666664, "is_disabled": 0, "lon": -77.03504183333334, "is_reserved": 0}, {"bike_id": "0edbd8e7f1470b876ee382ad7a2ae851", "fusion_lon": 0.0, "type": "electric_bike", "name": "0edbd8e7f1470b876ee382ad7a2ae851", "rental_uris": {"android": "https://dc.lft.to/lastmile_qr_scan", "ios": "https://dc.lft.to/lastmile_qr_scan"}, "fusion_lat": 0.0, "lat": 38.8564845, "is_disabled": 0, "lon": -77.08530766666667, "is_reserved": 0}, {"bike_id": "ff11c82738eff28dac6177dda859e5e7", "fusion_lon": 0.0, "type": "electric_scooter", "name": "ff11c82738eff28dac6177dda859e5e7", "rental_uris": {"android": "https://dc.lft.to/lastmile_qr_scan", "ios": "https://dc.lft.to/lastmile_qr_scan"}, "fusion_lat": 0.0, "lat": 38.900278, "is_disabled": 0, "lon": -76.99518383333333, "is_reserved": 0}, {"bike_id": "fc26bb41b292bd8faabfa334e243afba", "fusion_lon": 0.0, "type": "electric_scooter", "name": "fc26bb41b292bd8faabfa334e243afba", "rental_uris": {"android": "https://dc.lft.to/lastmile_qr_scan", "ios": "https://dc.lft.to/lastmile_qr_scan"}, "fusion_lat": 0.0, "lat": 38.90364266666667, "is_disabled": 0, "lon": -77.01120133333333, "is_reserved": 0}, {"bike_id": "7485df3a922071e7497e96dc48443afc", "fusion_lon": 0.0, "type": "electric_scooter", "name": "7485df3a922071e7497e96dc48443afc", "rental_uris": {"android": "https://dc.lft.to/lastmile_qr_scan", "ios": "https://dc.lft.to/lastmile_qr_scan"}, "fusion_lat": 0.0, "lat": 38.91336416666667, "is_disabled": 0, "lon": -77.04832616666667, "is_reserved": 0}, {"bike_id": "8866f9f41f7965eee7a88a76fa530683", "fusion_lon": 0.0, "type": "electric_scooter", "name": "8866f9f41f7965eee7a88a76fa530683", "rental_uris": {"android": "https://dc.lft.to/lastmile_qr_scan", "ios": "https://dc.lft.to/lastmile_qr_scan"}, "fusion_lat": 0.0, "lat": 38.8948715, "is_disabled": 0, "lon": -76.94843133333333, "is_reserved": 0}, {"bike_id": "e4ea3be9b2a0c8c3508c488b51723697", "fusion_lon": 0.0, "type": "electric_scooter", "name": "e4ea3be9b2a0c8c3508c488b51723697", "rental_uris": {"android": "https://dc.lft.to/lastmile_qr_scan", "ios": "https://dc.lft.to/lastmile_qr_scan"}, "fusion_lat": 0.0, "lat": 38.909723666666665, "is_disabled": 0, "lon": -77.03367533333333, "is_reserved": 0}, {"bike_id": "7aaa5811ab4d2d04c481f0c594de2562", "fusion_lon": 0.0, "type": "electric_scooter", "name": "7aaa5811ab4d2d04c481f0c594de2562", "rental_uris": {"android": "https://dc.lft.to/lastmile_qr_scan", "ios": "https://dc.lft.to/lastmile_qr_scan"}, "fusion_lat": 0.0, "lat": 38.927791666666664, "is_disabled": 0, "lon": -77.05594383333333, "is_reserved": 0}, {"bike_id": "02a2f1815c9443420f6215fd068bf4ff", "fusion_lon": 0.0, "type": "electric_scooter", "name": "02a2f1815c9443420f6215fd068bf4ff", "rental_uris": {"android": "https://dc.lft.to/lastmile_qr_scan", "ios": "https://dc.lft.to/lastmile_qr_scan"}, "fusion_lat": 0.0, "lat": 38.9103485, "is_disabled": 0, "lon": -77.03837083333333, "is_reserved": 0}, {"bike_id": "02c24fcdd2c8b3d5bd9a0a088ba3898e", "fusion_lon": 0.0, "type": "electric_scooter", "name": "02c24fcdd2c8b3d5bd9a0a088ba3898e", "rental_uris": {"android": "https://dc.lft.to/lastmile_qr_scan", "ios": "https://dc.lft.to/lastmile_qr_scan"}, "fusion_lat": 0.0, "lat": 38.91601466666667, "is_disabled": 0, "lon": -77.0491115, "is_reserved": 0}, {"bike_id": "a330c17b88defd72d599ddb3fccaeced", "fusion_lon": 0.0, "type": "electric_scooter", "name": "a330c17b88defd72d599ddb3fccaeced", "rental_uris": {"android": "https://dc.lft.to/lastmile_qr_scan", "ios": "https://dc.lft.to/lastmile_qr_scan"}, "fusion_lat": 0.0, "lat": 38.89366233333333, "is_disabled": 0, "lon": -76.94964633333333, "is_reserved": 0}, {"bike_id": "d0490a26effa871bd2c7489af8e6f32b", "fusion_lon": 0.0, "type": "electric_scooter", "name": "d0490a26effa871bd2c7489af8e6f32b", "rental_uris": {"android": "https://dc.lft.to/lastmile_qr_scan", "ios": "https://dc.lft.to/lastmile_qr_scan"}, "fusion_lat": 0.0, "lat": 38.89221, "is_disabled": 0, "lon": -77.02843416666667, "is_reserved": 0}, {"bike_id": "56ba9b8144f09f556d0055b7a31c8b7b", "fusion_lon": 0.0, "type": "electric_scooter", "name": "56ba9b8144f09f556d0055b7a31c8b7b", "rental_uris": {"android": "https://dc.lft.to/lastmile_qr_scan", "ios": "https://dc.lft.to/lastmile_qr_scan"}, "fusion_lat": 0.0, "lat": 38.885125, "is_disabled": 0, "lon": -77.03346433333333, "is_reserved": 0}, {"bike_id": "95e159dbb9138031c1bb7992ca0a4e1b", "fusion_lon": 0.0, "type": "electric_scooter", "name": "95e159dbb9138031c1bb7992ca0a4e1b", "rental_uris": {"android": "https://dc.lft.to/lastmile_qr_scan", "ios": "https://dc.lft.to/lastmile_qr_scan"}, "fusion_lat": 0.0, "lat": 38.90404133333333, "is_disabled": 0, "lon": -77.04357216666666, "is_reserved": 0}, {"bike_id": "a260f79fece273786509960cdd77b04b", "fusion_lon": 0.0, "type": "electric_scooter", "name": "a260f79fece273786509960cdd77b04b", "rental_uris": {"android": "https://dc.lft.to/lastmile_qr_scan", "ios": "https://dc.lft.to/lastmile_qr_scan"}, "fusion_lat": 0.0, "lat": 38.884221833333335, "is_disabled": 0, "lon": -76.99548383333334, "is_reserved": 0}, {"bike_id": "1e49b3228480e3ff635119d031d42175", "fusion_lon": 0.0, "type": "electric_scooter", "name": "1e49b3228480e3ff635119d031d42175", "rental_uris": {"android": "https://dc.lft.to/lastmile_qr_scan", "ios": "https://dc.lft.to/lastmile_qr_scan"}, "fusion_lat": 0.0, "lat": 38.9217735, "is_disabled": 0, "lon": -77.03227, "is_reserved": 0}, {"bike_id": "e9148a1e5ed971b8454a497db9d685b9", "fusion_lon": 0.0, "type": "electric_scooter", "name": "e9148a1e5ed971b8454a497db9d685b9", "rental_uris": {"android": "https://dc.lft.to/lastmile_qr_scan", "ios": "https://dc.lft.to/lastmile_qr_scan"}, "fusion_lat": 0.0, "lat": 38.92032583333334, "is_disabled": 0, "lon": -76.97023566666667, "is_reserved": 0}, {"bike_id": "5d303ea0f8902b383ff95d2e4932f5b7", "fusion_lon": 0.0, "type": "electric_scooter", "name": "5d303ea0f8902b383ff95d2e4932f5b7", "rental_uris": {"android": "https://dc.lft.to/lastmile_qr_scan", "ios": "https://dc.lft.to/lastmile_qr_scan"}, "fusion_lat": 0.0, "lat": 38.900149, "is_disabled": 0, "lon": -77.04480333333333, "is_reserved": 0}, {"bike_id": "481d49fc7f6e19a1065e77518ac70141", "fusion_lon": 0.0, "type": "electric_scooter", "name": "481d49fc7f6e19a1065e77518ac70141", "rental_uris": {"android": "https://dc.lft.to/lastmile_qr_scan", "ios": "https://dc.lft.to/lastmile_qr_scan"}, "fusion_lat": 0.0, "lat": 38.898368, "is_disabled": 0, "lon": -77.033267, "is_reserved": 0}, {"bike_id": "b6d97ff47d2061efb2fe73a414a332c8", "fusion_lon": 0.0, "type": "electric_bike", "name": "b6d97ff47d2061efb2fe73a414a332c8", "rental_uris": {"android": "https://dc.lft.to/lastmile_qr_scan", "ios": "https://dc.lft.to/lastmile_qr_scan"}, "fusion_lat": 0.0, "lat": 38.89632183333333, "is_disabled": 0, "lon": -76.94765883333334, "is_reserved": 0}, {"bike_id": "9a245da35082e0630673556e138785f9", "fusion_lon": 0.0, "type": "electric_scooter", "name": "9a245da35082e0630673556e138785f9", "rental_uris": {"android": "https://dc.lft.to/lastmile_qr_scan", "ios": "https://dc.lft.to/lastmile_qr_scan"}, "fusion_lat": 0.0, "lat": 38.922112166666665, "is_disabled": 0, "lon": -77.03761683333333, "is_reserved": 0}, {"bike_id": "22438b01951acffc8ea54c5fff324808", "fusion_lon": 0.0, "type": "electric_scooter", "name": "22438b01951acffc8ea54c5fff324808", "rental_uris": {"android": "https://dc.lft.to/lastmile_qr_scan", "ios": "https://dc.lft.to/lastmile_qr_scan"}, "fusion_lat": 0.0, "lat": 38.842926166666665, "is_disabled": 0, "lon": -76.99088266666666, "is_reserved": 0}, {"bike_id": "bc94cde437939d90b81fccd592b0a8e7", "fusion_lon": 0.0, "type": "electric_scooter", "name": "bc94cde437939d90b81fccd592b0a8e7", "rental_uris": {"android": "https://dc.lft.to/lastmile_qr_scan", "ios": "https://dc.lft.to/lastmile_qr_scan"}, "fusion_lat": 0.0, "lat": 38.9366605, "is_disabled": 0, "lon": -77.05937616666667, "is_reserved": 0}, {"bike_id": "bf57ba2e31d8b0f177335a1d9a5dafec", "fusion_lon": 0.0, "type": "electric_scooter", "name": "bf57ba2e31d8b0f177335a1d9a5dafec", "rental_uris": {"android": "https://dc.lft.to/lastmile_qr_scan", "ios": "https://dc.lft.to/lastmile_qr_scan"}, "fusion_lat": 0.0, "lat": 38.89247533333333, "is_disabled": 0, "lon": -77.03168933333333, "is_reserved": 0}, {"bike_id": "69c6444ca05e4fb3f7020bd056572435", "fusion_lon": 0.0, "type": "electric_scooter", "name": "69c6444ca05e4fb3f7020bd056572435", "rental_uris": {"android": "https://dc.lft.to/lastmile_qr_scan", "ios": "https://dc.lft.to/lastmile_qr_scan"}, "fusion_lat": 0.0, "lat": 38.9070265, "is_disabled": 0, "lon": -76.987009, "is_reserved": 0}, {"bike_id": "95f1111c51878d6c9c7914ae354f25b0", "fusion_lon": 0.0, "type": "electric_scooter", "name": "95f1111c51878d6c9c7914ae354f25b0", "rental_uris": {"android": "https://dc.lft.to/lastmile_qr_scan", "ios": "https://dc.lft.to/lastmile_qr_scan"}, "fusion_lat": 0.0, "lat": 38.89479883333333, "is_disabled": 0, "lon": -77.0454455, "is_reserved": 0}, {"bike_id": "d2691b986319662659113404c9c1122e", "fusion_lon": 0.0, "type": "electric_scooter", "name": "d2691b986319662659113404c9c1122e", "rental_uris": {"android": "https://dc.lft.to/lastmile_qr_scan", "ios": "https://dc.lft.to/lastmile_qr_scan"}, "fusion_lat": 0.0, "lat": 38.88742633333333, "is_disabled": 0, "lon": -77.02829016666666, "is_reserved": 0}, {"bike_id": "65b4d3edf028d2dd3e5a4a491e185d0a", "fusion_lon": 0.0, "type": "electric_scooter", "name": "65b4d3edf028d2dd3e5a4a491e185d0a", "rental_uris": {"android": "https://dc.lft.to/lastmile_qr_scan", "ios": "https://dc.lft.to/lastmile_qr_scan"}, "fusion_lat": 0.0, "lat": 38.937431333333336, "is_disabled": 0, "lon": -77.03483916666667, "is_reserved": 0}, {"bike_id": "e2ca424cbed268e28c8168c01174471d", "fusion_lon": 0.0, "type": "electric_scooter", "name": "e2ca424cbed268e28c8168c01174471d", "rental_uris": {"android": "https://dc.lft.to/lastmile_qr_scan", "ios": "https://dc.lft.to/lastmile_qr_scan"}, "fusion_lat": 0.0, "lat": 38.93552583333334, "is_disabled": 0, "lon": -77.03462616666667, "is_reserved": 0}, {"bike_id": "b3805ffeb08135a65e05206d19432d87", "fusion_lon": 0.0, "type": "electric_bike", "name": "b3805ffeb08135a65e05206d19432d87", "rental_uris": {"android": "https://dc.lft.to/lastmile_qr_scan", "ios": "https://dc.lft.to/lastmile_qr_scan"}, "fusion_lat": 0.0, "lat": 38.92576016666667, "is_disabled": 0, "lon": -76.98609966666666, "is_reserved": 0}, {"bike_id": "351e985f5ecdcf288a2989008d3faf2b", "fusion_lon": 0.0, "type": "electric_scooter", "name": "351e985f5ecdcf288a2989008d3faf2b", "rental_uris": {"android": "https://dc.lft.to/lastmile_qr_scan", "ios": "https://dc.lft.to/lastmile_qr_scan"}, "fusion_lat": 0.0, "lat": 38.8962645, "is_disabled": 0, "lon": -76.94766, "is_reserved": 0}, {"bike_id": "9147659ca9095cb8463e16b15b66eb25", "fusion_lon": 0.0, "type": "electric_scooter", "name": "9147659ca9095cb8463e16b15b66eb25", "rental_uris": {"android": "https://dc.lft.to/lastmile_qr_scan", "ios": "https://dc.lft.to/lastmile_qr_scan"}, "fusion_lat": 0.0, "lat": 38.90011, "is_disabled": 0, "lon": -77.00138166666666, "is_reserved": 0}, {"bike_id": "6417884c58ffb2cf40586edde55927d9", "fusion_lon": 0.0, "type": "electric_scooter", "name": "6417884c58ffb2cf40586edde55927d9", "rental_uris": {"android": "https://dc.lft.to/lastmile_qr_scan", "ios": "https://dc.lft.to/lastmile_qr_scan"}, "fusion_lat": 0.0, "lat": 38.907389333333334, "is_disabled": 0, "lon": -77.04278283333333, "is_reserved": 0}, {"bike_id": "43bad73d201182f23076a7c6a8ce64dc", "fusion_lon": 0.0, "type": "electric_scooter", "name": "43bad73d201182f23076a7c6a8ce64dc", "rental_uris": {"android": "https://dc.lft.to/lastmile_qr_scan", "ios": "https://dc.lft.to/lastmile_qr_scan"}, "fusion_lat": 0.0, "lat": 38.89347016666667, "is_disabled": 0, "lon": -77.0116395, "is_reserved": 0}, {"bike_id": "a3678ba9307164eb829e5884eb5a2582", "fusion_lon": 0.0, "type": "electric_scooter", "name": "a3678ba9307164eb829e5884eb5a2582", "rental_uris": {"android": "https://dc.lft.to/lastmile_qr_scan", "ios": "https://dc.lft.to/lastmile_qr_scan"}, "fusion_lat": 0.0, "lat": 38.8832435, "is_disabled": 0, "lon": -76.94940483333333, "is_reserved": 0}, {"bike_id": "f5514e0c08ba857b3851547abe7ea2b0", "fusion_lon": 0.0, "type": "electric_scooter", "name": "f5514e0c08ba857b3851547abe7ea2b0", "rental_uris": {"android": "https://dc.lft.to/lastmile_qr_scan", "ios": "https://dc.lft.to/lastmile_qr_scan"}, "fusion_lat": 0.0, "lat": 38.95653383333333, "is_disabled": 0, "lon": -77.03293916666667, "is_reserved": 0}, {"bike_id": "2ef53ee6be84070e044bd0f867dc186e", "fusion_lon": 0.0, "type": "electric_scooter", "name": "2ef53ee6be84070e044bd0f867dc186e", "rental_uris": {"android": "https://dc.lft.to/lastmile_qr_scan", "ios": "https://dc.lft.to/lastmile_qr_scan"}, "fusion_lat": 0.0, "lat": 38.908679666666664, "is_disabled": 0, "lon": -77.02391733333333, "is_reserved": 0}, {"bike_id": "991a23ddd0565ed734511efde448fcff", "fusion_lon": 0.0, "type": "electric_bike", "name": "991a23ddd0565ed734511efde448fcff", "rental_uris": {"android": "https://dc.lft.to/lastmile_qr_scan", "ios": "https://dc.lft.to/lastmile_qr_scan"}, "fusion_lat": 0.0, "lat": 38.975872833333334, "is_disabled": 0, "lon": -77.03513533333333, "is_reserved": 0}, {"bike_id": "ec5f6a4cbf739925091cd7360e3eb61a", "fusion_lon": 0.0, "type": "electric_bike", "name": "ec5f6a4cbf739925091cd7360e3eb61a", "rental_uris": {"android": "https://dc.lft.to/lastmile_qr_scan", "ios": "https://dc.lft.to/lastmile_qr_scan"}, "fusion_lat": 0.0, "lat": 38.8361275, "is_disabled": 0, "lon": -77.00371816666667, "is_reserved": 0}, {"bike_id": "c1d621be09af8a76beac12f2ebb399dc", "fusion_lon": 0.0, "type": "electric_bike", "name": "c1d621be09af8a76beac12f2ebb399dc", "rental_uris": {"android": "https://dc.lft.to/lastmile_qr_scan", "ios": "https://dc.lft.to/lastmile_qr_scan"}, "fusion_lat": 0.0, "lat": 38.88108966666667, "is_disabled": 0, "lon": -77.11190916666666, "is_reserved": 0}, {"bike_id": "db790dc2b8b5be00a5c3c6c0c22364a6", "fusion_lon": 0.0, "type": "electric_scooter", "name": "db790dc2b8b5be00a5c3c6c0c22364a6", "rental_uris": {"android": "https://dc.lft.to/lastmile_qr_scan", "ios": "https://dc.lft.to/lastmile_qr_scan"}, "fusion_lat": 0.0, "lat": 38.9003605, "is_disabled": 0, "lon": -76.99628033333333, "is_reserved": 0}, {"bike_id": "fc64d3ad719fb5835b18ec496ff36a32", "fusion_lon": 0.0, "type": "electric_bike", "name": "fc64d3ad719fb5835b18ec496ff36a32", "rental_uris": {"android": "https://dc.lft.to/lastmile_qr_scan", "ios": "https://dc.lft.to/lastmile_qr_scan"}, "fusion_lat": 0.0, "lat": 38.956412666666665, "is_disabled": 0, "lon": -77.02289916666666, "is_reserved": 0}, {"bike_id": "9708dac79450092b89ca2865beb39110", "fusion_lon": 0.0, "type": "electric_scooter", "name": "9708dac79450092b89ca2865beb39110", "rental_uris": {"android": "https://dc.lft.to/lastmile_qr_scan", "ios": "https://dc.lft.to/lastmile_qr_scan"}, "fusion_lat": 0.0, "lat": 38.90174966666667, "is_disabled": 0, "lon": -77.02215383333333, "is_reserved": 0}, {"bike_id": "54eada7a09da0ba7e2bae6f44a779f9e", "fusion_lon": 0.0, "type": "electric_scooter", "name": "54eada7a09da0ba7e2bae6f44a779f9e", "rental_uris": {"android": "https://dc.lft.to/lastmile_qr_scan", "ios": "https://dc.lft.to/lastmile_qr_scan"}, "fusion_lat": 0.0, "lat": 38.935904666666666, "is_disabled": 0, "lon": -77.01933733333334, "is_reserved": 0}, {"bike_id": "b6b480189541fb4c3594dbb88eb75ea6", "fusion_lon": 0.0, "type": "electric_scooter", "name": "b6b480189541fb4c3594dbb88eb75ea6", "rental_uris": {"android": "https://dc.lft.to/lastmile_qr_scan", "ios": "https://dc.lft.to/lastmile_qr_scan"}, "fusion_lat": 0.0, "lat": 38.8996195, "is_disabled": 0, "lon": -76.9857735, "is_reserved": 0}, {"bike_id": "22478f03183c5d7c11cd9448eeca5074", "fusion_lon": 0.0, "type": "electric_scooter", "name": "22478f03183c5d7c11cd9448eeca5074", "rental_uris": {"android": "https://dc.lft.to/lastmile_qr_scan", "ios": "https://dc.lft.to/lastmile_qr_scan"}, "fusion_lat": 0.0, "lat": 38.91988583333333, "is_disabled": 0, "lon": -77.03980383333334, "is_reserved": 0}, {"bike_id": "62708bd7994046577a3da5994b9d7e28", "fusion_lon": 0.0, "type": "electric_scooter", "name": "62708bd7994046577a3da5994b9d7e28", "rental_uris": {"android": "https://dc.lft.to/lastmile_qr_scan", "ios": "https://dc.lft.to/lastmile_qr_scan"}, "fusion_lat": 0.0, "lat": 38.96207066666667, "is_disabled": 0, "lon": -77.023444, "is_reserved": 0}, {"bike_id": "31a8dc75f3e147e4329c23d8e0d15829", "fusion_lon": 0.0, "type": "electric_scooter", "name": "31a8dc75f3e147e4329c23d8e0d15829", "rental_uris": {"android": "https://dc.lft.to/lastmile_qr_scan", "ios": "https://dc.lft.to/lastmile_qr_scan"}, "fusion_lat": 0.0, "lat": 38.91184466666667, "is_disabled": 0, "lon": -77.044995, "is_reserved": 0}, {"bike_id": "9096ca100ed962a5495b92776bdf394a", "fusion_lon": 0.0, "type": "electric_scooter", "name": "9096ca100ed962a5495b92776bdf394a", "rental_uris": {"android": "https://dc.lft.to/lastmile_qr_scan", "ios": "https://dc.lft.to/lastmile_qr_scan"}, "fusion_lat": 0.0, "lat": 38.88421483333333, "is_disabled": 0, "lon": -76.99549216666666, "is_reserved": 0}, {"bike_id": "183cfef9a57ad78bfaba83fce5381ba1", "fusion_lon": 0.0, "type": "electric_scooter", "name": "183cfef9a57ad78bfaba83fce5381ba1", "rental_uris": {"android": "https://dc.lft.to/lastmile_qr_scan", "ios": "https://dc.lft.to/lastmile_qr_scan"}, "fusion_lat": 0.0, "lat": 38.933676166666665, "is_disabled": 0, "lon": -77.0573415, "is_reserved": 0}, {"bike_id": "df4840144a2825ec726d770fec3d65d7", "fusion_lon": 0.0, "type": "electric_scooter", "name": "df4840144a2825ec726d770fec3d65d7", "rental_uris": {"android": "https://dc.lft.to/lastmile_qr_scan", "ios": "https://dc.lft.to/lastmile_qr_scan"}, "fusion_lat": 0.0, "lat": 38.926759, "is_disabled": 0, "lon": -77.007558, "is_reserved": 0}, {"bike_id": "d19b7096e2ef3292ef330cba5aa7bbb9", "fusion_lon": 0.0, "type": "electric_scooter", "name": "d19b7096e2ef3292ef330cba5aa7bbb9", "rental_uris": {"android": "https://dc.lft.to/lastmile_qr_scan", "ios": "https://dc.lft.to/lastmile_qr_scan"}, "fusion_lat": 0.0, "lat": 38.903111833333334, "is_disabled": 0, "lon": -77.0346, "is_reserved": 0}, {"bike_id": "45d0cd21b368411d2760ce70e0f32f2a", "fusion_lon": 0.0, "type": "electric_scooter", "name": "45d0cd21b368411d2760ce70e0f32f2a", "rental_uris": {"android": "https://dc.lft.to/lastmile_qr_scan", "ios": "https://dc.lft.to/lastmile_qr_scan"}, "fusion_lat": 0.0, "lat": 38.90971966666667, "is_disabled": 0, "lon": -77.04043566666667, "is_reserved": 0}, {"bike_id": "b5c91b731df0a80ca0cf1f40fbcb601c", "fusion_lon": 0.0, "type": "electric_scooter", "name": "b5c91b731df0a80ca0cf1f40fbcb601c", "rental_uris": {"android": "https://dc.lft.to/lastmile_qr_scan", "ios": "https://dc.lft.to/lastmile_qr_scan"}, "fusion_lat": 0.0, "lat": 38.922223833333334, "is_disabled": 0, "lon": -77.043343, "is_reserved": 0}, {"bike_id": "15985d0157fc1e6eef38bd17fe84e7d3", "fusion_lon": 0.0, "type": "electric_scooter", "name": "15985d0157fc1e6eef38bd17fe84e7d3", "rental_uris": {"android": "https://dc.lft.to/lastmile_qr_scan", "ios": "https://dc.lft.to/lastmile_qr_scan"}, "fusion_lat": 0.0, "lat": 38.90903933333333, "is_disabled": 0, "lon": -77.04142516666667, "is_reserved": 0}, {"bike_id": "97289336666d57a572d833cc2678cd2c", "fusion_lon": 0.0, "type": "electric_scooter", "name": "97289336666d57a572d833cc2678cd2c", "rental_uris": {"android": "https://dc.lft.to/lastmile_qr_scan", "ios": "https://dc.lft.to/lastmile_qr_scan"}, "fusion_lat": 0.0, "lat": 38.88735633333334, "is_disabled": 0, "lon": -77.03180333333333, "is_reserved": 0}, {"bike_id": "4f1de9c81b30ab414bd8b86de0ee7c1c", "fusion_lon": 0.0, "type": "electric_bike", "name": "4f1de9c81b30ab414bd8b86de0ee7c1c", "rental_uris": {"android": "https://dc.lft.to/lastmile_qr_scan", "ios": "https://dc.lft.to/lastmile_qr_scan"}, "fusion_lat": 0.0, "lat": 38.86162433333333, "is_disabled": 0, "lon": -77.13096116666667, "is_reserved": 0}, {"bike_id": "a0a1d9e8ca64e289e6ba609ed3a3f6b3", "fusion_lon": 0.0, "type": "electric_scooter", "name": "a0a1d9e8ca64e289e6ba609ed3a3f6b3", "rental_uris": {"android": "https://dc.lft.to/lastmile_qr_scan", "ios": "https://dc.lft.to/lastmile_qr_scan"}, "fusion_lat": 0.0, "lat": 38.93292433333333, "is_disabled": 0, "lon": -77.0244285, "is_reserved": 0}, {"bike_id": "139f32a54544e2b719499e8c11f80b3b", "fusion_lon": 0.0, "type": "electric_scooter", "name": "139f32a54544e2b719499e8c11f80b3b", "rental_uris": {"android": "https://dc.lft.to/lastmile_qr_scan", "ios": "https://dc.lft.to/lastmile_qr_scan"}, "fusion_lat": 0.0, "lat": 38.922431, "is_disabled": 0, "lon": -77.03521183333334, "is_reserved": 0}, {"bike_id": "62f665ee73e5738b18af4f803487cc9e", "fusion_lon": 0.0, "type": "electric_scooter", "name": "62f665ee73e5738b18af4f803487cc9e", "rental_uris": {"android": "https://dc.lft.to/lastmile_qr_scan", "ios": "https://dc.lft.to/lastmile_qr_scan"}, "fusion_lat": 0.0, "lat": 38.905905833333335, "is_disabled": 0, "lon": -77.06273033333333, "is_reserved": 0}, {"bike_id": "15b294d5aa0571c639da151409b11fd9", "fusion_lon": 0.0, "type": "electric_scooter", "name": "15b294d5aa0571c639da151409b11fd9", "rental_uris": {"android": "https://dc.lft.to/lastmile_qr_scan", "ios": "https://dc.lft.to/lastmile_qr_scan"}, "fusion_lat": 0.0, "lat": 38.938530166666666, "is_disabled": 0, "lon": -77.0245565, "is_reserved": 0}, {"bike_id": "4fe3ae8021ac843e18c7738e24aeec9b", "fusion_lon": 0.0, "type": "electric_scooter", "name": "4fe3ae8021ac843e18c7738e24aeec9b", "rental_uris": {"android": "https://dc.lft.to/lastmile_qr_scan", "ios": "https://dc.lft.to/lastmile_qr_scan"}, "fusion_lat": 0.0, "lat": 38.92197133333333, "is_disabled": 0, "lon": -77.04260683333334, "is_reserved": 0}, {"bike_id": "e6ff0021376ae0cee84ce45f202db88f", "fusion_lon": 0.0, "type": "electric_scooter", "name": "e6ff0021376ae0cee84ce45f202db88f", "rental_uris": {"android": "https://dc.lft.to/lastmile_qr_scan", "ios": "https://dc.lft.to/lastmile_qr_scan"}, "fusion_lat": 0.0, "lat": 38.876847, "is_disabled": 0, "lon": -77.00701366666667, "is_reserved": 0}, {"bike_id": "1cf571b7d8fea8e3885f44d164abaddb", "fusion_lon": 0.0, "type": "electric_scooter", "name": "1cf571b7d8fea8e3885f44d164abaddb", "rental_uris": {"android": "https://dc.lft.to/lastmile_qr_scan", "ios": "https://dc.lft.to/lastmile_qr_scan"}, "fusion_lat": 0.0, "lat": 38.8688945, "is_disabled": 0, "lon": -76.983096, "is_reserved": 0}, {"bike_id": "a7c997d2cd2d44ae622a1dabd245216a", "fusion_lon": 0.0, "type": "electric_scooter", "name": "a7c997d2cd2d44ae622a1dabd245216a", "rental_uris": {"android": "https://dc.lft.to/lastmile_qr_scan", "ios": "https://dc.lft.to/lastmile_qr_scan"}, "fusion_lat": 0.0, "lat": 38.89732516666667, "is_disabled": 0, "lon": -77.03128916666667, "is_reserved": 0}, {"bike_id": "b9143123cbbcc38b4d35eb7249026bfe", "fusion_lon": 0.0, "type": "electric_scooter", "name": "b9143123cbbcc38b4d35eb7249026bfe", "rental_uris": {"android": "https://dc.lft.to/lastmile_qr_scan", "ios": "https://dc.lft.to/lastmile_qr_scan"}, "fusion_lat": 0.0, "lat": 38.9173045, "is_disabled": 0, "lon": -77.04175983333333, "is_reserved": 0}, {"bike_id": "e8705025d9082209749908acc908830f", "fusion_lon": 0.0, "type": "electric_bike", "name": "e8705025d9082209749908acc908830f", "rental_uris": {"android": "https://dc.lft.to/lastmile_qr_scan", "ios": "https://dc.lft.to/lastmile_qr_scan"}, "fusion_lat": 0.0, "lat": 38.84121183333333, "is_disabled": 0, "lon": -77.09020666666666, "is_reserved": 0}, {"bike_id": "e8433eca9ab452d2203356b06e707ae6", "fusion_lon": 0.0, "type": "electric_scooter", "name": "e8433eca9ab452d2203356b06e707ae6", "rental_uris": {"android": "https://dc.lft.to/lastmile_qr_scan", "ios": "https://dc.lft.to/lastmile_qr_scan"}, "fusion_lat": 0.0, "lat": 38.881544, "is_disabled": 0, "lon": -77.02702016666667, "is_reserved": 0}, {"bike_id": "36b5700da381e67375e89d900606f28f", "fusion_lon": 0.0, "type": "electric_scooter", "name": "36b5700da381e67375e89d900606f28f", "rental_uris": {"android": "https://dc.lft.to/lastmile_qr_scan", "ios": "https://dc.lft.to/lastmile_qr_scan"}, "fusion_lat": 0.0, "lat": 38.90520466666667, "is_disabled": 0, "lon": -77.06656433333333, "is_reserved": 0}, {"bike_id": "4b51eb1d16af70470cf96d2a41626fb3", "fusion_lon": 0.0, "type": "electric_scooter", "name": "4b51eb1d16af70470cf96d2a41626fb3", "rental_uris": {"android": "https://dc.lft.to/lastmile_qr_scan", "ios": "https://dc.lft.to/lastmile_qr_scan"}, "fusion_lat": 0.0, "lat": 38.89157866666667, "is_disabled": 0, "lon": -77.00347166666667, "is_reserved": 0}, {"bike_id": "4826a1b1bfc97c264f56833323e6826e", "fusion_lon": 0.0, "type": "electric_scooter", "name": "4826a1b1bfc97c264f56833323e6826e", "rental_uris": {"android": "https://dc.lft.to/lastmile_qr_scan", "ios": "https://dc.lft.to/lastmile_qr_scan"}, "fusion_lat": 0.0, "lat": 38.9275025, "is_disabled": 0, "lon": -77.03329766666667, "is_reserved": 0}, {"bike_id": "dab7482661135604717287a0040388ed", "fusion_lon": 0.0, "type": "electric_bike", "name": "dab7482661135604717287a0040388ed", "rental_uris": {"android": "https://dc.lft.to/lastmile_qr_scan", "ios": "https://dc.lft.to/lastmile_qr_scan"},