{"data": {"bikes": [{"name": "4eb096fe11c7449f0819fa4ca7fee258", "lon": -77.00928, "lat": 38.9145125, "type": "electric_scooter", "fusion_lon": 0.0, "is_reserved": 0, "bike_id": "4eb096fe11c7449f0819fa4ca7fee258", "fusion_lat": 0.0, "is_disabled": 0, "rental_uris": {"ios": "https://dc.lft.to/lastmile_qr_scan", "android": "https://dc.lft.to/lastmile_qr_scan"}}, {"name": "0f6a63f9997ec1e86dc52b3008f42d26", "lon": -77.01167033333333, "lat": 38.91566183333333, "type": "electric_scooter", "fusion_lon": 0.0, "is_reserved": 0, "bike_id": "0f6a63f9997ec1e86dc52b3008f42d26", "fusion_lat": 0.0, "is_disabled": 0, "rental_uris": {"ios": "https://dc.lft.to/lastmile_qr_scan", "android": "https://dc.lft.to/lastmile_qr_scan"}}, {"name": "7d9f74624f519c895ba582dd0e3a7f08", "lon": -77.03046216666667, "lat": 38.884040166666665, "type": "electric_scooter", "fusion_lon": 0.0, "is_reserved": 0, "bike_id": "7d9f74624f519c895ba582dd0e3a7f08", "fusion_lat": 0.0, "is_disabled": 0, "rental_uris": {"ios": "https://dc.lft.to/lastmile_qr_scan", "android": "https://dc.lft.to/lastmile_qr_scan"}}, {"name": "584315386089bbc3c966cc15740dc083", "lon": -77.02822, "lat": 38.96078966666666, "type": "electric_scooter", "fusion_lon": 0.0, "is_reserved": 0, "bike_id": "584315386089bbc3c966cc15740dc083", "fusion_lat": 0.0, "is_disabled": 0, "rental_uris": {"ios": "https://dc.lft.to/lastmile_qr_scan", "android": "https://dc.lft.to/lastmile_qr_scan"}}, {"name": "176bb1ef6d460233f440e168fd12b8c5", "lon": -77.04690483333333, "lat": 38.92159066666667, "type": "electric_scooter", "fusion_lon": 0.0, "is_reserved": 0, "bike_id": "176bb1ef6d460233f440e168fd12b8c5", "fusion_lat": 0.0, "is_disabled": 0, "rental_uris": {"ios": "https://dc.lft.to/lastmile_qr_scan", "android": "https://dc.lft.to/lastmile_qr_scan"}}, {"name": "672bb29a0182ddbca11380855ba337ed", "lon": -77.03651183333334, "lat": 38.9037245, "type": "electric_scooter", "fusion_lon": 0.0, "is_reserved": 0, "bike_id": "672bb29a0182ddbca11380855ba337ed", "fusion_lat": 0.0, "is_disabled": 0, "rental_uris": {"ios": "https://dc.lft.to/lastmile_qr_scan", "android": "https://dc.lft.to/lastmile_qr_scan"}}, {"name": "022b2e98729dd5d541bdb93882c40df4", "lon": -77.05344733333334, "lat": 38.90007683333333, "type": "electric_scooter", "fusion_lon": 0.0, "is_reserved": 0, "bike_id": "022b2e98729dd5d541bdb93882c40df4", "fusion_lat": 0.0, "is_disabled": 0, "rental_uris": {"ios": "https://dc.lft.to/lastmile_qr_scan", "android": "https://dc.lft.to/lastmile_qr_scan"}}, {"name": "b8fef2278cde24dbbcb922bd92ead256", "lon": -77.0174615, "lat": 38.88329783333333, "type": "electric_scooter", "fusion_lon": 0.0, "is_reserved": 0, "bike_id": "b8fef2278cde24dbbcb922bd92ead256", "fusion_lat": 0.0, "is_disabled": 0, "rental_uris": {"ios": "https://dc.lft.to/lastmile_qr_scan", "android": "https://dc.lft.to/lastmile_qr_scan"}}, {"name": "cac41f386fdbae6dc6c3ea7dcb48c8d3", "lon": -77.0060765, "lat": 38.9054235, "type": "electric_scooter", "fusion_lon": 0.0, "is_reserved": 0, "bike_id": "cac41f386fdbae6dc6c3ea7dcb48c8d3", "fusion_lat": 0.0, "is_disabled": 0, "rental_uris": {"ios": "https://dc.lft.to/lastmile_qr_scan", "android": "https://dc.lft.to/lastmile_qr_scan"}}, {"name": "f27690b6c44a66cb38fe3a68c426b2a9", "lon": -77.038647, "lat": 38.91173383333334, "type": "electric_scooter", "fusion_lon": 0.0, "is_reserved": 0, "bike_id": "f27690b6c44a66cb38fe3a68c426b2a9", "fusion_lat": 0.0, "is_disabled": 0, "rental_uris": {"ios": "https://dc.lft.to/lastmile_qr_scan", "android": "https://dc.lft.to/lastmile_qr_scan"}}, {"name": "fed769dc3d48328ffe6fa4c7c633cdac", "lon": -77.03905133333333, "lat": 38.918313833333336, "type": "electric_scooter", "fusion_lon": 0.0, "is_reserved": 0, "bike_id": "fed769dc3d48328ffe6fa4c7c633cdac", "fusion_lat": 0.0, "is_disabled": 0, "rental_uris": {"ios": "https://dc.lft.to/lastmile_qr_scan", "android": "https://dc.lft.to/lastmile_qr_scan"}}, {"name": "0565990afc4f2dc959944531f04899f7", "lon": -76.9977705, "lat": 38.84429166666666, "type": "electric_scooter", "fusion_lon": 0.0, "is_reserved": 0, "bike_id": "0565990afc4f2dc959944531f04899f7", "fusion_lat": 0.0, "is_disabled": 0, "rental_uris": {"ios": "https://dc.lft.to/lastmile_qr_scan", "android": "https://dc.lft.to/lastmile_qr_scan"}}, {"name": "5046abc593e9ad1c3b2c225996cbde64", "lon": -77.011609, "lat": 38.917020666666666, "type": "electric_scooter", "fusion_lon": 0.0, "is_reserved": 0, "bike_id": "5046abc593e9ad1c3b2c225996cbde64", "fusion_lat": 0.0, "is_disabled": 0, "rental_uris": {"ios": "https://dc.lft.to/lastmile_qr_scan", "android": "https://dc.lft.to/lastmile_qr_scan"}}, {"name": "b9a8589ac021ac221684a1d2f6751188", "lon": -76.98313816666666, "lat": 38.86885866666667, "type": "electric_scooter", "fusion_lon": 0.0, "is_reserved": 0, "bike_id": "b9a8589ac021ac221684a1d2f6751188", "fusion_lat": 0.0, "is_disabled": 0, "rental_uris": {"ios": "https://dc.lft.to/lastmile_qr_scan", "android": "https://dc.lft.to/lastmile_qr_scan"}}, {"name": "a3b90eba59e04e1c6d6e79f3b8780ea9", "lon": -77.02257216666666, "lat": 38.923050333333336, "type": "electric_scooter", "fusion_lon": 0.0, "is_reserved": 0, "bike_id": "a3b90eba59e04e1c6d6e79f3b8780ea9", "fusion_lat": 0.0, "is_disabled": 0, "rental_uris": {"ios": "https://dc.lft.to/lastmile_qr_scan", "android": "https://dc.lft.to/lastmile_qr_scan"}}, {"name": "a13b9b6fcfc6d59279486fff13d91ec0", "lon": -77.02892666666666, "lat": 38.9173005, "type": "electric_scooter", "fusion_lon": 0.0, "is_reserved": 0, "bike_id": "a13b9b6fcfc6d59279486fff13d91ec0", "fusion_lat": 0.0, "is_disabled": 0, "rental_uris": {"ios": "https://dc.lft.to/lastmile_qr_scan", "android": "https://dc.lft.to/lastmile_qr_scan"}}, {"name": "59c62b84e91bc37675282d625e349dab", "lon": -76.99777916666666, "lat": 38.84426916666666, "type": "electric_scooter", "fusion_lon": 0.0, "is_reserved": 0, "bike_id": "59c62b84e91bc37675282d625e349dab", "fusion_lat": 0.0, "is_disabled": 0, "rental_uris": {"ios": "https://dc.lft.to/lastmile_qr_scan", "android": "https://dc.lft.to/lastmile_qr_scan"}}, {"name": "17a62a79c6c35a54eef45418fc41fbc5", "lon": -77.03287433333334, "lat": 38.932498833333334, "type": "electric_scooter", "fusion_lon": 0.0, "is_reserved": 0, "bike_id": "17a62a79c6c35a54eef45418fc41fbc5", "fusion_lat": 0.0, "is_disabled": 0, "rental_uris": {"ios": "https://dc.lft.to/lastmile_qr_scan", "android": "https://dc.lft.to/lastmile_qr_scan"}}, {"name": "3fe9ce8c843ef7fc23fc834d8555ea4f", "lon": -76.9575195, "lat": 38.88430133333333, "type": "electric_scooter", "fusion_lon": 0.0, "is_reserved": 0, "bike_id": "3fe9ce8c843ef7fc23fc834d8555ea4f", "fusion_lat": 0.0, "is_disabled": 0, "rental_uris": {"ios": "https://dc.lft.to/lastmile_qr_scan", "android": "https://dc.lft.to/lastmile_qr_scan"}}, {"name": "63146103ea79112878dad931196ad015", "lon": -77.03117916666666, "lat": 38.915625, "type": "electric_scooter", "fusion_lon": 0.0, "is_reserved": 0, "bike_id": "63146103ea79112878dad931196ad015", "fusion_lat": 0.0, "is_disabled": 0, "rental_uris": {"ios": "https://dc.lft.to/lastmile_qr_scan", "android": "https://dc.lft.to/lastmile_qr_scan"}}, {"name": "2cb757f58958e9c268129623dbef95bd", "lon": -77.05069433333334, "lat": 38.90165183333333, "type": "electric_scooter", "fusion_lon": 0.0, "is_reserved": 0, "bike_id": "2cb757f58958e9c268129623dbef95bd", "fusion_lat": 0.0, "is_disabled": 0, "rental_uris": {"ios": "https://dc.lft.to/lastmile_qr_scan", "android": "https://dc.lft.to/lastmile_qr_scan"}}, {"name": "6ad06c8977979f1471f4c30e7be15fce", "lon": -77.02916016666667, "lat": 38.93327266666667, "type": "electric_scooter", "fusion_lon": 0.0, "is_reserved": 0, "bike_id": "6ad06c8977979f1471f4c30e7be15fce", "fusion_lat": 0.0, "is_disabled": 0, "rental_uris": {"ios": "https://dc.lft.to/lastmile_qr_scan", "android": "https://dc.lft.to/lastmile_qr_scan"}}, {"name": "45aa48bf0c49ee2a64f493f1a467bef5", "lon": -76.94967116666666, "lat": 38.89354816666667, "type": "electric_scooter", "fusion_lon": 0.0, "is_reserved": 0, "bike_id": "45aa48bf0c49ee2a64f493f1a467bef5", "fusion_lat": 0.0, "is_disabled": 0, "rental_uris": {"ios": "https://dc.lft.to/lastmile_qr_scan", "android": "https://dc.lft.to/lastmile_qr_scan"}}, {"name": "6af99d605b26b608c860a1b4946e2985", "lon": -77.011944, "lat": 38.90306733333333, "type": "electric_scooter", "fusion_lon": 0.0, "is_reserved": 0, "bike_id": "6af99d605b26b608c860a1b4946e2985", "fusion_lat": 0.0, "is_disabled": 0, "rental_uris": {"ios": "https://dc.lft.to/lastmile_qr_scan", "android": "https://dc.lft.to/lastmile_qr_scan"}}, {"name": "7f04c81148721c8407fdc479faa9e374", "lon": -77.105983, "lat": 38.928904333333335, "type": "electric_bike", "fusion_lon": 0.0, "is_reserved": 0, "bike_id": "7f04c81148721c8407fdc479faa9e374", "fusion_lat": 0.0, "is_disabled": 0, "rental_uris": {"ios": "https://dc.lft.to/lastmile_qr_scan", "android": "https://dc.lft.to/lastmile_qr_scan"}}, {"name": "c2724b8bc85195e87aec8f5efe25b15f", "lon": -77.007733, "lat": 38.905686833333334, "type": "electric_scooter", "fusion_lon": 0.0, "is_reserved": 0, "bike_id": "c2724b8bc85195e87aec8f5efe25b15f", "fusion_lat": 0.0, "is_disabled": 0, "rental_uris": {"ios": "https://dc.lft.to/lastmile_qr_scan", "android": "https://dc.lft.to/lastmile_qr_scan"}}, {"name": "6bf12485c97b8311e5b82250a44d1fb9", "lon": -77.02918333333334, "lat": 38.92970783333333, "type": "electric_scooter", "fusion_lon": 0.0, "is_reserved": 0, "bike_id": "6bf12485c97b8311e5b82250a44d1fb9", "fusion_lat": 0.0, "is_disabled": 0, "rental_uris": {"ios": "https://dc.lft.to/lastmile_qr_scan", "android": "https://dc.lft.to/lastmile_qr_scan"}}, {"name": "405d214d061b88620be8adf570852489", "lon": -76.9887705, "lat": 38.8903505, "type": "electric_scooter", "fusion_lon": 0.0, "is_reserved": 0, "bike_id": "405d214d061b88620be8adf570852489", "fusion_lat": 0.0, "is_disabled": 0, "rental_uris": {"ios": "https://dc.lft.to/lastmile_qr_scan", "android": "https://dc.lft.to/lastmile_qr_scan"}}, {"name": "4ce1edcc02e970127d7effac621a7c0c", "lon": -77.0486825, "lat": 38.915246333333336, "type": "electric_scooter", "fusion_lon": 0.0, "is_reserved": 0, "bike_id": "4ce1edcc02e970127d7effac621a7c0c", "fusion_lat": 0.0, "is_disabled": 0, "rental_uris": {"ios": "https://dc.lft.to/lastmile_qr_scan", "android": "https://dc.lft.to/lastmile_qr_scan"}}, {"name": "39a5cf5b254588e0efab96a6323d13f4", "lon": -77.03197966666667, "lat": 38.9178115, "type": "electric_scooter", "fusion_lon": 0.0, "is_reserved": 0, "bike_id": "39a5cf5b254588e0efab96a6323d13f4", "fusion_lat": 0.0, "is_disabled": 0, "rental_uris": {"ios": "https://dc.lft.to/lastmile_qr_scan", "android": "https://dc.lft.to/lastmile_qr_scan"}}, {"name": "5d12a1539b913594f9afa15cdbfa65f0", "lon": -77.04154883333334, "lat": 38.91913516666666, "type": "electric_scooter", "fusion_lon": 0.0, "is_reserved": 0, "bike_id": "5d12a1539b913594f9afa15cdbfa65f0", "fusion_lat": 0.0, "is_disabled": 0, "rental_uris": {"ios": "https://dc.lft.to/lastmile_qr_scan", "android": "https://dc.lft.to/lastmile_qr_scan"}}, {"name": "402655e61a6ce3e94307761cfbfabb4e", "lon": -77.03197916666667, "lat": 38.92119566666667, "type": "electric_scooter", "fusion_lon": 0.0, "is_reserved": 0, "bike_id": "402655e61a6ce3e94307761cfbfabb4e", "fusion_lat": 0.0, "is_disabled": 0, "rental_uris": {"ios": "https://dc.lft.to/lastmile_qr_scan", "android": "https://dc.lft.to/lastmile_qr_scan"}}, {"name": "b7f19856e3eefb492814436ce7684946", "lon": -77.0221995, "lat": 38.91000416666667, "type": "electric_scooter", "fusion_lon": 0.0, "is_reserved": 0, "bike_id": "b7f19856e3eefb492814436ce7684946", "fusion_lat": 0.0, "is_disabled": 0, "rental_uris": {"ios": "https://dc.lft.to/lastmile_qr_scan", "android": "https://dc.lft.to/lastmile_qr_scan"}}, {"name": "a9d3026459a2f84ee7282be3368284f0", "lon": -77.04258983333334, "lat": 38.90864416666667, "type": "electric_scooter", "fusion_lon": 0.0, "is_reserved": 0, "bike_id": "a9d3026459a2f84ee7282be3368284f0", "fusion_lat": 0.0, "is_disabled": 0, "rental_uris": {"ios": "https://dc.lft.to/lastmile_qr_scan", "android": "https://dc.lft.to/lastmile_qr_scan"}}, {"name": "9203f504ffde953ed15b4ad2aa2ed5e3", "lon": -76.99132116666667, "lat": 38.86195166666667, "type": "electric_scooter", "fusion_lon": 0.0, "is_reserved": 0, "bike_id": "9203f504ffde953ed15b4ad2aa2ed5e3", "fusion_lat": 0.0, "is_disabled": 0, "rental_uris": {"ios": "https://dc.lft.to/lastmile_qr_scan", "android": "https://dc.lft.to/lastmile_qr_scan"}}, {"name": "89278b1abde98567d29035098023a8d8", "lon": -77.041839, "lat": 38.8928715, "type": "electric_scooter", "fusion_lon": 0.0, "is_reserved": 0, "bike_id": "89278b1abde98567d29035098023a8d8", "fusion_lat": 0.0, "is_disabled": 0, "rental_uris": {"ios": "https://dc.lft.to/lastmile_qr_scan", "android": "https://dc.lft.to/lastmile_qr_scan"}}, {"name": "331b889cce3979a39849db2483d567e7", "lon": -77.02294583333334, "lat": 38.928080333333334, "type": "electric_scooter", "fusion_lon": 0.0, "is_reserved": 0, "bike_id": "331b889cce3979a39849db2483d567e7", "fusion_lat": 0.0, "is_disabled": 0, "rental_uris": {"ios": "https://dc.lft.to/lastmile_qr_scan", "android": "https://dc.lft.to/lastmile_qr_scan"}}, {"name": "ac9fe382d5dd0defd3085fcda036f555", "lon": -77.05660116666667, "lat": 38.92863716666667, "type": "electric_bike", "fusion_lon": 0.0, "is_reserved": 0, "bike_id": "ac9fe382d5dd0defd3085fcda036f555", "fusion_lat": 0.0, "is_disabled": 0, "rental_uris": {"ios": "https://dc.lft.to/lastmile_qr_scan", "android": "https://dc.lft.to/lastmile_qr_scan"}}, {"name": "4cb1ce03eaced69c857732f62f3d9f86", "lon": -77.02728616666667, "lat": 38.894949, "type": "electric_scooter", "fusion_lon": 0.0, "is_reserved": 0, "bike_id": "4cb1ce03eaced69c857732f62f3d9f86", "fusion_lat": 0.0, "is_disabled": 0, "rental_uris": {"ios": "https://dc.lft.to/lastmile_qr_scan", "android": "https://dc.lft.to/lastmile_qr_scan"}}, {"name": "42a25813afb13daecd17aa184dc30631", "lon": -77.04715366666667, "lat": 38.909495666666665, "type": "electric_scooter", "fusion_lon": 0.0, "is_reserved": 0, "bike_id": "42a25813afb13daecd17aa184dc30631", "fusion_lat": 0.0, "is_disabled": 0, "rental_uris": {"ios": "https://dc.lft.to/lastmile_qr_scan", "android": "https://dc.lft.to/lastmile_qr_scan"}}, {"name": "bef10d57c2fbaacf98a2d5be3c46710c", "lon": -77.03442233333334, "lat": 38.90972433333334, "type": "electric_scooter", "fusion_lon": 0.0, "is_reserved": 0, "bike_id": "bef10d57c2fbaacf98a2d5be3c46710c", "fusion_lat": 0.0, "is_disabled": 0, "rental_uris": {"ios": "https://dc.lft.to/lastmile_qr_scan", "android": "https://dc.lft.to/lastmile_qr_scan"}}, {"name": "2435876756f2b9f360d1ad0b2ca6a96f", "lon": -77.0464815, "lat": 38.905533, "type": "electric_scooter", "fusion_lon": 0.0, "is_reserved": 0, "bike_id": "2435876756f2b9f360d1ad0b2ca6a96f", "fusion_lat": 0.0, "is_disabled": 0, "rental_uris": {"ios": "https://dc.lft.to/lastmile_qr_scan", "android": "https://dc.lft.to/lastmile_qr_scan"}}, {"name": "1a83cff098e592f747c8c848bc12a3b1", "lon": -77.0102545, "lat": 38.91707733333333, "type": "electric_scooter", "fusion_lon": 0.0, "is_reserved": 0, "bike_id": "1a83cff098e592f747c8c848bc12a3b1", "fusion_lat": 0.0, "is_disabled": 0, "rental_uris": {"ios": "https://dc.lft.to/lastmile_qr_scan", "android": "https://dc.lft.to/lastmile_qr_scan"}}, {"name": "e47081453310a62637ba5f7e5e37b6da", "lon": -77.03998, "lat": 38.9176315, "type": "electric_scooter", "fusion_lon": 0.0, "is_reserved": 0, "bike_id": "e47081453310a62637ba5f7e5e37b6da", "fusion_lat": 0.0, "is_disabled": 0, "rental_uris": {"ios": "https://dc.lft.to/lastmile_qr_scan", "android": "https://dc.lft.to/lastmile_qr_scan"}}, {"name": "a05a95880cfda088de26baa400b4a64b", "lon": -76.980792, "lat": 38.901670833333334, "type": "electric_scooter", "fusion_lon": 0.0, "is_reserved": 0, "bike_id": "a05a95880cfda088de26baa400b4a64b", "fusion_lat": 0.0, "is_disabled": 0, "rental_uris": {"ios": "https://dc.lft.to/lastmile_qr_scan", "android": "https://dc.lft.to/lastmile_qr_scan"}}, {"name": "52e8a45ec073873bd2783d02bc7aa5bb", "lon": -77.05295516666666, "lat": 38.9278585, "type": "electric_scooter", "fusion_lon": 0.0, "is_reserved": 0, "bike_id": "52e8a45ec073873bd2783d02bc7aa5bb", "fusion_lat": 0.0, "is_disabled": 0, "rental_uris": {"ios": "https://dc.lft.to/lastmile_qr_scan", "android": "https://dc.lft.to/lastmile_qr_scan"}}, {"name": "685587deb469fd953aec439b7f263828", "lon": -77.00975733333334, "lat": 38.91411983333333, "type": "electric_scooter", "fusion_lon": 0.0, "is_reserved": 0, "bike_id": "685587deb469fd953aec439b7f263828", "fusion_lat": 0.0, "is_disabled": 0, "rental_uris": {"ios": "https://dc.lft.to/lastmile_qr_scan", "android": "https://dc.lft.to/lastmile_qr_scan"}}, {"name": "2ef936f4bca5159ba4be310f31f69d3a", "lon": -77.03467966666666, "lat": 38.92256866666666, "type": "electric_scooter", "fusion_lon": 0.0, "is_reserved": 0, "bike_id": "2ef936f4bca5159ba4be310f31f69d3a", "fusion_lat": 0.0, "is_disabled": 0, "rental_uris": {"ios": "https://dc.lft.to/lastmile_qr_scan", "android": "https://dc.lft.to/lastmile_qr_scan"}}, {"name": "03e806b8ad32e99411f118c236238053", "lon": -76.93753733333334, "lat": 38.89043866666667, "type": "electric_scooter", "fusion_lon": 0.0, "is_reserved": 0, "bike_id": "03e806b8ad32e99411f118c236238053", "fusion_lat": 0.0, "is_disabled": 0, "rental_uris": {"ios": "https://dc.lft.to/lastmile_qr_scan", "android": "https://dc.lft.to/lastmile_qr_scan"}}, {"name": "458286d083b5a8b16b4652b55339bdd1", "lon": -77.02844283333333, "lat": 38.934155833333335, "type": "electric_scooter", "fusion_lon": 0.0, "is_reserved": 0, "bike_id": "458286d083b5a8b16b4652b55339bdd1", "fusion_lat": 0.0, "is_disabled": 0, "rental_uris": {"ios": "https://dc.lft.to/lastmile_qr_scan", "android": "https://dc.lft.to/lastmile_qr_scan"}}, {"name": "2af9af69395463aab0fac1c310ba5b22", "lon": -77.06024566666666, "lat": 38.90434333333333, "type": "electric_scooter", "fusion_lon": 0.0, "is_reserved": 0, "bike_id": "2af9af69395463aab0fac1c310ba5b22", "fusion_lat": 0.0, "is_disabled": 0, "rental_uris": {"ios": "https://dc.lft.to/lastmile_qr_scan", "android": "https://dc.lft.to/lastmile_qr_scan"}}, {"name": "dcf1b68fb5bfa2d5ea9a0993286a2c7a", "lon": -77.0375815, "lat": 38.92905966666667, "type": "electric_scooter", "fusion_lon": 0.0, "is_reserved": 0, "bike_id": "dcf1b68fb5bfa2d5ea9a0993286a2c7a", "fusion_lat": 0.0, "is_disabled": 0, "rental_uris": {"ios": "https://dc.lft.to/lastmile_qr_scan", "android": "https://dc.lft.to/lastmile_qr_scan"}}, {"name": "3f9204103c29d2ac7e54a4a1490b9d82", "lon": -76.98360316666667, "lat": 38.9153655, "type": "electric_scooter", "fusion_lon": 0.0, "is_reserved": 0, "bike_id": "3f9204103c29d2ac7e54a4a1490b9d82", "fusion_lat": 0.0, "is_disabled": 0, "rental_uris": {"ios": "https://dc.lft.to/lastmile_qr_scan", "android": "https://dc.lft.to/lastmile_qr_scan"}}, {"name": "ac4232f510d2e5cb1158f0e182c93aea", "lon": -77.00750533333333, "lat": 38.92668666666667, "type": "electric_scooter", "fusion_lon": 0.0, "is_reserved": 0, "bike_id": "ac4232f510d2e5cb1158f0e182c93aea", "fusion_lat": 0.0, "is_disabled": 0, "rental_uris": {"ios": "https://dc.lft.to/lastmile_qr_scan", "android": "https://dc.lft.to/lastmile_qr_scan"}}, {"name": "53fb645fc117a54699c3aad85f7f5783", "lon": -77.00582916666667, "lat": 38.9056165, "type": "electric_scooter", "fusion_lon": 0.0, "is_reserved": 0, "bike_id": "53fb645fc117a54699c3aad85f7f5783", "fusion_lat": 0.0, "is_disabled": 0, "rental_uris": {"ios": "https://dc.lft.to/lastmile_qr_scan", "android": "https://dc.lft.to/lastmile_qr_scan"}}, {"name": "6971ecc398a8e364ec205da55f5bc3b0", "lon": -77.01194033333333, "lat": 38.89509366666667, "type": "electric_scooter", "fusion_lon": 0.0, "is_reserved": 0, "bike_id": "6971ecc398a8e364ec205da55f5bc3b0", "fusion_lat": 0.0, "is_disabled": 0, "rental_uris": {"ios": "https://dc.lft.to/lastmile_qr_scan", "android": "https://dc.lft.to/lastmile_qr_scan"}}, {"name": "c4017b362ca4a2043cde1b5d5032600d", "lon": -76.99691683333333, "lat": 38.90827133333333, "type": "electric_scooter", "fusion_lon": 0.0, "is_reserved": 0, "bike_id": "c4017b362ca4a2043cde1b5d5032600d", "fusion_lat": 0.0, "is_disabled": 0, "rental_uris": {"ios": "https://dc.lft.to/lastmile_qr_scan", "android": "https://dc.lft.to/lastmile_qr_scan"}}, {"name": "672b5ce378182d9ad2b99f9c7be7f623", "lon": -77.053054, "lat": 38.898508166666666, "type": "electric_scooter", "fusion_lon": 0.0, "is_reserved": 0, "bike_id": "672b5ce378182d9ad2b99f9c7be7f623", "fusion_lat": 0.0, "is_disabled": 0, "rental_uris": {"ios": "https://dc.lft.to/lastmile_qr_scan", "android": "https://dc.lft.to/lastmile_qr_scan"}}, {"name": "daed15db19d31812592daba923c8e047", "lon": -77.043931, "lat": 38.920281833333334, "type": "electric_scooter", "fusion_lon": 0.0, "is_reserved": 0, "bike_id": "daed15db19d31812592daba923c8e047", "fusion_lat": 0.0, "is_disabled": 0, "rental_uris": {"ios": "https://dc.lft.to/lastmile_qr_scan", "android": "https://dc.lft.to/lastmile_qr_scan"}}, {"name": "8c00108bc7cb89a74ea8340e294582f4", "lon": -77.03310966666666, "lat": 38.926268, "type": "electric_bike", "fusion_lon": 0.0, "is_reserved": 0, "bike_id": "8c00108bc7cb89a74ea8340e294582f4", "fusion_lat": 0.0, "is_disabled": 0, "rental_uris": {"ios": "https://dc.lft.to/lastmile_qr_scan", "android": "https://dc.lft.to/lastmile_qr_scan"}}, {"name": "9a02860d6b2828d926f6ac3cf353fa9a", "lon": -77.043661, "lat": 38.898535833333334, "type": "electric_scooter", "fusion_lon": 0.0, "is_reserved": 0, "bike_id": "9a02860d6b2828d926f6ac3cf353fa9a", "fusion_lat": 0.0, "is_disabled": 0, "rental_uris": {"ios": "https://dc.lft.to/lastmile_qr_scan", "android": "https://dc.lft.to/lastmile_qr_scan"}}, {"name": "559279c90765c80e9f5c061ed458c738", "lon": -77.00809183333334, "lat": 38.947979333333336, "type": "electric_bike", "fusion_lon": 0.0, "is_reserved": 0, "bike_id": "559279c90765c80e9f5c061ed458c738", "fusion_lat": 0.0, "is_disabled": 0, "rental_uris": {"ios": "https://dc.lft.to/lastmile_qr_scan", "android": "https://dc.lft.to/lastmile_qr_scan"}}, {"name": "4ef73dcd519b1d476ac99efb576f9653", "lon": -76.97636216666666, "lat": 38.89879966666667, "type": "electric_scooter", "fusion_lon": 0.0, "is_reserved": 0, "bike_id": "4ef73dcd519b1d476ac99efb576f9653", "fusion_lat": 0.0, "is_disabled": 0, "rental_uris": {"ios": "https://dc.lft.to/lastmile_qr_scan", "android": "https://dc.lft.to/lastmile_qr_scan"}}, {"name": "cc64f8b6d86595b78f842c77120a03cb", "lon": -76.98370683333333, "lat": 38.9222805, "type": "electric_bike", "fusion_lon": 0.0, "is_reserved": 0, "bike_id": "cc64f8b6d86595b78f842c77120a03cb", "fusion_lat": 0.0, "is_disabled": 0, "rental_uris": {"ios": "https://dc.lft.to/lastmile_qr_scan", "android": "https://dc.lft.to/lastmile_qr_scan"}}, {"name": "8266556accb9f6343bb95ec8d73bfb64", "lon": -77.0435795, "lat": 38.90756233333333, "type": "electric_scooter", "fusion_lon": 0.0, "is_reserved": 0, "bike_id": "8266556accb9f6343bb95ec8d73bfb64", "fusion_lat": 0.0, "is_disabled": 0, "rental_uris": {"ios": "https://dc.lft.to/lastmile_qr_scan", "android": "https://dc.lft.to/lastmile_qr_scan"}}, {"name": "fd5b0de4432c7dfa97c74379ea82cf80", "lon": -77.129633, "lat": 38.85216583333333, "type": "electric_bike", "fusion_lon": 0.0, "is_reserved": 0, "bike_id": "fd5b0de4432c7dfa97c74379ea82cf80", "fusion_lat": 0.0, "is_disabled": 0, "rental_uris": {"ios": "https://dc.lft.to/lastmile_qr_scan", "android": "https://dc.lft.to/lastmile_qr_scan"}}, {"name": "3bdb9b6e4f5d2b39703e51f7a99a8186", "lon": -77.0412075, "lat": 38.902867, "type": "electric_scooter", "fusion_lon": 0.0, "is_reserved": 0, "bike_id": "3bdb9b6e4f5d2b39703e51f7a99a8186", "fusion_lat": 0.0, "is_disabled": 0, "rental_uris": {"ios": "https://dc.lft.to/lastmile_qr_scan", "android": "https://dc.lft.to/lastmile_qr_scan"}}, {"name": "236887e57d2e5c50d3dca74a5b4e7c02", "lon": -77.01198116666667, "lat": 38.864009333333335, "type": "electric_scooter", "fusion_lon": 0.0, "is_reserved": 0, "bike_id": "236887e57d2e5c50d3dca74a5b4e7c02", "fusion_lat": 0.0, "is_disabled": 0, "rental_uris": {"ios": "https://dc.lft.to/lastmile_qr_scan", "android": "https://dc.lft.to/lastmile_qr_scan"}}, {"name": "5ba1e98ba7ac26a8bc81056e47826a95", "lon": -77.07812983333334, "lat": 38.924570833333334, "type": "electric_scooter", "fusion_lon": 0.0, "is_reserved": 0, "bike_id": "5ba1e98ba7ac26a8bc81056e47826a95", "fusion_lat": 0.0, "is_disabled": 0, "rental_uris": {"ios": "https://dc.lft.to/lastmile_qr_scan", "android": "https://dc.lft.to/lastmile_qr_scan"}}, {"name": "7588f2b36eda69b53c6b812e6b99ac92", "lon": -77.0281875, "lat": 38.960789166666665, "type": "electric_scooter", "fusion_lon": 0.0, "is_reserved": 0, "bike_id": "7588f2b36eda69b53c6b812e6b99ac92", "fusion_lat": 0.0, "is_disabled": 0, "rental_uris": {"ios": "https://dc.lft.to/lastmile_qr_scan", "android": "https://dc.lft.to/lastmile_qr_scan"}}, {"name": "2a3b4fa9d5e7c7f5f3d4dfee3d8de299", "lon": -77.08930783333334, "lat": 38.86264, "type": "electric_bike", "fusion_lon": 0.0, "is_reserved": 0, "bike_id": "2a3b4fa9d5e7c7f5f3d4dfee3d8de299", "fusion_lat": 0.0, "is_disabled": 0, "rental_uris": {"ios": "https://dc.lft.to/lastmile_qr_scan", "android": "https://dc.lft.to/lastmile_qr_scan"}}, {"name": "cf8af8b2d5d148fbc61ace93ffa70c1c", "lon": -77.0256785, "lat": 38.9042075, "type": "electric_scooter", "fusion_lon": 0.0, "is_reserved": 0, "bike_id": "cf8af8b2d5d148fbc61ace93ffa70c1c", "fusion_lat": 0.0, "is_disabled": 0, "rental_uris": {"ios": "https://dc.lft.to/lastmile_qr_scan", "android": "https://dc.lft.to/lastmile_qr_scan"}}, {"name": "86e797e6651d39f88285d21057ad10a9", "lon": -77.03794283333333, "lat": 38.92506183333333, "type": "electric_scooter", "fusion_lon": 0.0, "is_reserved": 0, "bike_id": "86e797e6651d39f88285d21057ad10a9", "fusion_lat": 0.0, "is_disabled": 0, "rental_uris": {"ios": "https://dc.lft.to/lastmile_qr_scan", "android": "https://dc.lft.to/lastmile_qr_scan"}}, {"name": "b5aa729cec342461bd3e14f945fcd2b0", "lon": -77.0532655, "lat": 38.927906166666666, "type": "electric_scooter", "fusion_lon": 0.0, "is_reserved": 0, "bike_id": "b5aa729cec342461bd3e14f945fcd2b0", "fusion_lat": 0.0, "is_disabled": 0, "rental_uris": {"ios": "https://dc.lft.to/lastmile_qr_scan", "android": "https://dc.lft.to/lastmile_qr_scan"}}, {"name": "09063bbc60a627f2b3b614b32dfa45f2", "lon": -77.00776983333333, "lat": 38.9267125, "type": "electric_scooter", "fusion_lon": 0.0, "is_reserved": 0, "bike_id": "09063bbc60a627f2b3b614b32dfa45f2", "fusion_lat": 0.0, "is_disabled": 0, "rental_uris": {"ios": "https://dc.lft.to/lastmile_qr_scan", "android": "https://dc.lft.to/lastmile_qr_scan"}}, {"name": "b8ddfcdb960094c7e243d14f41661ff4", "lon": -76.98520483333333, "lat": 38.86656216666667, "type": "electric_scooter", "fusion_lon": 0.0, "is_reserved": 0, "bike_id": "b8ddfcdb960094c7e243d14f41661ff4", "fusion_lat": 0.0, "is_disabled": 0, "rental_uris": {"ios": "https://dc.lft.to/lastmile_qr_scan", "android": "https://dc.lft.to/lastmile_qr_scan"}}, {"name": "cb09bc292e2864e04e94879489e002f0", "lon": -77.03431683333334, "lat": 38.966233, "type": "electric_bike", "fusion_lon": 0.0, "is_reserved": 0, "bike_id": "cb09bc292e2864e04e94879489e002f0", "fusion_lat": 0.0, "is_disabled": 0, "rental_uris": {"ios": "https://dc.lft.to/lastmile_qr_scan", "android": "https://dc.lft.to/lastmile_qr_scan"}}, {"name": "9b62fe2372ad2d2892de464e2a32dcd5", "lon": -77.0145815, "lat": 38.91764033333333, "type": "electric_scooter", "fusion_lon": 0.0, "is_reserved": 0, "bike_id": "9b62fe2372ad2d2892de464e2a32dcd5", "fusion_lat": 0.0, "is_disabled": 0, "rental_uris": {"ios": "https://dc.lft.to/lastmile_qr_scan", "android": "https://dc.lft.to/lastmile_qr_scan"}}, {"name": "b5acc728c7d31ffeac8b9a6dccd06252", "lon": -77.03516766666667, "lat": 38.9215435, "type": "electric_scooter", "fusion_lon": 0.0, "is_reserved": 0, "bike_id": "b5acc728c7d31ffeac8b9a6dccd06252", "fusion_lat": 0.0, "is_disabled": 0, "rental_uris": {"ios": "https://dc.lft.to/lastmile_qr_scan", "android": "https://dc.lft.to/lastmile_qr_scan"}}, {"name": "91e2fdcdd47332d107de688f46dc903f", "lon": -77.0430375, "lat": 38.926498, "type": "electric_scooter", "fusion_lon": 0.0, "is_reserved": 0, "bike_id": "91e2fdcdd47332d107de688f46dc903f", "fusion_lat": 0.0, "is_disabled": 0, "rental_uris": {"ios": "https://dc.lft.to/lastmile_qr_scan", "android": "https://dc.lft.to/lastmile_qr_scan"}}, {"name": "1f679700150b6bbc48cf2aac0aaec9db", "lon": -76.9724005, "lat": 38.85454933333333, "type": "electric_bike", "fusion_lon": 0.0, "is_reserved": 0, "bike_id": "1f679700150b6bbc48cf2aac0aaec9db", "fusion_lat": 0.0, "is_disabled": 0, "rental_uris": {"ios": "https://dc.lft.to/lastmile_qr_scan", "android": "https://dc.lft.to/lastmile_qr_scan"}}, {"name": "4b81ccfa22f8d9255a0371f543c7de53", "lon": -76.98980933333333, "lat": 38.865174, "type": "electric_scooter", "fusion_lon": 0.0, "is_reserved": 0, "bike_id": "4b81ccfa22f8d9255a0371f543c7de53", "fusion_lat": 0.0, "is_disabled": 0, "rental_uris": {"ios": "https://dc.lft.to/lastmile_qr_scan", "android": "https://dc.lft.to/lastmile_qr_scan"}}, {"name": "4d2b3bb0e1fd59474ba542e5c32722f5", "lon": -76.977943, "lat": 38.888606333333335, "type": "electric_bike", "fusion_lon": 0.0, "is_reserved": 0, "bike_id": "4d2b3bb0e1fd59474ba542e5c32722f5", "fusion_lat": 0.0, "is_disabled": 0, "rental_uris": {"ios": "https://dc.lft.to/lastmile_qr_scan", "android": "https://dc.lft.to/lastmile_qr_scan"}}, {"name": "e98b2a77797d28260a07af2168aa452e", "lon": -77.02361766666667, "lat": 38.9251175, "type": "electric_scooter", "fusion_lon": 0.0, "is_reserved": 0, "bike_id": "e98b2a77797d28260a07af2168aa452e", "fusion_lat": 0.0, "is_disabled": 0, "rental_uris": {"ios": "https://dc.lft.to/lastmile_qr_scan", "android": "https://dc.lft.to/lastmile_qr_scan"}}, {"name": "d14483c99de8290a8f420404ce32993b", "lon": -76.998141, "lat": 38.900214, "type": "electric_scooter", "fusion_lon": 0.0, "is_reserved": 0, "bike_id": "d14483c99de8290a8f420404ce32993b", "fusion_lat": 0.0, "is_disabled": 0, "rental_uris": {"ios": "https://dc.lft.to/lastmile_qr_scan", "android": "https://dc.lft.to/lastmile_qr_scan"}}, {"name": "1f1cbabfe50750aec8fe28911bb9f40d", "lon": -77.03584966666666, "lat": 38.91258933333334, "type": "electric_scooter", "fusion_lon": 0.0, "is_reserved": 0, "bike_id": "1f1cbabfe50750aec8fe28911bb9f40d", "fusion_lat": 0.0, "is_disabled": 0, "rental_uris": {"ios": "https://dc.lft.to/lastmile_qr_scan", "android": "https://dc.lft.to/lastmile_qr_scan"}}, {"name": "37c45267778edd0acbe7a622c37fe05b", "lon": -77.02380933333333, "lat": 38.9290715, "type": "electric_bike", "fusion_lon": 0.0, "is_reserved": 0, "bike_id": "37c45267778edd0acbe7a622c37fe05b", "fusion_lat": 0.0, "is_disabled": 0, "rental_uris": {"ios": "https://dc.lft.to/lastmile_qr_scan", "android": "https://dc.lft.to/lastmile_qr_scan"}}, {"name": "31ed7846189f279bf2f21a4c1b29ecb9", "lon": -77.0013785, "lat": 38.905123, "type": "electric_scooter", "fusion_lon": 0.0, "is_reserved": 0, "bike_id": "31ed7846189f279bf2f21a4c1b29ecb9", "fusion_lat": 0.0, "is_disabled": 0, "rental_uris": {"ios": "https://dc.lft.to/lastmile_qr_scan", "android": "https://dc.lft.to/lastmile_qr_scan"}}, {"name": "d4eaa323fed9103fb1c725234e398cf4", "lon": -76.9518765, "lat": 38.90738433333333, "type": "electric_scooter", "fusion_lon": 0.0, "is_reserved": 0, "bike_id": "d4eaa323fed9103fb1c725234e398cf4", "fusion_lat": 0.0, "is_disabled": 0, "rental_uris": {"ios": "https://dc.lft.to/lastmile_qr_scan", "android": "https://dc.lft.to/lastmile_qr_scan"}}, {"name": "d15a6c8fb8bda5ec6fa4ee406c836cf4", "lon": -77.082011, "lat": 38.85560433333333, "type": "electric_bike", "fusion_lon": 0.0, "is_reserved": 0, "bike_id": "d15a6c8fb8bda5ec6fa4ee406c836cf4", "fusion_lat": 0.0, "is_disabled": 0, "rental_uris": {"ios": "https://dc.lft.to/lastmile_qr_scan", "android": "https://dc.lft.to/lastmile_qr_scan"}}, {"name": "1cf01ef157218da04b45d183c1c5d143", "lon": -77.05147233333334, "lat": 38.9053675, "type": "electric_scooter", "fusion_lon": 0.0, "is_reserved": 0, "bike_id": "1cf01ef157218da04b45d183c1c5d143", "fusion_lat": 0.0, "is_disabled": 0, "rental_uris": {"ios": "https://dc.lft.to/lastmile_qr_scan", "android": "https://dc.lft.to/lastmile_qr_scan"}}, {"name": "765cb6465a746cae2d3f432fa8e0bdac", "lon": -77.02294983333333, "lat": 38.91786716666667, "type": "electric_scooter", "fusion_lon": 0.0, "is_reserved": 0, "bike_id": "765cb6465a746cae2d3f432fa8e0bdac", "fusion_lat": 0.0, "is_disabled": 0, "rental_uris": {"ios": "https://dc.lft.to/lastmile_qr_scan", "android": "https://dc.lft.to/lastmile_qr_scan"}}, {"name": "5fec226d7dde80d293ed859106277e77", "lon": -76.988419, "lat": 38.90043283333333, "type": "electric_scooter", "fusion_lon": 0.0, "is_reserved": 0, "bike_id": "5fec226d7dde80d293ed859106277e77", "fusion_lat": 0.0, "is_disabled": 0, "rental_uris": {"ios": "https://dc.lft.to/lastmile_qr_scan", "android": "https://dc.lft.to/lastmile_qr_scan"}}, {"name": "95cffd0984f6ae7c89df1799cb037a56", "lon": -76.99613316666667, "lat": 38.885812, "type": "electric_scooter", "fusion_lon": 0.0, "is_reserved": 0, "bike_id": "95cffd0984f6ae7c89df1799cb037a56", "fusion_lat": 0.0, "is_disabled": 0, "rental_uris": {"ios": "https://dc.lft.to/lastmile_qr_scan", "android": "https://dc.lft.to/lastmile_qr_scan"}}, {"name": "0942d137629b64b17bc78c08caa2de86", "lon": -77.0035175, "lat": 38.88696483333333, "type": "electric_scooter", "fusion_lon": 0.0, "is_reserved": 0, "bike_id": "0942d137629b64b17bc78c08caa2de86", "fusion_lat": 0.0, "is_disabled": 0, "rental_uris": {"ios": "https://dc.lft.to/lastmile_qr_scan", "android": "https://dc.lft.to/lastmile_qr_scan"}}, {"name": "8637ef9666f5f22984144322d87eab8d", "lon": -77.01510816666666, "lat": 38.910478166666664, "type": "electric_scooter", "fusion_lon": 0.0, "is_reserved": 0, "bike_id": "8637ef9666f5f22984144322d87eab8d", "fusion_lat": 0.0, "is_disabled": 0, "rental_uris": {"ios": "https://dc.lft.to/lastmile_qr_scan", "android": "https://dc.lft.to/lastmile_qr_scan"}}, {"name": "636bab65a0af1e977dd52eb38f07e04e", "lon": -77.04095733333334, "lat": 38.91770366666667, "type": "electric_scooter", "fusion_lon": 0.0, "is_reserved": 0, "bike_id": "636bab65a0af1e977dd52eb38f07e04e", "fusion_lat": 0.0, "is_disabled": 0, "rental_uris": {"ios": "https://dc.lft.to/lastmile_qr_scan", "android": "https://dc.lft.to/lastmile_qr_scan"}}, {"name": "ac63bec573a189ad59853f800e8ea7e1", "lon": -77.04329366666667, "lat": 38.89219116666666, "type": "electric_scooter", "fusion_lon": 0.0, "is_reserved": 0, "bike_id": "ac63bec573a189ad59853f800e8ea7e1", "fusion_lat": 0.0, "is_disabled": 0, "rental_uris": {"ios": "https://dc.lft.to/lastmile_qr_scan", "android": "https://dc.lft.to/lastmile_qr_scan"}}, {"name": "408b7b630a5d7a2486b60e88756c25bd", "lon": -76.99802883333334, "lat": 38.9106975, "type": "electric_scooter", "fusion_lon": 0.0, "is_reserved": 0, "bike_id": "408b7b630a5d7a2486b60e88756c25bd", "fusion_lat": 0.0, "is_disabled": 0, "rental_uris": {"ios": "https://dc.lft.to/lastmile_qr_scan", "android": "https://dc.lft.to/lastmile_qr_scan"}}, {"name": "6371d2f03d9253196272210796a87838", "lon": -77.04009933333333, "lat": 38.90377, "type": "electric_scooter", "fusion_lon": 0.0, "is_reserved": 0, "bike_id": "6371d2f03d9253196272210796a87838", "fusion_lat": 0.0, "is_disabled": 0, "rental_uris": {"ios": "https://dc.lft.to/lastmile_qr_scan", "android": "https://dc.lft.to/lastmile_qr_scan"}}, {"name": "04ea8713aa86ea31c9f7e3eeaeed54e0", "lon": -77.00863533333333, "lat": 38.8794545, "type": "electric_scooter", "fusion_lon": 0.0, "is_reserved": 0, "bike_id": "04ea8713aa86ea31c9f7e3eeaeed54e0", "fusion_lat": 0.0, "is_disabled": 0, "rental_uris": {"ios": "https://dc.lft.to/lastmile_qr_scan", "android": "https://dc.lft.to/lastmile_qr_scan"}}, {"name": "9b9725e7a35c0f95c22d2e9efda26fcd", "lon": -77.0366625, "lat": 38.9123495, "type": "electric_scooter", "fusion_lon": 0.0, "is_reserved": 0, "bike_id": "9b9725e7a35c0f95c22d2e9efda26fcd", "fusion_lat": 0.0, "is_disabled": 0, "rental_uris": {"ios": "https://dc.lft.to/lastmile_qr_scan", "android": "https://dc.lft.to/lastmile_qr_scan"}}, {"name": "2822ac54defefc7ddfac3ed9d41e4fd6", "lon": -76.9809955, "lat": 38.92103316666667, "type": "electric_bike", "fusion_lon": 0.0, "is_reserved": 0, "bike_id": "2822ac54defefc7ddfac3ed9d41e4fd6", "fusion_lat": 0.0, "is_disabled": 0, "rental_uris": {"ios": "https://dc.lft.to/lastmile_qr_scan", "android": "https://dc.lft.to/lastmile_qr_scan"}}, {"name": "f9d5942bc4e1bc3c5c6507f881cee921", "lon": -77.04001866666667, "lat": 38.9223705, "type": "electric_scooter", "fusion_lon": 0.0, "is_reserved": 0, "bike_id": "f9d5942bc4e1bc3c5c6507f881cee921", "fusion_lat": 0.0, "is_disabled": 0, "rental_uris": {"ios": "https://dc.lft.to/lastmile_qr_scan", "android": "https://dc.lft.to/lastmile_qr_scan"}}, {"name": "e6dd493a6a891449804532ba34c046fc", "lon": -77.04336, "lat": 38.90219233333333, "type": "electric_scooter", "fusion_lon": 0.0, "is_reserved": 0, "bike_id": "e6dd493a6a891449804532ba34c046fc", "fusion_lat": 0.0, "is_disabled": 0, "rental_uris": {"ios": "https://dc.lft.to/lastmile_qr_scan", "android": "https://dc.lft.to/lastmile_qr_scan"}}, {"name": "e4a80d76c9c108f442f3117a43173982", "lon": -76.90976466666666, "lat": 38.8543335, "type": "electric_bike", "fusion_lon": 0.0, "is_reserved": 0, "bike_id": "e4a80d76c9c108f442f3117a43173982", "fusion_lat": 0.0, "is_disabled": 0, "rental_uris": {"ios": "https://dc.lft.to/lastmile_qr_scan", "android": "https://dc.lft.to/lastmile_qr_scan"}}, {"name": "e0b436563f13c0e1a2eee11ea355741f", "lon": -77.02605783333334, "lat": 38.90498616666667, "type": "electric_scooter", "fusion_lon": 0.0, "is_reserved": 0, "bike_id": "e0b436563f13c0e1a2eee11ea355741f", "fusion_lat": 0.0, "is_disabled": 0, "rental_uris": {"ios": "https://dc.lft.to/lastmile_qr_scan", "android": "https://dc.lft.to/lastmile_qr_scan"}}, {"name": "b682a95c370b3f3cda2eaee8cab1dfda", "lon": -77.0048665, "lat": 38.874733666666664, "type": "electric_scooter", "fusion_lon": 0.0, "is_reserved": 0, "bike_id": "b682a95c370b3f3cda2eaee8cab1dfda", "fusion_lat": 0.0, "is_disabled": 0, "rental_uris": {"ios": "https://dc.lft.to/lastmile_qr_scan", "android": "https://dc.lft.to/lastmile_qr_scan"}}, {"name": "930c74a5bf468ebc929c145c463234b1", "lon": -77.03269066666667, "lat": 38.946228833333336, "type": "electric_scooter", "fusion_lon": 0.0, "is_reserved": 0, "bike_id": "930c74a5bf468ebc929c145c463234b1", "fusion_lat": 0.0, "is_disabled": 0, "rental_uris": {"ios": "https://dc.lft.to/lastmile_qr_scan", "android": "https://dc.lft.to/lastmile_qr_scan"}}, {"name": "c3bf9c2c7088a594d52f4774f6757ade", "lon": -77.02817466666667, "lat": 38.91688033333333, "type": "electric_scooter", "fusion_lon": 0.0, "is_reserved": 0, "bike_id": "c3bf9c2c7088a594d52f4774f6757ade", "fusion_lat": 0.0, "is_disabled": 0, "rental_uris": {"ios": "https://dc.lft.to/lastmile_qr_scan", "android": "https://dc.lft.to/lastmile_qr_scan"}}, {"name": "5da381b04b659899b51b6133b3c953fb", "lon": -77.02299766666667, "lat": 38.8948765, "type": "electric_scooter", "fusion_lon": 0.0, "is_reserved": 0, "bike_id": "5da381b04b659899b51b6133b3c953fb", "fusion_lat": 0.0, "is_disabled": 0, "rental_uris": {"ios": "https://dc.lft.to/lastmile_qr_scan", "android": "https://dc.lft.to/lastmile_qr_scan"}}, {"name": "1cf3407371a5c0ef692582d0d1067384", "lon": -77.02168333333333, "lat": 38.902173166666664, "type": "electric_scooter", "fusion_lon": 0.0, "is_reserved": 0, "bike_id": "1cf3407371a5c0ef692582d0d1067384", "fusion_lat": 0.0, "is_disabled": 0, "rental_uris": {"ios": "https://dc.lft.to/lastmile_qr_scan", "android": "https://dc.lft.to/lastmile_qr_scan"}}, {"name": "74c00866bdaed1a4f165ccb083f52bf1", "lon": -77.02981066666666, "lat": 38.924409833333335, "type": "electric_scooter", "fusion_lon": 0.0, "is_reserved": 0, "bike_id": "74c00866bdaed1a4f165ccb083f52bf1", "fusion_lat": 0.0, "is_disabled": 0, "rental_uris": {"ios": "https://dc.lft.to/lastmile_qr_scan", "android": "https://dc.lft.to/lastmile_qr_scan"}}, {"name": "c5c6595a113cabc619e2a534f0e00db5", "lon": -77.02201316666667, "lat": 38.90580583333333, "type": "electric_scooter", "fusion_lon": 0.0, "is_reserved": 0, "bike_id": "c5c6595a113cabc619e2a534f0e00db5", "fusion_lat": 0.0, "is_disabled": 0, "rental_uris": {"ios": "https://dc.lft.to/lastmile_qr_scan", "android": "https://dc.lft.to/lastmile_qr_scan"}}, {"name": "c1129ad89b6152b6a07bc8c4423d71e3", "lon": -77.03828966666667, "lat": 38.911158, "type": "electric_scooter", "fusion_lon": 0.0, "is_reserved": 0, "bike_id": "c1129ad89b6152b6a07bc8c4423d71e3", "fusion_lat": 0.0, "is_disabled": 0, "rental_uris": {"ios": "https://dc.lft.to/lastmile_qr_scan", "android": "https://dc.lft.to/lastmile_qr_scan"}}, {"name": "6ff53ab590281b13c5fd4e3ba7e37b8e", "lon": -77.03638066666667, "lat": 38.915808166666665, "type": "electric_scooter", "fusion_lon": 0.0, "is_reserved": 0, "bike_id": "6ff53ab590281b13c5fd4e3ba7e37b8e", "fusion_lat": 0.0, "is_disabled": 0, "rental_uris": {"ios": "https://dc.lft.to/lastmile_qr_scan", "android": "https://dc.lft.to/lastmile_qr_scan"}}, {"name": "61185443da62cf97a9bdc109697a9f58", "lon": -77.0355225, "lat": 38.92405133333333, "type": "electric_scooter", "fusion_lon": 0.0, "is_reserved": 0, "bike_id": "61185443da62cf97a9bdc109697a9f58", "fusion_lat": 0.0, "is_disabled": 0, "rental_uris": {"ios": "https://dc.lft.to/lastmile_qr_scan", "android": "https://dc.lft.to/lastmile_qr_scan"}}, {"name": "2e2736ae8b7dfac0314cb6e6d31969c0", "lon": -77.0314985, "lat": 38.929765, "type": "electric_scooter", "fusion_lon": 0.0, "is_reserved": 0, "bike_id": "2e2736ae8b7dfac0314cb6e6d31969c0", "fusion_lat": 0.0, "is_disabled": 0, "rental_uris": {"ios": "https://dc.lft.to/lastmile_qr_scan", "android": "https://dc.lft.to/lastmile_qr_scan"}}, {"name": "346d3ca38b42863c884622b008d0cc1b", "lon": -77.03484033333334, "lat": 38.932670333333334, "type": "electric_scooter", "fusion_lon": 0.0, "is_reserved": 0, "bike_id": "346d3ca38b42863c884622b008d0cc1b", "fusion_lat": 0.0, "is_disabled": 0, "rental_uris": {"ios": "https://dc.lft.to/lastmile_qr_scan", "android": "https://dc.lft.to/lastmile_qr_scan"}}, {"name": "f1c994894e8d0fcb0770dc6fc774472b", "lon": -77.04253083333333, "lat": 38.906573333333334, "type": "electric_scooter", "fusion_lon": 0.0, "is_reserved": 0, "bike_id": "f1c994894e8d0fcb0770dc6fc774472b", "fusion_lat": 0.0, "is_disabled": 0, "rental_uris": {"ios": "https://dc.lft.to/lastmile_qr_scan", "android": "https://dc.lft.to/lastmile_qr_scan"}}, {"name": "0f9a6885a239c02b8bbae353041b118c", "lon": -77.01898633333333, "lat": 38.913813833333336, "type": "electric_scooter", "fusion_lon": 0.0, "is_reserved": 0, "bike_id": "0f9a6885a239c02b8bbae353041b118c", "fusion_lat": 0.0, "is_disabled": 0, "rental_uris": {"ios": "https://dc.lft.to/lastmile_qr_scan", "android": "https://dc.lft.to/lastmile_qr_scan"}}, {"name": "e611d2b37488b28a2da0c2a5ccf161be", "lon": -77.027458, "lat": 38.924109666666666, "type": "electric_scooter", "fusion_lon": 0.0, "is_reserved": 0, "bike_id": "e611d2b37488b28a2da0c2a5ccf161be", "fusion_lat": 0.0, "is_disabled": 0, "rental_uris": {"ios": "https://dc.lft.to/lastmile_qr_scan", "android": "https://dc.lft.to/lastmile_qr_scan"}}, {"name": "95c125a009348973d6a8d143dec30ac4", "lon": -77.05425016666666, "lat": 38.923578666666664, "type": "electric_scooter", "fusion_lon": 0.0, "is_reserved": 0, "bike_id": "95c125a009348973d6a8d143dec30ac4", "fusion_lat": 0.0, "is_disabled": 0, "rental_uris": {"ios": "https://dc.lft.to/lastmile_qr_scan", "android": "https://dc.lft.to/lastmile_qr_scan"}}, {"name": "4710f4aa12147830f75ef9dc7a07a93d", "lon": -77.02734, "lat": 38.92764966666667, "type": "electric_scooter", "fusion_lon": 0.0, "is_reserved": 0, "bike_id": "4710f4aa12147830f75ef9dc7a07a93d", "fusion_lat": 0.0, "is_disabled": 0, "rental_uris": {"ios": "https://dc.lft.to/lastmile_qr_scan", "android": "https://dc.lft.to/lastmile_qr_scan"}}, {"name": "0d7f5d8a8a110a4264a5013958bb7024", "lon": -77.02296466666667, "lat": 38.89485533333333, "type": "electric_scooter", "fusion_lon": 0.0, "is_reserved": 0, "bike_id": "0d7f5d8a8a110a4264a5013958bb7024", "fusion_lat": 0.0, "is_disabled": 0, "rental_uris": {"ios": "https://dc.lft.to/lastmile_qr_scan", "android": "https://dc.lft.to/lastmile_qr_scan"}}, {"name": "90d73116462ba389dd23a927cb33d7da", "lon": -77.03541066666666, "lat": 38.92320383333333, "type": "electric_scooter", "fusion_lon": 0.0, "is_reserved": 0, "bike_id": "90d73116462ba389dd23a927cb33d7da", "fusion_lat": 0.0, "is_disabled": 0, "rental_uris": {"ios": "https://dc.lft.to/lastmile_qr_scan", "android": "https://dc.lft.to/lastmile_qr_scan"}}, {"name": "998f10d20ffcb72b5be85c03dfa78eeb", "lon": -77.020873, "lat": 38.930179833333334, "type": "electric_scooter", "fusion_lon": 0.0, "is_reserved": 0, "bike_id": "998f10d20ffcb72b5be85c03dfa78eeb", "fusion_lat": 0.0, "is_disabled": 0, "rental_uris": {"ios": "https://dc.lft.to/lastmile_qr_scan", "android": "https://dc.lft.to/lastmile_qr_scan"}}, {"name": "5a71dd760e8dbd6f084af1274c636c19", "lon": -77.04481916666667, "lat": 38.912460333333335, "type": "electric_scooter", "fusion_lon": 0.0, "is_reserved": 0, "bike_id": "5a71dd760e8dbd6f084af1274c636c19", "fusion_lat": 0.0, "is_disabled": 0, "rental_uris": {"ios": "https://dc.lft.to/lastmile_qr_scan", "android": "https://dc.lft.to/lastmile_qr_scan"}}, {"name": "f2e682973a792c4dfdc4623efa210343", "lon": -77.04214283333333, "lat": 38.920765833333334, "type": "electric_bike", "fusion_lon": 0.0, "is_reserved": 0, "bike_id": "f2e682973a792c4dfdc4623efa210343", "fusion_lat": 0.0, "is_disabled": 0, "rental_uris": {"ios": "https://dc.lft.to/lastmile_qr_scan", "android": "https://dc.lft.to/lastmile_qr_scan"}}, {"name": "aee280dca893222bf51ebfa646eb6883", "lon": -76.937579, "lat": 38.89048733333333, "type": "electric_scooter", "fusion_lon": 0.0, "is_reserved": 0, "bike_id": "aee280dca893222bf51ebfa646eb6883", "fusion_lat": 0.0, "is_disabled": 0, "rental_uris": {"ios": "https://dc.lft.to/lastmile_qr_scan", "android": "https://dc.lft.to/lastmile_qr_scan"}}, {"name": "0958bdc31e38b0d54f2eb4505fef2a51", "lon": -77.04801866666666, "lat": 38.892207666666664, "type": "electric_scooter", "fusion_lon": 0.0, "is_reserved": 0, "bike_id": "0958bdc31e38b0d54f2eb4505fef2a51", "fusion_lat": 0.0, "is_disabled": 0, "rental_uris": {"ios": "https://dc.lft.to/lastmile_qr_scan", "android": "https://dc.lft.to/lastmile_qr_scan"}}, {"name": "d8f9ba6b08bb59b24662b1842639e360", "lon": -77.04316866666667, "lat": 38.9265205, "type": "electric_scooter", "fusion_lon": 0.0, "is_reserved": 0, "bike_id": "d8f9ba6b08bb59b24662b1842639e360", "fusion_lat": 0.0, "is_disabled": 0, "rental_uris": {"ios": "https://dc.lft.to/lastmile_qr_scan", "android": "https://dc.lft.to/lastmile_qr_scan"}}, {"name": "fbce17d108201e5a591b314cc568fb5d", "lon": -77.04081933333333, "lat": 38.91776016666667, "type": "electric_scooter", "fusion_lon": 0.0, "is_reserved": 0, "bike_id": "fbce17d108201e5a591b314cc568fb5d", "fusion_lat": 0.0, "is_disabled": 0, "rental_uris": {"ios": "https://dc.lft.to/lastmile_qr_scan", "android": "https://dc.lft.to/lastmile_qr_scan"}}, {"name": "e083a9693a8130796b243b3ec4ab373f", "lon": -76.99272583333334, "lat": 38.886386333333334, "type": "electric_scooter", "fusion_lon": 0.0, "is_reserved": 0, "bike_id": "e083a9693a8130796b243b3ec4ab373f", "fusion_lat": 0.0, "is_disabled": 0, "rental_uris": {"ios": "https://dc.lft.to/lastmile_qr_scan", "android": "https://dc.lft.to/lastmile_qr_scan"}}, {"name": "68dfb3e334f7326538b507422fb7192b", "lon": -77.038699, "lat": 38.91547033333333, "type": "electric_scooter", "fusion_lon": 0.0, "is_reserved": 0, "bike_id": "68dfb3e334f7326538b507422fb7192b", "fusion_lat": 0.0, "is_disabled": 0, "rental_uris": {"ios": "https://dc.lft.to/lastmile_qr_scan", "android": "https://dc.lft.to/lastmile_qr_scan"}}, {"name": "a0f78ed7d347c81e32eb4ba6d3e4c337", "lon": -77.023942, "lat": 38.89611683333333, "type": "electric_scooter", "fusion_lon": 0.0, "is_reserved": 0, "bike_id": "a0f78ed7d347c81e32eb4ba6d3e4c337", "fusion_lat": 0.0, "is_disabled": 0, "rental_uris": {"ios": "https://dc.lft.to/lastmile_qr_scan", "android": "https://dc.lft.to/lastmile_qr_scan"}}, {"name": "918ea52cf3766ac05fa40f019d4ea68f", "lon": -77.03200016666666, "lat": 38.9135305, "type": "electric_scooter", "fusion_lon": 0.0, "is_reserved": 0, "bike_id": "918ea52cf3766ac05fa40f019d4ea68f", "fusion_lat": 0.0, "is_disabled": 0, "rental_uris": {"ios": "https://dc.lft.to/lastmile_qr_scan", "android": "https://dc.lft.to/lastmile_qr_scan"}}, {"name": "919c4070ad0b4cccec8cf04cabec20ed", "lon": -77.02947833333333, "lat": 38.899238833333335, "type": "electric_scooter", "fusion_lon": 0.0, "is_reserved": 0, "bike_id": "919c4070ad0b4cccec8cf04cabec20ed", "fusion_lat": 0.0, "is_disabled": 0, "rental_uris": {"ios": "https://dc.lft.to/lastmile_qr_scan", "android": "https://dc.lft.to/lastmile_qr_scan"}}, {"name": "56a0afe05a859a16770cec10b84ca742", "lon": -76.98882916666666, "lat": 38.86652733333333, "type": "electric_scooter", "fusion_lon": 0.0, "is_reserved": 0, "bike_id": "56a0afe05a859a16770cec10b84ca742", "fusion_lat": 0.0, "is_disabled": 0, "rental_uris": {"ios": "https://dc.lft.to/lastmile_qr_scan", "android": "https://dc.lft.to/lastmile_qr_scan"}}, {"name": "955c5bbb6281b98f57c2bb2655f10b92", "lon": -77.0607485, "lat": 38.8858335, "type": "electric_bike", "fusion_lon": 0.0, "is_reserved": 0, "bike_id": "955c5bbb6281b98f57c2bb2655f10b92", "fusion_lat": 0.0, "is_disabled": 0, "rental_uris": {"ios": "https://dc.lft.to/lastmile_qr_scan", "android": "https://dc.lft.to/lastmile_qr_scan"}}, {"name": "f9117f31f4f963aac6f8839bf51d9647", "lon": -77.02955983333334, "lat": 38.93979216666666, "type": "electric_scooter", "fusion_lon": 0.0, "is_reserved": 0, "bike_id": "f9117f31f4f963aac6f8839bf51d9647", "fusion_lat": 0.0, "is_disabled": 0, "rental_uris": {"ios": "https://dc.lft.to/lastmile_qr_scan", "android": "https://dc.lft.to/lastmile_qr_scan"}}, {"name": "f2c48c71a6dd7b4ef213ae707322b3c8", "lon": -77.00069983333333, "lat": 38.90135933333333, "type": "electric_scooter", "fusion_lon": 0.0, "is_reserved": 0, "bike_id": "f2c48c71a6dd7b4ef213ae707322b3c8", "fusion_lat": 0.0, "is_disabled": 0, "rental_uris": {"ios": "https://dc.lft.to/lastmile_qr_scan", "android": "https://dc.lft.to/lastmile_qr_scan"}}, {"name": "ce242ca6237153ecd3bea8732e15a0cc", "lon": -77.025942, "lat": 38.96391216666667, "type": "electric_scooter", "fusion_lon": 0.0, "is_reserved": 0, "bike_id": "ce242ca6237153ecd3bea8732e15a0cc", "fusion_lat": 0.0, "is_disabled": 0, "rental_uris": {"ios": "https://dc.lft.to/lastmile_qr_scan", "android": "https://dc.lft.to/lastmile_qr_scan"}}, {"name": "8ee9c6e62b628d1441b080d4b5b0d9a6", "lon": -77.01610533333333, "lat": 38.899598833333336, "type": "electric_scooter", "fusion_lon": 0.0, "is_reserved": 0, "bike_id": "8ee9c6e62b628d1441b080d4b5b0d9a6", "fusion_lat": 0.0, "is_disabled": 0, "rental_uris": {"ios": "https://dc.lft.to/lastmile_qr_scan", "android": "https://dc.lft.to/lastmile_qr_scan"}}, {"name": "f05cada57e512c33b5a962c3404ee605", "lon": -77.131098, "lat": 39.024335666666666, "type": "electric_bike", "fusion_lon": 0.0, "is_reserved": 0, "bike_id": "f05cada57e512c33b5a962c3404ee605", "fusion_lat": 0.0, "is_disabled": 0, "rental_uris": {"ios": "https://dc.lft.to/lastmile_qr_scan", "android": "https://dc.lft.to/lastmile_qr_scan"}}, {"name": "283efaddc9a3d3b017c053a6772d5160", "lon": -77.09484083333334, "lat": 39.030432833333336, "type": "electric_bike", "fusion_lon": 0.0, "is_reserved": 0, "bike_id": "283efaddc9a3d3b017c053a6772d5160", "fusion_lat": 0.0, "is_disabled": 0, "rental_uris": {"ios": "https://dc.lft.to/lastmile_qr_scan", "android": "https://dc.lft.to/lastmile_qr_scan"}}, {"name": "2eb6f456bc31041bb335ae9d77f24bbe", "lon": -77.01188366666666, "lat": 38.90014083333333, "type": "electric_scooter", "fusion_lon": 0.0, "is_reserved": 0, "bike_id": "2eb6f456bc31041bb335ae9d77f24bbe", "fusion_lat": 0.0, "is_disabled": 0, "rental_uris": {"ios": "https://dc.lft.to/lastmile_qr_scan", "android": "https://dc.lft.to/lastmile_qr_scan"}}, {"name": "d2312f90e1c17bbc87490167e2835db6", "lon": -77.02751916666666, "lat": 38.951665, "type": "electric_scooter", "fusion_lon": 0.0, "is_reserved": 0, "bike_id": "d2312f90e1c17bbc87490167e2835db6", "fusion_lat": 0.0, "is_disabled": 0, "rental_uris": {"ios": "https://dc.lft.to/lastmile_qr_scan", "android": "https://dc.lft.to/lastmile_qr_scan"}}, {"name": "7fdac17b26cce6d3df9155c6752fb462", "lon": -77.037087, "lat": 38.920339, "type": "electric_bike", "fusion_lon": 0.0, "is_reserved": 0, "bike_id": "7fdac17b26cce6d3df9155c6752fb462", "fusion_lat": 0.0, "is_disabled": 0, "rental_uris": {"ios": "https://dc.lft.to/lastmile_qr_scan", "android": "https://dc.lft.to/lastmile_qr_scan"}}, {"name": "150ad8da9b82c18e2d65e157eb6ed99f", "lon": -77.03435516666667, "lat": 38.910058666666664, "type": "electric_scooter", "fusion_lon": 0.0, "is_reserved": 0, "bike_id": "150ad8da9b82c18e2d65e157eb6ed99f", "fusion_lat": 0.0, "is_disabled": 0, "rental_uris": {"ios": "https://dc.lft.to/lastmile_qr_scan", "android": "https://dc.lft.to/lastmile_qr_scan"}}, {"name": "20f67135c1dc618cf30ad4079136dff5", "lon": -77.02388683333334, "lat": 38.916531166666665, "type": "electric_scooter", "fusion_lon": 0.0, "is_reserved": 0, "bike_id": "20f67135c1dc618cf30ad4079136dff5", "fusion_lat": 0.0, "is_disabled": 0, "rental_uris": {"ios": "https://dc.lft.to/lastmile_qr_scan", "android": "https://dc.lft.to/lastmile_qr_scan"}}, {"name": "77ac0429cd83962eaca4e8fb1c4239d3", "lon": -77.03781033333334, "lat": 38.91685233333333, "type": "electric_scooter", "fusion_lon": 0.0, "is_reserved": 0, "bike_id": "77ac0429cd83962eaca4e8fb1c4239d3", "fusion_lat": 0.0, "is_disabled": 0, "rental_uris": {"ios": "https://dc.lft.to/lastmile_qr_scan", "android": "https://dc.lft.to/lastmile_qr_scan"}}, {"name": "40fa4add3ef5a8754167a8e1d397d3df", "lon": -77.0253115, "lat": 38.931899, "type": "electric_scooter", "fusion_lon": 0.0, "is_reserved": 0, "bike_id": "40fa4add3ef5a8754167a8e1d397d3df", "fusion_lat": 0.0, "is_disabled": 0, "rental_uris": {"ios": "https://dc.lft.to/lastmile_qr_scan", "android": "https://dc.lft.to/lastmile_qr_scan"}}, {"name": "78eeb68a57d2a6705a00542a21cfc5a4", "lon": -77.02252783333333, "lat": 38.9273635, "type": "electric_scooter", "fusion_lon": 0.0, "is_reserved": 0, "bike_id": "78eeb68a57d2a6705a00542a21cfc5a4", "fusion_lat": 0.0, "is_disabled": 0, "rental_uris": {"ios": "https://dc.lft.to/lastmile_qr_scan", "android": "https://dc.lft.to/lastmile_qr_scan"}}, {"name": "710914e723291a79de014f1911da546b", "lon": -77.00077916666666, "lat": 38.916317166666666, "type": "electric_scooter", "fusion_lon": 0.0, "is_reserved": 0, "bike_id": "710914e723291a79de014f1911da546b", "fusion_lat": 0.0, "is_disabled": 0, "rental_uris": {"ios": "https://dc.lft.to/lastmile_qr_scan", "android": "https://dc.lft.to/lastmile_qr_scan"}}, {"name": "f75e9a06a420a49067dfee843203926d", "lon": -77.01576433333334, "lat": 38.916739166666666, "type": "electric_scooter", "fusion_lon": 0.0, "is_reserved": 0, "bike_id": "f75e9a06a420a49067dfee843203926d", "fusion_lat": 0.0, "is_disabled": 0, "rental_uris": {"ios": "https://dc.lft.to/lastmile_qr_scan", "android": "https://dc.lft.to/lastmile_qr_scan"}}, {"name": "33007cfec75b56a4fe491c7603f97060", "lon": -77.03841366666667, "lat": 38.91214166666666, "type": "electric_scooter", "fusion_lon": 0.0, "is_reserved": 0, "bike_id": "33007cfec75b56a4fe491c7603f97060", "fusion_lat": 0.0, "is_disabled": 0, "rental_uris": {"ios": "https://dc.lft.to/lastmile_qr_scan", "android": "https://dc.lft.to/lastmile_qr_scan"}}, {"name": "1031b91f4308716f77daf6f314f0ea51", "lon": -77.02595966666667, "lat": 38.88347266666667, "type": "electric_scooter", "fusion_lon": 0.0, "is_reserved": 0, "bike_id": "1031b91f4308716f77daf6f314f0ea51", "fusion_lat": 0.0, "is_disabled": 0, "rental_uris": {"ios": "https://dc.lft.to/lastmile_qr_scan", "android": "https://dc.lft.to/lastmile_qr_scan"}}, {"name": "2d6113835f81d8b082971efe423c1c6f", "lon": -77.040412, "lat": 38.912872, "type": "electric_scooter", "fusion_lon": 0.0, "is_reserved": 0, "bike_id": "2d6113835f81d8b082971efe423c1c6f", "fusion_lat": 0.0, "is_disabled": 0, "rental_uris": {"ios": "https://dc.lft.to/lastmile_qr_scan", "android": "https://dc.lft.to/lastmile_qr_scan"}}, {"name": "404a3982039734b071e9539abd67e093", "lon": -76.9963775, "lat": 38.925643666666666, "type": "electric_scooter", "fusion_lon": 0.0, "is_reserved": 0, "bike_id": "404a3982039734b071e9539abd67e093", "fusion_lat": 0.0, "is_disabled": 0, "rental_uris": {"ios": "https://dc.lft.to/lastmile_qr_scan", "android": "https://dc.lft.to/lastmile_qr_scan"}}, {"name": "199f49f8e4356f167fd2f9bfaf59d3f1", "lon": -77.02225483333334, "lat": 38.892184666666665, "type": "electric_scooter", "fusion_lon": 0.0, "is_reserved": 0, "bike_id": "199f49f8e4356f167fd2f9bfaf59d3f1", "fusion_lat": 0.0, "is_disabled": 0, "rental_uris": {"ios": "https://dc.lft.to/lastmile_qr_scan", "android": "https://dc.lft.to/lastmile_qr_scan"}}, {"name": "1aed838f22cbf0736f6c9ef6f0cb1ff4", "lon": -77.02722566666667, "lat": 38.9068765, "type": "electric_scooter", "fusion_lon": 0.0, "is_reserved": 0, "bike_id": "1aed838f22cbf0736f6c9ef6f0cb1ff4", "fusion_lat": 0.0, "is_disabled": 0, "rental_uris": {"ios": "https://dc.lft.to/lastmile_qr_scan", "android": "https://dc.lft.to/lastmile_qr_scan"}}, {"name": "02a3eb5a09c33d13d6427913cfe98f54", "lon": -76.9869215, "lat": 38.94476066666667, "type": "electric_bike", "fusion_lon": 0.0, "is_reserved": 0, "bike_id": "02a3eb5a09c33d13d6427913cfe98f54", "fusion_lat": 0.0, "is_disabled": 0, "rental_uris": {"ios": "https://dc.lft.to/lastmile_qr_scan", "android": "https://dc.lft.to/lastmile_qr_scan"}}, {"name": "f2237634b5ec092b2419a33342b7b2a7", "lon": -77.00244366666666, "lat": 38.957212166666665, "type": "electric_scooter", "fusion_lon": 0.0, "is_reserved": 0, "bike_id": "f2237634b5ec092b2419a33342b7b2a7", "fusion_lat": 0.0, "is_disabled": 0, "rental_uris": {"ios": "https://dc.lft.to/lastmile_qr_scan", "android": "https://dc.lft.to/lastmile_qr_scan"}}, {"name": "926cc029695ad189b3cb7356ee6072f5", "lon": -76.99679983333333, "lat": 38.924857333333335, "type": "electric_bike", "fusion_lon": 0.0, "is_reserved": 0, "bike_id": "926cc029695ad189b3cb7356ee6072f5", "fusion_lat": 0.0, "is_disabled": 0, "rental_uris": {"ios": "https://dc.lft.to/lastmile_qr_scan", "android": "https://dc.lft.to/lastmile_qr_scan"}}, {"name": "e71b299119bba8add753b26c30b99a89", "lon": -77.059963, "lat": 38.90175033333333, "type": "electric_scooter", "fusion_lon": 0.0, "is_reserved": 0, "bike_id": "e71b299119bba8add753b26c30b99a89", "fusion_lat": 0.0, "is_disabled": 0, "rental_uris": {"ios": "https://dc.lft.to/lastmile_qr_scan", "android": "https://dc.lft.to/lastmile_qr_scan"}}, {"name": "60fa248624f66956bf50e1521899e180", "lon": -77.0366795, "lat": 38.92720533333333, "type": "electric_scooter", "fusion_lon": 0.0, "is_reserved": 0, "bike_id": "60fa248624f66956bf50e1521899e180", "fusion_lat": 0.0, "is_disabled": 0, "rental_uris": {"ios": "https://dc.lft.to/lastmile_qr_scan", "android": "https://dc.lft.to/lastmile_qr_scan"}}, {"name": "223a1bcdab17d3882a1b34eca2cce7cc", "lon": -76.98710933333334, "lat": 38.900659166666664, "type": "electric_scooter", "fusion_lon": 0.0, "is_reserved": 0, "bike_id": "223a1bcdab17d3882a1b34eca2cce7cc", "fusion_lat": 0.0, "is_disabled": 0, "rental_uris": {"ios": "https://dc.lft.to/lastmile_qr_scan", "android": "https://dc.lft.to/lastmile_qr_scan"}}, {"name": "46543ce9513448fac4c01955f71067c1", "lon": -77.04348266666666, "lat": 38.90647233333333, "type": "electric_scooter", "fusion_lon": 0.0, "is_reserved": 0, "bike_id": "46543ce9513448fac4c01955f71067c1", "fusion_lat": 0.0, "is_disabled": 0, "rental_uris": {"ios": "https://dc.lft.to/lastmile_qr_scan", "android": "https://dc.lft.to/lastmile_qr_scan"}}, {"name": "7e119f7be297b80a907c43e4971dddf8", "lon": -77.02715966666666, "lat": 38.9245525, "type": "electric_scooter", "fusion_lon": 0.0, "is_reserved": 0, "bike_id": "7e119f7be297b80a907c43e4971dddf8", "fusion_lat": 0.0, "is_disabled": 0, "rental_uris": {"ios": "https://dc.lft.to/lastmile_qr_scan", "android": "https://dc.lft.to/lastmile_qr_scan"}}, {"name": "2d5b20625624ddd866ef44955b74e956", "lon": -77.01411866666666, "lat": 38.928457333333334, "type": "electric_scooter", "fusion_lon": 0.0, "is_reserved": 0, "bike_id": "2d5b20625624ddd866ef44955b74e956", "fusion_lat": 0.0, "is_disabled": 0, "rental_uris": {"ios": "https://dc.lft.to/lastmile_qr_scan", "android": "https://dc.lft.to/lastmile_qr_scan"}}, {"name": "92c1f1f0c28f385fcb6b1e3c9c4fffc3", "lon": -77.04014833333333, "lat": 38.9184005, "type": "electric_scooter", "fusion_lon": 0.0, "is_reserved": 0, "bike_id": "92c1f1f0c28f385fcb6b1e3c9c4fffc3", "fusion_lat": 0.0, "is_disabled": 0, "rental_uris": {"ios": "https://dc.lft.to/lastmile_qr_scan", "android": "https://dc.lft.to/lastmile_qr_scan"}}, {"name": "2d9ab4a2abee677b11ce08598a972c07", "lon": -77.031035, "lat": 38.90417166666667, "type": "electric_scooter", "fusion_lon": 0.0, "is_reserved": 0, "bike_id": "2d9ab4a2abee677b11ce08598a972c07", "fusion_lat": 0.0, "is_disabled": 0, "rental_uris": {"ios": "https://dc.lft.to/lastmile_qr_scan", "android": "https://dc.lft.to/lastmile_qr_scan"}}, {"name": "b65d84373b50e2077d75382d7d12e322", "lon": -77.07907633333333, "lat": 38.94805266666667, "type": "electric_scooter", "fusion_lon": 0.0, "is_reserved": 0, "bike_id": "b65d84373b50e2077d75382d7d12e322", "fusion_lat": 0.0, "is_disabled": 0, "rental_uris": {"ios": "https://dc.lft.to/lastmile_qr_scan", "android": "https://dc.lft.to/lastmile_qr_scan"}}, {"name": "d3846be3658199c5645cd728de8b8121", "lon": -76.99894916666666, "lat": 38.94822416666667, "type": "electric_scooter", "fusion_lon": 0.0, "is_reserved": 0, "bike_id": "d3846be3658199c5645cd728de8b8121", "fusion_lat": 0.0, "is_disabled": 0, "rental_uris": {"ios": "https://dc.lft.to/lastmile_qr_scan", "android": "https://dc.lft.to/lastmile_qr_scan"}}, {"name": "8127f0a6837dec3fbcd253c27e41196d", "lon": -77.032083, "lat": 38.90762933333333, "type": "electric_scooter", "fusion_lon": 0.0, "is_reserved": 0, "bike_id": "8127f0a6837dec3fbcd253c27e41196d", "fusion_lat": 0.0, "is_disabled": 0, "rental_uris": {"ios": "https://dc.lft.to/lastmile_qr_scan", "android": "https://dc.lft.to/lastmile_qr_scan"}}, {"name": "10a959406aadf7b869ec08a38643e02e", "lon": -76.99854216666667, "lat": 38.90015616666667, "type": "electric_scooter", "fusion_lon": 0.0, "is_reserved": 0, "bike_id": "10a959406aadf7b869ec08a38643e02e", "fusion_lat": 0.0, "is_disabled": 0, "rental_uris": {"ios": "https://dc.lft.to/lastmile_qr_scan", "android": "https://dc.lft.to/lastmile_qr_scan"}}, {"name": "22cfed55a5fcf8b1d969429a0148cbfb", "lon": -76.9855345, "lat": 38.899429, "type": "electric_scooter", "fusion_lon": 0.0, "is_reserved": 0, "bike_id": "22cfed55a5fcf8b1d969429a0148cbfb", "fusion_lat": 0.0, "is_disabled": 0, "rental_uris": {"ios": "https://dc.lft.to/lastmile_qr_scan", "android": "https://dc.lft.to/lastmile_qr_scan"}}, {"name": "e84646739c467f461edf916b79cf08eb", "lon": -77.02438166666667, "lat": 38.902786666666664, "type": "electric_scooter", "fusion_lon": 0.0, "is_reserved": 0, "bike_id": "e84646739c467f461edf916b79cf08eb", "fusion_lat": 0.0, "is_disabled": 0, "rental_uris": {"ios": "https://dc.lft.to/lastmile_qr_scan", "android": "https://dc.lft.to/lastmile_qr_scan"}}, {"name": "d14fb634649e1f29f74af5bbe5ebe7ea", "lon": -77.03252533333334, "lat": 38.90589816666667, "type": "electric_scooter", "fusion_lon": 0.0, "is_reserved": 0, "bike_id": "d14fb634649e1f29f74af5bbe5ebe7ea", "fusion_lat": 0.0, "is_disabled": 0, "rental_uris": {"ios": "https://dc.lft.to/lastmile_qr_scan", "android": "https://dc.lft.to/lastmile_qr_scan"}}, {"name": "3e341d1f81b9259da9f3748eac67ec6e", "lon": -77.03207416666666, "lat": 38.8959095, "type": "electric_scooter", "fusion_lon": 0.0, "is_reserved": 0, "bike_id": "3e341d1f81b9259da9f3748eac67ec6e", "fusion_lat": 0.0, "is_disabled": 0, "rental_uris": {"ios": "https://dc.lft.to/lastmile_qr_scan", "android": "https://dc.lft.to/lastmile_qr_scan"}}, {"name": "fcc599d12451d827f9f259f370cdbf80", "lon": -77.05254733333334, "lat": 38.923737333333335, "type": "electric_scooter", "fusion_lon": 0.0, "is_reserved": 0, "bike_id": "fcc599d12451d827f9f259f370cdbf80", "fusion_lat": 0.0, "is_disabled": 0, "rental_uris": {"ios": "https://dc.lft.to/lastmile_qr_scan", "android": "https://dc.lft.to/lastmile_qr_scan"}}, {"name": "e80d606575621b2b98eed81f1afc7192", "lon": -77.058605, "lat": 38.936043, "type": "electric_scooter", "fusion_lon": 0.0, "is_reserved": 0, "bike_id": "e80d606575621b2b98eed81f1afc7192", "fusion_lat": 0.0, "is_disabled": 0, "rental_uris": {"ios": "https://dc.lft.to/lastmile_qr_scan", "android": "https://dc.lft.to/lastmile_qr_scan"}}, {"name": "9d9943a0185a42cc38a09f3a8e8ffde7", "lon": -77.01305916666666, "lat": 38.9006955, "type": "electric_scooter", "fusion_lon": 0.0, "is_reserved": 0, "bike_id": "9d9943a0185a42cc38a09f3a8e8ffde7", "fusion_lat": 0.0, "is_disabled": 0, "rental_uris": {"ios": "https://dc.lft.to/lastmile_qr_scan", "android": "https://dc.lft.to/lastmile_qr_scan"}}, {"name": "72ff35c5d55f2c0854c8d05b3dcd38f4", "lon": -77.00619, "lat": 38.875501166666666, "type": "electric_scooter", "fusion_lon": 0.0, "is_reserved": 0, "bike_id": "72ff35c5d55f2c0854c8d05b3dcd38f4", "fusion_lat": 0.0, "is_disabled": 0, "rental_uris": {"ios": "https://dc.lft.to/lastmile_qr_scan", "android": "https://dc.lft.to/lastmile_qr_scan"}}, {"name": "aa3fdaffd22c29e05bcf94e24002d77f", "lon": -76.99351183333333, "lat": 38.914825, "type": "electric_scooter", "fusion_lon": 0.0, "is_reserved": 0, "bike_id": "aa3fdaffd22c29e05bcf94e24002d77f", "fusion_lat": 0.0, "is_disabled": 0, "rental_uris": {"ios": "https://dc.lft.to/lastmile_qr_scan", "android": "https://dc.lft.to/lastmile_qr_scan"}}, {"name": "35d9c71e9f41b69256fc016b366f9bd2", "lon": -76.98106866666667, "lat": 38.8772995, "type": "electric_bike", "fusion_lon": 0.0, "is_reserved": 0, "bike_id": "35d9c71e9f41b69256fc016b366f9bd2", "fusion_lat": 0.0, "is_disabled": 0, "rental_uris": {"ios": "https://dc.lft.to/lastmile_qr_scan", "android": "https://dc.lft.to/lastmile_qr_scan"}}, {"name": "7d4daa49d9f79fc6d2ec4aaa58cc2d23", "lon": -77.03262633333334, "lat": 38.9387895, "type": "electric_scooter", "fusion_lon": 0.0, "is_reserved": 0, "bike_id": "7d4daa49d9f79fc6d2ec4aaa58cc2d23", "fusion_lat": 0.0, "is_disabled": 0, "rental_uris": {"ios": "https://dc.lft.to/lastmile_qr_scan", "android": "https://dc.lft.to/lastmile_qr_scan"}}, {"name": "88eb5021011678f189dc0f42e2157dec", "lon": -77.04613733333333, "lat": 38.9192345, "type": "electric_scooter", "fusion_lon": 0.0, "is_reserved": 0, "bike_id": "88eb5021011678f189dc0f42e2157dec", "fusion_lat": 0.0, "is_disabled": 0, "rental_uris": {"ios": "https://dc.lft.to/lastmile_qr_scan", "android": "https://dc.lft.to/lastmile_qr_scan"}}, {"name": "b832caa50caa310bc7f1fdb19449cf6c", "lon": -77.04123216666666, "lat": 38.916297666666665, "type": "electric_scooter", "fusion_lon": 0.0, "is_reserved": 0, "bike_id": "b832caa50caa310bc7f1fdb19449cf6c", "fusion_lat": 0.0, "is_disabled": 0, "rental_uris": {"ios": "https://dc.lft.to/lastmile_qr_scan", "android": "https://dc.lft.to/lastmile_qr_scan"}}, {"name": "35b703139e13b9a77a3f8663fd081a27", "lon": -77.0370815, "lat": 38.927759, "type": "electric_scooter", "fusion_lon": 0.0, "is_reserved": 0, "bike_id": "35b703139e13b9a77a3f8663fd081a27", "fusion_lat": 0.0, "is_disabled": 0, "rental_uris": {"ios": "https://dc.lft.to/lastmile_qr_scan", "android": "https://dc.lft.to/lastmile_qr_scan"}}, {"name": "9cb0939f36dfe76c5d55c352ae0818f8", "lon": -77.07578616666666, "lat": 38.93862166666667, "type": "electric_scooter", "fusion_lon": 0.0, "is_reserved": 0, "bike_id": "9cb0939f36dfe76c5d55c352ae0818f8", "fusion_lat": 0.0, "is_disabled": 0, "rental_uris": {"ios": "https://dc.lft.to/lastmile_qr_scan", "android": "https://dc.lft.to/lastmile_qr_scan"}}, {"name": "d70daf6cba4d7dde1d8efe43493099cb", "lon": -77.027208, "lat": 38.949566, "type": "electric_scooter", "fusion_lon": 0.0, "is_reserved": 0, "bike_id": "d70daf6cba4d7dde1d8efe43493099cb", "fusion_lat": 0.0, "is_disabled": 0, "rental_uris": {"ios": "https://dc.lft.to/lastmile_qr_scan", "android": "https://dc.lft.to/lastmile_qr_scan"}}, {"name": "061a8437ff1598db0e28b7b7c3f25b74", "lon": -76.98895883333333, "lat": 38.90465866666667, "type": "electric_scooter", "fusion_lon": 0.0, "is_reserved": 0, "bike_id": "061a8437ff1598db0e28b7b7c3f25b74", "fusion_lat": 0.0, "is_disabled": 0, "rental_uris": {"ios": "https://dc.lft.to/lastmile_qr_scan", "android": "https://dc.lft.to/lastmile_qr_scan"}}, {"name": "adae7092171207ddd9ca4497e8fbc7dd", "lon": -77.0159335, "lat": 38.94937133333333, "type": "electric_scooter", "fusion_lon": 0.0, "is_reserved": 0, "bike_id": "adae7092171207ddd9ca4497e8fbc7dd", "fusion_lat": 0.0, "is_disabled": 0, "rental_uris": {"ios": "https://dc.lft.to/lastmile_qr_scan", "android": "https://dc.lft.to/lastmile_qr_scan"}}, {"name": "9b951ee141353911f4df052d39f8a623", "lon": -77.02389266666667, "lat": 38.90850833333333, "type": "electric_scooter", "fusion_lon": 0.0, "is_reserved": 0, "bike_id": "9b951ee141353911f4df052d39f8a623", "fusion_lat": 0.0, "is_disabled": 0, "rental_uris": {"ios": "https://dc.lft.to/lastmile_qr_scan", "android": "https://dc.lft.to/lastmile_qr_scan"}}, {"name": "6c9dbf3cd18b1493fac616fc1922503a", "lon": -77.031111, "lat": 38.9040975, "type": "electric_scooter", "fusion_lon": 0.0, "is_reserved": 0, "bike_id": "6c9dbf3cd18b1493fac616fc1922503a", "fusion_lat": 0.0, "is_disabled": 0, "rental_uris": {"ios": "https://dc.lft.to/lastmile_qr_scan", "android": "https://dc.lft.to/lastmile_qr_scan"}}, {"name": "c0f4754498723b2bc48b0fb95d84a244", "lon": -76.97595816666667, "lat": 38.90330466666666, "type": "electric_bike", "fusion_lon": 0.0, "is_reserved": 0, "bike_id": "c0f4754498723b2bc48b0fb95d84a244", "fusion_lat": 0.0, "is_disabled": 0, "rental_uris": {"ios": "https://dc.lft.to/lastmile_qr_scan", "android": "https://dc.lft.to/lastmile_qr_scan"}}, {"name": "fb559f9be372f5fb942a746432568c16", "lon": -76.95118066666667, "lat": 38.887881166666666, "type": "electric_scooter", "fusion_lon": 0.0, "is_reserved": 0, "bike_id": "fb559f9be372f5fb942a746432568c16", "fusion_lat": 0.0, "is_disabled": 0, "rental_uris": {"ios": "https://dc.lft.to/lastmile_qr_scan", "android": "https://dc.lft.to/lastmile_qr_scan"}}, {"name": "e068218bbcccf89ec8c8201d858c8d9e", "lon": -77.0382705, "lat": 38.9181525, "type": "electric_scooter", "fusion_lon": 0.0, "is_reserved": 0, "bike_id": "e068218bbcccf89ec8c8201d858c8d9e", "fusion_lat": 0.0, "is_disabled": 0, "rental_uris": {"ios": "https://dc.lft.to/lastmile_qr_scan", "android": "https://dc.lft.to/lastmile_qr_scan"}}, {"name": "75283a35861b6075b100c8f7a59de76d", "lon": -77.03802916666666, "lat": 38.930592, "type": "electric_scooter", "fusion_lon": 0.0, "is_reserved": 0, "bike_id": "75283a35861b6075b100c8f7a59de76d", "fusion_lat": 0.0, "is_disabled": 0, "rental_uris": {"ios": "https://dc.lft.to/lastmile_qr_scan", "android": "https://dc.lft.to/lastmile_qr_scan"}}, {"name": "8c7a5e69b3e34a772c315c6a10b22628", "lon": -77.031249, "lat": 38.914902, "type": "electric_scooter", "fusion_lon": 0.0, "is_reserved": 0, "bike_id": "8c7a5e69b3e34a772c315c6a10b22628", "fusion_lat": 0.0, "is_disabled": 0, "rental_uris": {"ios": "https://dc.lft.to/lastmile_qr_scan", "android": "https://dc.lft.to/lastmile_qr_scan"}}, {"name": "cf7e2240b61d41a6612bb361bd577b4f", "lon": -76.949633, "lat": 38.90489016666667, "type": "electric_scooter", "fusion_lon": 0.0, "is_reserved": 0, "bike_id": "cf7e2240b61d41a6612bb361bd577b4f", "fusion_lat": 0.0, "is_disabled": 0, "rental_uris": {"ios": "https://dc.lft.to/lastmile_qr_scan", "android": "https://dc.lft.to/lastmile_qr_scan"}}, {"name": "1d84e5fdff753682d36ff8e3c95b9dbb", "lon": -77.05069216666666, "lat": 38.92410816666667, "type": "electric_scooter", "fusion_lon": 0.0, "is_reserved": 0, "bike_id": "1d84e5fdff753682d36ff8e3c95b9dbb", "fusion_lat": 0.0, "is_disabled": 0, "rental_uris": {"ios": "https://dc.lft.to/lastmile_qr_scan", "android": "https://dc.lft.to/lastmile_qr_scan"}}, {"name": "1b6b7187061df67d59db7404ee327c77", "lon": -77.04432133333333, "lat": 38.921299833333336, "type": "electric_scooter", "fusion_lon": 0.0, "is_reserved": 0, "bike_id": "1b6b7187061df67d59db7404ee327c77", "fusion_lat": 0.0, "is_disabled": 0, "rental_uris": {"ios": "https://dc.lft.to/lastmile_qr_scan", "android": "https://dc.lft.to/lastmile_qr_scan"}}, {"name": "aef4b70787b5268f339632bf119603fe", "lon": -77.03835866666667, "lat": 38.9071575, "type": "electric_scooter", "fusion_lon": 0.0, "is_reserved": 0, "bike_id": "aef4b70787b5268f339632bf119603fe", "fusion_lat": 0.0, "is_disabled": 0, "rental_uris": {"ios": "https://dc.lft.to/lastmile_qr_scan", "android": "https://dc.lft.to/lastmile_qr_scan"}}, {"name": "7eb6d936f0daaed60563cbace2326bf9", "lon": -77.01642233333334, "lat": 38.87924266666667, "type": "electric_scooter", "fusion_lon": 0.0, "is_reserved": 0, "bike_id": "7eb6d936f0daaed60563cbace2326bf9", "fusion_lat": 0.0, "is_disabled": 0, "rental_uris": {"ios": "https://dc.lft.to/lastmile_qr_scan", "android": "https://dc.lft.to/lastmile_qr_scan"}}, {"name": "f7f87fbba20d324be790be34ca438148", "lon": -77.08586833333334, "lat": 38.84438316666667, "type": "electric_bike", "fusion_lon": 0.0, "is_reserved": 0, "bike_id": "f7f87fbba20d324be790be34ca438148", "fusion_lat": 0.0, "is_disabled": 0, "rental_uris": {"ios": "https://dc.lft.to/lastmile_qr_scan", "android": "https://dc.lft.to/lastmile_qr_scan"}}, {"name": "1d5ce48016355ac8382965fda48f2631", "lon": -77.03896416666667, "lat": 38.922564, "type": "electric_scooter", "fusion_lon": 0.0, "is_reserved": 0, "bike_id": "1d5ce48016355ac8382965fda48f2631", "fusion_lat": 0.0, "is_disabled": 0, "rental_uris": {"ios": "https://dc.lft.to/lastmile_qr_scan", "android": "https://dc.lft.to/lastmile_qr_scan"}}, {"name": "71a32482ecdc4849bb68b3a0fc32a90e", "lon": -77.02199983333334, "lat": 38.88638733333333, "type": "electric_scooter", "fusion_lon": 0.0, "is_reserved": 0, "bike_id": "71a32482ecdc4849bb68b3a0fc32a90e", "fusion_lat": 0.0, "is_disabled": 0, "rental_uris": {"ios": "https://dc.lft.to/lastmile_qr_scan", "android": "https://dc.lft.to/lastmile_qr_scan"}}, {"name": "da9dc17cceba2353f77b4ec7c60f70d7", "lon": -76.99331983333333, "lat": 38.92441083333333, "type": "electric_scooter", "fusion_lon": 0.0, "is_reserved": 0, "bike_id": "da9dc17cceba2353f77b4ec7c60f70d7", "fusion_lat": 0.0, "is_disabled": 0, "rental_uris": {"ios": "https://dc.lft.to/lastmile_qr_scan", "android": "https://dc.lft.to/lastmile_qr_scan"}}, {"name": "dd1587c8fa466f0ad207b4066330d361", "lon": -76.98483916666666, "lat": 38.91501866666667, "type": "electric_scooter", "fusion_lon": 0.0, "is_reserved": 0, "bike_id": "dd1587c8fa466f0ad207b4066330d361", "fusion_lat": 0.0, "is_disabled": 0, "rental_uris": {"ios": "https://dc.lft.to/lastmile_qr_scan", "android": "https://dc.lft.to/lastmile_qr_scan"}}, {"name": "e3ba1db7d96fb288d4790595ca96cb4a", "lon": -77.03815533333334, "lat": 38.906562, "type": "electric_scooter", "fusion_lon": 0.0, "is_reserved": 0, "bike_id": "e3ba1db7d96fb288d4790595ca96cb4a", "fusion_lat": 0.0, "is_disabled": 0, "rental_uris": {"ios": "https://dc.lft.to/lastmile_qr_scan", "android": "https://dc.lft.to/lastmile_qr_scan"}}, {"name": "896f51c1a32586a1ffe93ce3ab846a60", "lon": -77.03666883333334, "lat": 38.917935666666665, "type": "electric_scooter", "fusion_lon": 0.0, "is_reserved": 0, "bike_id": "896f51c1a32586a1ffe93ce3ab846a60", "fusion_lat": 0.0, "is_disabled": 0, "rental_uris": {"ios": "https://dc.lft.to/lastmile_qr_scan", "android": "https://dc.lft.to/lastmile_qr_scan"}}, {"name": "73a12a4df8e7dc452015e16b7a38a749", "lon": -77.03475933333333, "lat": 38.925437, "type": "electric_scooter", "fusion_lon": 0.0, "is_reserved": 0, "bike_id": "73a12a4df8e7dc452015e16b7a38a749", "fusion_lat": 0.0, "is_disabled": 0, "rental_uris": {"ios": "https://dc.lft.to/lastmile_qr_scan", "android": "https://dc.lft.to/lastmile_qr_scan"}}, {"name": "e7268e4a9b27fb14b49d8363fbc73651", "lon": -77.037036, "lat": 38.920371, "type": "electric_bike", "fusion_lon": 0.0, "is_reserved": 0, "bike_id": "e7268e4a9b27fb14b49d8363fbc73651", "fusion_lat": 0.0, "is_disabled": 0, "rental_uris": {"ios": "https://dc.lft.to/lastmile_qr_scan", "android": "https://dc.lft.to/lastmile_qr_scan"}}, {"name": "3b75840d01849c67efdc21d7add4fe17", "lon": -76.97240133333334, "lat": 38.949045, "type": "electric_bike", "fusion_lon": 0.0, "is_reserved": 0, "bike_id": "3b75840d01849c67efdc21d7add4fe17", "fusion_lat": 0.0, "is_disabled": 0, "rental_uris": {"ios": "https://dc.lft.to/lastmile_qr_scan", "android": "https://dc.lft.to/lastmile_qr_scan"}}, {"name": "184886fe2bdae449f65253b7a08fff73", "lon": -76.9565465, "lat": 38.896106, "type": "electric_scooter", "fusion_lon": 0.0, "is_reserved": 0, "bike_id": "184886fe2bdae449f65253b7a08fff73", "fusion_lat": 0.0, "is_disabled": 0, "rental_uris": {"ios": "https://dc.lft.to/lastmile_qr_scan", "android": "https://dc.lft.to/lastmile_qr_scan"}}, {"name": "4f7067dbf591e9a282ebb2be1d1378e0", "lon": -77.02600716666667, "lat": 38.962411333333336, "type": "electric_bike", "fusion_lon": 0.0, "is_reserved": 0, "bike_id": "4f7067dbf591e9a282ebb2be1d1378e0", "fusion_lat": 0.0, "is_disabled": 0, "rental_uris": {"ios": "https://dc.lft.to/lastmile_qr_scan", "android": "https://dc.lft.to/lastmile_qr_scan"}}, {"name": "094e719f472f2c0103cdaec21daa2e9d", "lon": -77.01707383333333, "lat": 38.9040235, "type": "electric_scooter", "fusion_lon": 0.0, "is_reserved": 0, "bike_id": "094e719f472f2c0103cdaec21daa2e9d", "fusion_lat": 0.0, "is_disabled": 0, "rental_uris": {"ios": "https://dc.lft.to/lastmile_qr_scan", "android": "https://dc.lft.to/lastmile_qr_scan"}}, {"name": "fadf1fbd26aba91bae7b71307c21f223", "lon": -77.0473025, "lat": 38.91336916666667, "type": "electric_scooter", "fusion_lon": 0.0, "is_reserved": 0, "bike_id": "fadf1fbd26aba91bae7b71307c21f223", "fusion_lat": 0.0, "is_disabled": 0, "rental_uris": {"ios": "https://dc.lft.to/lastmile_qr_scan", "android": "https://dc.lft.to/lastmile_qr_scan"}}, {"name": "440f7d9a4a05db5df4b2427f16863443", "lon": -77.0286475, "lat": 38.998560166666664, "type": "electric_bike", "fusion_lon": 0.0, "is_reserved": 0, "bike_id": "440f7d9a4a05db5df4b2427f16863443", "fusion_lat": 0.0, "is_disabled": 0, "rental_uris": {"ios": "https://dc.lft.to/lastmile_qr_scan", "android": "https://dc.lft.to/lastmile_qr_scan"}}, {"name": "54adc49f6bdc7611a139d868ddb27856", "lon": -77.009951, "lat": 38.872864166666666, "type": "electric_scooter", "fusion_lon": 0.0, "is_reserved": 0, "bike_id": "54adc49f6bdc7611a139d868ddb27856", "fusion_lat": 0.0, "is_disabled": 0, "rental_uris": {"ios": "https://dc.lft.to/lastmile_qr_scan", "android": "https://dc.lft.to/lastmile_qr_scan"}}, {"name": "ba922df794e7010c033e959a8edd379e", "lon": -77.034226, "lat": 38.912593666666666, "type": "electric_scooter", "fusion_lon": 0.0, "is_reserved": 0, "bike_id": "ba922df794e7010c033e959a8edd379e", "fusion_lat": 0.0, "is_disabled": 0, "rental_uris": {"ios": "https://dc.lft.to/lastmile_qr_scan", "android": "https://dc.lft.to/lastmile_qr_scan"}}, {"name": "192ebc2c7117d343e2834f5d49640904", "lon": -77.07331283333333, "lat": 38.927231, "type": "electric_bike", "fusion_lon": 0.0, "is_reserved": 0, "bike_id": "192ebc2c7117d343e2834f5d49640904", "fusion_lat": 0.0, "is_disabled": 0, "rental_uris": {"ios": "https://dc.lft.to/lastmile_qr_scan", "android": "https://dc.lft.to/lastmile_qr_scan"}}, {"name": "5211bc529d4a31933d3b0715daacbbc5", "lon": -77.0385595, "lat": 38.9154925, "type": "electric_scooter", "fusion_lon": 0.0, "is_reserved": 0, "bike_id": "5211bc529d4a31933d3b0715daacbbc5", "fusion_lat": 0.0, "is_disabled": 0, "rental_uris": {"ios": "https://dc.lft.to/lastmile_qr_scan", "android": "https://dc.lft.to/lastmile_qr_scan"}}, {"name": "e0bfb175b9e95e99085d479ad8637313", "lon": -76.9735305, "lat": 38.84956866666667, "type": "electric_scooter", "fusion_lon": 0.0, "is_reserved": 0, "bike_id": "e0bfb175b9e95e99085d479ad8637313", "fusion_lat": 0.0, "is_disabled": 0, "rental_uris": {"ios": "https://dc.lft.to/lastmile_qr_scan", "android": "https://dc.lft.to/lastmile_qr_scan"}}, {"name": "42824a630bd37cb21936c1a0e719ba50", "lon": -77.0465415, "lat": 39.0549855, "type": "electric_bike", "fusion_lon": 0.0, "is_reserved": 0, "bike_id": "42824a630bd37cb21936c1a0e719ba50", "fusion_lat": 0.0, "is_disabled": 0, "rental_uris": {"ios": "https://dc.lft.to/lastmile_qr_scan", "android": "https://dc.lft.to/lastmile_qr_scan"}}, {"name": "398f644a5a395bca05e8d0906e8ca19f", "lon": -77.02391183333333, "lat": 38.919559666666665, "type": "electric_scooter", "fusion_lon": 0.0, "is_reserved": 0, "bike_id": "398f644a5a395bca05e8d0906e8ca19f", "fusion_lat": 0.0, "is_disabled": 0, "rental_uris": {"ios": "https://dc.lft.to/lastmile_qr_scan", "android": "https://dc.lft.to/lastmile_qr_scan"}}, {"name": "ee3e86ab20bd20c3c2e9f00ea6354be1", "lon": -77.01758566666666, "lat": 38.8768415, "type": "electric_scooter", "fusion_lon": 0.0, "is_reserved": 0, "bike_id": "ee3e86ab20bd20c3c2e9f00ea6354be1", "fusion_lat": 0.0, "is_disabled": 0, "rental_uris": {"ios": "https://dc.lft.to/lastmile_qr_scan", "android": "https://dc.lft.to/lastmile_qr_scan"}}, {"name": "51593a5b097aed1c70bb6adc459c93c8", "lon": -76.92540733333334, "lat": 38.959263, "type": "electric_bike", "fusion_lon": 0.0, "is_reserved": 0, "bike_id": "51593a5b097aed1c70bb6adc459c93c8", "fusion_lat": 0.0, "is_disabled": 0, "rental_uris": {"ios": "https://dc.lft.to/lastmile_qr_scan", "android": "https://dc.lft.to/lastmile_qr_scan"}}, {"name": "f832f8a4d3e3f6c89cfb5e0934bcf27a", "lon": -77.02950583333333, "lat": 38.90520583333333, "type": "electric_scooter", "fusion_lon": 0.0, "is_reserved": 0, "bike_id": "f832f8a4d3e3f6c89cfb5e0934bcf27a", "fusion_lat": 0.0, "is_disabled": 0, "rental_uris": {"ios": "https://dc.lft.to/lastmile_qr_scan", "android": "https://dc.lft.to/lastmile_qr_scan"}}, {"name": "5ea66fceb2e9c0d8ffadd3efe6c5ad6d", "lon": -76.9899225, "lat": 38.8638765, "type": "electric_bike", "fusion_lon": 0.0, "is_reserved": 0, "bike_id": "5ea66fceb2e9c0d8ffadd3efe6c5ad6d", "fusion_lat": 0.0, "is_disabled": 0, "rental_uris": {"ios": "https://dc.lft.to/lastmile_qr_scan", "android": "https://dc.lft.to/lastmile_qr_scan"}}, {"name": "ea1917c7503985b2b917f530df7f20bd", "lon": -77.03302133333334, "lat": 38.956338333333335, "type": "electric_scooter", "fusion_lon": 0.0, "is_reserved": 0, "bike_id": "ea1917c7503985b2b917f530df7f20bd", "fusion_lat": 0.0, "is_disabled": 0, "rental_uris": {"ios": "https://dc.lft.to/lastmile_qr_scan", "android": "https://dc.lft.to/lastmile_qr_scan"}}, {"name": "7398eea61082f27282a5d8ed5c7ea4aa", "lon": -77.02973483333334, "lat": 38.916843, "type": "electric_scooter", "fusion_lon": 0.0, "is_reserved": 0, "bike_id": "7398eea61082f27282a5d8ed5c7ea4aa", "fusion_lat": 0.0, "is_disabled": 0, "rental_uris": {"ios": "https://dc.lft.to/lastmile_qr_scan", "android": "https://dc.lft.to/lastmile_qr_scan"}}, {"name": "fce6eecb48a82e4861fcebf3e246bb6c", "lon": -76.99077366666667, "lat": 38.86229516666667, "type": "electric_bike", "fusion_lon": 0.0, "is_reserved": 0, "bike_id": "fce6eecb48a82e4861fcebf3e246bb6c", "fusion_lat": 0.0, "is_disabled": 0, "rental_uris": {"ios": "https://dc.lft.to/lastmile_qr_scan", "android": "https://dc.lft.to/lastmile_qr_scan"}}, {"name": "9359f4b48b8df031a704a7be0208fc67", "lon": -77.027716, "lat": 38.9542085, "type": "electric_scooter", "fusion_lon": 0.0, "is_reserved": 0, "bike_id": "9359f4b48b8df031a704a7be0208fc67", "fusion_lat": 0.0, "is_disabled": 0, "rental_uris": {"ios": "https://dc.lft.to/lastmile_qr_scan", "android": "https://dc.lft.to/lastmile_qr_scan"}}, {"name": "57dc22431477918f21261aa329cca9ec", "lon": -77.02826716666667, "lat": 38.8873275, "type": "electric_scooter", "fusion_lon": 0.0, "is_reserved": 0, "bike_id": "57dc22431477918f21261aa329cca9ec", "fusion_lat": 0.0, "is_disabled": 0, "rental_uris": {"ios": "https://dc.lft.to/lastmile_qr_scan", "android": "https://dc.lft.to/lastmile_qr_scan"}}, {"name": "f71720d3bb8c93532e938f5eca9559c6", "lon": -77.046183, "lat": 38.902610333333335, "type": "electric_scooter", "fusion_lon": 0.0, "is_reserved": 0, "bike_id": "f71720d3bb8c93532e938f5eca9559c6", "fusion_lat": 0.0, "is_disabled": 0, "rental_uris": {"ios": "https://dc.lft.to/lastmile_qr_scan", "android": "https://dc.lft.to/lastmile_qr_scan"}}, {"name": "1348d0d3b0008028e979b5af4a7290a3", "lon": -77.04764083333333, "lat": 38.917652333333336, "type": "electric_scooter", "fusion_lon": 0.0, "is_reserved": 0, "bike_id": "1348d0d3b0008028e979b5af4a7290a3", "fusion_lat": 0.0, "is_disabled": 0, "rental_uris": {"ios": "https://dc.lft.to/lastmile_qr_scan", "android": "https://dc.lft.to/lastmile_qr_scan"}}, {"name": "c34c23e2a60d1c2bd43543f7b92f84b2", "lon": -77.05862133333333, "lat": 38.93602033333333, "type": "electric_scooter", "fusion_lon": 0.0, "is_reserved": 0, "bike_id": "c34c23e2a60d1c2bd43543f7b92f84b2", "fusion_lat": 0.0, "is_disabled": 0, "rental_uris": {"ios": "https://dc.lft.to/lastmile_qr_scan", "android": "https://dc.lft.to/lastmile_qr_scan"}}, {"name": "bebfad8dcfb5948143156fa86f1d6c59", "lon": -76.94246466666667, "lat": 38.89672766666666, "type": "electric_scooter", "fusion_lon": 0.0, "is_reserved": 0, "bike_id": "bebfad8dcfb5948143156fa86f1d6c59", "fusion_lat": 0.0, "is_disabled": 0, "rental_uris": {"ios": "https://dc.lft.to/lastmile_qr_scan", "android": "https://dc.lft.to/lastmile_qr_scan"}}, {"name": "6e2bb8af5626cde9b2f38a987ab59619", "lon": -77.009214, "lat": 38.91338833333333, "type": "electric_scooter", "fusion_lon": 0.0, "is_reserved": 0, "bike_id": "6e2bb8af5626cde9b2f38a987ab59619", "fusion_lat": 0.0, "is_disabled": 0, "rental_uris": {"ios": "https://dc.lft.to/lastmile_qr_scan", "android": "https://dc.lft.to/lastmile_qr_scan"}}, {"name": "270e596d7f6b13d5505150ca8059c153", "lon": -77.00893633333334, "lat": 38.9248055, "type": "electric_scooter", "fusion_lon": 0.0, "is_reserved": 0, "bike_id": "270e596d7f6b13d5505150ca8059c153", "fusion_lat": 0.0, "is_disabled": 0, "rental_uris": {"ios": "https://dc.lft.to/lastmile_qr_scan", "android": "https://dc.lft.to/lastmile_qr_scan"}}, {"name": "5bbf548c9db37df1d52d71e8cad80335", "lon": -77.05757566666666, "lat": 38.924891833333334, "type": "electric_scooter", "fusion_lon": 0.0, "is_reserved": 0, "bike_id": "5bbf548c9db37df1d52d71e8cad80335", "fusion_lat": 0.0, "is_disabled": 0, "rental_uris": {"ios": "https://dc.lft.to/lastmile_qr_scan", "android": "https://dc.lft.to/lastmile_qr_scan"}}, {"name": "e769b20d2d06b8a839dd39a3f3a48f26", "lon": -77.0142165, "lat": 38.905718666666665, "type": "electric_bike", "fusion_lon": 0.0, "is_reserved": 0, "bike_id": "e769b20d2d06b8a839dd39a3f3a48f26", "fusion_lat": 0.0, "is_disabled": 0, "rental_uris": {"ios": "https://dc.lft.to/lastmile_qr_scan", "android": "https://dc.lft.to/lastmile_qr_scan"}}, {"name": "09037dc608f79d27c346eea9b9fdd605", "lon": -77.035357, "lat": 38.925328, "type": "electric_scooter", "fusion_lon": 0.0, "is_reserved": 0, "bike_id": "09037dc608f79d27c346eea9b9fdd605", "fusion_lat": 0.0, "is_disabled": 0, "rental_uris": {"ios": "https://dc.lft.to/lastmile_qr_scan", "android": "https://dc.lft.to/lastmile_qr_scan"}}, {"name": "a95cc6a6e84ae7121fa5686ea04b8933", "lon": -76.966233, "lat": 38.871026666666666, "type": "electric_scooter", "fusion_lon": 0.0, "is_reserved": 0, "bike_id": "a95cc6a6e84ae7121fa5686ea04b8933", "fusion_lat": 0.0, "is_disabled": 0, "rental_uris": {"ios": "https://dc.lft.to/lastmile_qr_scan", "android": "https://dc.lft.to/lastmile_qr_scan"}}, {"name": "5e4092feb153901e2a897d80bbbf4a4b", "lon": -77.001296, "lat": 38.90499, "type": "electric_scooter", "fusion_lon": 0.0, "is_reserved": 0, "bike_id": "5e4092feb153901e2a897d80bbbf4a4b", "fusion_lat": 0.0, "is_disabled": 0, "rental_uris": {"ios": "https://dc.lft.to/lastmile_qr_scan", "android": "https://dc.lft.to/lastmile_qr_scan"}}, {"name": "05f3368c044297e62ab8c6b894885498", "lon": -77.03300433333334, "lat": 38.95634183333333, "type": "electric_scooter", "fusion_lon": 0.0, "is_reserved": 0, "bike_id": "05f3368c044297e62ab8c6b894885498", "fusion_lat": 0.0, "is_disabled": 0, "rental_uris": {"ios": "https://dc.lft.to/lastmile_qr_scan", "android": "https://dc.lft.to/lastmile_qr_scan"}}, {"name": "c4135953baa64a03fb677f9a88f92b6e", "lon": -77.030384, "lat": 38.89827966666667, "type": "electric_scooter", "fusion_lon": 0.0, "is_reserved": 0, "bike_id": "c4135953baa64a03fb677f9a88f92b6e", "fusion_lat": 0.0, "is_disabled": 0, "rental_uris": {"ios": "https://dc.lft.to/lastmile_qr_scan", "android": "https://dc.lft.to/lastmile_qr_scan"}}, {"name": "af3198a71fdc78ec1de5110615edb8ab", "lon": -77.0298765, "lat": 38.89639, "type": "electric_scooter", "fusion_lon": 0.0, "is_reserved": 0, "bike_id": "af3198a71fdc78ec1de5110615edb8ab", "fusion_lat": 0.0, "is_disabled": 0, "rental_uris": {"ios": "https://dc.lft.to/lastmile_qr_scan", "android": "https://dc.lft.to/lastmile_qr_scan"}}, {"name": "25f39fe5bd7c8861dcf72293115de5e0", "lon": -76.94622183333334, "lat": 38.8323415, "type": "electric_bike", "fusion_lon": 0.0, "is_reserved": 0, "bike_id": "25f39fe5bd7c8861dcf72293115de5e0", "fusion_lat": 0.0, "is_disabled": 0, "rental_uris": {"ios": "https://dc.lft.to/lastmile_qr_scan", "android": "https://dc.lft.to/lastmile_qr_scan"}}, {"name": "f9bf169fad4ae50e2861f4fa9cd61d3e", "lon": -77.0341835, "lat": 38.9191895, "type": "electric_scooter", "fusion_lon": 0.0, "is_reserved": 0, "bike_id": "f9bf169fad4ae50e2861f4fa9cd61d3e", "fusion_lat": 0.0, "is_disabled": 0, "rental_uris": {"ios": "https://dc.lft.to/lastmile_qr_scan", "android": "https://dc.lft.to/lastmile_qr_scan"}}, {"name": "f056fb185ca50950f086eefb2492f2c5", "lon": -77.04978166666666, "lat": 39.06292466666667, "type": "electric_bike", "fusion_lon": 0.0, "is_reserved": 0, "bike_id": "f056fb185ca50950f086eefb2492f2c5", "fusion_lat": 0.0, "is_disabled": 0, "rental_uris": {"ios": "https://dc.lft.to/lastmile_qr_scan", "android": "https://dc.lft.to/lastmile_qr_scan"}}, {"name": "33537b5f8e0d553b1a79ba1046a36fbb", "lon": -77.04329966666667, "lat": 38.892202833333336, "type": "electric_scooter", "fusion_lon": 0.0, "is_reserved": 0, "bike_id": "33537b5f8e0d553b1a79ba1046a36fbb", "fusion_lat": 0.0, "is_disabled": 0, "rental_uris": {"ios": "https://dc.lft.to/lastmile_qr_scan", "android": "https://dc.lft.to/lastmile_qr_scan"}}, {"name": "80f342c95e58f35fdb615d8d6d9e5aa7", "lon": -77.03460333333334, "lat": 38.90559966666667, "type": "electric_scooter", "fusion_lon": 0.0, "is_reserved": 0, "bike_id": "80f342c95e58f35fdb615d8d6d9e5aa7", "fusion_lat": 0.0, "is_disabled": 0, "rental_uris": {"ios": "https://dc.lft.to/lastmile_qr_scan", "android": "https://dc.lft.to/lastmile_qr_scan"}}, {"name": "554fc6963fc05794f5ad774a3fa49a2c", "lon": -76.956472, "lat": 38.89548583333333, "type": "electric_scooter", "fusion_lon": 0.0, "is_reserved": 0, "bike_id": "554fc6963fc05794f5ad774a3fa49a2c", "fusion_lat": 0.0, "is_disabled": 0, "rental_uris": {"ios": "https://dc.lft.to/lastmile_qr_scan", "android": "https://dc.lft.to/lastmile_qr_scan"}}, {"name": "49fb176d88800e5a6a64f640a772b8e8", "lon": -77.22214816666667, "lat": 38.928535333333336, "type": "electric_bike", "fusion_lon": 0.0, "is_reserved": 0, "bike_id": "49fb176d88800e5a6a64f640a772b8e8", "fusion_lat": 0.0, "is_disabled": 0, "rental_uris": {"ios": "https://dc.lft.to/lastmile_qr_scan", "android": "https://dc.lft.to/lastmile_qr_scan"}}, {"name": "20a697f56312088bc866354ffd79f577", "lon": -77.17842833333333, "lat": 39.08854616666667, "type": "electric_bike", "fusion_lon": 0.0, "is_reserved": 0, "bike_id": "20a697f56312088bc866354ffd79f577", "fusion_lat": 0.0, "is_disabled": 0, "rental_uris": {"ios": "https://dc.lft.to/lastmile_qr_scan", "android": "https://dc.lft.to/lastmile_qr_scan"}}, {"name": "e11d93b1aa9e1aa3ace3b987f213c6c8", "lon": -77.03264933333334, "lat": 38.93256933333333, "type": "electric_scooter", "fusion_lon": 0.0, "is_reserved": 0, "bike_id": "e11d93b1aa9e1aa3ace3b987f213c6c8", "fusion_lat": 0.0, "is_disabled": 0, "rental_uris": {"ios": "https://dc.lft.to/lastmile_qr_scan", "android": "https://dc.lft.to/lastmile_qr_scan"}}, {"name": "0be1dab1fbdea473d033f4e942dd694f", "lon": -77.0863005, "lat": 38.88184566666666, "type": "electric_bike", "fusion_lon": 0.0, "is_reserved": 0, "bike_id": "0be1dab1fbdea473d033f4e942dd694f", "fusion_lat": 0.0, "is_disabled": 0, "rental_uris": {"ios": "https://dc.lft.to/lastmile_qr_scan", "android": "https://dc.lft.to/lastmile_qr_scan"}}, {"name": "aa3795ff453de5a78ade4e538e37d9a0", "lon": -77.00967516666667, "lat": 38.907864833333335, "type": "electric_scooter", "fusion_lon": 0.0, "is_reserved": 0, "bike_id": "aa3795ff453de5a78ade4e538e37d9a0", "fusion_lat": 0.0, "is_disabled": 0, "rental_uris": {"ios": "https://dc.lft.to/lastmile_qr_scan", "android": "https://dc.lft.to/lastmile_qr_scan"}}, {"name": "cde4206e6a6f2b60f5a86690783aa630", "lon": -77.0167225, "lat": 38.8810605, "type": "electric_bike", "fusion_lon": 0.0, "is_reserved": 0, "bike_id": "cde4206e6a6f2b60f5a86690783aa630", "fusion_lat": 0.0, "is_disabled": 0, "rental_uris": {"ios": "https://dc.lft.to/lastmile_qr_scan", "android": "https://dc.lft.to/lastmile_qr_scan"}}, {"name": "79249e649ff462f53ffa3dd9fa2f5004", "lon": -77.01970533333333, "lat": 38.90286366666667, "type": "electric_scooter", "fusion_lon": 0.0, "is_reserved": 0, "bike_id": "79249e649ff462f53ffa3dd9fa2f5004", "fusion_lat": 0.0, "is_disabled": 0, "rental_uris": {"ios": "https://dc.lft.to/lastmile_qr_scan", "android": "https://dc.lft.to/lastmile_qr_scan"}}, {"name": "d42c381c95a6f690b35c6e77f3132d0a", "lon": -77.02314, "lat": 38.8966555, "type": "electric_scooter", "fusion_lon": 0.0, "is_reserved": 0, "bike_id": "d42c381c95a6f690b35c6e77f3132d0a", "fusion_lat": 0.0, "is_disabled": 0, "rental_uris": {"ios": "https://dc.lft.to/lastmile_qr_scan", "android": "https://dc.lft.to/lastmile_qr_scan"}}, {"name": "9b14ee4ebd4ba6880ea0ade48bd67a91", "lon": -76.99165533333333, "lat": 38.897999666666664, "type": "electric_scooter", "fusion_lon": 0.0, "is_reserved": 0, "bike_id": "9b14ee4ebd4ba6880ea0ade48bd67a91", "fusion_lat": 0.0, "is_disabled": 0, "rental_uris": {"ios": "https://dc.lft.to/lastmile_qr_scan", "android": "https://dc.lft.to/lastmile_qr_scan"}}, {"name": "8a730056cb7f717d77bc5d58db8ec192", "lon": -77.02695766666666, "lat": 38.906808166666664, "type": "electric_scooter", "fusion_lon": 0.0, "is_reserved": 0, "bike_id": "8a730056cb7f717d77bc5d58db8ec192", "fusion_lat": 0.0, "is_disabled": 0, "rental_uris": {"ios": "https://dc.lft.to/lastmile_qr_scan", "android": "https://dc.lft.to/lastmile_qr_scan"}}, {"name": "f40ebb40e0e935d434b45363d44d0755", "lon": -77.04187133333333, "lat": 38.916826666666665, "type": "electric_scooter", "fusion_lon": 0.0, "is_reserved": 0, "bike_id": "f40ebb40e0e935d434b45363d44d0755", "fusion_lat": 0.0, "is_disabled": 0, "rental_uris": {"ios": "https://dc.lft.to/lastmile_qr_scan", "android": "https://dc.lft.to/lastmile_qr_scan"}}, {"name": "c760759d96b6a73a451cd094a6212c91", "lon": -76.96528833333333, "lat": 38.8747675, "type": "electric_bike", "fusion_lon": 0.0, "is_reserved": 0, "bike_id": "c760759d96b6a73a451cd094a6212c91", "fusion_lat": 0.0, "is_disabled": 0, "rental_uris": {"ios": "https://dc.lft.to/lastmile_qr_scan", "android": "https://dc.lft.to/lastmile_qr_scan"}}, {"name": "0e03716071bc3f0bf830b977b0ac7f54", "lon": -77.039024, "lat": 38.91825766666667, "type": "electric_scooter", "fusion_lon": 0.0, "is_reserved": 0, "bike_id": "0e03716071bc3f0bf830b977b0ac7f54", "fusion_lat": 0.0, "is_disabled": 0, "rental_uris": {"ios": "https://dc.lft.to/lastmile_qr_scan", "android": "https://dc.lft.to/lastmile_qr_scan"}}, {"name": "4c81ad80b10edd204f56642dde183fe4", "lon": -76.9836325, "lat": 38.915313166666664, "type": "electric_scooter", "fusion_lon": 0.0, "is_reserved": 0, "bike_id": "4c81ad80b10edd204f56642dde183fe4", "fusion_lat": 0.0, "is_disabled": 0, "rental_uris": {"ios": "https://dc.lft.to/lastmile_qr_scan", "android": "https://dc.lft.to/lastmile_qr_scan"}}, {"name": "6e39e1ebbe249bec3016c058b7cd1b33", "lon": -77.03742366666667, "lat": 38.92691166666667, "type": "electric_scooter", "fusion_lon": 0.0, "is_reserved": 0, "bike_id": "6e39e1ebbe249bec3016c058b7cd1b33", "fusion_lat": 0.0, "is_disabled": 0, "rental_uris": {"ios": "https://dc.lft.to/lastmile_qr_scan", "android": "https://dc.lft.to/lastmile_qr_scan"}}, {"name": "2198957be06ccb37d6c52050d0bef3db", "lon": -77.060874, "lat": 38.911679666666664, "type": "electric_scooter", "fusion_lon": 0.0, "is_reserved": 0, "bike_id": "2198957be06ccb37d6c52050d0bef3db", "fusion_lat": 0.0, "is_disabled": 0, "rental_uris": {"ios": "https://dc.lft.to/lastmile_qr_scan", "android": "https://dc.lft.to/lastmile_qr_scan"}}, {"name": "f0096250f297271682dcad4bf87e88c2", "lon": -77.01999816666667, "lat": 38.885914666666665, "type": "electric_scooter", "fusion_lon": 0.0, "is_reserved": 0, "bike_id": "f0096250f297271682dcad4bf87e88c2", "fusion_lat": 0.0, "is_disabled": 0, "rental_uris": {"ios": "https://dc.lft.to/lastmile_qr_scan", "android": "https://dc.lft.to/lastmile_qr_scan"}}, {"name": "cf50e4cf160b563e5a01624f914ca5db", "lon": -77.03608583333333, "lat": 38.923255833333336, "type": "electric_scooter", "fusion_lon": 0.0, "is_reserved": 0, "bike_id": "cf50e4cf160b563e5a01624f914ca5db", "fusion_lat": 0.0, "is_disabled": 0, "rental_uris": {"ios": "https://dc.lft.to/lastmile_qr_scan", "android": "https://dc.lft.to/lastmile_qr_scan"}}, {"name": "e0809cc74e68eaf56c23a93468eb9028", "lon": -77.04510866666666, "lat": 38.89222866666667, "type": "electric_scooter", "fusion_lon": 0.0, "is_reserved": 0, "bike_id": "e0809cc74e68eaf56c23a93468eb9028", "fusion_lat": 0.0, "is_disabled": 0, "rental_uris": {"ios": "https://dc.lft.to/lastmile_qr_scan", "android": "https://dc.lft.to/lastmile_qr_scan"}}, {"name": "4639159a65b0a1b0d094cde859d882ca", "lon": -76.99644183333334, "lat": 38.98823383333333, "type": "electric_bike", "fusion_lon": 0.0, "is_reserved": 0, "bike_id": "4639159a65b0a1b0d094cde859d882ca", "fusion_lat": 0.0, "is_disabled": 0, "rental_uris": {"ios": "https://dc.lft.to/lastmile_qr_scan", "android": "https://dc.lft.to/lastmile_qr_scan"}}, {"name": "ea36e85873816c6557f973aeb0010c0f", "lon": -77.0183405, "lat": 38.94203816666667, "type": "electric_scooter", "fusion_lon": 0.0, "is_reserved": 0, "bike_id": "ea36e85873816c6557f973aeb0010c0f", "fusion_lat": 0.0, "is_disabled": 0, "rental_uris": {"ios": "https://dc.lft.to/lastmile_qr_scan", "android": "https://dc.lft.to/lastmile_qr_scan"}}, {"name": "5c5b7457f44254ba304b69580e3172c0", "lon": -77.02988983333333, "lat": 38.92373966666667, "type": "electric_scooter", "fusion_lon": 0.0, "is_reserved": 0, "bike_id": "5c5b7457f44254ba304b69580e3172c0", "fusion_lat": 0.0, "is_disabled": 0, "rental_uris": {"ios": "https://dc.lft.to/lastmile_qr_scan", "android": "https://dc.lft.to/lastmile_qr_scan"}}, {"name": "e5cb4c3d49ce963a16196d6b84290a4a", "lon": -77.03959466666667, "lat": 38.9306065, "type": "electric_scooter", "fusion_lon": 0.0, "is_reserved": 0, "bike_id": "e5cb4c3d49ce963a16196d6b84290a4a", "fusion_lat": 0.0, "is_disabled": 0, "rental_uris": {"ios": "https://dc.lft.to/lastmile_qr_scan", "android": "https://dc.lft.to/lastmile_qr_scan"}}, {"name": "5c8e767f05ad72428173fdd1fac66286", "lon": -77.03126016666667, "lat": 38.919191833333336, "type": "electric_scooter", "fusion_lon": 0.0, "is_reserved": 0, "bike_id": "5c8e767f05ad72428173fdd1fac66286", "fusion_lat": 0.0, "is_disabled": 0, "rental_uris": {"ios": "https://dc.lft.to/lastmile_qr_scan", "android": "https://dc.lft.to/lastmile_qr_scan"}},