{"data": {"bikes": [{"fusion_lat": 0.0, "name": "97e021d0943570aeedfceab69d3bcbd7", "is_disabled": 0, "rental_uris": {"android": "https://dc.lft.to/lastmile_qr_scan", "ios": "https://dc.lft.to/lastmile_qr_scan"}, "fusion_lon": 0.0, "lat": 38.935381666666665, "bike_id": "97e021d0943570aeedfceab69d3bcbd7", "type": "electric_scooter", "is_reserved": 0, "lon": -77.02349383333333}, {"fusion_lat": 0.0, "name": "96fb1b36681fe2ea1be818debbec839e", "is_disabled": 0, "rental_uris": {"android": "https://dc.lft.to/lastmile_qr_scan", "ios": "https://dc.lft.to/lastmile_qr_scan"}, "fusion_lon": 0.0, "lat": 38.921179, "bike_id": "96fb1b36681fe2ea1be818debbec839e", "type": "electric_scooter", "is_reserved": 0, "lon": -77.02077733333333}, {"fusion_lat": 0.0, "name": "b8def00a588ad8219ca7a3c93bd96e8f", "is_disabled": 0, "rental_uris": {"android": "https://dc.lft.to/lastmile_qr_scan", "ios": "https://dc.lft.to/lastmile_qr_scan"}, "fusion_lon": 0.0, "lat": 38.8550755, "bike_id": "b8def00a588ad8219ca7a3c93bd96e8f", "type": "electric_scooter", "is_reserved": 0, "lon": -76.96536216666667}, {"fusion_lat": 0.0, "name": "63fb84c57df42e32e53e37f04799fb69", "is_disabled": 0, "rental_uris": {"android": "https://dc.lft.to/lastmile_qr_scan", "ios": "https://dc.lft.to/lastmile_qr_scan"}, "fusion_lon": 0.0, "lat": 38.927353, "bike_id": "63fb84c57df42e32e53e37f04799fb69", "type": "electric_bike", "is_reserved": 0, "lon": -77.02493533333333}, {"fusion_lat": 0.0, "name": "6efafd08d44595b6d5f20f18a052727b", "is_disabled": 0, "rental_uris": {"android": "https://dc.lft.to/lastmile_qr_scan", "ios": "https://dc.lft.to/lastmile_qr_scan"}, "fusion_lon": 0.0, "lat": 38.92404916666667, "bike_id": "6efafd08d44595b6d5f20f18a052727b", "type": "electric_bike", "is_reserved": 0, "lon": -77.050446}, {"fusion_lat": 0.0, "name": "1120d4fab7df907850040d58ecde3935", "is_disabled": 0, "rental_uris": {"android": "https://dc.lft.to/lastmile_qr_scan", "ios": "https://dc.lft.to/lastmile_qr_scan"}, "fusion_lon": 0.0, "lat": 38.9531115, "bike_id": "1120d4fab7df907850040d58ecde3935", "type": "electric_scooter", "is_reserved": 0, "lon": -77.02248183333333}, {"fusion_lat": 0.0, "name": "3fb81982780f09f5f7bdb1b891ad267f", "is_disabled": 0, "rental_uris": {"android": "https://dc.lft.to/lastmile_qr_scan", "ios": "https://dc.lft.to/lastmile_qr_scan"}, "fusion_lon": 0.0, "lat": 38.909563166666665, "bike_id": "3fb81982780f09f5f7bdb1b891ad267f", "type": "electric_scooter", "is_reserved": 0, "lon": -77.04863083333333}, {"fusion_lat": 0.0, "name": "41d2b8cb79e8a79c57eabbdf5f9e5764", "is_disabled": 0, "rental_uris": {"android": "https://dc.lft.to/lastmile_qr_scan", "ios": "https://dc.lft.to/lastmile_qr_scan"}, "fusion_lon": 0.0, "lat": 38.93022166666667, "bike_id": "41d2b8cb79e8a79c57eabbdf5f9e5764", "type": "electric_scooter", "is_reserved": 0, "lon": -77.03790233333334}, {"fusion_lat": 0.0, "name": "0c7efc56c118e6d57d4cf96045a487a3", "is_disabled": 0, "rental_uris": {"android": "https://dc.lft.to/lastmile_qr_scan", "ios": "https://dc.lft.to/lastmile_qr_scan"}, "fusion_lon": 0.0, "lat": 38.992281, "bike_id": "0c7efc56c118e6d57d4cf96045a487a3", "type": "electric_bike", "is_reserved": 0, "lon": -76.9440375}, {"fusion_lat": 0.0, "name": "a84537b6dc8ed9e7393d51716bed5868", "is_disabled": 0, "rental_uris": {"android": "https://dc.lft.to/lastmile_qr_scan", "ios": "https://dc.lft.to/lastmile_qr_scan"}, "fusion_lon": 0.0, "lat": 38.91706333333333, "bike_id": "a84537b6dc8ed9e7393d51716bed5868", "type": "electric_scooter", "is_reserved": 0, "lon": -77.03217}, {"fusion_lat": 0.0, "name": "bd0483fb0470b78bd0f5fad9affa29cd", "is_disabled": 0, "rental_uris": {"android": "https://dc.lft.to/lastmile_qr_scan", "ios": "https://dc.lft.to/lastmile_qr_scan"}, "fusion_lon": 0.0, "lat": 38.9152195, "bike_id": "bd0483fb0470b78bd0f5fad9affa29cd", "type": "electric_scooter", "is_reserved": 0, "lon": -77.01327616666667}, {"fusion_lat": 0.0, "name": "d3437366890df8eb6a24d36419bc51ab", "is_disabled": 0, "rental_uris": {"android": "https://dc.lft.to/lastmile_qr_scan", "ios": "https://dc.lft.to/lastmile_qr_scan"}, "fusion_lon": 0.0, "lat": 38.885055, "bike_id": "d3437366890df8eb6a24d36419bc51ab", "type": "electric_scooter", "is_reserved": 0, "lon": -77.00064216666667}, {"fusion_lat": 0.0, "name": "ca06b97b0c798fe50a8832b4f4823069", "is_disabled": 0, "rental_uris": {"android": "https://dc.lft.to/lastmile_qr_scan", "ios": "https://dc.lft.to/lastmile_qr_scan"}, "fusion_lon": 0.0, "lat": 38.90696166666667, "bike_id": "ca06b97b0c798fe50a8832b4f4823069", "type": "electric_scooter", "is_reserved": 0, "lon": -77.06523533333333}, {"fusion_lat": 0.0, "name": "6c35909c43ff8bc42d32d23225252e10", "is_disabled": 0, "rental_uris": {"android": "https://dc.lft.to/lastmile_qr_scan", "ios": "https://dc.lft.to/lastmile_qr_scan"}, "fusion_lon": 0.0, "lat": 38.80448883333333, "bike_id": "6c35909c43ff8bc42d32d23225252e10", "type": "electric_bike", "is_reserved": 0, "lon": -77.1322915}, {"fusion_lat": 0.0, "name": "3beeff84db34a4db723fd45c9a3d0266", "is_disabled": 0, "rental_uris": {"android": "https://dc.lft.to/lastmile_qr_scan", "ios": "https://dc.lft.to/lastmile_qr_scan"}, "fusion_lon": 0.0, "lat": 38.918186, "bike_id": "3beeff84db34a4db723fd45c9a3d0266", "type": "electric_scooter", "is_reserved": 0, "lon": -77.02612566666667}, {"fusion_lat": 0.0, "name": "299854cbfcff8e213d32a654381692ff", "is_disabled": 0, "rental_uris": {"android": "https://dc.lft.to/lastmile_qr_scan", "ios": "https://dc.lft.to/lastmile_qr_scan"}, "fusion_lon": 0.0, "lat": 38.919901, "bike_id": "299854cbfcff8e213d32a654381692ff", "type": "electric_scooter", "is_reserved": 0, "lon": -77.032754}, {"fusion_lat": 0.0, "name": "b9c3ec3e0c02fbd7455e95a500c6231b", "is_disabled": 0, "rental_uris": {"android": "https://dc.lft.to/lastmile_qr_scan", "ios": "https://dc.lft.to/lastmile_qr_scan"}, "fusion_lon": 0.0, "lat": 38.917338, "bike_id": "b9c3ec3e0c02fbd7455e95a500c6231b", "type": "electric_scooter", "is_reserved": 0, "lon": -77.03664066666667}, {"fusion_lat": 0.0, "name": "c8826c78dbce667429415cbb1fa6600b", "is_disabled": 0, "rental_uris": {"android": "https://dc.lft.to/lastmile_qr_scan", "ios": "https://dc.lft.to/lastmile_qr_scan"}, "fusion_lon": 0.0, "lat": 38.907339666666665, "bike_id": "c8826c78dbce667429415cbb1fa6600b", "type": "electric_scooter", "is_reserved": 0, "lon": -77.03454533333333}, {"fusion_lat": 0.0, "name": "d0369d66ddefed241287bbab46de690d", "is_disabled": 0, "rental_uris": {"android": "https://dc.lft.to/lastmile_qr_scan", "ios": "https://dc.lft.to/lastmile_qr_scan"}, "fusion_lon": 0.0, "lat": 38.923862666666665, "bike_id": "d0369d66ddefed241287bbab46de690d", "type": "electric_scooter", "is_reserved": 0, "lon": -77.04021016666667}, {"fusion_lat": 0.0, "name": "283af18e80aa5b11acd0f8b248e13aa7", "is_disabled": 0, "rental_uris": {"android": "https://dc.lft.to/lastmile_qr_scan", "ios": "https://dc.lft.to/lastmile_qr_scan"}, "fusion_lon": 0.0, "lat": 38.909533833333334, "bike_id": "283af18e80aa5b11acd0f8b248e13aa7", "type": "electric_scooter", "is_reserved": 0, "lon": -77.0486235}, {"fusion_lat": 0.0, "name": "8dfd149755fd52197fa747ffbc0b527e", "is_disabled": 0, "rental_uris": {"android": "https://dc.lft.to/lastmile_qr_scan", "ios": "https://dc.lft.to/lastmile_qr_scan"}, "fusion_lon": 0.0, "lat": 38.88736033333333, "bike_id": "8dfd149755fd52197fa747ffbc0b527e", "type": "electric_scooter", "is_reserved": 0, "lon": -77.0174275}, {"fusion_lat": 0.0, "name": "dbaa90191407a56eaf439fbc5b1263fc", "is_disabled": 0, "rental_uris": {"android": "https://dc.lft.to/lastmile_qr_scan", "ios": "https://dc.lft.to/lastmile_qr_scan"}, "fusion_lon": 0.0, "lat": 38.893318, "bike_id": "dbaa90191407a56eaf439fbc5b1263fc", "type": "electric_scooter", "is_reserved": 0, "lon": -76.9393105}, {"fusion_lat": 0.0, "name": "521c3bbf970514c84ef8736cb6506d68", "is_disabled": 0, "rental_uris": {"android": "https://dc.lft.to/lastmile_qr_scan", "ios": "https://dc.lft.to/lastmile_qr_scan"}, "fusion_lon": 0.0, "lat": 38.89927516666667, "bike_id": "521c3bbf970514c84ef8736cb6506d68", "type": "electric_scooter", "is_reserved": 0, "lon": -77.04531116666666}, {"fusion_lat": 0.0, "name": "4436851752c5e439d08f5c2b10a2854f", "is_disabled": 0, "rental_uris": {"android": "https://dc.lft.to/lastmile_qr_scan", "ios": "https://dc.lft.to/lastmile_qr_scan"}, "fusion_lon": 0.0, "lat": 38.9073655, "bike_id": "4436851752c5e439d08f5c2b10a2854f", "type": "electric_scooter", "is_reserved": 0, "lon": -76.99826133333333}, {"fusion_lat": 0.0, "name": "17d87c3cf4add8f9e112bf4556e55039", "is_disabled": 0, "rental_uris": {"android": "https://dc.lft.to/lastmile_qr_scan", "ios": "https://dc.lft.to/lastmile_qr_scan"}, "fusion_lon": 0.0, "lat": 38.99519633333333, "bike_id": "17d87c3cf4add8f9e112bf4556e55039", "type": "electric_bike", "is_reserved": 0, "lon": -77.02902783333333}, {"fusion_lat": 0.0, "name": "61bd878497cfd757933278dd51bb9cf9", "is_disabled": 0, "rental_uris": {"android": "https://dc.lft.to/lastmile_qr_scan", "ios": "https://dc.lft.to/lastmile_qr_scan"}, "fusion_lon": 0.0, "lat": 38.91803683333333, "bike_id": "61bd878497cfd757933278dd51bb9cf9", "type": "electric_scooter", "is_reserved": 0, "lon": -77.03442733333333}, {"fusion_lat": 0.0, "name": "88c40ac350d702effe158ffd35a0a6a1", "is_disabled": 0, "rental_uris": {"android": "https://dc.lft.to/lastmile_qr_scan", "ios": "https://dc.lft.to/lastmile_qr_scan"}, "fusion_lon": 0.0, "lat": 38.90290016666667, "bike_id": "88c40ac350d702effe158ffd35a0a6a1", "type": "electric_scooter", "is_reserved": 0, "lon": -76.99037366666667}, {"fusion_lat": 0.0, "name": "b193b5e1714800e0bec0398813a0dd72", "is_disabled": 0, "rental_uris": {"android": "https://dc.lft.to/lastmile_qr_scan", "ios": "https://dc.lft.to/lastmile_qr_scan"}, "fusion_lon": 0.0, "lat": 38.9228505, "bike_id": "b193b5e1714800e0bec0398813a0dd72", "type": "electric_scooter", "is_reserved": 0, "lon": -77.07319466666667}, {"fusion_lat": 0.0, "name": "98786a835852ce1f7eda2ce572d225cc", "is_disabled": 0, "rental_uris": {"android": "https://dc.lft.to/lastmile_qr_scan", "ios": "https://dc.lft.to/lastmile_qr_scan"}, "fusion_lon": 0.0, "lat": 38.916512, "bike_id": "98786a835852ce1f7eda2ce572d225cc", "type": "electric_scooter", "is_reserved": 0, "lon": -77.02381533333333}, {"fusion_lat": 0.0, "name": "8c0ca5b6721227d100cf94a3266647eb", "is_disabled": 0, "rental_uris": {"android": "https://dc.lft.to/lastmile_qr_scan", "ios": "https://dc.lft.to/lastmile_qr_scan"}, "fusion_lon": 0.0, "lat": 38.91697, "bike_id": "8c0ca5b6721227d100cf94a3266647eb", "type": "electric_scooter", "is_reserved": 0, "lon": -77.03218733333334}, {"fusion_lat": 0.0, "name": "0b409da422108ebd465a03daa7a029d2", "is_disabled": 0, "rental_uris": {"android": "https://dc.lft.to/lastmile_qr_scan", "ios": "https://dc.lft.to/lastmile_qr_scan"}, "fusion_lon": 0.0, "lat": 38.911312833333334, "bike_id": "0b409da422108ebd465a03daa7a029d2", "type": "electric_scooter", "is_reserved": 0, "lon": -77.01051166666667}, {"fusion_lat": 0.0, "name": "8e9dff076412acc1f52c6ed9753ad67b", "is_disabled": 0, "rental_uris": {"android": "https://dc.lft.to/lastmile_qr_scan", "ios": "https://dc.lft.to/lastmile_qr_scan"}, "fusion_lon": 0.0, "lat": 38.8530935, "bike_id": "8e9dff076412acc1f52c6ed9753ad67b", "type": "electric_bike", "is_reserved": 0, "lon": -77.046042}, {"fusion_lat": 0.0, "name": "652b5ddf56f95d7be954ce9046e134e0", "is_disabled": 0, "rental_uris": {"android": "https://dc.lft.to/lastmile_qr_scan", "ios": "https://dc.lft.to/lastmile_qr_scan"}, "fusion_lon": 0.0, "lat": 38.906974166666664, "bike_id": "652b5ddf56f95d7be954ce9046e134e0", "type": "electric_scooter", "is_reserved": 0, "lon": -77.01020733333333}, {"fusion_lat": 0.0, "name": "b267f0545604d46302bebafcc7beae2d", "is_disabled": 0, "rental_uris": {"android": "https://dc.lft.to/lastmile_qr_scan", "ios": "https://dc.lft.to/lastmile_qr_scan"}, "fusion_lon": 0.0, "lat": 38.916981166666666, "bike_id": "b267f0545604d46302bebafcc7beae2d", "type": "electric_scooter", "is_reserved": 0, "lon": -77.03469116666666}, {"fusion_lat": 0.0, "name": "15e45ceb4ed28ea2505c403036c761ed", "is_disabled": 0, "rental_uris": {"android": "https://dc.lft.to/lastmile_qr_scan", "ios": "https://dc.lft.to/lastmile_qr_scan"}, "fusion_lon": 0.0, "lat": 38.926900833333335, "bike_id": "15e45ceb4ed28ea2505c403036c761ed", "type": "electric_scooter", "is_reserved": 0, "lon": -77.007796}, {"fusion_lat": 0.0, "name": "cb5c0f90428de6410f3fd1d5cdae7cd2", "is_disabled": 0, "rental_uris": {"android": "https://dc.lft.to/lastmile_qr_scan", "ios": "https://dc.lft.to/lastmile_qr_scan"}, "fusion_lon": 0.0, "lat": 38.92947733333333, "bike_id": "cb5c0f90428de6410f3fd1d5cdae7cd2", "type": "electric_scooter", "is_reserved": 0, "lon": -77.034705}, {"fusion_lat": 0.0, "name": "f30aa2a85b670391bf2a2ca303c38ea5", "is_disabled": 0, "rental_uris": {"android": "https://dc.lft.to/lastmile_qr_scan", "ios": "https://dc.lft.to/lastmile_qr_scan"}, "fusion_lon": 0.0, "lat": 38.90243866666667, "bike_id": "f30aa2a85b670391bf2a2ca303c38ea5", "type": "electric_scooter", "is_reserved": 0, "lon": -77.03369166666667}, {"fusion_lat": 0.0, "name": "ef3645c24930a96a7a62eea3ba354ae3", "is_disabled": 0, "rental_uris": {"android": "https://dc.lft.to/lastmile_qr_scan", "ios": "https://dc.lft.to/lastmile_qr_scan"}, "fusion_lon": 0.0, "lat": 38.89294783333333, "bike_id": "ef3645c24930a96a7a62eea3ba354ae3", "type": "electric_scooter", "is_reserved": 0, "lon": -77.0465905}, {"fusion_lat": 0.0, "name": "66f59eb63a156a34ea2b03bb6be9379b", "is_disabled": 0, "rental_uris": {"android": "https://dc.lft.to/lastmile_qr_scan", "ios": "https://dc.lft.to/lastmile_qr_scan"}, "fusion_lon": 0.0, "lat": 38.8428005, "bike_id": "66f59eb63a156a34ea2b03bb6be9379b", "type": "electric_bike", "is_reserved": 0, "lon": -77.0449315}, {"fusion_lat": 0.0, "name": "9d345f1c5d3b033b1aff7c48d640b203", "is_disabled": 0, "rental_uris": {"android": "https://dc.lft.to/lastmile_qr_scan", "ios": "https://dc.lft.to/lastmile_qr_scan"}, "fusion_lon": 0.0, "lat": 38.895647833333335, "bike_id": "9d345f1c5d3b033b1aff7c48d640b203", "type": "electric_bike", "is_reserved": 0, "lon": -77.1273705}, {"fusion_lat": 0.0, "name": "ebe14a30d23359f6cccd49fcdb234c1a", "is_disabled": 0, "rental_uris": {"android": "https://dc.lft.to/lastmile_qr_scan", "ios": "https://dc.lft.to/lastmile_qr_scan"}, "fusion_lon": 0.0, "lat": 38.889898, "bike_id": "ebe14a30d23359f6cccd49fcdb234c1a", "type": "electric_scooter", "is_reserved": 0, "lon": -76.92989933333334}, {"fusion_lat": 0.0, "name": "ec079bce24136cc2eb46c22137c113a2", "is_disabled": 0, "rental_uris": {"android": "https://dc.lft.to/lastmile_qr_scan", "ios": "https://dc.lft.to/lastmile_qr_scan"}, "fusion_lon": 0.0, "lat": 38.917011, "bike_id": "ec079bce24136cc2eb46c22137c113a2", "type": "electric_scooter", "is_reserved": 0, "lon": -77.02747433333333}, {"fusion_lat": 0.0, "name": "d52ee95cdef07c26985dff5bc4fd7930", "is_disabled": 0, "rental_uris": {"android": "https://dc.lft.to/lastmile_qr_scan", "ios": "https://dc.lft.to/lastmile_qr_scan"}, "fusion_lon": 0.0, "lat": 38.94515366666667, "bike_id": "d52ee95cdef07c26985dff5bc4fd7930", "type": "electric_scooter", "is_reserved": 0, "lon": -77.0388855}, {"fusion_lat": 0.0, "name": "0cf156fd1c4b77d8c3c5584f6e70faee", "is_disabled": 0, "rental_uris": {"android": "https://dc.lft.to/lastmile_qr_scan", "ios": "https://dc.lft.to/lastmile_qr_scan"}, "fusion_lon": 0.0, "lat": 38.923446, "bike_id": "0cf156fd1c4b77d8c3c5584f6e70faee", "type": "electric_scooter", "is_reserved": 0, "lon": -76.9924645}, {"fusion_lat": 0.0, "name": "9f09f40a333dfbf80028a1db9e97cc4c", "is_disabled": 0, "rental_uris": {"android": "https://dc.lft.to/lastmile_qr_scan", "ios": "https://dc.lft.to/lastmile_qr_scan"}, "fusion_lon": 0.0, "lat": 38.84754983333333, "bike_id": "9f09f40a333dfbf80028a1db9e97cc4c", "type": "electric_scooter", "is_reserved": 0, "lon": -76.9950065}, {"fusion_lat": 0.0, "name": "dd989e87297645cd0ae8f31edb52695a", "is_disabled": 0, "rental_uris": {"android": "https://dc.lft.to/lastmile_qr_scan", "ios": "https://dc.lft.to/lastmile_qr_scan"}, "fusion_lon": 0.0, "lat": 38.9370645, "bike_id": "dd989e87297645cd0ae8f31edb52695a", "type": "electric_scooter", "is_reserved": 0, "lon": -77.061092}, {"fusion_lat": 0.0, "name": "e48c1320f2da2c669bb4302c0773e131", "is_disabled": 0, "rental_uris": {"android": "https://dc.lft.to/lastmile_qr_scan", "ios": "https://dc.lft.to/lastmile_qr_scan"}, "fusion_lon": 0.0, "lat": 38.90142766666666, "bike_id": "e48c1320f2da2c669bb4302c0773e131", "type": "electric_scooter", "is_reserved": 0, "lon": -77.040331}, {"fusion_lat": 0.0, "name": "727c5ea592394cc9602edf0d311d6477", "is_disabled": 0, "rental_uris": {"android": "https://dc.lft.to/lastmile_qr_scan", "ios": "https://dc.lft.to/lastmile_qr_scan"}, "fusion_lon": 0.0, "lat": 38.941077166666666, "bike_id": "727c5ea592394cc9602edf0d311d6477", "type": "electric_scooter", "is_reserved": 0, "lon": -77.03478}, {"fusion_lat": 0.0, "name": "8f2d275f7abdf97d61889d47b0891bcf", "is_disabled": 0, "rental_uris": {"android": "https://dc.lft.to/lastmile_qr_scan", "ios": "https://dc.lft.to/lastmile_qr_scan"}, "fusion_lon": 0.0, "lat": 38.90318716666667, "bike_id": "8f2d275f7abdf97d61889d47b0891bcf", "type": "electric_scooter", "is_reserved": 0, "lon": -77.03215816666666}, {"fusion_lat": 0.0, "name": "fdf999f5824f53d85634273adcc9dc0b", "is_disabled": 0, "rental_uris": {"android": "https://dc.lft.to/lastmile_qr_scan", "ios": "https://dc.lft.to/lastmile_qr_scan"}, "fusion_lon": 0.0, "lat": 38.887554, "bike_id": "fdf999f5824f53d85634273adcc9dc0b", "type": "electric_scooter", "is_reserved": 0, "lon": -76.997852}, {"fusion_lat": 0.0, "name": "4b80248af367ebc6aee38f454277c521", "is_disabled": 0, "rental_uris": {"android": "https://dc.lft.to/lastmile_qr_scan", "ios": "https://dc.lft.to/lastmile_qr_scan"}, "fusion_lon": 0.0, "lat": 38.9359565, "bike_id": "4b80248af367ebc6aee38f454277c521", "type": "electric_scooter", "is_reserved": 0, "lon": -77.0238795}, {"fusion_lat": 0.0, "name": "321bacf6dcb4bbfebfba07a25f8b374b", "is_disabled": 0, "rental_uris": {"android": "https://dc.lft.to/lastmile_qr_scan", "ios": "https://dc.lft.to/lastmile_qr_scan"}, "fusion_lon": 0.0, "lat": 38.90658616666666, "bike_id": "321bacf6dcb4bbfebfba07a25f8b374b", "type": "electric_scooter", "is_reserved": 0, "lon": -77.02948966666666}, {"fusion_lat": 0.0, "name": "257e213865bf38b53f0434a61259172d", "is_disabled": 0, "rental_uris": {"android": "https://dc.lft.to/lastmile_qr_scan", "ios": "https://dc.lft.to/lastmile_qr_scan"}, "fusion_lon": 0.0, "lat": 38.93220916666667, "bike_id": "257e213865bf38b53f0434a61259172d", "type": "electric_scooter", "is_reserved": 0, "lon": -77.03347033333333}, {"fusion_lat": 0.0, "name": "3cdce4f240a59c300ca032859bc84a95", "is_disabled": 0, "rental_uris": {"android": "https://dc.lft.to/lastmile_qr_scan", "ios": "https://dc.lft.to/lastmile_qr_scan"}, "fusion_lon": 0.0, "lat": 38.89223616666666, "bike_id": "3cdce4f240a59c300ca032859bc84a95", "type": "electric_scooter", "is_reserved": 0, "lon": -77.04687466666667}, {"fusion_lat": 0.0, "name": "e6bf6d1f5baefc71c14f7a816d19258d", "is_disabled": 0, "rental_uris": {"android": "https://dc.lft.to/lastmile_qr_scan", "ios": "https://dc.lft.to/lastmile_qr_scan"}, "fusion_lon": 0.0, "lat": 38.9596925, "bike_id": "e6bf6d1f5baefc71c14f7a816d19258d", "type": "electric_bike", "is_reserved": 0, "lon": -76.98165183333333}, {"fusion_lat": 0.0, "name": "3a7da1bb19319634ee9bb9333bebd5c7", "is_disabled": 0, "rental_uris": {"android": "https://dc.lft.to/lastmile_qr_scan", "ios": "https://dc.lft.to/lastmile_qr_scan"}, "fusion_lon": 0.0, "lat": 38.922093833333335, "bike_id": "3a7da1bb19319634ee9bb9333bebd5c7", "type": "electric_scooter", "is_reserved": 0, "lon": -77.080886}, {"fusion_lat": 0.0, "name": "999361ad18ebc3b9f2aab7aa8c6c108b", "is_disabled": 0, "rental_uris": {"android": "https://dc.lft.to/lastmile_qr_scan", "ios": "https://dc.lft.to/lastmile_qr_scan"}, "fusion_lon": 0.0, "lat": 38.957363, "bike_id": "999361ad18ebc3b9f2aab7aa8c6c108b", "type": "electric_bike", "is_reserved": 0, "lon": -76.98081416666666}, {"fusion_lat": 0.0, "name": "c312a99d04174ec8408fb3a9c8d4c07c", "is_disabled": 0, "rental_uris": {"android": "https://dc.lft.to/lastmile_qr_scan", "ios": "https://dc.lft.to/lastmile_qr_scan"}, "fusion_lon": 0.0, "lat": 38.89900033333333, "bike_id": "c312a99d04174ec8408fb3a9c8d4c07c", "type": "electric_scooter", "is_reserved": 0, "lon": -76.93349933333333}, {"fusion_lat": 0.0, "name": "920e925dbe3f09e8014aeff07dce0e99", "is_disabled": 0, "rental_uris": {"android": "https://dc.lft.to/lastmile_qr_scan", "ios": "https://dc.lft.to/lastmile_qr_scan"}, "fusion_lon": 0.0, "lat": 38.936168333333335, "bike_id": "920e925dbe3f09e8014aeff07dce0e99", "type": "electric_scooter", "is_reserved": 0, "lon": -77.03191483333333}, {"fusion_lat": 0.0, "name": "d1bea3cf667e6245ac20e775c20a0763", "is_disabled": 0, "rental_uris": {"android": "https://dc.lft.to/lastmile_qr_scan", "ios": "https://dc.lft.to/lastmile_qr_scan"}, "fusion_lon": 0.0, "lat": 38.95073583333333, "bike_id": "d1bea3cf667e6245ac20e775c20a0763", "type": "electric_bike", "is_reserved": 0, "lon": -77.01207766666667}, {"fusion_lat": 0.0, "name": "67529790c2c254e2fc6106e3e31a031f", "is_disabled": 0, "rental_uris": {"android": "https://dc.lft.to/lastmile_qr_scan", "ios": "https://dc.lft.to/lastmile_qr_scan"}, "fusion_lon": 0.0, "lat": 38.89463583333333, "bike_id": "67529790c2c254e2fc6106e3e31a031f", "type": "electric_scooter", "is_reserved": 0, "lon": -77.02166916666667}, {"fusion_lat": 0.0, "name": "7227103f899b4b1123ba90dc26c8ac6c", "is_disabled": 0, "rental_uris": {"android": "https://dc.lft.to/lastmile_qr_scan", "ios": "https://dc.lft.to/lastmile_qr_scan"}, "fusion_lon": 0.0, "lat": 38.90345416666667, "bike_id": "7227103f899b4b1123ba90dc26c8ac6c", "type": "electric_scooter", "is_reserved": 0, "lon": -77.04675033333334}, {"fusion_lat": 0.0, "name": "0f98717d44897797e75d3f7ff954f7e2", "is_disabled": 0, "rental_uris": {"android": "https://dc.lft.to/lastmile_qr_scan", "ios": "https://dc.lft.to/lastmile_qr_scan"}, "fusion_lon": 0.0, "lat": 38.9270395, "bike_id": "0f98717d44897797e75d3f7ff954f7e2", "type": "electric_scooter", "is_reserved": 0, "lon": -77.0241995}, {"fusion_lat": 0.0, "name": "64acb478d725c8d9744d8330260fad60", "is_disabled": 0, "rental_uris": {"android": "https://dc.lft.to/lastmile_qr_scan", "ios": "https://dc.lft.to/lastmile_qr_scan"}, "fusion_lon": 0.0, "lat": 38.9023655, "bike_id": "64acb478d725c8d9744d8330260fad60", "type": "electric_scooter", "is_reserved": 0, "lon": -77.04910216666667}, {"fusion_lat": 0.0, "name": "5c28d3666f88a2e10b5d41f42f2ab660", "is_disabled": 0, "rental_uris": {"android": "https://dc.lft.to/lastmile_qr_scan", "ios": "https://dc.lft.to/lastmile_qr_scan"}, "fusion_lon": 0.0, "lat": 38.88668883333333, "bike_id": "5c28d3666f88a2e10b5d41f42f2ab660", "type": "electric_scooter", "is_reserved": 0, "lon": -77.02829216666666}, {"fusion_lat": 0.0, "name": "cf08f4205f346442b5825d2885adbede", "is_disabled": 0, "rental_uris": {"android": "https://dc.lft.to/lastmile_qr_scan", "ios": "https://dc.lft.to/lastmile_qr_scan"}, "fusion_lon": 0.0, "lat": 38.921050666666666, "bike_id": "cf08f4205f346442b5825d2885adbede", "type": "electric_scooter", "is_reserved": 0, "lon": -77.04691466666667}, {"fusion_lat": 0.0, "name": "c74e2dde9a711b3b2e0b23fb0cd1683b", "is_disabled": 0, "rental_uris": {"android": "https://dc.lft.to/lastmile_qr_scan", "ios": "https://dc.lft.to/lastmile_qr_scan"}, "fusion_lon": 0.0, "lat": 38.94052816666667, "bike_id": "c74e2dde9a711b3b2e0b23fb0cd1683b", "type": "electric_bike", "is_reserved": 0, "lon": -76.90417683333334}, {"fusion_lat": 0.0, "name": "f6df8fc87ba352956649e29b5ac977b2", "is_disabled": 0, "rental_uris": {"android": "https://dc.lft.to/lastmile_qr_scan", "ios": "https://dc.lft.to/lastmile_qr_scan"}, "fusion_lon": 0.0, "lat": 38.932007, "bike_id": "f6df8fc87ba352956649e29b5ac977b2", "type": "electric_scooter", "is_reserved": 0, "lon": -77.0374875}, {"fusion_lat": 0.0, "name": "2eb37aeb53d213aec768d33b5cc192dc", "is_disabled": 0, "rental_uris": {"android": "https://dc.lft.to/lastmile_qr_scan", "ios": "https://dc.lft.to/lastmile_qr_scan"}, "fusion_lon": 0.0, "lat": 38.90715133333333, "bike_id": "2eb37aeb53d213aec768d33b5cc192dc", "type": "electric_scooter", "is_reserved": 0, "lon": -77.02969083333333}, {"fusion_lat": 0.0, "name": "b2d47ea3c4eb92248e0ce0a2ba18f649", "is_disabled": 0, "rental_uris": {"android": "https://dc.lft.to/lastmile_qr_scan", "ios": "https://dc.lft.to/lastmile_qr_scan"}, "fusion_lon": 0.0, "lat": 38.901726833333335, "bike_id": "b2d47ea3c4eb92248e0ce0a2ba18f649", "type": "electric_scooter", "is_reserved": 0, "lon": -76.98069966666667}, {"fusion_lat": 0.0, "name": "aede24e59753db4f0f1651ce301c14b8", "is_disabled": 0, "rental_uris": {"android": "https://dc.lft.to/lastmile_qr_scan", "ios": "https://dc.lft.to/lastmile_qr_scan"}, "fusion_lon": 0.0, "lat": 38.915499833333335, "bike_id": "aede24e59753db4f0f1651ce301c14b8", "type": "electric_scooter", "is_reserved": 0, "lon": -77.01270116666667}, {"fusion_lat": 0.0, "name": "41fbacb1859a197fd0f6a8ce53e3fff1", "is_disabled": 0, "rental_uris": {"android": "https://dc.lft.to/lastmile_qr_scan", "ios": "https://dc.lft.to/lastmile_qr_scan"}, "fusion_lon": 0.0, "lat": 38.941779, "bike_id": "41fbacb1859a197fd0f6a8ce53e3fff1", "type": "electric_scooter", "is_reserved": 0, "lon": -77.03285516666666}, {"fusion_lat": 0.0, "name": "10a1e8b9eb6643979ec5279acc8d6ca9", "is_disabled": 0, "rental_uris": {"android": "https://dc.lft.to/lastmile_qr_scan", "ios": "https://dc.lft.to/lastmile_qr_scan"}, "fusion_lon": 0.0, "lat": 38.92683816666667, "bike_id": "10a1e8b9eb6643979ec5279acc8d6ca9", "type": "electric_scooter", "is_reserved": 0, "lon": -77.03236883333334}, {"fusion_lat": 0.0, "name": "b2556571bc80b7823202e1eb078f1a5e", "is_disabled": 0, "rental_uris": {"android": "https://dc.lft.to/lastmile_qr_scan", "ios": "https://dc.lft.to/lastmile_qr_scan"}, "fusion_lon": 0.0, "lat": 38.986654, "bike_id": "b2556571bc80b7823202e1eb078f1a5e", "type": "electric_bike", "is_reserved": 0, "lon": -77.000014}, {"fusion_lat": 0.0, "name": "e155d6fcd2ec33749b84979c8c407b6b", "is_disabled": 0, "rental_uris": {"android": "https://dc.lft.to/lastmile_qr_scan", "ios": "https://dc.lft.to/lastmile_qr_scan"}, "fusion_lon": 0.0, "lat": 38.92335, "bike_id": "e155d6fcd2ec33749b84979c8c407b6b", "type": "electric_scooter", "is_reserved": 0, "lon": -77.03552483333333}, {"fusion_lat": 0.0, "name": "c19e579522efd9b02e709dd453b9ca92", "is_disabled": 0, "rental_uris": {"android": "https://dc.lft.to/lastmile_qr_scan", "ios": "https://dc.lft.to/lastmile_qr_scan"}, "fusion_lon": 0.0, "lat": 38.903076666666664, "bike_id": "c19e579522efd9b02e709dd453b9ca92", "type": "electric_scooter", "is_reserved": 0, "lon": -76.97652216666667}, {"fusion_lat": 0.0, "name": "21cb7fd02bff3c9c044b7879ab0fb9ff", "is_disabled": 0, "rental_uris": {"android": "https://dc.lft.to/lastmile_qr_scan", "ios": "https://dc.lft.to/lastmile_qr_scan"}, "fusion_lon": 0.0, "lat": 38.9438355, "bike_id": "21cb7fd02bff3c9c044b7879ab0fb9ff", "type": "electric_scooter", "is_reserved": 0, "lon": -77.02609616666666}, {"fusion_lat": 0.0, "name": "7c6e8cd40b6069072a3fadbad135f5ae", "is_disabled": 0, "rental_uris": {"android": "https://dc.lft.to/lastmile_qr_scan", "ios": "https://dc.lft.to/lastmile_qr_scan"}, "fusion_lon": 0.0, "lat": 38.99450016666667, "bike_id": "7c6e8cd40b6069072a3fadbad135f5ae", "type": "electric_bike", "is_reserved": 0, "lon": -76.99588916666667}, {"fusion_lat": 0.0, "name": "4f5640abeb80e44b10c5610b5ecbf89d", "is_disabled": 0, "rental_uris": {"android": "https://dc.lft.to/lastmile_qr_scan", "ios": "https://dc.lft.to/lastmile_qr_scan"}, "fusion_lon": 0.0, "lat": 38.96123883333333, "bike_id": "4f5640abeb80e44b10c5610b5ecbf89d", "type": "electric_bike", "is_reserved": 0, "lon": -77.0327795}, {"fusion_lat": 0.0, "name": "6a74aa708d624759b4da286d7ce31d7f", "is_disabled": 0, "rental_uris": {"android": "https://dc.lft.to/lastmile_qr_scan", "ios": "https://dc.lft.to/lastmile_qr_scan"}, "fusion_lon": 0.0, "lat": 38.802925, "bike_id": "6a74aa708d624759b4da286d7ce31d7f", "type": "electric_bike", "is_reserved": 0, "lon": -77.05934883333333}, {"fusion_lat": 0.0, "name": "8d7b6da440027183e7f5144d7d355956", "is_disabled": 0, "rental_uris": {"android": "https://dc.lft.to/lastmile_qr_scan", "ios": "https://dc.lft.to/lastmile_qr_scan"}, "fusion_lon": 0.0, "lat": 38.9061065, "bike_id": "8d7b6da440027183e7f5144d7d355956", "type": "electric_scooter", "is_reserved": 0, "lon": -77.00887266666666}, {"fusion_lat": 0.0, "name": "cec024718a471659b3f0d309172a56b2", "is_disabled": 0, "rental_uris": {"android": "https://dc.lft.to/lastmile_qr_scan", "ios": "https://dc.lft.to/lastmile_qr_scan"}, "fusion_lon": 0.0, "lat": 38.927914, "bike_id": "cec024718a471659b3f0d309172a56b2", "type": "electric_scooter", "is_reserved": 0, "lon": -77.02723883333333}, {"fusion_lat": 0.0, "name": "5d186062ccad34f91a0c77573c9e63a6", "is_disabled": 0, "rental_uris": {"android": "https://dc.lft.to/lastmile_qr_scan", "ios": "https://dc.lft.to/lastmile_qr_scan"}, "fusion_lon": 0.0, "lat": 38.90017516666666, "bike_id": "5d186062ccad34f91a0c77573c9e63a6", "type": "electric_scooter", "is_reserved": 0, "lon": -76.98851383333333}, {"fusion_lat": 0.0, "name": "8d5248ca2c42a0544d0d9cb150b8e5dc", "is_disabled": 0, "rental_uris": {"android": "https://dc.lft.to/lastmile_qr_scan", "ios": "https://dc.lft.to/lastmile_qr_scan"}, "fusion_lon": 0.0, "lat": 38.90605166666667, "bike_id": "8d5248ca2c42a0544d0d9cb150b8e5dc", "type": "electric_scooter", "is_reserved": 0, "lon": -77.02401066666667}, {"fusion_lat": 0.0, "name": "0f90162126ffb79b519d7a19e776a4fc", "is_disabled": 0, "rental_uris": {"android": "https://dc.lft.to/lastmile_qr_scan", "ios": "https://dc.lft.to/lastmile_qr_scan"}, "fusion_lon": 0.0, "lat": 38.9231575, "bike_id": "0f90162126ffb79b519d7a19e776a4fc", "type": "electric_scooter", "is_reserved": 0, "lon": -77.05617883333333}, {"fusion_lat": 0.0, "name": "793cfdc4ed8eb77a40fb0b92f1f6c680", "is_disabled": 0, "rental_uris": {"android": "https://dc.lft.to/lastmile_qr_scan", "ios": "https://dc.lft.to/lastmile_qr_scan"}, "fusion_lon": 0.0, "lat": 38.884527, "bike_id": "793cfdc4ed8eb77a40fb0b92f1f6c680", "type": "electric_scooter", "is_reserved": 0, "lon": -76.99841883333333}, {"fusion_lat": 0.0, "name": "014218e2c64bde0a1771ccf020c3b2a9", "is_disabled": 0, "rental_uris": {"android": "https://dc.lft.to/lastmile_qr_scan", "ios": "https://dc.lft.to/lastmile_qr_scan"}, "fusion_lon": 0.0, "lat": 38.911184166666665, "bike_id": "014218e2c64bde0a1771ccf020c3b2a9", "type": "electric_scooter", "is_reserved": 0, "lon": -77.0422215}, {"fusion_lat": 0.0, "name": "7a2f76f280b21df3985b2f1fc1a732be", "is_disabled": 0, "rental_uris": {"android": "https://dc.lft.to/lastmile_qr_scan", "ios": "https://dc.lft.to/lastmile_qr_scan"}, "fusion_lon": 0.0, "lat": 38.900248833333336, "bike_id": "7a2f76f280b21df3985b2f1fc1a732be", "type": "electric_scooter", "is_reserved": 0, "lon": -77.01211366666666}, {"fusion_lat": 0.0, "name": "353cdf81b883f9ef5ccf535ca6f820cc", "is_disabled": 0, "rental_uris": {"android": "https://dc.lft.to/lastmile_qr_scan", "ios": "https://dc.lft.to/lastmile_qr_scan"}, "fusion_lon": 0.0, "lat": 38.90410466666667, "bike_id": "353cdf81b883f9ef5ccf535ca6f820cc", "type": "electric_scooter", "is_reserved": 0, "lon": -77.050299}, {"fusion_lat": 0.0, "name": "f5012b9d7121703a101af2c4a86c7c02", "is_disabled": 0, "rental_uris": {"android": "https://dc.lft.to/lastmile_qr_scan", "ios": "https://dc.lft.to/lastmile_qr_scan"}, "fusion_lon": 0.0, "lat": 38.93929083333333, "bike_id": "f5012b9d7121703a101af2c4a86c7c02", "type": "electric_scooter", "is_reserved": 0, "lon": -77.07478066666667}, {"fusion_lat": 0.0, "name": "c21759f3e2ec9d333d268afed44e910d", "is_disabled": 0, "rental_uris": {"android": "https://dc.lft.to/lastmile_qr_scan", "ios": "https://dc.lft.to/lastmile_qr_scan"}, "fusion_lon": 0.0, "lat": 38.89685433333333, "bike_id": "c21759f3e2ec9d333d268afed44e910d", "type": "electric_scooter", "is_reserved": 0, "lon": -76.93712766666667}, {"fusion_lat": 0.0, "name": "ea670907779315ec7b398b6c01551a63", "is_disabled": 0, "rental_uris": {"android": "https://dc.lft.to/lastmile_qr_scan", "ios": "https://dc.lft.to/lastmile_qr_scan"}, "fusion_lon": 0.0, "lat": 38.9273345, "bike_id": "ea670907779315ec7b398b6c01551a63", "type": "electric_scooter", "is_reserved": 0, "lon": -77.04218483333334}, {"fusion_lat": 0.0, "name": "94dd1734e2d1aba0b7856a0cc93e2424", "is_disabled": 0, "rental_uris": {"android": "https://dc.lft.to/lastmile_qr_scan", "ios": "https://dc.lft.to/lastmile_qr_scan"}, "fusion_lon": 0.0, "lat": 38.903589333333336, "bike_id": "94dd1734e2d1aba0b7856a0cc93e2424", "type": "electric_scooter", "is_reserved": 0, "lon": -76.97240533333333}, {"fusion_lat": 0.0, "name": "45724694a5b241a1f689fda44940a383", "is_disabled": 0, "rental_uris": {"android": "https://dc.lft.to/lastmile_qr_scan", "ios": "https://dc.lft.to/lastmile_qr_scan"}, "fusion_lon": 0.0, "lat": 38.90973733333333, "bike_id": "45724694a5b241a1f689fda44940a383", "type": "electric_scooter", "is_reserved": 0, "lon": -77.0089505}, {"fusion_lat": 0.0, "name": "1b41a652d1a13c72be40896ec5a11043", "is_disabled": 0, "rental_uris": {"android": "https://dc.lft.to/lastmile_qr_scan", "ios": "https://dc.lft.to/lastmile_qr_scan"}, "fusion_lon": 0.0, "lat": 38.9010625, "bike_id": "1b41a652d1a13c72be40896ec5a11043", "type": "electric_scooter", "is_reserved": 0, "lon": -77.05148233333334}, {"fusion_lat": 0.0, "name": "98edea9c3386c1326b0988aa598e3245", "is_disabled": 0, "rental_uris": {"android": "https://dc.lft.to/lastmile_qr_scan", "ios": "https://dc.lft.to/lastmile_qr_scan"}, "fusion_lon": 0.0, "lat": 38.839288, "bike_id": "98edea9c3386c1326b0988aa598e3245", "type": "electric_bike", "is_reserved": 0, "lon": -77.07902216666666}, {"fusion_lat": 0.0, "name": "1f9e9f297a7b936f28c3d6ed73c815fb", "is_disabled": 0, "rental_uris": {"android": "https://dc.lft.to/lastmile_qr_scan", "ios": "https://dc.lft.to/lastmile_qr_scan"}, "fusion_lon": 0.0, "lat": 38.941325166666665, "bike_id": "1f9e9f297a7b936f28c3d6ed73c815fb", "type": "electric_scooter", "is_reserved": 0, "lon": -77.006105}, {"fusion_lat": 0.0, "name": "22949acdf46f0c02b0f3dd531d581e69", "is_disabled": 0, "rental_uris": {"android": "https://dc.lft.to/lastmile_qr_scan", "ios": "https://dc.lft.to/lastmile_qr_scan"}, "fusion_lon": 0.0, "lat": 38.905770833333335, "bike_id": "22949acdf46f0c02b0f3dd531d581e69", "type": "electric_scooter", "is_reserved": 0, "lon": -77.02201516666666}, {"fusion_lat": 0.0, "name": "b96ad75a4d3d33befc75531a82513523", "is_disabled": 0, "rental_uris": {"android": "https://dc.lft.to/lastmile_qr_scan", "ios": "https://dc.lft.to/lastmile_qr_scan"}, "fusion_lon": 0.0, "lat": 38.93364783333333, "bike_id": "b96ad75a4d3d33befc75531a82513523", "type": "electric_scooter", "is_reserved": 0, "lon": -77.0387275}, {"fusion_lat": 0.0, "name": "1afdbca36faf516597b61fda547280ad", "is_disabled": 0, "rental_uris": {"android": "https://dc.lft.to/lastmile_qr_scan", "ios": "https://dc.lft.to/lastmile_qr_scan"}, "fusion_lon": 0.0, "lat": 38.897209, "bike_id": "1afdbca36faf516597b61fda547280ad", "type": "electric_scooter", "is_reserved": 0, "lon": -77.03220066666667}, {"fusion_lat": 0.0, "name": "89b5210c65ded50383bdf82a4f132305", "is_disabled": 0, "rental_uris": {"android": "https://dc.lft.to/lastmile_qr_scan", "ios": "https://dc.lft.to/lastmile_qr_scan"}, "fusion_lon": 0.0, "lat": 38.92681983333333, "bike_id": "89b5210c65ded50383bdf82a4f132305", "type": "electric_scooter", "is_reserved": 0, "lon": -77.02783283333333}, {"fusion_lat": 0.0, "name": "e3219abf3cb2350382a43a3992de5f23", "is_disabled": 0, "rental_uris": {"android": "https://dc.lft.to/lastmile_qr_scan", "ios": "https://dc.lft.to/lastmile_qr_scan"}, "fusion_lon": 0.0, "lat": 38.926535333333334, "bike_id": "e3219abf3cb2350382a43a3992de5f23", "type": "electric_scooter", "is_reserved": 0, "lon": -77.03711366666667}, {"fusion_lat": 0.0, "name": "8d0c0118f69d80a1f586aed9a950f735", "is_disabled": 0, "rental_uris": {"android": "https://dc.lft.to/lastmile_qr_scan", "ios": "https://dc.lft.to/lastmile_qr_scan"}, "fusion_lon": 0.0, "lat": 38.90358, "bike_id": "8d0c0118f69d80a1f586aed9a950f735", "type": "electric_scooter", "is_reserved": 0, "lon": -77.03644366666667}, {"fusion_lat": 0.0, "name": "7b023fe42c92aaef052496ad2a6e8797", "is_disabled": 0, "rental_uris": {"android": "https://dc.lft.to/lastmile_qr_scan", "ios": "https://dc.lft.to/lastmile_qr_scan"}, "fusion_lon": 0.0, "lat": 38.983905, "bike_id": "7b023fe42c92aaef052496ad2a6e8797", "type": "electric_scooter", "is_reserved": 0, "lon": -77.02631483333333}, {"fusion_lat": 0.0, "name": "38eed3b23b42f388f082e94522cb3ad7", "is_disabled": 0, "rental_uris": {"android": "https://dc.lft.to/lastmile_qr_scan", "ios": "https://dc.lft.to/lastmile_qr_scan"}, "fusion_lon": 0.0, "lat": 38.91043366666667, "bike_id": "38eed3b23b42f388f082e94522cb3ad7", "type": "electric_scooter", "is_reserved": 0, "lon": -77.0333755}, {"fusion_lat": 0.0, "name": "2095ca3e16ed7695d79533fd273635e9", "is_disabled": 0, "rental_uris": {"android": "https://dc.lft.to/lastmile_qr_scan", "ios": "https://dc.lft.to/lastmile_qr_scan"}, "fusion_lon": 0.0, "lat": 38.91269783333333, "bike_id": "2095ca3e16ed7695d79533fd273635e9", "type": "electric_scooter", "is_reserved": 0, "lon": -77.0465605}, {"fusion_lat": 0.0, "name": "2d73756cd6a306e16c8e2aa0197faa2d", "is_disabled": 0, "rental_uris": {"android": "https://dc.lft.to/lastmile_qr_scan", "ios": "https://dc.lft.to/lastmile_qr_scan"}, "fusion_lon": 0.0, "lat": 38.891942666666665, "bike_id": "2d73756cd6a306e16c8e2aa0197faa2d", "type": "electric_scooter", "is_reserved": 0, "lon": -77.0223115}, {"fusion_lat": 0.0, "name": "d5f5a363953fc12ec91af221d6dd09c0", "is_disabled": 0, "rental_uris": {"android": "https://dc.lft.to/lastmile_qr_scan", "ios": "https://dc.lft.to/lastmile_qr_scan"}, "fusion_lon": 0.0, "lat": 38.890185333333335, "bike_id": "d5f5a363953fc12ec91af221d6dd09c0", "type": "electric_scooter", "is_reserved": 0, "lon": -76.93736916666667}, {"fusion_lat": 0.0, "name": "1b599a10cf830ebe9e257babf1d89c0b", "is_disabled": 0, "rental_uris": {"android": "https://dc.lft.to/lastmile_qr_scan", "ios": "https://dc.lft.to/lastmile_qr_scan"}, "fusion_lon": 0.0, "lat": 38.91904983333333, "bike_id": "1b599a10cf830ebe9e257babf1d89c0b", "type": "electric_scooter", "is_reserved": 0, "lon": -77.01220766666667}, {"fusion_lat": 0.0, "name": "af61b62f8fef0f8d0a8f57d04b3e7c3b", "is_disabled": 0, "rental_uris": {"android": "https://dc.lft.to/lastmile_qr_scan", "ios": "https://dc.lft.to/lastmile_qr_scan"}, "fusion_lon": 0.0, "lat": 38.91520883333333, "bike_id": "af61b62f8fef0f8d0a8f57d04b3e7c3b", "type": "electric_scooter", "is_reserved": 0, "lon": -77.02698266666667}, {"fusion_lat": 0.0, "name": "b0e98ce92af7cb906a52382255f2f398", "is_disabled": 0, "rental_uris": {"android": "https://dc.lft.to/lastmile_qr_scan", "ios": "https://dc.lft.to/lastmile_qr_scan"}, "fusion_lon": 0.0, "lat": 38.945272833333334, "bike_id": "b0e98ce92af7cb906a52382255f2f398", "type": "electric_scooter", "is_reserved": 0, "lon": -77.02272316666667}, {"fusion_lat": 0.0, "name": "c3e1f93a7e6805a9ceeefd1c3f224013", "is_disabled": 0, "rental_uris": {"android": "https://dc.lft.to/lastmile_qr_scan", "ios": "https://dc.lft.to/lastmile_qr_scan"}, "fusion_lon": 0.0, "lat": 38.87713983333333, "bike_id": "c3e1f93a7e6805a9ceeefd1c3f224013", "type": "electric_scooter", "is_reserved": 0, "lon": -76.99387}, {"fusion_lat": 0.0, "name": "4398ebab9df91c0035e68860fcd00337", "is_disabled": 0, "rental_uris": {"android": "https://dc.lft.to/lastmile_qr_scan", "ios": "https://dc.lft.to/lastmile_qr_scan"}, "fusion_lon": 0.0, "lat": 38.904119, "bike_id": "4398ebab9df91c0035e68860fcd00337", "type": "electric_scooter", "is_reserved": 0, "lon": -77.01737733333333}, {"fusion_lat": 0.0, "name": "250ba70cfc0d10771212460f449d6da8", "is_disabled": 0, "rental_uris": {"android": "https://dc.lft.to/lastmile_qr_scan", "ios": "https://dc.lft.to/lastmile_qr_scan"}, "fusion_lon": 0.0, "lat": 38.9350365, "bike_id": "250ba70cfc0d10771212460f449d6da8", "type": "electric_scooter", "is_reserved": 0, "lon": -77.07370416666667}, {"fusion_lat": 0.0, "name": "395f5bff3dc61bd64fd79ab9a6240d82", "is_disabled": 0, "rental_uris": {"android": "https://dc.lft.to/lastmile_qr_scan", "ios": "https://dc.lft.to/lastmile_qr_scan"}, "fusion_lon": 0.0, "lat": 38.9422885, "bike_id": "395f5bff3dc61bd64fd79ab9a6240d82", "type": "electric_scooter", "is_reserved": 0, "lon": -77.01415233333333}, {"fusion_lat": 0.0, "name": "89e75892e86721640a1a167ba22a3c73", "is_disabled": 0, "rental_uris": {"android": "https://dc.lft.to/lastmile_qr_scan", "ios": "https://dc.lft.to/lastmile_qr_scan"}, "fusion_lon": 0.0, "lat": 38.91172866666667, "bike_id": "89e75892e86721640a1a167ba22a3c73", "type": "electric_scooter", "is_reserved": 0, "lon": -77.0686445}, {"fusion_lat": 0.0, "name": "8fc2b635e2bf7c50532e16ac16f333ec", "is_disabled": 0, "rental_uris": {"android": "https://dc.lft.to/lastmile_qr_scan", "ios": "https://dc.lft.to/lastmile_qr_scan"}, "fusion_lon": 0.0, "lat": 38.93457083333333, "bike_id": "8fc2b635e2bf7c50532e16ac16f333ec", "type": "electric_scooter", "is_reserved": 0, "lon": -77.02245133333334}, {"fusion_lat": 0.0, "name": "32a8de8b9fc47747d6f613ba8fb725b2", "is_disabled": 0, "rental_uris": {"android": "https://dc.lft.to/lastmile_qr_scan", "ios": "https://dc.lft.to/lastmile_qr_scan"}, "fusion_lon": 0.0, "lat": 38.86140966666667, "bike_id": "32a8de8b9fc47747d6f613ba8fb725b2", "type": "electric_bike", "is_reserved": 0, "lon": -76.97170683333333}, {"fusion_lat": 0.0, "name": "ee14b418453db53ebef69574eea0511e", "is_disabled": 0, "rental_uris": {"android": "https://dc.lft.to/lastmile_qr_scan", "ios": "https://dc.lft.to/lastmile_qr_scan"}, "fusion_lon": 0.0, "lat": 38.89247433333333, "bike_id": "ee14b418453db53ebef69574eea0511e", "type": "electric_scooter", "is_reserved": 0, "lon": -77.03956483333333}, {"fusion_lat": 0.0, "name": "1a40886eec8737c62bcd068a4e2176f4", "is_disabled": 0, "rental_uris": {"android": "https://dc.lft.to/lastmile_qr_scan", "ios": "https://dc.lft.to/lastmile_qr_scan"}, "fusion_lon": 0.0, "lat": 38.90451, "bike_id": "1a40886eec8737c62bcd068a4e2176f4", "type": "electric_scooter", "is_reserved": 0, "lon": -76.982603}, {"fusion_lat": 0.0, "name": "7f3d2bc01392197be7b02d8a641815be", "is_disabled": 0, "rental_uris": {"android": "https://dc.lft.to/lastmile_qr_scan", "ios": "https://dc.lft.to/lastmile_qr_scan"}, "fusion_lon": 0.0, "lat": 38.926984, "bike_id": "7f3d2bc01392197be7b02d8a641815be", "type": "electric_scooter", "is_reserved": 0, "lon": -77.0213165}, {"fusion_lat": 0.0, "name": "d8e3dc8d93dbe3c1d600d802f6fc28c2", "is_disabled": 0, "rental_uris": {"android": "https://dc.lft.to/lastmile_qr_scan", "ios": "https://dc.lft.to/lastmile_qr_scan"}, "fusion_lon": 0.0, "lat": 38.89310533333333, "bike_id": "d8e3dc8d93dbe3c1d600d802f6fc28c2", "type": "electric_scooter", "is_reserved": 0, "lon": -77.05590566666666}, {"fusion_lat": 0.0, "name": "2b634b99a101a7325c8cbef1c4a64e53", "is_disabled": 0, "rental_uris": {"android": "https://dc.lft.to/lastmile_qr_scan", "ios": "https://dc.lft.to/lastmile_qr_scan"}, "fusion_lon": 0.0, "lat": 38.9198885, "bike_id": "2b634b99a101a7325c8cbef1c4a64e53", "type": "electric_scooter", "is_reserved": 0, "lon": -77.03270633333334}, {"fusion_lat": 0.0, "name": "bc66d6a270ac7d8bd95d56eb1a3cc189", "is_disabled": 0, "rental_uris": {"android": "https://dc.lft.to/lastmile_qr_scan", "ios": "https://dc.lft.to/lastmile_qr_scan"}, "fusion_lon": 0.0, "lat": 38.91859266666667, "bike_id": "bc66d6a270ac7d8bd95d56eb1a3cc189", "type": "electric_scooter", "is_reserved": 0, "lon": -77.04596116666667}, {"fusion_lat": 0.0, "name": "296f53232f4cbab1a4c737ba100b6d85", "is_disabled": 0, "rental_uris": {"android": "https://dc.lft.to/lastmile_qr_scan", "ios": "https://dc.lft.to/lastmile_qr_scan"}, "fusion_lon": 0.0, "lat": 38.949753333333334, "bike_id": "296f53232f4cbab1a4c737ba100b6d85", "type": "electric_scooter", "is_reserved": 0, "lon": -77.026991}, {"fusion_lat": 0.0, "name": "3341a600b3dab5e6e809a47a2f5309fb", "is_disabled": 0, "rental_uris": {"android": "https://dc.lft.to/lastmile_qr_scan", "ios": "https://dc.lft.to/lastmile_qr_scan"}, "fusion_lon": 0.0, "lat": 38.90180983333333, "bike_id": "3341a600b3dab5e6e809a47a2f5309fb", "type": "electric_scooter", "is_reserved": 0, "lon": -77.02493566666666}, {"fusion_lat": 0.0, "name": "414f5e1517f1155013b1eeade811933a", "is_disabled": 0, "rental_uris": {"android": "https://dc.lft.to/lastmile_qr_scan", "ios": "https://dc.lft.to/lastmile_qr_scan"}, "fusion_lon": 0.0, "lat": 38.92062216666667, "bike_id": "414f5e1517f1155013b1eeade811933a", "type": "electric_scooter", "is_reserved": 0, "lon": -77.02375433333333}, {"fusion_lat": 0.0, "name": "f4514b263caa47f998cc616af125221b", "is_disabled": 0, "rental_uris": {"android": "https://dc.lft.to/lastmile_qr_scan", "ios": "https://dc.lft.to/lastmile_qr_scan"}, "fusion_lon": 0.0, "lat": 38.8982975, "bike_id": "f4514b263caa47f998cc616af125221b", "type": "electric_scooter", "is_reserved": 0, "lon": -77.027327}, {"fusion_lat": 0.0, "name": "bc18d0c847dbb1ae463dca54e704dc1e", "is_disabled": 0, "rental_uris": {"android": "https://dc.lft.to/lastmile_qr_scan", "ios": "https://dc.lft.to/lastmile_qr_scan"}, "fusion_lon": 0.0, "lat": 38.89891166666666, "bike_id": "bc18d0c847dbb1ae463dca54e704dc1e", "type": "electric_scooter", "is_reserved": 0, "lon": -77.0150415}, {"fusion_lat": 0.0, "name": "ff78b43c6f1799a24c425fc83dfe1ece", "is_disabled": 0, "rental_uris": {"android": "https://dc.lft.to/lastmile_qr_scan", "ios": "https://dc.lft.to/lastmile_qr_scan"}, "fusion_lon": 0.0, "lat": 38.938771, "bike_id": "ff78b43c6f1799a24c425fc83dfe1ece", "type": "electric_scooter", "is_reserved": 0, "lon": -77.02481633333333}, {"fusion_lat": 0.0, "name": "af48d33aec22a3c1db4150eaec7b6cb8", "is_disabled": 0, "rental_uris": {"android": "https://dc.lft.to/lastmile_qr_scan", "ios": "https://dc.lft.to/lastmile_qr_scan"}, "fusion_lon": 0.0, "lat": 38.897943, "bike_id": "af48d33aec22a3c1db4150eaec7b6cb8", "type": "electric_scooter", "is_reserved": 0, "lon": -77.01192866666666}, {"fusion_lat": 0.0, "name": "cba4f09755ca8453c161b59a7a052e2e", "is_disabled": 0, "rental_uris": {"android": "https://dc.lft.to/lastmile_qr_scan", "ios": "https://dc.lft.to/lastmile_qr_scan"}, "fusion_lon": 0.0, "lat": 38.92548516666667, "bike_id": "cba4f09755ca8453c161b59a7a052e2e", "type": "electric_scooter", "is_reserved": 0, "lon": -77.0382655}, {"fusion_lat": 0.0, "name": "c768541572994f5ebbfe189973abf385", "is_disabled": 0, "rental_uris": {"android": "https://dc.lft.to/lastmile_qr_scan", "ios": "https://dc.lft.to/lastmile_qr_scan"}, "fusion_lon": 0.0, "lat": 38.952886, "bike_id": "c768541572994f5ebbfe189973abf385", "type": "electric_scooter", "is_reserved": 0, "lon": -77.06872616666666}, {"fusion_lat": 0.0, "name": "bc7f7b25e86dd10f677d4acc0770d34e", "is_disabled": 0, "rental_uris": {"android": "https://dc.lft.to/lastmile_qr_scan", "ios": "https://dc.lft.to/lastmile_qr_scan"}, "fusion_lon": 0.0, "lat": 38.900906166666665, "bike_id": "bc7f7b25e86dd10f677d4acc0770d34e", "type": "electric_scooter", "is_reserved": 0, "lon": -76.98332733333334}, {"fusion_lat": 0.0, "name": "0a6b6060651f3c479acc02460c5ad2b6", "is_disabled": 0, "rental_uris": {"android": "https://dc.lft.to/lastmile_qr_scan", "ios": "https://dc.lft.to/lastmile_qr_scan"}, "fusion_lon": 0.0, "lat": 38.91042, "bike_id": "0a6b6060651f3c479acc02460c5ad2b6", "type": "electric_scooter", "is_reserved": 0, "lon": -77.00828433333334}, {"fusion_lat": 0.0, "name": "1c9672bb377a9e85b14142fa8910345d", "is_disabled": 0, "rental_uris": {"android": "https://dc.lft.to/lastmile_qr_scan", "ios": "https://dc.lft.to/lastmile_qr_scan"}, "fusion_lon": 0.0, "lat": 38.92895883333333, "bike_id": "1c9672bb377a9e85b14142fa8910345d", "type": "electric_bike", "is_reserved": 0, "lon": -77.23178966666667}, {"fusion_lat": 0.0, "name": "aa3021612c5b98b6a201e78dc846d273", "is_disabled": 0, "rental_uris": {"android": "https://dc.lft.to/lastmile_qr_scan", "ios": "https://dc.lft.to/lastmile_qr_scan"}, "fusion_lon": 0.0, "lat": 38.91563333333333, "bike_id": "aa3021612c5b98b6a201e78dc846d273", "type": "electric_scooter", "is_reserved": 0, "lon": -77.03853183333334}, {"fusion_lat": 0.0, "name": "965d3325a7b35a5d51038647734aa9fb", "is_disabled": 0, "rental_uris": {"android": "https://dc.lft.to/lastmile_qr_scan", "ios": "https://dc.lft.to/lastmile_qr_scan"}, "fusion_lon": 0.0, "lat": 38.938785833333334, "bike_id": "965d3325a7b35a5d51038647734aa9fb", "type": "electric_scooter", "is_reserved": 0, "lon": -77.02462283333334}, {"fusion_lat": 0.0, "name": "42e3e2c95139b744728585cd73efa67f", "is_disabled": 0, "rental_uris": {"android": "https://dc.lft.to/lastmile_qr_scan", "ios": "https://dc.lft.to/lastmile_qr_scan"}, "fusion_lon": 0.0, "lat": 38.933688333333336, "bike_id": "42e3e2c95139b744728585cd73efa67f", "type": "electric_scooter", "is_reserved": 0, "lon": -77.02435233333334}, {"fusion_lat": 0.0, "name": "520e585b68ad18dba7eaa76fb07d042b", "is_disabled": 0, "rental_uris": {"android": "https://dc.lft.to/lastmile_qr_scan", "ios": "https://dc.lft.to/lastmile_qr_scan"}, "fusion_lon": 0.0, "lat": 38.9620125, "bike_id": "520e585b68ad18dba7eaa76fb07d042b", "type": "electric_bike", "is_reserved": 0, "lon": -77.027815}, {"fusion_lat": 0.0, "name": "86373a996f9b50f287fbb653fa6b3763", "is_disabled": 0, "rental_uris": {"android": "https://dc.lft.to/lastmile_qr_scan", "ios": "https://dc.lft.to/lastmile_qr_scan"}, "fusion_lon": 0.0, "lat": 38.911283833333336, "bike_id": "86373a996f9b50f287fbb653fa6b3763", "type": "electric_scooter", "is_reserved": 0, "lon": -77.02199733333333}, {"fusion_lat": 0.0, "name": "b97c190af24759ae37fe9b21720df822", "is_disabled": 0, "rental_uris": {"android": "https://dc.lft.to/lastmile_qr_scan", "ios": "https://dc.lft.to/lastmile_qr_scan"}, "fusion_lon": 0.0, "lat": 38.9003565, "bike_id": "b97c190af24759ae37fe9b21720df822", "type": "electric_scooter", "is_reserved": 0, "lon": -76.98550116666667}, {"fusion_lat": 0.0, "name": "d729cf374ea73a0db9768e4faa95e83e", "is_disabled": 0, "rental_uris": {"android": "https://dc.lft.to/lastmile_qr_scan", "ios": "https://dc.lft.to/lastmile_qr_scan"}, "fusion_lon": 0.0, "lat": 38.934159333333334, "bike_id": "d729cf374ea73a0db9768e4faa95e83e", "type": "electric_scooter", "is_reserved": 0, "lon": -77.04280266666666}, {"fusion_lat": 0.0, "name": "f9050c982877c241ddefd2ac25eace0b", "is_disabled": 0, "rental_uris": {"android": "https://dc.lft.to/lastmile_qr_scan", "ios": "https://dc.lft.to/lastmile_qr_scan"}, "fusion_lon": 0.0, "lat": 38.87965966666667, "bike_id": "f9050c982877c241ddefd2ac25eace0b", "type": "electric_bike", "is_reserved": 0, "lon": -76.91618966666667}, {"fusion_lat": 0.0, "name": "c139e7401162057270650987f2b15c8c", "is_disabled": 0, "rental_uris": {"android": "https://dc.lft.to/lastmile_qr_scan", "ios": "https://dc.lft.to/lastmile_qr_scan"}, "fusion_lon": 0.0, "lat": 38.8969685, "bike_id": "c139e7401162057270650987f2b15c8c", "type": "electric_scooter", "is_reserved": 0, "lon": -77.0195985}, {"fusion_lat": 0.0, "name": "7e06afc44a7a61c5ab4976d56a2e57c5", "is_disabled": 0, "rental_uris": {"android": "https://dc.lft.to/lastmile_qr_scan", "ios": "https://dc.lft.to/lastmile_qr_scan"}, "fusion_lon": 0.0, "lat": 38.89703766666667, "bike_id": "7e06afc44a7a61c5ab4976d56a2e57c5", "type": "electric_scooter", "is_reserved": 0, "lon": -77.0213375}, {"fusion_lat": 0.0, "name": "344f2e91a9ea551443cf1ead838fc8d2", "is_disabled": 0, "rental_uris": {"android": "https://dc.lft.to/lastmile_qr_scan", "ios": "https://dc.lft.to/lastmile_qr_scan"}, "fusion_lon": 0.0, "lat": 38.924235833333334, "bike_id": "344f2e91a9ea551443cf1ead838fc8d2", "type": "electric_scooter", "is_reserved": 0, "lon": -77.01955883333333}, {"fusion_lat": 0.0, "name": "7b04f254479f32ed7d02f9cdd44ed6d9", "is_disabled": 0, "rental_uris": {"android": "https://dc.lft.to/lastmile_qr_scan", "ios": "https://dc.lft.to/lastmile_qr_scan"}, "fusion_lon": 0.0, "lat": 38.91322383333333, "bike_id": "7b04f254479f32ed7d02f9cdd44ed6d9", "type": "electric_scooter", "is_reserved": 0, "lon": -77.0214075}, {"fusion_lat": 0.0, "name": "e3c5056da0794c8b993ed5ef6957c728", "is_disabled": 0, "rental_uris": {"android": "https://dc.lft.to/lastmile_qr_scan", "ios": "https://dc.lft.to/lastmile_qr_scan"}, "fusion_lon": 0.0, "lat": 38.92406, "bike_id": "e3c5056da0794c8b993ed5ef6957c728", "type": "electric_scooter", "is_reserved": 0, "lon": -77.020119}, {"fusion_lat": 0.0, "name": "b4dfeeab6a9d216a8dd32009c7b41bb0", "is_disabled": 0, "rental_uris": {"android": "https://dc.lft.to/lastmile_qr_scan", "ios": "https://dc.lft.to/lastmile_qr_scan"}, "fusion_lon": 0.0, "lat": 38.956592, "bike_id": "b4dfeeab6a9d216a8dd32009c7b41bb0", "type": "electric_scooter", "is_reserved": 0, "lon": -77.03323633333333}, {"fusion_lat": 0.0, "name": "53335924887666f7aef817ddf92a2702", "is_disabled": 0, "rental_uris": {"android": "https://dc.lft.to/lastmile_qr_scan", "ios": "https://dc.lft.to/lastmile_qr_scan"}, "fusion_lon": 0.0, "lat": 38.90933283333333, "bike_id": "53335924887666f7aef817ddf92a2702", "type": "electric_scooter", "is_reserved": 0, "lon": -77.03855216666666}, {"fusion_lat": 0.0, "name": "886b2867defced0f7687c0628838b412", "is_disabled": 0, "rental_uris": {"android": "https://dc.lft.to/lastmile_qr_scan", "ios": "https://dc.lft.to/lastmile_qr_scan"}, "fusion_lon": 0.0, "lat": 38.90725416666667, "bike_id": "886b2867defced0f7687c0628838b412", "type": "electric_scooter", "is_reserved": 0, "lon": -77.02967483333333}, {"fusion_lat": 0.0, "name": "649389dfd4bb17d147554bc1b18ece1e", "is_disabled": 0, "rental_uris": {"android": "https://dc.lft.to/lastmile_qr_scan", "ios": "https://dc.lft.to/lastmile_qr_scan"}, "fusion_lon": 0.0, "lat": 38.907792666666666, "bike_id": "649389dfd4bb17d147554bc1b18ece1e", "type": "electric_scooter", "is_reserved": 0, "lon": -77.038626}, {"fusion_lat": 0.0, "name": "b92c3c7f56a7d332c1b35807af26cdcf", "is_disabled": 0, "rental_uris": {"android": "https://dc.lft.to/lastmile_qr_scan", "ios": "https://dc.lft.to/lastmile_qr_scan"}, "fusion_lon": 0.0, "lat": 38.87685783333333, "bike_id": "b92c3c7f56a7d332c1b35807af26cdcf", "type": "electric_scooter", "is_reserved": 0, "lon": -77.01755966666667}, {"fusion_lat": 0.0, "name": "307d33a0c147855fee44e9ef5b74d486", "is_disabled": 0, "rental_uris": {"android": "https://dc.lft.to/lastmile_qr_scan", "ios": "https://dc.lft.to/lastmile_qr_scan"}, "fusion_lon": 0.0, "lat": 39.010776, "bike_id": "307d33a0c147855fee44e9ef5b74d486", "type": "electric_bike", "is_reserved": 0, "lon": -76.91066083333334}, {"fusion_lat": 0.0, "name": "1dd5998668158fc1d3a4540246cea761", "is_disabled": 0, "rental_uris": {"android": "https://dc.lft.to/lastmile_qr_scan", "ios": "https://dc.lft.to/lastmile_qr_scan"}, "fusion_lon": 0.0, "lat": 38.94225633333333, "bike_id": "1dd5998668158fc1d3a4540246cea761", "type": "electric_scooter", "is_reserved": 0, "lon": -77.02341733333333}, {"fusion_lat": 0.0, "name": "263c6bd1a708c135b07674ecebde1a0e", "is_disabled": 0, "rental_uris": {"android": "https://dc.lft.to/lastmile_qr_scan", "ios": "https://dc.lft.to/lastmile_qr_scan"}, "fusion_lon": 0.0, "lat": 38.91956616666667, "bike_id": "263c6bd1a708c135b07674ecebde1a0e", "type": "electric_scooter", "is_reserved": 0, "lon": -77.01782683333333}, {"fusion_lat": 0.0, "name": "a08708ad9c94b7ac421d0d5d14b3dd5a", "is_disabled": 0, "rental_uris": {"android": "https://dc.lft.to/lastmile_qr_scan", "ios": "https://dc.lft.to/lastmile_qr_scan"}, "fusion_lon": 0.0, "lat": 38.91404133333333, "bike_id": "a08708ad9c94b7ac421d0d5d14b3dd5a", "type": "electric_scooter", "is_reserved": 0, "lon": -77.03218233333334}, {"fusion_lat": 0.0, "name": "50eccc9d3a4e60a31f2fc4b7ceccaaf9", "is_disabled": 0, "rental_uris": {"android": "https://dc.lft.to/lastmile_qr_scan", "ios": "https://dc.lft.to/lastmile_qr_scan"}, "fusion_lon": 0.0, "lat": 38.930585666666666, "bike_id": "50eccc9d3a4e60a31f2fc4b7ceccaaf9", "type": "electric_scooter", "is_reserved": 0, "lon": -77.04075616666667}, {"fusion_lat": 0.0, "name": "edffdfda64c8b140be136ebec8c4e307", "is_disabled": 0, "rental_uris": {"android": "https://dc.lft.to/lastmile_qr_scan", "ios": "https://dc.lft.to/lastmile_qr_scan"}, "fusion_lon": 0.0, "lat": 38.9707445, "bike_id": "edffdfda64c8b140be136ebec8c4e307", "type": "electric_bike", "is_reserved": 0, "lon": -76.93612533333334}, {"fusion_lat": 0.0, "name": "75261ba79c2aed08000dc0fcd90dc424", "is_disabled": 0, "rental_uris": {"android": "https://dc.lft.to/lastmile_qr_scan", "ios": "https://dc.lft.to/lastmile_qr_scan"}, "fusion_lon": 0.0, "lat": 38.90955016666667, "bike_id": "75261ba79c2aed08000dc0fcd90dc424", "type": "electric_scooter", "is_reserved": 0, "lon": -77.0486135}, {"fusion_lat": 0.0, "name": "29db342112662950a157a4144b27c327", "is_disabled": 0, "rental_uris": {"android": "https://dc.lft.to/lastmile_qr_scan", "ios": "https://dc.lft.to/lastmile_qr_scan"}, "fusion_lon": 0.0, "lat": 38.8996115, "bike_id": "29db342112662950a157a4144b27c327", "type": "electric_scooter", "is_reserved": 0, "lon": -77.01511516666666}, {"fusion_lat": 0.0, "name": "e057b6a08af0365eeace3a63f96d4811", "is_disabled": 0, "rental_uris": {"android": "https://dc.lft.to/lastmile_qr_scan", "ios": "https://dc.lft.to/lastmile_qr_scan"}, "fusion_lon": 0.0, "lat": 38.92200833333333, "bike_id": "e057b6a08af0365eeace3a63f96d4811", "type": "electric_scooter", "is_reserved": 0, "lon": -77.04139216666667}, {"fusion_lat": 0.0, "name": "b5819023282c582686df05a714dbffb2", "is_disabled": 0, "rental_uris": {"android": "https://dc.lft.to/lastmile_qr_scan", "ios": "https://dc.lft.to/lastmile_qr_scan"}, "fusion_lon": 0.0, "lat": 38.901396166666665, "bike_id": "b5819023282c582686df05a714dbffb2", "type": "electric_scooter", "is_reserved": 0, "lon": -76.98653516666667}, {"fusion_lat": 0.0, "name": "8210cd5ebf5b807efdd6bacd7b9af256", "is_disabled": 0, "rental_uris": {"android": "https://dc.lft.to/lastmile_qr_scan", "ios": "https://dc.lft.to/lastmile_qr_scan"}, "fusion_lon": 0.0, "lat": 38.874668666666665, "bike_id": "8210cd5ebf5b807efdd6bacd7b9af256", "type": "electric_scooter", "is_reserved": 0, "lon": -77.000311}, {"fusion_lat": 0.0, "name": "dc0295380960e1eb5470e54e75e6ed25", "is_disabled": 0, "rental_uris": {"android": "https://dc.lft.to/lastmile_qr_scan", "ios": "https://dc.lft.to/lastmile_qr_scan"}, "fusion_lon": 0.0, "lat": 38.97884416666667, "bike_id": "dc0295380960e1eb5470e54e75e6ed25", "type": "electric_bike", "is_reserved": 0, "lon": -77.06031466666667}, {"fusion_lat": 0.0, "name": "6a2962ffe0cd28a432a6681cbc6a5f45", "is_disabled": 0, "rental_uris": {"android": "https://dc.lft.to/lastmile_qr_scan", "ios": "https://dc.lft.to/lastmile_qr_scan"}, "fusion_lon": 0.0, "lat": 38.953322166666666, "bike_id": "6a2962ffe0cd28a432a6681cbc6a5f45", "type": "electric_bike", "is_reserved": 0, "lon": -76.98254566666667}, {"fusion_lat": 0.0, "name": "0dadc3ddb1e11a41cb0b8cfea00f193e", "is_disabled": 0, "rental_uris": {"android": "https://dc.lft.to/lastmile_qr_scan", "ios": "https://dc.lft.to/lastmile_qr_scan"}, "fusion_lon": 0.0, "lat": 38.895107, "bike_id": "0dadc3ddb1e11a41cb0b8cfea00f193e", "type": "electric_scooter", "is_reserved": 0, "lon": -76.99962416666666}, {"fusion_lat": 0.0, "name": "6ed2e671729c5c434d0cde1f21ec4a88", "is_disabled": 0, "rental_uris": {"android": "https://dc.lft.to/lastmile_qr_scan", "ios": "https://dc.lft.to/lastmile_qr_scan"}, "fusion_lon": 0.0, "lat": 38.92612866666666, "bike_id": "6ed2e671729c5c434d0cde1f21ec4a88", "type": "electric_scooter", "is_reserved": 0, "lon": -77.0432695}, {"fusion_lat": 0.0, "name": "3299b722b14320afb5b352ba485f460c", "is_disabled": 0, "rental_uris": {"android": "https://dc.lft.to/lastmile_qr_scan", "ios": "https://dc.lft.to/lastmile_qr_scan"}, "fusion_lon": 0.0, "lat": 38.90721033333333, "bike_id": "3299b722b14320afb5b352ba485f460c", "type": "electric_scooter", "is_reserved": 0, "lon": -77.04345783333333}, {"fusion_lat": 0.0, "name": "b53405b9abd2f4f5864b5c614f2f4990", "is_disabled": 0, "rental_uris": {"android": "https://dc.lft.to/lastmile_qr_scan", "ios": "https://dc.lft.to/lastmile_qr_scan"}, "fusion_lon": 0.0, "lat": 38.942023166666665, "bike_id": "b53405b9abd2f4f5864b5c614f2f4990", "type": "electric_scooter", "is_reserved": 0, "lon": -77.02587833333334}, {"fusion_lat": 0.0, "name": "b9d921b028c8c3b5dfcc2d6534b73b4a", "is_disabled": 0, "rental_uris": {"android": "https://dc.lft.to/lastmile_qr_scan", "ios": "https://dc.lft.to/lastmile_qr_scan"}, "fusion_lon": 0.0, "lat": 38.91800933333333, "bike_id": "b9d921b028c8c3b5dfcc2d6534b73b4a", "type": "electric_scooter", "is_reserved": 0, "lon": -77.02708066666666}, {"fusion_lat": 0.0, "name": "6d6b35234b82714dda49cd1d5e4ba42b", "is_disabled": 0, "rental_uris": {"android": "https://dc.lft.to/lastmile_qr_scan", "ios": "https://dc.lft.to/lastmile_qr_scan"}, "fusion_lon": 0.0, "lat": 38.90679316666667, "bike_id": "6d6b35234b82714dda49cd1d5e4ba42b", "type": "electric_scooter", "is_reserved": 0, "lon": -77.03752583333333}, {"fusion_lat": 0.0, "name": "0960d2ad16de75e96b7429a2d0a5a4c0", "is_disabled": 0, "rental_uris": {"android": "https://dc.lft.to/lastmile_qr_scan", "ios": "https://dc.lft.to/lastmile_qr_scan"}, "fusion_lon": 0.0, "lat": 38.91071133333333, "bike_id": "0960d2ad16de75e96b7429a2d0a5a4c0", "type": "electric_scooter", "is_reserved": 0, "lon": -77.0366825}, {"fusion_lat": 0.0, "name": "206a8253d3342060df9e1a2651a2775a", "is_disabled": 0, "rental_uris": {"android": "https://dc.lft.to/lastmile_qr_scan", "ios": "https://dc.lft.to/lastmile_qr_scan"}, "fusion_lon": 0.0, "lat": 38.839340666666665, "bike_id": "206a8253d3342060df9e1a2651a2775a", "type": "electric_bike", "is_reserved": 0, "lon": -77.07903033333334}, {"fusion_lat": 0.0, "name": "95a327101e913cd411455dd8b43ccfa4", "is_disabled": 0, "rental_uris": {"android": "https://dc.lft.to/lastmile_qr_scan", "ios": "https://dc.lft.to/lastmile_qr_scan"}, "fusion_lon": 0.0, "lat": 38.92748133333333, "bike_id": "95a327101e913cd411455dd8b43ccfa4", "type": "electric_scooter", "is_reserved": 0, "lon": -77.0363925}, {"fusion_lat": 0.0, "name": "24f367791dadf9229fa5c84df5a32591", "is_disabled": 0, "rental_uris": {"android": "https://dc.lft.to/lastmile_qr_scan", "ios": "https://dc.lft.to/lastmile_qr_scan"}, "fusion_lon": 0.0, "lat": 38.887481666666666, "bike_id": "24f367791dadf9229fa5c84df5a32591", "type": "electric_scooter", "is_reserved": 0, "lon": -77.0315815}, {"fusion_lat": 0.0, "name": "c88867adf4be72ff72edda63d915f269", "is_disabled": 0, "rental_uris": {"android": "https://dc.lft.to/lastmile_qr_scan", "ios": "https://dc.lft.to/lastmile_qr_scan"}, "fusion_lon": 0.0, "lat": 38.9117735, "bike_id": "c88867adf4be72ff72edda63d915f269", "type": "electric_scooter", "is_reserved": 0, "lon": -77.03829166666667}, {"fusion_lat": 0.0, "name": "91542a6bdbbce97ccac09ac8b76486eb", "is_disabled": 0, "rental_uris": {"android": "https://dc.lft.to/lastmile_qr_scan", "ios": "https://dc.lft.to/lastmile_qr_scan"}, "fusion_lon": 0.0, "lat": 38.927902333333336, "bike_id": "91542a6bdbbce97ccac09ac8b76486eb", "type": "electric_scooter", "is_reserved": 0, "lon": -77.0272115}, {"fusion_lat": 0.0, "name": "39734fa3652a51415a14cf5007595143", "is_disabled": 0, "rental_uris": {"android": "https://dc.lft.to/lastmile_qr_scan", "ios": "https://dc.lft.to/lastmile_qr_scan"}, "fusion_lon": 0.0, "lat": 38.922579666666664, "bike_id": "39734fa3652a51415a14cf5007595143", "type": "electric_scooter", "is_reserved": 0, "lon": -77.0366315}, {"fusion_lat": 0.0, "name": "716e7e43780bb924d0d9fa4ce06585c3", "is_disabled": 0, "rental_uris": {"android": "https://dc.lft.to/lastmile_qr_scan", "ios": "https://dc.lft.to/lastmile_qr_scan"}, "fusion_lon": 0.0, "lat": 38.923955666666664, "bike_id": "716e7e43780bb924d0d9fa4ce06585c3", "type": "electric_scooter", "is_reserved": 0, "lon": -77.0526655}, {"fusion_lat": 0.0, "name": "26738f41685f2afa16f4ca4ab2ed8757", "is_disabled": 0, "rental_uris": {"android": "https://dc.lft.to/lastmile_qr_scan", "ios": "https://dc.lft.to/lastmile_qr_scan"}, "fusion_lon": 0.0, "lat": 38.91331983333333, "bike_id": "26738f41685f2afa16f4ca4ab2ed8757", "type": "electric_scooter", "is_reserved": 0, "lon": -77.04285916666667}, {"fusion_lat": 0.0, "name": "b539fc07739136b24c251f77a5bff0a6", "is_disabled": 0, "rental_uris": {"android": "https://dc.lft.to/lastmile_qr_scan", "ios": "https://dc.lft.to/lastmile_qr_scan"}, "fusion_lon": 0.0, "lat": 38.90782633333333, "bike_id": "b539fc07739136b24c251f77a5bff0a6", "type": "electric_scooter", "is_reserved": 0, "lon": -77.018588}, {"fusion_lat": 0.0, "name": "2fd23a29c9dee84062e7d6e5d73c2bca", "is_disabled": 0, "rental_uris": {"android": "https://dc.lft.to/lastmile_qr_scan", "ios": "https://dc.lft.to/lastmile_qr_scan"}, "fusion_lon": 0.0, "lat": 38.92375083333334, "bike_id": "2fd23a29c9dee84062e7d6e5d73c2bca", "type": "electric_scooter", "is_reserved": 0, "lon": -77.03661866666667}, {"fusion_lat": 0.0, "name": "c1a6439dd02e65664573390344b65ac5", "is_disabled": 0, "rental_uris": {"android": "https://dc.lft.to/lastmile_qr_scan", "ios": "https://dc.lft.to/lastmile_qr_scan"}, "fusion_lon": 0.0, "lat": 38.958827166666666, "bike_id": "c1a6439dd02e65664573390344b65ac5", "type": "electric_scooter", "is_reserved": 0, "lon": -77.0117095}, {"fusion_lat": 0.0, "name": "d8ac90585c225b5e35f1a12afea85976", "is_disabled": 0, "rental_uris": {"android": "https://dc.lft.to/lastmile_qr_scan", "ios": "https://dc.lft.to/lastmile_qr_scan"}, "fusion_lon": 0.0, "lat": 38.91716483333333, "bike_id": "d8ac90585c225b5e35f1a12afea85976", "type": "electric_scooter", "is_reserved": 0, "lon": -77.03031733333333}, {"fusion_lat": 0.0, "name": "f95b47c4ce6e04eaa5db86c07af89f90", "is_disabled": 0, "rental_uris": {"android": "https://dc.lft.to/lastmile_qr_scan", "ios": "https://dc.lft.to/lastmile_qr_scan"}, "fusion_lon": 0.0, "lat": 38.87655683333333, "bike_id": "f95b47c4ce6e04eaa5db86c07af89f90", "type": "electric_scooter", "is_reserved": 0, "lon": -77.00918983333334}, {"fusion_lat": 0.0, "name": "01bfa190967c787111e7c2b9e06b93a4", "is_disabled": 0, "rental_uris": {"android": "https://dc.lft.to/lastmile_qr_scan", "ios": "https://dc.lft.to/lastmile_qr_scan"}, "fusion_lon": 0.0, "lat": 38.9113125, "bike_id": "01bfa190967c787111e7c2b9e06b93a4", "type": "electric_scooter", "is_reserved": 0, "lon": -77.01524766666667}, {"fusion_lat": 0.0, "name": "bcf90a40377d0039a44c3eb5b9562ebd", "is_disabled": 0, "rental_uris": {"android": "https://dc.lft.to/lastmile_qr_scan", "ios": "https://dc.lft.to/lastmile_qr_scan"}, "fusion_lon": 0.0, "lat": 38.86761166666667, "bike_id": "bcf90a40377d0039a44c3eb5b9562ebd", "type": "electric_scooter", "is_reserved": 0, "lon": -76.98273666666667}, {"fusion_lat": 0.0, "name": "fcc58f7fdf3808c99bf42fc39c81e744", "is_disabled": 0, "rental_uris": {"android": "https://dc.lft.to/lastmile_qr_scan", "ios": "https://dc.lft.to/lastmile_qr_scan"}, "fusion_lon": 0.0, "lat": 38.90222033333333, "bike_id": "fcc58f7fdf3808c99bf42fc39c81e744", "type": "electric_scooter", "is_reserved": 0, "lon": -77.02212566666667}, {"fusion_lat": 0.0, "name": "68be8c1c3917c47da1759668af7026e8", "is_disabled": 0, "rental_uris": {"android": "https://dc.lft.to/lastmile_qr_scan", "ios": "https://dc.lft.to/lastmile_qr_scan"}, "fusion_lon": 0.0, "lat": 38.896371, "bike_id": "68be8c1c3917c47da1759668af7026e8", "type": "electric_scooter", "is_reserved": 0, "lon": -77.02682966666667}, {"fusion_lat": 0.0, "name": "a72d61c35366a44fc77069af9931f559", "is_disabled": 0, "rental_uris": {"android": "https://dc.lft.to/lastmile_qr_scan", "ios": "https://dc.lft.to/lastmile_qr_scan"}, "fusion_lon": 0.0, "lat": 38.91490133333333, "bike_id": "a72d61c35366a44fc77069af9931f559", "type": "electric_scooter", "is_reserved": 0, "lon": -77.01420416666667}, {"fusion_lat": 0.0, "name": "851c62b644767682b56dd7d4aeedcf31", "is_disabled": 0, "rental_uris": {"android": "https://dc.lft.to/lastmile_qr_scan", "ios": "https://dc.lft.to/lastmile_qr_scan"}, "fusion_lon": 0.0, "lat": 38.926675833333334, "bike_id": "851c62b644767682b56dd7d4aeedcf31", "type": "electric_scooter", "is_reserved": 0, "lon": -77.05157983333334}, {"fusion_lat": 0.0, "name": "27562b5cecdb134ed7dfbe7e686a949c", "is_disabled": 0, "rental_uris": {"android": "https://dc.lft.to/lastmile_qr_scan", "ios": "https://dc.lft.to/lastmile_qr_scan"}, "fusion_lon": 0.0, "lat": 38.91150483333333, "bike_id": "27562b5cecdb134ed7dfbe7e686a949c", "type": "electric_scooter", "is_reserved": 0, "lon": -76.98723266666667}, {"fusion_lat": 0.0, "name": "5210405c931257aa365c16587b363786", "is_disabled": 0, "rental_uris": {"android": "https://dc.lft.to/lastmile_qr_scan", "ios": "https://dc.lft.to/lastmile_qr_scan"}, "fusion_lon": 0.0, "lat": 38.924098, "bike_id": "5210405c931257aa365c16587b363786", "type": "electric_scooter", "is_reserved": 0, "lon": -77.025407}, {"fusion_lat": 0.0, "name": "263723767291f15e68a65208241826ab", "is_disabled": 0, "rental_uris": {"android": "https://dc.lft.to/lastmile_qr_scan", "ios": "https://dc.lft.to/lastmile_qr_scan"}, "fusion_lon": 0.0, "lat": 38.873781, "bike_id": "263723767291f15e68a65208241826ab", "type": "electric_scooter", "is_reserved": 0, "lon": -77.00134466666667}, {"fusion_lat": 0.0, "name": "53d9fdc7d0c4d7224f139ec3ebf3114f", "is_disabled": 0, "rental_uris": {"android": "https://dc.lft.to/lastmile_qr_scan", "ios": "https://dc.lft.to/lastmile_qr_scan"}, "fusion_lon": 0.0, "lat": 38.89220016666667, "bike_id": "53d9fdc7d0c4d7224f139ec3ebf3114f", "type": "electric_scooter", "is_reserved": 0, "lon": -77.04377366666667}, {"fusion_lat": 0.0, "name": "af2443973ce5ba63ccddd4c965a024dc", "is_disabled": 0, "rental_uris": {"android": "https://dc.lft.to/lastmile_qr_scan", "ios": "https://dc.lft.to/lastmile_qr_scan"}, "fusion_lon": 0.0, "lat": 38.9045325, "bike_id": "af2443973ce5ba63ccddd4c965a024dc", "type": "electric_bike", "is_reserved": 0, "lon": -76.97430433333334}, {"fusion_lat": 0.0, "name": "91df7377d951c90cb5ad9b93a7e3f680", "is_disabled": 0, "rental_uris": {"android": "https://dc.lft.to/lastmile_qr_scan", "ios": "https://dc.lft.to/lastmile_qr_scan"}, "fusion_lon": 0.0, "lat": 38.855659833333334, "bike_id": "91df7377d951c90cb5ad9b93a7e3f680", "type": "electric_bike", "is_reserved": 0, "lon": -77.11317516666666}, {"fusion_lat": 0.0, "name": "95e15e5e975ca54ab4eb1d3508183017", "is_disabled": 0, "rental_uris": {"android": "https://dc.lft.to/lastmile_qr_scan", "ios": "https://dc.lft.to/lastmile_qr_scan"}, "fusion_lon": 0.0, "lat": 38.89729633333334, "bike_id": "95e15e5e975ca54ab4eb1d3508183017", "type": "electric_scooter", "is_reserved": 0, "lon": -76.947011}, {"fusion_lat": 0.0, "name": "d277e847bcb6ab2239d5c75a5e705915", "is_disabled": 0, "rental_uris": {"android": "https://dc.lft.to/lastmile_qr_scan", "ios": "https://dc.lft.to/lastmile_qr_scan"}, "fusion_lon": 0.0, "lat": 38.96070816666667, "bike_id": "d277e847bcb6ab2239d5c75a5e705915", "type": "electric_scooter", "is_reserved": 0, "lon": -77.00095016666667}, {"fusion_lat": 0.0, "name": "ea05d05a59641f62d94f09552fbcdf87", "is_disabled": 0, "rental_uris": {"android": "https://dc.lft.to/lastmile_qr_scan", "ios": "https://dc.lft.to/lastmile_qr_scan"}, "fusion_lon": 0.0, "lat": 38.91360816666667, "bike_id": "ea05d05a59641f62d94f09552fbcdf87", "type": "electric_bike", "is_reserved": 0, "lon": -77.0162695}, {"fusion_lat": 0.0, "name": "088c544199ad657aa96f85e0c7836019", "is_disabled": 0, "rental_uris": {"android": "https://dc.lft.to/lastmile_qr_scan", "ios": "https://dc.lft.to/lastmile_qr_scan"}, "fusion_lon": 0.0, "lat": 38.905054666666665, "bike_id": "088c544199ad657aa96f85e0c7836019", "type": "electric_scooter", "is_reserved": 0, "lon": -77.02946433333334}, {"fusion_lat": 0.0, "name": "e68df380c419df3b5e909d8e578f8015", "is_disabled": 0, "rental_uris": {"android": "https://dc.lft.to/lastmile_qr_scan", "ios": "https://dc.lft.to/lastmile_qr_scan"}, "fusion_lon": 0.0, "lat": 38.90954816666667, "bike_id": "e68df380c419df3b5e909d8e578f8015", "type": "electric_scooter", "is_reserved": 0, "lon": -77.048645}, {"fusion_lat": 0.0, "name": "f638f1ec7aa7daabf969b7d32817d6f6", "is_disabled": 0, "rental_uris": {"android": "https://dc.lft.to/lastmile_qr_scan", "ios": "https://dc.lft.to/lastmile_qr_scan"}, "fusion_lon": 0.0, "lat": 38.910395333333334, "bike_id": "f638f1ec7aa7daabf969b7d32817d6f6", "type": "electric_scooter", "is_reserved": 0, "lon": -77.01294716666666}, {"fusion_lat": 0.0, "name": "92a4d22381235a98cef6f1ef08a64bce", "is_disabled": 0, "rental_uris": {"android": "https://dc.lft.to/lastmile_qr_scan", "ios": "https://dc.lft.to/lastmile_qr_scan"}, "fusion_lon": 0.0, "lat": 38.89218183333333, "bike_id": "92a4d22381235a98cef6f1ef08a64bce", "type": "electric_scooter", "is_reserved": 0, "lon": -77.032192}, {"fusion_lat": 0.0, "name": "95b9f048e16e218b7c902f6e1e9e6bd9", "is_disabled": 0, "rental_uris": {"android": "https://dc.lft.to/lastmile_qr_scan", "ios": "https://dc.lft.to/lastmile_qr_scan"}, "fusion_lon": 0.0, "lat": 38.92258833333333, "bike_id": "95b9f048e16e218b7c902f6e1e9e6bd9", "type": "electric_scooter", "is_reserved": 0, "lon": -77.03665766666667}, {"fusion_lat": 0.0, "name": "22875a30d9494d14eb2063756ee9fabd", "is_disabled": 0, "rental_uris": {"android": "https://dc.lft.to/lastmile_qr_scan", "ios": "https://dc.lft.to/lastmile_qr_scan"}, "fusion_lon": 0.0, "lat": 38.90553166666667, "bike_id": "22875a30d9494d14eb2063756ee9fabd", "type": "electric_scooter", "is_reserved": 0, "lon": -77.04660416666667}, {"fusion_lat": 0.0, "name": "7d0cf29c1b2fd5c031053b4e64b58684", "is_disabled": 0, "rental_uris": {"android": "https://dc.lft.to/lastmile_qr_scan", "ios": "https://dc.lft.to/lastmile_qr_scan"}, "fusion_lon": 0.0, "lat": 38.909718166666664, "bike_id": "7d0cf29c1b2fd5c031053b4e64b58684", "type": "electric_scooter", "is_reserved": 0, "lon": -77.03440283333333}, {"fusion_lat": 0.0, "name": "ea18e2760f95dd740cdfd10b5241ffb4", "is_disabled": 0, "rental_uris": {"android": "https://dc.lft.to/lastmile_qr_scan", "ios": "https://dc.lft.to/lastmile_qr_scan"}, "fusion_lon": 0.0, "lat": 38.915655666666666, "bike_id": "ea18e2760f95dd740cdfd10b5241ffb4", "type": "electric_scooter", "is_reserved": 0, "lon": -77.04158283333334}, {"fusion_lat": 0.0, "name": "a6321cc9ca0affb985ddc0a80c4f7a7b", "is_disabled": 0, "rental_uris": {"android": "https://dc.lft.to/lastmile_qr_scan", "ios": "https://dc.lft.to/lastmile_qr_scan"}, "fusion_lon": 0.0, "lat": 38.918036666666666, "bike_id": "a6321cc9ca0affb985ddc0a80c4f7a7b", "type": "electric_scooter", "is_reserved": 0, "lon": -77.034411}, {"fusion_lat": 0.0, "name": "d5aef8456467eabc08a634ae1b0ae71b", "is_disabled": 0, "rental_uris": {"android": "https://dc.lft.to/lastmile_qr_scan", "ios": "https://dc.lft.to/lastmile_qr_scan"}, "fusion_lon": 0.0, "lat": 38.90228583333333, "bike_id": "d5aef8456467eabc08a634ae1b0ae71b", "type": "electric_scooter", "is_reserved": 0, "lon": -77.0286675}, {"fusion_lat": 0.0, "name": "f05e93970a821a453e192498178f5d8e", "is_disabled": 0, "rental_uris": {"android": "https://dc.lft.to/lastmile_qr_scan", "ios": "https://dc.lft.to/lastmile_qr_scan"}, "fusion_lon": 0.0, "lat": 38.920608333333334, "bike_id": "f05e93970a821a453e192498178f5d8e", "type": "electric_scooter", "is_reserved": 0, "lon": -77.02422166666666}, {"fusion_lat": 0.0, "name": "f7857b19604d26bed67fbc4547095b49", "is_disabled": 0, "rental_uris": {"android": "https://dc.lft.to/lastmile_qr_scan", "ios": "https://dc.lft.to/lastmile_qr_scan"}, "fusion_lon": 0.0, "lat": 38.91796633333333, "bike_id": "f7857b19604d26bed67fbc4547095b49", "type": "electric_scooter", "is_reserved": 0, "lon": -77.02715183333333}, {"fusion_lat": 0.0, "name": "685dbe68bd3efa52d50e56bb0cee199d", "is_disabled": 0, "rental_uris": {"android": "https://dc.lft.to/lastmile_qr_scan", "ios": "https://dc.lft.to/lastmile_qr_scan"}, "fusion_lon": 0.0, "lat": 38.880439833333334, "bike_id": "685dbe68bd3efa52d50e56bb0cee199d", "type": "electric_scooter", "is_reserved": 0, "lon": -77.013292}, {"fusion_lat": 0.0, "name": "e31ee4c6291c626b590b59bb9323eeac", "is_disabled": 0, "rental_uris": {"android": "https://dc.lft.to/lastmile_qr_scan", "ios": "https://dc.lft.to/lastmile_qr_scan"}, "fusion_lon": 0.0, "lat": 38.876703166666665, "bike_id": "e31ee4c6291c626b590b59bb9323eeac", "type": "electric_bike", "is_reserved": 0, "lon": -77.02092083333334}, {"fusion_lat": 0.0, "name": "fc08cee92e3cc03a7751fbcd218ba9d7", "is_disabled": 0, "rental_uris": {"android": "https://dc.lft.to/lastmile_qr_scan", "ios": "https://dc.lft.to/lastmile_qr_scan"}, "fusion_lon": 0.0, "lat": 38.96622933333333, "bike_id": "fc08cee92e3cc03a7751fbcd218ba9d7", "type": "electric_bike", "is_reserved": 0, "lon": -77.03428566666666}, {"fusion_lat": 0.0, "name": "36c37b7f902579a49f9ca619cdef7f31", "is_disabled": 0, "rental_uris": {"android": "https://dc.lft.to/lastmile_qr_scan", "ios": "https://dc.lft.to/lastmile_qr_scan"}, "fusion_lon": 0.0, "lat": 38.876803833333334, "bike_id": "36c37b7f902579a49f9ca619cdef7f31", "type": "electric_bike", "is_reserved": 0, "lon": -77.01467266666667}, {"fusion_lat": 0.0, "name": "e4932256f0d61bc497499afab5796c9d", "is_disabled": 0, "rental_uris": {"android": "https://dc.lft.to/lastmile_qr_scan", "ios": "https://dc.lft.to/lastmile_qr_scan"}, "fusion_lon": 0.0, "lat": 38.912606833333335, "bike_id": "e4932256f0d61bc497499afab5796c9d", "type": "electric_scooter", "is_reserved": 0, "lon": -77.03869866666666}, {"fusion_lat": 0.0, "name": "cee74bea670f420b228f46a1a7fce816", "is_disabled": 0, "rental_uris": {"android": "https://dc.lft.to/lastmile_qr_scan", "ios": "https://dc.lft.to/lastmile_qr_scan"}, "fusion_lon": 0.0, "lat": 38.944644, "bike_id": "cee74bea670f420b228f46a1a7fce816", "type": "electric_scooter", "is_reserved": 0, "lon": -77.0065935}, {"fusion_lat": 0.0, "name": "974e2d87909e3ebbeacf123e7c28b1a2", "is_disabled": 0, "rental_uris": {"android": "https://dc.lft.to/lastmile_qr_scan", "ios": "https://dc.lft.to/lastmile_qr_scan"}, "fusion_lon": 0.0, "lat": 38.887656666666665, "bike_id": "974e2d87909e3ebbeacf123e7c28b1a2", "type": "electric_scooter", "is_reserved": 0, "lon": -76.9775625}, {"fusion_lat": 0.0, "name": "8e6943da7ad5214b991cdd543f5f431d", "is_disabled": 0, "rental_uris": {"android": "https://dc.lft.to/lastmile_qr_scan", "ios": "https://dc.lft.to/lastmile_qr_scan"}, "fusion_lon": 0.0, "lat": 38.919279833333334, "bike_id": "8e6943da7ad5214b991cdd543f5f431d", "type": "electric_scooter", "is_reserved": 0, "lon": -77.03173483333333}, {"fusion_lat": 0.0, "name": "7eeb3e8aba5dfc68b41db11bed860c09", "is_disabled": 0, "rental_uris": {"android": "https://dc.lft.to/lastmile_qr_scan", "ios": "https://dc.lft.to/lastmile_qr_scan"}, "fusion_lon": 0.0, "lat": 38.907098, "bike_id": "7eeb3e8aba5dfc68b41db11bed860c09", "type": "electric_scooter", "is_reserved": 0, "lon": -77.04344233333333}, {"fusion_lat": 0.0, "name": "f8135bf1857f1c390986f68cb19d0dca", "is_disabled": 0, "rental_uris": {"android": "https://dc.lft.to/lastmile_qr_scan", "ios": "https://dc.lft.to/lastmile_qr_scan"}, "fusion_lon": 0.0, "lat": 38.87468766666667, "bike_id": "f8135bf1857f1c390986f68cb19d0dca", "type": "electric_scooter", "is_reserved": 0, "lon": -77.01890933333334}, {"fusion_lat": 0.0, "name": "53ac671742ebd47ce7844433aa322bf9", "is_disabled": 0, "rental_uris": {"android": "https://dc.lft.to/lastmile_qr_scan", "ios": "https://dc.lft.to/lastmile_qr_scan"}, "fusion_lon": 0.0, "lat": 38.916251, "bike_id": "53ac671742ebd47ce7844433aa322bf9", "type": "electric_scooter", "is_reserved": 0, "lon": -77.038527}, {"fusion_lat": 0.0, "name": "f61665977603b9180c63077202278426", "is_disabled": 0, "rental_uris": {"android": "https://dc.lft.to/lastmile_qr_scan", "ios": "https://dc.lft.to/lastmile_qr_scan"}, "fusion_lon": 0.0, "lat": 38.905541666666664, "bike_id": "f61665977603b9180c63077202278426", "type": "electric_scooter", "is_reserved": 0, "lon": -77.00495516666666}, {"fusion_lat": 0.0, "name": "4ae046d33d6233c509c9cb52d28eed96", "is_disabled": 0, "rental_uris": {"android": "https://dc.lft.to/lastmile_qr_scan", "ios": "https://dc.lft.to/lastmile_qr_scan"}, "fusion_lon": 0.0, "lat": 38.902730166666665, "bike_id": "4ae046d33d6233c509c9cb52d28eed96", "type": "electric_scooter", "is_reserved": 0, "lon": -77.01864166666667}, {"fusion_lat": 0.0, "name": "fda02113b4d4d217da411e8deea46e3d", "is_disabled": 0, "rental_uris": {"android": "https://dc.lft.to/lastmile_qr_scan", "ios": "https://dc.lft.to/lastmile_qr_scan"}, "fusion_lon": 0.0, "lat": 38.824562666666665, "bike_id": "fda02113b4d4d217da411e8deea46e3d", "type": "electric_bike", "is_reserved": 0, "lon": -77.0079405}, {"fusion_lat": 0.0, "name": "bf4c4b487fe9abf435fa3c00c2f200ce", "is_disabled": 0, "rental_uris": {"android": "https://dc.lft.to/lastmile_qr_scan", "ios": "https://dc.lft.to/lastmile_qr_scan"}, "fusion_lon": 0.0, "lat": 38.8990385, "bike_id": "bf4c4b487fe9abf435fa3c00c2f200ce", "type": "electric_scooter", "is_reserved": 0, "lon": -76.94555}, {"fusion_lat": 0.0, "name": "664a5935428a514534fae0e9e5453e09", "is_disabled": 0, "rental_uris": {"android": "https://dc.lft.to/lastmile_qr_scan", "ios": "https://dc.lft.to/lastmile_qr_scan"}, "fusion_lon": 0.0, "lat": 38.923541166666666, "bike_id": "664a5935428a514534fae0e9e5453e09", "type": "electric_scooter", "is_reserved": 0, "lon": -77.043836}, {"fusion_lat": 0.0, "name": "6a8e371545e59bbf635a42dc97ce9058", "is_disabled": 0, "rental_uris": {"android": "https://dc.lft.to/lastmile_qr_scan", "ios": "https://dc.lft.to/lastmile_qr_scan"}, "fusion_lon": 0.0, "lat": 38.89225583333333, "bike_id": "6a8e371545e59bbf635a42dc97ce9058", "type": "electric_scooter", "is_reserved": 0, "lon": -77.04507133333334}, {"fusion_lat": 0.0, "name": "82f485d84e0302a4d9afb9fd212c4cfe", "is_disabled": 0, "rental_uris": {"android": "https://dc.lft.to/lastmile_qr_scan", "ios": "https://dc.lft.to/lastmile_qr_scan"}, "fusion_lon": 0.0, "lat": 38.8879525, "bike_id": "82f485d84e0302a4d9afb9fd212c4cfe", "type": "electric_bike", "is_reserved": 0, "lon": -76.92998333333334}, {"fusion_lat": 0.0, "name": "e635b339997401de67f400048c4ec3bc", "is_disabled": 0, "rental_uris": {"android": "https://dc.lft.to/lastmile_qr_scan", "ios": "https://dc.lft.to/lastmile_qr_scan"}, "fusion_lon": 0.0, "lat": 38.857034, "bike_id": "e635b339997401de67f400048c4ec3bc", "type": "electric_scooter", "is_reserved": 0, "lon": -76.99599583333334}, {"fusion_lat": 0.0, "name": "5548d24fcdfc19877905ba2d9affb8ac", "is_disabled": 0, "rental_uris": {"android": "https://dc.lft.to/lastmile_qr_scan", "ios": "https://dc.lft.to/lastmile_qr_scan"}, "fusion_lon": 0.0, "lat": 38.836069, "bike_id": "5548d24fcdfc19877905ba2d9affb8ac", "type": "electric_bike", "is_reserved": 0, "lon": -77.00381683333333}, {"fusion_lat": 0.0, "name": "2b08f8d993f520af2332349eaafe3f7d", "is_disabled": 0, "rental_uris": {"android": "https://dc.lft.to/lastmile_qr_scan", "ios": "https://dc.lft.to/lastmile_qr_scan"}, "fusion_lon": 0.0, "lat": 38.902956833333334, "bike_id": "2b08f8d993f520af2332349eaafe3f7d", "type": "electric_scooter", "is_reserved": 0, "lon": -77.01693966666667}, {"fusion_lat": 0.0, "name": "ef9f212e6edba5a6cc7f69e2fd1efd01", "is_disabled": 0, "rental_uris": {"android": "https://dc.lft.to/lastmile_qr_scan", "ios": "https://dc.lft.to/lastmile_qr_scan"}, "fusion_lon": 0.0, "lat": 38.913946, "bike_id": "ef9f212e6edba5a6cc7f69e2fd1efd01", "type": "electric_scooter", "is_reserved": 0, "lon": -77.0393195}, {"fusion_lat": 0.0, "name": "b36e905d93d05f0ec361c412b9a24afc", "is_disabled": 0, "rental_uris": {"android": "https://dc.lft.to/lastmile_qr_scan", "ios": "https://dc.lft.to/lastmile_qr_scan"}, "fusion_lon": 0.0, "lat": 38.90505683333333, "bike_id": "b36e905d93d05f0ec361c412b9a24afc", "type": "electric_scooter", "is_reserved": 0, "lon": -77.0296365}, {"fusion_lat": 0.0, "name": "b8d878991d7d40fded87c16d90da9cf2", "is_disabled": 0, "rental_uris": {"android": "https://dc.lft.to/lastmile_qr_scan", "ios": "https://dc.lft.to/lastmile_qr_scan"}, "fusion_lon": 0.0, "lat": 38.92521433333334, "bike_id": "b8d878991d7d40fded87c16d90da9cf2", "type": "electric_scooter", "is_reserved": 0, "lon": -77.0238745}, {"fusion_lat": 0.0, "name": "aadf326e594fa63412169b5a3c8de70c", "is_disabled": 0, "rental_uris": {"android": "https://dc.lft.to/lastmile_qr_scan", "ios": "https://dc.lft.to/lastmile_qr_scan"}, "fusion_lon": 0.0, "lat": 38.90789566666667, "bike_id": "aadf326e594fa63412169b5a3c8de70c", "type": "electric_scooter", "is_reserved": 0, "lon": -77.04332733333334}, {"fusion_lat": 0.0, "name": "b90d09f1a29650425da27540cda80cb9", "is_disabled": 0, "rental_uris": {"android": "https://dc.lft.to/lastmile_qr_scan", "ios": "https://dc.lft.to/lastmile_qr_scan"}, "fusion_lon": 0.0, "lat": 38.9140775, "bike_id": "b90d09f1a29650425da27540cda80cb9", "type": "electric_scooter", "is_reserved": 0, "lon": -77.02737866666666}, {"fusion_lat": 0.0, "name": "42100ff1d7eb7e35e1ee6df6f8ff812e", "is_disabled": 0, "rental_uris": {"android": "https://dc.lft.to/lastmile_qr_scan", "ios": "https://dc.lft.to/lastmile_qr_scan"}, "fusion_lon": 0.0, "lat": 38.89540316666667, "bike_id": "42100ff1d7eb7e35e1ee6df6f8ff812e", "type": "electric_scooter", "is_reserved": 0, "lon": -77.01079933333334}, {"fusion_lat": 0.0, "name": "f5e64182d18cfe04686abba2d10f3785", "is_disabled": 0, "rental_uris": {"android": "https://dc.lft.to/lastmile_qr_scan", "ios": "https://dc.lft.to/lastmile_qr_scan"}, "fusion_lon": 0.0, "lat": 38.8435395, "bike_id": "f5e64182d18cfe04686abba2d10f3785", "type": "electric_bike", "is_reserved": 0, "lon": -76.97823766666667}, {"fusion_lat": 0.0, "name": "5769c5d929feb3cc059a65ead09651a4", "is_disabled": 0, "rental_uris": {"android": "https://dc.lft.to/lastmile_qr_scan", "ios": "https://dc.lft.to/lastmile_qr_scan"}, "fusion_lon": 0.0, "lat": 38.94117383333333, "bike_id": "5769c5d929feb3cc059a65ead09651a4", "type": "electric_scooter", "is_reserved": 0, "lon": -77.02559733333334}, {"fusion_lat": 0.0, "name": "990c4f5175a90f9de3e5799b47386730", "is_disabled": 0, "rental_uris": {"android": "https://dc.lft.to/lastmile_qr_scan", "ios": "https://dc.lft.to/lastmile_qr_scan"}, "fusion_lon": 0.0, "lat": 38.883623166666666, "bike_id": "990c4f5175a90f9de3e5799b47386730", "type": "electric_scooter", "is_reserved": 0, "lon": -76.941613}, {"fusion_lat": 0.0, "name": "8fa96c92ae8490f5714586085a95e693", "is_disabled": 0, "rental_uris": {"android": "https://dc.lft.to/lastmile_qr_scan", "ios": "https://dc.lft.to/lastmile_qr_scan"}, "fusion_lon": 0.0, "lat": 38.9622745, "bike_id": "8fa96c92ae8490f5714586085a95e693", "type": "electric_bike", "is_reserved": 0, "lon": -77.02628883333334}, {"fusion_lat": 0.0, "name": "eae137e1e188019f2d237bae26d4e9c0", "is_disabled": 0, "rental_uris": {"android": "https://dc.lft.to/lastmile_qr_scan", "ios": "https://dc.lft.to/lastmile_qr_scan"}, "fusion_lon": 0.0, "lat": 38.876954833333336, "bike_id": "eae137e1e188019f2d237bae26d4e9c0", "type": "electric_scooter", "is_reserved": 0, "lon": -77.003246}, {"fusion_lat": 0.0, "name": "d10c1d7b0443cde6ecf8ab88ffce0ad6", "is_disabled": 0, "rental_uris": {"android": "https://dc.lft.to/lastmile_qr_scan", "ios": "https://dc.lft.to/lastmile_qr_scan"}, "fusion_lon": 0.0, "lat": 38.91262016666667, "bike_id": "d10c1d7b0443cde6ecf8ab88ffce0ad6", "type": "electric_scooter", "is_reserved": 0, "lon": -77.02258183333333}, {"fusion_lat": 0.0, "name": "b49f20b3d4802fe5e2402b007c9e996a", "is_disabled": 0, "rental_uris": {"android": "https://dc.lft.to/lastmile_qr_scan", "ios": "https://dc.lft.to/lastmile_qr_scan"}, "fusion_lon": 0.0, "lat": 38.92882766666666, "bike_id": "b49f20b3d4802fe5e2402b007c9e996a", "type": "electric_scooter", "is_reserved": 0, "lon": -77.04217333333334}, {"fusion_lat": 0.0, "name": "6b95a886829a29549052f0f29600acf2", "is_disabled": 0, "rental_uris": {"android": "https://dc.lft.to/lastmile_qr_scan", "ios": "https://dc.lft.to/lastmile_qr_scan"}, "fusion_lon": 0.0, "lat": 38.919676333333335, "bike_id": "6b95a886829a29549052f0f29600acf2", "type": "electric_scooter", "is_reserved": 0, "lon": -77.02391116666666}, {"fusion_lat": 0.0, "name": "f0ebf7aa922ec3c1fa33af869b807130", "is_disabled": 0, "rental_uris": {"android": "https://dc.lft.to/lastmile_qr_scan", "ios": "https://dc.lft.to/lastmile_qr_scan"}, "fusion_lon": 0.0, "lat": 38.925433166666664, "bike_id": "f0ebf7aa922ec3c1fa33af869b807130", "type": "electric_scooter", "is_reserved": 0, "lon": -77.05120483333333}, {"fusion_lat": 0.0, "name": "69daf0333c35732e178add1f57d3dfc1", "is_disabled": 0, "rental_uris": {"android": "https://dc.lft.to/lastmile_qr_scan", "ios": "https://dc.lft.to/lastmile_qr_scan"}, "fusion_lon": 0.0, "lat": 38.9250725, "bike_id": "69daf0333c35732e178add1f57d3dfc1", "type": "electric_scooter", "is_reserved": 0, "lon": -77.02327733333334}, {"fusion_lat": 0.0, "name": "8474e8f5c6fcf5aaa9104906ddc8ca69", "is_disabled": 0, "rental_uris": {"android": "https://dc.lft.to/lastmile_qr_scan", "ios": "https://dc.lft.to/lastmile_qr_scan"}, "fusion_lon": 0.0, "lat": 38.936035, "bike_id": "8474e8f5c6fcf5aaa9104906ddc8ca69", "type": "electric_scooter", "is_reserved": 0, "lon": -77.058885}, {"fusion_lat": 0.0, "name": "5c0579b642f301179caf9e81d3929701", "is_disabled": 0, "rental_uris": {"android": "https://dc.lft.to/lastmile_qr_scan", "ios": "https://dc.lft.to/lastmile_qr_scan"}, "fusion_lon": 0.0, "lat": 38.94615966666667, "bike_id": "5c0579b642f301179caf9e81d3929701", "type": "electric_scooter", "is_reserved": 0, "lon": -77.08019133333333}, {"fusion_lat": 0.0, "name": "2960e77c7246f1df70c0ec24f1145db1", "is_disabled": 0, "rental_uris": {"android": "https://dc.lft.to/lastmile_qr_scan", "ios": "https://dc.lft.to/lastmile_qr_scan"}, "fusion_lon": 0.0, "lat": 38.91257366666667, "bike_id": "2960e77c7246f1df70c0ec24f1145db1", "type": "electric_scooter", "is_reserved": 0, "lon": -77.03870933333333}, {"fusion_lat": 0.0, "name": "4bf047e86d3556b0d2574f307b496fbe", "is_disabled": 0, "rental_uris": {"android": "https://dc.lft.to/lastmile_qr_scan", "ios": "https://dc.lft.to/lastmile_qr_scan"}, "fusion_lon": 0.0, "lat": 38.92781766666667, "bike_id": "4bf047e86d3556b0d2574f307b496fbe", "type": "electric_scooter", "is_reserved": 0, "lon": -77.031502}, {"fusion_lat": 0.0, "name": "017e5e9e1604b338e5a3c1ffd08b0152", "is_disabled": 0, "rental_uris": {"android": "https://dc.lft.to/lastmile_qr_scan", "ios": "https://dc.lft.to/lastmile_qr_scan"}, "fusion_lon": 0.0, "lat": 38.933624, "bike_id": "017e5e9e1604b338e5a3c1ffd08b0152", "type": "electric_scooter", "is_reserved": 0, "lon": -77.02429233333334}, {"fusion_lat": 0.0, "name": "07376f3c8063ca9a50921ccc2e1cee5f", "is_disabled": 0, "rental_uris": {"android": "https://dc.lft.to/lastmile_qr_scan", "ios": "https://dc.lft.to/lastmile_qr_scan"}, "fusion_lon": 0.0, "lat": 38.89223483333333, "bike_id": "07376f3c8063ca9a50921ccc2e1cee5f", "type": "electric_scooter", "is_reserved": 0, "lon": -77.04686416666667}, {"fusion_lat": 0.0, "name": "b6b387f6801f0dd3e0085ff78913f999", "is_disabled": 0, "rental_uris": {"android": "https://dc.lft.to/lastmile_qr_scan", "ios": "https://dc.lft.to/lastmile_qr_scan"}, "fusion_lon": 0.0, "lat": 38.88993633333333, "bike_id": "b6b387f6801f0dd3e0085ff78913f999", "type": "electric_scooter", "is_reserved": 0, "lon": -76.98230166666667}, {"fusion_lat": 0.0, "name": "286925cec446cf8c335c6a4f4be50d7a", "is_disabled": 0, "rental_uris": {"android": "https://dc.lft.to/lastmile_qr_scan", "ios": "https://dc.lft.to/lastmile_qr_scan"}, "fusion_lon": 0.0, "lat": 38.915643333333335, "bike_id": "286925cec446cf8c335c6a4f4be50d7a", "type": "electric_scooter", "is_reserved": 0, "lon": -77.04159016666667}, {"fusion_lat": 0.0, "name": "742f3dfba1b427f22d31883617c6e4ba", "is_disabled": 0, "rental_uris": {"android": "https://dc.lft.to/lastmile_qr_scan", "ios": "https://dc.lft.to/lastmile_qr_scan"}, "fusion_lon": 0.0, "lat": 38.9170115, "bike_id": "742f3dfba1b427f22d31883617c6e4ba", "type": "electric_scooter", "is_reserved": 0, "lon": -77.03216933333333}, {"fusion_lat": 0.0, "name": "1c40d7c7b659f538ff1a1b571dbcd369", "is_disabled": 0, "rental_uris": {"android": "https://dc.lft.to/lastmile_qr_scan", "ios": "https://dc.lft.to/lastmile_qr_scan"}, "fusion_lon": 0.0, "lat": 38.938979333333336, "bike_id": "1c40d7c7b659f538ff1a1b571dbcd369", "type": "electric_scooter", "is_reserved": 0, "lon": -77.03334966666667}, {"fusion_lat": 0.0, "name": "a6665845da5ebc962b8ce53f7acfc463", "is_disabled": 0, "rental_uris": {"android": "https://dc.lft.to/lastmile_qr_scan", "ios": "https://dc.lft.to/lastmile_qr_scan"}, "fusion_lon": 0.0, "lat": 38.90734416666667, "bike_id": "a6665845da5ebc962b8ce53f7acfc463", "type": "electric_scooter", "is_reserved": 0, "lon": -77.03448116666667}, {"fusion_lat": 0.0, "name": "339ae3fe47e8ab77e0ba0d9e2315d4b2", "is_disabled": 0, "rental_uris": {"android": "https://dc.lft.to/lastmile_qr_scan", "ios": "https://dc.lft.to/lastmile_qr_scan"}, "fusion_lon": 0.0, "lat": 38.902299166666666, "bike_id": "339ae3fe47e8ab77e0ba0d9e2315d4b2", "type": "electric_scooter", "is_reserved": 0, "lon": -77.0260825}, {"fusion_lat": 0.0, "name": "24ed6939b5b54c36b2d33d2a8577daed", "is_disabled": 0, "rental_uris": {"android": "https://dc.lft.to/lastmile_qr_scan", "ios": "https://dc.lft.to/lastmile_qr_scan"}, "fusion_lon": 0.0, "lat": 38.97123366666667, "bike_id": "24ed6939b5b54c36b2d33d2a8577daed", "type": "electric_bike", "is_reserved": 0, "lon": -77.02091816666666}, {"fusion_lat": 0.0, "name": "7320c80c19f28039c2b12ecceeabc888", "is_disabled": 0, "rental_uris": {"android": "https://dc.lft.to/lastmile_qr_scan", "ios": "https://dc.lft.to/lastmile_qr_scan"}, "fusion_lon": 0.0, "lat": 38.93530616666666, "bike_id": "7320c80c19f28039c2b12ecceeabc888", "type": "electric_scooter", "is_reserved": 0, "lon": -77.04519083333334}, {"fusion_lat": 0.0, "name": "7bd260aff6cc464a08cb66f8fc08c7c2", "is_disabled": 0, "rental_uris": {"android": "https://dc.lft.to/lastmile_qr_scan", "ios": "https://dc.lft.to/lastmile_qr_scan"}, "fusion_lon": 0.0, "lat": 38.935319666666665, "bike_id": "7bd260aff6cc464a08cb66f8fc08c7c2", "type": "electric_scooter", "is_reserved": 0, "lon": -77.023571}, {"fusion_lat": 0.0, "name": "43298d37a475a8efd866986d3b897d64", "is_disabled": 0, "rental_uris": {"android": "https://dc.lft.to/lastmile_qr_scan", "ios": "https://dc.lft.to/lastmile_qr_scan"}, "fusion_lon": 0.0, "lat": 38.923174333333336, "bike_id": "43298d37a475a8efd866986d3b897d64", "type": "electric_scooter", "is_reserved": 0, "lon": -77.02800883333333}, {"fusion_lat": 0.0, "name": "1444f732b01a4e8821d863ce0268b653", "is_disabled": 0, "rental_uris": {"android": "https://dc.lft.to/lastmile_qr_scan", "ios": "https://dc.lft.to/lastmile_qr_scan"}, "fusion_lon": 0.0, "lat": 38.93378716666667, "bike_id": "1444f732b01a4e8821d863ce0268b653", "type": "electric_scooter", "is_reserved": 0, "lon": -77.02426516666667}, {"fusion_lat": 0.0, "name": "583a41384b568f278cbd300290201313", "is_disabled": 0, "rental_uris": {"android": "https://dc.lft.to/lastmile_qr_scan", "ios": "https://dc.lft.to/lastmile_qr_scan"}, "fusion_lon": 0.0, "lat": 38.899021166666664, "bike_id": "583a41384b568f278cbd300290201313", "type": "electric_scooter", "is_reserved": 0, "lon": -77.015024}, {"fusion_lat": 0.0, "name": "a98c5f995319c720d8c9ed10d1f97737", "is_disabled": 0, "rental_uris": {"android": "https://dc.lft.to/lastmile_qr_scan", "ios": "https://dc.lft.to/lastmile_qr_scan"}, "fusion_lon": 0.0, "lat": 38.908454166666665, "bike_id": "a98c5f995319c720d8c9ed10d1f97737", "type": "electric_scooter", "is_reserved": 0, "lon": -77.047372}, {"fusion_lat": 0.0, "name": "abe46688dc1ae67e1e254da8a1107afa", "is_disabled": 0, "rental_uris": {"android": "https://dc.lft.to/lastmile_qr_scan", "ios": "https://dc.lft.to/lastmile_qr_scan"}, "fusion_lon": 0.0, "lat": 38.90711733333333, "bike_id": "abe46688dc1ae67e1e254da8a1107afa", "type": "electric_scooter", "is_reserved": 0, "lon": -77.05047266666666}, {"fusion_lat": 0.0, "name": "8d5e6358b3f15c9257ae45badc37072c", "is_disabled": 0, "rental_uris": {"android": "https://dc.lft.to/lastmile_qr_scan", "ios": "https://dc.lft.to/lastmile_qr_scan"}, "fusion_lon": 0.0, "lat": 38.806870333333336, "bike_id": "8d5e6358b3f15c9257ae45badc37072c", "type": "electric_bike", "is_reserved": 0, "lon": -77.06919933333333}, {"fusion_lat": 0.0, "name": "bb27be9d79b89d8b7897820e384c7e0d", "is_disabled": 0, "rental_uris": {"android": "https://dc.lft.to/lastmile_qr_scan", "ios": "https://dc.lft.to/lastmile_qr_scan"}, "fusion_lon": 0.0, "lat": 38.92457616666667, "bike_id": "bb27be9d79b89d8b7897820e384c7e0d", "type": "electric_scooter", "is_reserved": 0, "lon": -76.99911916666667}, {"fusion_lat": 0.0, "name": "4352003153e5c1536db3287adde79d05", "is_disabled": 0, "rental_uris": {"android": "https://dc.lft.to/lastmile_qr_scan", "ios": "https://dc.lft.to/lastmile_qr_scan"}, "fusion_lon": 0.0, "lat": 38.907127, "bike_id": "4352003153e5c1536db3287adde79d05", "type": "electric_scooter", "is_reserved": 0, "lon": -77.04357066666667}, {"fusion_lat": 0.0, "name": "f47ad318beddc3323a3fff3902b4b0d5", "is_disabled": 0, "rental_uris": {"android": "https://dc.lft.to/lastmile_qr_scan", "ios": "https://dc.lft.to/lastmile_qr_scan"}, "fusion_lon": 0.0, "lat": 38.892183833333334, "bike_id": "f47ad318beddc3323a3fff3902b4b0d5", "type": "electric_scooter", "is_reserved": 0, "lon": -77.02366566666667}, {"fusion_lat": 0.0, "name": "748677d07d06f8c11ab6c87af394ace2", "is_disabled": 0, "rental_uris": {"android": "https://dc.lft.to/lastmile_qr_scan", "ios": "https://dc.lft.to/lastmile_qr_scan"}, "fusion_lon": 0.0, "lat": 38.896078, "bike_id": "748677d07d06f8c11ab6c87af394ace2", "type": "electric_scooter", "is_reserved": 0, "lon": -77.00930266666667}, {"fusion_lat": 0.0, "name": "bc97d413d7e1c2ab9a3c5e72656a9e27", "is_disabled": 0, "rental_uris": {"android": "https://dc.lft.to/lastmile_qr_scan", "ios": "https://dc.lft.to/lastmile_qr_scan"}, "fusion_lon": 0.0, "lat": 38.9181095, "bike_id": "bc97d413d7e1c2ab9a3c5e72656a9e27", "type": "electric_scooter", "is_reserved": 0, "lon": -77.003798}, {"fusion_lat": 0.0, "name": "0ed0c9ce4fac3acd21951bf6efd9a86c", "is_disabled": 0, "rental_uris": {"android": "https://dc.lft.to/lastmile_qr_scan", "ios": "https://dc.lft.to/lastmile_qr_scan"}, "fusion_lon": 0.0, "lat": 38.92870766666667, "bike_id": "0ed0c9ce4fac3acd21951bf6efd9a86c", "type": "electric_scooter", "is_reserved": 0, "lon": -77.05657466666666}, {"fusion_lat": 0.0, "name": "e3b4d7dab75b16a7ecaf1291806a25ad", "is_disabled": 0, "rental_uris": {"android": "https://dc.lft.to/lastmile_qr_scan", "ios": "https://dc.lft.to/lastmile_qr_scan"}, "fusion_lon": 0.0, "lat": 38.9140175, "bike_id": "e3b4d7dab75b16a7ecaf1291806a25ad", "type": "electric_scooter", "is_reserved": 0, "lon": -77.03222683333334}, {"fusion_lat": 0.0, "name": "e217d4dcaea4f4bef9e5537f973d8fde", "is_disabled": 0, "rental_uris": {"android": "https://dc.lft.to/lastmile_qr_scan", "ios": "https://dc.lft.to/lastmile_qr_scan"}, "fusion_lon": 0.0, "lat": 38.89718116666667, "bike_id": "e217d4dcaea4f4bef9e5537f973d8fde", "type": "electric_scooter", "is_reserved": 0, "lon": -77.019593}, {"fusion_lat": 0.0, "name": "930df8da9bb67dc30fc1924c85440369", "is_disabled": 0, "rental_uris": {"android": "https://dc.lft.to/lastmile_qr_scan", "ios": "https://dc.lft.to/lastmile_qr_scan"}, "fusion_lon": 0.0, "lat": 38.88451416666667, "bike_id": "930df8da9bb67dc30fc1924c85440369", "type": "electric_scooter", "is_reserved": 0, "lon": -76.993919}, {"fusion_lat": 0.0, "name": "5c268682c6910a38b1f0287394515d36", "is_disabled": 0, "rental_uris": {"android": "https://dc.lft.to/lastmile_qr_scan", "ios": "https://dc.lft.to/lastmile_qr_scan"}, "fusion_lon": 0.0, "lat": 38.911202833333334, "bike_id": "5c268682c6910a38b1f0287394515d36", "type": "electric_scooter", "is_reserved": 0, "lon": -77.02081133333333},