{"data": {"bikes": [{"fusion_lat": 0.0, "name": "aa5d229c91198bb89fc5b9425341ad52", "is_disabled": 0, "rental_uris": {"android": "https://dc.lft.to/lastmile_qr_scan", "ios": "https://dc.lft.to/lastmile_qr_scan"}, "fusion_lon": 0.0, "lat": 38.932477166666665, "bike_id": "aa5d229c91198bb89fc5b9425341ad52", "type": "electric_scooter", "is_reserved": 0, "lon": -77.03424583333333}, {"fusion_lat": 0.0, "name": "8c7df9451ca0d76a7f0ed6258d85866c", "is_disabled": 0, "rental_uris": {"android": "https://dc.lft.to/lastmile_qr_scan", "ios": "https://dc.lft.to/lastmile_qr_scan"}, "fusion_lon": 0.0, "lat": 38.91711, "bike_id": "8c7df9451ca0d76a7f0ed6258d85866c", "type": "electric_scooter", "is_reserved": 0, "lon": -77.04148266666667}, {"fusion_lat": 0.0, "name": "f3253ef84bbebebd8c8ac1e0c9eb84a9", "is_disabled": 0, "rental_uris": {"android": "https://dc.lft.to/lastmile_qr_scan", "ios": "https://dc.lft.to/lastmile_qr_scan"}, "fusion_lon": 0.0, "lat": 38.893424, "bike_id": "f3253ef84bbebebd8c8ac1e0c9eb84a9", "type": "electric_scooter", "is_reserved": 0, "lon": -77.04679066666667}, {"fusion_lat": 0.0, "name": "954c31cf6b8e44a0670e4c237457bdce", "is_disabled": 0, "rental_uris": {"android": "https://dc.lft.to/lastmile_qr_scan", "ios": "https://dc.lft.to/lastmile_qr_scan"}, "fusion_lon": 0.0, "lat": 38.898602, "bike_id": "954c31cf6b8e44a0670e4c237457bdce", "type": "electric_scooter", "is_reserved": 0, "lon": -76.97660883333333}, {"fusion_lat": 0.0, "name": "0cf7c9be3d366ac7e375f62e91f02a7e", "is_disabled": 0, "rental_uris": {"android": "https://dc.lft.to/lastmile_qr_scan", "ios": "https://dc.lft.to/lastmile_qr_scan"}, "fusion_lon": 0.0, "lat": 38.897409833333334, "bike_id": "0cf7c9be3d366ac7e375f62e91f02a7e", "type": "electric_scooter", "is_reserved": 0, "lon": -77.04957883333333}, {"fusion_lat": 0.0, "name": "27dd260a71fbed7c534adc4b442e6d40", "is_disabled": 0, "rental_uris": {"android": "https://dc.lft.to/lastmile_qr_scan", "ios": "https://dc.lft.to/lastmile_qr_scan"}, "fusion_lon": 0.0, "lat": 38.947599333333336, "bike_id": "27dd260a71fbed7c534adc4b442e6d40", "type": "electric_scooter", "is_reserved": 0, "lon": -77.0071965}, {"fusion_lat": 0.0, "name": "6c063b59a010707dc8bd2fc29c827961", "is_disabled": 0, "rental_uris": {"android": "https://dc.lft.to/lastmile_qr_scan", "ios": "https://dc.lft.to/lastmile_qr_scan"}, "fusion_lon": 0.0, "lat": 38.8819805, "bike_id": "6c063b59a010707dc8bd2fc29c827961", "type": "electric_scooter", "is_reserved": 0, "lon": -77.02860866666667}, {"fusion_lat": 0.0, "name": "26964e89e4ffee588f260920dcdeed3d", "is_disabled": 0, "rental_uris": {"android": "https://dc.lft.to/lastmile_qr_scan", "ios": "https://dc.lft.to/lastmile_qr_scan"}, "fusion_lon": 0.0, "lat": 38.8923135, "bike_id": "26964e89e4ffee588f260920dcdeed3d", "type": "electric_scooter", "is_reserved": 0, "lon": -77.0500505}, {"fusion_lat": 0.0, "name": "51bdda4a425394542a651835c654ea7d", "is_disabled": 0, "rental_uris": {"android": "https://dc.lft.to/lastmile_qr_scan", "ios": "https://dc.lft.to/lastmile_qr_scan"}, "fusion_lon": 0.0, "lat": 38.890926, "bike_id": "51bdda4a425394542a651835c654ea7d", "type": "electric_scooter", "is_reserved": 0, "lon": -76.91928916666667}, {"fusion_lat": 0.0, "name": "a67b07cfa0ef04eb975682ad8715cd36", "is_disabled": 0, "rental_uris": {"android": "https://dc.lft.to/lastmile_qr_scan", "ios": "https://dc.lft.to/lastmile_qr_scan"}, "fusion_lon": 0.0, "lat": 38.7985965, "bike_id": "a67b07cfa0ef04eb975682ad8715cd36", "type": "electric_bike", "is_reserved": 0, "lon": -77.06306033333334}, {"fusion_lat": 0.0, "name": "a89ff33c091e7749f497678b1db0967d", "is_disabled": 0, "rental_uris": {"android": "https://dc.lft.to/lastmile_qr_scan", "ios": "https://dc.lft.to/lastmile_qr_scan"}, "fusion_lon": 0.0, "lat": 38.92474216666667, "bike_id": "a89ff33c091e7749f497678b1db0967d", "type": "electric_scooter", "is_reserved": 0, "lon": -77.03856783333333}, {"fusion_lat": 0.0, "name": "7b1310644c7242aa9331081982e82199", "is_disabled": 0, "rental_uris": {"android": "https://dc.lft.to/lastmile_qr_scan", "ios": "https://dc.lft.to/lastmile_qr_scan"}, "fusion_lon": 0.0, "lat": 38.926181, "bike_id": "7b1310644c7242aa9331081982e82199", "type": "electric_scooter", "is_reserved": 0, "lon": -77.0216275}, {"fusion_lat": 0.0, "name": "218ebb734d859f071b40813bf5799dca", "is_disabled": 0, "rental_uris": {"android": "https://dc.lft.to/lastmile_qr_scan", "ios": "https://dc.lft.to/lastmile_qr_scan"}, "fusion_lon": 0.0, "lat": 38.8923855, "bike_id": "218ebb734d859f071b40813bf5799dca", "type": "electric_scooter", "is_reserved": 0, "lon": -77.0258775}, {"fusion_lat": 0.0, "name": "7bd10cf50587faf512ebf8f21e19140a", "is_disabled": 0, "rental_uris": {"android": "https://dc.lft.to/lastmile_qr_scan", "ios": "https://dc.lft.to/lastmile_qr_scan"}, "fusion_lon": 0.0, "lat": 38.898789666666666, "bike_id": "7bd10cf50587faf512ebf8f21e19140a", "type": "electric_scooter", "is_reserved": 0, "lon": -76.93184383333333}, {"fusion_lat": 0.0, "name": "f5538554d5b82a0bb92116e7ba443e2e", "is_disabled": 0, "rental_uris": {"android": "https://dc.lft.to/lastmile_qr_scan", "ios": "https://dc.lft.to/lastmile_qr_scan"}, "fusion_lon": 0.0, "lat": 38.88616483333333, "bike_id": "f5538554d5b82a0bb92116e7ba443e2e", "type": "electric_scooter", "is_reserved": 0, "lon": -77.01555016666667}, {"fusion_lat": 0.0, "name": "c02adb231ec87f2d4bba365be80cd1c7", "is_disabled": 0, "rental_uris": {"android": "https://dc.lft.to/lastmile_qr_scan", "ios": "https://dc.lft.to/lastmile_qr_scan"}, "fusion_lon": 0.0, "lat": 38.904461, "bike_id": "c02adb231ec87f2d4bba365be80cd1c7", "type": "electric_scooter", "is_reserved": 0, "lon": -77.0176535}, {"fusion_lat": 0.0, "name": "fc21b540debde216ee4af19613cd2e93", "is_disabled": 0, "rental_uris": {"android": "https://dc.lft.to/lastmile_qr_scan", "ios": "https://dc.lft.to/lastmile_qr_scan"}, "fusion_lon": 0.0, "lat": 38.917188333333335, "bike_id": "fc21b540debde216ee4af19613cd2e93", "type": "electric_scooter", "is_reserved": 0, "lon": -77.03668783333333}, {"fusion_lat": 0.0, "name": "37fd1ec9c7c18caa1bfe0d428ac3af32", "is_disabled": 0, "rental_uris": {"android": "https://dc.lft.to/lastmile_qr_scan", "ios": "https://dc.lft.to/lastmile_qr_scan"}, "fusion_lon": 0.0, "lat": 38.923926333333334, "bike_id": "37fd1ec9c7c18caa1bfe0d428ac3af32", "type": "electric_scooter", "is_reserved": 0, "lon": -77.02489416666667}, {"fusion_lat": 0.0, "name": "886dd8d7618028285a73562821038b0b", "is_disabled": 0, "rental_uris": {"android": "https://dc.lft.to/lastmile_qr_scan", "ios": "https://dc.lft.to/lastmile_qr_scan"}, "fusion_lon": 0.0, "lat": 38.8961265, "bike_id": "886dd8d7618028285a73562821038b0b", "type": "electric_scooter", "is_reserved": 0, "lon": -77.00925666666667}, {"fusion_lat": 0.0, "name": "874a690b76e6a4db67ae8fcc00f79a69", "is_disabled": 0, "rental_uris": {"android": "https://dc.lft.to/lastmile_qr_scan", "ios": "https://dc.lft.to/lastmile_qr_scan"}, "fusion_lon": 0.0, "lat": 38.877137, "bike_id": "874a690b76e6a4db67ae8fcc00f79a69", "type": "electric_scooter", "is_reserved": 0, "lon": -76.99385683333334}, {"fusion_lat": 0.0, "name": "19be934ae1367d46917e1a231eb96700", "is_disabled": 0, "rental_uris": {"android": "https://dc.lft.to/lastmile_qr_scan", "ios": "https://dc.lft.to/lastmile_qr_scan"}, "fusion_lon": 0.0, "lat": 38.927767, "bike_id": "19be934ae1367d46917e1a231eb96700", "type": "electric_scooter", "is_reserved": 0, "lon": -77.05284633333333}, {"fusion_lat": 0.0, "name": "ea4965704ffbabcde71087fccb1ef9f9", "is_disabled": 0, "rental_uris": {"android": "https://dc.lft.to/lastmile_qr_scan", "ios": "https://dc.lft.to/lastmile_qr_scan"}, "fusion_lon": 0.0, "lat": 38.9169965, "bike_id": "ea4965704ffbabcde71087fccb1ef9f9", "type": "electric_scooter", "is_reserved": 0, "lon": -77.04216383333333}, {"fusion_lat": 0.0, "name": "782a2a1041df997b2a81634c270d6374", "is_disabled": 0, "rental_uris": {"android": "https://dc.lft.to/lastmile_qr_scan", "ios": "https://dc.lft.to/lastmile_qr_scan"}, "fusion_lon": 0.0, "lat": 38.917350666666664, "bike_id": "782a2a1041df997b2a81634c270d6374", "type": "electric_scooter", "is_reserved": 0, "lon": -77.041689}, {"fusion_lat": 0.0, "name": "cd091255a72576af7f02a0ac85f0369a", "is_disabled": 0, "rental_uris": {"android": "https://dc.lft.to/lastmile_qr_scan", "ios": "https://dc.lft.to/lastmile_qr_scan"}, "fusion_lon": 0.0, "lat": 38.917474, "bike_id": "cd091255a72576af7f02a0ac85f0369a", "type": "electric_scooter", "is_reserved": 0, "lon": -77.0229}, {"fusion_lat": 0.0, "name": "6a83ecd64d626a7826cf9603ce6a4246", "is_disabled": 0, "rental_uris": {"android": "https://dc.lft.to/lastmile_qr_scan", "ios": "https://dc.lft.to/lastmile_qr_scan"}, "fusion_lon": 0.0, "lat": 38.916261666666664, "bike_id": "6a83ecd64d626a7826cf9603ce6a4246", "type": "electric_scooter", "is_reserved": 0, "lon": -77.03176166666667}, {"fusion_lat": 0.0, "name": "8070a5c6fdafc66c06d75c2dac93b716", "is_disabled": 0, "rental_uris": {"android": "https://dc.lft.to/lastmile_qr_scan", "ios": "https://dc.lft.to/lastmile_qr_scan"}, "fusion_lon": 0.0, "lat": 38.94834516666667, "bike_id": "8070a5c6fdafc66c06d75c2dac93b716", "type": "electric_scooter", "is_reserved": 0, "lon": -77.0800145}, {"fusion_lat": 0.0, "name": "0b6116d1bc8a22a0e80c77a4c1a8415f", "is_disabled": 0, "rental_uris": {"android": "https://dc.lft.to/lastmile_qr_scan", "ios": "https://dc.lft.to/lastmile_qr_scan"}, "fusion_lon": 0.0, "lat": 38.92676766666666, "bike_id": "0b6116d1bc8a22a0e80c77a4c1a8415f", "type": "electric_scooter", "is_reserved": 0, "lon": -77.03636566666667}, {"fusion_lat": 0.0, "name": "6c98082811d2dc5720d8762a502fddbf", "is_disabled": 0, "rental_uris": {"android": "https://dc.lft.to/lastmile_qr_scan", "ios": "https://dc.lft.to/lastmile_qr_scan"}, "fusion_lon": 0.0, "lat": 38.94624783333333, "bike_id": "6c98082811d2dc5720d8762a502fddbf", "type": "electric_scooter", "is_reserved": 0, "lon": -77.08023}, {"fusion_lat": 0.0, "name": "1c0dac514f043114b5c3944101068250", "is_disabled": 0, "rental_uris": {"android": "https://dc.lft.to/lastmile_qr_scan", "ios": "https://dc.lft.to/lastmile_qr_scan"}, "fusion_lon": 0.0, "lat": 38.922695166666664, "bike_id": "1c0dac514f043114b5c3944101068250", "type": "electric_scooter", "is_reserved": 0, "lon": -77.02976783333334}, {"fusion_lat": 0.0, "name": "be4547eaf23570c9fccb688bb3b2498c", "is_disabled": 0, "rental_uris": {"android": "https://dc.lft.to/lastmile_qr_scan", "ios": "https://dc.lft.to/lastmile_qr_scan"}, "fusion_lon": 0.0, "lat": 38.87495116666667, "bike_id": "be4547eaf23570c9fccb688bb3b2498c", "type": "electric_bike", "is_reserved": 0, "lon": -77.21122016666666}, {"fusion_lat": 0.0, "name": "1d109f8977e9592b1792578d67f00b53", "is_disabled": 0, "rental_uris": {"android": "https://dc.lft.to/lastmile_qr_scan", "ios": "https://dc.lft.to/lastmile_qr_scan"}, "fusion_lon": 0.0, "lat": 38.89004716666667, "bike_id": "1d109f8977e9592b1792578d67f00b53", "type": "electric_scooter", "is_reserved": 0, "lon": -76.9374095}, {"fusion_lat": 0.0, "name": "fdf3e5ddf5c7fd9e7ccd323e5e24557f", "is_disabled": 0, "rental_uris": {"android": "https://dc.lft.to/lastmile_qr_scan", "ios": "https://dc.lft.to/lastmile_qr_scan"}, "fusion_lon": 0.0, "lat": 38.896911333333335, "bike_id": "fdf3e5ddf5c7fd9e7ccd323e5e24557f", "type": "electric_scooter", "is_reserved": 0, "lon": -77.04344883333333}, {"fusion_lat": 0.0, "name": "c63d23bb4cdfa9ef535f856fc544e3c2", "is_disabled": 0, "rental_uris": {"android": "https://dc.lft.to/lastmile_qr_scan", "ios": "https://dc.lft.to/lastmile_qr_scan"}, "fusion_lon": 0.0, "lat": 38.91789333333333, "bike_id": "c63d23bb4cdfa9ef535f856fc544e3c2", "type": "electric_scooter", "is_reserved": 0, "lon": -77.0319485}, {"fusion_lat": 0.0, "name": "78ec5273f90e3caa79389a8eb7420a73", "is_disabled": 0, "rental_uris": {"android": "https://dc.lft.to/lastmile_qr_scan", "ios": "https://dc.lft.to/lastmile_qr_scan"}, "fusion_lon": 0.0, "lat": 38.961910333333336, "bike_id": "78ec5273f90e3caa79389a8eb7420a73", "type": "electric_bike", "is_reserved": 0, "lon": -77.05270033333333}, {"fusion_lat": 0.0, "name": "2adf61bbe7d4978ab648ac5dcc3c093f", "is_disabled": 0, "rental_uris": {"android": "https://dc.lft.to/lastmile_qr_scan", "ios": "https://dc.lft.to/lastmile_qr_scan"}, "fusion_lon": 0.0, "lat": 38.87751383333333, "bike_id": "2adf61bbe7d4978ab648ac5dcc3c093f", "type": "electric_scooter", "is_reserved": 0, "lon": -77.002681}, {"fusion_lat": 0.0, "name": "0433c4e470e0f24b51e88584a1bdce39", "is_disabled": 0, "rental_uris": {"android": "https://dc.lft.to/lastmile_qr_scan", "ios": "https://dc.lft.to/lastmile_qr_scan"}, "fusion_lon": 0.0, "lat": 38.896194, "bike_id": "0433c4e470e0f24b51e88584a1bdce39", "type": "electric_bike", "is_reserved": 0, "lon": -76.90740633333333}, {"fusion_lat": 0.0, "name": "edd7c26d23ef8e7315b6910e78862297", "is_disabled": 0, "rental_uris": {"android": "https://dc.lft.to/lastmile_qr_scan", "ios": "https://dc.lft.to/lastmile_qr_scan"}, "fusion_lon": 0.0, "lat": 38.84616966666667, "bike_id": "edd7c26d23ef8e7315b6910e78862297", "type": "electric_bike", "is_reserved": 0, "lon": -76.96906583333333}, {"fusion_lat": 0.0, "name": "494af47a90d44aacec91e4b1159ed54e", "is_disabled": 0, "rental_uris": {"android": "https://dc.lft.to/lastmile_qr_scan", "ios": "https://dc.lft.to/lastmile_qr_scan"}, "fusion_lon": 0.0, "lat": 38.95890083333333, "bike_id": "494af47a90d44aacec91e4b1159ed54e", "type": "electric_bike", "is_reserved": 0, "lon": -76.92480916666666}, {"fusion_lat": 0.0, "name": "94a2b2d2af68d6cc2d094ff05113a48e", "is_disabled": 0, "rental_uris": {"android": "https://dc.lft.to/lastmile_qr_scan", "ios": "https://dc.lft.to/lastmile_qr_scan"}, "fusion_lon": 0.0, "lat": 38.928623333333334, "bike_id": "94a2b2d2af68d6cc2d094ff05113a48e", "type": "electric_scooter", "is_reserved": 0, "lon": -77.05627066666666}, {"fusion_lat": 0.0, "name": "4a478b1ba46bf54c0dd881f617ef387b", "is_disabled": 0, "rental_uris": {"android": "https://dc.lft.to/lastmile_qr_scan", "ios": "https://dc.lft.to/lastmile_qr_scan"}, "fusion_lon": 0.0, "lat": 38.98496016666667, "bike_id": "4a478b1ba46bf54c0dd881f617ef387b", "type": "electric_bike", "is_reserved": 0, "lon": -76.98194683333334}, {"fusion_lat": 0.0, "name": "b9c5dc47cdb669a5fc8e2dae10b22b5a", "is_disabled": 0, "rental_uris": {"android": "https://dc.lft.to/lastmile_qr_scan", "ios": "https://dc.lft.to/lastmile_qr_scan"}, "fusion_lon": 0.0, "lat": 38.898787, "bike_id": "b9c5dc47cdb669a5fc8e2dae10b22b5a", "type": "electric_scooter", "is_reserved": 0, "lon": -76.9318705}, {"fusion_lat": 0.0, "name": "b53720c1ffebf7f73098960d6e6301ce", "is_disabled": 0, "rental_uris": {"android": "https://dc.lft.to/lastmile_qr_scan", "ios": "https://dc.lft.to/lastmile_qr_scan"}, "fusion_lon": 0.0, "lat": 38.92080333333333, "bike_id": "b53720c1ffebf7f73098960d6e6301ce", "type": "electric_bike", "is_reserved": 0, "lon": -76.98948983333334}, {"fusion_lat": 0.0, "name": "c8ac6b573c275efb8560958f543290e2", "is_disabled": 0, "rental_uris": {"android": "https://dc.lft.to/lastmile_qr_scan", "ios": "https://dc.lft.to/lastmile_qr_scan"}, "fusion_lon": 0.0, "lat": 38.88084816666667, "bike_id": "c8ac6b573c275efb8560958f543290e2", "type": "electric_scooter", "is_reserved": 0, "lon": -76.98531166666666}, {"fusion_lat": 0.0, "name": "741ff3f3dc6fc6ba2250716aff94a4ca", "is_disabled": 0, "rental_uris": {"android": "https://dc.lft.to/lastmile_qr_scan", "ios": "https://dc.lft.to/lastmile_qr_scan"}, "fusion_lon": 0.0, "lat": 38.88234533333333, "bike_id": "741ff3f3dc6fc6ba2250716aff94a4ca", "type": "electric_scooter", "is_reserved": 0, "lon": -77.0261615}, {"fusion_lat": 0.0, "name": "1d6536ee18f8c55e3f7c29ad1147938c", "is_disabled": 0, "rental_uris": {"android": "https://dc.lft.to/lastmile_qr_scan", "ios": "https://dc.lft.to/lastmile_qr_scan"}, "fusion_lon": 0.0, "lat": 38.8923245, "bike_id": "1d6536ee18f8c55e3f7c29ad1147938c", "type": "electric_scooter", "is_reserved": 0, "lon": -77.02829983333334}, {"fusion_lat": 0.0, "name": "c23d13d984dd89567fdd06a127e5c1d5", "is_disabled": 0, "rental_uris": {"android": "https://dc.lft.to/lastmile_qr_scan", "ios": "https://dc.lft.to/lastmile_qr_scan"}, "fusion_lon": 0.0, "lat": 38.92078883333333, "bike_id": "c23d13d984dd89567fdd06a127e5c1d5", "type": "electric_scooter", "is_reserved": 0, "lon": -77.02314516666667}, {"fusion_lat": 0.0, "name": "fa6cd506faba3370bd9f0b75b4703989", "is_disabled": 0, "rental_uris": {"android": "https://dc.lft.to/lastmile_qr_scan", "ios": "https://dc.lft.to/lastmile_qr_scan"}, "fusion_lon": 0.0, "lat": 38.92601833333333, "bike_id": "fa6cd506faba3370bd9f0b75b4703989", "type": "electric_scooter", "is_reserved": 0, "lon": -77.037388}, {"fusion_lat": 0.0, "name": "d8dc73620537431e1d4926ed09c778f8", "is_disabled": 0, "rental_uris": {"android": "https://dc.lft.to/lastmile_qr_scan", "ios": "https://dc.lft.to/lastmile_qr_scan"}, "fusion_lon": 0.0, "lat": 38.86063983333333, "bike_id": "d8dc73620537431e1d4926ed09c778f8", "type": "electric_scooter", "is_reserved": 0, "lon": -76.9849775}, {"fusion_lat": 0.0, "name": "ba85ac5002aa676940cb3eac034261a8", "is_disabled": 0, "rental_uris": {"android": "https://dc.lft.to/lastmile_qr_scan", "ios": "https://dc.lft.to/lastmile_qr_scan"}, "fusion_lon": 0.0, "lat": 38.914266166666664, "bike_id": "ba85ac5002aa676940cb3eac034261a8", "type": "electric_scooter", "is_reserved": 0, "lon": -77.064247}, {"fusion_lat": 0.0, "name": "caecf9dc478b05f972c24898dbe32d0b", "is_disabled": 0, "rental_uris": {"android": "https://dc.lft.to/lastmile_qr_scan", "ios": "https://dc.lft.to/lastmile_qr_scan"}, "fusion_lon": 0.0, "lat": 38.90380283333333, "bike_id": "caecf9dc478b05f972c24898dbe32d0b", "type": "electric_scooter", "is_reserved": 0, "lon": -77.00191066666666}, {"fusion_lat": 0.0, "name": "e1828f61fb83a34b283503d325761698", "is_disabled": 0, "rental_uris": {"android": "https://dc.lft.to/lastmile_qr_scan", "ios": "https://dc.lft.to/lastmile_qr_scan"}, "fusion_lon": 0.0, "lat": 38.89646416666667, "bike_id": "e1828f61fb83a34b283503d325761698", "type": "electric_scooter", "is_reserved": 0, "lon": -76.99943516666667}, {"fusion_lat": 0.0, "name": "e6e0be31f4a524c3c0bf0ddfc77b5b70", "is_disabled": 0, "rental_uris": {"android": "https://dc.lft.to/lastmile_qr_scan", "ios": "https://dc.lft.to/lastmile_qr_scan"}, "fusion_lon": 0.0, "lat": 38.87458983333333, "bike_id": "e6e0be31f4a524c3c0bf0ddfc77b5b70", "type": "electric_scooter", "is_reserved": 0, "lon": -77.00965433333333}, {"fusion_lat": 0.0, "name": "e662f4af669e7bf706411f410b96eb3d", "is_disabled": 0, "rental_uris": {"android": "https://dc.lft.to/lastmile_qr_scan", "ios": "https://dc.lft.to/lastmile_qr_scan"}, "fusion_lon": 0.0, "lat": 38.878537, "bike_id": "e662f4af669e7bf706411f410b96eb3d", "type": "electric_scooter", "is_reserved": 0, "lon": -77.013107}, {"fusion_lat": 0.0, "name": "58cffbf857afd1e94e5ff80fe578fa93", "is_disabled": 0, "rental_uris": {"android": "https://dc.lft.to/lastmile_qr_scan", "ios": "https://dc.lft.to/lastmile_qr_scan"}, "fusion_lon": 0.0, "lat": 38.8841415, "bike_id": "58cffbf857afd1e94e5ff80fe578fa93", "type": "electric_scooter", "is_reserved": 0, "lon": -76.98585516666667}, {"fusion_lat": 0.0, "name": "84e8cfcf0ffc0be4edb4a280ff561828", "is_disabled": 0, "rental_uris": {"android": "https://dc.lft.to/lastmile_qr_scan", "ios": "https://dc.lft.to/lastmile_qr_scan"}, "fusion_lon": 0.0, "lat": 38.913266, "bike_id": "84e8cfcf0ffc0be4edb4a280ff561828", "type": "electric_scooter", "is_reserved": 0, "lon": -77.03182133333334}, {"fusion_lat": 0.0, "name": "058405d3146b39aaa6659611b23b55bf", "is_disabled": 0, "rental_uris": {"android": "https://dc.lft.to/lastmile_qr_scan", "ios": "https://dc.lft.to/lastmile_qr_scan"}, "fusion_lon": 0.0, "lat": 38.89747216666667, "bike_id": "058405d3146b39aaa6659611b23b55bf", "type": "electric_scooter", "is_reserved": 0, "lon": -77.032176}, {"fusion_lat": 0.0, "name": "b6a25a0977ef52da94cc7ade1901aa87", "is_disabled": 0, "rental_uris": {"android": "https://dc.lft.to/lastmile_qr_scan", "ios": "https://dc.lft.to/lastmile_qr_scan"}, "fusion_lon": 0.0, "lat": 38.86450516666667, "bike_id": "b6a25a0977ef52da94cc7ade1901aa87", "type": "electric_bike", "is_reserved": 0, "lon": -77.10686716666666}, {"fusion_lat": 0.0, "name": "1895d2326f29bce5e32c4e07975da641", "is_disabled": 0, "rental_uris": {"android": "https://dc.lft.to/lastmile_qr_scan", "ios": "https://dc.lft.to/lastmile_qr_scan"}, "fusion_lon": 0.0, "lat": 38.897181833333335, "bike_id": "1895d2326f29bce5e32c4e07975da641", "type": "electric_scooter", "is_reserved": 0, "lon": -77.02331116666667}, {"fusion_lat": 0.0, "name": "b82dcc3cdd67c823414a27bc3922be3c", "is_disabled": 0, "rental_uris": {"android": "https://dc.lft.to/lastmile_qr_scan", "ios": "https://dc.lft.to/lastmile_qr_scan"}, "fusion_lon": 0.0, "lat": 38.87638716666667, "bike_id": "b82dcc3cdd67c823414a27bc3922be3c", "type": "electric_scooter", "is_reserved": 0, "lon": -77.01580816666667}, {"fusion_lat": 0.0, "name": "71184dfc679e6992d78261cb92f861fe", "is_disabled": 0, "rental_uris": {"android": "https://dc.lft.to/lastmile_qr_scan", "ios": "https://dc.lft.to/lastmile_qr_scan"}, "fusion_lon": 0.0, "lat": 38.91499666666667, "bike_id": "71184dfc679e6992d78261cb92f861fe", "type": "electric_scooter", "is_reserved": 0, "lon": -77.032087}, {"fusion_lat": 0.0, "name": "e8d11279f8d963d8cddcf864be72cee4", "is_disabled": 0, "rental_uris": {"android": "https://dc.lft.to/lastmile_qr_scan", "ios": "https://dc.lft.to/lastmile_qr_scan"}, "fusion_lon": 0.0, "lat": 38.9562935, "bike_id": "e8d11279f8d963d8cddcf864be72cee4", "type": "electric_scooter", "is_reserved": 0, "lon": -77.09130566666667}, {"fusion_lat": 0.0, "name": "ab1f7dccd5d46bc1489d8cfbd61b883e", "is_disabled": 0, "rental_uris": {"android": "https://dc.lft.to/lastmile_qr_scan", "ios": "https://dc.lft.to/lastmile_qr_scan"}, "fusion_lon": 0.0, "lat": 38.923955, "bike_id": "ab1f7dccd5d46bc1489d8cfbd61b883e", "type": "electric_scooter", "is_reserved": 0, "lon": -77.02486033333334}, {"fusion_lat": 0.0, "name": "4aaefb301862997be02433bb4e7febda", "is_disabled": 0, "rental_uris": {"android": "https://dc.lft.to/lastmile_qr_scan", "ios": "https://dc.lft.to/lastmile_qr_scan"}, "fusion_lon": 0.0, "lat": 38.90970516666667, "bike_id": "4aaefb301862997be02433bb4e7febda", "type": "electric_scooter", "is_reserved": 0, "lon": -77.045462}, {"fusion_lat": 0.0, "name": "16773433fe106fe33ffa325ece91cf41", "is_disabled": 0, "rental_uris": {"android": "https://dc.lft.to/lastmile_qr_scan", "ios": "https://dc.lft.to/lastmile_qr_scan"}, "fusion_lon": 0.0, "lat": 38.9063515, "bike_id": "16773433fe106fe33ffa325ece91cf41", "type": "electric_scooter", "is_reserved": 0, "lon": -77.010308}, {"fusion_lat": 0.0, "name": "ad5b366badf7d7e05468bcc52d6e1219", "is_disabled": 0, "rental_uris": {"android": "https://dc.lft.to/lastmile_qr_scan", "ios": "https://dc.lft.to/lastmile_qr_scan"}, "fusion_lon": 0.0, "lat": 38.91925233333333, "bike_id": "ad5b366badf7d7e05468bcc52d6e1219", "type": "electric_scooter", "is_reserved": 0, "lon": -77.00982583333334}, {"fusion_lat": 0.0, "name": "0e8750895be38e1a66cfff71d0d7236b", "is_disabled": 0, "rental_uris": {"android": "https://dc.lft.to/lastmile_qr_scan", "ios": "https://dc.lft.to/lastmile_qr_scan"}, "fusion_lon": 0.0, "lat": 38.900329, "bike_id": "0e8750895be38e1a66cfff71d0d7236b", "type": "electric_scooter", "is_reserved": 0, "lon": -77.01188183333333}, {"fusion_lat": 0.0, "name": "122b3e997273a4b32e82bacbace93dee", "is_disabled": 0, "rental_uris": {"android": "https://dc.lft.to/lastmile_qr_scan", "ios": "https://dc.lft.to/lastmile_qr_scan"}, "fusion_lon": 0.0, "lat": 38.93101383333333, "bike_id": "122b3e997273a4b32e82bacbace93dee", "type": "electric_scooter", "is_reserved": 0, "lon": -77.02354533333333}, {"fusion_lat": 0.0, "name": "9a52aa0914180f0d947db1e75c2c0d59", "is_disabled": 0, "rental_uris": {"android": "https://dc.lft.to/lastmile_qr_scan", "ios": "https://dc.lft.to/lastmile_qr_scan"}, "fusion_lon": 0.0, "lat": 38.91062133333333, "bike_id": "9a52aa0914180f0d947db1e75c2c0d59", "type": "electric_scooter", "is_reserved": 0, "lon": -77.04103483333333}, {"fusion_lat": 0.0, "name": "b9c268c861ebfdb94b0e9a34f51b2af0", "is_disabled": 0, "rental_uris": {"android": "https://dc.lft.to/lastmile_qr_scan", "ios": "https://dc.lft.to/lastmile_qr_scan"}, "fusion_lon": 0.0, "lat": 38.873081166666665, "bike_id": "b9c268c861ebfdb94b0e9a34f51b2af0", "type": "electric_scooter", "is_reserved": 0, "lon": -77.000515}, {"fusion_lat": 0.0, "name": "a04ddff057b7e8dabcca51134f40a3d9", "is_disabled": 0, "rental_uris": {"android": "https://dc.lft.to/lastmile_qr_scan", "ios": "https://dc.lft.to/lastmile_qr_scan"}, "fusion_lon": 0.0, "lat": 38.91111983333333, "bike_id": "a04ddff057b7e8dabcca51134f40a3d9", "type": "electric_scooter", "is_reserved": 0, "lon": -77.02909183333334}, {"fusion_lat": 0.0, "name": "86af998eaa4454db3eadb11fb7a68e2a", "is_disabled": 0, "rental_uris": {"android": "https://dc.lft.to/lastmile_qr_scan", "ios": "https://dc.lft.to/lastmile_qr_scan"}, "fusion_lon": 0.0, "lat": 38.961854333333335, "bike_id": "86af998eaa4454db3eadb11fb7a68e2a", "type": "electric_bike", "is_reserved": 0, "lon": -77.05266966666667}, {"fusion_lat": 0.0, "name": "92f61326dbb47073f6c4da29d0aded81", "is_disabled": 0, "rental_uris": {"android": "https://dc.lft.to/lastmile_qr_scan", "ios": "https://dc.lft.to/lastmile_qr_scan"}, "fusion_lon": 0.0, "lat": 38.930673166666665, "bike_id": "92f61326dbb47073f6c4da29d0aded81", "type": "electric_scooter", "is_reserved": 0, "lon": -77.040546}, {"fusion_lat": 0.0, "name": "7a992aa8094409419a3f5972ee3b88d0", "is_disabled": 0, "rental_uris": {"android": "https://dc.lft.to/lastmile_qr_scan", "ios": "https://dc.lft.to/lastmile_qr_scan"}, "fusion_lon": 0.0, "lat": 38.97467016666667, "bike_id": "7a992aa8094409419a3f5972ee3b88d0", "type": "electric_scooter", "is_reserved": 0, "lon": -77.013208}, {"fusion_lat": 0.0, "name": "05652472c4128be0602b997334d73ab6", "is_disabled": 0, "rental_uris": {"android": "https://dc.lft.to/lastmile_qr_scan", "ios": "https://dc.lft.to/lastmile_qr_scan"}, "fusion_lon": 0.0, "lat": 38.897325333333335, "bike_id": "05652472c4128be0602b997334d73ab6", "type": "electric_scooter", "is_reserved": 0, "lon": -77.0037585}, {"fusion_lat": 0.0, "name": "d56dc4dab39e9f812bb28c9947196e5b", "is_disabled": 0, "rental_uris": {"android": "https://dc.lft.to/lastmile_qr_scan", "ios": "https://dc.lft.to/lastmile_qr_scan"}, "fusion_lon": 0.0, "lat": 38.909196, "bike_id": "d56dc4dab39e9f812bb28c9947196e5b", "type": "electric_scooter", "is_reserved": 0, "lon": -77.0729045}, {"fusion_lat": 0.0, "name": "56212dbaee4be72aab9383734e04d9bc", "is_disabled": 0, "rental_uris": {"android": "https://dc.lft.to/lastmile_qr_scan", "ios": "https://dc.lft.to/lastmile_qr_scan"}, "fusion_lon": 0.0, "lat": 38.919075, "bike_id": "56212dbaee4be72aab9383734e04d9bc", "type": "electric_scooter", "is_reserved": 0, "lon": -77.0021425}, {"fusion_lat": 0.0, "name": "c4ef007f0dd228b03df0da82edb3bd1a", "is_disabled": 0, "rental_uris": {"android": "https://dc.lft.to/lastmile_qr_scan", "ios": "https://dc.lft.to/lastmile_qr_scan"}, "fusion_lon": 0.0, "lat": 38.89695783333333, "bike_id": "c4ef007f0dd228b03df0da82edb3bd1a", "type": "electric_scooter", "is_reserved": 0, "lon": -77.04348183333333}, {"fusion_lat": 0.0, "name": "da14ae173b249c283407422d25456437", "is_disabled": 0, "rental_uris": {"android": "https://dc.lft.to/lastmile_qr_scan", "ios": "https://dc.lft.to/lastmile_qr_scan"}, "fusion_lon": 0.0, "lat": 38.908812, "bike_id": "da14ae173b249c283407422d25456437", "type": "electric_scooter", "is_reserved": 0, "lon": -77.04267266666666}, {"fusion_lat": 0.0, "name": "5acaab80fda953fe997a6cd42e990737", "is_disabled": 0, "rental_uris": {"android": "https://dc.lft.to/lastmile_qr_scan", "ios": "https://dc.lft.to/lastmile_qr_scan"}, "fusion_lon": 0.0, "lat": 38.89732433333333, "bike_id": "5acaab80fda953fe997a6cd42e990737", "type": "electric_bike", "is_reserved": 0, "lon": -76.9204685}, {"fusion_lat": 0.0, "name": "0a7d9471f5b22ee88850f6eef74e4526", "is_disabled": 0, "rental_uris": {"android": "https://dc.lft.to/lastmile_qr_scan", "ios": "https://dc.lft.to/lastmile_qr_scan"}, "fusion_lon": 0.0, "lat": 38.89121883333333, "bike_id": "0a7d9471f5b22ee88850f6eef74e4526", "type": "electric_scooter", "is_reserved": 0, "lon": -76.94382683333333}, {"fusion_lat": 0.0, "name": "8e158f9f5e7df4c2e4e48bf0dbc5398b", "is_disabled": 0, "rental_uris": {"android": "https://dc.lft.to/lastmile_qr_scan", "ios": "https://dc.lft.to/lastmile_qr_scan"}, "fusion_lon": 0.0, "lat": 38.90702533333334, "bike_id": "8e158f9f5e7df4c2e4e48bf0dbc5398b", "type": "electric_scooter", "is_reserved": 0, "lon": -77.02717116666666}, {"fusion_lat": 0.0, "name": "2be6fa33b35cae7a7bd972bdad2ef135", "is_disabled": 0, "rental_uris": {"android": "https://dc.lft.to/lastmile_qr_scan", "ios": "https://dc.lft.to/lastmile_qr_scan"}, "fusion_lon": 0.0, "lat": 38.9112765, "bike_id": "2be6fa33b35cae7a7bd972bdad2ef135", "type": "electric_scooter", "is_reserved": 0, "lon": -77.02098466666666}, {"fusion_lat": 0.0, "name": "f2794c34e147b82a65ca41ec8297026d", "is_disabled": 0, "rental_uris": {"android": "https://dc.lft.to/lastmile_qr_scan", "ios": "https://dc.lft.to/lastmile_qr_scan"}, "fusion_lon": 0.0, "lat": 38.9698595, "bike_id": "f2794c34e147b82a65ca41ec8297026d", "type": "electric_scooter", "is_reserved": 0, "lon": -77.01160416666667}, {"fusion_lat": 0.0, "name": "c9aaae3afb09e99791176e1fb06eb4c2", "is_disabled": 0, "rental_uris": {"android": "https://dc.lft.to/lastmile_qr_scan", "ios": "https://dc.lft.to/lastmile_qr_scan"}, "fusion_lon": 0.0, "lat": 38.91559916666667, "bike_id": "c9aaae3afb09e99791176e1fb06eb4c2", "type": "electric_scooter", "is_reserved": 0, "lon": -77.03224583333333}, {"fusion_lat": 0.0, "name": "042fec95ddc34b0dd4389631e5f2416c", "is_disabled": 0, "rental_uris": {"android": "https://dc.lft.to/lastmile_qr_scan", "ios": "https://dc.lft.to/lastmile_qr_scan"}, "fusion_lon": 0.0, "lat": 38.9256655, "bike_id": "042fec95ddc34b0dd4389631e5f2416c", "type": "electric_scooter", "is_reserved": 0, "lon": -77.03772183333334}, {"fusion_lat": 0.0, "name": "c3068c4c359d89549cb236e2ef0ab776", "is_disabled": 0, "rental_uris": {"android": "https://dc.lft.to/lastmile_qr_scan", "ios": "https://dc.lft.to/lastmile_qr_scan"}, "fusion_lon": 0.0, "lat": 38.94525616666667, "bike_id": "c3068c4c359d89549cb236e2ef0ab776", "type": "electric_scooter", "is_reserved": 0, "lon": -77.0227495}, {"fusion_lat": 0.0, "name": "cd1fc8935c24a4000c41612e19d62da1", "is_disabled": 0, "rental_uris": {"android": "https://dc.lft.to/lastmile_qr_scan", "ios": "https://dc.lft.to/lastmile_qr_scan"}, "fusion_lon": 0.0, "lat": 38.88838833333333, "bike_id": "cd1fc8935c24a4000c41612e19d62da1", "type": "electric_scooter", "is_reserved": 0, "lon": -76.977182}, {"fusion_lat": 0.0, "name": "f31ab14d3395cb6e40c1fec30cc26006", "is_disabled": 0, "rental_uris": {"android": "https://dc.lft.to/lastmile_qr_scan", "ios": "https://dc.lft.to/lastmile_qr_scan"}, "fusion_lon": 0.0, "lat": 38.911144666666665, "bike_id": "f31ab14d3395cb6e40c1fec30cc26006", "type": "electric_scooter", "is_reserved": 0, "lon": -77.0383105}, {"fusion_lat": 0.0, "name": "48a158939e20cd4c2043dc2e1f342932", "is_disabled": 0, "rental_uris": {"android": "https://dc.lft.to/lastmile_qr_scan", "ios": "https://dc.lft.to/lastmile_qr_scan"}, "fusion_lon": 0.0, "lat": 38.92821, "bike_id": "48a158939e20cd4c2043dc2e1f342932", "type": "electric_scooter", "is_reserved": 0, "lon": -77.02261516666667}, {"fusion_lat": 0.0, "name": "103a7df19fdb66e1800f073027514aba", "is_disabled": 0, "rental_uris": {"android": "https://dc.lft.to/lastmile_qr_scan", "ios": "https://dc.lft.to/lastmile_qr_scan"}, "fusion_lon": 0.0, "lat": 38.905369666666665, "bike_id": "103a7df19fdb66e1800f073027514aba", "type": "electric_scooter", "is_reserved": 0, "lon": -77.02202333333334}, {"fusion_lat": 0.0, "name": "dac9e0951a31253234d74a38619110de", "is_disabled": 0, "rental_uris": {"android": "https://dc.lft.to/lastmile_qr_scan", "ios": "https://dc.lft.to/lastmile_qr_scan"}, "fusion_lon": 0.0, "lat": 38.93627433333333, "bike_id": "dac9e0951a31253234d74a38619110de", "type": "electric_scooter", "is_reserved": 0, "lon": -77.08188616666666}, {"fusion_lat": 0.0, "name": "b74df6d0489ed4e6de4d4aa9b89c525e", "is_disabled": 0, "rental_uris": {"android": "https://dc.lft.to/lastmile_qr_scan", "ios": "https://dc.lft.to/lastmile_qr_scan"}, "fusion_lon": 0.0, "lat": 38.9073345, "bike_id": "b74df6d0489ed4e6de4d4aa9b89c525e", "type": "electric_scooter", "is_reserved": 0, "lon": -77.006992}, {"fusion_lat": 0.0, "name": "0e4db46f040387ab0b209821ca9cc573", "is_disabled": 0, "rental_uris": {"android": "https://dc.lft.to/lastmile_qr_scan", "ios": "https://dc.lft.to/lastmile_qr_scan"}, "fusion_lon": 0.0, "lat": 38.926215166666665, "bike_id": "0e4db46f040387ab0b209821ca9cc573", "type": "electric_scooter", "is_reserved": 0, "lon": -77.0392625}, {"fusion_lat": 0.0, "name": "1ccb288cbe4b7feb693558c816d43180", "is_disabled": 0, "rental_uris": {"android": "https://dc.lft.to/lastmile_qr_scan", "ios": "https://dc.lft.to/lastmile_qr_scan"}, "fusion_lon": 0.0, "lat": 38.9245675, "bike_id": "1ccb288cbe4b7feb693558c816d43180", "type": "electric_scooter", "is_reserved": 0, "lon": -77.00210216666666}, {"fusion_lat": 0.0, "name": "36af1fb46463a68e20fee534485e5939", "is_disabled": 0, "rental_uris": {"android": "https://dc.lft.to/lastmile_qr_scan", "ios": "https://dc.lft.to/lastmile_qr_scan"}, "fusion_lon": 0.0, "lat": 38.911811, "bike_id": "36af1fb46463a68e20fee534485e5939", "type": "electric_scooter", "is_reserved": 0, "lon": -77.0685875}, {"fusion_lat": 0.0, "name": "ee616f4fc06109e66ed66020d75984b8", "is_disabled": 0, "rental_uris": {"android": "https://dc.lft.to/lastmile_qr_scan", "ios": "https://dc.lft.to/lastmile_qr_scan"}, "fusion_lon": 0.0, "lat": 38.941872833333335, "bike_id": "ee616f4fc06109e66ed66020d75984b8", "type": "electric_scooter", "is_reserved": 0, "lon": -77.02407233333334}, {"fusion_lat": 0.0, "name": "0f57d25a0185c52c8d298b0bab2af93f", "is_disabled": 0, "rental_uris": {"android": "https://dc.lft.to/lastmile_qr_scan", "ios": "https://dc.lft.to/lastmile_qr_scan"}, "fusion_lon": 0.0, "lat": 38.926601166666664, "bike_id": "0f57d25a0185c52c8d298b0bab2af93f", "type": "electric_scooter", "is_reserved": 0, "lon": -77.02427266666666}, {"fusion_lat": 0.0, "name": "1a92ca380261be86fe67a19e4dac1fec", "is_disabled": 0, "rental_uris": {"android": "https://dc.lft.to/lastmile_qr_scan", "ios": "https://dc.lft.to/lastmile_qr_scan"}, "fusion_lon": 0.0, "lat": 38.90820266666667, "bike_id": "1a92ca380261be86fe67a19e4dac1fec", "type": "electric_scooter", "is_reserved": 0, "lon": -77.0342995}, {"fusion_lat": 0.0, "name": "538f7f4bddf89bc1178b1e8c0b838248", "is_disabled": 0, "rental_uris": {"android": "https://dc.lft.to/lastmile_qr_scan", "ios": "https://dc.lft.to/lastmile_qr_scan"}, "fusion_lon": 0.0, "lat": 38.8990445, "bike_id": "538f7f4bddf89bc1178b1e8c0b838248", "type": "electric_scooter", "is_reserved": 0, "lon": -76.97617033333333}, {"fusion_lat": 0.0, "name": "c82226a052f14198daf2bbd31fdc2580", "is_disabled": 0, "rental_uris": {"android": "https://dc.lft.to/lastmile_qr_scan", "ios": "https://dc.lft.to/lastmile_qr_scan"}, "fusion_lon": 0.0, "lat": 38.861403333333335, "bike_id": "c82226a052f14198daf2bbd31fdc2580", "type": "electric_bike", "is_reserved": 0, "lon": -76.97169966666667}, {"fusion_lat": 0.0, "name": "06e0cbda0394cb2382c80a0056f4c600", "is_disabled": 0, "rental_uris": {"android": "https://dc.lft.to/lastmile_qr_scan", "ios": "https://dc.lft.to/lastmile_qr_scan"}, "fusion_lon": 0.0, "lat": 38.9429525, "bike_id": "06e0cbda0394cb2382c80a0056f4c600", "type": "electric_scooter", "is_reserved": 0, "lon": -77.02171533333333}, {"fusion_lat": 0.0, "name": "7d528a970fff980d0ca9202c376c216f", "is_disabled": 0, "rental_uris": {"android": "https://dc.lft.to/lastmile_qr_scan", "ios": "https://dc.lft.to/lastmile_qr_scan"}, "fusion_lon": 0.0, "lat": 38.90039433333333, "bike_id": "7d528a970fff980d0ca9202c376c216f", "type": "electric_scooter", "is_reserved": 0, "lon": -76.99259316666667}, {"fusion_lat": 0.0, "name": "d3ee0e8ff099c0713c125ae8e8c5b9f0", "is_disabled": 0, "rental_uris": {"android": "https://dc.lft.to/lastmile_qr_scan", "ios": "https://dc.lft.to/lastmile_qr_scan"}, "fusion_lon": 0.0, "lat": 38.924211166666666, "bike_id": "d3ee0e8ff099c0713c125ae8e8c5b9f0", "type": "electric_scooter", "is_reserved": 0, "lon": -77.02015616666667}, {"fusion_lat": 0.0, "name": "f3428b88183db01e359fabf18d6af0d5", "is_disabled": 0, "rental_uris": {"android": "https://dc.lft.to/lastmile_qr_scan", "ios": "https://dc.lft.to/lastmile_qr_scan"}, "fusion_lon": 0.0, "lat": 38.9088395, "bike_id": "f3428b88183db01e359fabf18d6af0d5", "type": "electric_scooter", "is_reserved": 0, "lon": -77.04324416666667}, {"fusion_lat": 0.0, "name": "51c92328fa494da067ede49b77d26d53", "is_disabled": 0, "rental_uris": {"android": "https://dc.lft.to/lastmile_qr_scan", "ios": "https://dc.lft.to/lastmile_qr_scan"}, "fusion_lon": 0.0, "lat": 38.905057, "bike_id": "51c92328fa494da067ede49b77d26d53", "type": "electric_scooter", "is_reserved": 0, "lon": -76.97955933333333}, {"fusion_lat": 0.0, "name": "935c44ce5cb9a384eda6c767cf14e43f", "is_disabled": 0, "rental_uris": {"android": "https://dc.lft.to/lastmile_qr_scan", "ios": "https://dc.lft.to/lastmile_qr_scan"}, "fusion_lon": 0.0, "lat": 38.941357333333336, "bike_id": "935c44ce5cb9a384eda6c767cf14e43f", "type": "electric_scooter", "is_reserved": 0, "lon": -77.01541783333333}, {"fusion_lat": 0.0, "name": "3f18563ca5c8db515e7395cfa8fa8d23", "is_disabled": 0, "rental_uris": {"android": "https://dc.lft.to/lastmile_qr_scan", "ios": "https://dc.lft.to/lastmile_qr_scan"}, "fusion_lon": 0.0, "lat": 38.9102485, "bike_id": "3f18563ca5c8db515e7395cfa8fa8d23", "type": "electric_scooter", "is_reserved": 0, "lon": -77.0386445}, {"fusion_lat": 0.0, "name": "ba97a878ec0cf5eecc20113435cd87c8", "is_disabled": 0, "rental_uris": {"android": "https://dc.lft.to/lastmile_qr_scan", "ios": "https://dc.lft.to/lastmile_qr_scan"}, "fusion_lon": 0.0, "lat": 38.950226, "bike_id": "ba97a878ec0cf5eecc20113435cd87c8", "type": "electric_scooter", "is_reserved": 0, "lon": -77.03346966666666}, {"fusion_lat": 0.0, "name": "61a159e48e7e6dbc73a26e6d2635196c", "is_disabled": 0, "rental_uris": {"android": "https://dc.lft.to/lastmile_qr_scan", "ios": "https://dc.lft.to/lastmile_qr_scan"}, "fusion_lon": 0.0, "lat": 38.939027833333334, "bike_id": "61a159e48e7e6dbc73a26e6d2635196c", "type": "electric_scooter", "is_reserved": 0, "lon": -77.03342716666667}, {"fusion_lat": 0.0, "name": "2406710331a7da3b73bcffdb235b4c84", "is_disabled": 0, "rental_uris": {"android": "https://dc.lft.to/lastmile_qr_scan", "ios": "https://dc.lft.to/lastmile_qr_scan"}, "fusion_lon": 0.0, "lat": 38.940926833333336, "bike_id": "2406710331a7da3b73bcffdb235b4c84", "type": "electric_scooter", "is_reserved": 0, "lon": -77.02325283333333}, {"fusion_lat": 0.0, "name": "a5ffd7c8e8b7c571757929793911bd52", "is_disabled": 0, "rental_uris": {"android": "https://dc.lft.to/lastmile_qr_scan", "ios": "https://dc.lft.to/lastmile_qr_scan"}, "fusion_lon": 0.0, "lat": 38.92723483333333, "bike_id": "a5ffd7c8e8b7c571757929793911bd52", "type": "electric_scooter", "is_reserved": 0, "lon": -77.02324866666666}, {"fusion_lat": 0.0, "name": "2799f2e5118f6b7855042be5037147c0", "is_disabled": 0, "rental_uris": {"android": "https://dc.lft.to/lastmile_qr_scan", "ios": "https://dc.lft.to/lastmile_qr_scan"}, "fusion_lon": 0.0, "lat": 38.930722, "bike_id": "2799f2e5118f6b7855042be5037147c0", "type": "electric_scooter", "is_reserved": 0, "lon": -77.03158433333333}, {"fusion_lat": 0.0, "name": "166e7d8bf0799d56e45d3e75918f6ca4", "is_disabled": 0, "rental_uris": {"android": "https://dc.lft.to/lastmile_qr_scan", "ios": "https://dc.lft.to/lastmile_qr_scan"}, "fusion_lon": 0.0, "lat": 38.92496366666666, "bike_id": "166e7d8bf0799d56e45d3e75918f6ca4", "type": "electric_scooter", "is_reserved": 0, "lon": -77.02171483333333}, {"fusion_lat": 0.0, "name": "8c5cbd8ee0111d74028a2e6a49699078", "is_disabled": 0, "rental_uris": {"android": "https://dc.lft.to/lastmile_qr_scan", "ios": "https://dc.lft.to/lastmile_qr_scan"}, "fusion_lon": 0.0, "lat": 38.88298983333333, "bike_id": "8c5cbd8ee0111d74028a2e6a49699078", "type": "electric_bike", "is_reserved": 0, "lon": -77.03023933333333}, {"fusion_lat": 0.0, "name": "d6af28e0fb5c7eb8e8e371ebedcdbfc1", "is_disabled": 0, "rental_uris": {"android": "https://dc.lft.to/lastmile_qr_scan", "ios": "https://dc.lft.to/lastmile_qr_scan"}, "fusion_lon": 0.0, "lat": 38.956345, "bike_id": "d6af28e0fb5c7eb8e8e371ebedcdbfc1", "type": "electric_scooter", "is_reserved": 0, "lon": -77.03304533333333}, {"fusion_lat": 0.0, "name": "4838977e3cc2bda11dc1663a1e50e48e", "is_disabled": 0, "rental_uris": {"android": "https://dc.lft.to/lastmile_qr_scan", "ios": "https://dc.lft.to/lastmile_qr_scan"}, "fusion_lon": 0.0, "lat": 38.9010425, "bike_id": "4838977e3cc2bda11dc1663a1e50e48e", "type": "electric_scooter", "is_reserved": 0, "lon": -77.05810683333333}, {"fusion_lat": 0.0, "name": "ddca94dad24b2d35b0e61cbe3873cf6a", "is_disabled": 0, "rental_uris": {"android": "https://dc.lft.to/lastmile_qr_scan", "ios": "https://dc.lft.to/lastmile_qr_scan"}, "fusion_lon": 0.0, "lat": 38.90570266666667, "bike_id": "ddca94dad24b2d35b0e61cbe3873cf6a", "type": "electric_scooter", "is_reserved": 0, "lon": -77.0462955}, {"fusion_lat": 0.0, "name": "aad27b9255620fdd2c230fe06d00f117", "is_disabled": 0, "rental_uris": {"android": "https://dc.lft.to/lastmile_qr_scan", "ios": "https://dc.lft.to/lastmile_qr_scan"}, "fusion_lon": 0.0, "lat": 38.90553533333333, "bike_id": "aad27b9255620fdd2c230fe06d00f117", "type": "electric_scooter", "is_reserved": 0, "lon": -77.04650383333333}, {"fusion_lat": 0.0, "name": "431fec0614eab93f27f4c7c85e61aeb8", "is_disabled": 0, "rental_uris": {"android": "https://dc.lft.to/lastmile_qr_scan", "ios": "https://dc.lft.to/lastmile_qr_scan"}, "fusion_lon": 0.0, "lat": 38.906513, "bike_id": "431fec0614eab93f27f4c7c85e61aeb8", "type": "electric_scooter", "is_reserved": 0, "lon": -77.01855283333333}, {"fusion_lat": 0.0, "name": "856c3612808887811c35a4a48aa36e23", "is_disabled": 0, "rental_uris": {"android": "https://dc.lft.to/lastmile_qr_scan", "ios": "https://dc.lft.to/lastmile_qr_scan"}, "fusion_lon": 0.0, "lat": 38.920547, "bike_id": "856c3612808887811c35a4a48aa36e23", "type": "electric_scooter", "is_reserved": 0, "lon": -76.99883183333333}, {"fusion_lat": 0.0, "name": "37748d0fa17b2d704ec9a70cdb4f7541", "is_disabled": 0, "rental_uris": {"android": "https://dc.lft.to/lastmile_qr_scan", "ios": "https://dc.lft.to/lastmile_qr_scan"}, "fusion_lon": 0.0, "lat": 38.900357, "bike_id": "37748d0fa17b2d704ec9a70cdb4f7541", "type": "electric_scooter", "is_reserved": 0, "lon": -77.002017}, {"fusion_lat": 0.0, "name": "915d3e05688813555070b716619b85c1", "is_disabled": 0, "rental_uris": {"android": "https://dc.lft.to/lastmile_qr_scan", "ios": "https://dc.lft.to/lastmile_qr_scan"}, "fusion_lon": 0.0, "lat": 38.970713333333336, "bike_id": "915d3e05688813555070b716619b85c1", "type": "electric_bike", "is_reserved": 0, "lon": -76.936163}, {"fusion_lat": 0.0, "name": "0b753b29affa3ccc965bb42a42740fd6", "is_disabled": 0, "rental_uris": {"android": "https://dc.lft.to/lastmile_qr_scan", "ios": "https://dc.lft.to/lastmile_qr_scan"}, "fusion_lon": 0.0, "lat": 38.884532666666665, "bike_id": "0b753b29affa3ccc965bb42a42740fd6", "type": "electric_scooter", "is_reserved": 0, "lon": -76.9939105}, {"fusion_lat": 0.0, "name": "b200c3664d5427914996a0d5bd6b506b", "is_disabled": 0, "rental_uris": {"android": "https://dc.lft.to/lastmile_qr_scan", "ios": "https://dc.lft.to/lastmile_qr_scan"}, "fusion_lon": 0.0, "lat": 38.9171625, "bike_id": "b200c3664d5427914996a0d5bd6b506b", "type": "electric_scooter", "is_reserved": 0, "lon": -77.03863366666667}, {"fusion_lat": 0.0, "name": "0627f003cef30d93c95ef94393f59532", "is_disabled": 0, "rental_uris": {"android": "https://dc.lft.to/lastmile_qr_scan", "ios": "https://dc.lft.to/lastmile_qr_scan"}, "fusion_lon": 0.0, "lat": 38.806723, "bike_id": "0627f003cef30d93c95ef94393f59532", "type": "electric_bike", "is_reserved": 0, "lon": -77.06918716666667}, {"fusion_lat": 0.0, "name": "e3d6a373ef5e992808b37e910f9a410e", "is_disabled": 0, "rental_uris": {"android": "https://dc.lft.to/lastmile_qr_scan", "ios": "https://dc.lft.to/lastmile_qr_scan"}, "fusion_lon": 0.0, "lat": 38.88753083333334, "bike_id": "e3d6a373ef5e992808b37e910f9a410e", "type": "electric_scooter", "is_reserved": 0, "lon": -76.998371}, {"fusion_lat": 0.0, "name": "f1243ca3f514c1fd52dfaa8306528c46", "is_disabled": 0, "rental_uris": {"android": "https://dc.lft.to/lastmile_qr_scan", "ios": "https://dc.lft.to/lastmile_qr_scan"}, "fusion_lon": 0.0, "lat": 38.918534666666666, "bike_id": "f1243ca3f514c1fd52dfaa8306528c46", "type": "electric_scooter", "is_reserved": 0, "lon": -77.04488983333333}, {"fusion_lat": 0.0, "name": "83b2e6c5d1a40dd4d2c2ee79bf11ac88", "is_disabled": 0, "rental_uris": {"android": "https://dc.lft.to/lastmile_qr_scan", "ios": "https://dc.lft.to/lastmile_qr_scan"}, "fusion_lon": 0.0, "lat": 38.92091883333333, "bike_id": "83b2e6c5d1a40dd4d2c2ee79bf11ac88", "type": "electric_scooter", "is_reserved": 0, "lon": -77.0737455}, {"fusion_lat": 0.0, "name": "c1cb5281d8b79520020fa264047b40fe", "is_disabled": 0, "rental_uris": {"android": "https://dc.lft.to/lastmile_qr_scan", "ios": "https://dc.lft.to/lastmile_qr_scan"}, "fusion_lon": 0.0, "lat": 38.913244666666664, "bike_id": "c1cb5281d8b79520020fa264047b40fe", "type": "electric_scooter", "is_reserved": 0, "lon": -77.0295575}, {"fusion_lat": 0.0, "name": "f4bca2b338ece4fab13e913251518dc7", "is_disabled": 0, "rental_uris": {"android": "https://dc.lft.to/lastmile_qr_scan", "ios": "https://dc.lft.to/lastmile_qr_scan"}, "fusion_lon": 0.0, "lat": 38.8924385, "bike_id": "f4bca2b338ece4fab13e913251518dc7", "type": "electric_scooter", "is_reserved": 0, "lon": -77.03220566666667}, {"fusion_lat": 0.0, "name": "3c6d324f06bc81cb635126eb22686681", "is_disabled": 0, "rental_uris": {"android": "https://dc.lft.to/lastmile_qr_scan", "ios": "https://dc.lft.to/lastmile_qr_scan"}, "fusion_lon": 0.0, "lat": 38.95747333333333, "bike_id": "3c6d324f06bc81cb635126eb22686681", "type": "electric_bike", "is_reserved": 0, "lon": -76.97255966666667}, {"fusion_lat": 0.0, "name": "80ae0043b6561b20e14655325040fa71", "is_disabled": 0, "rental_uris": {"android": "https://dc.lft.to/lastmile_qr_scan", "ios": "https://dc.lft.to/lastmile_qr_scan"}, "fusion_lon": 0.0, "lat": 38.9207775, "bike_id": "80ae0043b6561b20e14655325040fa71", "type": "electric_scooter", "is_reserved": 0, "lon": -77.02313183333334}, {"fusion_lat": 0.0, "name": "76740312e8f4f87b6b0ed82e0482aade", "is_disabled": 0, "rental_uris": {"android": "https://dc.lft.to/lastmile_qr_scan", "ios": "https://dc.lft.to/lastmile_qr_scan"}, "fusion_lon": 0.0, "lat": 38.9227215, "bike_id": "76740312e8f4f87b6b0ed82e0482aade", "type": "electric_scooter", "is_reserved": 0, "lon": -76.99130266666667}, {"fusion_lat": 0.0, "name": "a8af4697e4382f7fae49cb61dccda418", "is_disabled": 0, "rental_uris": {"android": "https://dc.lft.to/lastmile_qr_scan", "ios": "https://dc.lft.to/lastmile_qr_scan"}, "fusion_lon": 0.0, "lat": 38.9507175, "bike_id": "a8af4697e4382f7fae49cb61dccda418", "type": "electric_bike", "is_reserved": 0, "lon": -77.07228916666666}, {"fusion_lat": 0.0, "name": "bcb4244bdb085820bd65ffc1b86c1b72", "is_disabled": 0, "rental_uris": {"android": "https://dc.lft.to/lastmile_qr_scan", "ios": "https://dc.lft.to/lastmile_qr_scan"}, "fusion_lon": 0.0, "lat": 38.917896666666664, "bike_id": "bcb4244bdb085820bd65ffc1b86c1b72", "type": "electric_scooter", "is_reserved": 0, "lon": -77.0269565}, {"fusion_lat": 0.0, "name": "a945a90c9c6b1e5c448ed4a4f6e55f0d", "is_disabled": 0, "rental_uris": {"android": "https://dc.lft.to/lastmile_qr_scan", "ios": "https://dc.lft.to/lastmile_qr_scan"}, "fusion_lon": 0.0, "lat": 38.92663183333333, "bike_id": "a945a90c9c6b1e5c448ed4a4f6e55f0d", "type": "electric_bike", "is_reserved": 0, "lon": -77.09853216666667}, {"fusion_lat": 0.0, "name": "d2c535bb275633ebd543ea815385a695", "is_disabled": 0, "rental_uris": {"android": "https://dc.lft.to/lastmile_qr_scan", "ios": "https://dc.lft.to/lastmile_qr_scan"}, "fusion_lon": 0.0, "lat": 38.9563755, "bike_id": "d2c535bb275633ebd543ea815385a695", "type": "electric_scooter", "is_reserved": 0, "lon": -77.03305566666667}, {"fusion_lat": 0.0, "name": "eb3fbe179fbea7b05fc8ffba015ea477", "is_disabled": 0, "rental_uris": {"android": "https://dc.lft.to/lastmile_qr_scan", "ios": "https://dc.lft.to/lastmile_qr_scan"}, "fusion_lon": 0.0, "lat": 38.958783833333335, "bike_id": "eb3fbe179fbea7b05fc8ffba015ea477", "type": "electric_bike", "is_reserved": 0, "lon": -76.970544}, {"fusion_lat": 0.0, "name": "567d0eb48146abcc66cac84602cd5ba5", "is_disabled": 0, "rental_uris": {"android": "https://dc.lft.to/lastmile_qr_scan", "ios": "https://dc.lft.to/lastmile_qr_scan"}, "fusion_lon": 0.0, "lat": 38.90979766666667, "bike_id": "567d0eb48146abcc66cac84602cd5ba5", "type": "electric_scooter", "is_reserved": 0, "lon": -77.02182033333334}, {"fusion_lat": 0.0, "name": "90d29a7edd11e486268a80299891c188", "is_disabled": 0, "rental_uris": {"android": "https://dc.lft.to/lastmile_qr_scan", "ios": "https://dc.lft.to/lastmile_qr_scan"}, "fusion_lon": 0.0, "lat": 38.90009716666667, "bike_id": "90d29a7edd11e486268a80299891c188", "type": "electric_scooter", "is_reserved": 0, "lon": -77.044911}, {"fusion_lat": 0.0, "name": "00d7d05ea6005feab55533cddcd323c3", "is_disabled": 0, "rental_uris": {"android": "https://dc.lft.to/lastmile_qr_scan", "ios": "https://dc.lft.to/lastmile_qr_scan"}, "fusion_lon": 0.0, "lat": 38.9165515, "bike_id": "00d7d05ea6005feab55533cddcd323c3", "type": "electric_scooter", "is_reserved": 0, "lon": -77.03690733333333}, {"fusion_lat": 0.0, "name": "423624b8975c013b84157f13b060d8cb", "is_disabled": 0, "rental_uris": {"android": "https://dc.lft.to/lastmile_qr_scan", "ios": "https://dc.lft.to/lastmile_qr_scan"}, "fusion_lon": 0.0, "lat": 38.866397166666665, "bike_id": "423624b8975c013b84157f13b060d8cb", "type": "electric_scooter", "is_reserved": 0, "lon": -76.98303066666666}, {"fusion_lat": 0.0, "name": "aea723c003256954b00c182bb3b8950c", "is_disabled": 0, "rental_uris": {"android": "https://dc.lft.to/lastmile_qr_scan", "ios": "https://dc.lft.to/lastmile_qr_scan"}, "fusion_lon": 0.0, "lat": 38.888122, "bike_id": "aea723c003256954b00c182bb3b8950c", "type": "electric_scooter", "is_reserved": 0, "lon": -76.98357083333333}, {"fusion_lat": 0.0, "name": "8294dbbc22f31099557f59f4c59b2031", "is_disabled": 0, "rental_uris": {"android": "https://dc.lft.to/lastmile_qr_scan", "ios": "https://dc.lft.to/lastmile_qr_scan"}, "fusion_lon": 0.0, "lat": 38.931, "bike_id": "8294dbbc22f31099557f59f4c59b2031", "type": "electric_scooter", "is_reserved": 0, "lon": -77.023985}, {"fusion_lat": 0.0, "name": "632f7a793528df3741f0e4b5f8076c9c", "is_disabled": 0, "rental_uris": {"android": "https://dc.lft.to/lastmile_qr_scan", "ios": "https://dc.lft.to/lastmile_qr_scan"}, "fusion_lon": 0.0, "lat": 38.90741416666667, "bike_id": "632f7a793528df3741f0e4b5f8076c9c", "type": "electric_scooter", "is_reserved": 0, "lon": -77.02985133333334}, {"fusion_lat": 0.0, "name": "0cbd227721e040eac7c486d01ed68ef2", "is_disabled": 0, "rental_uris": {"android": "https://dc.lft.to/lastmile_qr_scan", "ios": "https://dc.lft.to/lastmile_qr_scan"}, "fusion_lon": 0.0, "lat": 38.92555983333333, "bike_id": "0cbd227721e040eac7c486d01ed68ef2", "type": "electric_scooter", "is_reserved": 0, "lon": -76.98303433333334}, {"fusion_lat": 0.0, "name": "06baf1024aeb211e10b5dc779fc338d6", "is_disabled": 0, "rental_uris": {"android": "https://dc.lft.to/lastmile_qr_scan", "ios": "https://dc.lft.to/lastmile_qr_scan"}, "fusion_lon": 0.0, "lat": 38.919824166666665, "bike_id": "06baf1024aeb211e10b5dc779fc338d6", "type": "electric_scooter", "is_reserved": 0, "lon": -77.02397566666667}, {"fusion_lat": 0.0, "name": "db165d5510440cb606e991ebc964bc0e", "is_disabled": 0, "rental_uris": {"android": "https://dc.lft.to/lastmile_qr_scan", "ios": "https://dc.lft.to/lastmile_qr_scan"}, "fusion_lon": 0.0, "lat": 38.93131483333333, "bike_id": "db165d5510440cb606e991ebc964bc0e", "type": "electric_scooter", "is_reserved": 0, "lon": -77.02202166666666}, {"fusion_lat": 0.0, "name": "fd25561b814d34ae8a3d97ec2c45e7c5", "is_disabled": 0, "rental_uris": {"android": "https://dc.lft.to/lastmile_qr_scan", "ios": "https://dc.lft.to/lastmile_qr_scan"}, "fusion_lon": 0.0, "lat": 38.913426666666666, "bike_id": "fd25561b814d34ae8a3d97ec2c45e7c5", "type": "electric_scooter", "is_reserved": 0, "lon": -77.043493}, {"fusion_lat": 0.0, "name": "0199c6eca2767d25141f657f51897048", "is_disabled": 0, "rental_uris": {"android": "https://dc.lft.to/lastmile_qr_scan", "ios": "https://dc.lft.to/lastmile_qr_scan"}, "fusion_lon": 0.0, "lat": 38.90560716666667, "bike_id": "0199c6eca2767d25141f657f51897048", "type": "electric_scooter", "is_reserved": 0, "lon": -77.00579683333333}, {"fusion_lat": 0.0, "name": "04a849b8697d3729cfcc606a91e2d378", "is_disabled": 0, "rental_uris": {"android": "https://dc.lft.to/lastmile_qr_scan", "ios": "https://dc.lft.to/lastmile_qr_scan"}, "fusion_lon": 0.0, "lat": 38.90409966666667, "bike_id": "04a849b8697d3729cfcc606a91e2d378", "type": "electric_scooter", "is_reserved": 0, "lon": -77.03845283333334}, {"fusion_lat": 0.0, "name": "32969abab78cec161cb3eced37dbf9b2", "is_disabled": 0, "rental_uris": {"android": "https://dc.lft.to/lastmile_qr_scan", "ios": "https://dc.lft.to/lastmile_qr_scan"}, "fusion_lon": 0.0, "lat": 38.90205916666667, "bike_id": "32969abab78cec161cb3eced37dbf9b2", "type": "electric_scooter", "is_reserved": 0, "lon": -77.0161695}, {"fusion_lat": 0.0, "name": "05ff860ee0f9828e120121e5e6598d67", "is_disabled": 0, "rental_uris": {"android": "https://dc.lft.to/lastmile_qr_scan", "ios": "https://dc.lft.to/lastmile_qr_scan"}, "fusion_lon": 0.0, "lat": 38.926846833333336, "bike_id": "05ff860ee0f9828e120121e5e6598d67", "type": "electric_scooter", "is_reserved": 0, "lon": -77.031409}, {"fusion_lat": 0.0, "name": "ccb82b73327c1eb778dac96dfc83204d", "is_disabled": 0, "rental_uris": {"android": "https://dc.lft.to/lastmile_qr_scan", "ios": "https://dc.lft.to/lastmile_qr_scan"}, "fusion_lon": 0.0, "lat": 38.916634, "bike_id": "ccb82b73327c1eb778dac96dfc83204d", "type": "electric_scooter", "is_reserved": 0, "lon": -77.03859583333333}, {"fusion_lat": 0.0, "name": "b91d8e6f64eb37a048e058e98f905303", "is_disabled": 0, "rental_uris": {"android": "https://dc.lft.to/lastmile_qr_scan", "ios": "https://dc.lft.to/lastmile_qr_scan"}, "fusion_lon": 0.0, "lat": 38.90692816666667, "bike_id": "b91d8e6f64eb37a048e058e98f905303", "type": "electric_scooter", "is_reserved": 0, "lon": -77.07465166666667}, {"fusion_lat": 0.0, "name": "74e93dfd0f812b8048ca810299d3edf7", "is_disabled": 0, "rental_uris": {"android": "https://dc.lft.to/lastmile_qr_scan", "ios": "https://dc.lft.to/lastmile_qr_scan"}, "fusion_lon": 0.0, "lat": 38.893629, "bike_id": "74e93dfd0f812b8048ca810299d3edf7", "type": "electric_scooter", "is_reserved": 0, "lon": -77.02804516666667}, {"fusion_lat": 0.0, "name": "ece6fa0b7e97e25750687938c91f75a3", "is_disabled": 0, "rental_uris": {"android": "https://dc.lft.to/lastmile_qr_scan", "ios": "https://dc.lft.to/lastmile_qr_scan"}, "fusion_lon": 0.0, "lat": 38.94171333333333, "bike_id": "ece6fa0b7e97e25750687938c91f75a3", "type": "electric_scooter", "is_reserved": 0, "lon": -77.02512766666666}, {"fusion_lat": 0.0, "name": "e96a506837e786c9757ef68a66247c4d", "is_disabled": 0, "rental_uris": {"android": "https://dc.lft.to/lastmile_qr_scan", "ios": "https://dc.lft.to/lastmile_qr_scan"}, "fusion_lon": 0.0, "lat": 38.92051133333333, "bike_id": "e96a506837e786c9757ef68a66247c4d", "type": "electric_scooter", "is_reserved": 0, "lon": -77.00209716666667}, {"fusion_lat": 0.0, "name": "0f7b85562a0a4aaef3555c537e6c72dc", "is_disabled": 0, "rental_uris": {"android": "https://dc.lft.to/lastmile_qr_scan", "ios": "https://dc.lft.to/lastmile_qr_scan"}, "fusion_lon": 0.0, "lat": 38.918319833333335, "bike_id": "0f7b85562a0a4aaef3555c537e6c72dc", "type": "electric_scooter", "is_reserved": 0, "lon": -77.03510483333334}, {"fusion_lat": 0.0, "name": "eac682d875ff1ccdb9e72023d3cf38ce", "is_disabled": 0, "rental_uris": {"android": "https://dc.lft.to/lastmile_qr_scan", "ios": "https://dc.lft.to/lastmile_qr_scan"}, "fusion_lon": 0.0, "lat": 38.91414783333333, "bike_id": "eac682d875ff1ccdb9e72023d3cf38ce", "type": "electric_scooter", "is_reserved": 0, "lon": -77.02214566666666}, {"fusion_lat": 0.0, "name": "dce811c5e68e4ddf078662b72034bc72", "is_disabled": 0, "rental_uris": {"android": "https://dc.lft.to/lastmile_qr_scan", "ios": "https://dc.lft.to/lastmile_qr_scan"}, "fusion_lon": 0.0, "lat": 38.92501983333333, "bike_id": "dce811c5e68e4ddf078662b72034bc72", "type": "electric_scooter", "is_reserved": 0, "lon": -77.0214}, {"fusion_lat": 0.0, "name": "c5a01bd5c9a0bd409eed437f6832288a", "is_disabled": 0, "rental_uris": {"android": "https://dc.lft.to/lastmile_qr_scan", "ios": "https://dc.lft.to/lastmile_qr_scan"}, "fusion_lon": 0.0, "lat": 38.917656, "bike_id": "c5a01bd5c9a0bd409eed437f6832288a", "type": "electric_scooter", "is_reserved": 0, "lon": -77.03643366666667}, {"fusion_lat": 0.0, "name": "3646bd7fc27c9300cc35d337d7a4ed21", "is_disabled": 0, "rental_uris": {"android": "https://dc.lft.to/lastmile_qr_scan", "ios": "https://dc.lft.to/lastmile_qr_scan"}, "fusion_lon": 0.0, "lat": 38.91305, "bike_id": "3646bd7fc27c9300cc35d337d7a4ed21", "type": "electric_scooter", "is_reserved": 0, "lon": -77.04868133333333}, {"fusion_lat": 0.0, "name": "2c1e222d1d815035173831fc28b11a2f", "is_disabled": 0, "rental_uris": {"android": "https://dc.lft.to/lastmile_qr_scan", "ios": "https://dc.lft.to/lastmile_qr_scan"}, "fusion_lon": 0.0, "lat": 38.91961766666667, "bike_id": "2c1e222d1d815035173831fc28b11a2f", "type": "electric_scooter", "is_reserved": 0, "lon": -77.070949}, {"fusion_lat": 0.0, "name": "8c2942864255fb44e37cb787c8a33969", "is_disabled": 0, "rental_uris": {"android": "https://dc.lft.to/lastmile_qr_scan", "ios": "https://dc.lft.to/lastmile_qr_scan"}, "fusion_lon": 0.0, "lat": 38.93595533333333, "bike_id": "8c2942864255fb44e37cb787c8a33969", "type": "electric_scooter", "is_reserved": 0, "lon": -77.02286266666667}, {"fusion_lat": 0.0, "name": "10cf059dd0b5b2804b0d2034bb585cf7", "is_disabled": 0, "rental_uris": {"android": "https://dc.lft.to/lastmile_qr_scan", "ios": "https://dc.lft.to/lastmile_qr_scan"}, "fusion_lon": 0.0, "lat": 38.90959683333333, "bike_id": "10cf059dd0b5b2804b0d2034bb585cf7", "type": "electric_scooter", "is_reserved": 0, "lon": -77.035423}, {"fusion_lat": 0.0, "name": "67bf3d1330c158b61bcc111b901dc649", "is_disabled": 0, "rental_uris": {"android": "https://dc.lft.to/lastmile_qr_scan", "ios": "https://dc.lft.to/lastmile_qr_scan"}, "fusion_lon": 0.0, "lat": 38.9201835, "bike_id": "67bf3d1330c158b61bcc111b901dc649", "type": "electric_scooter", "is_reserved": 0, "lon": -77.0312575}, {"fusion_lat": 0.0, "name": "08dcca93242f9a2ee49aae1bac09b6c9", "is_disabled": 0, "rental_uris": {"android": "https://dc.lft.to/lastmile_qr_scan", "ios": "https://dc.lft.to/lastmile_qr_scan"}, "fusion_lon": 0.0, "lat": 38.80496433333333, "bike_id": "08dcca93242f9a2ee49aae1bac09b6c9", "type": "electric_bike", "is_reserved": 0, "lon": -77.10160283333333}, {"fusion_lat": 0.0, "name": "ff588f01cb749f8d733ccd35107609d8", "is_disabled": 0, "rental_uris": {"android": "https://dc.lft.to/lastmile_qr_scan", "ios": "https://dc.lft.to/lastmile_qr_scan"}, "fusion_lon": 0.0, "lat": 38.86168033333333, "bike_id": "ff588f01cb749f8d733ccd35107609d8", "type": "electric_scooter", "is_reserved": 0, "lon": -76.983712}, {"fusion_lat": 0.0, "name": "182c332529b8b8de7eb0e47c8b46c611", "is_disabled": 0, "rental_uris": {"android": "https://dc.lft.to/lastmile_qr_scan", "ios": "https://dc.lft.to/lastmile_qr_scan"}, "fusion_lon": 0.0, "lat": 38.927960166666665, "bike_id": "182c332529b8b8de7eb0e47c8b46c611", "type": "electric_scooter", "is_reserved": 0, "lon": -77.03206066666667}, {"fusion_lat": 0.0, "name": "d2b38adc248c2a9e4f56ef41a4bdb0a8", "is_disabled": 0, "rental_uris": {"android": "https://dc.lft.to/lastmile_qr_scan", "ios": "https://dc.lft.to/lastmile_qr_scan"}, "fusion_lon": 0.0, "lat": 38.89286366666666, "bike_id": "d2b38adc248c2a9e4f56ef41a4bdb0a8", "type": "electric_scooter", "is_reserved": 0, "lon": -76.9830785}, {"fusion_lat": 0.0, "name": "d415c0ca0e88c46a1294d6874fbd451f", "is_disabled": 0, "rental_uris": {"android": "https://dc.lft.to/lastmile_qr_scan", "ios": "https://dc.lft.to/lastmile_qr_scan"}, "fusion_lon": 0.0, "lat": 38.899617166666665, "bike_id": "d415c0ca0e88c46a1294d6874fbd451f", "type": "electric_scooter", "is_reserved": 0, "lon": -77.02399783333334}, {"fusion_lat": 0.0, "name": "ec28ec1ac81bf23eee0716cb7b87e390", "is_disabled": 0, "rental_uris": {"android": "https://dc.lft.to/lastmile_qr_scan", "ios": "https://dc.lft.to/lastmile_qr_scan"}, "fusion_lon": 0.0, "lat": 38.90831333333333, "bike_id": "ec28ec1ac81bf23eee0716cb7b87e390", "type": "electric_scooter", "is_reserved": 0, "lon": -76.9826495}, {"fusion_lat": 0.0, "name": "f441923b3516ae241894e4221376bd1a", "is_disabled": 0, "rental_uris": {"android": "https://dc.lft.to/lastmile_qr_scan", "ios": "https://dc.lft.to/lastmile_qr_scan"}, "fusion_lon": 0.0, "lat": 38.89853133333333, "bike_id": "f441923b3516ae241894e4221376bd1a", "type": "electric_scooter", "is_reserved": 0, "lon": -76.99034316666666}, {"fusion_lat": 0.0, "name": "75be25551662119a81806b9cd395bb99", "is_disabled": 0, "rental_uris": {"android": "https://dc.lft.to/lastmile_qr_scan", "ios": "https://dc.lft.to/lastmile_qr_scan"}, "fusion_lon": 0.0, "lat": 38.882999, "bike_id": "75be25551662119a81806b9cd395bb99", "type": "electric_scooter", "is_reserved": 0, "lon": -76.94858233333333}, {"fusion_lat": 0.0, "name": "1951ac345c36c1247b7d87ebd3fbb787", "is_disabled": 0, "rental_uris": {"android": "https://dc.lft.to/lastmile_qr_scan", "ios": "https://dc.lft.to/lastmile_qr_scan"}, "fusion_lon": 0.0, "lat": 39.07055166666667, "bike_id": "1951ac345c36c1247b7d87ebd3fbb787", "type": "electric_bike", "is_reserved": 0, "lon": -77.11479766666666}, {"fusion_lat": 0.0, "name": "0b348a0d067ffa6dee8d748523411770", "is_disabled": 0, "rental_uris": {"android": "https://dc.lft.to/lastmile_qr_scan", "ios": "https://dc.lft.to/lastmile_qr_scan"}, "fusion_lon": 0.0, "lat": 38.904027166666665, "bike_id": "0b348a0d067ffa6dee8d748523411770", "type": "electric_scooter", "is_reserved": 0, "lon": -77.0331065}, {"fusion_lat": 0.0, "name": "433bd72cd304d044d4b65d91efa6fc2c", "is_disabled": 0, "rental_uris": {"android": "https://dc.lft.to/lastmile_qr_scan", "ios": "https://dc.lft.to/lastmile_qr_scan"}, "fusion_lon": 0.0, "lat": 38.945384833333335, "bike_id": "433bd72cd304d044d4b65d91efa6fc2c", "type": "electric_scooter", "is_reserved": 0, "lon": -77.02534716666666}, {"fusion_lat": 0.0, "name": "48ba5607ab7ffb3e917aa461e7212dc7", "is_disabled": 0, "rental_uris": {"android": "https://dc.lft.to/lastmile_qr_scan", "ios": "https://dc.lft.to/lastmile_qr_scan"}, "fusion_lon": 0.0, "lat": 38.902551833333334, "bike_id": "48ba5607ab7ffb3e917aa461e7212dc7", "type": "electric_scooter", "is_reserved": 0, "lon": -77.03951883333333}, {"fusion_lat": 0.0, "name": "29ab10165b18a574e23a152f20b6fbc7", "is_disabled": 0, "rental_uris": {"android": "https://dc.lft.to/lastmile_qr_scan", "ios": "https://dc.lft.to/lastmile_qr_scan"}, "fusion_lon": 0.0, "lat": 38.91664133333333, "bike_id": "29ab10165b18a574e23a152f20b6fbc7", "type": "electric_scooter", "is_reserved": 0, "lon": -77.02818}, {"fusion_lat": 0.0, "name": "0b7023bb786311e30991302fddd8f8ee", "is_disabled": 0, "rental_uris": {"android": "https://dc.lft.to/lastmile_qr_scan", "ios": "https://dc.lft.to/lastmile_qr_scan"}, "fusion_lon": 0.0, "lat": 38.878811166666665, "bike_id": "0b7023bb786311e30991302fddd8f8ee", "type": "electric_scooter", "is_reserved": 0, "lon": -77.022496}, {"fusion_lat": 0.0, "name": "7ce9bd3273ec94d978adf0fd8c3bccd4", "is_disabled": 0, "rental_uris": {"android": "https://dc.lft.to/lastmile_qr_scan", "ios": "https://dc.lft.to/lastmile_qr_scan"}, "fusion_lon": 0.0, "lat": 38.941181, "bike_id": "7ce9bd3273ec94d978adf0fd8c3bccd4", "type": "electric_scooter", "is_reserved": 0, "lon": -77.02536533333334}, {"fusion_lat": 0.0, "name": "aeda5a2e9eef037340ce9d737a9463e8", "is_disabled": 0, "rental_uris": {"android": "https://dc.lft.to/lastmile_qr_scan", "ios": "https://dc.lft.to/lastmile_qr_scan"}, "fusion_lon": 0.0, "lat": 38.923398666666664, "bike_id": "aeda5a2e9eef037340ce9d737a9463e8", "type": "electric_scooter", "is_reserved": 0, "lon": -77.05298633333334}, {"fusion_lat": 0.0, "name": "1140f0c9cebc869f887aba3c3a64f580", "is_disabled": 0, "rental_uris": {"android": "https://dc.lft.to/lastmile_qr_scan", "ios": "https://dc.lft.to/lastmile_qr_scan"}, "fusion_lon": 0.0, "lat": 38.926646833333336, "bike_id": "1140f0c9cebc869f887aba3c3a64f580", "type": "electric_scooter", "is_reserved": 0, "lon": -77.0150075}, {"fusion_lat": 0.0, "name": "d7e5a75a9b567b88ece37fef52ff6d28", "is_disabled": 0, "rental_uris": {"android": "https://dc.lft.to/lastmile_qr_scan", "ios": "https://dc.lft.to/lastmile_qr_scan"}, "fusion_lon": 0.0, "lat": 38.9314855, "bike_id": "d7e5a75a9b567b88ece37fef52ff6d28", "type": "electric_scooter", "is_reserved": 0, "lon": -77.02989916666667}, {"fusion_lat": 0.0, "name": "c43d97cc304ba49bcf75b01fa90c7fa8", "is_disabled": 0, "rental_uris": {"android": "https://dc.lft.to/lastmile_qr_scan", "ios": "https://dc.lft.to/lastmile_qr_scan"}, "fusion_lon": 0.0, "lat": 38.92747933333333, "bike_id": "c43d97cc304ba49bcf75b01fa90c7fa8", "type": "electric_scooter", "is_reserved": 0, "lon": -77.0253585}, {"fusion_lat": 0.0, "name": "97e9dc45dcf440eeb6aec01775943eb5", "is_disabled": 0, "rental_uris": {"android": "https://dc.lft.to/lastmile_qr_scan", "ios": "https://dc.lft.to/lastmile_qr_scan"}, "fusion_lon": 0.0, "lat": 38.89836533333333, "bike_id": "97e9dc45dcf440eeb6aec01775943eb5", "type": "electric_scooter", "is_reserved": 0, "lon": -77.04151433333334}, {"fusion_lat": 0.0, "name": "6820d26e251572b6d7843fdc5a4d740d", "is_disabled": 0, "rental_uris": {"android": "https://dc.lft.to/lastmile_qr_scan", "ios": "https://dc.lft.to/lastmile_qr_scan"}, "fusion_lon": 0.0, "lat": 38.89615933333333, "bike_id": "6820d26e251572b6d7843fdc5a4d740d", "type": "electric_bike", "is_reserved": 0, "lon": -76.90734616666667}, {"fusion_lat": 0.0, "name": "7d37bb7952044cc753035a8eeae1a3a9", "is_disabled": 0, "rental_uris": {"android": "https://dc.lft.to/lastmile_qr_scan", "ios": "https://dc.lft.to/lastmile_qr_scan"}, "fusion_lon": 0.0, "lat": 38.901776, "bike_id": "7d37bb7952044cc753035a8eeae1a3a9", "type": "electric_scooter", "is_reserved": 0, "lon": -77.016169}, {"fusion_lat": 0.0, "name": "260db4f6dc7aa7f4e788444cf4dc43d5", "is_disabled": 0, "rental_uris": {"android": "https://dc.lft.to/lastmile_qr_scan", "ios": "https://dc.lft.to/lastmile_qr_scan"}, "fusion_lon": 0.0, "lat": 38.90682816666666, "bike_id": "260db4f6dc7aa7f4e788444cf4dc43d5", "type": "electric_scooter", "is_reserved": 0, "lon": -77.0271475}, {"fusion_lat": 0.0, "name": "2ce244698635ea0f4d22cb0b8eff617c", "is_disabled": 0, "rental_uris": {"android": "https://dc.lft.to/lastmile_qr_scan", "ios": "https://dc.lft.to/lastmile_qr_scan"}, "fusion_lon": 0.0, "lat": 38.90412166666667, "bike_id": "2ce244698635ea0f4d22cb0b8eff617c", "type": "electric_scooter", "is_reserved": 0, "lon": -76.973329}, {"fusion_lat": 0.0, "name": "756c5b8d237d7cbb590d49f0a656c723", "is_disabled": 0, "rental_uris": {"android": "https://dc.lft.to/lastmile_qr_scan", "ios": "https://dc.lft.to/lastmile_qr_scan"}, "fusion_lon": 0.0, "lat": 38.93080583333333, "bike_id": "756c5b8d237d7cbb590d49f0a656c723", "type": "electric_scooter", "is_reserved": 0, "lon": -77.07763516666667}, {"fusion_lat": 0.0, "name": "2be8bee5ad71df7eb88d76f7f9143690", "is_disabled": 0, "rental_uris": {"android": "https://dc.lft.to/lastmile_qr_scan", "ios": "https://dc.lft.to/lastmile_qr_scan"}, "fusion_lon": 0.0, "lat": 38.89233133333333, "bike_id": "2be8bee5ad71df7eb88d76f7f9143690", "type": "electric_scooter", "is_reserved": 0, "lon": -77.03178416666667}, {"fusion_lat": 0.0, "name": "53fa38b34d3657de2f4540ccbd925b30", "is_disabled": 0, "rental_uris": {"android": "https://dc.lft.to/lastmile_qr_scan", "ios": "https://dc.lft.to/lastmile_qr_scan"}, "fusion_lon": 0.0, "lat": 38.902521166666666, "bike_id": "53fa38b34d3657de2f4540ccbd925b30", "type": "electric_scooter", "is_reserved": 0, "lon": -76.97449033333334}, {"fusion_lat": 0.0, "name": "f054b27d82a0f23db70a16315824103a", "is_disabled": 0, "rental_uris": {"android": "https://dc.lft.to/lastmile_qr_scan", "ios": "https://dc.lft.to/lastmile_qr_scan"}, "fusion_lon": 0.0, "lat": 38.90158133333333, "bike_id": "f054b27d82a0f23db70a16315824103a", "type": "electric_scooter", "is_reserved": 0, "lon": -77.03318766666666}, {"fusion_lat": 0.0, "name": "ff950886cd0f509caa9107d699379279", "is_disabled": 0, "rental_uris": {"android": "https://dc.lft.to/lastmile_qr_scan", "ios": "https://dc.lft.to/lastmile_qr_scan"}, "fusion_lon": 0.0, "lat": 38.95632116666667, "bike_id": "ff950886cd0f509caa9107d699379279", "type": "electric_scooter", "is_reserved": 0, "lon": -77.023147}, {"fusion_lat": 0.0, "name": "27c62d8853e9513618cc5a5cc3e46448", "is_disabled": 0, "rental_uris": {"android": "https://dc.lft.to/lastmile_qr_scan", "ios": "https://dc.lft.to/lastmile_qr_scan"}, "fusion_lon": 0.0, "lat": 38.86019616666667, "bike_id": "27c62d8853e9513618cc5a5cc3e46448", "type": "electric_bike", "is_reserved": 0, "lon": -77.12807233333334}, {"fusion_lat": 0.0, "name": "d85b4442eb6b9680ac4448fd615efa96", "is_disabled": 0, "rental_uris": {"android": "https://dc.lft.to/lastmile_qr_scan", "ios": "https://dc.lft.to/lastmile_qr_scan"}, "fusion_lon": 0.0, "lat": 38.95238033333333, "bike_id": "d85b4442eb6b9680ac4448fd615efa96", "type": "electric_scooter", "is_reserved": 0, "lon": -76.990037}, {"fusion_lat": 0.0, "name": "aac2de8885be10ef37fef2697aa98164", "is_disabled": 0, "rental_uris": {"android": "https://dc.lft.to/lastmile_qr_scan", "ios": "https://dc.lft.to/lastmile_qr_scan"}, "fusion_lon": 0.0, "lat": 38.909781833333334, "bike_id": "aac2de8885be10ef37fef2697aa98164", "type": "electric_scooter", "is_reserved": 0, "lon": -77.02179116666667}, {"fusion_lat": 0.0, "name": "163bd8be3c5a857d79df5a87d674d874", "is_disabled": 0, "rental_uris": {"android": "https://dc.lft.to/lastmile_qr_scan", "ios": "https://dc.lft.to/lastmile_qr_scan"}, "fusion_lon": 0.0, "lat": 38.880701333333334, "bike_id": "163bd8be3c5a857d79df5a87d674d874", "type": "electric_scooter", "is_reserved": 0, "lon": -77.02555733333334}, {"fusion_lat": 0.0, "name": "20ae38dc570de8e141804e2838fa77ae", "is_disabled": 0, "rental_uris": {"android": "https://dc.lft.to/lastmile_qr_scan", "ios": "https://dc.lft.to/lastmile_qr_scan"}, "fusion_lon": 0.0, "lat": 38.91688666666667, "bike_id": "20ae38dc570de8e141804e2838fa77ae", "type": "electric_scooter", "is_reserved": 0, "lon": -77.0233785}, {"fusion_lat": 0.0, "name": "1a33bdabe1cce37f2dc6eb06725c83e2", "is_disabled": 0, "rental_uris": {"android": "https://dc.lft.to/lastmile_qr_scan", "ios": "https://dc.lft.to/lastmile_qr_scan"}, "fusion_lon": 0.0, "lat": 38.887700833333334, "bike_id": "1a33bdabe1cce37f2dc6eb06725c83e2", "type": "electric_scooter", "is_reserved": 0, "lon": -77.00258516666666}, {"fusion_lat": 0.0, "name": "0173213560fc12ca30ef42001ea6bf67", "is_disabled": 0, "rental_uris": {"android": "https://dc.lft.to/lastmile_qr_scan", "ios": "https://dc.lft.to/lastmile_qr_scan"}, "fusion_lon": 0.0, "lat": 38.902570833333336, "bike_id": "0173213560fc12ca30ef42001ea6bf67", "type": "electric_scooter", "is_reserved": 0, "lon": -77.03955766666667}, {"fusion_lat": 0.0, "name": "eba19c35917a299bc80be6152cd0bcbc", "is_disabled": 0, "rental_uris": {"android": "https://dc.lft.to/lastmile_qr_scan", "ios": "https://dc.lft.to/lastmile_qr_scan"}, "fusion_lon": 0.0, "lat": 38.8553095, "bike_id": "eba19c35917a299bc80be6152cd0bcbc", "type": "electric_bike", "is_reserved": 0, "lon": -77.1202295}, {"fusion_lat": 0.0, "name": "7b9cd2c14726c8d553a9d139d1875f1b", "is_disabled": 0, "rental_uris": {"android": "https://dc.lft.to/lastmile_qr_scan", "ios": "https://dc.lft.to/lastmile_qr_scan"}, "fusion_lon": 0.0, "lat": 38.92232716666667, "bike_id": "7b9cd2c14726c8d553a9d139d1875f1b", "type": "electric_scooter", "is_reserved": 0, "lon": -77.04650383333333}, {"fusion_lat": 0.0, "name": "e3c3096a5502025876f18d6f3109372b", "is_disabled": 0, "rental_uris": {"android": "https://dc.lft.to/lastmile_qr_scan", "ios": "https://dc.lft.to/lastmile_qr_scan"}, "fusion_lon": 0.0, "lat": 38.91697716666667, "bike_id": "e3c3096a5502025876f18d6f3109372b", "type": "electric_scooter", "is_reserved": 0, "lon": -77.02729733333334}, {"fusion_lat": 0.0, "name": "d89a29f777c7b7d4db519c304e030fc8", "is_disabled": 0, "rental_uris": {"android": "https://dc.lft.to/lastmile_qr_scan", "ios": "https://dc.lft.to/lastmile_qr_scan"}, "fusion_lon": 0.0, "lat": 38.9528615, "bike_id": "d89a29f777c7b7d4db519c304e030fc8", "type": "electric_scooter", "is_reserved": 0, "lon": -77.03649633333333}, {"fusion_lat": 0.0, "name": "4835bc7ed7e068f8ea5a0320e63df914", "is_disabled": 0, "rental_uris": {"android": "https://dc.lft.to/lastmile_qr_scan", "ios": "https://dc.lft.to/lastmile_qr_scan"}, "fusion_lon": 0.0, "lat": 38.91256516666667, "bike_id": "4835bc7ed7e068f8ea5a0320e63df914", "type": "electric_scooter", "is_reserved": 0, "lon": -77.00775866666666}, {"fusion_lat": 0.0, "name": "e5e0430c71d67d2eba243b25a676430b", "is_disabled": 0, "rental_uris": {"android": "https://dc.lft.to/lastmile_qr_scan", "ios": "https://dc.lft.to/lastmile_qr_scan"}, "fusion_lon": 0.0, "lat": 38.901392666666666, "bike_id": "e5e0430c71d67d2eba243b25a676430b", "type": "electric_scooter", "is_reserved": 0, "lon": -76.99046883333334}, {"fusion_lat": 0.0, "name": "a0bf14f3420e0a956a166fc92b428f90", "is_disabled": 0, "rental_uris": {"android": "https://dc.lft.to/lastmile_qr_scan", "ios": "https://dc.lft.to/lastmile_qr_scan"}, "fusion_lon": 0.0, "lat": 38.9151975, "bike_id": "a0bf14f3420e0a956a166fc92b428f90", "type": "electric_scooter", "is_reserved": 0, "lon": -77.01326933333333}, {"fusion_lat": 0.0, "name": "c6af153f0e9ea09b9909d765992c8c02", "is_disabled": 0, "rental_uris": {"android": "https://dc.lft.to/lastmile_qr_scan", "ios": "https://dc.lft.to/lastmile_qr_scan"}, "fusion_lon": 0.0, "lat": 38.992228833333336, "bike_id": "c6af153f0e9ea09b9909d765992c8c02", "type": "electric_bike", "is_reserved": 0, "lon": -76.9441415}, {"fusion_lat": 0.0, "name": "e574820a203fc5e5fdbaf1294c0cf8c0", "is_disabled": 0, "rental_uris": {"android": "https://dc.lft.to/lastmile_qr_scan", "ios": "https://dc.lft.to/lastmile_qr_scan"}, "fusion_lon": 0.0, "lat": 38.8961385, "bike_id": "e574820a203fc5e5fdbaf1294c0cf8c0", "type": "electric_scooter", "is_reserved": 0, "lon": -77.04482266666666}, {"fusion_lat": 0.0, "name": "cde908a821099c832a7506a2aff519ed", "is_disabled": 0, "rental_uris": {"android": "https://dc.lft.to/lastmile_qr_scan", "ios": "https://dc.lft.to/lastmile_qr_scan"}, "fusion_lon": 0.0, "lat": 38.95795966666667, "bike_id": "cde908a821099c832a7506a2aff519ed", "type": "electric_bike", "is_reserved": 0, "lon": -76.99970466666667}, {"fusion_lat": 0.0, "name": "657c1ddc96a25494367daa0dbe8a2bfb", "is_disabled": 0, "rental_uris": {"android": "https://dc.lft.to/lastmile_qr_scan", "ios": "https://dc.lft.to/lastmile_qr_scan"}, "fusion_lon": 0.0, "lat": 38.845059, "bike_id": "657c1ddc96a25494367daa0dbe8a2bfb", "type": "electric_bike", "is_reserved": 0, "lon": -76.99352916666666}, {"fusion_lat": 0.0, "name": "4a051588c084500e7b903bf6881d7f96", "is_disabled": 0, "rental_uris": {"android": "https://dc.lft.to/lastmile_qr_scan", "ios": "https://dc.lft.to/lastmile_qr_scan"}, "fusion_lon": 0.0, "lat": 38.900125333333335, "bike_id": "4a051588c084500e7b903bf6881d7f96", "type": "electric_scooter", "is_reserved": 0, "lon": -77.03945316666666}, {"fusion_lat": 0.0, "name": "4c57857aa56f47bf15ad409e172489ea", "is_disabled": 0, "rental_uris": {"android": "https://dc.lft.to/lastmile_qr_scan", "ios": "https://dc.lft.to/lastmile_qr_scan"}, "fusion_lon": 0.0, "lat": 38.90395383333333, "bike_id": "4c57857aa56f47bf15ad409e172489ea", "type": "electric_scooter", "is_reserved": 0, "lon": -77.06147666666666}, {"fusion_lat": 0.0, "name": "b0dc5ef1ec65eacbdb1cdd9235a1c7e8", "is_disabled": 0, "rental_uris": {"android": "https://dc.lft.to/lastmile_qr_scan", "ios": "https://dc.lft.to/lastmile_qr_scan"}, "fusion_lon": 0.0, "lat": 38.85779266666667, "bike_id": "b0dc5ef1ec65eacbdb1cdd9235a1c7e8", "type": "electric_scooter", "is_reserved": 0, "lon": -76.97301183333333}, {"fusion_lat": 0.0, "name": "a2f7d0ea28ce5b25f94d63c1178e6ddc", "is_disabled": 0, "rental_uris": {"android": "https://dc.lft.to/lastmile_qr_scan", "ios": "https://dc.lft.to/lastmile_qr_scan"}, "fusion_lon": 0.0, "lat": 38.917890666666665, "bike_id": "a2f7d0ea28ce5b25f94d63c1178e6ddc", "type": "electric_scooter", "is_reserved": 0, "lon": -77.0231515}, {"fusion_lat": 0.0, "name": "ddbba3eabeeab36bb6309063368f5ad0", "is_disabled": 0, "rental_uris": {"android": "https://dc.lft.to/lastmile_qr_scan", "ios": "https://dc.lft.to/lastmile_qr_scan"}, "fusion_lon": 0.0, "lat": 38.956374, "bike_id": "ddbba3eabeeab36bb6309063368f5ad0", "type": "electric_scooter", "is_reserved": 0, "lon": -77.02835466666667}, {"fusion_lat": 0.0, "name": "8c75dd69221b8da9511a8367c19442f8", "is_disabled": 0, "rental_uris": {"android": "https://dc.lft.to/lastmile_qr_scan", "ios": "https://dc.lft.to/lastmile_qr_scan"}, "fusion_lon": 0.0, "lat": 38.900644666666665, "bike_id": "8c75dd69221b8da9511a8367c19442f8", "type": "electric_scooter", "is_reserved": 0, "lon": -76.93387366666667}, {"fusion_lat": 0.0, "name": "7884d013b95847285a557361416e7734", "is_disabled": 0, "rental_uris": {"android": "https://dc.lft.to/lastmile_qr_scan", "ios": "https://dc.lft.to/lastmile_qr_scan"}, "fusion_lon": 0.0, "lat": 38.925421, "bike_id": "7884d013b95847285a557361416e7734", "type": "electric_scooter", "is_reserved": 0, "lon": -77.055606}, {"fusion_lat": 0.0, "name": "f20719dd6b68977e351c485d5eeaddbe", "is_disabled": 0, "rental_uris": {"android": "https://dc.lft.to/lastmile_qr_scan", "ios": "https://dc.lft.to/lastmile_qr_scan"}, "fusion_lon": 0.0, "lat": 38.917024833333336, "bike_id": "f20719dd6b68977e351c485d5eeaddbe", "type": "electric_scooter", "is_reserved": 0, "lon": -77.02744266666667}, {"fusion_lat": 0.0, "name": "697af58a75024169b49f83c31fdbc6c6", "is_disabled": 0, "rental_uris": {"android": "https://dc.lft.to/lastmile_qr_scan", "ios": "https://dc.lft.to/lastmile_qr_scan"}, "fusion_lon": 0.0, "lat": 38.935495, "bike_id": "697af58a75024169b49f83c31fdbc6c6", "type": "electric_scooter", "is_reserved": 0, "lon": -77.032649}, {"fusion_lat": 0.0, "name": "626d4e373cc684598e9eb7116f0ad2f8", "is_disabled": 0, "rental_uris": {"android": "https://dc.lft.to/lastmile_qr_scan", "ios": "https://dc.lft.to/lastmile_qr_scan"}, "fusion_lon": 0.0, "lat": 38.892308666666665, "bike_id": "626d4e373cc684598e9eb7116f0ad2f8", "type": "electric_scooter", "is_reserved": 0, "lon": -77.02205983333333}, {"fusion_lat": 0.0, "name": "408cfb4d2c4fe15d2d9e8a589e455a2b", "is_disabled": 0, "rental_uris": {"android": "https://dc.lft.to/lastmile_qr_scan", "ios": "https://dc.lft.to/lastmile_qr_scan"}, "fusion_lon": 0.0, "lat": 38.9192475, "bike_id": "408cfb4d2c4fe15d2d9e8a589e455a2b", "type": "electric_scooter", "is_reserved": 0, "lon": -77.0357945}, {"fusion_lat": 0.0, "name": "fca46b377342714c985b8103a8f93d2e", "is_disabled": 0, "rental_uris": {"android": "https://dc.lft.to/lastmile_qr_scan", "ios": "https://dc.lft.to/lastmile_qr_scan"}, "fusion_lon": 0.0, "lat": 38.91685733333333, "bike_id": "fca46b377342714c985b8103a8f93d2e", "type": "electric_scooter", "is_reserved": 0, "lon": -77.0232975}, {"fusion_lat": 0.0, "name": "fe3299deb55bd3d475840050e4b9bb55", "is_disabled": 0, "rental_uris": {"android": "https://dc.lft.to/lastmile_qr_scan", "ios": "https://dc.lft.to/lastmile_qr_scan"}, "fusion_lon": 0.0, "lat": 38.933438333333335, "bike_id": "fe3299deb55bd3d475840050e4b9bb55", "type": "electric_scooter", "is_reserved": 0, "lon": -77.02379366666666}, {"fusion_lat": 0.0, "name": "ca24f27f94bf7daf16b3a575de8a6da1", "is_disabled": 0, "rental_uris": {"android": "https://dc.lft.to/lastmile_qr_scan", "ios": "https://dc.lft.to/lastmile_qr_scan"}, "fusion_lon": 0.0, "lat": 38.911459, "bike_id": "ca24f27f94bf7daf16b3a575de8a6da1", "type": "electric_scooter", "is_reserved": 0, "lon": -76.99692583333334}, {"fusion_lat": 0.0, "name": "9e93dde6c1478cb891cabe72db603ab9", "is_disabled": 0, "rental_uris": {"android": "https://dc.lft.to/lastmile_qr_scan", "ios": "https://dc.lft.to/lastmile_qr_scan"}, "fusion_lon": 0.0, "lat": 38.9038615, "bike_id": "9e93dde6c1478cb891cabe72db603ab9", "type": "electric_scooter", "is_reserved": 0, "lon": -77.0533915}, {"fusion_lat": 0.0, "name": "263280c3d3a8b0206a995054f4c8300a", "is_disabled": 0, "rental_uris": {"android": "https://dc.lft.to/lastmile_qr_scan", "ios": "https://dc.lft.to/lastmile_qr_scan"}, "fusion_lon": 0.0, "lat": 38.907651333333334, "bike_id": "263280c3d3a8b0206a995054f4c8300a", "type": "electric_scooter", "is_reserved": 0, "lon": -77.03856183333333}, {"fusion_lat": 0.0, "name": "aef4684529ef523a328d9c05bb74dd8d", "is_disabled": 0, "rental_uris": {"android": "https://dc.lft.to/lastmile_qr_scan", "ios": "https://dc.lft.to/lastmile_qr_scan"}, "fusion_lon": 0.0, "lat": 38.900364833333335, "bike_id": "aef4684529ef523a328d9c05bb74dd8d", "type": "electric_bike", "is_reserved": 0, "lon": -76.972233}, {"fusion_lat": 0.0, "name": "50ff39b1ce301be4d42697ef9c2da032", "is_disabled": 0, "rental_uris": {"android": "https://dc.lft.to/lastmile_qr_scan", "ios": "https://dc.lft.to/lastmile_qr_scan"}, "fusion_lon": 0.0, "lat": 38.905256666666666, "bike_id": "50ff39b1ce301be4d42697ef9c2da032", "type": "electric_scooter", "is_reserved": 0, "lon": -77.02952316666666}, {"fusion_lat": 0.0, "name": "cba10c9cac1fde081ae25c4fcc9ee63e", "is_disabled": 0, "rental_uris": {"android": "https://dc.lft.to/lastmile_qr_scan", "ios": "https://dc.lft.to/lastmile_qr_scan"}, "fusion_lon": 0.0, "lat": 38.917088666666665, "bike_id": "cba10c9cac1fde081ae25c4fcc9ee63e", "type": "electric_scooter", "is_reserved": 0, "lon": -77.02402933333333}, {"fusion_lat": 0.0, "name": "c3b88fbb08b9c026a5a3bcf0db781462", "is_disabled": 0, "rental_uris": {"android": "https://dc.lft.to/lastmile_qr_scan", "ios": "https://dc.lft.to/lastmile_qr_scan"}, "fusion_lon": 0.0, "lat": 38.892230833333336, "bike_id": "c3b88fbb08b9c026a5a3bcf0db781462", "type": "electric_scooter", "is_reserved": 0, "lon": -77.02018283333334}, {"fusion_lat": 0.0, "name": "a751f11e0455036728a073af14fd0777", "is_disabled": 0, "rental_uris": {"android": "https://dc.lft.to/lastmile_qr_scan", "ios": "https://dc.lft.to/lastmile_qr_scan"}, "fusion_lon": 0.0, "lat": 38.89727283333333, "bike_id": "a751f11e0455036728a073af14fd0777", "type": "electric_scooter", "is_reserved": 0, "lon": -77.0463655}, {"fusion_lat": 0.0, "name": "ec596a0c820050f6280a69ebf7c494d0", "is_disabled": 0, "rental_uris": {"android": "https://dc.lft.to/lastmile_qr_scan", "ios": "https://dc.lft.to/lastmile_qr_scan"}, "fusion_lon": 0.0, "lat": 38.931712833333336, "bike_id": "ec596a0c820050f6280a69ebf7c494d0", "type": "electric_scooter", "is_reserved": 0, "lon": -77.03769616666666}, {"fusion_lat": 0.0, "name": "fcd79a7b1d1d866f0c4bee5b40413d44", "is_disabled": 0, "rental_uris": {"android": "https://dc.lft.to/lastmile_qr_scan", "ios": "https://dc.lft.to/lastmile_qr_scan"}, "fusion_lon": 0.0, "lat": 38.938612, "bike_id": "fcd79a7b1d1d866f0c4bee5b40413d44", "type": "electric_scooter", "is_reserved": 0, "lon": -77.02650233333334}, {"fusion_lat": 0.0, "name": "d75e0c101e1e3be66e1d9291665a3459", "is_disabled": 0, "rental_uris": {"android": "https://dc.lft.to/lastmile_qr_scan", "ios": "https://dc.lft.to/lastmile_qr_scan"}, "fusion_lon": 0.0, "lat": 38.92339883333333, "bike_id": "d75e0c101e1e3be66e1d9291665a3459", "type": "electric_scooter", "is_reserved": 0, "lon": -77.03519966666667}, {"fusion_lat": 0.0, "name": "0af451d2f80d55c66e5af16d63f86060", "is_disabled": 0, "rental_uris": {"android": "https://dc.lft.to/lastmile_qr_scan", "ios": "https://dc.lft.to/lastmile_qr_scan"}, "fusion_lon": 0.0, "lat": 38.8320935, "bike_id": "0af451d2f80d55c66e5af16d63f86060", "type": "electric_bike", "is_reserved": 0, "lon": -76.996748}, {"fusion_lat": 0.0, "name": "ebb625d74f892cdadfb0a0c56499ff45", "is_disabled": 0, "rental_uris": {"android": "https://dc.lft.to/lastmile_qr_scan", "ios": "https://dc.lft.to/lastmile_qr_scan"}, "fusion_lon": 0.0, "lat": 38.966796, "bike_id": "ebb625d74f892cdadfb0a0c56499ff45", "type": "electric_bike", "is_reserved": 0, "lon": -77.02302316666666}, {"fusion_lat": 0.0, "name": "51b38d47125046e1b34070e756a2bea5", "is_disabled": 0, "rental_uris": {"android": "https://dc.lft.to/lastmile_qr_scan", "ios": "https://dc.lft.to/lastmile_qr_scan"}, "fusion_lon": 0.0, "lat": 38.91438733333333, "bike_id": "51b38d47125046e1b34070e756a2bea5", "type": "electric_scooter", "is_reserved": 0, "lon": -76.99355916666667}, {"fusion_lat": 0.0, "name": "2053d986756295c41d7820feaf7461d2", "is_disabled": 0, "rental_uris": {"android": "https://dc.lft.to/lastmile_qr_scan", "ios": "https://dc.lft.to/lastmile_qr_scan"}, "fusion_lon": 0.0, "lat": 38.87715266666667, "bike_id": "2053d986756295c41d7820feaf7461d2", "type": "electric_scooter", "is_reserved": 0, "lon": -77.00401316666667}, {"fusion_lat": 0.0, "name": "a39898b781e51fcb766287ec610e15e5", "is_disabled": 0, "rental_uris": {"android": "https://dc.lft.to/lastmile_qr_scan", "ios": "https://dc.lft.to/lastmile_qr_scan"}, "fusion_lon": 0.0, "lat": 38.9024045, "bike_id": "a39898b781e51fcb766287ec610e15e5", "type": "electric_scooter", "is_reserved": 0, "lon": -77.02693116666667}, {"fusion_lat": 0.0, "name": "4b7b8d738560730b2bc427620ed626f4", "is_disabled": 0, "rental_uris": {"android": "https://dc.lft.to/lastmile_qr_scan", "ios": "https://dc.lft.to/lastmile_qr_scan"}, "fusion_lon": 0.0, "lat": 38.907382166666665, "bike_id": "4b7b8d738560730b2bc427620ed626f4", "type": "electric_scooter", "is_reserved": 0, "lon": -77.03450383333333}, {"fusion_lat": 0.0, "name": "8ceea7b626d33d57175ec5a311fe9e38", "is_disabled": 0, "rental_uris": {"android": "https://dc.lft.to/lastmile_qr_scan", "ios": "https://dc.lft.to/lastmile_qr_scan"}, "fusion_lon": 0.0, "lat": 38.922550333333334, "bike_id": "8ceea7b626d33d57175ec5a311fe9e38", "type": "electric_scooter", "is_reserved": 0, "lon": -77.00916833333333}, {"fusion_lat": 0.0, "name": "f4267048fc24847a2303197781ed39a4", "is_disabled": 0, "rental_uris": {"android": "https://dc.lft.to/lastmile_qr_scan", "ios": "https://dc.lft.to/lastmile_qr_scan"}, "fusion_lon": 0.0, "lat": 38.911223, "bike_id": "f4267048fc24847a2303197781ed39a4", "type": "electric_scooter", "is_reserved": 0, "lon": -77.03833316666666}, {"fusion_lat": 0.0, "name": "c222e3ee0908076ea3baea279aa3a32c", "is_disabled": 0, "rental_uris": {"android": "https://dc.lft.to/lastmile_qr_scan", "ios": "https://dc.lft.to/lastmile_qr_scan"}, "fusion_lon": 0.0, "lat": 38.92962433333334, "bike_id": "c222e3ee0908076ea3baea279aa3a32c", "type": "electric_scooter", "is_reserved": 0, "lon": -76.99174783333333}, {"fusion_lat": 0.0, "name": "2f498a0c15d153b1cc4ecb4a7edab3d5", "is_disabled": 0, "rental_uris": {"android": "https://dc.lft.to/lastmile_qr_scan", "ios": "https://dc.lft.to/lastmile_qr_scan"}, "fusion_lon": 0.0, "lat": 38.90433066666667, "bike_id": "2f498a0c15d153b1cc4ecb4a7edab3d5", "type": "electric_scooter", "is_reserved": 0, "lon": -77.02238133333333}, {"fusion_lat": 0.0, "name": "60a9aacd265616cfcc88e383915d6000", "is_disabled": 0, "rental_uris": {"android": "https://dc.lft.to/lastmile_qr_scan", "ios": "https://dc.lft.to/lastmile_qr_scan"}, "fusion_lon": 0.0, "lat": 38.91992483333333, "bike_id": "60a9aacd265616cfcc88e383915d6000", "type": "electric_scooter", "is_reserved": 0, "lon": -77.02406016666667}, {"fusion_lat": 0.0, "name": "e7b7ea4241d1d6b680b42580c60769c1", "is_disabled": 0, "rental_uris": {"android": "https://dc.lft.to/lastmile_qr_scan", "ios": "https://dc.lft.to/lastmile_qr_scan"}, "fusion_lon": 0.0, "lat": 38.907582166666664, "bike_id": "e7b7ea4241d1d6b680b42580c60769c1", "type": "electric_scooter", "is_reserved": 0, "lon": -77.0384645}, {"fusion_lat": 0.0, "name": "0697b18e080176b6deddf83ebfba70af", "is_disabled": 0, "rental_uris": {"android": "https://dc.lft.to/lastmile_qr_scan", "ios": "https://dc.lft.to/lastmile_qr_scan"}, "fusion_lon": 0.0, "lat": 38.90574933333333, "bike_id": "0697b18e080176b6deddf83ebfba70af", "type": "electric_scooter", "is_reserved": 0, "lon": -77.03838433333334}, {"fusion_lat": 0.0, "name": "bb02d211d1757db53e4beb94aeb95e06", "is_disabled": 0, "rental_uris": {"android": "https://dc.lft.to/lastmile_qr_scan", "ios": "https://dc.lft.to/lastmile_qr_scan"}, "fusion_lon": 0.0, "lat": 38.8840045, "bike_id": "bb02d211d1757db53e4beb94aeb95e06", "type": "electric_bike", "is_reserved": 0, "lon": -76.96050966666667}, {"fusion_lat": 0.0, "name": "7155129d87f714ad5f1cfeda2e10dc5d", "is_disabled": 0, "rental_uris": {"android": "https://dc.lft.to/lastmile_qr_scan", "ios": "https://dc.lft.to/lastmile_qr_scan"}, "fusion_lon": 0.0, "lat": 38.995383333333336, "bike_id": "7155129d87f714ad5f1cfeda2e10dc5d", "type": "electric_bike", "is_reserved": 0, "lon": -77.0746455}, {"fusion_lat": 0.0, "name": "2bcd231269c8645244f8715bf27fbeb2", "is_disabled": 0, "rental_uris": {"android": "https://dc.lft.to/lastmile_qr_scan", "ios": "https://dc.lft.to/lastmile_qr_scan"}, "fusion_lon": 0.0, "lat": 38.92970866666667, "bike_id": "2bcd231269c8645244f8715bf27fbeb2", "type": "electric_scooter", "is_reserved": 0, "lon": -77.03150766666667}, {"fusion_lat": 0.0, "name": "f73aa7dac4518f2bf9cb301be236c8db", "is_disabled": 0, "rental_uris": {"android": "https://dc.lft.to/lastmile_qr_scan", "ios": "https://dc.lft.to/lastmile_qr_scan"}, "fusion_lon": 0.0, "lat": 38.86268716666667, "bike_id": "f73aa7dac4518f2bf9cb301be236c8db", "type": "electric_bike", "is_reserved": 0, "lon": -76.98354533333334}, {"fusion_lat": 0.0, "name": "5577777c52e546d4dd92e515d1bda2f5", "is_disabled": 0, "rental_uris": {"android": "https://dc.lft.to/lastmile_qr_scan", "ios": "https://dc.lft.to/lastmile_qr_scan"}, "fusion_lon": 0.0, "lat": 38.92248516666667, "bike_id": "5577777c52e546d4dd92e515d1bda2f5", "type": "electric_scooter", "is_reserved": 0, "lon": -77.02996233333333}, {"fusion_lat": 0.0, "name": "0f5abf0bea88b877fa779c0ea6df72f0", "is_disabled": 0, "rental_uris": {"android": "https://dc.lft.to/lastmile_qr_scan", "ios": "https://dc.lft.to/lastmile_qr_scan"}, "fusion_lon": 0.0, "lat": 38.9163695, "bike_id": "0f5abf0bea88b877fa779c0ea6df72f0", "type": "electric_scooter", "is_reserved": 0, "lon": -77.03212916666666}, {"fusion_lat": 0.0, "name": "96a5fe0792be5b5628c919f6ab987db7", "is_disabled": 0, "rental_uris": {"android": "https://dc.lft.to/lastmile_qr_scan", "ios": "https://dc.lft.to/lastmile_qr_scan"}, "fusion_lon": 0.0, "lat": 38.88616483333333, "bike_id": "96a5fe0792be5b5628c919f6ab987db7", "type": "electric_scooter", "is_reserved": 0, "lon": -77.019852}, {"fusion_lat": 0.0, "name": "fe4bc9b4d6fe913f08d2002ae59a5a2d", "is_disabled": 0, "rental_uris": {"android": "https://dc.lft.to/lastmile_qr_scan", "ios": "https://dc.lft.to/lastmile_qr_scan"}, "fusion_lon": 0.0, "lat": 38.94657216666667, "bike_id": "fe4bc9b4d6fe913f08d2002ae59a5a2d", "type": "electric_bike", "is_reserved": 0, "lon": -77.0070275}, {"fusion_lat": 0.0, "name": "61d8cdd6fe193c25e4a87ae105e9e5a5", "is_disabled": 0, "rental_uris": {"android": "https://dc.lft.to/lastmile_qr_scan", "ios": "https://dc.lft.to/lastmile_qr_scan"}, "fusion_lon": 0.0, "lat": 38.89249233333334, "bike_id": "61d8cdd6fe193c25e4a87ae105e9e5a5", "type": "electric_scooter", "is_reserved": 0, "lon": -77.03215083333333}, {"fusion_lat": 0.0, "name": "b5ba7260fc351199cc0f795dff07e9ba", "is_disabled": 0, "rental_uris": {"android": "https://dc.lft.to/lastmile_qr_scan", "ios": "https://dc.lft.to/lastmile_qr_scan"}, "fusion_lon": 0.0, "lat": 38.887257166666664, "bike_id": "b5ba7260fc351199cc0f795dff07e9ba", "type": "electric_scooter", "is_reserved": 0, "lon": -77.01329416666667}, {"fusion_lat": 0.0, "name": "2b8732ce9313dfa6b98adbdb2bb139e8", "is_disabled": 0, "rental_uris": {"android": "https://dc.lft.to/lastmile_qr_scan", "ios": "https://dc.lft.to/lastmile_qr_scan"}, "fusion_lon": 0.0, "lat": 38.93676266666667, "bike_id": "2b8732ce9313dfa6b98adbdb2bb139e8", "type": "electric_scooter", "is_reserved": 0, "lon": -77.03595783333333}, {"fusion_lat": 0.0, "name": "7155c152045e2f4cd4740ac28a703e00", "is_disabled": 0, "rental_uris": {"android": "https://dc.lft.to/lastmile_qr_scan", "ios": "https://dc.lft.to/lastmile_qr_scan"}, "fusion_lon": 0.0, "lat": 38.881219333333334, "bike_id": "7155c152045e2f4cd4740ac28a703e00", "type": "electric_scooter", "is_reserved": 0, "lon": -76.99852083333333}, {"fusion_lat": 0.0, "name": "5c22aaa58ae07ccc37a95590934d59ad", "is_disabled": 0, "rental_uris": {"android": "https://dc.lft.to/lastmile_qr_scan", "ios": "https://dc.lft.to/lastmile_qr_scan"}, "fusion_lon": 0.0, "lat": 38.916676, "bike_id": "5c22aaa58ae07ccc37a95590934d59ad", "type": "electric_scooter", "is_reserved": 0, "lon": -77.02826333333333}, {"fusion_lat": 0.0, "name": "a1b11c0ac9838718ecd82464ff2e1f34", "is_disabled": 0, "rental_uris": {"android": "https://dc.lft.to/lastmile_qr_scan", "ios": "https://dc.lft.to/lastmile_qr_scan"}, "fusion_lon": 0.0, "lat": 38.92360516666667, "bike_id": "a1b11c0ac9838718ecd82464ff2e1f34", "type": "electric_scooter", "is_reserved": 0, "lon": -77.042536}, {"fusion_lat": 0.0, "name": "5a5ca12726c1b855c72e7f24f8ad00b1", "is_disabled": 0, "rental_uris": {"android": "https://dc.lft.to/lastmile_qr_scan", "ios": "https://dc.lft.to/lastmile_qr_scan"}, "fusion_lon": 0.0, "lat": 38.922693833333334, "bike_id": "5a5ca12726c1b855c72e7f24f8ad00b1", "type": "electric_scooter", "is_reserved": 0, "lon": -76.9976635}, {"fusion_lat": 0.0, "name": "8c38c5d73ea4beb3cdf4554981465d50", "is_disabled": 0, "rental_uris": {"android": "https://dc.lft.to/lastmile_qr_scan", "ios": "https://dc.lft.to/lastmile_qr_scan"}, "fusion_lon": 0.0, "lat": 38.9027415, "bike_id": "8c38c5d73ea4beb3cdf4554981465d50", "type": "electric_scooter", "is_reserved": 0, "lon": -76.97670983333333}, {"fusion_lat": 0.0, "name": "2a2c003c5662a4652a704100253fd0ca", "is_disabled": 0, "rental_uris": {"android": "https://dc.lft.to/lastmile_qr_scan", "ios": "https://dc.lft.to/lastmile_qr_scan"}, "fusion_lon": 0.0, "lat": 38.924557666666665, "bike_id": "2a2c003c5662a4652a704100253fd0ca", "type": "electric_scooter", "is_reserved": 0, "lon": -77.024082}, {"fusion_lat": 0.0, "name": "5e342d96e1e9d905e337694904603093", "is_disabled": 0, "rental_uris": {"android": "https://dc.lft.to/lastmile_qr_scan", "ios": "https://dc.lft.to/lastmile_qr_scan"}, "fusion_lon": 0.0, "lat": 38.92704883333333, "bike_id": "5e342d96e1e9d905e337694904603093", "type": "electric_scooter", "is_reserved": 0, "lon": -77.02068883333334}, {"fusion_lat": 0.0, "name": "f3081d9951f7e26ae97a4c4182066e50", "is_disabled": 0, "rental_uris": {"android": "https://dc.lft.to/lastmile_qr_scan", "ios": "https://dc.lft.to/lastmile_qr_scan"}, "fusion_lon": 0.0, "lat": 38.87179733333333, "bike_id": "f3081d9951f7e26ae97a4c4182066e50", "type": "electric_scooter", "is_reserved": 0, "lon": -77.006175}, {"fusion_lat": 0.0, "name": "c6e64192e253ed7f7c14c7c80c861ffd", "is_disabled": 0, "rental_uris": {"android": "https://dc.lft.to/lastmile_qr_scan", "ios": "https://dc.lft.to/lastmile_qr_scan"}, "fusion_lon": 0.0, "lat": 38.90009533333333, "bike_id": "c6e64192e253ed7f7c14c7c80c861ffd", "type": "electric_scooter", "is_reserved": 0, "lon": -76.99734733333334}, {"fusion_lat": 0.0, "name": "d14151af0cfcc4d83312b49a9fac324d", "is_disabled": 0, "rental_uris": {"android": "https://dc.lft.to/lastmile_qr_scan", "ios": "https://dc.lft.to/lastmile_qr_scan"}, "fusion_lon": 0.0, "lat": 38.915236, "bike_id": "d14151af0cfcc4d83312b49a9fac324d", "type": "electric_scooter", "is_reserved": 0, "lon": -77.0727015}, {"fusion_lat": 0.0, "name": "ac4d09123eb273f77227356d3664cf5a", "is_disabled": 0, "rental_uris": {"android": "https://dc.lft.to/lastmile_qr_scan", "ios": "https://dc.lft.to/lastmile_qr_scan"}, "fusion_lon": 0.0, "lat": 38.934841666666664, "bike_id": "ac4d09123eb273f77227356d3664cf5a", "type": "electric_scooter", "is_reserved": 0, "lon": -77.0454015}, {"fusion_lat": 0.0, "name": "20c3bbaffcb3941892da796e33756db2", "is_disabled": 0, "rental_uris": {"android": "https://dc.lft.to/lastmile_qr_scan", "ios": "https://dc.lft.to/lastmile_qr_scan"}, "fusion_lon": 0.0, "lat": 38.92349316666667, "bike_id": "20c3bbaffcb3941892da796e33756db2", "type": "electric_scooter", "is_reserved": 0, "lon": -77.02014633333333}, {"fusion_lat": 0.0, "name": "436b4233fc507510c1d224217919ecb8", "is_disabled": 0, "rental_uris": {"android": "https://dc.lft.to/lastmile_qr_scan", "ios": "https://dc.lft.to/lastmile_qr_scan"}, "fusion_lon": 0.0, "lat": 38.871235166666665, "bike_id": "436b4233fc507510c1d224217919ecb8", "type": "electric_scooter", "is_reserved": 0, "lon": -77.00753733333333}, {"fusion_lat": 0.0, "name": "da1996a3b03c0946c66bde96abf0c5d4", "is_disabled": 0, "rental_uris": {"android": "https://dc.lft.to/lastmile_qr_scan", "ios": "https://dc.lft.to/lastmile_qr_scan"}, "fusion_lon": 0.0, "lat": 38.898756666666664, "bike_id": "da1996a3b03c0946c66bde96abf0c5d4", "type": "electric_scooter", "is_reserved": 0, "lon": -76.93186016666667}, {"fusion_lat": 0.0, "name": "8269a902a446cd2605e5254e01b928ab", "is_disabled": 0, "rental_uris": {"android": "https://dc.lft.to/lastmile_qr_scan", "ios": "https://dc.lft.to/lastmile_qr_scan"}, "fusion_lon": 0.0, "lat": 38.953824, "bike_id": "8269a902a446cd2605e5254e01b928ab", "type": "electric_bike", "is_reserved": 0, "lon": -76.9796495}, {"fusion_lat": 0.0, "name": "e7a752cc45b53851dfe4bebcd59fae65", "is_disabled": 0, "rental_uris": {"android": "https://dc.lft.to/lastmile_qr_scan", "ios": "https://dc.lft.to/lastmile_qr_scan"}, "fusion_lon": 0.0, "lat": 38.921406833333336, "bike_id": "e7a752cc45b53851dfe4bebcd59fae65", "type": "electric_scooter", "is_reserved": 0, "lon": -77.04700116666666}, {"fusion_lat": 0.0, "name": "d9d2117eefbd55356c5ad17e05ca0530", "is_disabled": 0, "rental_uris": {"android": "https://dc.lft.to/lastmile_qr_scan", "ios": "https://dc.lft.to/lastmile_qr_scan"}, "fusion_lon": 0.0, "lat": 38.8733445, "bike_id": "d9d2117eefbd55356c5ad17e05ca0530", "type": "electric_bike", "is_reserved": 0, "lon": -77.08216266666666}, {"fusion_lat": 0.0, "name": "4160e0112a95b389ee29f5026d7ed0c1", "is_disabled": 0, "rental_uris": {"android": "https://dc.lft.to/lastmile_qr_scan", "ios": "https://dc.lft.to/lastmile_qr_scan"}, "fusion_lon": 0.0, "lat": 38.932085, "bike_id": "4160e0112a95b389ee29f5026d7ed0c1", "type": "electric_scooter", "is_reserved": 0, "lon": -77.03745783333333}, {"fusion_lat": 0.0, "name": "46ed7ec3b3a067f3b1fc55c63ba375e2", "is_disabled": 0, "rental_uris": {"android": "https://dc.lft.to/lastmile_qr_scan", "ios": "https://dc.lft.to/lastmile_qr_scan"}, "fusion_lon": 0.0, "lat": 38.9008225, "bike_id": "46ed7ec3b3a067f3b1fc55c63ba375e2", "type": "electric_scooter", "is_reserved": 0, "lon": -77.027098}, {"fusion_lat": 0.0, "name": "422f6936879fc57294b6b7954ee18352", "is_disabled": 0, "rental_uris": {"android": "https://dc.lft.to/lastmile_qr_scan", "ios": "https://dc.lft.to/lastmile_qr_scan"}, "fusion_lon": 0.0, "lat": 38.90487016666667, "bike_id": "422f6936879fc57294b6b7954ee18352", "type": "electric_scooter", "is_reserved": 0, "lon": -77.04362083333334},