{"data": {"bikes": [{"lat": 38.90724816666667, "type": "electric_scooter", "is_disabled": 0, "rental_uris": {"android": "https://dc.lft.to/lastmile_qr_scan", "ios": "https://dc.lft.to/lastmile_qr_scan"}, "is_reserved": 0, "bike_id": "0caf37678306e16f5af6184721506582", "name": "0caf37678306e16f5af6184721506582", "fusion_lon": 0.0, "lon": -77.04352333333334, "fusion_lat": 0.0}, {"lat": 38.903837, "type": "electric_scooter", "is_disabled": 0, "rental_uris": {"android": "https://dc.lft.to/lastmile_qr_scan", "ios": "https://dc.lft.to/lastmile_qr_scan"}, "is_reserved": 0, "bike_id": "d864515dd949680337fc32d6fdf34ced", "name": "d864515dd949680337fc32d6fdf34ced", "fusion_lon": 0.0, "lon": -77.03020366666667, "fusion_lat": 0.0}, {"lat": 38.929641833333335, "type": "electric_scooter", "is_disabled": 0, "rental_uris": {"android": "https://dc.lft.to/lastmile_qr_scan", "ios": "https://dc.lft.to/lastmile_qr_scan"}, "is_reserved": 0, "bike_id": "703d9a23ec7c814c9bcf2ac61f0aa475", "name": "703d9a23ec7c814c9bcf2ac61f0aa475", "fusion_lon": 0.0, "lon": -77.04204533333333, "fusion_lat": 0.0}, {"lat": 38.866959666666666, "type": "electric_scooter", "is_disabled": 0, "rental_uris": {"android": "https://dc.lft.to/lastmile_qr_scan", "ios": "https://dc.lft.to/lastmile_qr_scan"}, "is_reserved": 0, "bike_id": "702be6b4f6dcb4ce3a0b48dd5c4430e8", "name": "702be6b4f6dcb4ce3a0b48dd5c4430e8", "fusion_lon": 0.0, "lon": -76.98710366666667, "fusion_lat": 0.0}, {"lat": 38.900353, "type": "electric_scooter", "is_disabled": 0, "rental_uris": {"android": "https://dc.lft.to/lastmile_qr_scan", "ios": "https://dc.lft.to/lastmile_qr_scan"}, "is_reserved": 0, "bike_id": "6797b7afe20cf3f500c584b95c7bf714", "name": "6797b7afe20cf3f500c584b95c7bf714", "fusion_lon": 0.0, "lon": -76.99851766666667, "fusion_lat": 0.0}, {"lat": 38.92016266666667, "type": "electric_scooter", "is_disabled": 0, "rental_uris": {"android": "https://dc.lft.to/lastmile_qr_scan", "ios": "https://dc.lft.to/lastmile_qr_scan"}, "is_reserved": 0, "bike_id": "fd4cecd21207433cd59fd59d97ddf11e", "name": "fd4cecd21207433cd59fd59d97ddf11e", "fusion_lon": 0.0, "lon": -77.03139783333333, "fusion_lat": 0.0}, {"lat": 38.86906066666667, "type": "electric_scooter", "is_disabled": 0, "rental_uris": {"android": "https://dc.lft.to/lastmile_qr_scan", "ios": "https://dc.lft.to/lastmile_qr_scan"}, "is_reserved": 0, "bike_id": "71aaf6a3f1857bc7096a5fb3ea63060b", "name": "71aaf6a3f1857bc7096a5fb3ea63060b", "fusion_lon": 0.0, "lon": -77.0137045, "fusion_lat": 0.0}, {"lat": 38.925125333333334, "type": "electric_scooter", "is_disabled": 0, "rental_uris": {"android": "https://dc.lft.to/lastmile_qr_scan", "ios": "https://dc.lft.to/lastmile_qr_scan"}, "is_reserved": 0, "bike_id": "8e53f61e766191033f9cb91ba3016776", "name": "8e53f61e766191033f9cb91ba3016776", "fusion_lon": 0.0, "lon": -77.05111516666666, "fusion_lat": 0.0}, {"lat": 38.862085666666665, "type": "electric_scooter", "is_disabled": 0, "rental_uris": {"android": "https://dc.lft.to/lastmile_qr_scan", "ios": "https://dc.lft.to/lastmile_qr_scan"}, "is_reserved": 0, "bike_id": "93e7aa6453c8fe6aa0c7bf7302e23bd3", "name": "93e7aa6453c8fe6aa0c7bf7302e23bd3", "fusion_lon": 0.0, "lon": -76.994717, "fusion_lat": 0.0}, {"lat": 38.905553166666664, "type": "electric_scooter", "is_disabled": 0, "rental_uris": {"android": "https://dc.lft.to/lastmile_qr_scan", "ios": "https://dc.lft.to/lastmile_qr_scan"}, "is_reserved": 0, "bike_id": "ca498c8f85aa72280631f0e499a37d11", "name": "ca498c8f85aa72280631f0e499a37d11", "fusion_lon": 0.0, "lon": -77.03981416666667, "fusion_lat": 0.0}, {"lat": 38.924699, "type": "electric_scooter", "is_disabled": 0, "rental_uris": {"android": "https://dc.lft.to/lastmile_qr_scan", "ios": "https://dc.lft.to/lastmile_qr_scan"}, "is_reserved": 0, "bike_id": "6756241c25966311f59ef7378e13dcfe", "name": "6756241c25966311f59ef7378e13dcfe", "fusion_lon": 0.0, "lon": -77.02989183333334, "fusion_lat": 0.0}, {"lat": 38.88716316666667, "type": "electric_scooter", "is_disabled": 0, "rental_uris": {"android": "https://dc.lft.to/lastmile_qr_scan", "ios": "https://dc.lft.to/lastmile_qr_scan"}, "is_reserved": 0, "bike_id": "71addeca01cf6017d7c771f0e687b805", "name": "71addeca01cf6017d7c771f0e687b805", "fusion_lon": 0.0, "lon": -77.01376183333333, "fusion_lat": 0.0}, {"lat": 38.9168295, "type": "electric_scooter", "is_disabled": 0, "rental_uris": {"android": "https://dc.lft.to/lastmile_qr_scan", "ios": "https://dc.lft.to/lastmile_qr_scan"}, "is_reserved": 0, "bike_id": "a93f95a04bd3f03e7bc6a6b2f515d12c", "name": "a93f95a04bd3f03e7bc6a6b2f515d12c", "fusion_lon": 0.0, "lon": -77.02805233333333, "fusion_lat": 0.0}, {"lat": 38.920514, "type": "electric_scooter", "is_disabled": 0, "rental_uris": {"android": "https://dc.lft.to/lastmile_qr_scan", "ios": "https://dc.lft.to/lastmile_qr_scan"}, "is_reserved": 0, "bike_id": "38337793f056477dede460abc7bfb4c5", "name": "38337793f056477dede460abc7bfb4c5", "fusion_lon": 0.0, "lon": -77.02610916666667, "fusion_lat": 0.0}, {"lat": 38.84514383333333, "type": "electric_bike", "is_disabled": 0, "rental_uris": {"android": "https://dc.lft.to/lastmile_qr_scan", "ios": "https://dc.lft.to/lastmile_qr_scan"}, "is_reserved": 0, "bike_id": "a8f4ecc75e3dd8ebfa02e953b624d56b", "name": "a8f4ecc75e3dd8ebfa02e953b624d56b", "fusion_lon": 0.0, "lon": -77.07797766666667, "fusion_lat": 0.0}, {"lat": 38.905011, "type": "electric_scooter", "is_disabled": 0, "rental_uris": {"android": "https://dc.lft.to/lastmile_qr_scan", "ios": "https://dc.lft.to/lastmile_qr_scan"}, "is_reserved": 0, "bike_id": "92a1dab235308ac07ffcbb7a3313d7b2", "name": "92a1dab235308ac07ffcbb7a3313d7b2", "fusion_lon": 0.0, "lon": -76.99530766666666, "fusion_lat": 0.0}, {"lat": 38.903603, "type": "electric_scooter", "is_disabled": 0, "rental_uris": {"android": "https://dc.lft.to/lastmile_qr_scan", "ios": "https://dc.lft.to/lastmile_qr_scan"}, "is_reserved": 0, "bike_id": "99718fdeb4d37619df281291a51a5215", "name": "99718fdeb4d37619df281291a51a5215", "fusion_lon": 0.0, "lon": -77.0626375, "fusion_lat": 0.0}, {"lat": 38.91413716666667, "type": "electric_scooter", "is_disabled": 0, "rental_uris": {"android": "https://dc.lft.to/lastmile_qr_scan", "ios": "https://dc.lft.to/lastmile_qr_scan"}, "is_reserved": 0, "bike_id": "dfe4c5b93cae1f51f0f20fd8144b7316", "name": "dfe4c5b93cae1f51f0f20fd8144b7316", "fusion_lon": 0.0, "lon": -77.04535166666666, "fusion_lat": 0.0}, {"lat": 38.90835533333333, "type": "electric_scooter", "is_disabled": 0, "rental_uris": {"android": "https://dc.lft.to/lastmile_qr_scan", "ios": "https://dc.lft.to/lastmile_qr_scan"}, "is_reserved": 0, "bike_id": "ad533a5b6167fb3e892bcdba5275eade", "name": "ad533a5b6167fb3e892bcdba5275eade", "fusion_lon": 0.0, "lon": -76.99691416666667, "fusion_lat": 0.0}, {"lat": 38.905175, "type": "electric_scooter", "is_disabled": 0, "rental_uris": {"android": "https://dc.lft.to/lastmile_qr_scan", "ios": "https://dc.lft.to/lastmile_qr_scan"}, "is_reserved": 0, "bike_id": "eb7c1c78526e8c0d63bae23bdd9f1f25", "name": "eb7c1c78526e8c0d63bae23bdd9f1f25", "fusion_lon": 0.0, "lon": -77.00587333333333, "fusion_lat": 0.0}, {"lat": 38.9014505, "type": "electric_scooter", "is_disabled": 0, "rental_uris": {"android": "https://dc.lft.to/lastmile_qr_scan", "ios": "https://dc.lft.to/lastmile_qr_scan"}, "is_reserved": 0, "bike_id": "194b3bb1d07bbd8225433f7b6a7d1b0c", "name": "194b3bb1d07bbd8225433f7b6a7d1b0c", "fusion_lon": 0.0, "lon": -77.01780233333334, "fusion_lat": 0.0}, {"lat": 38.8962435, "type": "electric_scooter", "is_disabled": 0, "rental_uris": {"android": "https://dc.lft.to/lastmile_qr_scan", "ios": "https://dc.lft.to/lastmile_qr_scan"}, "is_reserved": 0, "bike_id": "d055fb204d34a8a81a1724f3e1d1feeb", "name": "d055fb204d34a8a81a1724f3e1d1feeb", "fusion_lon": 0.0, "lon": -77.02793466666667, "fusion_lat": 0.0}, {"lat": 38.919549333333336, "type": "electric_scooter", "is_disabled": 0, "rental_uris": {"android": "https://dc.lft.to/lastmile_qr_scan", "ios": "https://dc.lft.to/lastmile_qr_scan"}, "is_reserved": 0, "bike_id": "c6feca04ef07e6ae44feba2f5619b92d", "name": "c6feca04ef07e6ae44feba2f5619b92d", "fusion_lon": 0.0, "lon": -77.02492233333334, "fusion_lat": 0.0}, {"lat": 38.90601216666666, "type": "electric_scooter", "is_disabled": 0, "rental_uris": {"android": "https://dc.lft.to/lastmile_qr_scan", "ios": "https://dc.lft.to/lastmile_qr_scan"}, "is_reserved": 0, "bike_id": "4eaa69b6e07e3b04e5cdf259aa94be04", "name": "4eaa69b6e07e3b04e5cdf259aa94be04", "fusion_lon": 0.0, "lon": -77.0394555, "fusion_lat": 0.0}, {"lat": 38.90687466666667, "type": "electric_scooter", "is_disabled": 0, "rental_uris": {"android": "https://dc.lft.to/lastmile_qr_scan", "ios": "https://dc.lft.to/lastmile_qr_scan"}, "is_reserved": 0, "bike_id": "9608d65dceafd697c40f6ddbdf803b4f", "name": "9608d65dceafd697c40f6ddbdf803b4f", "fusion_lon": 0.0, "lon": -77.0099765, "fusion_lat": 0.0}, {"lat": 38.9047855, "type": "electric_bike", "is_disabled": 0, "rental_uris": {"android": "https://dc.lft.to/lastmile_qr_scan", "ios": "https://dc.lft.to/lastmile_qr_scan"}, "is_reserved": 0, "bike_id": "e909d3106ef5ad33cced9bbb8176d9db", "name": "e909d3106ef5ad33cced9bbb8176d9db", "fusion_lon": 0.0, "lon": -77.00208866666667, "fusion_lat": 0.0}, {"lat": 38.90864833333333, "type": "electric_scooter", "is_disabled": 0, "rental_uris": {"android": "https://dc.lft.to/lastmile_qr_scan", "ios": "https://dc.lft.to/lastmile_qr_scan"}, "is_reserved": 0, "bike_id": "04aa2de777001fc53c6f1522a5c88421", "name": "04aa2de777001fc53c6f1522a5c88421", "fusion_lon": 0.0, "lon": -77.0455665, "fusion_lat": 0.0}, {"lat": 38.89977066666667, "type": "electric_scooter", "is_disabled": 0, "rental_uris": {"android": "https://dc.lft.to/lastmile_qr_scan", "ios": "https://dc.lft.to/lastmile_qr_scan"}, "is_reserved": 0, "bike_id": "24deb72d8a08619417b86c15e7955f68", "name": "24deb72d8a08619417b86c15e7955f68", "fusion_lon": 0.0, "lon": -77.04191633333333, "fusion_lat": 0.0}, {"lat": 38.883795166666665, "type": "electric_scooter", "is_disabled": 0, "rental_uris": {"android": "https://dc.lft.to/lastmile_qr_scan", "ios": "https://dc.lft.to/lastmile_qr_scan"}, "is_reserved": 0, "bike_id": "ef4235c8dbcf86517447aad31fdd3ac0", "name": "ef4235c8dbcf86517447aad31fdd3ac0", "fusion_lon": 0.0, "lon": -76.99491516666667, "fusion_lat": 0.0}, {"lat": 38.917906333333335, "type": "electric_scooter", "is_disabled": 0, "rental_uris": {"android": "https://dc.lft.to/lastmile_qr_scan", "ios": "https://dc.lft.to/lastmile_qr_scan"}, "is_reserved": 0, "bike_id": "16dadd4af555c734657e155d79221089", "name": "16dadd4af555c734657e155d79221089", "fusion_lon": 0.0, "lon": -77.032186, "fusion_lat": 0.0}, {"lat": 38.93081883333333, "type": "electric_scooter", "is_disabled": 0, "rental_uris": {"android": "https://dc.lft.to/lastmile_qr_scan", "ios": "https://dc.lft.to/lastmile_qr_scan"}, "is_reserved": 0, "bike_id": "9a0712dec084baabce6b946d76ecad93", "name": "9a0712dec084baabce6b946d76ecad93", "fusion_lon": 0.0, "lon": -77.02791566666667, "fusion_lat": 0.0}, {"lat": 38.9167225, "type": "electric_scooter", "is_disabled": 0, "rental_uris": {"android": "https://dc.lft.to/lastmile_qr_scan", "ios": "https://dc.lft.to/lastmile_qr_scan"}, "is_reserved": 0, "bike_id": "2bdfcf291f4abc302f668406098dd915", "name": "2bdfcf291f4abc302f668406098dd915", "fusion_lon": 0.0, "lon": -77.02410883333333, "fusion_lat": 0.0}, {"lat": 38.91509283333333, "type": "electric_scooter", "is_disabled": 0, "rental_uris": {"android": "https://dc.lft.to/lastmile_qr_scan", "ios": "https://dc.lft.to/lastmile_qr_scan"}, "is_reserved": 0, "bike_id": "cdfdf9a3101965cc150a3aaa301db1c6", "name": "cdfdf9a3101965cc150a3aaa301db1c6", "fusion_lon": 0.0, "lon": -77.012091, "fusion_lat": 0.0}, {"lat": 38.89816733333333, "type": "electric_scooter", "is_disabled": 0, "rental_uris": {"android": "https://dc.lft.to/lastmile_qr_scan", "ios": "https://dc.lft.to/lastmile_qr_scan"}, "is_reserved": 0, "bike_id": "79a0c9cc3642981a3bfdd0f0c1e9830a", "name": "79a0c9cc3642981a3bfdd0f0c1e9830a", "fusion_lon": 0.0, "lon": -77.04340183333333, "fusion_lat": 0.0}, {"lat": 38.93016216666667, "type": "electric_scooter", "is_disabled": 0, "rental_uris": {"android": "https://dc.lft.to/lastmile_qr_scan", "ios": "https://dc.lft.to/lastmile_qr_scan"}, "is_reserved": 0, "bike_id": "9147e7b7ed98d8d0583e23f99738502d", "name": "9147e7b7ed98d8d0583e23f99738502d", "fusion_lon": 0.0, "lon": -77.0555165, "fusion_lat": 0.0}, {"lat": 38.9037385, "type": "electric_scooter", "is_disabled": 0, "rental_uris": {"android": "https://dc.lft.to/lastmile_qr_scan", "ios": "https://dc.lft.to/lastmile_qr_scan"}, "is_reserved": 0, "bike_id": "6a2c38a874135fafc54b499a6f3581ab", "name": "6a2c38a874135fafc54b499a6f3581ab", "fusion_lon": 0.0, "lon": -77.0332605, "fusion_lat": 0.0}, {"lat": 38.86715383333333, "type": "electric_scooter", "is_disabled": 0, "rental_uris": {"android": "https://dc.lft.to/lastmile_qr_scan", "ios": "https://dc.lft.to/lastmile_qr_scan"}, "is_reserved": 0, "bike_id": "d6fc28b67ca47cfbe2b3c6aa7a76f850", "name": "d6fc28b67ca47cfbe2b3c6aa7a76f850", "fusion_lon": 0.0, "lon": -76.98732916666667, "fusion_lat": 0.0}, {"lat": 38.912901166666664, "type": "electric_bike", "is_disabled": 0, "rental_uris": {"android": "https://dc.lft.to/lastmile_qr_scan", "ios": "https://dc.lft.to/lastmile_qr_scan"}, "is_reserved": 0, "bike_id": "af17cd6e1bde399ab83867c3ee6a3265", "name": "af17cd6e1bde399ab83867c3ee6a3265", "fusion_lon": 0.0, "lon": -77.02856033333333, "fusion_lat": 0.0}, {"lat": 38.89738916666667, "type": "electric_scooter", "is_disabled": 0, "rental_uris": {"android": "https://dc.lft.to/lastmile_qr_scan", "ios": "https://dc.lft.to/lastmile_qr_scan"}, "is_reserved": 0, "bike_id": "56d4374c0bd52dc64242d2a1e5fab122", "name": "56d4374c0bd52dc64242d2a1e5fab122", "fusion_lon": 0.0, "lon": -77.04702183333333, "fusion_lat": 0.0}, {"lat": 38.9168395, "type": "electric_scooter", "is_disabled": 0, "rental_uris": {"android": "https://dc.lft.to/lastmile_qr_scan", "ios": "https://dc.lft.to/lastmile_qr_scan"}, "is_reserved": 0, "bike_id": "7065d0e4b132c8adfa58886fd3f890f2", "name": "7065d0e4b132c8adfa58886fd3f890f2", "fusion_lon": 0.0, "lon": -77.03196316666667, "fusion_lat": 0.0}, {"lat": 38.90104, "type": "electric_scooter", "is_disabled": 0, "rental_uris": {"android": "https://dc.lft.to/lastmile_qr_scan", "ios": "https://dc.lft.to/lastmile_qr_scan"}, "is_reserved": 0, "bike_id": "0a73297cc3b52cb678a5d01dd3849b9a", "name": "0a73297cc3b52cb678a5d01dd3849b9a", "fusion_lon": 0.0, "lon": -77.05133783333333, "fusion_lat": 0.0}, {"lat": 38.907476333333335, "type": "electric_scooter", "is_disabled": 0, "rental_uris": {"android": "https://dc.lft.to/lastmile_qr_scan", "ios": "https://dc.lft.to/lastmile_qr_scan"}, "is_reserved": 0, "bike_id": "c7b09104dc77327ef9637c69d94c5f34", "name": "c7b09104dc77327ef9637c69d94c5f34", "fusion_lon": 0.0, "lon": -77.00777716666667, "fusion_lat": 0.0}, {"lat": 38.921132666666665, "type": "electric_scooter", "is_disabled": 0, "rental_uris": {"android": "https://dc.lft.to/lastmile_qr_scan", "ios": "https://dc.lft.to/lastmile_qr_scan"}, "is_reserved": 0, "bike_id": "95af81673ea61aad21c18ade940b5b70", "name": "95af81673ea61aad21c18ade940b5b70", "fusion_lon": 0.0, "lon": -77.0438605, "fusion_lat": 0.0}, {"lat": 38.924382333333334, "type": "electric_scooter", "is_disabled": 0, "rental_uris": {"android": "https://dc.lft.to/lastmile_qr_scan", "ios": "https://dc.lft.to/lastmile_qr_scan"}, "is_reserved": 0, "bike_id": "70a399d7aeb9a46d27218ed496628846", "name": "70a399d7aeb9a46d27218ed496628846", "fusion_lon": 0.0, "lon": -77.0260725, "fusion_lat": 0.0}, {"lat": 38.896564166666664, "type": "electric_scooter", "is_disabled": 0, "rental_uris": {"android": "https://dc.lft.to/lastmile_qr_scan", "ios": "https://dc.lft.to/lastmile_qr_scan"}, "is_reserved": 0, "bike_id": "ee765a91a2e6ba55af9762eb2b0c3b89", "name": "ee765a91a2e6ba55af9762eb2b0c3b89", "fusion_lon": 0.0, "lon": -77.05026683333334, "fusion_lat": 0.0}, {"lat": 38.906572, "type": "electric_scooter", "is_disabled": 0, "rental_uris": {"android": "https://dc.lft.to/lastmile_qr_scan", "ios": "https://dc.lft.to/lastmile_qr_scan"}, "is_reserved": 0, "bike_id": "a915c6ca438f5609d78426e42db480b7", "name": "a915c6ca438f5609d78426e42db480b7", "fusion_lon": 0.0, "lon": -77.038994, "fusion_lat": 0.0}, {"lat": 38.90124483333334, "type": "electric_scooter", "is_disabled": 0, "rental_uris": {"android": "https://dc.lft.to/lastmile_qr_scan", "ios": "https://dc.lft.to/lastmile_qr_scan"}, "is_reserved": 0, "bike_id": "65b8bca3e902c8010bb0b1575e0af0ed", "name": "65b8bca3e902c8010bb0b1575e0af0ed", "fusion_lon": 0.0, "lon": -77.03145133333334, "fusion_lat": 0.0}, {"lat": 38.90575, "type": "electric_scooter", "is_disabled": 0, "rental_uris": {"android": "https://dc.lft.to/lastmile_qr_scan", "ios": "https://dc.lft.to/lastmile_qr_scan"}, "is_reserved": 0, "bike_id": "74439798d1bf1bd643370fcaac97f233", "name": "74439798d1bf1bd643370fcaac97f233", "fusion_lon": 0.0, "lon": -77.02398383333333, "fusion_lat": 0.0}, {"lat": 38.967321166666665, "type": "electric_scooter", "is_disabled": 0, "rental_uris": {"android": "https://dc.lft.to/lastmile_qr_scan", "ios": "https://dc.lft.to/lastmile_qr_scan"}, "is_reserved": 0, "bike_id": "7e524c74cc10ea176a24a19e8d813241", "name": "7e524c74cc10ea176a24a19e8d813241", "fusion_lon": 0.0, "lon": -77.0276195, "fusion_lat": 0.0}, {"lat": 38.9097465, "type": "electric_scooter", "is_disabled": 0, "rental_uris": {"android": "https://dc.lft.to/lastmile_qr_scan", "ios": "https://dc.lft.to/lastmile_qr_scan"}, "is_reserved": 0, "bike_id": "712afff85ddbb1f7a0c9f49180c50a18", "name": "712afff85ddbb1f7a0c9f49180c50a18", "fusion_lon": 0.0, "lon": -77.01106783333333, "fusion_lat": 0.0}, {"lat": 38.903882833333334, "type": "electric_scooter", "is_disabled": 0, "rental_uris": {"android": "https://dc.lft.to/lastmile_qr_scan", "ios": "https://dc.lft.to/lastmile_qr_scan"}, "is_reserved": 0, "bike_id": "f2288fc9913c895fab5fdaebae3ea375", "name": "f2288fc9913c895fab5fdaebae3ea375", "fusion_lon": 0.0, "lon": -77.03304016666667, "fusion_lat": 0.0}, {"lat": 39.00015283333333, "type": "electric_bike", "is_disabled": 0, "rental_uris": {"android": "https://dc.lft.to/lastmile_qr_scan", "ios": "https://dc.lft.to/lastmile_qr_scan"}, "is_reserved": 0, "bike_id": "22ae2e25f95eaec9a0bca2cc0fbab96a", "name": "22ae2e25f95eaec9a0bca2cc0fbab96a", "fusion_lon": 0.0, "lon": -76.87292116666667, "fusion_lat": 0.0}, {"lat": 38.922816166666664, "type": "electric_scooter", "is_disabled": 0, "rental_uris": {"android": "https://dc.lft.to/lastmile_qr_scan", "ios": "https://dc.lft.to/lastmile_qr_scan"}, "is_reserved": 0, "bike_id": "7a47a28efdc8f77b332b73a38ddf2514", "name": "7a47a28efdc8f77b332b73a38ddf2514", "fusion_lon": 0.0, "lon": -77.07289366666667, "fusion_lat": 0.0}, {"lat": 38.907656333333335, "type": "electric_scooter", "is_disabled": 0, "rental_uris": {"android": "https://dc.lft.to/lastmile_qr_scan", "ios": "https://dc.lft.to/lastmile_qr_scan"}, "is_reserved": 0, "bike_id": "8d244884e94583cbcbe5545082a4dae6", "name": "8d244884e94583cbcbe5545082a4dae6", "fusion_lon": 0.0, "lon": -77.03854683333333, "fusion_lat": 0.0}, {"lat": 38.89828683333333, "type": "electric_scooter", "is_disabled": 0, "rental_uris": {"android": "https://dc.lft.to/lastmile_qr_scan", "ios": "https://dc.lft.to/lastmile_qr_scan"}, "is_reserved": 0, "bike_id": "e53316466dcbb65378c4e263ca5d03b9", "name": "e53316466dcbb65378c4e263ca5d03b9", "fusion_lon": 0.0, "lon": -77.02981533333333, "fusion_lat": 0.0}, {"lat": 38.900203833333336, "type": "electric_scooter", "is_disabled": 0, "rental_uris": {"android": "https://dc.lft.to/lastmile_qr_scan", "ios": "https://dc.lft.to/lastmile_qr_scan"}, "is_reserved": 0, "bike_id": "af04d8ff5cf471739cebf035c9eaf334", "name": "af04d8ff5cf471739cebf035c9eaf334", "fusion_lon": 0.0, "lon": -76.99759566666667, "fusion_lat": 0.0}, {"lat": 38.90306733333333, "type": "electric_scooter", "is_disabled": 0, "rental_uris": {"android": "https://dc.lft.to/lastmile_qr_scan", "ios": "https://dc.lft.to/lastmile_qr_scan"}, "is_reserved": 0, "bike_id": "a25e5b1b6cb4c323cb5c4d218ad74e6f", "name": "a25e5b1b6cb4c323cb5c4d218ad74e6f", "fusion_lon": 0.0, "lon": -77.02207333333334, "fusion_lat": 0.0}, {"lat": 38.828737333333336, "type": "electric_bike", "is_disabled": 0, "rental_uris": {"android": "https://dc.lft.to/lastmile_qr_scan", "ios": "https://dc.lft.to/lastmile_qr_scan"}, "is_reserved": 0, "bike_id": "19da7d64643864d3db25ba323b895fcb", "name": "19da7d64643864d3db25ba323b895fcb", "fusion_lon": 0.0, "lon": -77.1122105, "fusion_lat": 0.0}, {"lat": 38.902506833333334, "type": "electric_scooter", "is_disabled": 0, "rental_uris": {"android": "https://dc.lft.to/lastmile_qr_scan", "ios": "https://dc.lft.to/lastmile_qr_scan"}, "is_reserved": 0, "bike_id": "9bc223f6ffceabd0ff0ad97bf656b916", "name": "9bc223f6ffceabd0ff0ad97bf656b916", "fusion_lon": 0.0, "lon": -77.06109916666666, "fusion_lat": 0.0}, {"lat": 38.917065666666666, "type": "electric_scooter", "is_disabled": 0, "rental_uris": {"android": "https://dc.lft.to/lastmile_qr_scan", "ios": "https://dc.lft.to/lastmile_qr_scan"}, "is_reserved": 0, "bike_id": "dc781d7c447289b8c35e5c2d0312513f", "name": "dc781d7c447289b8c35e5c2d0312513f", "fusion_lon": 0.0, "lon": -77.02845716666667, "fusion_lat": 0.0}, {"lat": 38.846181, "type": "electric_scooter", "is_disabled": 0, "rental_uris": {"android": "https://dc.lft.to/lastmile_qr_scan", "ios": "https://dc.lft.to/lastmile_qr_scan"}, "is_reserved": 0, "bike_id": "bd108fce2e87ab9a0487fd8691cafd95", "name": "bd108fce2e87ab9a0487fd8691cafd95", "fusion_lon": 0.0, "lon": -76.99634116666667, "fusion_lat": 0.0}, {"lat": 38.887953333333336, "type": "electric_scooter", "is_disabled": 0, "rental_uris": {"android": "https://dc.lft.to/lastmile_qr_scan", "ios": "https://dc.lft.to/lastmile_qr_scan"}, "is_reserved": 0, "bike_id": "4c13a8ffdeaba8d5477036c9194015aa", "name": "4c13a8ffdeaba8d5477036c9194015aa", "fusion_lon": 0.0, "lon": -76.933593, "fusion_lat": 0.0}, {"lat": 38.876380166666664, "type": "electric_scooter", "is_disabled": 0, "rental_uris": {"android": "https://dc.lft.to/lastmile_qr_scan", "ios": "https://dc.lft.to/lastmile_qr_scan"}, "is_reserved": 0, "bike_id": "42b102e53cf4de6ba76573fbef4a376f", "name": "42b102e53cf4de6ba76573fbef4a376f", "fusion_lon": 0.0, "lon": -77.00724116666666, "fusion_lat": 0.0}, {"lat": 38.93663466666667, "type": "electric_bike", "is_disabled": 0, "rental_uris": {"android": "https://dc.lft.to/lastmile_qr_scan", "ios": "https://dc.lft.to/lastmile_qr_scan"}, "is_reserved": 0, "bike_id": "d43127a7eb23f61724c9c6c0d70fe414", "name": "d43127a7eb23f61724c9c6c0d70fe414", "fusion_lon": 0.0, "lon": -76.95497766666666, "fusion_lat": 0.0}, {"lat": 38.9157575, "type": "electric_scooter", "is_disabled": 0, "rental_uris": {"android": "https://dc.lft.to/lastmile_qr_scan", "ios": "https://dc.lft.to/lastmile_qr_scan"}, "is_reserved": 0, "bike_id": "1541461a25aada372c87053ba844f09a", "name": "1541461a25aada372c87053ba844f09a", "fusion_lon": 0.0, "lon": -77.0499495, "fusion_lat": 0.0}, {"lat": 38.926097666666664, "type": "electric_scooter", "is_disabled": 0, "rental_uris": {"android": "https://dc.lft.to/lastmile_qr_scan", "ios": "https://dc.lft.to/lastmile_qr_scan"}, "is_reserved": 0, "bike_id": "21e8e50e2d59dffe60d3405dee89d823", "name": "21e8e50e2d59dffe60d3405dee89d823", "fusion_lon": 0.0, "lon": -77.02159616666667, "fusion_lat": 0.0}, {"lat": 38.9215945, "type": "electric_scooter", "is_disabled": 0, "rental_uris": {"android": "https://dc.lft.to/lastmile_qr_scan", "ios": "https://dc.lft.to/lastmile_qr_scan"}, "is_reserved": 0, "bike_id": "28d083b1297331af5bb992ee21053a0b", "name": "28d083b1297331af5bb992ee21053a0b", "fusion_lon": 0.0, "lon": -77.04694216666667, "fusion_lat": 0.0}, {"lat": 38.887322833333336, "type": "electric_scooter", "is_disabled": 0, "rental_uris": {"android": "https://dc.lft.to/lastmile_qr_scan", "ios": "https://dc.lft.to/lastmile_qr_scan"}, "is_reserved": 0, "bike_id": "56eee890f886175bb2520f0ef35b18a7", "name": "56eee890f886175bb2520f0ef35b18a7", "fusion_lon": 0.0, "lon": -77.01528566666667, "fusion_lat": 0.0}, {"lat": 38.907308, "type": "electric_scooter", "is_disabled": 0, "rental_uris": {"android": "https://dc.lft.to/lastmile_qr_scan", "ios": "https://dc.lft.to/lastmile_qr_scan"}, "is_reserved": 0, "bike_id": "efb19eb6adb1d16b8f2a4808dcd7dded", "name": "efb19eb6adb1d16b8f2a4808dcd7dded", "fusion_lon": 0.0, "lon": -77.04334216666666, "fusion_lat": 0.0}, {"lat": 38.904643666666665, "type": "electric_scooter", "is_disabled": 0, "rental_uris": {"android": "https://dc.lft.to/lastmile_qr_scan", "ios": "https://dc.lft.to/lastmile_qr_scan"}, "is_reserved": 0, "bike_id": "ede8dc692a1aa002b2baaf344a86ce83", "name": "ede8dc692a1aa002b2baaf344a86ce83", "fusion_lon": 0.0, "lon": -77.03580833333334, "fusion_lat": 0.0}, {"lat": 38.884841, "type": "electric_scooter", "is_disabled": 0, "rental_uris": {"android": "https://dc.lft.to/lastmile_qr_scan", "ios": "https://dc.lft.to/lastmile_qr_scan"}, "is_reserved": 0, "bike_id": "370f316b7b63dcbdb774ca2e850ddbd8", "name": "370f316b7b63dcbdb774ca2e850ddbd8", "fusion_lon": 0.0, "lon": -77.0071065, "fusion_lat": 0.0}, {"lat": 38.900650166666665, "type": "electric_scooter", "is_disabled": 0, "rental_uris": {"android": "https://dc.lft.to/lastmile_qr_scan", "ios": "https://dc.lft.to/lastmile_qr_scan"}, "is_reserved": 0, "bike_id": "fe7891a1d2a54635b5ca2eb83996a920", "name": "fe7891a1d2a54635b5ca2eb83996a920", "fusion_lon": 0.0, "lon": -77.0488585, "fusion_lat": 0.0}, {"lat": 38.94575283333333, "type": "electric_bike", "is_disabled": 0, "rental_uris": {"android": "https://dc.lft.to/lastmile_qr_scan", "ios": "https://dc.lft.to/lastmile_qr_scan"}, "is_reserved": 0, "bike_id": "dec30e068cd4345f9453932737e46625", "name": "dec30e068cd4345f9453932737e46625", "fusion_lon": 0.0, "lon": -76.987768, "fusion_lat": 0.0}, {"lat": 38.93172916666666, "type": "electric_scooter", "is_disabled": 0, "rental_uris": {"android": "https://dc.lft.to/lastmile_qr_scan", "ios": "https://dc.lft.to/lastmile_qr_scan"}, "is_reserved": 0, "bike_id": "0fffb51ade8c52490c271a0981a41249", "name": "0fffb51ade8c52490c271a0981a41249", "fusion_lon": 0.0, "lon": -77.03640033333333, "fusion_lat": 0.0}, {"lat": 38.839358, "type": "electric_bike", "is_disabled": 0, "rental_uris": {"android": "https://dc.lft.to/lastmile_qr_scan", "ios": "https://dc.lft.to/lastmile_qr_scan"}, "is_reserved": 0, "bike_id": "d950e7ecf03c5aa67d90961b80e35ca0", "name": "d950e7ecf03c5aa67d90961b80e35ca0", "fusion_lon": 0.0, "lon": -77.07898283333333, "fusion_lat": 0.0}, {"lat": 38.92342133333333, "type": "electric_scooter", "is_disabled": 0, "rental_uris": {"android": "https://dc.lft.to/lastmile_qr_scan", "ios": "https://dc.lft.to/lastmile_qr_scan"}, "is_reserved": 0, "bike_id": "709fff951a0af1877d8a7990017bb9e3", "name": "709fff951a0af1877d8a7990017bb9e3", "fusion_lon": 0.0, "lon": -77.0351225, "fusion_lat": 0.0}, {"lat": 38.89866983333334, "type": "electric_scooter", "is_disabled": 0, "rental_uris": {"android": "https://dc.lft.to/lastmile_qr_scan", "ios": "https://dc.lft.to/lastmile_qr_scan"}, "is_reserved": 0, "bike_id": "d2c28925f602390caecf28c8c12738c7", "name": "d2c28925f602390caecf28c8c12738c7", "fusion_lon": 0.0, "lon": -77.016293, "fusion_lat": 0.0}, {"lat": 38.913495833333336, "type": "electric_scooter", "is_disabled": 0, "rental_uris": {"android": "https://dc.lft.to/lastmile_qr_scan", "ios": "https://dc.lft.to/lastmile_qr_scan"}, "is_reserved": 0, "bike_id": "cb96e568a67c0598dc70b74e8b6151a7", "name": "cb96e568a67c0598dc70b74e8b6151a7", "fusion_lon": 0.0, "lon": -77.01753966666666, "fusion_lat": 0.0}, {"lat": 38.8792955, "type": "electric_scooter", "is_disabled": 0, "rental_uris": {"android": "https://dc.lft.to/lastmile_qr_scan", "ios": "https://dc.lft.to/lastmile_qr_scan"}, "is_reserved": 0, "bike_id": "a83c5defc5a38b2a38b8796666379392", "name": "a83c5defc5a38b2a38b8796666379392", "fusion_lon": 0.0, "lon": -77.01471933333333, "fusion_lat": 0.0}, {"lat": 38.917607333333336, "type": "electric_scooter", "is_disabled": 0, "rental_uris": {"android": "https://dc.lft.to/lastmile_qr_scan", "ios": "https://dc.lft.to/lastmile_qr_scan"}, "is_reserved": 0, "bike_id": "7935defe81b6f6d1b9f835abad2569fd", "name": "7935defe81b6f6d1b9f835abad2569fd", "fusion_lon": 0.0, "lon": -77.0280855, "fusion_lat": 0.0}, {"lat": 38.919908166666666, "type": "electric_scooter", "is_disabled": 0, "rental_uris": {"android": "https://dc.lft.to/lastmile_qr_scan", "ios": "https://dc.lft.to/lastmile_qr_scan"}, "is_reserved": 0, "bike_id": "85f869b0e073b4d685dfc0f8079ccc3a", "name": "85f869b0e073b4d685dfc0f8079ccc3a", "fusion_lon": 0.0, "lon": -77.033062, "fusion_lat": 0.0}, {"lat": 38.97258683333333, "type": "electric_bike", "is_disabled": 0, "rental_uris": {"android": "https://dc.lft.to/lastmile_qr_scan", "ios": "https://dc.lft.to/lastmile_qr_scan"}, "is_reserved": 0, "bike_id": "caa01f85ae4ad05272ce7d153dbec0a3", "name": "caa01f85ae4ad05272ce7d153dbec0a3", "fusion_lon": 0.0, "lon": -76.9917115, "fusion_lat": 0.0}, {"lat": 38.9322225, "type": "electric_scooter", "is_disabled": 0, "rental_uris": {"android": "https://dc.lft.to/lastmile_qr_scan", "ios": "https://dc.lft.to/lastmile_qr_scan"}, "is_reserved": 0, "bike_id": "d79f209dab58bf8473f2ddb1e73950c5", "name": "d79f209dab58bf8473f2ddb1e73950c5", "fusion_lon": 0.0, "lon": -76.99482416666666, "fusion_lat": 0.0}, {"lat": 38.9346615, "type": "electric_scooter", "is_disabled": 0, "rental_uris": {"android": "https://dc.lft.to/lastmile_qr_scan", "ios": "https://dc.lft.to/lastmile_qr_scan"}, "is_reserved": 0, "bike_id": "fb47cf9191638e97815bf8da76d229d8", "name": "fb47cf9191638e97815bf8da76d229d8", "fusion_lon": 0.0, "lon": -77.06883766666667, "fusion_lat": 0.0}, {"lat": 38.89733566666666, "type": "electric_scooter", "is_disabled": 0, "rental_uris": {"android": "https://dc.lft.to/lastmile_qr_scan", "ios": "https://dc.lft.to/lastmile_qr_scan"}, "is_reserved": 0, "bike_id": "991295022cd81fedc203dcdf2e105da7", "name": "991295022cd81fedc203dcdf2e105da7", "fusion_lon": 0.0, "lon": -77.01012733333333, "fusion_lat": 0.0}, {"lat": 38.81268816666667, "type": "electric_bike", "is_disabled": 0, "rental_uris": {"android": "https://dc.lft.to/lastmile_qr_scan", "ios": "https://dc.lft.to/lastmile_qr_scan"}, "is_reserved": 0, "bike_id": "448c9b788ce09ac52196f7e6a83b67b2", "name": "448c9b788ce09ac52196f7e6a83b67b2", "fusion_lon": 0.0, "lon": -77.06173983333333, "fusion_lat": 0.0}, {"lat": 38.938488, "type": "electric_scooter", "is_disabled": 0, "rental_uris": {"android": "https://dc.lft.to/lastmile_qr_scan", "ios": "https://dc.lft.to/lastmile_qr_scan"}, "is_reserved": 0, "bike_id": "b2bfc653d4fc61cc689ee0350828042a", "name": "b2bfc653d4fc61cc689ee0350828042a", "fusion_lon": 0.0, "lon": -77.02456266666667, "fusion_lat": 0.0}, {"lat": 38.847963, "type": "electric_scooter", "is_disabled": 0, "rental_uris": {"android": "https://dc.lft.to/lastmile_qr_scan", "ios": "https://dc.lft.to/lastmile_qr_scan"}, "is_reserved": 0, "bike_id": "d60992612af7d07231f8f739fa111921", "name": "d60992612af7d07231f8f739fa111921", "fusion_lon": 0.0, "lon": -76.96714416666667, "fusion_lat": 0.0}, {"lat": 38.8974135, "type": "electric_scooter", "is_disabled": 0, "rental_uris": {"android": "https://dc.lft.to/lastmile_qr_scan", "ios": "https://dc.lft.to/lastmile_qr_scan"}, "is_reserved": 0, "bike_id": "c4485cf46b9461fc3be3704b0da397c7", "name": "c4485cf46b9461fc3be3704b0da397c7", "fusion_lon": 0.0, "lon": -77.04692533333333, "fusion_lat": 0.0}, {"lat": 38.906406833333335, "type": "electric_scooter", "is_disabled": 0, "rental_uris": {"android": "https://dc.lft.to/lastmile_qr_scan", "ios": "https://dc.lft.to/lastmile_qr_scan"}, "is_reserved": 0, "bike_id": "c6e38859a24541d7e1a566c35b23e17c", "name": "c6e38859a24541d7e1a566c35b23e17c", "fusion_lon": 0.0, "lon": -77.01793416666666, "fusion_lat": 0.0}, {"lat": 38.904979, "type": "electric_scooter", "is_disabled": 0, "rental_uris": {"android": "https://dc.lft.to/lastmile_qr_scan", "ios": "https://dc.lft.to/lastmile_qr_scan"}, "is_reserved": 0, "bike_id": "8c414ec8dd633b66bbe794679cc2d84f", "name": "8c414ec8dd633b66bbe794679cc2d84f", "fusion_lon": 0.0, "lon": -77.02947916666666, "fusion_lat": 0.0}, {"lat": 38.928732333333336, "type": "electric_scooter", "is_disabled": 0, "rental_uris": {"android": "https://dc.lft.to/lastmile_qr_scan", "ios": "https://dc.lft.to/lastmile_qr_scan"}, "is_reserved": 0, "bike_id": "2df2e7a426886c08b0d5e68247fad405", "name": "2df2e7a426886c08b0d5e68247fad405", "fusion_lon": 0.0, "lon": -77.03436466666666, "fusion_lat": 0.0}, {"lat": 38.866584, "type": "electric_scooter", "is_disabled": 0, "rental_uris": {"android": "https://dc.lft.to/lastmile_qr_scan", "ios": "https://dc.lft.to/lastmile_qr_scan"}, "is_reserved": 0, "bike_id": "b1898a9028dfa7b530abde1e636b012e", "name": "b1898a9028dfa7b530abde1e636b012e", "fusion_lon": 0.0, "lon": -76.98884333333334, "fusion_lat": 0.0}, {"lat": 38.96213183333333, "type": "electric_scooter", "is_disabled": 0, "rental_uris": {"android": "https://dc.lft.to/lastmile_qr_scan", "ios": "https://dc.lft.to/lastmile_qr_scan"}, "is_reserved": 0, "bike_id": "49e0b5e2c15863da92de60b2cb09baa0", "name": "49e0b5e2c15863da92de60b2cb09baa0", "fusion_lon": 0.0, "lon": -77.02798383333334, "fusion_lat": 0.0}, {"lat": 38.907939999999996, "type": "electric_scooter", "is_disabled": 0, "rental_uris": {"android": "https://dc.lft.to/lastmile_qr_scan", "ios": "https://dc.lft.to/lastmile_qr_scan"}, "is_reserved": 0, "bike_id": "6f6a555da59160f4ae8a3c025ad8e206", "name": "6f6a555da59160f4ae8a3c025ad8e206", "fusion_lon": 0.0, "lon": -76.99700816666666, "fusion_lat": 0.0}, {"lat": 38.90152833333333, "type": "electric_scooter", "is_disabled": 0, "rental_uris": {"android": "https://dc.lft.to/lastmile_qr_scan", "ios": "https://dc.lft.to/lastmile_qr_scan"}, "is_reserved": 0, "bike_id": "d310709b3361cfc1269df8ac4742c1db", "name": "d310709b3361cfc1269df8ac4742c1db", "fusion_lon": 0.0, "lon": -77.01641666666667, "fusion_lat": 0.0}, {"lat": 38.942807333333334, "type": "electric_scooter", "is_disabled": 0, "rental_uris": {"android": "https://dc.lft.to/lastmile_qr_scan", "ios": "https://dc.lft.to/lastmile_qr_scan"}, "is_reserved": 0, "bike_id": "83f5b67bedcd1e90f539f24eee73da07", "name": "83f5b67bedcd1e90f539f24eee73da07", "fusion_lon": 0.0, "lon": -77.03629683333334, "fusion_lat": 0.0}, {"lat": 38.893186666666665, "type": "electric_scooter", "is_disabled": 0, "rental_uris": {"android": "https://dc.lft.to/lastmile_qr_scan", "ios": "https://dc.lft.to/lastmile_qr_scan"}, "is_reserved": 0, "bike_id": "b9a0c81a573c5147b9dc25cc6a37fc41", "name": "b9a0c81a573c5147b9dc25cc6a37fc41", "fusion_lon": 0.0, "lon": -77.02119266666666, "fusion_lat": 0.0}, {"lat": 38.899099666666665, "type": "electric_scooter", "is_disabled": 0, "rental_uris": {"android": "https://dc.lft.to/lastmile_qr_scan", "ios": "https://dc.lft.to/lastmile_qr_scan"}, "is_reserved": 0, "bike_id": "564c50774d9287041e61ed431dd8aecb", "name": "564c50774d9287041e61ed431dd8aecb", "fusion_lon": 0.0, "lon": -77.0330115, "fusion_lat": 0.0}, {"lat": 38.94980866666667, "type": "electric_scooter", "is_disabled": 0, "rental_uris": {"android": "https://dc.lft.to/lastmile_qr_scan", "ios": "https://dc.lft.to/lastmile_qr_scan"}, "is_reserved": 0, "bike_id": "feee91b7259bafc4d643cfc2ebe8e86b", "name": "feee91b7259bafc4d643cfc2ebe8e86b", "fusion_lon": 0.0, "lon": -77.02700466666667, "fusion_lat": 0.0}, {"lat": 38.90127866666667, "type": "electric_scooter", "is_disabled": 0, "rental_uris": {"android": "https://dc.lft.to/lastmile_qr_scan", "ios": "https://dc.lft.to/lastmile_qr_scan"}, "is_reserved": 0, "bike_id": "1c8676f624c8703f9cac36a513c8f5e2", "name": "1c8676f624c8703f9cac36a513c8f5e2", "fusion_lon": 0.0, "lon": -77.0290145, "fusion_lat": 0.0}, {"lat": 38.858134666666665, "type": "electric_scooter", "is_disabled": 0, "rental_uris": {"android": "https://dc.lft.to/lastmile_qr_scan", "ios": "https://dc.lft.to/lastmile_qr_scan"}, "is_reserved": 0, "bike_id": "89ad2f59cd3b7afe1d339031227def23", "name": "89ad2f59cd3b7afe1d339031227def23", "fusion_lon": 0.0, "lon": -76.98961666666666, "fusion_lat": 0.0}, {"lat": 38.9375575, "type": "electric_scooter", "is_disabled": 0, "rental_uris": {"android": "https://dc.lft.to/lastmile_qr_scan", "ios": "https://dc.lft.to/lastmile_qr_scan"}, "is_reserved": 0, "bike_id": "760c2e586f769566fe209d39dc3d60ef", "name": "760c2e586f769566fe209d39dc3d60ef", "fusion_lon": 0.0, "lon": -77.02476516666667, "fusion_lat": 0.0}, {"lat": 38.902586666666664, "type": "electric_scooter", "is_disabled": 0, "rental_uris": {"android": "https://dc.lft.to/lastmile_qr_scan", "ios": "https://dc.lft.to/lastmile_qr_scan"}, "is_reserved": 0, "bike_id": "508fd2aeb1b9e629916c831a5b57d454", "name": "508fd2aeb1b9e629916c831a5b57d454", "fusion_lon": 0.0, "lon": -77.03830466666666, "fusion_lat": 0.0}, {"lat": 38.90954283333333, "type": "electric_scooter", "is_disabled": 0, "rental_uris": {"android": "https://dc.lft.to/lastmile_qr_scan", "ios": "https://dc.lft.to/lastmile_qr_scan"}, "is_reserved": 0, "bike_id": "56d990bc7dc4b87c51a16e5518ef79d6", "name": "56d990bc7dc4b87c51a16e5518ef79d6", "fusion_lon": 0.0, "lon": -77.04462366666667, "fusion_lat": 0.0}, {"lat": 38.9190705, "type": "electric_scooter", "is_disabled": 0, "rental_uris": {"android": "https://dc.lft.to/lastmile_qr_scan", "ios": "https://dc.lft.to/lastmile_qr_scan"}, "is_reserved": 0, "bike_id": "590b4d4e8b5875463d1d03f6cd3f8b23", "name": "590b4d4e8b5875463d1d03f6cd3f8b23", "fusion_lon": 0.0, "lon": -77.04174533333334, "fusion_lat": 0.0}, {"lat": 38.916574, "type": "electric_scooter", "is_disabled": 0, "rental_uris": {"android": "https://dc.lft.to/lastmile_qr_scan", "ios": "https://dc.lft.to/lastmile_qr_scan"}, "is_reserved": 0, "bike_id": "a8c379ce0f951d915c6610ca4fcbd680", "name": "a8c379ce0f951d915c6610ca4fcbd680", "fusion_lon": 0.0, "lon": -77.046504, "fusion_lat": 0.0}, {"lat": 38.8873675, "type": "electric_scooter", "is_disabled": 0, "rental_uris": {"android": "https://dc.lft.to/lastmile_qr_scan", "ios": "https://dc.lft.to/lastmile_qr_scan"}, "is_reserved": 0, "bike_id": "d49c3d1d7bc8fd68ff92c0742ffa1343", "name": "d49c3d1d7bc8fd68ff92c0742ffa1343", "fusion_lon": 0.0, "lon": -77.015338, "fusion_lat": 0.0}, {"lat": 38.9129875, "type": "electric_scooter", "is_disabled": 0, "rental_uris": {"android": "https://dc.lft.to/lastmile_qr_scan", "ios": "https://dc.lft.to/lastmile_qr_scan"}, "is_reserved": 0, "bike_id": "50ad56b68ef18a421be4a6d8bdba0f40", "name": "50ad56b68ef18a421be4a6d8bdba0f40", "fusion_lon": 0.0, "lon": -77.020238, "fusion_lat": 0.0}, {"lat": 38.91359033333333, "type": "electric_scooter", "is_disabled": 0, "rental_uris": {"android": "https://dc.lft.to/lastmile_qr_scan", "ios": "https://dc.lft.to/lastmile_qr_scan"}, "is_reserved": 0, "bike_id": "09fa5f84d438e38bdf597c83802bcfcb", "name": "09fa5f84d438e38bdf597c83802bcfcb", "fusion_lon": 0.0, "lon": -77.04162333333333, "fusion_lat": 0.0}, {"lat": 38.886719166666666, "type": "electric_scooter", "is_disabled": 0, "rental_uris": {"android": "https://dc.lft.to/lastmile_qr_scan", "ios": "https://dc.lft.to/lastmile_qr_scan"}, "is_reserved": 0, "bike_id": "bb01034d13659bfbd7bda94d609ce043", "name": "bb01034d13659bfbd7bda94d609ce043", "fusion_lon": 0.0, "lon": -77.003415, "fusion_lat": 0.0}, {"lat": 39.052041333333335, "type": "electric_bike", "is_disabled": 0, "rental_uris": {"android": "https://dc.lft.to/lastmile_qr_scan", "ios": "https://dc.lft.to/lastmile_qr_scan"}, "is_reserved": 0, "bike_id": "63e42b6278e29edc3a7fcf6829aa5fb1", "name": "63e42b6278e29edc3a7fcf6829aa5fb1", "fusion_lon": 0.0, "lon": -77.04414833333334, "fusion_lat": 0.0}, {"lat": 38.8863815, "type": "electric_scooter", "is_disabled": 0, "rental_uris": {"android": "https://dc.lft.to/lastmile_qr_scan", "ios": "https://dc.lft.to/lastmile_qr_scan"}, "is_reserved": 0, "bike_id": "ff9f9d1a988c00328a90c377feed2153", "name": "ff9f9d1a988c00328a90c377feed2153", "fusion_lon": 0.0, "lon": -77.01371183333333, "fusion_lat": 0.0}, {"lat": 38.9352485, "type": "electric_scooter", "is_disabled": 0, "rental_uris": {"android": "https://dc.lft.to/lastmile_qr_scan", "ios": "https://dc.lft.to/lastmile_qr_scan"}, "is_reserved": 0, "bike_id": "15ecbf570e39c57858c3902842f2b4ea", "name": "15ecbf570e39c57858c3902842f2b4ea", "fusion_lon": 0.0, "lon": -77.0325895, "fusion_lat": 0.0}, {"lat": 38.88075666666667, "type": "electric_scooter", "is_disabled": 0, "rental_uris": {"android": "https://dc.lft.to/lastmile_qr_scan", "ios": "https://dc.lft.to/lastmile_qr_scan"}, "is_reserved": 0, "bike_id": "b4ee173e145ee4e82d8def006b3e71ec", "name": "b4ee173e145ee4e82d8def006b3e71ec", "fusion_lon": 0.0, "lon": -77.02578816666667, "fusion_lat": 0.0}, {"lat": 38.875948666666666, "type": "electric_scooter", "is_disabled": 0, "rental_uris": {"android": "https://dc.lft.to/lastmile_qr_scan", "ios": "https://dc.lft.to/lastmile_qr_scan"}, "is_reserved": 0, "bike_id": "ee0688835141b865f6585f5f957357c4", "name": "ee0688835141b865f6585f5f957357c4", "fusion_lon": 0.0, "lon": -77.00577466666667, "fusion_lat": 0.0}, {"lat": 38.90513466666667, "type": "electric_scooter", "is_disabled": 0, "rental_uris": {"android": "https://dc.lft.to/lastmile_qr_scan", "ios": "https://dc.lft.to/lastmile_qr_scan"}, "is_reserved": 0, "bike_id": "40da2c53835d7dec7559b53aef8baf57", "name": "40da2c53835d7dec7559b53aef8baf57", "fusion_lon": 0.0, "lon": -77.05009416666667, "fusion_lat": 0.0}, {"lat": 38.90568066666667, "type": "electric_scooter", "is_disabled": 0, "rental_uris": {"android": "https://dc.lft.to/lastmile_qr_scan", "ios": "https://dc.lft.to/lastmile_qr_scan"}, "is_reserved": 0, "bike_id": "51ec2c4731e9df0487ed28d29b561ed3", "name": "51ec2c4731e9df0487ed28d29b561ed3", "fusion_lon": 0.0, "lon": -77.00618216666666, "fusion_lat": 0.0}, {"lat": 38.909878166666665, "type": "electric_scooter", "is_disabled": 0, "rental_uris": {"android": "https://dc.lft.to/lastmile_qr_scan", "ios": "https://dc.lft.to/lastmile_qr_scan"}, "is_reserved": 0, "bike_id": "66064a59c760e187fe7fca4602dbf7c5", "name": "66064a59c760e187fe7fca4602dbf7c5", "fusion_lon": 0.0, "lon": -77.00909466666667, "fusion_lat": 0.0}, {"lat": 38.897350333333335, "type": "electric_bike", "is_disabled": 0, "rental_uris": {"android": "https://dc.lft.to/lastmile_qr_scan", "ios": "https://dc.lft.to/lastmile_qr_scan"}, "is_reserved": 0, "bike_id": "3058e7477636b22028b036ab57b81a95", "name": "3058e7477636b22028b036ab57b81a95", "fusion_lon": 0.0, "lon": -76.90533666666667, "fusion_lat": 0.0}, {"lat": 38.94188583333333, "type": "electric_scooter", "is_disabled": 0, "rental_uris": {"android": "https://dc.lft.to/lastmile_qr_scan", "ios": "https://dc.lft.to/lastmile_qr_scan"}, "is_reserved": 0, "bike_id": "b97532c3210bde2b3d85143d1e54522a", "name": "b97532c3210bde2b3d85143d1e54522a", "fusion_lon": 0.0, "lon": -77.04257583333333, "fusion_lat": 0.0}, {"lat": 39.02297766666667, "type": "electric_bike", "is_disabled": 0, "rental_uris": {"android": "https://dc.lft.to/lastmile_qr_scan", "ios": "https://dc.lft.to/lastmile_qr_scan"}, "is_reserved": 0, "bike_id": "876f001dcc305c696584be9a9168f721", "name": "876f001dcc305c696584be9a9168f721", "fusion_lon": 0.0, "lon": -77.02105333333333, "fusion_lat": 0.0}, {"lat": 38.895318, "type": "electric_scooter", "is_disabled": 0, "rental_uris": {"android": "https://dc.lft.to/lastmile_qr_scan", "ios": "https://dc.lft.to/lastmile_qr_scan"}, "is_reserved": 0, "bike_id": "378146f07540f66fecc3432ee68e94e6", "name": "378146f07540f66fecc3432ee68e94e6", "fusion_lon": 0.0, "lon": -77.00348366666667, "fusion_lat": 0.0}, {"lat": 38.907811333333335, "type": "electric_scooter", "is_disabled": 0, "rental_uris": {"android": "https://dc.lft.to/lastmile_qr_scan", "ios": "https://dc.lft.to/lastmile_qr_scan"}, "is_reserved": 0, "bike_id": "9181c32be881b3b9fbd23bdea56b4b9f", "name": "9181c32be881b3b9fbd23bdea56b4b9f", "fusion_lon": 0.0, "lon": -77.0450635, "fusion_lat": 0.0}, {"lat": 38.890450333333334, "type": "electric_scooter", "is_disabled": 0, "rental_uris": {"android": "https://dc.lft.to/lastmile_qr_scan", "ios": "https://dc.lft.to/lastmile_qr_scan"}, "is_reserved": 0, "bike_id": "ed29d23a48a230dcc0dae06bdf6a7e38", "name": "ed29d23a48a230dcc0dae06bdf6a7e38", "fusion_lon": 0.0, "lon": -76.93757866666667, "fusion_lat": 0.0}, {"lat": 38.897649, "type": "electric_scooter", "is_disabled": 0, "rental_uris": {"android": "https://dc.lft.to/lastmile_qr_scan", "ios": "https://dc.lft.to/lastmile_qr_scan"}, "is_reserved": 0, "bike_id": "5c2e3e2e8b31eb4bc85dd67e9118bd56", "name": "5c2e3e2e8b31eb4bc85dd67e9118bd56", "fusion_lon": 0.0, "lon": -77.05165083333333, "fusion_lat": 0.0}, {"lat": 38.94086266666667, "type": "electric_scooter", "is_disabled": 0, "rental_uris": {"android": "https://dc.lft.to/lastmile_qr_scan", "ios": "https://dc.lft.to/lastmile_qr_scan"}, "is_reserved": 0, "bike_id": "6a22ee1edec4d179e16e1082fe64fce6", "name": "6a22ee1edec4d179e16e1082fe64fce6", "fusion_lon": 0.0, "lon": -77.02723866666666, "fusion_lat": 0.0}, {"lat": 38.90327716666667, "type": "electric_scooter", "is_disabled": 0, "rental_uris": {"android": "https://dc.lft.to/lastmile_qr_scan", "ios": "https://dc.lft.to/lastmile_qr_scan"}, "is_reserved": 0, "bike_id": "93ee5418716606b9204904316424408c", "name": "93ee5418716606b9204904316424408c", "fusion_lon": 0.0, "lon": -77.04328266666667, "fusion_lat": 0.0}, {"lat": 38.917547, "type": "electric_bike", "is_disabled": 0, "rental_uris": {"android": "https://dc.lft.to/lastmile_qr_scan", "ios": "https://dc.lft.to/lastmile_qr_scan"}, "is_reserved": 0, "bike_id": "adfadb007c01dfa256150e5bd262768e", "name": "adfadb007c01dfa256150e5bd262768e", "fusion_lon": 0.0, "lon": -76.9898005, "fusion_lat": 0.0}, {"lat": 38.906822, "type": "electric_scooter", "is_disabled": 0, "rental_uris": {"android": "https://dc.lft.to/lastmile_qr_scan", "ios": "https://dc.lft.to/lastmile_qr_scan"}, "is_reserved": 0, "bike_id": "20d7917695c2b0a55d9268f8767a15a8", "name": "20d7917695c2b0a55d9268f8767a15a8", "fusion_lon": 0.0, "lon": -77.038281, "fusion_lat": 0.0}, {"lat": 38.898449166666666, "type": "electric_scooter", "is_disabled": 0, "rental_uris": {"android": "https://dc.lft.to/lastmile_qr_scan", "ios": "https://dc.lft.to/lastmile_qr_scan"}, "is_reserved": 0, "bike_id": "92f00035294ce24d2ce4b686e7f58a92", "name": "92f00035294ce24d2ce4b686e7f58a92", "fusion_lon": 0.0, "lon": -76.9445665, "fusion_lat": 0.0}, {"lat": 38.90258566666667, "type": "electric_scooter", "is_disabled": 0, "rental_uris": {"android": "https://dc.lft.to/lastmile_qr_scan", "ios": "https://dc.lft.to/lastmile_qr_scan"}, "is_reserved": 0, "bike_id": "4d6847edc0a457e5cb1cac0904a167cc", "name": "4d6847edc0a457e5cb1cac0904a167cc", "fusion_lon": 0.0, "lon": -77.03643033333333, "fusion_lat": 0.0}, {"lat": 38.891018, "type": "electric_scooter", "is_disabled": 0, "rental_uris": {"android": "https://dc.lft.to/lastmile_qr_scan", "ios": "https://dc.lft.to/lastmile_qr_scan"}, "is_reserved": 0, "bike_id": "309dd409ee061169228f4f477948afad", "name": "309dd409ee061169228f4f477948afad", "fusion_lon": 0.0, "lon": -77.00616566666666, "fusion_lat": 0.0}, {"lat": 38.8997375, "type": "electric_scooter", "is_disabled": 0, "rental_uris": {"android": "https://dc.lft.to/lastmile_qr_scan", "ios": "https://dc.lft.to/lastmile_qr_scan"}, "is_reserved": 0, "bike_id": "5a40f72332bb7d71a127605964d63549", "name": "5a40f72332bb7d71a127605964d63549", "fusion_lon": 0.0, "lon": -77.0296075, "fusion_lat": 0.0}, {"lat": 38.919174, "type": "electric_scooter", "is_disabled": 0, "rental_uris": {"android": "https://dc.lft.to/lastmile_qr_scan", "ios": "https://dc.lft.to/lastmile_qr_scan"}, "is_reserved": 0, "bike_id": "d4578c35077c36e47cb81d36bb9be11d", "name": "d4578c35077c36e47cb81d36bb9be11d", "fusion_lon": 0.0, "lon": -77.03170383333334, "fusion_lat": 0.0}, {"lat": 38.985026, "type": "electric_bike", "is_disabled": 0, "rental_uris": {"android": "https://dc.lft.to/lastmile_qr_scan", "ios": "https://dc.lft.to/lastmile_qr_scan"}, "is_reserved": 0, "bike_id": "e1482af1537010ed566503d180f7ff65", "name": "e1482af1537010ed566503d180f7ff65", "fusion_lon": 0.0, "lon": -76.98199716666667, "fusion_lat": 0.0}, {"lat": 38.90249716666667, "type": "electric_scooter", "is_disabled": 0, "rental_uris": {"android": "https://dc.lft.to/lastmile_qr_scan", "ios": "https://dc.lft.to/lastmile_qr_scan"}, "is_reserved": 0, "bike_id": "91225a2442b002fdd1929024c6e5b4a4", "name": "91225a2442b002fdd1929024c6e5b4a4", "fusion_lon": 0.0, "lon": -77.04285983333334, "fusion_lat": 0.0}, {"lat": 38.921438, "type": "electric_scooter", "is_disabled": 0, "rental_uris": {"android": "https://dc.lft.to/lastmile_qr_scan", "ios": "https://dc.lft.to/lastmile_qr_scan"}, "is_reserved": 0, "bike_id": "4e40d5afebd0bb8e18413ee1e9856680", "name": "4e40d5afebd0bb8e18413ee1e9856680", "fusion_lon": 0.0, "lon": -77.045896, "fusion_lat": 0.0}, {"lat": 38.90134, "type": "electric_scooter", "is_disabled": 0, "rental_uris": {"android": "https://dc.lft.to/lastmile_qr_scan", "ios": "https://dc.lft.to/lastmile_qr_scan"}, "is_reserved": 0, "bike_id": "e7da3e1af3d40b82d68def7b52f37232", "name": "e7da3e1af3d40b82d68def7b52f37232", "fusion_lon": 0.0, "lon": -77.0131305, "fusion_lat": 0.0}, {"lat": 38.928989, "type": "electric_scooter", "is_disabled": 0, "rental_uris": {"android": "https://dc.lft.to/lastmile_qr_scan", "ios": "https://dc.lft.to/lastmile_qr_scan"}, "is_reserved": 0, "bike_id": "10bf3bb735b4fbf30ab1ddfd2d0de274", "name": "10bf3bb735b4fbf30ab1ddfd2d0de274", "fusion_lon": 0.0, "lon": -77.01664883333333, "fusion_lat": 0.0}, {"lat": 38.88821, "type": "electric_bike", "is_disabled": 0, "rental_uris": {"android": "https://dc.lft.to/lastmile_qr_scan", "ios": "https://dc.lft.to/lastmile_qr_scan"}, "is_reserved": 0, "bike_id": "6f7e66bc378632b9cc42f6669014c56a", "name": "6f7e66bc378632b9cc42f6669014c56a", "fusion_lon": 0.0, "lon": -77.12738166666666, "fusion_lat": 0.0}, {"lat": 38.975772166666665, "type": "electric_bike", "is_disabled": 0, "rental_uris": {"android": "https://dc.lft.to/lastmile_qr_scan", "ios": "https://dc.lft.to/lastmile_qr_scan"}, "is_reserved": 0, "bike_id": "b63bf57894efdb4d118dc538df703126", "name": "b63bf57894efdb4d118dc538df703126", "fusion_lon": 0.0, "lon": -76.9638535, "fusion_lat": 0.0}, {"lat": 38.99226816666667, "type": "electric_bike", "is_disabled": 0, "rental_uris": {"android": "https://dc.lft.to/lastmile_qr_scan", "ios": "https://dc.lft.to/lastmile_qr_scan"}, "is_reserved": 0, "bike_id": "ea32ae80c0a6949056d5378d3e19bbb5", "name": "ea32ae80c0a6949056d5378d3e19bbb5", "fusion_lon": 0.0, "lon": -76.877795, "fusion_lat": 0.0}, {"lat": 38.889648333333334, "type": "electric_bike", "is_disabled": 0, "rental_uris": {"android": "https://dc.lft.to/lastmile_qr_scan", "ios": "https://dc.lft.to/lastmile_qr_scan"}, "is_reserved": 0, "bike_id": "64e21c27ff7e121df232b0cd4082779d", "name": "64e21c27ff7e121df232b0cd4082779d", "fusion_lon": 0.0, "lon": -76.94867633333334, "fusion_lat": 0.0}, {"lat": 38.907697166666665, "type": "electric_scooter", "is_disabled": 0, "rental_uris": {"android": "https://dc.lft.to/lastmile_qr_scan", "ios": "https://dc.lft.to/lastmile_qr_scan"}, "is_reserved": 0, "bike_id": "847c6f2f59c25b0118178d20a56b5839", "name": "847c6f2f59c25b0118178d20a56b5839", "fusion_lon": 0.0, "lon": -77.03244716666667, "fusion_lat": 0.0}, {"lat": 38.8874685, "type": "electric_scooter", "is_disabled": 0, "rental_uris": {"android": "https://dc.lft.to/lastmile_qr_scan", "ios": "https://dc.lft.to/lastmile_qr_scan"}, "is_reserved": 0, "bike_id": "563f1f0b20ff46f614b543544690fa58", "name": "563f1f0b20ff46f614b543544690fa58", "fusion_lon": 0.0, "lon": -77.0285575, "fusion_lat": 0.0}, {"lat": 38.8921995, "type": "electric_scooter", "is_disabled": 0, "rental_uris": {"android": "https://dc.lft.to/lastmile_qr_scan", "ios": "https://dc.lft.to/lastmile_qr_scan"}, "is_reserved": 0, "bike_id": "c954b54753cfe9171ea0e15696caf63e", "name": "c954b54753cfe9171ea0e15696caf63e", "fusion_lon": 0.0, "lon": -77.03972133333333, "fusion_lat": 0.0}, {"lat": 38.88742833333333, "type": "electric_scooter", "is_disabled": 0, "rental_uris": {"android": "https://dc.lft.to/lastmile_qr_scan", "ios": "https://dc.lft.to/lastmile_qr_scan"}, "is_reserved": 0, "bike_id": "6b783667de4c012facc9e3b226a1316b", "name": "6b783667de4c012facc9e3b226a1316b", "fusion_lon": 0.0, "lon": -77.02226483333334, "fusion_lat": 0.0}, {"lat": 38.907258, "type": "electric_scooter", "is_disabled": 0, "rental_uris": {"android": "https://dc.lft.to/lastmile_qr_scan", "ios": "https://dc.lft.to/lastmile_qr_scan"}, "is_reserved": 0, "bike_id": "ebccced72a284ee068448a497ab8558c", "name": "ebccced72a284ee068448a497ab8558c", "fusion_lon": 0.0, "lon": -77.0237355, "fusion_lat": 0.0}, {"lat": 38.844342833333336, "type": "electric_scooter", "is_disabled": 0, "rental_uris": {"android": "https://dc.lft.to/lastmile_qr_scan", "ios": "https://dc.lft.to/lastmile_qr_scan"}, "is_reserved": 0, "bike_id": "1647239c411257d533cea2d6b82701fb", "name": "1647239c411257d533cea2d6b82701fb", "fusion_lon": 0.0, "lon": -76.9840735, "fusion_lat": 0.0}, {"lat": 38.90474283333333, "type": "electric_scooter", "is_disabled": 0, "rental_uris": {"android": "https://dc.lft.to/lastmile_qr_scan", "ios": "https://dc.lft.to/lastmile_qr_scan"}, "is_reserved": 0, "bike_id": "25f9c9e7214632ea0e8ddc25296f7ff3", "name": "25f9c9e7214632ea0e8ddc25296f7ff3", "fusion_lon": 0.0, "lon": -77.04856933333333, "fusion_lat": 0.0}, {"lat": 38.89705266666667, "type": "electric_scooter", "is_disabled": 0, "rental_uris": {"android": "https://dc.lft.to/lastmile_qr_scan", "ios": "https://dc.lft.to/lastmile_qr_scan"}, "is_reserved": 0, "bike_id": "eac4cc804e40560ea486d82fbb824d1f", "name": "eac4cc804e40560ea486d82fbb824d1f", "fusion_lon": 0.0, "lon": -76.94721016666666, "fusion_lat": 0.0}, {"lat": 38.919085, "type": "electric_scooter", "is_disabled": 0, "rental_uris": {"android": "https://dc.lft.to/lastmile_qr_scan", "ios": "https://dc.lft.to/lastmile_qr_scan"}, "is_reserved": 0, "bike_id": "78ab0e5c9cb719ed6a1eb15fbf898adc", "name": "78ab0e5c9cb719ed6a1eb15fbf898adc", "fusion_lon": 0.0, "lon": -77.03385283333333, "fusion_lat": 0.0}, {"lat": 38.92157566666667, "type": "electric_scooter", "is_disabled": 0, "rental_uris": {"android": "https://dc.lft.to/lastmile_qr_scan", "ios": "https://dc.lft.to/lastmile_qr_scan"}, "is_reserved": 0, "bike_id": "d9f90bcd9eaba05d8f2be854562616e7", "name": "d9f90bcd9eaba05d8f2be854562616e7", "fusion_lon": 0.0, "lon": -77.0345485, "fusion_lat": 0.0}, {"lat": 38.89588, "type": "electric_scooter", "is_disabled": 0, "rental_uris": {"android": "https://dc.lft.to/lastmile_qr_scan", "ios": "https://dc.lft.to/lastmile_qr_scan"}, "is_reserved": 0, "bike_id": "b46e8e5a517367b4f258a34f5efa7b9b", "name": "b46e8e5a517367b4f258a34f5efa7b9b", "fusion_lon": 0.0, "lon": -77.02308566666666, "fusion_lat": 0.0}, {"lat": 38.93171666666667, "type": "electric_scooter", "is_disabled": 0, "rental_uris": {"android": "https://dc.lft.to/lastmile_qr_scan", "ios": "https://dc.lft.to/lastmile_qr_scan"}, "is_reserved": 0, "bike_id": "2ac9a83f1cce96b3699245fd8a338ba5", "name": "2ac9a83f1cce96b3699245fd8a338ba5", "fusion_lon": 0.0, "lon": -77.03669866666667, "fusion_lat": 0.0}, {"lat": 38.87654833333333, "type": "electric_scooter", "is_disabled": 0, "rental_uris": {"android": "https://dc.lft.to/lastmile_qr_scan", "ios": "https://dc.lft.to/lastmile_qr_scan"}, "is_reserved": 0, "bike_id": "98a48d34a3443087b008ad1c785e57c4", "name": "98a48d34a3443087b008ad1c785e57c4", "fusion_lon": 0.0, "lon": -77.017362, "fusion_lat": 0.0}, {"lat": 38.9098435, "type": "electric_scooter", "is_disabled": 0, "rental_uris": {"android": "https://dc.lft.to/lastmile_qr_scan", "ios": "https://dc.lft.to/lastmile_qr_scan"}, "is_reserved": 0, "bike_id": "4643543e086a68d67296dcba6f644ca9", "name": "4643543e086a68d67296dcba6f644ca9", "fusion_lon": 0.0, "lon": -77.042608, "fusion_lat": 0.0}, {"lat": 38.904249, "type": "electric_scooter", "is_disabled": 0, "rental_uris": {"android": "https://dc.lft.to/lastmile_qr_scan", "ios": "https://dc.lft.to/lastmile_qr_scan"}, "is_reserved": 0, "bike_id": "e3fd5b9953324c6d3667acde3916e849", "name": "e3fd5b9953324c6d3667acde3916e849", "fusion_lon": 0.0, "lon": -77.0295145, "fusion_lat": 0.0}, {"lat": 38.88503016666667, "type": "electric_scooter", "is_disabled": 0, "rental_uris": {"android": "https://dc.lft.to/lastmile_qr_scan", "ios": "https://dc.lft.to/lastmile_qr_scan"}, "is_reserved": 0, "bike_id": "5d726a30fb6085300e8bd12ca8d3a180", "name": "5d726a30fb6085300e8bd12ca8d3a180", "fusion_lon": 0.0, "lon": -77.00564133333333, "fusion_lat": 0.0}, {"lat": 38.9289415, "type": "electric_scooter", "is_disabled": 0, "rental_uris": {"android": "https://dc.lft.to/lastmile_qr_scan", "ios": "https://dc.lft.to/lastmile_qr_scan"}, "is_reserved": 0, "bike_id": "0ad5de7ac7970870d717f029a34e526c", "name": "0ad5de7ac7970870d717f029a34e526c", "fusion_lon": 0.0, "lon": -77.0325955, "fusion_lat": 0.0}, {"lat": 38.9645815, "type": "electric_scooter", "is_disabled": 0, "rental_uris": {"android": "https://dc.lft.to/lastmile_qr_scan", "ios": "https://dc.lft.to/lastmile_qr_scan"}, "is_reserved": 0, "bike_id": "853d77f26f5bdeb2526cb262d2cda14e", "name": "853d77f26f5bdeb2526cb262d2cda14e", "fusion_lon": 0.0, "lon": -77.036249, "fusion_lat": 0.0}, {"lat": 38.862418, "type": "electric_scooter", "is_disabled": 0, "rental_uris": {"android": "https://dc.lft.to/lastmile_qr_scan", "ios": "https://dc.lft.to/lastmile_qr_scan"}, "is_reserved": 0, "bike_id": "5e45e37c02772068b76210d87280e3c9", "name": "5e45e37c02772068b76210d87280e3c9", "fusion_lon": 0.0, "lon": -76.99495033333334, "fusion_lat": 0.0}, {"lat": 38.85714683333333, "type": "electric_bike", "is_disabled": 0, "rental_uris": {"android": "https://dc.lft.to/lastmile_qr_scan", "ios": "https://dc.lft.to/lastmile_qr_scan"}, "is_reserved": 0, "bike_id": "bef390e4edd301a0c72b055a4757989f", "name": "bef390e4edd301a0c72b055a4757989f", "fusion_lon": 0.0, "lon": -76.98116383333333, "fusion_lat": 0.0}, {"lat": 38.838103833333335, "type": "electric_scooter", "is_disabled": 0, "rental_uris": {"android": "https://dc.lft.to/lastmile_qr_scan", "ios": "https://dc.lft.to/lastmile_qr_scan"}, "is_reserved": 0, "bike_id": "c91257b567b784616b91efec630c27dd", "name": "c91257b567b784616b91efec630c27dd", "fusion_lon": 0.0, "lon": -77.00430616666667, "fusion_lat": 0.0}, {"lat": 38.92860616666667, "type": "electric_scooter", "is_disabled": 0, "rental_uris": {"android": "https://dc.lft.to/lastmile_qr_scan", "ios": "https://dc.lft.to/lastmile_qr_scan"}, "is_reserved": 0, "bike_id": "79a14344fffcc98ec0df1136ba88eb36", "name": "79a14344fffcc98ec0df1136ba88eb36", "fusion_lon": 0.0, "lon": -77.0342985, "fusion_lat": 0.0}, {"lat": 38.91912933333333, "type": "electric_bike", "is_disabled": 0, "rental_uris": {"android": "https://dc.lft.to/lastmile_qr_scan", "ios": "https://dc.lft.to/lastmile_qr_scan"}, "is_reserved": 0, "bike_id": "130d60ae3e6a48b32c01ba251763759e", "name": "130d60ae3e6a48b32c01ba251763759e", "fusion_lon": 0.0, "lon": -77.0702125, "fusion_lat": 0.0}, {"lat": 38.930462, "type": "electric_scooter", "is_disabled": 0, "rental_uris": {"android": "https://dc.lft.to/lastmile_qr_scan", "ios": "https://dc.lft.to/lastmile_qr_scan"}, "is_reserved": 0, "bike_id": "5ff6fc2c93455a841f260d665c0b196b", "name": "5ff6fc2c93455a841f260d665c0b196b", "fusion_lon": 0.0, "lon": -77.00416283333334, "fusion_lat": 0.0}, {"lat": 39.115208333333335, "type": "electric_bike", "is_disabled": 0, "rental_uris": {"android": "https://dc.lft.to/lastmile_qr_scan", "ios": "https://dc.lft.to/lastmile_qr_scan"}, "is_reserved": 0, "bike_id": "c5ff15076fae10aa2edd90cf7ffb0016", "name": "c5ff15076fae10aa2edd90cf7ffb0016", "fusion_lon": 0.0, "lon": -77.195473, "fusion_lat": 0.0}, {"lat": 38.9157785, "type": "electric_scooter", "is_disabled": 0, "rental_uris": {"android": "https://dc.lft.to/lastmile_qr_scan", "ios": "https://dc.lft.to/lastmile_qr_scan"}, "is_reserved": 0, "bike_id": "597dfda65745ffe5c2271f4060902bb3", "name": "597dfda65745ffe5c2271f4060902bb3", "fusion_lon": 0.0, "lon": -77.0469195, "fusion_lat": 0.0}, {"lat": 38.9427915, "type": "electric_scooter", "is_disabled": 0, "rental_uris": {"android": "https://dc.lft.to/lastmile_qr_scan", "ios": "https://dc.lft.to/lastmile_qr_scan"}, "is_reserved": 0, "bike_id": "5519ba6219cc0754691ffc7c5c02eb85", "name": "5519ba6219cc0754691ffc7c5c02eb85", "fusion_lon": 0.0, "lon": -77.02347566666667, "fusion_lat": 0.0}, {"lat": 38.9185165, "type": "electric_scooter", "is_disabled": 0, "rental_uris": {"android": "https://dc.lft.to/lastmile_qr_scan", "ios": "https://dc.lft.to/lastmile_qr_scan"}, "is_reserved": 0, "bike_id": "5978b0d2ea64115bb079809b2a925849", "name": "5978b0d2ea64115bb079809b2a925849", "fusion_lon": 0.0, "lon": -77.03221766666667, "fusion_lat": 0.0}, {"lat": 38.9431045, "type": "electric_scooter", "is_disabled": 0, "rental_uris": {"android": "https://dc.lft.to/lastmile_qr_scan", "ios": "https://dc.lft.to/lastmile_qr_scan"}, "is_reserved": 0, "bike_id": "0c44a03ce791bf97ad5b51d02bb34485", "name": "0c44a03ce791bf97ad5b51d02bb34485", "fusion_lon": 0.0, "lon": -77.06170933333334, "fusion_lat": 0.0}, {"lat": 38.93928283333333, "type": "electric_scooter", "is_disabled": 0, "rental_uris": {"android": "https://dc.lft.to/lastmile_qr_scan", "ios": "https://dc.lft.to/lastmile_qr_scan"}, "is_reserved": 0, "bike_id": "11a8f38fd6894caf8f9dc2909c90d839", "name": "11a8f38fd6894caf8f9dc2909c90d839", "fusion_lon": 0.0, "lon": -77.07475733333334, "fusion_lat": 0.0}, {"lat": 38.9238635, "type": "electric_scooter", "is_disabled": 0, "rental_uris": {"android": "https://dc.lft.to/lastmile_qr_scan", "ios": "https://dc.lft.to/lastmile_qr_scan"}, "is_reserved": 0, "bike_id": "1f219dfb520b690cdd193db943abf163", "name": "1f219dfb520b690cdd193db943abf163", "fusion_lon": 0.0, "lon": -77.0515745, "fusion_lat": 0.0}, {"lat": 38.89743466666667, "type": "electric_scooter", "is_disabled": 0, "rental_uris": {"android": "https://dc.lft.to/lastmile_qr_scan", "ios": "https://dc.lft.to/lastmile_qr_scan"}, "is_reserved": 0, "bike_id": "1c3185a82c2f5786aac0160c1f4b42f3", "name": "1c3185a82c2f5786aac0160c1f4b42f3", "fusion_lon": 0.0, "lon": -77.0035205, "fusion_lat": 0.0}, {"lat": 39.0249395, "type": "electric_bike", "is_disabled": 0, "rental_uris": {"android": "https://dc.lft.to/lastmile_qr_scan", "ios": "https://dc.lft.to/lastmile_qr_scan"}, "is_reserved": 0, "bike_id": "594006d0d504ee878f0bb7e72e2a0f19", "name": "594006d0d504ee878f0bb7e72e2a0f19", "fusion_lon": 0.0, "lon": -77.12567633333333, "fusion_lat": 0.0}, {"lat": 38.91691866666667, "type": "electric_scooter", "is_disabled": 0, "rental_uris": {"android": "https://dc.lft.to/lastmile_qr_scan", "ios": "https://dc.lft.to/lastmile_qr_scan"}, "is_reserved": 0, "bike_id": "37d1100a180b591fbe47fbe299f265ee", "name": "37d1100a180b591fbe47fbe299f265ee", "fusion_lon": 0.0, "lon": -77.02736, "fusion_lat": 0.0}, {"lat": 38.916168, "type": "electric_scooter", "is_disabled": 0, "rental_uris": {"android": "https://dc.lft.to/lastmile_qr_scan", "ios": "https://dc.lft.to/lastmile_qr_scan"}, "is_reserved": 0, "bike_id": "e56cb2f78745832ffcd6de1876475915", "name": "e56cb2f78745832ffcd6de1876475915", "fusion_lon": 0.0, "lon": -77.0317015, "fusion_lat": 0.0}, {"lat": 38.8900845, "type": "electric_scooter", "is_disabled": 0, "rental_uris": {"android": "https://dc.lft.to/lastmile_qr_scan", "ios": "https://dc.lft.to/lastmile_qr_scan"}, "is_reserved": 0, "bike_id": "10e72bb4e8ed167fa0b7d443e418ef1f", "name": "10e72bb4e8ed167fa0b7d443e418ef1f", "fusion_lon": 0.0, "lon": -76.93837516666666, "fusion_lat": 0.0}, {"lat": 38.89607783333334, "type": "electric_scooter", "is_disabled": 0, "rental_uris": {"android": "https://dc.lft.to/lastmile_qr_scan", "ios": "https://dc.lft.to/lastmile_qr_scan"}, "is_reserved": 0, "bike_id": "a5e1b5efb7d1ea5c9bdb8e7b9b61426f", "name": "a5e1b5efb7d1ea5c9bdb8e7b9b61426f", "fusion_lon": 0.0, "lon": -77.04644516666667, "fusion_lat": 0.0}, {"lat": 38.930872666666666, "type": "electric_scooter", "is_disabled": 0, "rental_uris": {"android": "https://dc.lft.to/lastmile_qr_scan", "ios": "https://dc.lft.to/lastmile_qr_scan"}, "is_reserved": 0, "bike_id": "f0dedc3b9e410ceea9403af8f905c3ef", "name": "f0dedc3b9e410ceea9403af8f905c3ef", "fusion_lon": 0.0, "lon": -77.03621683333333, "fusion_lat": 0.0}, {"lat": 38.93059266666667, "type": "electric_scooter", "is_disabled": 0, "rental_uris": {"android": "https://dc.lft.to/lastmile_qr_scan", "ios": "https://dc.lft.to/lastmile_qr_scan"}, "is_reserved": 0, "bike_id": "4e919cf5fa852cd23e9beb6461440fce", "name": "4e919cf5fa852cd23e9beb6461440fce", "fusion_lon": 0.0, "lon": -77.029639, "fusion_lat": 0.0}, {"lat": 38.905733, "type": "electric_scooter", "is_disabled": 0, "rental_uris": {"android": "https://dc.lft.to/lastmile_qr_scan", "ios": "https://dc.lft.to/lastmile_qr_scan"}, "is_reserved": 0, "bike_id": "683bf10928596914c12a03345c3492d0", "name": "683bf10928596914c12a03345c3492d0", "fusion_lon": 0.0, "lon": -77.04871516666667, "fusion_lat": 0.0}, {"lat": 38.92741183333333, "type": "electric_scooter", "is_disabled": 0, "rental_uris": {"android": "https://dc.lft.to/lastmile_qr_scan", "ios": "https://dc.lft.to/lastmile_qr_scan"}, "is_reserved": 0, "bike_id": "74bf67039a9738434f98cbc904233ea0", "name": "74bf67039a9738434f98cbc904233ea0", "fusion_lon": 0.0, "lon": -77.03298716666667, "fusion_lat": 0.0}, {"lat": 38.91132916666667, "type": "electric_scooter", "is_disabled": 0, "rental_uris": {"android": "https://dc.lft.to/lastmile_qr_scan", "ios": "https://dc.lft.to/lastmile_qr_scan"}, "is_reserved": 0, "bike_id": "cf6f9473095ec78a21c0c7426be7b96e", "name": "cf6f9473095ec78a21c0c7426be7b96e", "fusion_lon": 0.0, "lon": -77.041929, "fusion_lat": 0.0}, {"lat": 38.9126375, "type": "electric_scooter", "is_disabled": 0, "rental_uris": {"android": "https://dc.lft.to/lastmile_qr_scan", "ios": "https://dc.lft.to/lastmile_qr_scan"}, "is_reserved": 0, "bike_id": "469e5c6c9217c867e39130c8f54fc07d", "name": "469e5c6c9217c867e39130c8f54fc07d", "fusion_lon": 0.0, "lon": -77.04155816666666, "fusion_lat": 0.0}, {"lat": 38.902844333333334, "type": "electric_scooter", "is_disabled": 0, "rental_uris": {"android": "https://dc.lft.to/lastmile_qr_scan", "ios": "https://dc.lft.to/lastmile_qr_scan"}, "is_reserved": 0, "bike_id": "5027f322f984d7232f16897290c89be9", "name": "5027f322f984d7232f16897290c89be9", "fusion_lon": 0.0, "lon": -77.02428833333333, "fusion_lat": 0.0}, {"lat": 38.898414, "type": "electric_scooter", "is_disabled": 0, "rental_uris": {"android": "https://dc.lft.to/lastmile_qr_scan", "ios": "https://dc.lft.to/lastmile_qr_scan"}, "is_reserved": 0, "bike_id": "7dfd948c5cbf1fc780a15163b77acce4", "name": "7dfd948c5cbf1fc780a15163b77acce4", "fusion_lon": 0.0, "lon": -76.94638116666667, "fusion_lat": 0.0}, {"lat": 38.915566166666665, "type": "electric_scooter", "is_disabled": 0, "rental_uris": {"android": "https://dc.lft.to/lastmile_qr_scan", "ios": "https://dc.lft.to/lastmile_qr_scan"}, "is_reserved": 0, "bike_id": "0a5119498e294e7c9086db0306a5ed24", "name": "0a5119498e294e7c9086db0306a5ed24", "fusion_lon": 0.0, "lon": -77.02044933333333, "fusion_lat": 0.0}, {"lat": 38.90257533333333, "type": "electric_scooter", "is_disabled": 0, "rental_uris": {"android": "https://dc.lft.to/lastmile_qr_scan", "ios": "https://dc.lft.to/lastmile_qr_scan"}, "is_reserved": 0, "bike_id": "666f8350874ed072f2c6fed3fe248166", "name": "666f8350874ed072f2c6fed3fe248166", "fusion_lon": 0.0, "lon": -77.04517733333333, "fusion_lat": 0.0}, {"lat": 38.909624, "type": "electric_scooter", "is_disabled": 0, "rental_uris": {"android": "https://dc.lft.to/lastmile_qr_scan", "ios": "https://dc.lft.to/lastmile_qr_scan"}, "is_reserved": 0, "bike_id": "f73c10afda93cb2d8482a4c900e31555", "name": "f73c10afda93cb2d8482a4c900e31555", "fusion_lon": 0.0, "lon": -77.04548133333333, "fusion_lat": 0.0}, {"lat": 38.92654483333333, "type": "electric_scooter", "is_disabled": 0, "rental_uris": {"android": "https://dc.lft.to/lastmile_qr_scan", "ios": "https://dc.lft.to/lastmile_qr_scan"}, "is_reserved": 0, "bike_id": "b513dbc2303a1355719cc9731e77f32a", "name": "b513dbc2303a1355719cc9731e77f32a", "fusion_lon": 0.0, "lon": -77.0242515, "fusion_lat": 0.0}, {"lat": 38.910394833333335, "type": "electric_scooter", "is_disabled": 0, "rental_uris": {"android": "https://dc.lft.to/lastmile_qr_scan", "ios": "https://dc.lft.to/lastmile_qr_scan"}, "is_reserved": 0, "bike_id": "8e89e4dd93f504a17d5c3fc86fef1bee", "name": "8e89e4dd93f504a17d5c3fc86fef1bee", "fusion_lon": 0.0, "lon": -77.043734, "fusion_lat": 0.0}, {"lat": 38.88855683333333, "type": "electric_scooter", "is_disabled": 0, "rental_uris": {"android": "https://dc.lft.to/lastmile_qr_scan", "ios": "https://dc.lft.to/lastmile_qr_scan"}, "is_reserved": 0, "bike_id": "54f456da9a9185d75c3cefe398a9fc42", "name": "54f456da9a9185d75c3cefe398a9fc42", "fusion_lon": 0.0, "lon": -77.000575, "fusion_lat": 0.0}, {"lat": 38.89877116666667, "type": "electric_scooter", "is_disabled": 0, "rental_uris": {"android": "https://dc.lft.to/lastmile_qr_scan", "ios": "https://dc.lft.to/lastmile_qr_scan"}, "is_reserved": 0, "bike_id": "09838948bf57033a897986a489f10a5d", "name": "09838948bf57033a897986a489f10a5d", "fusion_lon": 0.0, "lon": -76.93189166666667, "fusion_lat": 0.0}, {"lat": 38.900635333333334, "type": "electric_scooter", "is_disabled": 0, "rental_uris": {"android": "https://dc.lft.to/lastmile_qr_scan", "ios": "https://dc.lft.to/lastmile_qr_scan"}, "is_reserved": 0, "bike_id": "175b6f391caa584b2fd9f04d3a65d661", "name": "175b6f391caa584b2fd9f04d3a65d661", "fusion_lon": 0.0, "lon": -77.05058633333333, "fusion_lat": 0.0}, {"lat": 38.9172825, "type": "electric_scooter", "is_disabled": 0, "rental_uris": {"android": "https://dc.lft.to/lastmile_qr_scan", "ios": "https://dc.lft.to/lastmile_qr_scan"}, "is_reserved": 0, "bike_id": "4c5bdfd7558d5d389c4781e3d9efc381", "name": "4c5bdfd7558d5d389c4781e3d9efc381", "fusion_lon": 0.0, "lon": -77.0321015, "fusion_lat": 0.0}, {"lat": 38.895606, "type": "electric_scooter", "is_disabled": 0, "rental_uris": {"android": "https://dc.lft.to/lastmile_qr_scan", "ios": "https://dc.lft.to/lastmile_qr_scan"}, "is_reserved": 0, "bike_id": "1584338c8b57d6c410bc8660ed41c1b3", "name": "1584338c8b57d6c410bc8660ed41c1b3", "fusion_lon": 0.0, "lon": -77.00411933333334, "fusion_lat": 0.0}, {"lat": 38.896168833333334, "type": "electric_scooter", "is_disabled": 0, "rental_uris": {"android": "https://dc.lft.to/lastmile_qr_scan", "ios": "https://dc.lft.to/lastmile_qr_scan"}, "is_reserved": 0, "bike_id": "c275cc031b3082f285221fdcb520f74f", "name": "c275cc031b3082f285221fdcb520f74f", "fusion_lon": 0.0, "lon": -77.02681133333333, "fusion_lat": 0.0}, {"lat": 38.905627333333335, "type": "electric_scooter", "is_disabled": 0, "rental_uris": {"android": "https://dc.lft.to/lastmile_qr_scan", "ios": "https://dc.lft.to/lastmile_qr_scan"}, "is_reserved": 0, "bike_id": "42ebd9e482b8ab9ec40a772e4916c2bd", "name": "42ebd9e482b8ab9ec40a772e4916c2bd", "fusion_lon": 0.0, "lon": -77.00507433333334, "fusion_lat": 0.0}, {"lat": 38.915508833333334, "type": "electric_scooter", "is_disabled": 0, "rental_uris": {"android": "https://dc.lft.to/lastmile_qr_scan", "ios": "https://dc.lft.to/lastmile_qr_scan"}, "is_reserved": 0, "bike_id": "f6a95fba93c81aaa090aae6153572560", "name": "f6a95fba93c81aaa090aae6153572560", "fusion_lon": 0.0, "lon": -77.04633966666667, "fusion_lat": 0.0}, {"lat": 38.9802535, "type": "electric_bike", "is_disabled": 0, "rental_uris": {"android": "https://dc.lft.to/lastmile_qr_scan", "ios": "https://dc.lft.to/lastmile_qr_scan"}, "is_reserved": 0, "bike_id": "6521d3eff8f966b7323c294adc46d61c", "name": "6521d3eff8f966b7323c294adc46d61c", "fusion_lon": 0.0, "lon": -76.92916933333333, "fusion_lat": 0.0}, {"lat": 38.86354866666667, "type": "electric_scooter", "is_disabled": 0, "rental_uris": {"android": "https://dc.lft.to/lastmile_qr_scan", "ios": "https://dc.lft.to/lastmile_qr_scan"}, "is_reserved": 0, "bike_id": "f3ed5e14028c23266653ee1bee6c0120", "name": "f3ed5e14028c23266653ee1bee6c0120", "fusion_lon": 0.0, "lon": -76.9906075, "fusion_lat": 0.0}, {"lat": 38.84617383333333, "type": "electric_scooter", "is_disabled": 0, "rental_uris": {"android": "https://dc.lft.to/lastmile_qr_scan", "ios": "https://dc.lft.to/lastmile_qr_scan"}, "is_reserved": 0, "bike_id": "d82739bba63ff17a99c2ad583c8bfc1c", "name": "d82739bba63ff17a99c2ad583c8bfc1c", "fusion_lon": 0.0, "lon": -76.996312, "fusion_lat": 0.0}, {"lat": 38.90746733333334, "type": "electric_scooter", "is_disabled": 0, "rental_uris": {"android": "https://dc.lft.to/lastmile_qr_scan", "ios": "https://dc.lft.to/lastmile_qr_scan"}, "is_reserved": 0, "bike_id": "338c4fb275aea76e96efd0fadc497134", "name": "338c4fb275aea76e96efd0fadc497134", "fusion_lon": 0.0, "lon": -77.0455375, "fusion_lat": 0.0}, {"lat": 38.901553, "type": "electric_scooter", "is_disabled": 0, "rental_uris": {"android": "https://dc.lft.to/lastmile_qr_scan", "ios": "https://dc.lft.to/lastmile_qr_scan"}, "is_reserved": 0, "bike_id": "9a607bf21ff62b0212a7654e623a7d8c", "name": "9a607bf21ff62b0212a7654e623a7d8c", "fusion_lon": 0.0, "lon": -77.041691, "fusion_lat": 0.0}, {"lat": 38.8309465, "type": "electric_bike", "is_disabled": 0, "rental_uris": {"android": "https://dc.lft.to/lastmile_qr_scan", "ios": "https://dc.lft.to/lastmile_qr_scan"}, "is_reserved": 0, "bike_id": "cbc608341224a333a1f0b63b53852618", "name": "cbc608341224a333a1f0b63b53852618", "fusion_lon": 0.0, "lon": -77.042972, "fusion_lat": 0.0}, {"lat": 38.89842433333333, "type": "electric_scooter", "is_disabled": 0, "rental_uris": {"android": "https://dc.lft.to/lastmile_qr_scan", "ios": "https://dc.lft.to/lastmile_qr_scan"}, "is_reserved": 0, "bike_id": "c9460d39779d5b8ce6abf87f7597ba07", "name": "c9460d39779d5b8ce6abf87f7597ba07", "fusion_lon": 0.0, "lon": -77.03123466666666, "fusion_lat": 0.0}, {"lat": 38.945193833333335, "type": "electric_scooter", "is_disabled": 0, "rental_uris": {"android": "https://dc.lft.to/lastmile_qr_scan", "ios": "https://dc.lft.to/lastmile_qr_scan"}, "is_reserved": 0, "bike_id": "c8f13e498aefd0c665d4ae47dd0e99d9", "name": "c8f13e498aefd0c665d4ae47dd0e99d9", "fusion_lon": 0.0, "lon": -77.0297835, "fusion_lat": 0.0}, {"lat": 38.89942766666667, "type": "electric_scooter", "is_disabled": 0, "rental_uris": {"android": "https://dc.lft.to/lastmile_qr_scan", "ios": "https://dc.lft.to/lastmile_qr_scan"}, "is_reserved": 0, "bike_id": "a300735c9f6033dc09d24576af29377d", "name": "a300735c9f6033dc09d24576af29377d", "fusion_lon": 0.0, "lon": -77.003447, "fusion_lat": 0.0}, {"lat": 38.89531316666667, "type": "electric_scooter", "is_disabled": 0, "rental_uris": {"android": "https://dc.lft.to/lastmile_qr_scan", "ios": "https://dc.lft.to/lastmile_qr_scan"}, "is_reserved": 0, "bike_id": "77948a401371aa392860d43cf54069ac", "name": "77948a401371aa392860d43cf54069ac", "fusion_lon": 0.0, "lon": -77.02419866666666, "fusion_lat": 0.0}, {"lat": 38.92329983333333, "type": "electric_scooter", "is_disabled": 0, "rental_uris": {"android": "https://dc.lft.to/lastmile_qr_scan", "ios": "https://dc.lft.to/lastmile_qr_scan"}, "is_reserved": 0, "bike_id": "44c2aa6100d49b153b1b25f7d902a517", "name": "44c2aa6100d49b153b1b25f7d902a517", "fusion_lon": 0.0, "lon": -76.99907816666666, "fusion_lat": 0.0}, {"lat": 38.88373333333333, "type": "electric_scooter", "is_disabled": 0, "rental_uris": {"android": "https://dc.lft.to/lastmile_qr_scan", "ios": "https://dc.lft.to/lastmile_qr_scan"}, "is_reserved": 0, "bike_id": "86d8e5ff4546222c4d768fc06cd50312", "name": "86d8e5ff4546222c4d768fc06cd50312", "fusion_lon": 0.0, "lon": -76.92374466666666, "fusion_lat": 0.0}, {"lat": 38.831491166666666, "type": "electric_bike", "is_disabled": 0, "rental_uris": {"android": "https://dc.lft.to/lastmile_qr_scan", "ios": "https://dc.lft.to/lastmile_qr_scan"}, "is_reserved": 0, "bike_id": "3b9a5ab526a42b687eedd8d6d38c88be", "name": "3b9a5ab526a42b687eedd8d6d38c88be", "fusion_lon": 0.0, "lon": -76.99690233333334, "fusion_lat": 0.0}, {"lat": 38.898002166666664, "type": "electric_scooter", "is_disabled": 0, "rental_uris": {"android": "https://dc.lft.to/lastmile_qr_scan", "ios": "https://dc.lft.to/lastmile_qr_scan"}, "is_reserved": 0, "bike_id": "6e9b67cdcb023e335922a5bafa3cae8c", "name": "6e9b67cdcb023e335922a5bafa3cae8c", "fusion_lon": 0.0, "lon": -76.93050416666667, "fusion_lat": 0.0}, {"lat": 38.9185295, "type": "electric_scooter", "is_disabled": 0, "rental_uris": {"android": "https://dc.lft.to/lastmile_qr_scan", "ios": "https://dc.lft.to/lastmile_qr_scan"}, "is_reserved": 0, "bike_id": "6d82f392193e712fc1c0c59ea5ed8336", "name": "6d82f392193e712fc1c0c59ea5ed8336", "fusion_lon": 0.0, "lon": -77.03218033333333, "fusion_lat": 0.0}, {"lat": 38.9240175, "type": "electric_scooter", "is_disabled": 0, "rental_uris": {"android": "https://dc.lft.to/lastmile_qr_scan", "ios": "https://dc.lft.to/lastmile_qr_scan"}, "is_reserved": 0, "bike_id": "2941931a3ed908c242d7d7821c6acaff", "name": "2941931a3ed908c242d7d7821c6acaff", "fusion_lon": 0.0, "lon": -77.04055966666667, "fusion_lat": 0.0}, {"lat": 38.88651683333333, "type": "electric_bike", "is_disabled": 0, "rental_uris": {"android": "https://dc.lft.to/lastmile_qr_scan", "ios": "https://dc.lft.to/lastmile_qr_scan"}, "is_reserved": 0, "bike_id": "7606370d19e61cc325ee73f1bdd75186", "name": "7606370d19e61cc325ee73f1bdd75186", "fusion_lon": 0.0, "lon": -77.16224466666667, "fusion_lat": 0.0}, {"lat": 38.90193566666667, "type": "electric_scooter", "is_disabled": 0, "rental_uris": {"android": "https://dc.lft.to/lastmile_qr_scan", "ios": "https://dc.lft.to/lastmile_qr_scan"}, "is_reserved": 0, "bike_id": "206ac6688e76d560d7d86b285c8a005d", "name": "206ac6688e76d560d7d86b285c8a005d", "fusion_lon": 0.0, "lon": -77.0240655, "fusion_lat": 0.0}, {"lat": 38.921486, "type": "electric_scooter", "is_disabled": 0, "rental_uris": {"android": "https://dc.lft.to/lastmile_qr_scan", "ios": "https://dc.lft.to/lastmile_qr_scan"}, "is_reserved": 0, "bike_id": "f26d6af5e599e359a12fd2a37acc7d88", "name": "f26d6af5e599e359a12fd2a37acc7d88", "fusion_lon": 0.0, "lon": -77.03483066666666, "fusion_lat": 0.0}, {"lat": 38.895054333333334, "type": "electric_scooter", "is_disabled": 0, "rental_uris": {"android": "https://dc.lft.to/lastmile_qr_scan", "ios": "https://dc.lft.to/lastmile_qr_scan"}, "is_reserved": 0, "bike_id": "816dd5bb7717cc4652148c7ea2f37217", "name": "816dd5bb7717cc4652148c7ea2f37217", "fusion_lon": 0.0, "lon": -77.02204483333334, "fusion_lat": 0.0}, {"lat": 38.846183833333335, "type": "electric_scooter", "is_disabled": 0, "rental_uris": {"android": "https://dc.lft.to/lastmile_qr_scan", "ios": "https://dc.lft.to/lastmile_qr_scan"}, "is_reserved": 0, "bike_id": "405ab643be784346f9ae94a44ce5347b", "name": "405ab643be784346f9ae94a44ce5347b", "fusion_lon": 0.0, "lon": -76.99633716666666, "fusion_lat": 0.0}, {"lat": 38.899249, "type": "electric_scooter", "is_disabled": 0, "rental_uris": {"android": "https://dc.lft.to/lastmile_qr_scan", "ios": "https://dc.lft.to/lastmile_qr_scan"}, "is_reserved": 0, "bike_id": "e36f6e12da83ad3eddd86a86e17c9b22", "name": "e36f6e12da83ad3eddd86a86e17c9b22", "fusion_lon": 0.0, "lon": -77.0149235, "fusion_lat": 0.0}, {"lat": 38.879661166666665, "type": "electric_scooter", "is_disabled": 0, "rental_uris": {"android": "https://dc.lft.to/lastmile_qr_scan", "ios": "https://dc.lft.to/lastmile_qr_scan"}, "is_reserved": 0, "bike_id": "8d1f16d38f6969c6fac44fd011a0ae28", "name": "8d1f16d38f6969c6fac44fd011a0ae28", "fusion_lon": 0.0, "lon": -77.024359, "fusion_lat": 0.0}, {"lat": 38.892444, "type": "electric_scooter", "is_disabled": 0, "rental_uris": {"android": "https://dc.lft.to/lastmile_qr_scan", "ios": "https://dc.lft.to/lastmile_qr_scan"}, "is_reserved": 0, "bike_id": "8f7d5a46570a7b50843f9a4b017e8bb2", "name": "8f7d5a46570a7b50843f9a4b017e8bb2", "fusion_lon": 0.0, "lon": -77.04662283333333, "fusion_lat": 0.0}, {"lat": 38.909878, "type": "electric_scooter", "is_disabled": 0, "rental_uris": {"android": "https://dc.lft.to/lastmile_qr_scan", "ios": "https://dc.lft.to/lastmile_qr_scan"}, "is_reserved": 0, "bike_id": "f0ef7f33f276f8ee4cd1adf6ae61cc77", "name": "f0ef7f33f276f8ee4cd1adf6ae61cc77", "fusion_lon": 0.0, "lon": -77.03198866666666, "fusion_lat": 0.0}, {"lat": 38.90962716666667, "type": "electric_scooter", "is_disabled": 0, "rental_uris": {"android": "https://dc.lft.to/lastmile_qr_scan", "ios": "https://dc.lft.to/lastmile_qr_scan"}, "is_reserved": 0, "bike_id": "2df700d34f2fefad7a49b73c1bfcf422", "name": "2df700d34f2fefad7a49b73c1bfcf422", "fusion_lon": 0.0, "lon": -77.03438483333333, "fusion_lat": 0.0}, {"lat": 38.90014383333333, "type": "electric_scooter", "is_disabled": 0, "rental_uris": {"android": "https://dc.lft.to/lastmile_qr_scan", "ios": "https://dc.lft.to/lastmile_qr_scan"}, "is_reserved": 0, "bike_id": "746a896b500511aca81787a94fc7bb2e", "name": "746a896b500511aca81787a94fc7bb2e", "fusion_lon": 0.0, "lon": -76.9960115, "fusion_lat": 0.0}, {"lat": 38.8982925, "type": "electric_scooter", "is_disabled": 0, "rental_uris": {"android": "https://dc.lft.to/lastmile_qr_scan", "ios": "https://dc.lft.to/lastmile_qr_scan"}, "is_reserved": 0, "bike_id": "7998a96e4e16cb66808ef2db2dddf262", "name": "7998a96e4e16cb66808ef2db2dddf262", "fusion_lon": 0.0, "lon": -77.01964316666667, "fusion_lat": 0.0}, {"lat": 38.90574683333333, "type": "electric_scooter", "is_disabled": 0, "rental_uris": {"android": "https://dc.lft.to/lastmile_qr_scan", "ios": "https://dc.lft.to/lastmile_qr_scan"}, "is_reserved": 0, "bike_id": "271ec961f759dc45bf9c406e303d6d7a", "name": "271ec961f759dc45bf9c406e303d6d7a", "fusion_lon": 0.0, "lon": -77.00560616666667, "fusion_lat": 0.0}, {"lat": 38.89508883333333, "type": "electric_scooter", "is_disabled": 0, "rental_uris": {"android": "https://dc.lft.to/lastmile_qr_scan", "ios": "https://dc.lft.to/lastmile_qr_scan"}, "is_reserved": 0, "bike_id": "7b5c5fd599b7d85db76643aab887edee", "name": "7b5c5fd599b7d85db76643aab887edee", "fusion_lon": 0.0, "lon": -76.94886833333334, "fusion_lat": 0.0}, {"lat": 39.095882, "type": "electric_bike", "is_disabled": 0, "rental_uris": {"android": "https://dc.lft.to/lastmile_qr_scan", "ios": "https://dc.lft.to/lastmile_qr_scan"}, "is_reserved": 0, "bike_id": "a4bb07be00547d3e1f5850ef3e84ef70", "name": "a4bb07be00547d3e1f5850ef3e84ef70", "fusion_lon": 0.0, "lon": -77.1477685, "fusion_lat": 0.0}, {"lat": 38.89963683333333, "type": "electric_scooter", "is_disabled": 0, "rental_uris": {"android": "https://dc.lft.to/lastmile_qr_scan", "ios": "https://dc.lft.to/lastmile_qr_scan"}, "is_reserved": 0, "bike_id": "2a965ec255f310d3d5fe62ed45210fa3", "name": "2a965ec255f310d3d5fe62ed45210fa3", "fusion_lon": 0.0, "lon": -77.02577816666667, "fusion_lat": 0.0}, {"lat": 38.86027083333333, "type": "electric_scooter", "is_disabled": 0, "rental_uris": {"android": "https://dc.lft.to/lastmile_qr_scan", "ios": "https://dc.lft.to/lastmile_qr_scan"}, "is_reserved": 0, "bike_id": "4a68e5257157c610b8cf62f7ed54345b", "name": "4a68e5257157c610b8cf62f7ed54345b", "fusion_lon": 0.0, "lon": -76.99683533333334, "fusion_lat": 0.0}, {"lat": 38.99934233333333, "type": "electric_bike", "is_disabled": 0, "rental_uris": {"android": "https://dc.lft.to/lastmile_qr_scan", "ios": "https://dc.lft.to/lastmile_qr_scan"}, "is_reserved": 0, "bike_id": "3f5b0b0e286e095a9f959bb88a47d6ab", "name": "3f5b0b0e286e095a9f959bb88a47d6ab", "fusion_lon": 0.0, "lon": -77.00122766666667, "fusion_lat": 0.0}, {"lat": 38.93144866666667, "type": "electric_scooter", "is_disabled": 0, "rental_uris": {"android": "https://dc.lft.to/lastmile_qr_scan", "ios": "https://dc.lft.to/lastmile_qr_scan"}, "is_reserved": 0, "bike_id": "85ff2cb9b6bd54d897825e6e5b06aa41", "name": "85ff2cb9b6bd54d897825e6e5b06aa41", "fusion_lon": 0.0, "lon": -77.03609616666667, "fusion_lat": 0.0}, {"lat": 38.897278, "type": "electric_scooter", "is_disabled": 0, "rental_uris": {"android": "https://dc.lft.to/lastmile_qr_scan", "ios": "https://dc.lft.to/lastmile_qr_scan"}, "is_reserved": 0, "bike_id": "3a54990dffad521532ebfd8ef76d4276", "name": "3a54990dffad521532ebfd8ef76d4276", "fusion_lon": 0.0, "lon": -76.9470375, "fusion_lat": 0.0}, {"lat": 38.84192, "type": "electric_bike", "is_disabled": 0, "rental_uris": {"android": "https://dc.lft.to/lastmile_qr_scan", "ios": "https://dc.lft.to/lastmile_qr_scan"}, "is_reserved": 0, "bike_id": "1b76ae675e4057367e6edb7e572300fb", "name": "1b76ae675e4057367e6edb7e572300fb", "fusion_lon": 0.0, "lon": -77.07747916666666, "fusion_lat": 0.0}, {"lat": 38.85564466666666, "type": "electric_bike", "is_disabled": 0, "rental_uris": {"android": "https://dc.lft.to/lastmile_qr_scan", "ios": "https://dc.lft.to/lastmile_qr_scan"}, "is_reserved": 0, "bike_id": "d027fd97337850b45416da7dec5fdf54", "name": "d027fd97337850b45416da7dec5fdf54", "fusion_lon": 0.0, "lon": -77.10700766666666, "fusion_lat": 0.0}, {"lat": 38.9224855, "type": "electric_scooter", "is_disabled": 0, "rental_uris": {"android": "https://dc.lft.to/lastmile_qr_scan", "ios": "https://dc.lft.to/lastmile_qr_scan"}, "is_reserved": 0, "bike_id": "c7719e1fc73f87ee98f4430c498698c6", "name": "c7719e1fc73f87ee98f4430c498698c6", "fusion_lon": 0.0, "lon": -77.03082233333333, "fusion_lat": 0.0}, {"lat": 38.882502, "type": "electric_scooter", "is_disabled": 0, "rental_uris": {"android": "https://dc.lft.to/lastmile_qr_scan", "ios": "https://dc.lft.to/lastmile_qr_scan"}, "is_reserved": 0, "bike_id": "b69a421bb139d9fae5832a48fe8b39ae", "name": "b69a421bb139d9fae5832a48fe8b39ae", "fusion_lon": 0.0, "lon": -77.00343483333333, "fusion_lat": 0.0}, {"lat": 38.950588833333335, "type": "electric_bike", "is_disabled": 0, "rental_uris": {"android": "https://dc.lft.to/lastmile_qr_scan", "ios": "https://dc.lft.to/lastmile_qr_scan"}, "is_reserved": 0, "bike_id": "e2ed9bd931cd34d3d25f0dbe810cb0da", "name": "e2ed9bd931cd34d3d25f0dbe810cb0da", "fusion_lon": 0.0, "lon": -76.96737083333333, "fusion_lat": 0.0}, {"lat": 38.9119155, "type": "electric_scooter", "is_disabled": 0, "rental_uris": {"android": "https://dc.lft.to/lastmile_qr_scan", "ios": "https://dc.lft.to/lastmile_qr_scan"}, "is_reserved": 0, "bike_id": "eb4b5908faee7d445da5f9ea8a57fdc7", "name": "eb4b5908faee7d445da5f9ea8a57fdc7", "fusion_lon": 0.0, "lon": -77.0313395, "fusion_lat": 0.0}, {"lat": 38.904900833333336, "type": "electric_scooter", "is_disabled": 0, "rental_uris": {"android": "https://dc.lft.to/lastmile_qr_scan", "ios": "https://dc.lft.to/lastmile_qr_scan"}, "is_reserved": 0, "bike_id": "1cbdf0f2382f778879d3d17735ff7068", "name": "1cbdf0f2382f778879d3d17735ff7068", "fusion_lon": 0.0, "lon": -77.02940116666667, "fusion_lat": 0.0}, {"lat": 38.9360935, "type": "electric_scooter", "is_disabled": 0, "rental_uris": {"android": "https://dc.lft.to/lastmile_qr_scan", "ios": "https://dc.lft.to/lastmile_qr_scan"}, "is_reserved": 0, "bike_id": "7f225de496cc49eb07c9d9e451fbb43d", "name": "7f225de496cc49eb07c9d9e451fbb43d", "fusion_lon": 0.0, "lon": -77.05861866666666, "fusion_lat": 0.0}, {"lat": 39.01733266666667, "type": "electric_bike", "is_disabled": 0, "rental_uris": {"android": "https://dc.lft.to/lastmile_qr_scan", "ios": "https://dc.lft.to/lastmile_qr_scan"}, "is_reserved": 0, "bike_id": "c32b74df84c979792cb1ae318db54dba", "name": "c32b74df84c979792cb1ae318db54dba", "fusion_lon": 0.0, "lon": -77.06379983333333, "fusion_lat": 0.0}, {"lat": 38.86671483333333, "type": "electric_scooter", "is_disabled": 0, "rental_uris": {"android": "https://dc.lft.to/lastmile_qr_scan", "ios": "https://dc.lft.to/lastmile_qr_scan"}, "is_reserved": 0, "bike_id": "7b15849fc81ecafbbd93fa2e413c3e0a", "name": "7b15849fc81ecafbbd93fa2e413c3e0a", "fusion_lon": 0.0, "lon": -76.988857, "fusion_lat": 0.0}, {"lat": 38.963072333333336, "type": "electric_bike", "is_disabled": 0, "rental_uris": {"android": "https://dc.lft.to/lastmile_qr_scan", "ios": "https://dc.lft.to/lastmile_qr_scan"}, "is_reserved": 0, "bike_id": "bd05e0062a27ef0b7b3be90f723efb53", "name": "bd05e0062a27ef0b7b3be90f723efb53", "fusion_lon": 0.0, "lon": -77.05761383333333, "fusion_lat": 0.0}, {"lat": 38.901273333333336, "type": "electric_scooter", "is_disabled": 0, "rental_uris": {"android": "https://dc.lft.to/lastmile_qr_scan", "ios": "https://dc.lft.to/lastmile_qr_scan"}, "is_reserved": 0, "bike_id": "21032590468a9998a18110b98b301a35", "name": "21032590468a9998a18110b98b301a35", "fusion_lon": 0.0, "lon": -77.03047933333333, "fusion_lat": 0.0}, {"lat": 38.833476833333336, "type": "electric_bike", "is_disabled": 0, "rental_uris": {"android": "https://dc.lft.to/lastmile_qr_scan", "ios": "https://dc.lft.to/lastmile_qr_scan"}, "is_reserved": 0, "bike_id": "2d8f5f117da8efd8a301f4e7d69172e6", "name": "2d8f5f117da8efd8a301f4e7d69172e6", "fusion_lon": 0.0, "lon": -76.96561216666667, "fusion_lat": 0.0}, {"lat": 38.918575, "type": "electric_bike", "is_disabled": 0, "rental_uris": {"android": "https://dc.lft.to/lastmile_qr_scan", "ios": "https://dc.lft.to/lastmile_qr_scan"}, "is_reserved": 0, "bike_id": "c9b1c39a46163c1dce9d613b4a49affd", "name": "c9b1c39a46163c1dce9d613b4a49affd", "fusion_lon": 0.0, "lon": -76.960899, "fusion_lat": 0.0}, {"lat": 38.879269, "type": "electric_scooter", "is_disabled": 0, "rental_uris": {"android": "https://dc.lft.to/lastmile_qr_scan", "ios": "https://dc.lft.to/lastmile_qr_scan"}, "is_reserved": 0, "bike_id": "0395191db7824b4581510387f38caf95", "name": "0395191db7824b4581510387f38caf95", "fusion_lon": 0.0, "lon": -76.99936016666666, "fusion_lat": 0.0}, {"lat": 38.8919945, "type": "electric_scooter", "is_disabled": 0, "rental_uris": {"android": "https://dc.lft.to/lastmile_qr_scan", "ios": "https://dc.lft.to/lastmile_qr_scan"}, "is_reserved": 0, "bike_id": "fb41ec98d63099cf7fd7a78a518aeb93", "name": "fb41ec98d63099cf7fd7a78a518aeb93", "fusion_lon": 0.0, "lon": -77.00293833333333, "fusion_lat": 0.0}, {"lat": 38.90792183333333, "type": "electric_scooter", "is_disabled": 0, "rental_uris": {"android": "https://dc.lft.to/lastmile_qr_scan", "ios": "https://dc.lft.to/lastmile_qr_scan"}, "is_reserved": 0, "bike_id": "3f10e3c05661c4bfdff0a61746177cb2", "name": "3f10e3c05661c4bfdff0a61746177cb2", "fusion_lon": 0.0, "lon": -77.0343175, "fusion_lat": 0.0}, {"lat": 38.889879666666666, "type": "electric_scooter", "is_disabled": 0, "rental_uris": {"android": "https://dc.lft.to/lastmile_qr_scan", "ios": "https://dc.lft.to/lastmile_qr_scan"}, "is_reserved": 0, "bike_id": "7f23b3235659fbe30ffa2d68d9055cc8", "name": "7f23b3235659fbe30ffa2d68d9055cc8", "fusion_lon": 0.0, "lon": -77.00339633333333, "fusion_lat": 0.0}, {"lat": 38.936612833333335, "type": "electric_scooter", "is_disabled": 0, "rental_uris": {"android": "https://dc.lft.to/lastmile_qr_scan", "ios": "https://dc.lft.to/lastmile_qr_scan"}, "is_reserved": 0, "bike_id": "4c63dcb56be86372dfb12b512f851cf3", "name": "4c63dcb56be86372dfb12b512f851cf3", "fusion_lon": 0.0, "lon": -77.05924466666667, "fusion_lat": 0.0}, {"lat": 38.88579883333333, "type": "electric_scooter", "is_disabled": 0, "rental_uris": {"android": "https://dc.lft.to/lastmile_qr_scan", "ios": "https://dc.lft.to/lastmile_qr_scan"}, "is_reserved": 0, "bike_id": "6ead4ffeb70fa9570f48fb0630f022db", "name": "6ead4ffeb70fa9570f48fb0630f022db", "fusion_lon": 0.0, "lon": -77.01227116666666, "fusion_lat": 0.0}, {"lat": 38.86465466666667, "type": "electric_scooter", "is_disabled": 0, "rental_uris": {"android": "https://dc.lft.to/lastmile_qr_scan", "ios": "https://dc.lft.to/lastmile_qr_scan"}, "is_reserved": 0, "bike_id": "f74765839263a2c7ee2539e0b446c4f7", "name": "f74765839263a2c7ee2539e0b446c4f7", "fusion_lon": 0.0, "lon": -76.99610083333333, "fusion_lat": 0.0}, {"lat": 38.88295733333333, "type": "electric_scooter", "is_disabled": 0, "rental_uris": {"android": "https://dc.lft.to/lastmile_qr_scan", "ios": "https://dc.lft.to/lastmile_qr_scan"}, "is_reserved": 0, "bike_id": "f02dc3057d5f9e261b46bdbcd89b201e", "name": "f02dc3057d5f9e261b46bdbcd89b201e", "fusion_lon": 0.0, "lon": -77.0174445, "fusion_lat": 0.0}, {"lat": 38.91018433333333, "type": "electric_scooter", "is_disabled": 0, "rental_uris": {"android": "https://dc.lft.to/lastmile_qr_scan", "ios": "https://dc.lft.to/lastmile_qr_scan"}, "is_reserved": 0, "bike_id": "95f725563d67bcfc10c543e5579ed5ca", "name": "95f725563d67bcfc10c543e5579ed5ca", "fusion_lon": 0.0, "lon": -77.03195283333334, "fusion_lat": 0.0}, {"lat": 38.9090505, "type": "electric_scooter", "is_disabled": 0, "rental_uris": {"android": "https://dc.lft.to/lastmile_qr_scan", "ios": "https://dc.lft.to/lastmile_qr_scan"}, "is_reserved": 0, "bike_id": "ed648a7c308b57bcf04a52370fb5ef1c", "name": "ed648a7c308b57bcf04a52370fb5ef1c", "fusion_lon": 0.0, "lon": -77.04443433333333, "fusion_lat": 0.0}, {"lat": 38.89823633333334, "type": "electric_scooter", "is_disabled": 0, "rental_uris": {"android": "https://dc.lft.to/lastmile_qr_scan", "ios": "https://dc.lft.to/lastmile_qr_scan"}, "is_reserved": 0, "bike_id": "8cdfb4ccdc28830a9f8b72ad5b4a1102", "name": "8cdfb4ccdc28830a9f8b72ad5b4a1102", "fusion_lon": 0.0, "lon": -77.031709, "fusion_lat": 0.0}, {"lat": 38.896132, "type": "electric_scooter", "is_disabled": 0, "rental_uris": {"android": "https://dc.lft.to/lastmile_qr_scan", "ios": "https://dc.lft.to/lastmile_qr_scan"}, "is_reserved": 0, "bike_id": "3b54e10682c6b8f7a1a3b144814dfccf", "name": "3b54e10682c6b8f7a1a3b144814dfccf", "fusion_lon": 0.0, "lon": -77.02680316666667, "fusion_lat": 0.0}, {"lat": 38.8849495, "type": "electric_scooter", "is_disabled": 0, "rental_uris": {"android": "https://dc.lft.to/lastmile_qr_scan", "ios": "https://dc.lft.to/lastmile_qr_scan"}, "is_reserved": 0, "bike_id": "dfee48686896b728aeb07f1682c4139c", "name": "dfee48686896b728aeb07f1682c4139c", "fusion_lon": 0.0, "lon": -77.0208155, "fusion_lat": 0.0}, {"lat": 38.92821883333333, "type": "electric_scooter", "is_disabled": 0, "rental_uris": {"android": "https://dc.lft.to/lastmile_qr_scan", "ios": "https://dc.lft.to/lastmile_qr_scan"}, "is_reserved": 0, "bike_id": "d5cb7cfaaa0791d074aaa9064221da72", "name": "d5cb7cfaaa0791d074aaa9064221da72", "fusion_lon": 0.0, "lon": -77.01400583333333, "fusion_lat": 0.0}, {"lat": 38.92145033333333, "type": "electric_scooter", "is_disabled": 0, "rental_uris": {"android": "https://dc.lft.to/lastmile_qr_scan", "ios": "https://dc.lft.to/lastmile_qr_scan"}, "is_reserved": 0, "bike_id": "84aeb5eb198c1197069cf65d7edb3b30", "name": "84aeb5eb198c1197069cf65d7edb3b30", "fusion_lon": 0.0, "lon": -77.03871166666667, "fusion_lat": 0.0}, {"lat": 38.903052, "type": "electric_scooter", "is_disabled": 0, "rental_uris": {"android": "https://dc.lft.to/lastmile_qr_scan", "ios": "https://dc.lft.to/lastmile_qr_scan"}, "is_reserved": 0, "bike_id": "0fff610cff84c7a76d24497d405a6c2c", "name": "0fff610cff84c7a76d24497d405a6c2c", "fusion_lon": 0.0, "lon": -77.02365983333334, "fusion_lat": 0.0}, {"lat": 38.91498033333333, "type": "electric_scooter", "is_disabled": 0, "rental_uris": {"android": "https://dc.lft.to/lastmile_qr_scan", "ios": "https://dc.lft.to/lastmile_qr_scan"}, "is_reserved": 0, "bike_id": "64d3ff1eff8e685d726ab654c97e9b2a", "name": "64d3ff1eff8e685d726ab654c97e9b2a", "fusion_lon": 0.0, "lon": -77.03822116666667, "fusion_lat": 0.0}, {"lat": 38.88512883333333, "type": "electric_scooter", "is_disabled": 0, "rental_uris": {"android": "https://dc.lft.to/lastmile_qr_scan", "ios": "https://dc.lft.to/lastmile_qr_scan"}, "is_reserved": 0, "bike_id": "c253ccff5a89e2bae076cfa91212ec71", "name": "c253ccff5a89e2bae076cfa91212ec71", "fusion_lon": 0.0, "lon": -77.005655, "fusion_lat": 0.0}, {"lat": 38.926027500000004, "type": "electric_scooter", "is_disabled": 0, "rental_uris": {"android": "https://dc.lft.to/lastmile_qr_scan", "ios": "https://dc.lft.to/lastmile_qr_scan"}, "is_reserved": 0, "bike_id": "004ec1e98dabd5bd604f6c0705486b68", "name": "004ec1e98dabd5bd604f6c0705486b68", "fusion_lon": 0.0, "lon": -77.02157533333333, "fusion_lat": 0.0}, {"lat": 38.904603, "type": "electric_scooter", "is_disabled": 0, "rental_uris": {"android": "https://dc.lft.to/lastmile_qr_scan", "ios": "https://dc.lft.to/lastmile_qr_scan"}, "is_reserved": 0, "bike_id": "f7eff05f293d8d28e85f8437ccd1280c", "name": "f7eff05f293d8d28e85f8437ccd1280c", "fusion_lon": 0.0, "lon": -77.02815283333334, "fusion_lat": 0.0}, {"lat": 38.92144733333333, "type": "electric_scooter", "is_disabled": 0, "rental_uris": {"android": "https://dc.lft.to/lastmile_qr_scan", "ios": "https://dc.lft.to/lastmile_qr_scan"}, "is_reserved": 0, "bike_id": "ba1b9c9cb29319677c3517ff81df6b50", "name": "ba1b9c9cb29319677c3517ff81df6b50", "fusion_lon": 0.0, "lon": -77.03480783333333, "fusion_lat": 0.0}, {"lat": 38.990892, "type": "electric_bike", "is_disabled": 0, "rental_uris": {"android": "https://dc.lft.to/lastmile_qr_scan", "ios": "https://dc.lft.to/lastmile_qr_scan"}, "is_reserved": 0, "bike_id": "f1c3efb813d347d9c1fcd71345767dfd", "name": "f1c3efb813d347d9c1fcd71345767dfd", "fusion_lon": 0.0, "lon": -76.87496416666667, "fusion_lat": 0.0}, {"lat": 38.917057, "type": "electric_scooter", "is_disabled": 0, "rental_uris": {"android": "https://dc.lft.to/lastmile_qr_scan", "ios": "https://dc.lft.to/lastmile_qr_scan"}, "is_reserved": 0, "bike_id": "80e8b4668c6c6588ff4d2fab40d5baa5", "name": "80e8b4668c6c6588ff4d2fab40d5baa5", "fusion_lon": 0.0, "lon": -77.025796, "fusion_lat": 0.0}, {"lat": 38.990585, "type": "electric_bike", "is_disabled": 0, "rental_uris": {"android": "https://dc.lft.to/lastmile_qr_scan", "ios": "https://dc.lft.to/lastmile_qr_scan"}, "is_reserved": 0, "bike_id": "29f134facd0ca1d3164391cd04f22de4", "name": "29f134facd0ca1d3164391cd04f22de4", "fusion_lon": 0.0, "lon": -77.100289, "fusion_lat": 0.0}, {"lat": 38.962124, "type": "electric_scooter", "is_disabled": 0, "rental_uris": {"android": "https://dc.lft.to/lastmile_qr_scan", "ios": "https://dc.lft.to/lastmile_qr_scan"}, "is_reserved": 0, "bike_id": "3d218abd6223579d2d0343658acccffe", "name": "3d218abd6223579d2d0343658acccffe", "fusion_lon": 0.0, "lon": -77.02804983333333, "fusion_lat": 0.0}, {"lat": 38.929773833333336, "type": "electric_scooter", "is_disabled": 0, "rental_uris": {"android": "https://dc.lft.to/lastmile_qr_scan", "ios": "https://dc.lft.to/lastmile_qr_scan"}, "is_reserved": 0, "bike_id": "bd8e830da2cff3c6198c7054efbc9062", "name": "bd8e830da2cff3c6198c7054efbc9062", "fusion_lon": 0.0, "lon": -77.055045, "fusion_lat": 0.0}, {"lat": 38.95802883333333, "type": "electric_bike", "is_disabled": 0, "rental_uris": {"android": "https://dc.lft.to/lastmile_qr_scan", "ios": "https://dc.lft.to/lastmile_qr_scan"}, "is_reserved": 0, "bike_id": "3fd00db5fe3f1f3c100455d08a0fd15e", "name": "3fd00db5fe3f1f3c100455d08a0fd15e", "fusion_lon": 0.0, "lon": -76.98659466666666, "fusion_lat": 0.0}, {"lat": 38.902546, "type": "electric_scooter", "is_disabled": 0, "rental_uris": {"android": "https://dc.lft.to/lastmile_qr_scan", "ios": "https://dc.lft.to/lastmile_qr_scan"}, "is_reserved": 0, "bike_id": "206701512b60770bc5b594040c6f04f8", "name": "206701512b60770bc5b594040c6f04f8", "fusion_lon": 0.0, "lon": -77.06264766666666, "fusion_lat": 0.0}, {"lat": 38.87700783333333, "type": "electric_scooter", "is_disabled": 0, "rental_uris": {"android": "https://dc.lft.to/lastmile_qr_scan", "ios": "https://dc.lft.to/lastmile_qr_scan"}, "is_reserved": 0, "bike_id": "51dabf1fbe31df8d5aa9a1c440201017", "name": "51dabf1fbe31df8d5aa9a1c440201017", "fusion_lon": 0.0, "lon": -77.01737266666666, "fusion_lat": 0.0}, {"lat": 38.9025075, "type": "electric_scooter", "is_disabled": 0, "rental_uris": {"android": "https://dc.lft.to/lastmile_qr_scan", "ios": "https://dc.lft.to/lastmile_qr_scan"}, "is_reserved": 0, "bike_id": "3d6cac90d7e9b8efc4e1a76ead700769", "name": "3d6cac90d7e9b8efc4e1a76ead700769", "fusion_lon": 0.0, "lon": -76.94626316666667, "fusion_lat": 0.0}, {"lat": 38.918393, "type": "electric_scooter", "is_disabled": 0, "rental_uris": {"android": "https://dc.lft.to/lastmile_qr_scan", "ios": "https://dc.lft.to/lastmile_qr_scan"},