{"data": {"bikes": [{"fusion_lat": 0.0, "name": "1143513a2ff4093e4780dbb24abdbe26", "is_disabled": 0, "rental_uris": {"android": "https://dc.lft.to/lastmile_qr_scan", "ios": "https://dc.lft.to/lastmile_qr_scan"}, "fusion_lon": 0.0, "lat": 38.908381, "bike_id": "1143513a2ff4093e4780dbb24abdbe26", "type": "electric_scooter", "is_reserved": 0, "lon": -77.02695316666667}, {"fusion_lat": 0.0, "name": "4f14738721527befd1ecba61c3055f37", "is_disabled": 0, "rental_uris": {"android": "https://dc.lft.to/lastmile_qr_scan", "ios": "https://dc.lft.to/lastmile_qr_scan"}, "fusion_lon": 0.0, "lat": 38.877408333333335, "bike_id": "4f14738721527befd1ecba61c3055f37", "type": "electric_scooter", "is_reserved": 0, "lon": -76.970274}, {"fusion_lat": 0.0, "name": "6cbe4e03e20cafe7fdb9878b776067ca", "is_disabled": 0, "rental_uris": {"android": "https://dc.lft.to/lastmile_qr_scan", "ios": "https://dc.lft.to/lastmile_qr_scan"}, "fusion_lon": 0.0, "lat": 38.93083466666667, "bike_id": "6cbe4e03e20cafe7fdb9878b776067ca", "type": "electric_scooter", "is_reserved": 0, "lon": -77.0364735}, {"fusion_lat": 0.0, "name": "6068d0b72fabc998a5256b1ab9647a00", "is_disabled": 0, "rental_uris": {"android": "https://dc.lft.to/lastmile_qr_scan", "ios": "https://dc.lft.to/lastmile_qr_scan"}, "fusion_lon": 0.0, "lat": 38.984724166666666, "bike_id": "6068d0b72fabc998a5256b1ab9647a00", "type": "electric_scooter", "is_reserved": 0, "lon": -77.02636666666666}, {"fusion_lat": 0.0, "name": "148804e6b16ca5837d01db461d1ea7bc", "is_disabled": 0, "rental_uris": {"android": "https://dc.lft.to/lastmile_qr_scan", "ios": "https://dc.lft.to/lastmile_qr_scan"}, "fusion_lon": 0.0, "lat": 38.92138766666667, "bike_id": "148804e6b16ca5837d01db461d1ea7bc", "type": "electric_scooter", "is_reserved": 0, "lon": -77.00401233333334}, {"fusion_lat": 0.0, "name": "6717f322743176ffdbd3d3057c4efb67", "is_disabled": 0, "rental_uris": {"android": "https://dc.lft.to/lastmile_qr_scan", "ios": "https://dc.lft.to/lastmile_qr_scan"}, "fusion_lon": 0.0, "lat": 38.992285, "bike_id": "6717f322743176ffdbd3d3057c4efb67", "type": "electric_bike", "is_reserved": 0, "lon": -76.94436466666667}, {"fusion_lat": 0.0, "name": "2858f1e0240a43e93e3cfb5f96c2fdb2", "is_disabled": 0, "rental_uris": {"android": "https://dc.lft.to/lastmile_qr_scan", "ios": "https://dc.lft.to/lastmile_qr_scan"}, "fusion_lon": 0.0, "lat": 38.90955116666667, "bike_id": "2858f1e0240a43e93e3cfb5f96c2fdb2", "type": "electric_scooter", "is_reserved": 0, "lon": -77.0460625}, {"fusion_lat": 0.0, "name": "fdcefd30d829946b8609dcded3646917", "is_disabled": 0, "rental_uris": {"android": "https://dc.lft.to/lastmile_qr_scan", "ios": "https://dc.lft.to/lastmile_qr_scan"}, "fusion_lon": 0.0, "lat": 38.91974666666667, "bike_id": "fdcefd30d829946b8609dcded3646917", "type": "electric_scooter", "is_reserved": 0, "lon": -77.04078416666667}, {"fusion_lat": 0.0, "name": "522758f298a283b2a4c96e454cd485b3", "is_disabled": 0, "rental_uris": {"android": "https://dc.lft.to/lastmile_qr_scan", "ios": "https://dc.lft.to/lastmile_qr_scan"}, "fusion_lon": 0.0, "lat": 38.90541783333333, "bike_id": "522758f298a283b2a4c96e454cd485b3", "type": "electric_scooter", "is_reserved": 0, "lon": -77.03659433333333}, {"fusion_lat": 0.0, "name": "8062f279895441506112fb92439d8c60", "is_disabled": 0, "rental_uris": {"android": "https://dc.lft.to/lastmile_qr_scan", "ios": "https://dc.lft.to/lastmile_qr_scan"}, "fusion_lon": 0.0, "lat": 38.9144085, "bike_id": "8062f279895441506112fb92439d8c60", "type": "electric_scooter", "is_reserved": 0, "lon": -77.02200083333334}, {"fusion_lat": 0.0, "name": "fc8a30d5dd65f983a270ae9563539757", "is_disabled": 0, "rental_uris": {"android": "https://dc.lft.to/lastmile_qr_scan", "ios": "https://dc.lft.to/lastmile_qr_scan"}, "fusion_lon": 0.0, "lat": 38.87665916666667, "bike_id": "fc8a30d5dd65f983a270ae9563539757", "type": "electric_scooter", "is_reserved": 0, "lon": -77.00064816666666}, {"fusion_lat": 0.0, "name": "93aaa3cb935e6305fe6fdece8fd0593b", "is_disabled": 0, "rental_uris": {"android": "https://dc.lft.to/lastmile_qr_scan", "ios": "https://dc.lft.to/lastmile_qr_scan"}, "fusion_lon": 0.0, "lat": 38.90462566666667, "bike_id": "93aaa3cb935e6305fe6fdece8fd0593b", "type": "electric_scooter", "is_reserved": 0, "lon": -77.05323416666667}, {"fusion_lat": 0.0, "name": "b31a2ca1069c8d23cb15fbf47f8293f3", "is_disabled": 0, "rental_uris": {"android": "https://dc.lft.to/lastmile_qr_scan", "ios": "https://dc.lft.to/lastmile_qr_scan"}, "fusion_lon": 0.0, "lat": 38.91649833333334, "bike_id": "b31a2ca1069c8d23cb15fbf47f8293f3", "type": "electric_bike", "is_reserved": 0, "lon": -76.982242}, {"fusion_lat": 0.0, "name": "d2e8947896583fd49937e90302efbdf3", "is_disabled": 0, "rental_uris": {"android": "https://dc.lft.to/lastmile_qr_scan", "ios": "https://dc.lft.to/lastmile_qr_scan"}, "fusion_lon": 0.0, "lat": 38.95292416666667, "bike_id": "d2e8947896583fd49937e90302efbdf3", "type": "electric_scooter", "is_reserved": 0, "lon": -77.06876766666667}, {"fusion_lat": 0.0, "name": "890f0915786abc9207c7b7bd0c246e2e", "is_disabled": 0, "rental_uris": {"android": "https://dc.lft.to/lastmile_qr_scan", "ios": "https://dc.lft.to/lastmile_qr_scan"}, "fusion_lon": 0.0, "lat": 38.91591616666667, "bike_id": "890f0915786abc9207c7b7bd0c246e2e", "type": "electric_scooter", "is_reserved": 0, "lon": -77.04325083333333}, {"fusion_lat": 0.0, "name": "a4188ee76cf35dec2d1e5018d7360f2f", "is_disabled": 0, "rental_uris": {"android": "https://dc.lft.to/lastmile_qr_scan", "ios": "https://dc.lft.to/lastmile_qr_scan"}, "fusion_lon": 0.0, "lat": 38.94387916666667, "bike_id": "a4188ee76cf35dec2d1e5018d7360f2f", "type": "electric_scooter", "is_reserved": 0, "lon": -77.03212366666666}, {"fusion_lat": 0.0, "name": "092a1a3bebe7c24ecbec7d1354edee86", "is_disabled": 0, "rental_uris": {"android": "https://dc.lft.to/lastmile_qr_scan", "ios": "https://dc.lft.to/lastmile_qr_scan"}, "fusion_lon": 0.0, "lat": 38.95085, "bike_id": "092a1a3bebe7c24ecbec7d1354edee86", "type": "electric_scooter", "is_reserved": 0, "lon": -77.027151}, {"fusion_lat": 0.0, "name": "fc75d0ac1f3835486d2472f12ddaa961", "is_disabled": 0, "rental_uris": {"android": "https://dc.lft.to/lastmile_qr_scan", "ios": "https://dc.lft.to/lastmile_qr_scan"}, "fusion_lon": 0.0, "lat": 38.91694583333334, "bike_id": "fc75d0ac1f3835486d2472f12ddaa961", "type": "electric_scooter", "is_reserved": 0, "lon": -77.025946}, {"fusion_lat": 0.0, "name": "6da00d8fa6595345380d1d0f10b95303", "is_disabled": 0, "rental_uris": {"android": "https://dc.lft.to/lastmile_qr_scan", "ios": "https://dc.lft.to/lastmile_qr_scan"}, "fusion_lon": 0.0, "lat": 38.94514183333333, "bike_id": "6da00d8fa6595345380d1d0f10b95303", "type": "electric_bike", "is_reserved": 0, "lon": -77.00676383333334}, {"fusion_lat": 0.0, "name": "be78f1ac2e660345e5c1e87101dd82a2", "is_disabled": 0, "rental_uris": {"android": "https://dc.lft.to/lastmile_qr_scan", "ios": "https://dc.lft.to/lastmile_qr_scan"}, "fusion_lon": 0.0, "lat": 38.953444166666664, "bike_id": "be78f1ac2e660345e5c1e87101dd82a2", "type": "electric_scooter", "is_reserved": 0, "lon": -77.079454}, {"fusion_lat": 0.0, "name": "0ffdff77b46c6146f4431f20ad1def8a", "is_disabled": 0, "rental_uris": {"android": "https://dc.lft.to/lastmile_qr_scan", "ios": "https://dc.lft.to/lastmile_qr_scan"}, "fusion_lon": 0.0, "lat": 38.885038333333334, "bike_id": "0ffdff77b46c6146f4431f20ad1def8a", "type": "electric_scooter", "is_reserved": 0, "lon": -77.014771}, {"fusion_lat": 0.0, "name": "2fefe2136a694746ce2629e8b51cb15f", "is_disabled": 0, "rental_uris": {"android": "https://dc.lft.to/lastmile_qr_scan", "ios": "https://dc.lft.to/lastmile_qr_scan"}, "fusion_lon": 0.0, "lat": 38.94979683333333, "bike_id": "2fefe2136a694746ce2629e8b51cb15f", "type": "electric_scooter", "is_reserved": 0, "lon": -77.02695083333333}, {"fusion_lat": 0.0, "name": "09b8f185880b43ede35da038404c31b1", "is_disabled": 0, "rental_uris": {"android": "https://dc.lft.to/lastmile_qr_scan", "ios": "https://dc.lft.to/lastmile_qr_scan"}, "fusion_lon": 0.0, "lat": 38.9101105, "bike_id": "09b8f185880b43ede35da038404c31b1", "type": "electric_scooter", "is_reserved": 0, "lon": -77.01616483333333}, {"fusion_lat": 0.0, "name": "24d1ada4344af534d82011da6067e07a", "is_disabled": 0, "rental_uris": {"android": "https://dc.lft.to/lastmile_qr_scan", "ios": "https://dc.lft.to/lastmile_qr_scan"}, "fusion_lon": 0.0, "lat": 38.9051, "bike_id": "24d1ada4344af534d82011da6067e07a", "type": "electric_scooter", "is_reserved": 0, "lon": -77.051257}, {"fusion_lat": 0.0, "name": "f7faed8fed0203e701e7c8e93f4c6940", "is_disabled": 0, "rental_uris": {"android": "https://dc.lft.to/lastmile_qr_scan", "ios": "https://dc.lft.to/lastmile_qr_scan"}, "fusion_lon": 0.0, "lat": 38.875687, "bike_id": "f7faed8fed0203e701e7c8e93f4c6940", "type": "electric_scooter", "is_reserved": 0, "lon": -77.00727133333334}, {"fusion_lat": 0.0, "name": "e263a8cba33d590a1e4656d92e2192b6", "is_disabled": 0, "rental_uris": {"android": "https://dc.lft.to/lastmile_qr_scan", "ios": "https://dc.lft.to/lastmile_qr_scan"}, "fusion_lon": 0.0, "lat": 38.90734583333333, "bike_id": "e263a8cba33d590a1e4656d92e2192b6", "type": "electric_scooter", "is_reserved": 0, "lon": -77.03210166666666}, {"fusion_lat": 0.0, "name": "bd9fecdb56f20afb4d738ce296efb97a", "is_disabled": 0, "rental_uris": {"android": "https://dc.lft.to/lastmile_qr_scan", "ios": "https://dc.lft.to/lastmile_qr_scan"}, "fusion_lon": 0.0, "lat": 38.9220275, "bike_id": "bd9fecdb56f20afb4d738ce296efb97a", "type": "electric_scooter", "is_reserved": 0, "lon": -77.08092183333333}, {"fusion_lat": 0.0, "name": "a1397c1afde6f71f88755e83bd5c70f7", "is_disabled": 0, "rental_uris": {"android": "https://dc.lft.to/lastmile_qr_scan", "ios": "https://dc.lft.to/lastmile_qr_scan"}, "fusion_lon": 0.0, "lat": 38.9155595, "bike_id": "a1397c1afde6f71f88755e83bd5c70f7", "type": "electric_scooter", "is_reserved": 0, "lon": -77.0312425}, {"fusion_lat": 0.0, "name": "222229175c23656d66e97589eeba82f5", "is_disabled": 0, "rental_uris": {"android": "https://dc.lft.to/lastmile_qr_scan", "ios": "https://dc.lft.to/lastmile_qr_scan"}, "fusion_lon": 0.0, "lat": 38.914422333333334, "bike_id": "222229175c23656d66e97589eeba82f5", "type": "electric_scooter", "is_reserved": 0, "lon": -77.04475083333334}, {"fusion_lat": 0.0, "name": "f88bf41e280966ee7756138eedc04543", "is_disabled": 0, "rental_uris": {"android": "https://dc.lft.to/lastmile_qr_scan", "ios": "https://dc.lft.to/lastmile_qr_scan"}, "fusion_lon": 0.0, "lat": 38.8929305, "bike_id": "f88bf41e280966ee7756138eedc04543", "type": "electric_scooter", "is_reserved": 0, "lon": -77.0487365}, {"fusion_lat": 0.0, "name": "a3be2884df3e3204d8d0884308bf7490", "is_disabled": 0, "rental_uris": {"android": "https://dc.lft.to/lastmile_qr_scan", "ios": "https://dc.lft.to/lastmile_qr_scan"}, "fusion_lon": 0.0, "lat": 38.95799183333333, "bike_id": "a3be2884df3e3204d8d0884308bf7490", "type": "electric_bike", "is_reserved": 0, "lon": -76.96044816666667}, {"fusion_lat": 0.0, "name": "3ee745b5e02540006f597430a3529a3d", "is_disabled": 0, "rental_uris": {"android": "https://dc.lft.to/lastmile_qr_scan", "ios": "https://dc.lft.to/lastmile_qr_scan"}, "fusion_lon": 0.0, "lat": 38.9049965, "bike_id": "3ee745b5e02540006f597430a3529a3d", "type": "electric_scooter", "is_reserved": 0, "lon": -77.0465325}, {"fusion_lat": 0.0, "name": "15c895cbd6d4fced9c919451e4ecec78", "is_disabled": 0, "rental_uris": {"android": "https://dc.lft.to/lastmile_qr_scan", "ios": "https://dc.lft.to/lastmile_qr_scan"}, "fusion_lon": 0.0, "lat": 38.8899025, "bike_id": "15c895cbd6d4fced9c919451e4ecec78", "type": "electric_scooter", "is_reserved": 0, "lon": -76.91415883333333}, {"fusion_lat": 0.0, "name": "c6032c6ce8ba2e28f7e6216ec1234cba", "is_disabled": 0, "rental_uris": {"android": "https://dc.lft.to/lastmile_qr_scan", "ios": "https://dc.lft.to/lastmile_qr_scan"}, "fusion_lon": 0.0, "lat": 38.9204155, "bike_id": "c6032c6ce8ba2e28f7e6216ec1234cba", "type": "electric_scooter", "is_reserved": 0, "lon": -77.01791816666666}, {"fusion_lat": 0.0, "name": "03e5d369626612589738fcab4867d6e0", "is_disabled": 0, "rental_uris": {"android": "https://dc.lft.to/lastmile_qr_scan", "ios": "https://dc.lft.to/lastmile_qr_scan"}, "fusion_lon": 0.0, "lat": 38.950834666666665, "bike_id": "03e5d369626612589738fcab4867d6e0", "type": "electric_bike", "is_reserved": 0, "lon": -77.01196266666666}, {"fusion_lat": 0.0, "name": "5fb0529558494be5a9de544c077ad4b7", "is_disabled": 0, "rental_uris": {"android": "https://dc.lft.to/lastmile_qr_scan", "ios": "https://dc.lft.to/lastmile_qr_scan"}, "fusion_lon": 0.0, "lat": 38.90847266666667, "bike_id": "5fb0529558494be5a9de544c077ad4b7", "type": "electric_scooter", "is_reserved": 0, "lon": -77.0466445}, {"fusion_lat": 0.0, "name": "9d02134360d9040bd234881a6653f99a", "is_disabled": 0, "rental_uris": {"android": "https://dc.lft.to/lastmile_qr_scan", "ios": "https://dc.lft.to/lastmile_qr_scan"}, "fusion_lon": 0.0, "lat": 38.91561266666667, "bike_id": "9d02134360d9040bd234881a6653f99a", "type": "electric_scooter", "is_reserved": 0, "lon": -77.0386165}, {"fusion_lat": 0.0, "name": "067d42538e8fa23ad63ba601b6900bd5", "is_disabled": 0, "rental_uris": {"android": "https://dc.lft.to/lastmile_qr_scan", "ios": "https://dc.lft.to/lastmile_qr_scan"}, "fusion_lon": 0.0, "lat": 38.91562583333334, "bike_id": "067d42538e8fa23ad63ba601b6900bd5", "type": "electric_scooter", "is_reserved": 0, "lon": -77.02232766666667}, {"fusion_lat": 0.0, "name": "0bec8c9100226270fad24c3707b59036", "is_disabled": 0, "rental_uris": {"android": "https://dc.lft.to/lastmile_qr_scan", "ios": "https://dc.lft.to/lastmile_qr_scan"}, "fusion_lon": 0.0, "lat": 38.9070375, "bike_id": "0bec8c9100226270fad24c3707b59036", "type": "electric_scooter", "is_reserved": 0, "lon": -77.04172616666666}, {"fusion_lat": 0.0, "name": "a4eb6cf6cbb2a24a4207bf402409f33c", "is_disabled": 0, "rental_uris": {"android": "https://dc.lft.to/lastmile_qr_scan", "ios": "https://dc.lft.to/lastmile_qr_scan"}, "fusion_lon": 0.0, "lat": 38.9071635, "bike_id": "a4eb6cf6cbb2a24a4207bf402409f33c", "type": "electric_scooter", "is_reserved": 0, "lon": -77.03448616666667}, {"fusion_lat": 0.0, "name": "407ded3e3579f99ebdd2c1d1ac13865b", "is_disabled": 0, "rental_uris": {"android": "https://dc.lft.to/lastmile_qr_scan", "ios": "https://dc.lft.to/lastmile_qr_scan"}, "fusion_lon": 0.0, "lat": 38.87828666666667, "bike_id": "407ded3e3579f99ebdd2c1d1ac13865b", "type": "electric_scooter", "is_reserved": 0, "lon": -76.96316683333333}, {"fusion_lat": 0.0, "name": "4fedc8d1d0348fd186a600cc3409f854", "is_disabled": 0, "rental_uris": {"android": "https://dc.lft.to/lastmile_qr_scan", "ios": "https://dc.lft.to/lastmile_qr_scan"}, "fusion_lon": 0.0, "lat": 38.9255445, "bike_id": "4fedc8d1d0348fd186a600cc3409f854", "type": "electric_scooter", "is_reserved": 0, "lon": -77.07763566666667}, {"fusion_lat": 0.0, "name": "3d883fc42e8833c8c41be1f0089c7652", "is_disabled": 0, "rental_uris": {"android": "https://dc.lft.to/lastmile_qr_scan", "ios": "https://dc.lft.to/lastmile_qr_scan"}, "fusion_lon": 0.0, "lat": 38.92057116666667, "bike_id": "3d883fc42e8833c8c41be1f0089c7652", "type": "electric_scooter", "is_reserved": 0, "lon": -77.03395816666666}, {"fusion_lat": 0.0, "name": "b4a49ba85bc4e3412815d2c28e1890e9", "is_disabled": 0, "rental_uris": {"android": "https://dc.lft.to/lastmile_qr_scan", "ios": "https://dc.lft.to/lastmile_qr_scan"}, "fusion_lon": 0.0, "lat": 38.95631366666667, "bike_id": "b4a49ba85bc4e3412815d2c28e1890e9", "type": "electric_scooter", "is_reserved": 0, "lon": -77.02424666666667}, {"fusion_lat": 0.0, "name": "d7a830c67d516e77ed4876ef8f16e32b", "is_disabled": 0, "rental_uris": {"android": "https://dc.lft.to/lastmile_qr_scan", "ios": "https://dc.lft.to/lastmile_qr_scan"}, "fusion_lon": 0.0, "lat": 38.90576016666667, "bike_id": "d7a830c67d516e77ed4876ef8f16e32b", "type": "electric_scooter", "is_reserved": 0, "lon": -77.03465733333333}, {"fusion_lat": 0.0, "name": "695222a2a115c2ae524d5a1b5b5d6334", "is_disabled": 0, "rental_uris": {"android": "https://dc.lft.to/lastmile_qr_scan", "ios": "https://dc.lft.to/lastmile_qr_scan"}, "fusion_lon": 0.0, "lat": 38.912539833333334, "bike_id": "695222a2a115c2ae524d5a1b5b5d6334", "type": "electric_scooter", "is_reserved": 0, "lon": -77.01027533333334}, {"fusion_lat": 0.0, "name": "45c4d3a93e07dd07dd9b8a2f5a0175c9", "is_disabled": 0, "rental_uris": {"android": "https://dc.lft.to/lastmile_qr_scan", "ios": "https://dc.lft.to/lastmile_qr_scan"}, "fusion_lon": 0.0, "lat": 38.917715666666666, "bike_id": "45c4d3a93e07dd07dd9b8a2f5a0175c9", "type": "electric_scooter", "is_reserved": 0, "lon": -77.03570216666667}, {"fusion_lat": 0.0, "name": "d6cb484d2ae3476aa5e4fe8e0a1162ee", "is_disabled": 0, "rental_uris": {"android": "https://dc.lft.to/lastmile_qr_scan", "ios": "https://dc.lft.to/lastmile_qr_scan"}, "fusion_lon": 0.0, "lat": 38.87377166666667, "bike_id": "d6cb484d2ae3476aa5e4fe8e0a1162ee", "type": "electric_scooter", "is_reserved": 0, "lon": -77.00038316666667}, {"fusion_lat": 0.0, "name": "d2776d25d63702999927234ebce906bb", "is_disabled": 0, "rental_uris": {"android": "https://dc.lft.to/lastmile_qr_scan", "ios": "https://dc.lft.to/lastmile_qr_scan"}, "fusion_lon": 0.0, "lat": 38.9130175, "bike_id": "d2776d25d63702999927234ebce906bb", "type": "electric_scooter", "is_reserved": 0, "lon": -77.048692}, {"fusion_lat": 0.0, "name": "e347830cecb96e0ebb758c5bc51bc6f1", "is_disabled": 0, "rental_uris": {"android": "https://dc.lft.to/lastmile_qr_scan", "ios": "https://dc.lft.to/lastmile_qr_scan"}, "fusion_lon": 0.0, "lat": 38.819461833333335, "bike_id": "e347830cecb96e0ebb758c5bc51bc6f1", "type": "electric_bike", "is_reserved": 0, "lon": -77.1271635}, {"fusion_lat": 0.0, "name": "f2e3ae6c7c9d71502a2b29c0a37a34c6", "is_disabled": 0, "rental_uris": {"android": "https://dc.lft.to/lastmile_qr_scan", "ios": "https://dc.lft.to/lastmile_qr_scan"}, "fusion_lon": 0.0, "lat": 38.9034205, "bike_id": "f2e3ae6c7c9d71502a2b29c0a37a34c6", "type": "electric_scooter", "is_reserved": 0, "lon": -77.0447795}, {"fusion_lat": 0.0, "name": "5c9e664a84d6c89a79034db85bc454de", "is_disabled": 0, "rental_uris": {"android": "https://dc.lft.to/lastmile_qr_scan", "ios": "https://dc.lft.to/lastmile_qr_scan"}, "fusion_lon": 0.0, "lat": 38.92095166666667, "bike_id": "5c9e664a84d6c89a79034db85bc454de", "type": "electric_scooter", "is_reserved": 0, "lon": -77.0468975}, {"fusion_lat": 0.0, "name": "35a282a436591c7812df59a856db2f5e", "is_disabled": 0, "rental_uris": {"android": "https://dc.lft.to/lastmile_qr_scan", "ios": "https://dc.lft.to/lastmile_qr_scan"}, "fusion_lon": 0.0, "lat": 38.9111285, "bike_id": "35a282a436591c7812df59a856db2f5e", "type": "electric_scooter", "is_reserved": 0, "lon": -77.0099915}, {"fusion_lat": 0.0, "name": "b460e4acffcb9b5dc1649d7c6e79f851", "is_disabled": 0, "rental_uris": {"android": "https://dc.lft.to/lastmile_qr_scan", "ios": "https://dc.lft.to/lastmile_qr_scan"}, "fusion_lon": 0.0, "lat": 38.94332133333333, "bike_id": "b460e4acffcb9b5dc1649d7c6e79f851", "type": "electric_scooter", "is_reserved": 0, "lon": -77.015534}, {"fusion_lat": 0.0, "name": "01d0959462760cca0b483c4e09c959eb", "is_disabled": 0, "rental_uris": {"android": "https://dc.lft.to/lastmile_qr_scan", "ios": "https://dc.lft.to/lastmile_qr_scan"}, "fusion_lon": 0.0, "lat": 38.89970916666667, "bike_id": "01d0959462760cca0b483c4e09c959eb", "type": "electric_scooter", "is_reserved": 0, "lon": -77.05264016666666}, {"fusion_lat": 0.0, "name": "df19921564cb7f8d92c1ced7741d3dfe", "is_disabled": 0, "rental_uris": {"android": "https://dc.lft.to/lastmile_qr_scan", "ios": "https://dc.lft.to/lastmile_qr_scan"}, "fusion_lon": 0.0, "lat": 38.8960695, "bike_id": "df19921564cb7f8d92c1ced7741d3dfe", "type": "electric_scooter", "is_reserved": 0, "lon": -76.98106033333333}, {"fusion_lat": 0.0, "name": "2ab5d26be6906ab7e91be2de5d231938", "is_disabled": 0, "rental_uris": {"android": "https://dc.lft.to/lastmile_qr_scan", "ios": "https://dc.lft.to/lastmile_qr_scan"}, "fusion_lon": 0.0, "lat": 38.92014266666666, "bike_id": "2ab5d26be6906ab7e91be2de5d231938", "type": "electric_bike", "is_reserved": 0, "lon": -76.99068116666666}, {"fusion_lat": 0.0, "name": "144fcc62ff18d6507977dcdca441c67d", "is_disabled": 0, "rental_uris": {"android": "https://dc.lft.to/lastmile_qr_scan", "ios": "https://dc.lft.to/lastmile_qr_scan"}, "fusion_lon": 0.0, "lat": 38.92476516666667, "bike_id": "144fcc62ff18d6507977dcdca441c67d", "type": "electric_scooter", "is_reserved": 0, "lon": -77.02666083333334}, {"fusion_lat": 0.0, "name": "b02e52b2a0b7f3357ec5286f84f2785a", "is_disabled": 0, "rental_uris": {"android": "https://dc.lft.to/lastmile_qr_scan", "ios": "https://dc.lft.to/lastmile_qr_scan"}, "fusion_lon": 0.0, "lat": 38.890143333333334, "bike_id": "b02e52b2a0b7f3357ec5286f84f2785a", "type": "electric_scooter", "is_reserved": 0, "lon": -76.937378}, {"fusion_lat": 0.0, "name": "ee2b51f254006073f7075098441e38ee", "is_disabled": 0, "rental_uris": {"android": "https://dc.lft.to/lastmile_qr_scan", "ios": "https://dc.lft.to/lastmile_qr_scan"}, "fusion_lon": 0.0, "lat": 38.90196916666667, "bike_id": "ee2b51f254006073f7075098441e38ee", "type": "electric_scooter", "is_reserved": 0, "lon": -77.05055516666667}, {"fusion_lat": 0.0, "name": "21dc579abbf0d14e249ccbb82bd37041", "is_disabled": 0, "rental_uris": {"android": "https://dc.lft.to/lastmile_qr_scan", "ios": "https://dc.lft.to/lastmile_qr_scan"}, "fusion_lon": 0.0, "lat": 38.934379, "bike_id": "21dc579abbf0d14e249ccbb82bd37041", "type": "electric_scooter", "is_reserved": 0, "lon": -77.0239275}, {"fusion_lat": 0.0, "name": "3579e8e6292d198b3a0cfc517eb06089", "is_disabled": 0, "rental_uris": {"android": "https://dc.lft.to/lastmile_qr_scan", "ios": "https://dc.lft.to/lastmile_qr_scan"}, "fusion_lon": 0.0, "lat": 38.9210745, "bike_id": "3579e8e6292d198b3a0cfc517eb06089", "type": "electric_scooter", "is_reserved": 0, "lon": -77.031665}, {"fusion_lat": 0.0, "name": "f4bd7923762e1b6af89cfe92073731a4", "is_disabled": 0, "rental_uris": {"android": "https://dc.lft.to/lastmile_qr_scan", "ios": "https://dc.lft.to/lastmile_qr_scan"}, "fusion_lon": 0.0, "lat": 38.9235815, "bike_id": "f4bd7923762e1b6af89cfe92073731a4", "type": "electric_scooter", "is_reserved": 0, "lon": -77.05028216666666}, {"fusion_lat": 0.0, "name": "78f160b9ec4f4a98197fb310d5085d37", "is_disabled": 0, "rental_uris": {"android": "https://dc.lft.to/lastmile_qr_scan", "ios": "https://dc.lft.to/lastmile_qr_scan"}, "fusion_lon": 0.0, "lat": 38.918009, "bike_id": "78f160b9ec4f4a98197fb310d5085d37", "type": "electric_scooter", "is_reserved": 0, "lon": -77.03444166666667}, {"fusion_lat": 0.0, "name": "91419ca109ef111b95c048d5d9429615", "is_disabled": 0, "rental_uris": {"android": "https://dc.lft.to/lastmile_qr_scan", "ios": "https://dc.lft.to/lastmile_qr_scan"}, "fusion_lon": 0.0, "lat": 38.9174415, "bike_id": "91419ca109ef111b95c048d5d9429615", "type": "electric_scooter", "is_reserved": 0, "lon": -77.03181916666666}, {"fusion_lat": 0.0, "name": "fb4e4617121e3b1ab4d89de2d2558efe", "is_disabled": 0, "rental_uris": {"android": "https://dc.lft.to/lastmile_qr_scan", "ios": "https://dc.lft.to/lastmile_qr_scan"}, "fusion_lon": 0.0, "lat": 38.905637, "bike_id": "fb4e4617121e3b1ab4d89de2d2558efe", "type": "electric_scooter", "is_reserved": 0, "lon": -77.02205083333334}, {"fusion_lat": 0.0, "name": "01ccf3e6bc8734af13db840393fe1024", "is_disabled": 0, "rental_uris": {"android": "https://dc.lft.to/lastmile_qr_scan", "ios": "https://dc.lft.to/lastmile_qr_scan"}, "fusion_lon": 0.0, "lat": 38.919747666666666, "bike_id": "01ccf3e6bc8734af13db840393fe1024", "type": "electric_scooter", "is_reserved": 0, "lon": -77.02358816666667}, {"fusion_lat": 0.0, "name": "195678f86a5b7d43d76b32d3dfb7ecef", "is_disabled": 0, "rental_uris": {"android": "https://dc.lft.to/lastmile_qr_scan", "ios": "https://dc.lft.to/lastmile_qr_scan"}, "fusion_lon": 0.0, "lat": 38.884689, "bike_id": "195678f86a5b7d43d76b32d3dfb7ecef", "type": "electric_scooter", "is_reserved": 0, "lon": -77.02365416666666}, {"fusion_lat": 0.0, "name": "1c41abb5d7c987b52d1378ecf087a79e", "is_disabled": 0, "rental_uris": {"android": "https://dc.lft.to/lastmile_qr_scan", "ios": "https://dc.lft.to/lastmile_qr_scan"}, "fusion_lon": 0.0, "lat": 38.994451833333336, "bike_id": "1c41abb5d7c987b52d1378ecf087a79e", "type": "electric_bike", "is_reserved": 0, "lon": -76.99589383333333}, {"fusion_lat": 0.0, "name": "1e905b73f8292d3bc53449964e7be0d1", "is_disabled": 0, "rental_uris": {"android": "https://dc.lft.to/lastmile_qr_scan", "ios": "https://dc.lft.to/lastmile_qr_scan"}, "fusion_lon": 0.0, "lat": 38.903053166666666, "bike_id": "1e905b73f8292d3bc53449964e7be0d1", "type": "electric_scooter", "is_reserved": 0, "lon": -76.97652883333333}, {"fusion_lat": 0.0, "name": "f2692fcb50913e993a5cc0038a821a32", "is_disabled": 0, "rental_uris": {"android": "https://dc.lft.to/lastmile_qr_scan", "ios": "https://dc.lft.to/lastmile_qr_scan"}, "fusion_lon": 0.0, "lat": 38.9055705, "bike_id": "f2692fcb50913e993a5cc0038a821a32", "type": "electric_scooter", "is_reserved": 0, "lon": -77.04657233333333}, {"fusion_lat": 0.0, "name": "6517e192e18ea6338ab8eb1fb95d0d7b", "is_disabled": 0, "rental_uris": {"android": "https://dc.lft.to/lastmile_qr_scan", "ios": "https://dc.lft.to/lastmile_qr_scan"}, "fusion_lon": 0.0, "lat": 38.91552733333333, "bike_id": "6517e192e18ea6338ab8eb1fb95d0d7b", "type": "electric_scooter", "is_reserved": 0, "lon": -77.00363533333334}, {"fusion_lat": 0.0, "name": "4dc7da7d7f100125423a7a9b4c34e869", "is_disabled": 0, "rental_uris": {"android": "https://dc.lft.to/lastmile_qr_scan", "ios": "https://dc.lft.to/lastmile_qr_scan"}, "fusion_lon": 0.0, "lat": 38.89893983333333, "bike_id": "4dc7da7d7f100125423a7a9b4c34e869", "type": "electric_scooter", "is_reserved": 0, "lon": -76.9336365}, {"fusion_lat": 0.0, "name": "2c93925f4983be66ad56b0b391c9f7e4", "is_disabled": 0, "rental_uris": {"android": "https://dc.lft.to/lastmile_qr_scan", "ios": "https://dc.lft.to/lastmile_qr_scan"}, "fusion_lon": 0.0, "lat": 38.8852675, "bike_id": "2c93925f4983be66ad56b0b391c9f7e4", "type": "electric_scooter", "is_reserved": 0, "lon": -76.9291095}, {"fusion_lat": 0.0, "name": "1d6a5d56ac3edae45b2d132899c95ea1", "is_disabled": 0, "rental_uris": {"android": "https://dc.lft.to/lastmile_qr_scan", "ios": "https://dc.lft.to/lastmile_qr_scan"}, "fusion_lon": 0.0, "lat": 38.905786666666664, "bike_id": "1d6a5d56ac3edae45b2d132899c95ea1", "type": "electric_scooter", "is_reserved": 0, "lon": -77.02605466666667}, {"fusion_lat": 0.0, "name": "b47fc63151aba4fdb5a60c2a4adc432c", "is_disabled": 0, "rental_uris": {"android": "https://dc.lft.to/lastmile_qr_scan", "ios": "https://dc.lft.to/lastmile_qr_scan"}, "fusion_lon": 0.0, "lat": 38.908426166666665, "bike_id": "b47fc63151aba4fdb5a60c2a4adc432c", "type": "electric_scooter", "is_reserved": 0, "lon": -77.03293666666667}, {"fusion_lat": 0.0, "name": "fd27a0494c40938da5ab8ff90ae6aacc", "is_disabled": 0, "rental_uris": {"android": "https://dc.lft.to/lastmile_qr_scan", "ios": "https://dc.lft.to/lastmile_qr_scan"}, "fusion_lon": 0.0, "lat": 38.8991315, "bike_id": "fd27a0494c40938da5ab8ff90ae6aacc", "type": "electric_scooter", "is_reserved": 0, "lon": -76.94589166666667}, {"fusion_lat": 0.0, "name": "67836ff97675c5b1f0e35b93f67441c9", "is_disabled": 0, "rental_uris": {"android": "https://dc.lft.to/lastmile_qr_scan", "ios": "https://dc.lft.to/lastmile_qr_scan"}, "fusion_lon": 0.0, "lat": 38.928368, "bike_id": "67836ff97675c5b1f0e35b93f67441c9", "type": "electric_scooter", "is_reserved": 0, "lon": -77.01590216666666}, {"fusion_lat": 0.0, "name": "8eee438fcafe8964a7b88a1d3cbfd53b", "is_disabled": 0, "rental_uris": {"android": "https://dc.lft.to/lastmile_qr_scan", "ios": "https://dc.lft.to/lastmile_qr_scan"}, "fusion_lon": 0.0, "lat": 38.939036333333334, "bike_id": "8eee438fcafe8964a7b88a1d3cbfd53b", "type": "electric_scooter", "is_reserved": 0, "lon": -77.0779505}, {"fusion_lat": 0.0, "name": "0189cf3a13c933260cc96953f019d640", "is_disabled": 0, "rental_uris": {"android": "https://dc.lft.to/lastmile_qr_scan", "ios": "https://dc.lft.to/lastmile_qr_scan"}, "fusion_lon": 0.0, "lat": 38.8883755, "bike_id": "0189cf3a13c933260cc96953f019d640", "type": "electric_scooter", "is_reserved": 0, "lon": -77.04910883333334}, {"fusion_lat": 0.0, "name": "f235ef89b307abd2c4047df3c4e88abe", "is_disabled": 0, "rental_uris": {"android": "https://dc.lft.to/lastmile_qr_scan", "ios": "https://dc.lft.to/lastmile_qr_scan"}, "fusion_lon": 0.0, "lat": 38.87581433333333, "bike_id": "f235ef89b307abd2c4047df3c4e88abe", "type": "electric_bike", "is_reserved": 0, "lon": -77.2341215}, {"fusion_lat": 0.0, "name": "528ef570f17340f9759e5a551226629f", "is_disabled": 0, "rental_uris": {"android": "https://dc.lft.to/lastmile_qr_scan", "ios": "https://dc.lft.to/lastmile_qr_scan"}, "fusion_lon": 0.0, "lat": 38.9076905, "bike_id": "528ef570f17340f9759e5a551226629f", "type": "electric_scooter", "is_reserved": 0, "lon": -77.04253733333333}, {"fusion_lat": 0.0, "name": "068e6475445ada1a8d8694a01df7ddfd", "is_disabled": 0, "rental_uris": {"android": "https://dc.lft.to/lastmile_qr_scan", "ios": "https://dc.lft.to/lastmile_qr_scan"}, "fusion_lon": 0.0, "lat": 38.95239433333333, "bike_id": "068e6475445ada1a8d8694a01df7ddfd", "type": "electric_scooter", "is_reserved": 0, "lon": -77.033467}, {"fusion_lat": 0.0, "name": "e41bac094cf38c2a8826e2d44843872e", "is_disabled": 0, "rental_uris": {"android": "https://dc.lft.to/lastmile_qr_scan", "ios": "https://dc.lft.to/lastmile_qr_scan"}, "fusion_lon": 0.0, "lat": 38.91324766666666, "bike_id": "e41bac094cf38c2a8826e2d44843872e", "type": "electric_scooter", "is_reserved": 0, "lon": -77.015001}, {"fusion_lat": 0.0, "name": "2c67e353c5e2ad9321946f2011502dfb", "is_disabled": 0, "rental_uris": {"android": "https://dc.lft.to/lastmile_qr_scan", "ios": "https://dc.lft.to/lastmile_qr_scan"}, "fusion_lon": 0.0, "lat": 38.9173095, "bike_id": "2c67e353c5e2ad9321946f2011502dfb", "type": "electric_scooter", "is_reserved": 0, "lon": -77.0365895}, {"fusion_lat": 0.0, "name": "3f080e258f1d1c6c5c57c77ec671de49", "is_disabled": 0, "rental_uris": {"android": "https://dc.lft.to/lastmile_qr_scan", "ios": "https://dc.lft.to/lastmile_qr_scan"}, "fusion_lon": 0.0, "lat": 38.93119633333333, "bike_id": "3f080e258f1d1c6c5c57c77ec671de49", "type": "electric_scooter", "is_reserved": 0, "lon": -77.02977233333333}, {"fusion_lat": 0.0, "name": "0b5cd4614457907de44eea0c8be891f0", "is_disabled": 0, "rental_uris": {"android": "https://dc.lft.to/lastmile_qr_scan", "ios": "https://dc.lft.to/lastmile_qr_scan"}, "fusion_lon": 0.0, "lat": 38.9010705, "bike_id": "0b5cd4614457907de44eea0c8be891f0", "type": "electric_scooter", "is_reserved": 0, "lon": -77.02225216666666}, {"fusion_lat": 0.0, "name": "3044b2969a4fa759d1dc256135110f23", "is_disabled": 0, "rental_uris": {"android": "https://dc.lft.to/lastmile_qr_scan", "ios": "https://dc.lft.to/lastmile_qr_scan"}, "fusion_lon": 0.0, "lat": 38.941999, "bike_id": "3044b2969a4fa759d1dc256135110f23", "type": "electric_scooter", "is_reserved": 0, "lon": -77.02592033333333}, {"fusion_lat": 0.0, "name": "67b5082bf09b9de8e77b26463ae3ff11", "is_disabled": 0, "rental_uris": {"android": "https://dc.lft.to/lastmile_qr_scan", "ios": "https://dc.lft.to/lastmile_qr_scan"}, "fusion_lon": 0.0, "lat": 38.914186666666666, "bike_id": "67b5082bf09b9de8e77b26463ae3ff11", "type": "electric_scooter", "is_reserved": 0, "lon": -77.04071216666667}, {"fusion_lat": 0.0, "name": "21362bf44cca2a39392af17ce8e55d92", "is_disabled": 0, "rental_uris": {"android": "https://dc.lft.to/lastmile_qr_scan", "ios": "https://dc.lft.to/lastmile_qr_scan"}, "fusion_lon": 0.0, "lat": 38.907324333333335, "bike_id": "21362bf44cca2a39392af17ce8e55d92", "type": "electric_scooter", "is_reserved": 0, "lon": -77.02799966666667}, {"fusion_lat": 0.0, "name": "b3f69a0938e38218fdb4c6a9c439882f", "is_disabled": 0, "rental_uris": {"android": "https://dc.lft.to/lastmile_qr_scan", "ios": "https://dc.lft.to/lastmile_qr_scan"}, "fusion_lon": 0.0, "lat": 38.8450705, "bike_id": "b3f69a0938e38218fdb4c6a9c439882f", "type": "electric_bike", "is_reserved": 0, "lon": -76.99352716666667}, {"fusion_lat": 0.0, "name": "ec8cf8a9a45cec03878f9081700cd425", "is_disabled": 0, "rental_uris": {"android": "https://dc.lft.to/lastmile_qr_scan", "ios": "https://dc.lft.to/lastmile_qr_scan"}, "fusion_lon": 0.0, "lat": 38.91126666666667, "bike_id": "ec8cf8a9a45cec03878f9081700cd425", "type": "electric_scooter", "is_reserved": 0, "lon": -77.02197483333333}, {"fusion_lat": 0.0, "name": "0e6990a1a305d0f4a02ea2148c82ef5f", "is_disabled": 0, "rental_uris": {"android": "https://dc.lft.to/lastmile_qr_scan", "ios": "https://dc.lft.to/lastmile_qr_scan"}, "fusion_lon": 0.0, "lat": 38.919911166666665, "bike_id": "0e6990a1a305d0f4a02ea2148c82ef5f", "type": "electric_scooter", "is_reserved": 0, "lon": -77.0327885}, {"fusion_lat": 0.0, "name": "da81e3e71e5ef7b7c4195af191ff6d3d", "is_disabled": 0, "rental_uris": {"android": "https://dc.lft.to/lastmile_qr_scan", "ios": "https://dc.lft.to/lastmile_qr_scan"}, "fusion_lon": 0.0, "lat": 38.87371433333333, "bike_id": "da81e3e71e5ef7b7c4195af191ff6d3d", "type": "electric_scooter", "is_reserved": 0, "lon": -77.00066233333334}, {"fusion_lat": 0.0, "name": "209780fdb6736d9ac07362fecf51f26d", "is_disabled": 0, "rental_uris": {"android": "https://dc.lft.to/lastmile_qr_scan", "ios": "https://dc.lft.to/lastmile_qr_scan"}, "fusion_lon": 0.0, "lat": 38.89221416666667, "bike_id": "209780fdb6736d9ac07362fecf51f26d", "type": "electric_scooter", "is_reserved": 0, "lon": -77.02216166666666}, {"fusion_lat": 0.0, "name": "acc9cdb4f68716396ca2d193eb1bbb79", "is_disabled": 0, "rental_uris": {"android": "https://dc.lft.to/lastmile_qr_scan", "ios": "https://dc.lft.to/lastmile_qr_scan"}, "fusion_lon": 0.0, "lat": 38.89961516666666, "bike_id": "acc9cdb4f68716396ca2d193eb1bbb79", "type": "electric_scooter", "is_reserved": 0, "lon": -77.05475083333333}, {"fusion_lat": 0.0, "name": "5a587c52060998c1b6a3cacb31fff5ef", "is_disabled": 0, "rental_uris": {"android": "https://dc.lft.to/lastmile_qr_scan", "ios": "https://dc.lft.to/lastmile_qr_scan"}, "fusion_lon": 0.0, "lat": 38.92679366666667, "bike_id": "5a587c52060998c1b6a3cacb31fff5ef", "type": "electric_scooter", "is_reserved": 0, "lon": -77.03144366666666}, {"fusion_lat": 0.0, "name": "0f38b09379f10cc214befcdc755b0373", "is_disabled": 0, "rental_uris": {"android": "https://dc.lft.to/lastmile_qr_scan", "ios": "https://dc.lft.to/lastmile_qr_scan"}, "fusion_lon": 0.0, "lat": 38.909606333333336, "bike_id": "0f38b09379f10cc214befcdc755b0373", "type": "electric_scooter", "is_reserved": 0, "lon": -77.02279866666667}, {"fusion_lat": 0.0, "name": "edd1b23fb32a07cb1982074ccf7a84b9", "is_disabled": 0, "rental_uris": {"android": "https://dc.lft.to/lastmile_qr_scan", "ios": "https://dc.lft.to/lastmile_qr_scan"}, "fusion_lon": 0.0, "lat": 38.90138133333333, "bike_id": "edd1b23fb32a07cb1982074ccf7a84b9", "type": "electric_scooter", "is_reserved": 0, "lon": -76.991231}, {"fusion_lat": 0.0, "name": "d460b5159bf80d59757a4585800a6278", "is_disabled": 0, "rental_uris": {"android": "https://dc.lft.to/lastmile_qr_scan", "ios": "https://dc.lft.to/lastmile_qr_scan"}, "fusion_lon": 0.0, "lat": 38.919759666666664, "bike_id": "d460b5159bf80d59757a4585800a6278", "type": "electric_scooter", "is_reserved": 0, "lon": -77.04088016666667}, {"fusion_lat": 0.0, "name": "b1f39dd2b92cb4191d02962356505008", "is_disabled": 0, "rental_uris": {"android": "https://dc.lft.to/lastmile_qr_scan", "ios": "https://dc.lft.to/lastmile_qr_scan"}, "fusion_lon": 0.0, "lat": 38.8781975, "bike_id": "b1f39dd2b92cb4191d02962356505008", "type": "electric_scooter", "is_reserved": 0, "lon": -77.01529916666667}, {"fusion_lat": 0.0, "name": "50e91e41962934fd92b1cd895246542d", "is_disabled": 0, "rental_uris": {"android": "https://dc.lft.to/lastmile_qr_scan", "ios": "https://dc.lft.to/lastmile_qr_scan"}, "fusion_lon": 0.0, "lat": 38.91345466666667, "bike_id": "50e91e41962934fd92b1cd895246542d", "type": "electric_bike", "is_reserved": 0, "lon": -76.9889955}, {"fusion_lat": 0.0, "name": "4e4e0693d03b28138143e1d3a887e7ce", "is_disabled": 0, "rental_uris": {"android": "https://dc.lft.to/lastmile_qr_scan", "ios": "https://dc.lft.to/lastmile_qr_scan"}, "fusion_lon": 0.0, "lat": 38.883886333333336, "bike_id": "4e4e0693d03b28138143e1d3a887e7ce", "type": "electric_scooter", "is_reserved": 0, "lon": -76.98560383333333}, {"fusion_lat": 0.0, "name": "5a5b4d65d18dd38d0416cac84e8a128b", "is_disabled": 0, "rental_uris": {"android": "https://dc.lft.to/lastmile_qr_scan", "ios": "https://dc.lft.to/lastmile_qr_scan"}, "fusion_lon": 0.0, "lat": 38.95460083333333, "bike_id": "5a5b4d65d18dd38d0416cac84e8a128b", "type": "electric_scooter", "is_reserved": 0, "lon": -77.00778166666667}, {"fusion_lat": 0.0, "name": "e8db0d78de8914d8e844ba0daca05129", "is_disabled": 0, "rental_uris": {"android": "https://dc.lft.to/lastmile_qr_scan", "ios": "https://dc.lft.to/lastmile_qr_scan"}, "fusion_lon": 0.0, "lat": 38.944275166666664, "bike_id": "e8db0d78de8914d8e844ba0daca05129", "type": "electric_bike", "is_reserved": 0, "lon": -77.0260745}, {"fusion_lat": 0.0, "name": "8cb03cced838482376fcc8d2252c4b7a", "is_disabled": 0, "rental_uris": {"android": "https://dc.lft.to/lastmile_qr_scan", "ios": "https://dc.lft.to/lastmile_qr_scan"}, "fusion_lon": 0.0, "lat": 38.923588333333335, "bike_id": "8cb03cced838482376fcc8d2252c4b7a", "type": "electric_scooter", "is_reserved": 0, "lon": -77.050247}, {"fusion_lat": 0.0, "name": "20be7ff5eb4085a9082295c8d7f1ebb0", "is_disabled": 0, "rental_uris": {"android": "https://dc.lft.to/lastmile_qr_scan", "ios": "https://dc.lft.to/lastmile_qr_scan"}, "fusion_lon": 0.0, "lat": 38.920427333333336, "bike_id": "20be7ff5eb4085a9082295c8d7f1ebb0", "type": "electric_scooter", "is_reserved": 0, "lon": -77.00343783333334}, {"fusion_lat": 0.0, "name": "3c8f6ae3f77610199794b3f226d487e6", "is_disabled": 0, "rental_uris": {"android": "https://dc.lft.to/lastmile_qr_scan", "ios": "https://dc.lft.to/lastmile_qr_scan"}, "fusion_lon": 0.0, "lat": 38.905029, "bike_id": "3c8f6ae3f77610199794b3f226d487e6", "type": "electric_scooter", "is_reserved": 0, "lon": -77.029438}, {"fusion_lat": 0.0, "name": "da4797b59aae4d7b41cafbd32eafd560", "is_disabled": 0, "rental_uris": {"android": "https://dc.lft.to/lastmile_qr_scan", "ios": "https://dc.lft.to/lastmile_qr_scan"}, "fusion_lon": 0.0, "lat": 38.892354, "bike_id": "da4797b59aae4d7b41cafbd32eafd560", "type": "electric_scooter", "is_reserved": 0, "lon": -77.02791983333333}, {"fusion_lat": 0.0, "name": "3089974779cf3c2a0049c2b584587195", "is_disabled": 0, "rental_uris": {"android": "https://dc.lft.to/lastmile_qr_scan", "ios": "https://dc.lft.to/lastmile_qr_scan"}, "fusion_lon": 0.0, "lat": 38.93634316666667, "bike_id": "3089974779cf3c2a0049c2b584587195", "type": "electric_scooter", "is_reserved": 0, "lon": -77.03264683333333}, {"fusion_lat": 0.0, "name": "aebaf4e3885db18bf7e243ba9e1431da", "is_disabled": 0, "rental_uris": {"android": "https://dc.lft.to/lastmile_qr_scan", "ios": "https://dc.lft.to/lastmile_qr_scan"}, "fusion_lon": 0.0, "lat": 38.92669933333333, "bike_id": "aebaf4e3885db18bf7e243ba9e1431da", "type": "electric_scooter", "is_reserved": 0, "lon": -77.03048683333333}, {"fusion_lat": 0.0, "name": "e9da6195e2d89c013c7f38fdb22ad681", "is_disabled": 0, "rental_uris": {"android": "https://dc.lft.to/lastmile_qr_scan", "ios": "https://dc.lft.to/lastmile_qr_scan"}, "fusion_lon": 0.0, "lat": 38.920767833333336, "bike_id": "e9da6195e2d89c013c7f38fdb22ad681", "type": "electric_scooter", "is_reserved": 0, "lon": -76.99171716666666}, {"fusion_lat": 0.0, "name": "f0adbf0668b77a85c3c4494cfe409c72", "is_disabled": 0, "rental_uris": {"android": "https://dc.lft.to/lastmile_qr_scan", "ios": "https://dc.lft.to/lastmile_qr_scan"}, "fusion_lon": 0.0, "lat": 38.89091883333333, "bike_id": "f0adbf0668b77a85c3c4494cfe409c72", "type": "electric_scooter", "is_reserved": 0, "lon": -76.91929}, {"fusion_lat": 0.0, "name": "6e7883729d5b4ae43a798686ff6c0fac", "is_disabled": 0, "rental_uris": {"android": "https://dc.lft.to/lastmile_qr_scan", "ios": "https://dc.lft.to/lastmile_qr_scan"}, "fusion_lon": 0.0, "lat": 38.90509016666667, "bike_id": "6e7883729d5b4ae43a798686ff6c0fac", "type": "electric_scooter", "is_reserved": 0, "lon": -76.98481433333333}, {"fusion_lat": 0.0, "name": "c0e60f483396df8b10dd5ec5b11c7d8a", "is_disabled": 0, "rental_uris": {"android": "https://dc.lft.to/lastmile_qr_scan", "ios": "https://dc.lft.to/lastmile_qr_scan"}, "fusion_lon": 0.0, "lat": 38.93200933333333, "bike_id": "c0e60f483396df8b10dd5ec5b11c7d8a", "type": "electric_scooter", "is_reserved": 0, "lon": -77.03491716666667}, {"fusion_lat": 0.0, "name": "8713d7272008b058b4602a7237d20a24", "is_disabled": 0, "rental_uris": {"android": "https://dc.lft.to/lastmile_qr_scan", "ios": "https://dc.lft.to/lastmile_qr_scan"}, "fusion_lon": 0.0, "lat": 38.91873666666667, "bike_id": "8713d7272008b058b4602a7237d20a24", "type": "electric_scooter", "is_reserved": 0, "lon": -77.03498233333333}, {"fusion_lat": 0.0, "name": "3e46360933736d0e73061529bf4b9fcf", "is_disabled": 0, "rental_uris": {"android": "https://dc.lft.to/lastmile_qr_scan", "ios": "https://dc.lft.to/lastmile_qr_scan"}, "fusion_lon": 0.0, "lat": 38.915614166666664, "bike_id": "3e46360933736d0e73061529bf4b9fcf", "type": "electric_scooter", "is_reserved": 0, "lon": -77.03856883333333}, {"fusion_lat": 0.0, "name": "16a6a74a0a6394d4c2514334b1819e1d", "is_disabled": 0, "rental_uris": {"android": "https://dc.lft.to/lastmile_qr_scan", "ios": "https://dc.lft.to/lastmile_qr_scan"}, "fusion_lon": 0.0, "lat": 38.92123633333333, "bike_id": "16a6a74a0a6394d4c2514334b1819e1d", "type": "electric_scooter", "is_reserved": 0, "lon": -77.01946283333334}, {"fusion_lat": 0.0, "name": "a33905b653bd8f7a122a134e34721b10", "is_disabled": 0, "rental_uris": {"android": "https://dc.lft.to/lastmile_qr_scan", "ios": "https://dc.lft.to/lastmile_qr_scan"}, "fusion_lon": 0.0, "lat": 38.87927116666667, "bike_id": "a33905b653bd8f7a122a134e34721b10", "type": "electric_scooter", "is_reserved": 0, "lon": -77.00813016666666}, {"fusion_lat": 0.0, "name": "b00abb0db7ebffe1104a9a19554dd637", "is_disabled": 0, "rental_uris": {"android": "https://dc.lft.to/lastmile_qr_scan", "ios": "https://dc.lft.to/lastmile_qr_scan"}, "fusion_lon": 0.0, "lat": 38.919761333333334, "bike_id": "b00abb0db7ebffe1104a9a19554dd637", "type": "electric_scooter", "is_reserved": 0, "lon": -77.02370866666666}, {"fusion_lat": 0.0, "name": "3b6bb654f78f2bf6f596e8d150f30162", "is_disabled": 0, "rental_uris": {"android": "https://dc.lft.to/lastmile_qr_scan", "ios": "https://dc.lft.to/lastmile_qr_scan"}, "fusion_lon": 0.0, "lat": 38.905397666666666, "bike_id": "3b6bb654f78f2bf6f596e8d150f30162", "type": "electric_scooter", "is_reserved": 0, "lon": -77.026984}, {"fusion_lat": 0.0, "name": "d7861718d4fc9ecd450effb57763eca7", "is_disabled": 0, "rental_uris": {"android": "https://dc.lft.to/lastmile_qr_scan", "ios": "https://dc.lft.to/lastmile_qr_scan"}, "fusion_lon": 0.0, "lat": 38.887685, "bike_id": "d7861718d4fc9ecd450effb57763eca7", "type": "electric_scooter", "is_reserved": 0, "lon": -76.97753433333334}, {"fusion_lat": 0.0, "name": "74b7392510829c38df42f2da4a0df490", "is_disabled": 0, "rental_uris": {"android": "https://dc.lft.to/lastmile_qr_scan", "ios": "https://dc.lft.to/lastmile_qr_scan"}, "fusion_lon": 0.0, "lat": 38.898334166666665, "bike_id": "74b7392510829c38df42f2da4a0df490", "type": "electric_scooter", "is_reserved": 0, "lon": -76.94634516666666}, {"fusion_lat": 0.0, "name": "23b7c5b16dd34e4a637a25b40c2b3b71", "is_disabled": 0, "rental_uris": {"android": "https://dc.lft.to/lastmile_qr_scan", "ios": "https://dc.lft.to/lastmile_qr_scan"}, "fusion_lon": 0.0, "lat": 38.900134, "bike_id": "23b7c5b16dd34e4a637a25b40c2b3b71", "type": "electric_scooter", "is_reserved": 0, "lon": -76.988162}, {"fusion_lat": 0.0, "name": "2ece06dc2ad877af3fd0fa35f731f9fc", "is_disabled": 0, "rental_uris": {"android": "https://dc.lft.to/lastmile_qr_scan", "ios": "https://dc.lft.to/lastmile_qr_scan"}, "fusion_lon": 0.0, "lat": 38.8960005, "bike_id": "2ece06dc2ad877af3fd0fa35f731f9fc", "type": "electric_scooter", "is_reserved": 0, "lon": -77.025804}, {"fusion_lat": 0.0, "name": "476d130ca6b4e07994f5bf5d04108761", "is_disabled": 0, "rental_uris": {"android": "https://dc.lft.to/lastmile_qr_scan", "ios": "https://dc.lft.to/lastmile_qr_scan"}, "fusion_lon": 0.0, "lat": 38.917399, "bike_id": "476d130ca6b4e07994f5bf5d04108761", "type": "electric_scooter", "is_reserved": 0, "lon": -77.03253516666666}, {"fusion_lat": 0.0, "name": "928acc1c537a5716fdb88ee6b1155def", "is_disabled": 0, "rental_uris": {"android": "https://dc.lft.to/lastmile_qr_scan", "ios": "https://dc.lft.to/lastmile_qr_scan"}, "fusion_lon": 0.0, "lat": 38.904722, "bike_id": "928acc1c537a5716fdb88ee6b1155def", "type": "electric_bike", "is_reserved": 0, "lon": -77.01863233333333}, {"fusion_lat": 0.0, "name": "e8328d62d5ad1556d754785b06985dcf", "is_disabled": 0, "rental_uris": {"android": "https://dc.lft.to/lastmile_qr_scan", "ios": "https://dc.lft.to/lastmile_qr_scan"}, "fusion_lon": 0.0, "lat": 38.9199125, "bike_id": "e8328d62d5ad1556d754785b06985dcf", "type": "electric_scooter", "is_reserved": 0, "lon": -77.02393116666667}, {"fusion_lat": 0.0, "name": "9a7c01a33a463e2836b77b2bbd9458ee", "is_disabled": 0, "rental_uris": {"android": "https://dc.lft.to/lastmile_qr_scan", "ios": "https://dc.lft.to/lastmile_qr_scan"}, "fusion_lon": 0.0, "lat": 38.9305275, "bike_id": "9a7c01a33a463e2836b77b2bbd9458ee", "type": "electric_scooter", "is_reserved": 0, "lon": -77.037894}, {"fusion_lat": 0.0, "name": "4288231bc1d35230577df3538a0c3abb", "is_disabled": 0, "rental_uris": {"android": "https://dc.lft.to/lastmile_qr_scan", "ios": "https://dc.lft.to/lastmile_qr_scan"}, "fusion_lon": 0.0, "lat": 38.922718333333336, "bike_id": "4288231bc1d35230577df3538a0c3abb", "type": "electric_scooter", "is_reserved": 0, "lon": -76.997785}, {"fusion_lat": 0.0, "name": "10e477af0c30c7a851c25947355e78dd", "is_disabled": 0, "rental_uris": {"android": "https://dc.lft.to/lastmile_qr_scan", "ios": "https://dc.lft.to/lastmile_qr_scan"}, "fusion_lon": 0.0, "lat": 38.897285333333336, "bike_id": "10e477af0c30c7a851c25947355e78dd", "type": "electric_scooter", "is_reserved": 0, "lon": -77.0092535}, {"fusion_lat": 0.0, "name": "98da7237301901df03fa91c2e8891bc9", "is_disabled": 0, "rental_uris": {"android": "https://dc.lft.to/lastmile_qr_scan", "ios": "https://dc.lft.to/lastmile_qr_scan"}, "fusion_lon": 0.0, "lat": 38.91329666666667, "bike_id": "98da7237301901df03fa91c2e8891bc9", "type": "electric_scooter", "is_reserved": 0, "lon": -77.03169416666667}, {"fusion_lat": 0.0, "name": "bdad6ff12f38cef0686939c5d6796b82", "is_disabled": 0, "rental_uris": {"android": "https://dc.lft.to/lastmile_qr_scan", "ios": "https://dc.lft.to/lastmile_qr_scan"}, "fusion_lon": 0.0, "lat": 38.9094925, "bike_id": "bdad6ff12f38cef0686939c5d6796b82", "type": "electric_scooter", "is_reserved": 0, "lon": -76.987691}, {"fusion_lat": 0.0, "name": "e3a56dd1733c3b02b95f733127c8012d", "is_disabled": 0, "rental_uris": {"android": "https://dc.lft.to/lastmile_qr_scan", "ios": "https://dc.lft.to/lastmile_qr_scan"}, "fusion_lon": 0.0, "lat": 38.90021483333334, "bike_id": "e3a56dd1733c3b02b95f733127c8012d", "type": "electric_scooter", "is_reserved": 0, "lon": -76.9740125}, {"fusion_lat": 0.0, "name": "9f1ec8640aa961b449a328a89fef1527", "is_disabled": 0, "rental_uris": {"android": "https://dc.lft.to/lastmile_qr_scan", "ios": "https://dc.lft.to/lastmile_qr_scan"}, "fusion_lon": 0.0, "lat": 38.912538166666664, "bike_id": "9f1ec8640aa961b449a328a89fef1527", "type": "electric_scooter", "is_reserved": 0, "lon": -77.03862966666667}, {"fusion_lat": 0.0, "name": "d65af254f6526cb2f642d9d441d9268a", "is_disabled": 0, "rental_uris": {"android": "https://dc.lft.to/lastmile_qr_scan", "ios": "https://dc.lft.to/lastmile_qr_scan"}, "fusion_lon": 0.0, "lat": 38.90651616666667, "bike_id": "d65af254f6526cb2f642d9d441d9268a", "type": "electric_scooter", "is_reserved": 0, "lon": -76.99972716666667}, {"fusion_lat": 0.0, "name": "fa0a5121967e5183ccc9fa98b4262b02", "is_disabled": 0, "rental_uris": {"android": "https://dc.lft.to/lastmile_qr_scan", "ios": "https://dc.lft.to/lastmile_qr_scan"}, "fusion_lon": 0.0, "lat": 38.87967916666667, "bike_id": "fa0a5121967e5183ccc9fa98b4262b02", "type": "electric_bike", "is_reserved": 0, "lon": -76.91610733333333}, {"fusion_lat": 0.0, "name": "cb8df5a287449f0947c3997d99fc613d", "is_disabled": 0, "rental_uris": {"android": "https://dc.lft.to/lastmile_qr_scan", "ios": "https://dc.lft.to/lastmile_qr_scan"}, "fusion_lon": 0.0, "lat": 38.9408355, "bike_id": "cb8df5a287449f0947c3997d99fc613d", "type": "electric_scooter", "is_reserved": 0, "lon": -77.02999933333334}, {"fusion_lat": 0.0, "name": "b4c81cf02b7ad8677fc71a27adade0d2", "is_disabled": 0, "rental_uris": {"android": "https://dc.lft.to/lastmile_qr_scan", "ios": "https://dc.lft.to/lastmile_qr_scan"}, "fusion_lon": 0.0, "lat": 38.90089783333333, "bike_id": "b4c81cf02b7ad8677fc71a27adade0d2", "type": "electric_scooter", "is_reserved": 0, "lon": -76.98320533333333}, {"fusion_lat": 0.0, "name": "3349b0fbadc16d3ae46ba2974bbe7be3", "is_disabled": 0, "rental_uris": {"android": "https://dc.lft.to/lastmile_qr_scan", "ios": "https://dc.lft.to/lastmile_qr_scan"}, "fusion_lon": 0.0, "lat": 38.918037166666664, "bike_id": "3349b0fbadc16d3ae46ba2974bbe7be3", "type": "electric_scooter", "is_reserved": 0, "lon": -77.0329805}, {"fusion_lat": 0.0, "name": "ffb106cf05b855a419e234ebc37d39bf", "is_disabled": 0, "rental_uris": {"android": "https://dc.lft.to/lastmile_qr_scan", "ios": "https://dc.lft.to/lastmile_qr_scan"}, "fusion_lon": 0.0, "lat": 38.913272166666665, "bike_id": "ffb106cf05b855a419e234ebc37d39bf", "type": "electric_scooter", "is_reserved": 0, "lon": -77.02139083333333}, {"fusion_lat": 0.0, "name": "064ad33d2884c247a7a0acc6f1bb3601", "is_disabled": 0, "rental_uris": {"android": "https://dc.lft.to/lastmile_qr_scan", "ios": "https://dc.lft.to/lastmile_qr_scan"}, "fusion_lon": 0.0, "lat": 38.915570333333335, "bike_id": "064ad33d2884c247a7a0acc6f1bb3601", "type": "electric_scooter", "is_reserved": 0, "lon": -77.031351}, {"fusion_lat": 0.0, "name": "dcce63296f9753c4acf2b4dc1bf6437f", "is_disabled": 0, "rental_uris": {"android": "https://dc.lft.to/lastmile_qr_scan", "ios": "https://dc.lft.to/lastmile_qr_scan"}, "fusion_lon": 0.0, "lat": 38.92077416666667, "bike_id": "dcce63296f9753c4acf2b4dc1bf6437f", "type": "electric_scooter", "is_reserved": 0, "lon": -77.02514333333333}, {"fusion_lat": 0.0, "name": "a92547cf6a53daf9cb87afd579989c19", "is_disabled": 0, "rental_uris": {"android": "https://dc.lft.to/lastmile_qr_scan", "ios": "https://dc.lft.to/lastmile_qr_scan"}, "fusion_lon": 0.0, "lat": 38.91978733333333, "bike_id": "a92547cf6a53daf9cb87afd579989c19", "type": "electric_scooter", "is_reserved": 0, "lon": -77.02174966666666}, {"fusion_lat": 0.0, "name": "cb672326ff9bdcdc1b7c73915ed30c5a", "is_disabled": 0, "rental_uris": {"android": "https://dc.lft.to/lastmile_qr_scan", "ios": "https://dc.lft.to/lastmile_qr_scan"}, "fusion_lon": 0.0, "lat": 38.9171155, "bike_id": "cb672326ff9bdcdc1b7c73915ed30c5a", "type": "electric_scooter", "is_reserved": 0, "lon": -76.976629}, {"fusion_lat": 0.0, "name": "1bfddf07194907d93cf731322c56c408", "is_disabled": 0, "rental_uris": {"android": "https://dc.lft.to/lastmile_qr_scan", "ios": "https://dc.lft.to/lastmile_qr_scan"}, "fusion_lon": 0.0, "lat": 38.90976633333333, "bike_id": "1bfddf07194907d93cf731322c56c408", "type": "electric_scooter", "is_reserved": 0, "lon": -77.0343695}, {"fusion_lat": 0.0, "name": "f4100e985fe95b3a97c43816387cdefd", "is_disabled": 0, "rental_uris": {"android": "https://dc.lft.to/lastmile_qr_scan", "ios": "https://dc.lft.to/lastmile_qr_scan"}, "fusion_lon": 0.0, "lat": 38.9143895, "bike_id": "f4100e985fe95b3a97c43816387cdefd", "type": "electric_scooter", "is_reserved": 0, "lon": -77.02197033333333}, {"fusion_lat": 0.0, "name": "f014056217906591bc591ba0fc71568c", "is_disabled": 0, "rental_uris": {"android": "https://dc.lft.to/lastmile_qr_scan", "ios": "https://dc.lft.to/lastmile_qr_scan"}, "fusion_lon": 0.0, "lat": 38.90456016666667, "bike_id": "f014056217906591bc591ba0fc71568c", "type": "electric_scooter", "is_reserved": 0, "lon": -77.0016025}, {"fusion_lat": 0.0, "name": "dca76a6dd3f382820c945d013acd0c33", "is_disabled": 0, "rental_uris": {"android": "https://dc.lft.to/lastmile_qr_scan", "ios": "https://dc.lft.to/lastmile_qr_scan"}, "fusion_lon": 0.0, "lat": 38.917062666666666, "bike_id": "dca76a6dd3f382820c945d013acd0c33", "type": "electric_scooter", "is_reserved": 0, "lon": -77.0240835}, {"fusion_lat": 0.0, "name": "bb6793e053e56498d788f4a412230696", "is_disabled": 0, "rental_uris": {"android": "https://dc.lft.to/lastmile_qr_scan", "ios": "https://dc.lft.to/lastmile_qr_scan"}, "fusion_lon": 0.0, "lat": 38.88537, "bike_id": "bb6793e053e56498d788f4a412230696", "type": "electric_scooter", "is_reserved": 0, "lon": -77.00058466666667}, {"fusion_lat": 0.0, "name": "8f13827d93c72d8c1093441da3b390e1", "is_disabled": 0, "rental_uris": {"android": "https://dc.lft.to/lastmile_qr_scan", "ios": "https://dc.lft.to/lastmile_qr_scan"}, "fusion_lon": 0.0, "lat": 38.940795, "bike_id": "8f13827d93c72d8c1093441da3b390e1", "type": "electric_scooter", "is_reserved": 0, "lon": -77.02389533333333}, {"fusion_lat": 0.0, "name": "9c01a9273062410736e5ab2701f1f05f", "is_disabled": 0, "rental_uris": {"android": "https://dc.lft.to/lastmile_qr_scan", "ios": "https://dc.lft.to/lastmile_qr_scan"}, "fusion_lon": 0.0, "lat": 38.901368833333336, "bike_id": "9c01a9273062410736e5ab2701f1f05f", "type": "electric_scooter", "is_reserved": 0, "lon": -77.0345675}, {"fusion_lat": 0.0, "name": "a493531d63ad14238a7d1cf2b195c0c6", "is_disabled": 0, "rental_uris": {"android": "https://dc.lft.to/lastmile_qr_scan", "ios": "https://dc.lft.to/lastmile_qr_scan"}, "fusion_lon": 0.0, "lat": 38.928116, "bike_id": "a493531d63ad14238a7d1cf2b195c0c6", "type": "electric_scooter", "is_reserved": 0, "lon": -77.04363583333334}, {"fusion_lat": 0.0, "name": "f06693405ea03ce13ebd3403aede57bd", "is_disabled": 0, "rental_uris": {"android": "https://dc.lft.to/lastmile_qr_scan", "ios": "https://dc.lft.to/lastmile_qr_scan"}, "fusion_lon": 0.0, "lat": 38.9261525, "bike_id": "f06693405ea03ce13ebd3403aede57bd", "type": "electric_scooter", "is_reserved": 0, "lon": -77.03955516666667}, {"fusion_lat": 0.0, "name": "3108a41dd4b4b10c7a740b710d752c78", "is_disabled": 0, "rental_uris": {"android": "https://dc.lft.to/lastmile_qr_scan", "ios": "https://dc.lft.to/lastmile_qr_scan"}, "fusion_lon": 0.0, "lat": 38.885391, "bike_id": "3108a41dd4b4b10c7a740b710d752c78", "type": "electric_scooter", "is_reserved": 0, "lon": -77.00060633333334}, {"fusion_lat": 0.0, "name": "472a8fc19889b7c6d6a274f007dcdc88", "is_disabled": 0, "rental_uris": {"android": "https://dc.lft.to/lastmile_qr_scan", "ios": "https://dc.lft.to/lastmile_qr_scan"}, "fusion_lon": 0.0, "lat": 38.8775225, "bike_id": "472a8fc19889b7c6d6a274f007dcdc88", "type": "electric_scooter", "is_reserved": 0, "lon": -76.9966665}, {"fusion_lat": 0.0, "name": "1e0d051f1a7a060fa429e265a9ca8977", "is_disabled": 0, "rental_uris": {"android": "https://dc.lft.to/lastmile_qr_scan", "ios": "https://dc.lft.to/lastmile_qr_scan"}, "fusion_lon": 0.0, "lat": 38.920180333333334, "bike_id": "1e0d051f1a7a060fa429e265a9ca8977", "type": "electric_scooter", "is_reserved": 0, "lon": -77.02503583333333}, {"fusion_lat": 0.0, "name": "e61ca217c1de2dbed678091a8ce42c5a", "is_disabled": 0, "rental_uris": {"android": "https://dc.lft.to/lastmile_qr_scan", "ios": "https://dc.lft.to/lastmile_qr_scan"}, "fusion_lon": 0.0, "lat": 38.91482233333333, "bike_id": "e61ca217c1de2dbed678091a8ce42c5a", "type": "electric_scooter", "is_reserved": 0, "lon": -77.0353165}, {"fusion_lat": 0.0, "name": "809300f4cfb6124766abb1f981fb47f2", "is_disabled": 0, "rental_uris": {"android": "https://dc.lft.to/lastmile_qr_scan", "ios": "https://dc.lft.to/lastmile_qr_scan"}, "fusion_lon": 0.0, "lat": 38.865721666666666, "bike_id": "809300f4cfb6124766abb1f981fb47f2", "type": "electric_bike", "is_reserved": 0, "lon": -76.97335416666667}, {"fusion_lat": 0.0, "name": "f786827281b5585f9db1f64bd1ce6614", "is_disabled": 0, "rental_uris": {"android": "https://dc.lft.to/lastmile_qr_scan", "ios": "https://dc.lft.to/lastmile_qr_scan"}, "fusion_lon": 0.0, "lat": 38.945386666666664, "bike_id": "f786827281b5585f9db1f64bd1ce6614", "type": "electric_scooter", "is_reserved": 0, "lon": -77.016896}, {"fusion_lat": 0.0, "name": "9320da94ba7384526a064fb389e1008f", "is_disabled": 0, "rental_uris": {"android": "https://dc.lft.to/lastmile_qr_scan", "ios": "https://dc.lft.to/lastmile_qr_scan"}, "fusion_lon": 0.0, "lat": 38.9348185, "bike_id": "9320da94ba7384526a064fb389e1008f", "type": "electric_scooter", "is_reserved": 0, "lon": -77.03018266666666}, {"fusion_lat": 0.0, "name": "de741d88cecc565d78df0fa3706d1a38", "is_disabled": 0, "rental_uris": {"android": "https://dc.lft.to/lastmile_qr_scan", "ios": "https://dc.lft.to/lastmile_qr_scan"}, "fusion_lon": 0.0, "lat": 38.833113833333336, "bike_id": "de741d88cecc565d78df0fa3706d1a38", "type": "electric_bike", "is_reserved": 0, "lon": -77.04174416666666}, {"fusion_lat": 0.0, "name": "aa3acbddbb1282dac462c6771baee7ac", "is_disabled": 0, "rental_uris": {"android": "https://dc.lft.to/lastmile_qr_scan", "ios": "https://dc.lft.to/lastmile_qr_scan"}, "fusion_lon": 0.0, "lat": 38.87434433333333, "bike_id": "aa3acbddbb1282dac462c6771baee7ac", "type": "electric_scooter", "is_reserved": 0, "lon": -77.00571083333334}, {"fusion_lat": 0.0, "name": "4f04726ac7bb5d9147e54c7a91908554", "is_disabled": 0, "rental_uris": {"android": "https://dc.lft.to/lastmile_qr_scan", "ios": "https://dc.lft.to/lastmile_qr_scan"}, "fusion_lon": 0.0, "lat": 38.90067633333334, "bike_id": "4f04726ac7bb5d9147e54c7a91908554", "type": "electric_scooter", "is_reserved": 0, "lon": -77.01610083333334}, {"fusion_lat": 0.0, "name": "edf6842959673d033894d2cf514275e8", "is_disabled": 0, "rental_uris": {"android": "https://dc.lft.to/lastmile_qr_scan", "ios": "https://dc.lft.to/lastmile_qr_scan"}, "fusion_lon": 0.0, "lat": 38.9136685, "bike_id": "edf6842959673d033894d2cf514275e8", "type": "electric_scooter", "is_reserved": 0, "lon": -77.02057783333333}, {"fusion_lat": 0.0, "name": "355f9e304fc37205365fa1a7ac44efa2", "is_disabled": 0, "rental_uris": {"android": "https://dc.lft.to/lastmile_qr_scan", "ios": "https://dc.lft.to/lastmile_qr_scan"}, "fusion_lon": 0.0, "lat": 38.89738633333333, "bike_id": "355f9e304fc37205365fa1a7ac44efa2", "type": "electric_scooter", "is_reserved": 0, "lon": -77.03345966666667}, {"fusion_lat": 0.0, "name": "a42658efbc21cf956cbc01c5fc3bca30", "is_disabled": 0, "rental_uris": {"android": "https://dc.lft.to/lastmile_qr_scan", "ios": "https://dc.lft.to/lastmile_qr_scan"}, "fusion_lon": 0.0, "lat": 38.923826166666665, "bike_id": "a42658efbc21cf956cbc01c5fc3bca30", "type": "electric_scooter", "is_reserved": 0, "lon": -77.0364695}, {"fusion_lat": 0.0, "name": "e64f188fd57ff199e46129e0ed9fcc21", "is_disabled": 0, "rental_uris": {"android": "https://dc.lft.to/lastmile_qr_scan", "ios": "https://dc.lft.to/lastmile_qr_scan"}, "fusion_lon": 0.0, "lat": 38.93479516666667, "bike_id": "e64f188fd57ff199e46129e0ed9fcc21", "type": "electric_scooter", "is_reserved": 0, "lon": -77.03609583333333}, {"fusion_lat": 0.0, "name": "ee2114f014e79a53972f21d507cfd769", "is_disabled": 0, "rental_uris": {"android": "https://dc.lft.to/lastmile_qr_scan", "ios": "https://dc.lft.to/lastmile_qr_scan"}, "fusion_lon": 0.0, "lat": 38.941793, "bike_id": "ee2114f014e79a53972f21d507cfd769", "type": "electric_scooter", "is_reserved": 0, "lon": -77.0365185}, {"fusion_lat": 0.0, "name": "b1e9b0b4f39a46fce90134a0402c2084", "is_disabled": 0, "rental_uris": {"android": "https://dc.lft.to/lastmile_qr_scan", "ios": "https://dc.lft.to/lastmile_qr_scan"}, "fusion_lon": 0.0, "lat": 38.8887435, "bike_id": "b1e9b0b4f39a46fce90134a0402c2084", "type": "electric_scooter", "is_reserved": 0, "lon": -77.02851733333334}, {"fusion_lat": 0.0, "name": "2077e03a26d87ef70a7d0a4929d79135", "is_disabled": 0, "rental_uris": {"android": "https://dc.lft.to/lastmile_qr_scan", "ios": "https://dc.lft.to/lastmile_qr_scan"}, "fusion_lon": 0.0, "lat": 38.911051, "bike_id": "2077e03a26d87ef70a7d0a4929d79135", "type": "electric_scooter", "is_reserved": 0, "lon": -77.04199833333334}, {"fusion_lat": 0.0, "name": "c25a4c146b596b3cd4bf6bd891dfcf1c", "is_disabled": 0, "rental_uris": {"android": "https://dc.lft.to/lastmile_qr_scan", "ios": "https://dc.lft.to/lastmile_qr_scan"}, "fusion_lon": 0.0, "lat": 38.89236783333333, "bike_id": "c25a4c146b596b3cd4bf6bd891dfcf1c", "type": "electric_scooter", "is_reserved": 0, "lon": -77.04891016666667}, {"fusion_lat": 0.0, "name": "012c8551e2ccab1d9b57f91a20485d16", "is_disabled": 0, "rental_uris": {"android": "https://dc.lft.to/lastmile_qr_scan", "ios": "https://dc.lft.to/lastmile_qr_scan"}, "fusion_lon": 0.0, "lat": 38.91976616666667, "bike_id": "012c8551e2ccab1d9b57f91a20485d16", "type": "electric_scooter", "is_reserved": 0, "lon": -77.04079683333333}, {"fusion_lat": 0.0, "name": "6791910dae184d5c3f255fef2fc796e9", "is_disabled": 0, "rental_uris": {"android": "https://dc.lft.to/lastmile_qr_scan", "ios": "https://dc.lft.to/lastmile_qr_scan"}, "fusion_lon": 0.0, "lat": 38.91025066666667, "bike_id": "6791910dae184d5c3f255fef2fc796e9", "type": "electric_scooter", "is_reserved": 0, "lon": -77.007595}, {"fusion_lat": 0.0, "name": "87ab962f00c3a32f6b7f053374e2ec62", "is_disabled": 0, "rental_uris": {"android": "https://dc.lft.to/lastmile_qr_scan", "ios": "https://dc.lft.to/lastmile_qr_scan"}, "fusion_lon": 0.0, "lat": 38.857933, "bike_id": "87ab962f00c3a32f6b7f053374e2ec62", "type": "electric_bike", "is_reserved": 0, "lon": -76.98722683333334}, {"fusion_lat": 0.0, "name": "52af947631a48dee5152568f054e809e", "is_disabled": 0, "rental_uris": {"android": "https://dc.lft.to/lastmile_qr_scan", "ios": "https://dc.lft.to/lastmile_qr_scan"}, "fusion_lon": 0.0, "lat": 38.924572833333336, "bike_id": "52af947631a48dee5152568f054e809e", "type": "electric_scooter", "is_reserved": 0, "lon": -76.99334483333334}, {"fusion_lat": 0.0, "name": "83e13248877a33cfba49376da0b86c3f", "is_disabled": 0, "rental_uris": {"android": "https://dc.lft.to/lastmile_qr_scan", "ios": "https://dc.lft.to/lastmile_qr_scan"}, "fusion_lon": 0.0, "lat": 38.900960166666664, "bike_id": "83e13248877a33cfba49376da0b86c3f", "type": "electric_scooter", "is_reserved": 0, "lon": -77.01976116666667}, {"fusion_lat": 0.0, "name": "a5061666af1e33eab45560d4969cf2fd", "is_disabled": 0, "rental_uris": {"android": "https://dc.lft.to/lastmile_qr_scan", "ios": "https://dc.lft.to/lastmile_qr_scan"}, "fusion_lon": 0.0, "lat": 38.92075033333333, "bike_id": "a5061666af1e33eab45560d4969cf2fd", "type": "electric_scooter", "is_reserved": 0, "lon": -76.99869133333334}, {"fusion_lat": 0.0, "name": "77e7cde411a0a88436d7250a1f81f9e5", "is_disabled": 0, "rental_uris": {"android": "https://dc.lft.to/lastmile_qr_scan", "ios": "https://dc.lft.to/lastmile_qr_scan"}, "fusion_lon": 0.0, "lat": 38.92838866666666, "bike_id": "77e7cde411a0a88436d7250a1f81f9e5", "type": "electric_scooter", "is_reserved": 0, "lon": -76.9802995}, {"fusion_lat": 0.0, "name": "5579b9be69f5a12bd41e82eecb317848", "is_disabled": 0, "rental_uris": {"android": "https://dc.lft.to/lastmile_qr_scan", "ios": "https://dc.lft.to/lastmile_qr_scan"}, "fusion_lon": 0.0, "lat": 38.868857, "bike_id": "5579b9be69f5a12bd41e82eecb317848", "type": "electric_bike", "is_reserved": 0, "lon": -76.98319483333333}, {"fusion_lat": 0.0, "name": "d078aa0e3ace340c62320d479fd0a885", "is_disabled": 0, "rental_uris": {"android": "https://dc.lft.to/lastmile_qr_scan", "ios": "https://dc.lft.to/lastmile_qr_scan"}, "fusion_lon": 0.0, "lat": 38.91724816666667, "bike_id": "d078aa0e3ace340c62320d479fd0a885", "type": "electric_scooter", "is_reserved": 0, "lon": -77.00818533333333}, {"fusion_lat": 0.0, "name": "c74829cdd9abe4426ccd984b6099398c", "is_disabled": 0, "rental_uris": {"android": "https://dc.lft.to/lastmile_qr_scan", "ios": "https://dc.lft.to/lastmile_qr_scan"}, "fusion_lon": 0.0, "lat": 38.86260083333333, "bike_id": "c74829cdd9abe4426ccd984b6099398c", "type": "electric_bike", "is_reserved": 0, "lon": -76.98330883333334}, {"fusion_lat": 0.0, "name": "8d4e7c760199b5ee648d1b34643443bc", "is_disabled": 0, "rental_uris": {"android": "https://dc.lft.to/lastmile_qr_scan", "ios": "https://dc.lft.to/lastmile_qr_scan"}, "fusion_lon": 0.0, "lat": 38.92327383333333, "bike_id": "8d4e7c760199b5ee648d1b34643443bc", "type": "electric_scooter", "is_reserved": 0, "lon": -77.035672}, {"fusion_lat": 0.0, "name": "ea38d87cb47b077ad1e5e5991f455d92", "is_disabled": 0, "rental_uris": {"android": "https://dc.lft.to/lastmile_qr_scan", "ios": "https://dc.lft.to/lastmile_qr_scan"}, "fusion_lon": 0.0, "lat": 38.9251295, "bike_id": "ea38d87cb47b077ad1e5e5991f455d92", "type": "electric_scooter", "is_reserved": 0, "lon": -77.01953016666667}, {"fusion_lat": 0.0, "name": "00e872ea2840a87fb788aca0fca40920", "is_disabled": 0, "rental_uris": {"android": "https://dc.lft.to/lastmile_qr_scan", "ios": "https://dc.lft.to/lastmile_qr_scan"}, "fusion_lon": 0.0, "lat": 38.89219933333333, "bike_id": "00e872ea2840a87fb788aca0fca40920", "type": "electric_scooter", "is_reserved": 0, "lon": -77.02218133333334}, {"fusion_lat": 0.0, "name": "c797a37bccb8e9f3249ca98a8ec9307f", "is_disabled": 0, "rental_uris": {"android": "https://dc.lft.to/lastmile_qr_scan", "ios": "https://dc.lft.to/lastmile_qr_scan"}, "fusion_lon": 0.0, "lat": 38.87418, "bike_id": "c797a37bccb8e9f3249ca98a8ec9307f", "type": "electric_scooter", "is_reserved": 0, "lon": -77.00073683333333}, {"fusion_lat": 0.0, "name": "0da39e0a2eccb782a92deddd46865867", "is_disabled": 0, "rental_uris": {"android": "https://dc.lft.to/lastmile_qr_scan", "ios": "https://dc.lft.to/lastmile_qr_scan"}, "fusion_lon": 0.0, "lat": 38.92872166666667, "bike_id": "0da39e0a2eccb782a92deddd46865867", "type": "electric_scooter", "is_reserved": 0, "lon": -77.0135815}, {"fusion_lat": 0.0, "name": "be908da932e290120fe928a719e92283", "is_disabled": 0, "rental_uris": {"android": "https://dc.lft.to/lastmile_qr_scan", "ios": "https://dc.lft.to/lastmile_qr_scan"}, "fusion_lon": 0.0, "lat": 38.90734333333333, "bike_id": "be908da932e290120fe928a719e92283", "type": "electric_scooter", "is_reserved": 0, "lon": -77.02967}, {"fusion_lat": 0.0, "name": "b99493e4c52af93c8b5724f565862ded", "is_disabled": 0, "rental_uris": {"android": "https://dc.lft.to/lastmile_qr_scan", "ios": "https://dc.lft.to/lastmile_qr_scan"}, "fusion_lon": 0.0, "lat": 38.91521433333333, "bike_id": "b99493e4c52af93c8b5724f565862ded", "type": "electric_scooter", "is_reserved": 0, "lon": -77.01222716666666}, {"fusion_lat": 0.0, "name": "bbbc28adf961fa3bbb26d69cdfc9fba9", "is_disabled": 0, "rental_uris": {"android": "https://dc.lft.to/lastmile_qr_scan", "ios": "https://dc.lft.to/lastmile_qr_scan"}, "fusion_lon": 0.0, "lat": 38.878394166666666, "bike_id": "bbbc28adf961fa3bbb26d69cdfc9fba9", "type": "electric_scooter", "is_reserved": 0, "lon": -77.00807766666667}, {"fusion_lat": 0.0, "name": "be91e9cc369314634c379047e0bc6e56", "is_disabled": 0, "rental_uris": {"android": "https://dc.lft.to/lastmile_qr_scan", "ios": "https://dc.lft.to/lastmile_qr_scan"}, "fusion_lon": 0.0, "lat": 38.914143, "bike_id": "be91e9cc369314634c379047e0bc6e56", "type": "electric_scooter", "is_reserved": 0, "lon": -77.0381675}, {"fusion_lat": 0.0, "name": "c1c42e2e113264f81a60433fc87ba37c", "is_disabled": 0, "rental_uris": {"android": "https://dc.lft.to/lastmile_qr_scan", "ios": "https://dc.lft.to/lastmile_qr_scan"}, "fusion_lon": 0.0, "lat": 38.92074916666667, "bike_id": "c1c42e2e113264f81a60433fc87ba37c", "type": "electric_scooter", "is_reserved": 0, "lon": -77.0251545}, {"fusion_lat": 0.0, "name": "a34f45d0051fbd07aea42b7ac6f4c4e9", "is_disabled": 0, "rental_uris": {"android": "https://dc.lft.to/lastmile_qr_scan", "ios": "https://dc.lft.to/lastmile_qr_scan"}, "fusion_lon": 0.0, "lat": 38.877109833333336, "bike_id": "a34f45d0051fbd07aea42b7ac6f4c4e9", "type": "electric_scooter", "is_reserved": 0, "lon": -77.01774133333333}, {"fusion_lat": 0.0, "name": "ef0b90a60ab983b40859f111c46198b8", "is_disabled": 0, "rental_uris": {"android": "https://dc.lft.to/lastmile_qr_scan", "ios": "https://dc.lft.to/lastmile_qr_scan"}, "fusion_lon": 0.0, "lat": 38.90039133333333, "bike_id": "ef0b90a60ab983b40859f111c46198b8", "type": "electric_scooter", "is_reserved": 0, "lon": -77.00184883333333}, {"fusion_lat": 0.0, "name": "732b7b4f738105302c75666ae96115d4", "is_disabled": 0, "rental_uris": {"android": "https://dc.lft.to/lastmile_qr_scan", "ios": "https://dc.lft.to/lastmile_qr_scan"}, "fusion_lon": 0.0, "lat": 38.90705916666667, "bike_id": "732b7b4f738105302c75666ae96115d4", "type": "electric_scooter", "is_reserved": 0, "lon": -77.0497015}, {"fusion_lat": 0.0, "name": "66aa2d889bce62c555a1eff1c70bd424", "is_disabled": 0, "rental_uris": {"android": "https://dc.lft.to/lastmile_qr_scan", "ios": "https://dc.lft.to/lastmile_qr_scan"}, "fusion_lon": 0.0, "lat": 38.87108933333333, "bike_id": "66aa2d889bce62c555a1eff1c70bd424", "type": "electric_scooter", "is_reserved": 0, "lon": -76.9657875}, {"fusion_lat": 0.0, "name": "79253d0c193f9dcc665d507ac0fdf1a7", "is_disabled": 0, "rental_uris": {"android": "https://dc.lft.to/lastmile_qr_scan", "ios": "https://dc.lft.to/lastmile_qr_scan"}, "fusion_lon": 0.0, "lat": 38.90679, "bike_id": "79253d0c193f9dcc665d507ac0fdf1a7", "type": "electric_scooter", "is_reserved": 0, "lon": -77.0269135}, {"fusion_lat": 0.0, "name": "c3f27a638d4decbac7075e088ef025b3", "is_disabled": 0, "rental_uris": {"android": "https://dc.lft.to/lastmile_qr_scan", "ios": "https://dc.lft.to/lastmile_qr_scan"}, "fusion_lon": 0.0, "lat": 38.927018333333336, "bike_id": "c3f27a638d4decbac7075e088ef025b3", "type": "electric_scooter", "is_reserved": 0, "lon": -77.02062866666667}, {"fusion_lat": 0.0, "name": "1e6f52e082a3e664594b8de19a173585", "is_disabled": 0, "rental_uris": {"android": "https://dc.lft.to/lastmile_qr_scan", "ios": "https://dc.lft.to/lastmile_qr_scan"}, "fusion_lon": 0.0, "lat": 38.905800166666666, "bike_id": "1e6f52e082a3e664594b8de19a173585", "type": "electric_scooter", "is_reserved": 0, "lon": -77.04555133333334}, {"fusion_lat": 0.0, "name": "efabdcc49ca62f01ddd663fa676630ee", "is_disabled": 0, "rental_uris": {"android": "https://dc.lft.to/lastmile_qr_scan", "ios": "https://dc.lft.to/lastmile_qr_scan"}, "fusion_lon": 0.0, "lat": 38.920641, "bike_id": "efabdcc49ca62f01ddd663fa676630ee", "type": "electric_scooter", "is_reserved": 0, "lon": -77.041077}, {"fusion_lat": 0.0, "name": "acbd7d5c8a01a833a25d3c5b9165b37a", "is_disabled": 0, "rental_uris": {"android": "https://dc.lft.to/lastmile_qr_scan", "ios": "https://dc.lft.to/lastmile_qr_scan"}, "fusion_lon": 0.0, "lat": 38.919722666666665, "bike_id": "acbd7d5c8a01a833a25d3c5b9165b37a", "type": "electric_scooter", "is_reserved": 0, "lon": -77.02362483333333}, {"fusion_lat": 0.0, "name": "8af54fc02b8e7cf1b5489e83a491a1cc", "is_disabled": 0, "rental_uris": {"android": "https://dc.lft.to/lastmile_qr_scan", "ios": "https://dc.lft.to/lastmile_qr_scan"}, "fusion_lon": 0.0, "lat": 38.914822666666666, "bike_id": "8af54fc02b8e7cf1b5489e83a491a1cc", "type": "electric_scooter", "is_reserved": 0, "lon": -77.03591866666666}, {"fusion_lat": 0.0, "name": "e53128950fdd10f3135beda8592a6d7d", "is_disabled": 0, "rental_uris": {"android": "https://dc.lft.to/lastmile_qr_scan", "ios": "https://dc.lft.to/lastmile_qr_scan"}, "fusion_lon": 0.0, "lat": 38.91558333333333, "bike_id": "e53128950fdd10f3135beda8592a6d7d", "type": "electric_scooter", "is_reserved": 0, "lon": -77.03857816666667}, {"fusion_lat": 0.0, "name": "9a41e7f43996a8b49092e2eb96997b59", "is_disabled": 0, "rental_uris": {"android": "https://dc.lft.to/lastmile_qr_scan", "ios": "https://dc.lft.to/lastmile_qr_scan"}, "fusion_lon": 0.0, "lat": 38.9037485, "bike_id": "9a41e7f43996a8b49092e2eb96997b59", "type": "electric_scooter", "is_reserved": 0, "lon": -77.04822516666667}, {"fusion_lat": 0.0, "name": "bb7f12ce6ef446a2aec76068c8d59c7a", "is_disabled": 0, "rental_uris": {"android": "https://dc.lft.to/lastmile_qr_scan", "ios": "https://dc.lft.to/lastmile_qr_scan"}, "fusion_lon": 0.0, "lat": 38.898569333333334, "bike_id": "bb7f12ce6ef446a2aec76068c8d59c7a", "type": "electric_scooter", "is_reserved": 0, "lon": -77.039173}, {"fusion_lat": 0.0, "name": "745da0f809291ab423ebbba2920bb120", "is_disabled": 0, "rental_uris": {"android": "https://dc.lft.to/lastmile_qr_scan", "ios": "https://dc.lft.to/lastmile_qr_scan"}, "fusion_lon": 0.0, "lat": 38.91560583333333, "bike_id": "745da0f809291ab423ebbba2920bb120", "type": "electric_scooter", "is_reserved": 0, "lon": -77.03138216666666}, {"fusion_lat": 0.0, "name": "7952a2cb6a1a4acd58c387cc1a30ade7", "is_disabled": 0, "rental_uris": {"android": "https://dc.lft.to/lastmile_qr_scan", "ios": "https://dc.lft.to/lastmile_qr_scan"}, "fusion_lon": 0.0, "lat": 38.99781266666667, "bike_id": "7952a2cb6a1a4acd58c387cc1a30ade7", "type": "electric_bike", "is_reserved": 0, "lon": -77.047201}, {"fusion_lat": 0.0, "name": "83c224580d236a19dd6fa2e8217ddc0e", "is_disabled": 0, "rental_uris": {"android": "https://dc.lft.to/lastmile_qr_scan", "ios": "https://dc.lft.to/lastmile_qr_scan"}, "fusion_lon": 0.0, "lat": 38.904095833333336, "bike_id": "83c224580d236a19dd6fa2e8217ddc0e", "type": "electric_scooter", "is_reserved": 0, "lon": -76.97333866666666}, {"fusion_lat": 0.0, "name": "0a077a38329eb398ef106b78fd9ab002", "is_disabled": 0, "rental_uris": {"android": "https://dc.lft.to/lastmile_qr_scan", "ios": "https://dc.lft.to/lastmile_qr_scan"}, "fusion_lon": 0.0, "lat": 38.90585566666667, "bike_id": "0a077a38329eb398ef106b78fd9ab002", "type": "electric_scooter", "is_reserved": 0, "lon": -77.00642716666667}, {"fusion_lat": 0.0, "name": "b0e1a4cc0d09bcdc37d9a728a70757b0", "is_disabled": 0, "rental_uris": {"android": "https://dc.lft.to/lastmile_qr_scan", "ios": "https://dc.lft.to/lastmile_qr_scan"}, "fusion_lon": 0.0, "lat": 38.900174166666666, "bike_id": "b0e1a4cc0d09bcdc37d9a728a70757b0", "type": "electric_scooter", "is_reserved": 0, "lon": -76.99868816666667}, {"fusion_lat": 0.0, "name": "502e88efaafd63ce2e1d17d26652ff12", "is_disabled": 0, "rental_uris": {"android": "https://dc.lft.to/lastmile_qr_scan", "ios": "https://dc.lft.to/lastmile_qr_scan"}, "fusion_lon": 0.0, "lat": 38.807699, "bike_id": "502e88efaafd63ce2e1d17d26652ff12", "type": "electric_bike", "is_reserved": 0, "lon": -77.09468883333334}, {"fusion_lat": 0.0, "name": "3f2a464d7352b1e5ef2c6e8a10d51887", "is_disabled": 0, "rental_uris": {"android": "https://dc.lft.to/lastmile_qr_scan", "ios": "https://dc.lft.to/lastmile_qr_scan"}, "fusion_lon": 0.0, "lat": 38.9004635, "bike_id": "3f2a464d7352b1e5ef2c6e8a10d51887", "type": "electric_scooter", "is_reserved": 0, "lon": -77.00195383333333}, {"fusion_lat": 0.0, "name": "3b45ca445dc86c2da8428137a40fd70d", "is_disabled": 0, "rental_uris": {"android": "https://dc.lft.to/lastmile_qr_scan", "ios": "https://dc.lft.to/lastmile_qr_scan"}, "fusion_lon": 0.0, "lat": 38.91108416666667, "bike_id": "3b45ca445dc86c2da8428137a40fd70d", "type": "electric_scooter", "is_reserved": 0, "lon": -77.0115025}, {"fusion_lat": 0.0, "name": "9437ffff45ee00727154b4e5be9030dc", "is_disabled": 0, "rental_uris": {"android": "https://dc.lft.to/lastmile_qr_scan", "ios": "https://dc.lft.to/lastmile_qr_scan"}, "fusion_lon": 0.0, "lat": 38.8982605, "bike_id": "9437ffff45ee00727154b4e5be9030dc", "type": "electric_scooter", "is_reserved": 0, "lon": -77.02978966666667}, {"fusion_lat": 0.0, "name": "c6327d3470c3c73a017e2a7c69391a84", "is_disabled": 0, "rental_uris": {"android": "https://dc.lft.to/lastmile_qr_scan", "ios": "https://dc.lft.to/lastmile_qr_scan"}, "fusion_lon": 0.0, "lat": 38.91888983333333, "bike_id": "c6327d3470c3c73a017e2a7c69391a84", "type": "electric_scooter", "is_reserved": 0, "lon": -77.034925}, {"fusion_lat": 0.0, "name": "1473540619993380e8ef707db5414f26", "is_disabled": 0, "rental_uris": {"android": "https://dc.lft.to/lastmile_qr_scan", "ios": "https://dc.lft.to/lastmile_qr_scan"}, "fusion_lon": 0.0, "lat": 38.902808, "bike_id": "1473540619993380e8ef707db5414f26", "type": "electric_scooter", "is_reserved": 0, "lon": -77.03388516666666}, {"fusion_lat": 0.0, "name": "13c75548ab18df3b13c4008b747e8388", "is_disabled": 0, "rental_uris": {"android": "https://dc.lft.to/lastmile_qr_scan", "ios": "https://dc.lft.to/lastmile_qr_scan"}, "fusion_lon": 0.0, "lat": 38.871804833333336, "bike_id": "13c75548ab18df3b13c4008b747e8388", "type": "electric_scooter", "is_reserved": 0, "lon": -77.009167}, {"fusion_lat": 0.0, "name": "1f9a082803d22c43ffa2d60ea2ba8e7b", "is_disabled": 0, "rental_uris": {"android": "https://dc.lft.to/lastmile_qr_scan", "ios": "https://dc.lft.to/lastmile_qr_scan"}, "fusion_lon": 0.0, "lat": 38.928680666666665, "bike_id": "1f9a082803d22c43ffa2d60ea2ba8e7b", "type": "electric_scooter", "is_reserved": 0, "lon": -77.02729833333333}, {"fusion_lat": 0.0, "name": "2d4d53d6447590cfeba8e0a0fdf9a769", "is_disabled": 0, "rental_uris": {"android": "https://dc.lft.to/lastmile_qr_scan", "ios": "https://dc.lft.to/lastmile_qr_scan"}, "fusion_lon": 0.0, "lat": 38.90473266666667, "bike_id": "2d4d53d6447590cfeba8e0a0fdf9a769", "type": "electric_scooter", "is_reserved": 0, "lon": -77.0533625}, {"fusion_lat": 0.0, "name": "a643a83fa521b25712b2370b0c0ba90c", "is_disabled": 0, "rental_uris": {"android": "https://dc.lft.to/lastmile_qr_scan", "ios": "https://dc.lft.to/lastmile_qr_scan"}, "fusion_lon": 0.0, "lat": 38.88245533333333, "bike_id": "a643a83fa521b25712b2370b0c0ba90c", "type": "electric_scooter", "is_reserved": 0, "lon": -77.00350983333334}, {"fusion_lat": 0.0, "name": "940ab3481ad112a30aa2c2a9a5277c0b", "is_disabled": 0, "rental_uris": {"android": "https://dc.lft.to/lastmile_qr_scan", "ios": "https://dc.lft.to/lastmile_qr_scan"}, "fusion_lon": 0.0, "lat": 38.894818, "bike_id": "940ab3481ad112a30aa2c2a9a5277c0b", "type": "electric_scooter", "is_reserved": 0, "lon": -77.01101416666667}, {"fusion_lat": 0.0, "name": "265e600e0ed3c4002765acc5ec5a5339", "is_disabled": 0, "rental_uris": {"android": "https://dc.lft.to/lastmile_qr_scan", "ios": "https://dc.lft.to/lastmile_qr_scan"}, "fusion_lon": 0.0, "lat": 38.92211483333333, "bike_id": "265e600e0ed3c4002765acc5ec5a5339", "type": "electric_scooter", "is_reserved": 0, "lon": -77.02017583333334}, {"fusion_lat": 0.0, "name": "29bb2ae28772bb9d7eab1c8755c68557", "is_disabled": 0, "rental_uris": {"android": "https://dc.lft.to/lastmile_qr_scan", "ios": "https://dc.lft.to/lastmile_qr_scan"}, "fusion_lon": 0.0, "lat": 38.92073966666667, "bike_id": "29bb2ae28772bb9d7eab1c8755c68557", "type": "electric_scooter", "is_reserved": 0, "lon": -77.02280883333333}, {"fusion_lat": 0.0, "name": "f70706ed54d9063d6dd8369597aa6206", "is_disabled": 0, "rental_uris": {"android": "https://dc.lft.to/lastmile_qr_scan", "ios": "https://dc.lft.to/lastmile_qr_scan"}, "fusion_lon": 0.0, "lat": 38.88736466666667, "bike_id": "f70706ed54d9063d6dd8369597aa6206", "type": "electric_scooter", "is_reserved": 0, "lon": -77.025769}, {"fusion_lat": 0.0, "name": "bdc8251dcde3a5444a2cecabb3aa2a1c", "is_disabled": 0, "rental_uris": {"android": "https://dc.lft.to/lastmile_qr_scan", "ios": "https://dc.lft.to/lastmile_qr_scan"}, "fusion_lon": 0.0, "lat": 38.9667265, "bike_id": "bdc8251dcde3a5444a2cecabb3aa2a1c", "type": "electric_bike", "is_reserved": 0, "lon": -77.02164016666667}, {"fusion_lat": 0.0, "name": "73e76a96f972a6a5bf40c1363312bd27", "is_disabled": 0, "rental_uris": {"android": "https://dc.lft.to/lastmile_qr_scan", "ios": "https://dc.lft.to/lastmile_qr_scan"}, "fusion_lon": 0.0, "lat": 38.93184766666667, "bike_id": "73e76a96f972a6a5bf40c1363312bd27", "type": "electric_scooter", "is_reserved": 0, "lon": -77.04303766666666}, {"fusion_lat": 0.0, "name": "fc06f4f284d6344246af92e0c7c9daca", "is_disabled": 0, "rental_uris": {"android": "https://dc.lft.to/lastmile_qr_scan", "ios": "https://dc.lft.to/lastmile_qr_scan"}, "fusion_lon": 0.0, "lat": 38.890175166666666, "bike_id": "fc06f4f284d6344246af92e0c7c9daca", "type": "electric_scooter", "is_reserved": 0, "lon": -76.93735633333333}, {"fusion_lat": 0.0, "name": "76e3394ed664a76a773e441d0b4b79d9", "is_disabled": 0, "rental_uris": {"android": "https://dc.lft.to/lastmile_qr_scan", "ios": "https://dc.lft.to/lastmile_qr_scan"}, "fusion_lon": 0.0, "lat": 38.946278666666664, "bike_id": "76e3394ed664a76a773e441d0b4b79d9", "type": "electric_scooter", "is_reserved": 0, "lon": -77.01845816666666}, {"fusion_lat": 0.0, "name": "274040dcb1070ca15ed306a4fe3f9aca", "is_disabled": 0, "rental_uris": {"android": "https://dc.lft.to/lastmile_qr_scan", "ios": "https://dc.lft.to/lastmile_qr_scan"}, "fusion_lon": 0.0, "lat": 38.881890166666665, "bike_id": "274040dcb1070ca15ed306a4fe3f9aca", "type": "electric_scooter", "is_reserved": 0, "lon": -77.00352683333334}, {"fusion_lat": 0.0, "name": "e96019c35aca5fed7a9b52e7f578822e", "is_disabled": 0, "rental_uris": {"android": "https://dc.lft.to/lastmile_qr_scan", "ios": "https://dc.lft.to/lastmile_qr_scan"}, "fusion_lon": 0.0, "lat": 38.92733783333333, "bike_id": "e96019c35aca5fed7a9b52e7f578822e", "type": "electric_scooter", "is_reserved": 0, "lon": -77.05247066666666}, {"fusion_lat": 0.0, "name": "b814b63f2ec0ae50f0b4b9a8b59bbee1", "is_disabled": 0, "rental_uris": {"android": "https://dc.lft.to/lastmile_qr_scan", "ios": "https://dc.lft.to/lastmile_qr_scan"}, "fusion_lon": 0.0, "lat": 38.90429133333333, "bike_id": "b814b63f2ec0ae50f0b4b9a8b59bbee1", "type": "electric_scooter", "is_reserved": 0, "lon": -77.05134133333334}, {"fusion_lat": 0.0, "name": "ce4d8b4f761620eb93d20b0674e41196", "is_disabled": 0, "rental_uris": {"android": "https://dc.lft.to/lastmile_qr_scan", "ios": "https://dc.lft.to/lastmile_qr_scan"}, "fusion_lon": 0.0, "lat": 38.923874166666664, "bike_id": "ce4d8b4f761620eb93d20b0674e41196", "type": "electric_scooter", "is_reserved": 0, "lon": -77.0446445}, {"fusion_lat": 0.0, "name": "b933bca10ac275fc9b2f49bdf8478e15", "is_disabled": 0, "rental_uris": {"android": "https://dc.lft.to/lastmile_qr_scan", "ios": "https://dc.lft.to/lastmile_qr_scan"}, "fusion_lon": 0.0, "lat": 38.92014233333333, "bike_id": "b933bca10ac275fc9b2f49bdf8478e15", "type": "electric_scooter", "is_reserved": 0, "lon": -77.03882566666667}, {"fusion_lat": 0.0, "name": "15e7eac8cc4cf581d5f36a82b9aa354d", "is_disabled": 0, "rental_uris": {"android": "https://dc.lft.to/lastmile_qr_scan", "ios": "https://dc.lft.to/lastmile_qr_scan"}, "fusion_lon": 0.0, "lat": 38.90382983333333, "bike_id": "15e7eac8cc4cf581d5f36a82b9aa354d", "type": "electric_scooter", "is_reserved": 0, "lon": -76.9761535}, {"fusion_lat": 0.0, "name": "b35f4fb16bc9a08d8a05e4d8389430aa", "is_disabled": 0, "rental_uris": {"android": "https://dc.lft.to/lastmile_qr_scan", "ios": "https://dc.lft.to/lastmile_qr_scan"}, "fusion_lon": 0.0, "lat": 38.927528833333334, "bike_id": "b35f4fb16bc9a08d8a05e4d8389430aa", "type": "electric_scooter", "is_reserved": 0, "lon": -77.03279566666667}, {"fusion_lat": 0.0, "name": "28dee46d93a6fb493e5352f02f4485ee", "is_disabled": 0, "rental_uris": {"android": "https://dc.lft.to/lastmile_qr_scan", "ios": "https://dc.lft.to/lastmile_qr_scan"}, "fusion_lon": 0.0, "lat": 38.802986, "bike_id": "28dee46d93a6fb493e5352f02f4485ee", "type": "electric_bike", "is_reserved": 0, "lon": -77.059343}, {"fusion_lat": 0.0, "name": "a86e955915fb93a9c48e7336ceb38e28", "is_disabled": 0, "rental_uris": {"android": "https://dc.lft.to/lastmile_qr_scan", "ios": "https://dc.lft.to/lastmile_qr_scan"}, "fusion_lon": 0.0, "lat": 38.9074225, "bike_id": "a86e955915fb93a9c48e7336ceb38e28", "type": "electric_scooter", "is_reserved": 0, "lon": -77.03203816666667}, {"fusion_lat": 0.0, "name": "629af57713afdf12e4890411e5c3fc0d", "is_disabled": 0, "rental_uris": {"android": "https://dc.lft.to/lastmile_qr_scan", "ios": "https://dc.lft.to/lastmile_qr_scan"}, "fusion_lon": 0.0, "lat": 38.96392766666666, "bike_id": "629af57713afdf12e4890411e5c3fc0d", "type": "electric_scooter", "is_reserved": 0, "lon": -77.025855}, {"fusion_lat": 0.0, "name": "4a81b771475d382054459565e814445d", "is_disabled": 0, "rental_uris": {"android": "https://dc.lft.to/lastmile_qr_scan", "ios": "https://dc.lft.to/lastmile_qr_scan"}, "fusion_lon": 0.0, "lat": 38.932496666666665, "bike_id": "4a81b771475d382054459565e814445d", "type": "electric_scooter", "is_reserved": 0, "lon": -77.03262583333333}, {"fusion_lat": 0.0, "name": "617006d18d1561175ed644f002bc589f", "is_disabled": 0, "rental_uris": {"android": "https://dc.lft.to/lastmile_qr_scan", "ios": "https://dc.lft.to/lastmile_qr_scan"}, "fusion_lon": 0.0, "lat": 38.87949866666666, "bike_id": "617006d18d1561175ed644f002bc589f", "type": "electric_scooter", "is_reserved": 0, "lon": -77.006003}, {"fusion_lat": 0.0, "name": "70261233b6c0b48a1db9717299c2df5b", "is_disabled": 0, "rental_uris": {"android": "https://dc.lft.to/lastmile_qr_scan", "ios": "https://dc.lft.to/lastmile_qr_scan"}, "fusion_lon": 0.0, "lat": 38.90001016666667, "bike_id": "70261233b6c0b48a1db9717299c2df5b", "type": "electric_scooter", "is_reserved": 0, "lon": -77.011976}, {"fusion_lat": 0.0, "name": "687d775ace89fa4644dffba1d9fe93a5", "is_disabled": 0, "rental_uris": {"android": "https://dc.lft.to/lastmile_qr_scan", "ios": "https://dc.lft.to/lastmile_qr_scan"}, "fusion_lon": 0.0, "lat": 38.892401166666666, "bike_id": "687d775ace89fa4644dffba1d9fe93a5", "type": "electric_scooter", "is_reserved": 0, "lon": -77.0435615}, {"fusion_lat": 0.0, "name": "5ce887a6c66d29211d44c2acd806a135", "is_disabled": 0, "rental_uris": {"android": "https://dc.lft.to/lastmile_qr_scan", "ios": "https://dc.lft.to/lastmile_qr_scan"}, "fusion_lon": 0.0, "lat": 38.92286333333333, "bike_id": "5ce887a6c66d29211d44c2acd806a135", "type": "electric_scooter", "is_reserved": 0, "lon": -77.03655883333333}, {"fusion_lat": 0.0, "name": "5910cc3cb9966e51384a0944709afc9a", "is_disabled": 0, "rental_uris": {"android": "https://dc.lft.to/lastmile_qr_scan", "ios": "https://dc.lft.to/lastmile_qr_scan"}, "fusion_lon": 0.0, "lat": 38.92116516666667, "bike_id": "5910cc3cb9966e51384a0944709afc9a", "type": "electric_scooter", "is_reserved": 0, "lon": -77.031824}, {"fusion_lat": 0.0, "name": "76c49641492b4b279a60998a975b76fc", "is_disabled": 0, "rental_uris": {"android": "https://dc.lft.to/lastmile_qr_scan", "ios": "https://dc.lft.to/lastmile_qr_scan"}, "fusion_lon": 0.0, "lat": 38.903953333333334, "bike_id": "76c49641492b4b279a60998a975b76fc", "type": "electric_scooter", "is_reserved": 0, "lon": -77.03823883333334}, {"fusion_lat": 0.0, "name": "1649d26ddca581cecae2924ebe710ccc", "is_disabled": 0, "rental_uris": {"android": "https://dc.lft.to/lastmile_qr_scan", "ios": "https://dc.lft.to/lastmile_qr_scan"}, "fusion_lon": 0.0, "lat": 38.9268325, "bike_id": "1649d26ddca581cecae2924ebe710ccc", "type": "electric_scooter", "is_reserved": 0, "lon": -77.0296805}, {"fusion_lat": 0.0, "name": "fdafddd7fb6768e06d47a4512c971b46", "is_disabled": 0, "rental_uris": {"android": "https://dc.lft.to/lastmile_qr_scan", "ios": "https://dc.lft.to/lastmile_qr_scan"}, "fusion_lon": 0.0, "lat": 38.91752616666667, "bike_id": "fdafddd7fb6768e06d47a4512c971b46", "type": "electric_scooter", "is_reserved": 0, "lon": -77.04588416666667}, {"fusion_lat": 0.0, "name": "8d99ddc83f6dd4fc4085d269e5ab1a92", "is_disabled": 0, "rental_uris": {"android": "https://dc.lft.to/lastmile_qr_scan", "ios": "https://dc.lft.to/lastmile_qr_scan"}, "fusion_lon": 0.0, "lat": 38.93586233333333, "bike_id": "8d99ddc83f6dd4fc4085d269e5ab1a92", "type": "electric_scooter", "is_reserved": 0, "lon": -77.02842816666667}, {"fusion_lat": 0.0, "name": "359d656ecc546e6ac753677d02fe65be", "is_disabled": 0, "rental_uris": {"android": "https://dc.lft.to/lastmile_qr_scan", "ios": "https://dc.lft.to/lastmile_qr_scan"}, "fusion_lon": 0.0, "lat": 38.9071505, "bike_id": "359d656ecc546e6ac753677d02fe65be", "type": "electric_scooter", "is_reserved": 0, "lon": -76.99834983333334}, {"fusion_lat": 0.0, "name": "3cd028992db1618ec139370bb19b6a26", "is_disabled": 0, "rental_uris": {"android": "https://dc.lft.to/lastmile_qr_scan", "ios": "https://dc.lft.to/lastmile_qr_scan"}, "fusion_lon": 0.0, "lat": 38.92184016666667, "bike_id": "3cd028992db1618ec139370bb19b6a26", "type": "electric_scooter", "is_reserved": 0, "lon": -77.07434816666667}, {"fusion_lat": 0.0, "name": "740e9b4b621c7e1ae95a3f369e44b3f1", "is_disabled": 0, "rental_uris": {"android": "https://dc.lft.to/lastmile_qr_scan", "ios": "https://dc.lft.to/lastmile_qr_scan"}, "fusion_lon": 0.0, "lat": 38.916180833333335, "bike_id": "740e9b4b621c7e1ae95a3f369e44b3f1", "type": "electric_scooter", "is_reserved": 0, "lon": -77.02161216666667}, {"fusion_lat": 0.0, "name": "b100c4af02e3dda95ae670d86b817747", "is_disabled": 0, "rental_uris": {"android": "https://dc.lft.to/lastmile_qr_scan", "ios": "https://dc.lft.to/lastmile_qr_scan"}, "fusion_lon": 0.0, "lat": 38.9127515, "bike_id": "b100c4af02e3dda95ae670d86b817747", "type": "electric_scooter", "is_reserved": 0, "lon": -77.02244116666667}, {"fusion_lat": 0.0, "name": "ab17783f136d6209676615d14dec801b", "is_disabled": 0, "rental_uris": {"android": "https://dc.lft.to/lastmile_qr_scan", "ios": "https://dc.lft.to/lastmile_qr_scan"}, "fusion_lon": 0.0, "lat": 38.941252166666665, "bike_id": "ab17783f136d6209676615d14dec801b", "type": "electric_bike", "is_reserved": 0, "lon": -76.9902915}, {"fusion_lat": 0.0, "name": "d5330d95a06431bfc11b926725042855", "is_disabled": 0, "rental_uris": {"android": "https://dc.lft.to/lastmile_qr_scan", "ios": "https://dc.lft.to/lastmile_qr_scan"}, "fusion_lon": 0.0, "lat": 38.92246683333333, "bike_id": "d5330d95a06431bfc11b926725042855", "type": "electric_scooter", "is_reserved": 0, "lon": -77.03895016666667}, {"fusion_lat": 0.0, "name": "dc0b5fb137c0212920f39c268d6dc54a", "is_disabled": 0, "rental_uris": {"android": "https://dc.lft.to/lastmile_qr_scan", "ios": "https://dc.lft.to/lastmile_qr_scan"}, "fusion_lon": 0.0, "lat": 38.9491825, "bike_id": "dc0b5fb137c0212920f39c268d6dc54a", "type": "electric_bike", "is_reserved": 0, "lon": -77.00795866666667}, {"fusion_lat": 0.0, "name": "891719495b396d522261e8878fcc2e3e", "is_disabled": 0, "rental_uris": {"android": "https://dc.lft.to/lastmile_qr_scan", "ios": "https://dc.lft.to/lastmile_qr_scan"}, "fusion_lon": 0.0, "lat": 38.898126, "bike_id": "891719495b396d522261e8878fcc2e3e", "type": "electric_scooter", "is_reserved": 0, "lon": -77.04984383333333}, {"fusion_lat": 0.0, "name": "c967b335cec63eedf8d566b0e626e4b0", "is_disabled": 0, "rental_uris": {"android": "https://dc.lft.to/lastmile_qr_scan", "ios": "https://dc.lft.to/lastmile_qr_scan"}, "fusion_lon": 0.0, "lat": 38.9010835, "bike_id": "c967b335cec63eedf8d566b0e626e4b0", "type": "electric_scooter", "is_reserved": 0, "lon": -76.97423116666667}, {"fusion_lat": 0.0, "name": "231b85accdeca8119f319f64894df0a4", "is_disabled": 0, "rental_uris": {"android": "https://dc.lft.to/lastmile_qr_scan", "ios": "https://dc.lft.to/lastmile_qr_scan"}, "fusion_lon": 0.0, "lat": 38.921545, "bike_id": "231b85accdeca8119f319f64894df0a4", "type": "electric_scooter", "is_reserved": 0, "lon": -77.03662133333333}, {"fusion_lat": 0.0, "name": "42461ea68dd935473ca13738933be6bb", "is_disabled": 0, "rental_uris": {"android": "https://dc.lft.to/lastmile_qr_scan", "ios": "https://dc.lft.to/lastmile_qr_scan"}, "fusion_lon": 0.0, "lat": 38.90442983333333, "bike_id": "42461ea68dd935473ca13738933be6bb", "type": "electric_scooter", "is_reserved": 0, "lon": -77.05843833333333}, {"fusion_lat": 0.0, "name": "abf378fc3eca9ede8da91d3ff0b2602d", "is_disabled": 0, "rental_uris": {"android": "https://dc.lft.to/lastmile_qr_scan", "ios": "https://dc.lft.to/lastmile_qr_scan"}, "fusion_lon": 0.0, "lat": 38.900163666666664, "bike_id": "abf378fc3eca9ede8da91d3ff0b2602d", "type": "electric_scooter", "is_reserved": 0, "lon": -77.00331583333333}, {"fusion_lat": 0.0, "name": "b740778cb22365a66e8ce9bd44c92f61", "is_disabled": 0, "rental_uris": {"android": "https://dc.lft.to/lastmile_qr_scan", "ios": "https://dc.lft.to/lastmile_qr_scan"}, "fusion_lon": 0.0, "lat": 38.911159, "bike_id": "b740778cb22365a66e8ce9bd44c92f61", "type": "electric_scooter", "is_reserved": 0, "lon": -77.0383855}, {"fusion_lat": 0.0, "name": "e6c8fa07977860311b47b0d01e9dce28", "is_disabled": 0, "rental_uris": {"android": "https://dc.lft.to/lastmile_qr_scan", "ios": "https://dc.lft.to/lastmile_qr_scan"}, "fusion_lon": 0.0, "lat": 38.9261135, "bike_id": "e6c8fa07977860311b47b0d01e9dce28", "type": "electric_scooter", "is_reserved": 0, "lon": -77.07567333333333}, {"fusion_lat": 0.0, "name": "15b0fc81aca7706a9e176d8ffb9b052c", "is_disabled": 0, "rental_uris": {"android": "https://dc.lft.to/lastmile_qr_scan", "ios": "https://dc.lft.to/lastmile_qr_scan"}, "fusion_lon": 0.0, "lat": 38.91605083333334, "bike_id": "15b0fc81aca7706a9e176d8ffb9b052c", "type": "electric_scooter", "is_reserved": 0, "lon": -77.045536}, {"fusion_lat": 0.0, "name": "0d00e53f795263469b129fa5d6c58fa4", "is_disabled": 0, "rental_uris": {"android": "https://dc.lft.to/lastmile_qr_scan", "ios": "https://dc.lft.to/lastmile_qr_scan"}, "fusion_lon": 0.0, "lat": 38.896797666666664, "bike_id": "0d00e53f795263469b129fa5d6c58fa4", "type": "electric_scooter", "is_reserved": 0, "lon": -77.01192433333334}, {"fusion_lat": 0.0, "name": "acd1d1bf6a0a674f94373c20cedab695", "is_disabled": 0, "rental_uris": {"android": "https://dc.lft.to/lastmile_qr_scan", "ios": "https://dc.lft.to/lastmile_qr_scan"}, "fusion_lon": 0.0, "lat": 38.93381866666667, "bike_id": "acd1d1bf6a0a674f94373c20cedab695", "type": "electric_scooter", "is_reserved": 0, "lon": -77.01957833333333}, {"fusion_lat": 0.0, "name": "1816556a607602cc8235d83deb0d46b8", "is_disabled": 0, "rental_uris": {"android": "https://dc.lft.to/lastmile_qr_scan", "ios": "https://dc.lft.to/lastmile_qr_scan"}, "fusion_lon": 0.0, "lat": 38.871298833333334, "bike_id": "1816556a607602cc8235d83deb0d46b8", "type": "electric_scooter", "is_reserved": 0, "lon": -77.01216766666667}, {"fusion_lat": 0.0, "name": "a19f6526d301bd5bcef97a6f1cb717af", "is_disabled": 0, "rental_uris": {"android": "https://dc.lft.to/lastmile_qr_scan", "ios": "https://dc.lft.to/lastmile_qr_scan"}, "fusion_lon": 0.0, "lat": 38.915564, "bike_id": "a19f6526d301bd5bcef97a6f1cb717af", "type": "electric_scooter", "is_reserved": 0, "lon": -77.03865033333334}, {"fusion_lat": 0.0, "name": "dd5862090842226dbe0f2231c0a149ea", "is_disabled": 0, "rental_uris": {"android": "https://dc.lft.to/lastmile_qr_scan", "ios": "https://dc.lft.to/lastmile_qr_scan"}, "fusion_lon": 0.0, "lat": 38.928072, "bike_id": "dd5862090842226dbe0f2231c0a149ea", "type": "electric_scooter", "is_reserved": 0, "lon": -77.04357916666666}, {"fusion_lat": 0.0, "name": "a844e22ca01b712353729a943cc8e96f", "is_disabled": 0, "rental_uris": {"android": "https://dc.lft.to/lastmile_qr_scan", "ios": "https://dc.lft.to/lastmile_qr_scan"}, "fusion_lon": 0.0, "lat": 38.921055833333334, "bike_id": "a844e22ca01b712353729a943cc8e96f", "type": "electric_scooter", "is_reserved": 0, "lon": -77.025224}, {"fusion_lat": 0.0, "name": "cc607ba0e6b533dbfa697ce433530ca4", "is_disabled": 0, "rental_uris": {"android": "https://dc.lft.to/lastmile_qr_scan", "ios": "https://dc.lft.to/lastmile_qr_scan"}, "fusion_lon": 0.0, "lat": 38.915621, "bike_id": "cc607ba0e6b533dbfa697ce433530ca4", "type": "electric_scooter", "is_reserved": 0, "lon": -77.010375}, {"fusion_lat": 0.0, "name": "43413d3aa401eb3edf241888bfe1f556", "is_disabled": 0, "rental_uris": {"android": "https://dc.lft.to/lastmile_qr_scan", "ios": "https://dc.lft.to/lastmile_qr_scan"}, "fusion_lon": 0.0, "lat": 38.883428333333335, "bike_id": "43413d3aa401eb3edf241888bfe1f556", "type": "electric_scooter", "is_reserved": 0, "lon": -76.93497483333333}, {"fusion_lat": 0.0, "name": "00ca11b5cc6a3c4a6e6b4ae45d7897a2", "is_disabled": 0, "rental_uris": {"android": "https://dc.lft.to/lastmile_qr_scan", "ios": "https://dc.lft.to/lastmile_qr_scan"}, "fusion_lon": 0.0, "lat": 38.89028583333333, "bike_id": "00ca11b5cc6a3c4a6e6b4ae45d7897a2", "type": "electric_scooter", "is_reserved": 0, "lon": -77.03177533333333}, {"fusion_lat": 0.0, "name": "edd1cfa637c094604ef81ecb5328c9cf", "is_disabled": 0, "rental_uris": {"android": "https://dc.lft.to/lastmile_qr_scan", "ios": "https://dc.lft.to/lastmile_qr_scan"}, "fusion_lon": 0.0, "lat": 38.90125183333333, "bike_id": "edd1cfa637c094604ef81ecb5328c9cf", "type": "electric_scooter", "is_reserved": 0, "lon": -77.044655}, {"fusion_lat": 0.0, "name": "4383ebaad81712f513b41ea05c1f66e7", "is_disabled": 0, "rental_uris": {"android": "https://dc.lft.to/lastmile_qr_scan", "ios": "https://dc.lft.to/lastmile_qr_scan"}, "fusion_lon": 0.0, "lat": 38.94386866666667, "bike_id": "4383ebaad81712f513b41ea05c1f66e7", "type": "electric_scooter", "is_reserved": 0, "lon": -77.0950445}, {"fusion_lat": 0.0, "name": "ee580db0c2135e6a60111bb8979b30f2", "is_disabled": 0, "rental_uris": {"android": "https://dc.lft.to/lastmile_qr_scan", "ios": "https://dc.lft.to/lastmile_qr_scan"}, "fusion_lon": 0.0, "lat": 38.92159483333333, "bike_id": "ee580db0c2135e6a60111bb8979b30f2", "type": "electric_scooter", "is_reserved": 0, "lon": -77.03259916666667}, {"fusion_lat": 0.0, "name": "fb7399c9115effb0ca15141c6ae30f9a", "is_disabled": 0, "rental_uris": {"android": "https://dc.lft.to/lastmile_qr_scan", "ios": "https://dc.lft.to/lastmile_qr_scan"}, "fusion_lon": 0.0, "lat": 38.90209933333333, "bike_id": "fb7399c9115effb0ca15141c6ae30f9a", "type": "electric_scooter", "is_reserved": 0, "lon": -77.02374966666666}, {"fusion_lat": 0.0, "name": "5fd6b869023c978e8c4ac503e11017c8", "is_disabled": 0, "rental_uris": {"android": "https://dc.lft.to/lastmile_qr_scan", "ios": "https://dc.lft.to/lastmile_qr_scan"}, "fusion_lon": 0.0, "lat": 38.89853883333333, "bike_id": "5fd6b869023c978e8c4ac503e11017c8", "type": "electric_bike", "is_reserved": 0, "lon": -76.9319055}, {"fusion_lat": 0.0, "name": "b0df7929d46e295454ed5720bb2abe9c", "is_disabled": 0, "rental_uris": {"android": "https://dc.lft.to/lastmile_qr_scan", "ios": "https://dc.lft.to/lastmile_qr_scan"}, "fusion_lon": 0.0, "lat": 38.94086583333333, "bike_id": "b0df7929d46e295454ed5720bb2abe9c", "type": "electric_scooter", "is_reserved": 0, "lon": -77.06180866666666}, {"fusion_lat": 0.0, "name": "f2776b5b73ece46bb536759f92947905", "is_disabled": 0, "rental_uris": {"android": "https://dc.lft.to/lastmile_qr_scan", "ios": "https://dc.lft.to/lastmile_qr_scan"}, "fusion_lon": 0.0, "lat": 38.90970433333333, "bike_id": "f2776b5b73ece46bb536759f92947905", "type": "electric_scooter", "is_reserved": 0, "lon": -77.02079483333333}, {"fusion_lat": 0.0, "name": "c590a812b66a30d3af5d20950110e4cb", "is_disabled": 0, "rental_uris": {"android": "https://dc.lft.to/lastmile_qr_scan", "ios": "https://dc.lft.to/lastmile_qr_scan"}, "fusion_lon": 0.0, "lat": 38.89845483333333, "bike_id": "c590a812b66a30d3af5d20950110e4cb", "type": "electric_scooter", "is_reserved": 0, "lon": -77.02630383333333}, {"fusion_lat": 0.0, "name": "06e0f1cb1c849eebc2b817549dccceca", "is_disabled": 0, "rental_uris": {"android": "https://dc.lft.to/lastmile_qr_scan", "ios": "https://dc.lft.to/lastmile_qr_scan"}, "fusion_lon": 0.0, "lat": 38.85769533333333, "bike_id": "06e0f1cb1c849eebc2b817549dccceca", "type": "electric_bike", "is_reserved": 0, "lon": -76.98765616666667}, {"fusion_lat": 0.0, "name": "11288ddc579252bbd62040fe806e0c38", "is_disabled": 0, "rental_uris": {"android": "https://dc.lft.to/lastmile_qr_scan", "ios": "https://dc.lft.to/lastmile_qr_scan"}, "fusion_lon": 0.0, "lat": 38.897264666666665, "bike_id": "11288ddc579252bbd62040fe806e0c38", "type": "electric_scooter", "is_reserved": 0, "lon": -77.05525083333333},