{"data": {"bikes": [{"is_disabled": 0, "fusion_lon": 0.0, "fusion_lat": 0.0, "lat": 38.916348666666664, "type": "electric_scooter", "lon": -77.02563766666667, "bike_id": "1418712d134a9a0f50b179b9f95cd759", "rental_uris": {"android": "https://dc.lft.to/lastmile_qr_scan", "ios": "https://dc.lft.to/lastmile_qr_scan"}, "name": "1418712d134a9a0f50b179b9f95cd759", "is_reserved": 0}, {"is_disabled": 0, "fusion_lon": 0.0, "fusion_lat": 0.0, "lat": 38.9175905, "type": "electric_scooter", "lon": -77.00494916666666, "bike_id": "177141305a22af93d13df0648e42e5be", "rental_uris": {"android": "https://dc.lft.to/lastmile_qr_scan", "ios": "https://dc.lft.to/lastmile_qr_scan"}, "name": "177141305a22af93d13df0648e42e5be", "is_reserved": 0}, {"is_disabled": 0, "fusion_lon": 0.0, "fusion_lat": 0.0, "lat": 38.893532, "type": "electric_scooter", "lon": -76.9495055, "bike_id": "ad55c7eead53a85bb4da59d05e96b9c0", "rental_uris": {"android": "https://dc.lft.to/lastmile_qr_scan", "ios": "https://dc.lft.to/lastmile_qr_scan"}, "name": "ad55c7eead53a85bb4da59d05e96b9c0", "is_reserved": 0}, {"is_disabled": 0, "fusion_lon": 0.0, "fusion_lat": 0.0, "lat": 38.949249333333334, "type": "electric_scooter", "lon": -77.01856, "bike_id": "e2157d1999d6a982ed30914677868e65", "rental_uris": {"android": "https://dc.lft.to/lastmile_qr_scan", "ios": "https://dc.lft.to/lastmile_qr_scan"}, "name": "e2157d1999d6a982ed30914677868e65", "is_reserved": 0}, {"is_disabled": 0, "fusion_lon": 0.0, "fusion_lat": 0.0, "lat": 38.92178833333333, "type": "electric_scooter", "lon": -77.0553555, "bike_id": "fcb77ac7deedeb89500b88f01f590e2b", "rental_uris": {"android": "https://dc.lft.to/lastmile_qr_scan", "ios": "https://dc.lft.to/lastmile_qr_scan"}, "name": "fcb77ac7deedeb89500b88f01f590e2b", "is_reserved": 0}, {"is_disabled": 0, "fusion_lon": 0.0, "fusion_lat": 0.0, "lat": 38.88133883333333, "type": "electric_scooter", "lon": -77.01649, "bike_id": "abe688439741ee769e283196715fe3d8", "rental_uris": {"android": "https://dc.lft.to/lastmile_qr_scan", "ios": "https://dc.lft.to/lastmile_qr_scan"}, "name": "abe688439741ee769e283196715fe3d8", "is_reserved": 0}, {"is_disabled": 0, "fusion_lon": 0.0, "fusion_lat": 0.0, "lat": 38.9355215, "type": "electric_scooter", "lon": -77.02860583333333, "bike_id": "3d71b79a21ec74979974d57d00629964", "rental_uris": {"android": "https://dc.lft.to/lastmile_qr_scan", "ios": "https://dc.lft.to/lastmile_qr_scan"}, "name": "3d71b79a21ec74979974d57d00629964", "is_reserved": 0}, {"is_disabled": 0, "fusion_lon": 0.0, "fusion_lat": 0.0, "lat": 38.90013833333333, "type": "electric_scooter", "lon": -77.0437685, "bike_id": "f2ad73eef8449d9566f10eae5b9f7558", "rental_uris": {"android": "https://dc.lft.to/lastmile_qr_scan", "ios": "https://dc.lft.to/lastmile_qr_scan"}, "name": "f2ad73eef8449d9566f10eae5b9f7558", "is_reserved": 0}, {"is_disabled": 0, "fusion_lon": 0.0, "fusion_lat": 0.0, "lat": 38.91483133333333, "type": "electric_scooter", "lon": -77.0329475, "bike_id": "c81f6750a62fed8341136b2672f33a8b", "rental_uris": {"android": "https://dc.lft.to/lastmile_qr_scan", "ios": "https://dc.lft.to/lastmile_qr_scan"}, "name": "c81f6750a62fed8341136b2672f33a8b", "is_reserved": 0}, {"is_disabled": 0, "fusion_lon": 0.0, "fusion_lat": 0.0, "lat": 38.906207, "type": "electric_scooter", "lon": -77.03209366666667, "bike_id": "bbf248db349401bd23cee005e07483ca", "rental_uris": {"android": "https://dc.lft.to/lastmile_qr_scan", "ios": "https://dc.lft.to/lastmile_qr_scan"}, "name": "bbf248db349401bd23cee005e07483ca", "is_reserved": 0}, {"is_disabled": 0, "fusion_lon": 0.0, "fusion_lat": 0.0, "lat": 38.90559783333333, "type": "electric_scooter", "lon": -77.06602583333333, "bike_id": "cfddc4458e094baabd60801c24a7acde", "rental_uris": {"android": "https://dc.lft.to/lastmile_qr_scan", "ios": "https://dc.lft.to/lastmile_qr_scan"}, "name": "cfddc4458e094baabd60801c24a7acde", "is_reserved": 0}, {"is_disabled": 0, "fusion_lon": 0.0, "fusion_lat": 0.0, "lat": 38.9261975, "type": "electric_scooter", "lon": -77.02165166666667, "bike_id": "f72d4d6bccf50965c78e312f3b82c303", "rental_uris": {"android": "https://dc.lft.to/lastmile_qr_scan", "ios": "https://dc.lft.to/lastmile_qr_scan"}, "name": "f72d4d6bccf50965c78e312f3b82c303", "is_reserved": 0}, {"is_disabled": 0, "fusion_lon": 0.0, "fusion_lat": 0.0, "lat": 38.901030166666665, "type": "electric_scooter", "lon": -77.04411816666666, "bike_id": "9e8236ac90d09fbbcc4bcf7e30628206", "rental_uris": {"android": "https://dc.lft.to/lastmile_qr_scan", "ios": "https://dc.lft.to/lastmile_qr_scan"}, "name": "9e8236ac90d09fbbcc4bcf7e30628206", "is_reserved": 0}, {"is_disabled": 0, "fusion_lon": 0.0, "fusion_lat": 0.0, "lat": 38.9014915, "type": "electric_scooter", "lon": -77.059143, "bike_id": "d20a1c6351755c42d169b3f3e995363f", "rental_uris": {"android": "https://dc.lft.to/lastmile_qr_scan", "ios": "https://dc.lft.to/lastmile_qr_scan"}, "name": "d20a1c6351755c42d169b3f3e995363f", "is_reserved": 0}, {"is_disabled": 0, "fusion_lon": 0.0, "fusion_lat": 0.0, "lat": 38.91331016666667, "type": "electric_scooter", "lon": -77.02716633333333, "bike_id": "fe7be84b13017a52cf7ea2ee6013dfff", "rental_uris": {"android": "https://dc.lft.to/lastmile_qr_scan", "ios": "https://dc.lft.to/lastmile_qr_scan"}, "name": "fe7be84b13017a52cf7ea2ee6013dfff", "is_reserved": 0}, {"is_disabled": 0, "fusion_lon": 0.0, "fusion_lat": 0.0, "lat": 38.915489, "type": "electric_scooter", "lon": -77.02952766666667, "bike_id": "418d322ff1bcf69b0997612f576a9a18", "rental_uris": {"android": "https://dc.lft.to/lastmile_qr_scan", "ios": "https://dc.lft.to/lastmile_qr_scan"}, "name": "418d322ff1bcf69b0997612f576a9a18", "is_reserved": 0}, {"is_disabled": 0, "fusion_lon": 0.0, "fusion_lat": 0.0, "lat": 39.0300665, "type": "electric_bike", "lon": -77.10654933333333, "bike_id": "4c4468b17850d15305d90f9ecdd4b7f7", "rental_uris": {"android": "https://dc.lft.to/lastmile_qr_scan", "ios": "https://dc.lft.to/lastmile_qr_scan"}, "name": "4c4468b17850d15305d90f9ecdd4b7f7", "is_reserved": 0}, {"is_disabled": 0, "fusion_lon": 0.0, "fusion_lat": 0.0, "lat": 38.908841, "type": "electric_bike", "lon": -77.0433365, "bike_id": "f8aa485cc706da8d4be6027c0477e59f", "rental_uris": {"android": "https://dc.lft.to/lastmile_qr_scan", "ios": "https://dc.lft.to/lastmile_qr_scan"}, "name": "f8aa485cc706da8d4be6027c0477e59f", "is_reserved": 0}, {"is_disabled": 0, "fusion_lon": 0.0, "fusion_lat": 0.0, "lat": 38.952060833333334, "type": "electric_scooter", "lon": -77.027311, "bike_id": "ea2cf358db2cc1a41a0fad1c5e962edb", "rental_uris": {"android": "https://dc.lft.to/lastmile_qr_scan", "ios": "https://dc.lft.to/lastmile_qr_scan"}, "name": "ea2cf358db2cc1a41a0fad1c5e962edb", "is_reserved": 0}, {"is_disabled": 0, "fusion_lon": 0.0, "fusion_lat": 0.0, "lat": 38.9644895, "type": "electric_bike", "lon": -76.977278, "bike_id": "c1af15c55b9f1f5b678a5229d1e9c382", "rental_uris": {"android": "https://dc.lft.to/lastmile_qr_scan", "ios": "https://dc.lft.to/lastmile_qr_scan"}, "name": "c1af15c55b9f1f5b678a5229d1e9c382", "is_reserved": 0}, {"is_disabled": 0, "fusion_lon": 0.0, "fusion_lat": 0.0, "lat": 38.8990905, "type": "electric_scooter", "lon": -76.933922, "bike_id": "e86e09bb2200b43ad3183e8708e4e73e", "rental_uris": {"android": "https://dc.lft.to/lastmile_qr_scan", "ios": "https://dc.lft.to/lastmile_qr_scan"}, "name": "e86e09bb2200b43ad3183e8708e4e73e", "is_reserved": 0}, {"is_disabled": 0, "fusion_lon": 0.0, "fusion_lat": 0.0, "lat": 38.850936, "type": "electric_bike", "lon": -76.95701566666666, "bike_id": "cd75643c1d6a29e26e0ad7a421a089d3", "rental_uris": {"android": "https://dc.lft.to/lastmile_qr_scan", "ios": "https://dc.lft.to/lastmile_qr_scan"}, "name": "cd75643c1d6a29e26e0ad7a421a089d3", "is_reserved": 0}, {"is_disabled": 0, "fusion_lon": 0.0, "fusion_lat": 0.0, "lat": 38.905788666666666, "type": "electric_scooter", "lon": -77.041903, "bike_id": "1321c8cb0df64e51d0234d5db9d68216", "rental_uris": {"android": "https://dc.lft.to/lastmile_qr_scan", "ios": "https://dc.lft.to/lastmile_qr_scan"}, "name": "1321c8cb0df64e51d0234d5db9d68216", "is_reserved": 0}, {"is_disabled": 0, "fusion_lon": 0.0, "fusion_lat": 0.0, "lat": 38.87855033333334, "type": "electric_scooter", "lon": -77.0079335, "bike_id": "5cfd978f0879a3e35b13e6a7e5ed318f", "rental_uris": {"android": "https://dc.lft.to/lastmile_qr_scan", "ios": "https://dc.lft.to/lastmile_qr_scan"}, "name": "5cfd978f0879a3e35b13e6a7e5ed318f", "is_reserved": 0}, {"is_disabled": 0, "fusion_lon": 0.0, "fusion_lat": 0.0, "lat": 38.9002435, "type": "electric_scooter", "lon": -77.00475516666667, "bike_id": "170ca30c24e9670d49fbb817815f0c52", "rental_uris": {"android": "https://dc.lft.to/lastmile_qr_scan", "ios": "https://dc.lft.to/lastmile_qr_scan"}, "name": "170ca30c24e9670d49fbb817815f0c52", "is_reserved": 0}, {"is_disabled": 0, "fusion_lon": 0.0, "fusion_lat": 0.0, "lat": 38.942762333333334, "type": "electric_scooter", "lon": -77.03263466666667, "bike_id": "ceed235db07906c2eec98689aa0e14e4", "rental_uris": {"android": "https://dc.lft.to/lastmile_qr_scan", "ios": "https://dc.lft.to/lastmile_qr_scan"}, "name": "ceed235db07906c2eec98689aa0e14e4", "is_reserved": 0}, {"is_disabled": 0, "fusion_lon": 0.0, "fusion_lat": 0.0, "lat": 38.93322783333333, "type": "electric_scooter", "lon": -77.029309, "bike_id": "f82ffa9de1f2efc9be23a7aa01f19064", "rental_uris": {"android": "https://dc.lft.to/lastmile_qr_scan", "ios": "https://dc.lft.to/lastmile_qr_scan"}, "name": "f82ffa9de1f2efc9be23a7aa01f19064", "is_reserved": 0}, {"is_disabled": 0, "fusion_lon": 0.0, "fusion_lat": 0.0, "lat": 38.9420405, "type": "electric_scooter", "lon": -77.02582166666667, "bike_id": "68deb95d8bd178fc12cd7277bf80019f", "rental_uris": {"android": "https://dc.lft.to/lastmile_qr_scan", "ios": "https://dc.lft.to/lastmile_qr_scan"}, "name": "68deb95d8bd178fc12cd7277bf80019f", "is_reserved": 0}, {"is_disabled": 0, "fusion_lon": 0.0, "fusion_lat": 0.0, "lat": 38.89252533333333, "type": "electric_scooter", "lon": -77.04892883333333, "bike_id": "9f5e66a5aa892c8df62119be7401fe73", "rental_uris": {"android": "https://dc.lft.to/lastmile_qr_scan", "ios": "https://dc.lft.to/lastmile_qr_scan"}, "name": "9f5e66a5aa892c8df62119be7401fe73", "is_reserved": 0}, {"is_disabled": 0, "fusion_lon": 0.0, "fusion_lat": 0.0, "lat": 38.9098215, "type": "electric_scooter", "lon": -77.03194033333334, "bike_id": "63ea82f3b87db38b922bda22f937ce86", "rental_uris": {"android": "https://dc.lft.to/lastmile_qr_scan", "ios": "https://dc.lft.to/lastmile_qr_scan"}, "name": "63ea82f3b87db38b922bda22f937ce86", "is_reserved": 0}, {"is_disabled": 0, "fusion_lon": 0.0, "fusion_lat": 0.0, "lat": 38.909656166666664, "type": "electric_scooter", "lon": -77.04457966666666, "bike_id": "36764c8bb863d46bd0398da0b6eb427d", "rental_uris": {"android": "https://dc.lft.to/lastmile_qr_scan", "ios": "https://dc.lft.to/lastmile_qr_scan"}, "name": "36764c8bb863d46bd0398da0b6eb427d", "is_reserved": 0}, {"is_disabled": 0, "fusion_lon": 0.0, "fusion_lat": 0.0, "lat": 38.95215733333333, "type": "electric_scooter", "lon": -77.00343033333333, "bike_id": "f75ea11147702772cb572626d11d21a7", "rental_uris": {"android": "https://dc.lft.to/lastmile_qr_scan", "ios": "https://dc.lft.to/lastmile_qr_scan"}, "name": "f75ea11147702772cb572626d11d21a7", "is_reserved": 0}, {"is_disabled": 0, "fusion_lon": 0.0, "fusion_lat": 0.0, "lat": 38.968354833333336, "type": "electric_scooter", "lon": -77.01518283333333, "bike_id": "6ab7f735f54f6857ba41c78d8c5dae67", "rental_uris": {"android": "https://dc.lft.to/lastmile_qr_scan", "ios": "https://dc.lft.to/lastmile_qr_scan"}, "name": "6ab7f735f54f6857ba41c78d8c5dae67", "is_reserved": 0}, {"is_disabled": 0, "fusion_lon": 0.0, "fusion_lat": 0.0, "lat": 38.92893433333333, "type": "electric_scooter", "lon": -77.03251566666667, "bike_id": "0a24873b8f2deee1552ff122e690cdf7", "rental_uris": {"android": "https://dc.lft.to/lastmile_qr_scan", "ios": "https://dc.lft.to/lastmile_qr_scan"}, "name": "0a24873b8f2deee1552ff122e690cdf7", "is_reserved": 0}, {"is_disabled": 0, "fusion_lon": 0.0, "fusion_lat": 0.0, "lat": 38.9146585, "type": "electric_scooter", "lon": -76.9844745, "bike_id": "800c773e7eb763e4e1d9d717071bf3df", "rental_uris": {"android": "https://dc.lft.to/lastmile_qr_scan", "ios": "https://dc.lft.to/lastmile_qr_scan"}, "name": "800c773e7eb763e4e1d9d717071bf3df", "is_reserved": 0}, {"is_disabled": 0, "fusion_lon": 0.0, "fusion_lat": 0.0, "lat": 38.9180255, "type": "electric_scooter", "lon": -77.03443033333333, "bike_id": "dd24316bb0da37a26dde8d079aed9edd", "rental_uris": {"android": "https://dc.lft.to/lastmile_qr_scan", "ios": "https://dc.lft.to/lastmile_qr_scan"}, "name": "dd24316bb0da37a26dde8d079aed9edd", "is_reserved": 0}, {"is_disabled": 0, "fusion_lon": 0.0, "fusion_lat": 0.0, "lat": 38.935345, "type": "electric_scooter", "lon": -77.02069683333333, "bike_id": "2e8f36737840b7336aefd59a7b6434d9", "rental_uris": {"android": "https://dc.lft.to/lastmile_qr_scan", "ios": "https://dc.lft.to/lastmile_qr_scan"}, "name": "2e8f36737840b7336aefd59a7b6434d9", "is_reserved": 0}, {"is_disabled": 0, "fusion_lon": 0.0, "fusion_lat": 0.0, "lat": 38.892273833333334, "type": "electric_scooter", "lon": -77.0401905, "bike_id": "5d417f95053bec89d56d4db80c2251e4", "rental_uris": {"android": "https://dc.lft.to/lastmile_qr_scan", "ios": "https://dc.lft.to/lastmile_qr_scan"}, "name": "5d417f95053bec89d56d4db80c2251e4", "is_reserved": 0}, {"is_disabled": 0, "fusion_lon": 0.0, "fusion_lat": 0.0, "lat": 38.9016345, "type": "electric_scooter", "lon": -77.02603116666667, "bike_id": "d6daeffa003feee955d3c5e23dfee87b", "rental_uris": {"android": "https://dc.lft.to/lastmile_qr_scan", "ios": "https://dc.lft.to/lastmile_qr_scan"}, "name": "d6daeffa003feee955d3c5e23dfee87b", "is_reserved": 0}, {"is_disabled": 0, "fusion_lon": 0.0, "fusion_lat": 0.0, "lat": 38.895302, "type": "electric_scooter", "lon": -77.0281795, "bike_id": "a3edd740e976054925e657c712c45afa", "rental_uris": {"android": "https://dc.lft.to/lastmile_qr_scan", "ios": "https://dc.lft.to/lastmile_qr_scan"}, "name": "a3edd740e976054925e657c712c45afa", "is_reserved": 0}, {"is_disabled": 0, "fusion_lon": 0.0, "fusion_lat": 0.0, "lat": 38.89647683333333, "type": "electric_scooter", "lon": -77.05115283333333, "bike_id": "11b7087d26f070862db5af7ac85eccc2", "rental_uris": {"android": "https://dc.lft.to/lastmile_qr_scan", "ios": "https://dc.lft.to/lastmile_qr_scan"}, "name": "11b7087d26f070862db5af7ac85eccc2", "is_reserved": 0}, {"is_disabled": 0, "fusion_lon": 0.0, "fusion_lat": 0.0, "lat": 38.90974516666667, "type": "electric_scooter", "lon": -77.0677025, "bike_id": "071f383863bcd4b54bcc4a57fdf1fd35", "rental_uris": {"android": "https://dc.lft.to/lastmile_qr_scan", "ios": "https://dc.lft.to/lastmile_qr_scan"}, "name": "071f383863bcd4b54bcc4a57fdf1fd35", "is_reserved": 0}, {"is_disabled": 0, "fusion_lon": 0.0, "fusion_lat": 0.0, "lat": 38.910259333333336, "type": "electric_scooter", "lon": -77.0076545, "bike_id": "bba3ac90bf21b7fa24c3653157fb59b6", "rental_uris": {"android": "https://dc.lft.to/lastmile_qr_scan", "ios": "https://dc.lft.to/lastmile_qr_scan"}, "name": "bba3ac90bf21b7fa24c3653157fb59b6", "is_reserved": 0}, {"is_disabled": 0, "fusion_lon": 0.0, "fusion_lat": 0.0, "lat": 38.95650533333333, "type": "electric_scooter", "lon": -77.0328865, "bike_id": "19efc5988e6455a54aa769bc8ce24eb9", "rental_uris": {"android": "https://dc.lft.to/lastmile_qr_scan", "ios": "https://dc.lft.to/lastmile_qr_scan"}, "name": "19efc5988e6455a54aa769bc8ce24eb9", "is_reserved": 0}, {"is_disabled": 0, "fusion_lon": 0.0, "fusion_lat": 0.0, "lat": 38.96217983333333, "type": "electric_scooter", "lon": -77.02799766666666, "bike_id": "86e38d2529495cb86f504b36070e89f4", "rental_uris": {"android": "https://dc.lft.to/lastmile_qr_scan", "ios": "https://dc.lft.to/lastmile_qr_scan"}, "name": "86e38d2529495cb86f504b36070e89f4", "is_reserved": 0}, {"is_disabled": 0, "fusion_lon": 0.0, "fusion_lat": 0.0, "lat": 38.9909135, "type": "electric_bike", "lon": -76.87496716666666, "bike_id": "cd2a7e375a11da6485c74d7df929d15b", "rental_uris": {"android": "https://dc.lft.to/lastmile_qr_scan", "ios": "https://dc.lft.to/lastmile_qr_scan"}, "name": "cd2a7e375a11da6485c74d7df929d15b", "is_reserved": 0}, {"is_disabled": 0, "fusion_lon": 0.0, "fusion_lat": 0.0, "lat": 38.90100483333333, "type": "electric_scooter", "lon": -77.04878066666667, "bike_id": "5c2ec95fc5a5bee7889c9a799b8f3c26", "rental_uris": {"android": "https://dc.lft.to/lastmile_qr_scan", "ios": "https://dc.lft.to/lastmile_qr_scan"}, "name": "5c2ec95fc5a5bee7889c9a799b8f3c26", "is_reserved": 0}, {"is_disabled": 0, "fusion_lon": 0.0, "fusion_lat": 0.0, "lat": 38.876274, "type": "electric_scooter", "lon": -76.96540816666666, "bike_id": "035d8a42f23674e9c27bbeed32c639fa", "rental_uris": {"android": "https://dc.lft.to/lastmile_qr_scan", "ios": "https://dc.lft.to/lastmile_qr_scan"}, "name": "035d8a42f23674e9c27bbeed32c639fa", "is_reserved": 0}, {"is_disabled": 0, "fusion_lon": 0.0, "fusion_lat": 0.0, "lat": 38.883921, "type": "electric_scooter", "lon": -77.02602883333333, "bike_id": "626831e1cf69cc88b224a13223ad1ecd", "rental_uris": {"android": "https://dc.lft.to/lastmile_qr_scan", "ios": "https://dc.lft.to/lastmile_qr_scan"}, "name": "626831e1cf69cc88b224a13223ad1ecd", "is_reserved": 0}, {"is_disabled": 0, "fusion_lon": 0.0, "fusion_lat": 0.0, "lat": 38.92652283333334, "type": "electric_scooter", "lon": -77.03721166666666, "bike_id": "bea071b0b3d4820cb5ddbcf30115c9a6", "rental_uris": {"android": "https://dc.lft.to/lastmile_qr_scan", "ios": "https://dc.lft.to/lastmile_qr_scan"}, "name": "bea071b0b3d4820cb5ddbcf30115c9a6", "is_reserved": 0}, {"is_disabled": 0, "fusion_lon": 0.0, "fusion_lat": 0.0, "lat": 38.89223466666667, "type": "electric_scooter", "lon": -77.02222533333334, "bike_id": "77811b35c4372ad341289ed096e3fcd2", "rental_uris": {"android": "https://dc.lft.to/lastmile_qr_scan", "ios": "https://dc.lft.to/lastmile_qr_scan"}, "name": "77811b35c4372ad341289ed096e3fcd2", "is_reserved": 0}, {"is_disabled": 0, "fusion_lon": 0.0, "fusion_lat": 0.0, "lat": 38.87660916666667, "type": "electric_scooter", "lon": -77.00938816666667, "bike_id": "c92850b8342a80e092c96dc069d69aff", "rental_uris": {"android": "https://dc.lft.to/lastmile_qr_scan", "ios": "https://dc.lft.to/lastmile_qr_scan"}, "name": "c92850b8342a80e092c96dc069d69aff", "is_reserved": 0}, {"is_disabled": 0, "fusion_lon": 0.0, "fusion_lat": 0.0, "lat": 38.908996333333334, "type": "electric_scooter", "lon": -76.99867166666667, "bike_id": "b9fd258e84938c7b2449ab0e4cd36cfc", "rental_uris": {"android": "https://dc.lft.to/lastmile_qr_scan", "ios": "https://dc.lft.to/lastmile_qr_scan"}, "name": "b9fd258e84938c7b2449ab0e4cd36cfc", "is_reserved": 0}, {"is_disabled": 0, "fusion_lon": 0.0, "fusion_lat": 0.0, "lat": 38.90751516666667, "type": "electric_scooter", "lon": -76.99871183333333, "bike_id": "fad22112094284a991ccc1502f4f357a", "rental_uris": {"android": "https://dc.lft.to/lastmile_qr_scan", "ios": "https://dc.lft.to/lastmile_qr_scan"}, "name": "fad22112094284a991ccc1502f4f357a", "is_reserved": 0}, {"is_disabled": 0, "fusion_lon": 0.0, "fusion_lat": 0.0, "lat": 38.92583583333333, "type": "electric_scooter", "lon": -77.03211433333334, "bike_id": "71afe023c84f553c833791aaf701b44a", "rental_uris": {"android": "https://dc.lft.to/lastmile_qr_scan", "ios": "https://dc.lft.to/lastmile_qr_scan"}, "name": "71afe023c84f553c833791aaf701b44a", "is_reserved": 0}, {"is_disabled": 0, "fusion_lon": 0.0, "fusion_lat": 0.0, "lat": 38.988262666666664, "type": "electric_bike", "lon": -76.98752333333333, "bike_id": "605348493700a3287df87bb9117fc694", "rental_uris": {"android": "https://dc.lft.to/lastmile_qr_scan", "ios": "https://dc.lft.to/lastmile_qr_scan"}, "name": "605348493700a3287df87bb9117fc694", "is_reserved": 0}, {"is_disabled": 0, "fusion_lon": 0.0, "fusion_lat": 0.0, "lat": 38.901809666666665, "type": "electric_scooter", "lon": -77.05322016666666, "bike_id": "972cf30395f02113fb6afe6ba26faf25", "rental_uris": {"android": "https://dc.lft.to/lastmile_qr_scan", "ios": "https://dc.lft.to/lastmile_qr_scan"}, "name": "972cf30395f02113fb6afe6ba26faf25", "is_reserved": 0}, {"is_disabled": 0, "fusion_lon": 0.0, "fusion_lat": 0.0, "lat": 38.92751283333333, "type": "electric_scooter", "lon": -77.03359066666667, "bike_id": "4a6ef3e7b60e92c85251281e413987b4", "rental_uris": {"android": "https://dc.lft.to/lastmile_qr_scan", "ios": "https://dc.lft.to/lastmile_qr_scan"}, "name": "4a6ef3e7b60e92c85251281e413987b4", "is_reserved": 0}, {"is_disabled": 0, "fusion_lon": 0.0, "fusion_lat": 0.0, "lat": 38.8828485, "type": "electric_scooter", "lon": -76.98781666666666, "bike_id": "9a12a58c743ae8e193e5308b1b7020a2", "rental_uris": {"android": "https://dc.lft.to/lastmile_qr_scan", "ios": "https://dc.lft.to/lastmile_qr_scan"}, "name": "9a12a58c743ae8e193e5308b1b7020a2", "is_reserved": 0}, {"is_disabled": 0, "fusion_lon": 0.0, "fusion_lat": 0.0, "lat": 38.9258275, "type": "electric_scooter", "lon": -76.99498366666667, "bike_id": "8ab59c773a6a6fec22b8956967e9aa86", "rental_uris": {"android": "https://dc.lft.to/lastmile_qr_scan", "ios": "https://dc.lft.to/lastmile_qr_scan"}, "name": "8ab59c773a6a6fec22b8956967e9aa86", "is_reserved": 0}, {"is_disabled": 0, "fusion_lon": 0.0, "fusion_lat": 0.0, "lat": 38.941989166666666, "type": "electric_scooter", "lon": -77.025784, "bike_id": "145f89dae5fd67627027db2f4ab6396a", "rental_uris": {"android": "https://dc.lft.to/lastmile_qr_scan", "ios": "https://dc.lft.to/lastmile_qr_scan"}, "name": "145f89dae5fd67627027db2f4ab6396a", "is_reserved": 0}, {"is_disabled": 0, "fusion_lon": 0.0, "fusion_lat": 0.0, "lat": 38.9193855, "type": "electric_scooter", "lon": -77.0259385, "bike_id": "f8f649eabed012f54bdaff753abe97a9", "rental_uris": {"android": "https://dc.lft.to/lastmile_qr_scan", "ios": "https://dc.lft.to/lastmile_qr_scan"}, "name": "f8f649eabed012f54bdaff753abe97a9", "is_reserved": 0}, {"is_disabled": 0, "fusion_lon": 0.0, "fusion_lat": 0.0, "lat": 38.941973, "type": "electric_scooter", "lon": -77.02580216666667, "bike_id": "eaea31c3030a12c2b942cd8f63014bfc", "rental_uris": {"android": "https://dc.lft.to/lastmile_qr_scan", "ios": "https://dc.lft.to/lastmile_qr_scan"}, "name": "eaea31c3030a12c2b942cd8f63014bfc", "is_reserved": 0}, {"is_disabled": 0, "fusion_lon": 0.0, "fusion_lat": 0.0, "lat": 38.844315, "type": "electric_scooter", "lon": -76.99780416666667, "bike_id": "06c73c0bd702afb15b34fa7305dc5fd2", "rental_uris": {"android": "https://dc.lft.to/lastmile_qr_scan", "ios": "https://dc.lft.to/lastmile_qr_scan"}, "name": "06c73c0bd702afb15b34fa7305dc5fd2", "is_reserved": 0}, {"is_disabled": 0, "fusion_lon": 0.0, "fusion_lat": 0.0, "lat": 38.88503383333333, "type": "electric_scooter", "lon": -77.00722933333333, "bike_id": "7c775a88298873014c6350287fd147e9", "rental_uris": {"android": "https://dc.lft.to/lastmile_qr_scan", "ios": "https://dc.lft.to/lastmile_qr_scan"}, "name": "7c775a88298873014c6350287fd147e9", "is_reserved": 0}, {"is_disabled": 0, "fusion_lon": 0.0, "fusion_lat": 0.0, "lat": 38.93256066666667, "type": "electric_scooter", "lon": -77.03286483333333, "bike_id": "b5ea99be7b4e1cc374c884b1e62b5cea", "rental_uris": {"android": "https://dc.lft.to/lastmile_qr_scan", "ios": "https://dc.lft.to/lastmile_qr_scan"}, "name": "b5ea99be7b4e1cc374c884b1e62b5cea", "is_reserved": 0}, {"is_disabled": 0, "fusion_lon": 0.0, "fusion_lat": 0.0, "lat": 38.884986833333336, "type": "electric_scooter", "lon": -77.0071115, "bike_id": "88224fdf703a6be7a4803ab609d00cd3", "rental_uris": {"android": "https://dc.lft.to/lastmile_qr_scan", "ios": "https://dc.lft.to/lastmile_qr_scan"}, "name": "88224fdf703a6be7a4803ab609d00cd3", "is_reserved": 0}, {"is_disabled": 0, "fusion_lon": 0.0, "fusion_lat": 0.0, "lat": 38.895058, "type": "electric_scooter", "lon": -76.94881783333334, "bike_id": "fbcc18e75ca70b09feca2b527a3f8921", "rental_uris": {"android": "https://dc.lft.to/lastmile_qr_scan", "ios": "https://dc.lft.to/lastmile_qr_scan"}, "name": "fbcc18e75ca70b09feca2b527a3f8921", "is_reserved": 0}, {"is_disabled": 0, "fusion_lon": 0.0, "fusion_lat": 0.0, "lat": 38.909506666666665, "type": "electric_scooter", "lon": -76.998907, "bike_id": "17b3cf63453d9e5895b0921ba2b9bebb", "rental_uris": {"android": "https://dc.lft.to/lastmile_qr_scan", "ios": "https://dc.lft.to/lastmile_qr_scan"}, "name": "17b3cf63453d9e5895b0921ba2b9bebb", "is_reserved": 0}, {"is_disabled": 0, "fusion_lon": 0.0, "fusion_lat": 0.0, "lat": 38.85868516666667, "type": "electric_scooter", "lon": -76.99022933333333, "bike_id": "1d264827df89675054eba4cd66f71519", "rental_uris": {"android": "https://dc.lft.to/lastmile_qr_scan", "ios": "https://dc.lft.to/lastmile_qr_scan"}, "name": "1d264827df89675054eba4cd66f71519", "is_reserved": 0}, {"is_disabled": 0, "fusion_lon": 0.0, "fusion_lat": 0.0, "lat": 38.899045, "type": "electric_scooter", "lon": -77.033411, "bike_id": "b2e7646e2faf9316a0ae98112f7a7914", "rental_uris": {"android": "https://dc.lft.to/lastmile_qr_scan", "ios": "https://dc.lft.to/lastmile_qr_scan"}, "name": "b2e7646e2faf9316a0ae98112f7a7914", "is_reserved": 0}, {"is_disabled": 0, "fusion_lon": 0.0, "fusion_lat": 0.0, "lat": 38.90080416666667, "type": "electric_scooter", "lon": -77.00217316666667, "bike_id": "41eaecb56985f876be065c791c22ecaf", "rental_uris": {"android": "https://dc.lft.to/lastmile_qr_scan", "ios": "https://dc.lft.to/lastmile_qr_scan"}, "name": "41eaecb56985f876be065c791c22ecaf", "is_reserved": 0}, {"is_disabled": 0, "fusion_lon": 0.0, "fusion_lat": 0.0, "lat": 38.912540666666665, "type": "electric_scooter", "lon": -77.044378, "bike_id": "4074bee1ee85a6bbacf26ac8ae4c7721", "rental_uris": {"android": "https://dc.lft.to/lastmile_qr_scan", "ios": "https://dc.lft.to/lastmile_qr_scan"}, "name": "4074bee1ee85a6bbacf26ac8ae4c7721", "is_reserved": 0}, {"is_disabled": 0, "fusion_lon": 0.0, "fusion_lat": 0.0, "lat": 38.94041566666667, "type": "electric_scooter", "lon": -77.02904116666667, "bike_id": "ffea5b3bca11bc9e67db7704340fcc7c", "rental_uris": {"android": "https://dc.lft.to/lastmile_qr_scan", "ios": "https://dc.lft.to/lastmile_qr_scan"}, "name": "ffea5b3bca11bc9e67db7704340fcc7c", "is_reserved": 0}, {"is_disabled": 0, "fusion_lon": 0.0, "fusion_lat": 0.0, "lat": 38.9261645, "type": "electric_scooter", "lon": -77.021634, "bike_id": "6f8f87a1ae9653dd9e9abaffcf657164", "rental_uris": {"android": "https://dc.lft.to/lastmile_qr_scan", "ios": "https://dc.lft.to/lastmile_qr_scan"}, "name": "6f8f87a1ae9653dd9e9abaffcf657164", "is_reserved": 0}, {"is_disabled": 0, "fusion_lon": 0.0, "fusion_lat": 0.0, "lat": 38.9169065, "type": "electric_scooter", "lon": -77.0377775, "bike_id": "3ed5131d97c47ae2e46344e4995978d8", "rental_uris": {"android": "https://dc.lft.to/lastmile_qr_scan", "ios": "https://dc.lft.to/lastmile_qr_scan"}, "name": "3ed5131d97c47ae2e46344e4995978d8", "is_reserved": 0}, {"is_disabled": 0, "fusion_lon": 0.0, "fusion_lat": 0.0, "lat": 38.921824666666666, "type": "electric_scooter", "lon": -77.04234016666666, "bike_id": "f35b86d0b992c98a6127ed24ca318a28", "rental_uris": {"android": "https://dc.lft.to/lastmile_qr_scan", "ios": "https://dc.lft.to/lastmile_qr_scan"}, "name": "f35b86d0b992c98a6127ed24ca318a28", "is_reserved": 0}, {"is_disabled": 0, "fusion_lon": 0.0, "fusion_lat": 0.0, "lat": 38.912747, "type": "electric_scooter", "lon": -77.0418015, "bike_id": "490e47b332409b221f88d48f5c850bb1", "rental_uris": {"android": "https://dc.lft.to/lastmile_qr_scan", "ios": "https://dc.lft.to/lastmile_qr_scan"}, "name": "490e47b332409b221f88d48f5c850bb1", "is_reserved": 0}, {"is_disabled": 0, "fusion_lon": 0.0, "fusion_lat": 0.0, "lat": 38.8937315, "type": "electric_scooter", "lon": -76.978162, "bike_id": "87630eaf9456d373c61d2fbcb4ddb80f", "rental_uris": {"android": "https://dc.lft.to/lastmile_qr_scan", "ios": "https://dc.lft.to/lastmile_qr_scan"}, "name": "87630eaf9456d373c61d2fbcb4ddb80f", "is_reserved": 0}, {"is_disabled": 0, "fusion_lon": 0.0, "fusion_lat": 0.0, "lat": 38.960332, "type": "electric_bike", "lon": -76.92718816666667, "bike_id": "78964af82b4de8fd9b931afa5c13f262", "rental_uris": {"android": "https://dc.lft.to/lastmile_qr_scan", "ios": "https://dc.lft.to/lastmile_qr_scan"}, "name": "78964af82b4de8fd9b931afa5c13f262", "is_reserved": 0}, {"is_disabled": 0, "fusion_lon": 0.0, "fusion_lat": 0.0, "lat": 38.919861833333336, "type": "electric_scooter", "lon": -76.97313, "bike_id": "e618c7f786f5ed3f85de8b4746b5246b", "rental_uris": {"android": "https://dc.lft.to/lastmile_qr_scan", "ios": "https://dc.lft.to/lastmile_qr_scan"}, "name": "e618c7f786f5ed3f85de8b4746b5246b", "is_reserved": 0}, {"is_disabled": 0, "fusion_lon": 0.0, "fusion_lat": 0.0, "lat": 38.8923775, "type": "electric_scooter", "lon": -77.02179266666667, "bike_id": "4f8b79196838b3f50d92ff6a3cdc83f0", "rental_uris": {"android": "https://dc.lft.to/lastmile_qr_scan", "ios": "https://dc.lft.to/lastmile_qr_scan"}, "name": "4f8b79196838b3f50d92ff6a3cdc83f0", "is_reserved": 0}, {"is_disabled": 0, "fusion_lon": 0.0, "fusion_lat": 0.0, "lat": 38.923695333333335, "type": "electric_scooter", "lon": -77.08068583333333, "bike_id": "5b7497be3ee074b5842dea50985ab0cf", "rental_uris": {"android": "https://dc.lft.to/lastmile_qr_scan", "ios": "https://dc.lft.to/lastmile_qr_scan"}, "name": "5b7497be3ee074b5842dea50985ab0cf", "is_reserved": 0}, {"is_disabled": 0, "fusion_lon": 0.0, "fusion_lat": 0.0, "lat": 38.90642883333334, "type": "electric_scooter", "lon": -77.023863, "bike_id": "a0a7e642fdb857744fd957890748d24a", "rental_uris": {"android": "https://dc.lft.to/lastmile_qr_scan", "ios": "https://dc.lft.to/lastmile_qr_scan"}, "name": "a0a7e642fdb857744fd957890748d24a", "is_reserved": 0}, {"is_disabled": 0, "fusion_lon": 0.0, "fusion_lat": 0.0, "lat": 38.88436183333334, "type": "electric_scooter", "lon": -77.02968, "bike_id": "0d9a29d9a46652d15104361a48ed956f", "rental_uris": {"android": "https://dc.lft.to/lastmile_qr_scan", "ios": "https://dc.lft.to/lastmile_qr_scan"}, "name": "0d9a29d9a46652d15104361a48ed956f", "is_reserved": 0}, {"is_disabled": 0, "fusion_lon": 0.0, "fusion_lat": 0.0, "lat": 38.9067445, "type": "electric_scooter", "lon": -77.06227333333334, "bike_id": "99fc7c27445a5ad392e5d9bb5debffff", "rental_uris": {"android": "https://dc.lft.to/lastmile_qr_scan", "ios": "https://dc.lft.to/lastmile_qr_scan"}, "name": "99fc7c27445a5ad392e5d9bb5debffff", "is_reserved": 0}, {"is_disabled": 0, "fusion_lon": 0.0, "fusion_lat": 0.0, "lat": 38.8861645, "type": "electric_scooter", "lon": -77.00581366666667, "bike_id": "fc25efd5ad7a33dee55bce794282a742", "rental_uris": {"android": "https://dc.lft.to/lastmile_qr_scan", "ios": "https://dc.lft.to/lastmile_qr_scan"}, "name": "fc25efd5ad7a33dee55bce794282a742", "is_reserved": 0}, {"is_disabled": 0, "fusion_lon": 0.0, "fusion_lat": 0.0, "lat": 38.8849465, "type": "electric_scooter", "lon": -77.00711133333333, "bike_id": "d5c73bfca4ecb7bceefb656d0bd7fafe", "rental_uris": {"android": "https://dc.lft.to/lastmile_qr_scan", "ios": "https://dc.lft.to/lastmile_qr_scan"}, "name": "d5c73bfca4ecb7bceefb656d0bd7fafe", "is_reserved": 0}, {"is_disabled": 0, "fusion_lon": 0.0, "fusion_lat": 0.0, "lat": 38.9358305, "type": "electric_scooter", "lon": -77.0244585, "bike_id": "f239a52d08180363b8478cc799f7ddd3", "rental_uris": {"android": "https://dc.lft.to/lastmile_qr_scan", "ios": "https://dc.lft.to/lastmile_qr_scan"}, "name": "f239a52d08180363b8478cc799f7ddd3", "is_reserved": 0}, {"is_disabled": 0, "fusion_lon": 0.0, "fusion_lat": 0.0, "lat": 38.899604833333335, "type": "electric_scooter", "lon": -77.05151166666667, "bike_id": "849920607573d375df2ab87f91d62440", "rental_uris": {"android": "https://dc.lft.to/lastmile_qr_scan", "ios": "https://dc.lft.to/lastmile_qr_scan"}, "name": "849920607573d375df2ab87f91d62440", "is_reserved": 0}, {"is_disabled": 0, "fusion_lon": 0.0, "fusion_lat": 0.0, "lat": 38.856522166666664, "type": "electric_bike", "lon": -77.08530083333333, "bike_id": "44f5612e3d058b8f2da42921115f7e35", "rental_uris": {"android": "https://dc.lft.to/lastmile_qr_scan", "ios": "https://dc.lft.to/lastmile_qr_scan"}, "name": "44f5612e3d058b8f2da42921115f7e35", "is_reserved": 0}, {"is_disabled": 0, "fusion_lon": 0.0, "fusion_lat": 0.0, "lat": 38.87055983333333, "type": "electric_scooter", "lon": -76.98087466666667, "bike_id": "3bfcdcfc5a4ad979562fb94c6ae65eae", "rental_uris": {"android": "https://dc.lft.to/lastmile_qr_scan", "ios": "https://dc.lft.to/lastmile_qr_scan"}, "name": "3bfcdcfc5a4ad979562fb94c6ae65eae", "is_reserved": 0}, {"is_disabled": 0, "fusion_lon": 0.0, "fusion_lat": 0.0, "lat": 38.90129433333333, "type": "electric_scooter", "lon": -77.04890783333333, "bike_id": "26bb2f582c070ad67868fa12e783d25f", "rental_uris": {"android": "https://dc.lft.to/lastmile_qr_scan", "ios": "https://dc.lft.to/lastmile_qr_scan"}, "name": "26bb2f582c070ad67868fa12e783d25f", "is_reserved": 0}, {"is_disabled": 0, "fusion_lon": 0.0, "fusion_lat": 0.0, "lat": 38.90511933333333, "type": "electric_scooter", "lon": -77.0601925, "bike_id": "6e096eae308fb44560aab71e69bd8613", "rental_uris": {"android": "https://dc.lft.to/lastmile_qr_scan", "ios": "https://dc.lft.to/lastmile_qr_scan"}, "name": "6e096eae308fb44560aab71e69bd8613", "is_reserved": 0}, {"is_disabled": 0, "fusion_lon": 0.0, "fusion_lat": 0.0, "lat": 38.95637283333333, "type": "electric_scooter", "lon": -77.091006, "bike_id": "65cd81b50acbdcb615326886028f4159", "rental_uris": {"android": "https://dc.lft.to/lastmile_qr_scan", "ios": "https://dc.lft.to/lastmile_qr_scan"}, "name": "65cd81b50acbdcb615326886028f4159", "is_reserved": 0}, {"is_disabled": 0, "fusion_lon": 0.0, "fusion_lat": 0.0, "lat": 38.892267833333335, "type": "electric_scooter", "lon": -77.04713133333334, "bike_id": "e058b57cfa989e3b9d2618dcf100931f", "rental_uris": {"android": "https://dc.lft.to/lastmile_qr_scan", "ios": "https://dc.lft.to/lastmile_qr_scan"}, "name": "e058b57cfa989e3b9d2618dcf100931f", "is_reserved": 0}, {"is_disabled": 0, "fusion_lon": 0.0, "fusion_lat": 0.0, "lat": 38.9374585, "type": "electric_scooter", "lon": -77.02715066666667, "bike_id": "07229af5b35d96cee7e4f95f1c6c9707", "rental_uris": {"android": "https://dc.lft.to/lastmile_qr_scan", "ios": "https://dc.lft.to/lastmile_qr_scan"}, "name": "07229af5b35d96cee7e4f95f1c6c9707", "is_reserved": 0}, {"is_disabled": 0, "fusion_lon": 0.0, "fusion_lat": 0.0, "lat": 38.898405833333335, "type": "electric_scooter", "lon": -76.946367, "bike_id": "2f8b6fb6f640b3d8b22ce359adac6204", "rental_uris": {"android": "https://dc.lft.to/lastmile_qr_scan", "ios": "https://dc.lft.to/lastmile_qr_scan"}, "name": "2f8b6fb6f640b3d8b22ce359adac6204", "is_reserved": 0}, {"is_disabled": 0, "fusion_lon": 0.0, "fusion_lat": 0.0, "lat": 38.918198, "type": "electric_scooter", "lon": -77.01084166666666, "bike_id": "ec80dd742888a96277987992d44f962d", "rental_uris": {"android": "https://dc.lft.to/lastmile_qr_scan", "ios": "https://dc.lft.to/lastmile_qr_scan"}, "name": "ec80dd742888a96277987992d44f962d", "is_reserved": 0}, {"is_disabled": 0, "fusion_lon": 0.0, "fusion_lat": 0.0, "lat": 38.913883166666665, "type": "electric_scooter", "lon": -77.02983016666667, "bike_id": "7327b5074015783c8d17fba44985de28", "rental_uris": {"android": "https://dc.lft.to/lastmile_qr_scan", "ios": "https://dc.lft.to/lastmile_qr_scan"}, "name": "7327b5074015783c8d17fba44985de28", "is_reserved": 0}, {"is_disabled": 0, "fusion_lon": 0.0, "fusion_lat": 0.0, "lat": 38.849350666666666, "type": "electric_bike", "lon": -77.10013316666667, "bike_id": "778e9eb098349733617c60f1ec7cd5df", "rental_uris": {"android": "https://dc.lft.to/lastmile_qr_scan", "ios": "https://dc.lft.to/lastmile_qr_scan"}, "name": "778e9eb098349733617c60f1ec7cd5df", "is_reserved": 0}, {"is_disabled": 0, "fusion_lon": 0.0, "fusion_lat": 0.0, "lat": 38.9203925, "type": "electric_scooter", "lon": -77.01821633333333, "bike_id": "99a85c68b0aaa288cf1d91ba537180dd", "rental_uris": {"android": "https://dc.lft.to/lastmile_qr_scan", "ios": "https://dc.lft.to/lastmile_qr_scan"}, "name": "99a85c68b0aaa288cf1d91ba537180dd", "is_reserved": 0}, {"is_disabled": 0, "fusion_lon": 0.0, "fusion_lat": 0.0, "lat": 38.949321833333336, "type": "electric_scooter", "lon": -77.01938016666666, "bike_id": "6b0bf817fa27eac18f61dadf60f1281d", "rental_uris": {"android": "https://dc.lft.to/lastmile_qr_scan", "ios": "https://dc.lft.to/lastmile_qr_scan"}, "name": "6b0bf817fa27eac18f61dadf60f1281d", "is_reserved": 0}, {"is_disabled": 0, "fusion_lon": 0.0, "fusion_lat": 0.0, "lat": 38.88513716666667, "type": "electric_scooter", "lon": -77.01732166666666, "bike_id": "4937ffdda5df7615a961c10d7b3415e9", "rental_uris": {"android": "https://dc.lft.to/lastmile_qr_scan", "ios": "https://dc.lft.to/lastmile_qr_scan"}, "name": "4937ffdda5df7615a961c10d7b3415e9", "is_reserved": 0}, {"is_disabled": 0, "fusion_lon": 0.0, "fusion_lat": 0.0, "lat": 38.89982583333333, "type": "electric_scooter", "lon": -77.051122, "bike_id": "0ec17a084ac33fe06592dd941ffe9cba", "rental_uris": {"android": "https://dc.lft.to/lastmile_qr_scan", "ios": "https://dc.lft.to/lastmile_qr_scan"}, "name": "0ec17a084ac33fe06592dd941ffe9cba", "is_reserved": 0}, {"is_disabled": 0, "fusion_lon": 0.0, "fusion_lat": 0.0, "lat": 38.907818, "type": "electric_scooter", "lon": -77.03840516666666, "bike_id": "20f0810071454a13407ae87ffbf1fcdb", "rental_uris": {"android": "https://dc.lft.to/lastmile_qr_scan", "ios": "https://dc.lft.to/lastmile_qr_scan"}, "name": "20f0810071454a13407ae87ffbf1fcdb", "is_reserved": 0}, {"is_disabled": 0, "fusion_lon": 0.0, "fusion_lat": 0.0, "lat": 38.932574833333334, "type": "electric_scooter", "lon": -77.0346835, "bike_id": "eb73cf66a2d068e0c77181f051ab5852", "rental_uris": {"android": "https://dc.lft.to/lastmile_qr_scan", "ios": "https://dc.lft.to/lastmile_qr_scan"}, "name": "eb73cf66a2d068e0c77181f051ab5852", "is_reserved": 0}, {"is_disabled": 0, "fusion_lon": 0.0, "fusion_lat": 0.0, "lat": 38.90935866666667, "type": "electric_scooter", "lon": -77.02813816666666, "bike_id": "ecd8292e42d8ec6be821eb3d10056662", "rental_uris": {"android": "https://dc.lft.to/lastmile_qr_scan", "ios": "https://dc.lft.to/lastmile_qr_scan"}, "name": "ecd8292e42d8ec6be821eb3d10056662", "is_reserved": 0}, {"is_disabled": 0, "fusion_lon": 0.0, "fusion_lat": 0.0, "lat": 38.875496, "type": "electric_scooter", "lon": -77.00539833333333, "bike_id": "988dc7e0d77ff247e0079bdc37f3411e", "rental_uris": {"android": "https://dc.lft.to/lastmile_qr_scan", "ios": "https://dc.lft.to/lastmile_qr_scan"}, "name": "988dc7e0d77ff247e0079bdc37f3411e", "is_reserved": 0}, {"is_disabled": 0, "fusion_lon": 0.0, "fusion_lat": 0.0, "lat": 38.96191066666667, "type": "electric_scooter", "lon": -77.02791066666667, "bike_id": "1cf12fe4d9300f7160508b4c5a99d4a2", "rental_uris": {"android": "https://dc.lft.to/lastmile_qr_scan", "ios": "https://dc.lft.to/lastmile_qr_scan"}, "name": "1cf12fe4d9300f7160508b4c5a99d4a2", "is_reserved": 0}, {"is_disabled": 0, "fusion_lon": 0.0, "fusion_lat": 0.0, "lat": 38.9059685, "type": "electric_scooter", "lon": -77.06911933333333, "bike_id": "e93fc8317c6ab7155b19d13d4032ddae", "rental_uris": {"android": "https://dc.lft.to/lastmile_qr_scan", "ios": "https://dc.lft.to/lastmile_qr_scan"}, "name": "e93fc8317c6ab7155b19d13d4032ddae", "is_reserved": 0}, {"is_disabled": 0, "fusion_lon": 0.0, "fusion_lat": 0.0, "lat": 38.905135, "type": "electric_scooter", "lon": -77.0473435, "bike_id": "3f4b4ed66c7189041799a127e7de79ae", "rental_uris": {"android": "https://dc.lft.to/lastmile_qr_scan", "ios": "https://dc.lft.to/lastmile_qr_scan"}, "name": "3f4b4ed66c7189041799a127e7de79ae", "is_reserved": 0}, {"is_disabled": 0, "fusion_lon": 0.0, "fusion_lat": 0.0, "lat": 38.889225833333334, "type": "electric_scooter", "lon": -76.980126, "bike_id": "2b5288b0f4c60ca597c07cded25fe5aa", "rental_uris": {"android": "https://dc.lft.to/lastmile_qr_scan", "ios": "https://dc.lft.to/lastmile_qr_scan"}, "name": "2b5288b0f4c60ca597c07cded25fe5aa", "is_reserved": 0}, {"is_disabled": 0, "fusion_lon": 0.0, "fusion_lat": 0.0, "lat": 38.91707683333333, "type": "electric_scooter", "lon": -77.0414625, "bike_id": "a44a56523f702719aaf7259b11da25c5", "rental_uris": {"android": "https://dc.lft.to/lastmile_qr_scan", "ios": "https://dc.lft.to/lastmile_qr_scan"}, "name": "a44a56523f702719aaf7259b11da25c5", "is_reserved": 0}, {"is_disabled": 0, "fusion_lon": 0.0, "fusion_lat": 0.0, "lat": 38.90822883333333, "type": "electric_scooter", "lon": -77.00155466666666, "bike_id": "5b9479ffb655d81117b12bfc0e67fbed", "rental_uris": {"android": "https://dc.lft.to/lastmile_qr_scan", "ios": "https://dc.lft.to/lastmile_qr_scan"}, "name": "5b9479ffb655d81117b12bfc0e67fbed", "is_reserved": 0}, {"is_disabled": 0, "fusion_lon": 0.0, "fusion_lat": 0.0, "lat": 38.924394666666664, "type": "electric_bike", "lon": -76.90761766666667, "bike_id": "c59fed080ac3da96624689ac30e7b6e5", "rental_uris": {"android": "https://dc.lft.to/lastmile_qr_scan", "ios": "https://dc.lft.to/lastmile_qr_scan"}, "name": "c59fed080ac3da96624689ac30e7b6e5", "is_reserved": 0}, {"is_disabled": 0, "fusion_lon": 0.0, "fusion_lat": 0.0, "lat": 38.8719965, "type": "electric_scooter", "lon": -76.97826116666667, "bike_id": "2eb1e684202697583f9b34fc46e6df8f", "rental_uris": {"android": "https://dc.lft.to/lastmile_qr_scan", "ios": "https://dc.lft.to/lastmile_qr_scan"}, "name": "2eb1e684202697583f9b34fc46e6df8f", "is_reserved": 0}, {"is_disabled": 0, "fusion_lon": 0.0, "fusion_lat": 0.0, "lat": 38.90972033333333, "type": "electric_scooter", "lon": -77.0462355, "bike_id": "ec4fb301726705ce5b4d9271fc852954", "rental_uris": {"android": "https://dc.lft.to/lastmile_qr_scan", "ios": "https://dc.lft.to/lastmile_qr_scan"}, "name": "ec4fb301726705ce5b4d9271fc852954", "is_reserved": 0}, {"is_disabled": 0, "fusion_lon": 0.0, "fusion_lat": 0.0, "lat": 38.936663, "type": "electric_bike", "lon": -76.95205066666666, "bike_id": "a55506ddf4e9f7dfac522fe745845ebf", "rental_uris": {"android": "https://dc.lft.to/lastmile_qr_scan", "ios": "https://dc.lft.to/lastmile_qr_scan"}, "name": "a55506ddf4e9f7dfac522fe745845ebf", "is_reserved": 0}, {"is_disabled": 0, "fusion_lon": 0.0, "fusion_lat": 0.0, "lat": 38.95836416666667, "type": "electric_scooter", "lon": -77.07159833333333, "bike_id": "514519d84aee5221b7fc661c65ddc487", "rental_uris": {"android": "https://dc.lft.to/lastmile_qr_scan", "ios": "https://dc.lft.to/lastmile_qr_scan"}, "name": "514519d84aee5221b7fc661c65ddc487", "is_reserved": 0}, {"is_disabled": 0, "fusion_lon": 0.0, "fusion_lat": 0.0, "lat": 38.88501733333333, "type": "electric_scooter", "lon": -77.01719683333333, "bike_id": "6e94309d0e6a281efea0efade557858d", "rental_uris": {"android": "https://dc.lft.to/lastmile_qr_scan", "ios": "https://dc.lft.to/lastmile_qr_scan"}, "name": "6e94309d0e6a281efea0efade557858d", "is_reserved": 0}, {"is_disabled": 0, "fusion_lon": 0.0, "fusion_lat": 0.0, "lat": 38.93484683333333, "type": "electric_scooter", "lon": -77.07277066666667, "bike_id": "f80e8c206040d9502b384187cb7c0636", "rental_uris": {"android": "https://dc.lft.to/lastmile_qr_scan", "ios": "https://dc.lft.to/lastmile_qr_scan"}, "name": "f80e8c206040d9502b384187cb7c0636", "is_reserved": 0}, {"is_disabled": 0, "fusion_lon": 0.0, "fusion_lat": 0.0, "lat": 38.91783566666667, "type": "electric_scooter", "lon": -77.04340233333333, "bike_id": "864f36dd28817be47c553ec1207cae30", "rental_uris": {"android": "https://dc.lft.to/lastmile_qr_scan", "ios": "https://dc.lft.to/lastmile_qr_scan"}, "name": "864f36dd28817be47c553ec1207cae30", "is_reserved": 0}, {"is_disabled": 0, "fusion_lon": 0.0, "fusion_lat": 0.0, "lat": 38.906367833333334, "type": "electric_scooter", "lon": -77.0060075, "bike_id": "c3dd76a6bf87be584b077ad04dcb82bc", "rental_uris": {"android": "https://dc.lft.to/lastmile_qr_scan", "ios": "https://dc.lft.to/lastmile_qr_scan"}, "name": "c3dd76a6bf87be584b077ad04dcb82bc", "is_reserved": 0}, {"is_disabled": 0, "fusion_lon": 0.0, "fusion_lat": 0.0, "lat": 38.917100833333336, "type": "electric_scooter", "lon": -77.05129516666666, "bike_id": "8ad9f299c9925dfafbf48f7ff6bb39e7", "rental_uris": {"android": "https://dc.lft.to/lastmile_qr_scan", "ios": "https://dc.lft.to/lastmile_qr_scan"}, "name": "8ad9f299c9925dfafbf48f7ff6bb39e7", "is_reserved": 0}, {"is_disabled": 0, "fusion_lon": 0.0, "fusion_lat": 0.0, "lat": 39.038836833333335, "type": "electric_bike", "lon": -77.10911316666666, "bike_id": "3e11ec656601f6fb8453fb9f8d495111", "rental_uris": {"android": "https://dc.lft.to/lastmile_qr_scan", "ios": "https://dc.lft.to/lastmile_qr_scan"}, "name": "3e11ec656601f6fb8453fb9f8d495111", "is_reserved": 0}, {"is_disabled": 0, "fusion_lon": 0.0, "fusion_lat": 0.0, "lat": 38.91992583333333, "type": "electric_scooter", "lon": -77.0327275, "bike_id": "b332055363b4f3c68d155254879c8611", "rental_uris": {"android": "https://dc.lft.to/lastmile_qr_scan", "ios": "https://dc.lft.to/lastmile_qr_scan"}, "name": "b332055363b4f3c68d155254879c8611", "is_reserved": 0}, {"is_disabled": 0, "fusion_lon": 0.0, "fusion_lat": 0.0, "lat": 38.897903, "type": "electric_bike", "lon": -77.02014066666666, "bike_id": "3160c00e84ea20cbc1b7503afcf90cb6", "rental_uris": {"android": "https://dc.lft.to/lastmile_qr_scan", "ios": "https://dc.lft.to/lastmile_qr_scan"}, "name": "3160c00e84ea20cbc1b7503afcf90cb6", "is_reserved": 0}, {"is_disabled": 0, "fusion_lon": 0.0, "fusion_lat": 0.0, "lat": 38.885792333333335, "type": "electric_scooter", "lon": -76.9190935, "bike_id": "31794324098c61613d4a8df4e6b4de3c", "rental_uris": {"android": "https://dc.lft.to/lastmile_qr_scan", "ios": "https://dc.lft.to/lastmile_qr_scan"}, "name": "31794324098c61613d4a8df4e6b4de3c", "is_reserved": 0}, {"is_disabled": 0, "fusion_lon": 0.0, "fusion_lat": 0.0, "lat": 38.99268166666667, "type": "electric_scooter", "lon": -77.03613616666667, "bike_id": "9d134330d6e461150b67fa5c2460ab68", "rental_uris": {"android": "https://dc.lft.to/lastmile_qr_scan", "ios": "https://dc.lft.to/lastmile_qr_scan"}, "name": "9d134330d6e461150b67fa5c2460ab68", "is_reserved": 0}, {"is_disabled": 0, "fusion_lon": 0.0, "fusion_lat": 0.0, "lat": 38.918383166666665, "type": "electric_scooter", "lon": -77.03938966666666, "bike_id": "9a0ce1fd079b9b93cdece4840560819a", "rental_uris": {"android": "https://dc.lft.to/lastmile_qr_scan", "ios": "https://dc.lft.to/lastmile_qr_scan"}, "name": "9a0ce1fd079b9b93cdece4840560819a", "is_reserved": 0}, {"is_disabled": 0, "fusion_lon": 0.0, "fusion_lat": 0.0, "lat": 39.0002035, "type": "electric_bike", "lon": -76.87286666666667, "bike_id": "79dc16ec6078bcedba488a65b0674322", "rental_uris": {"android": "https://dc.lft.to/lastmile_qr_scan", "ios": "https://dc.lft.to/lastmile_qr_scan"}, "name": "79dc16ec6078bcedba488a65b0674322", "is_reserved": 0}, {"is_disabled": 0, "fusion_lon": 0.0, "fusion_lat": 0.0, "lat": 38.920524666666665, "type": "electric_scooter", "lon": -77.02432783333333, "bike_id": "9ef2d18f6da3d161a36aa58163e38f03", "rental_uris": {"android": "https://dc.lft.to/lastmile_qr_scan", "ios": "https://dc.lft.to/lastmile_qr_scan"}, "name": "9ef2d18f6da3d161a36aa58163e38f03", "is_reserved": 0}, {"is_disabled": 0, "fusion_lon": 0.0, "fusion_lat": 0.0, "lat": 38.90333233333333, "type": "electric_scooter", "lon": -77.02169533333333, "bike_id": "05074e0caa5e8b5734ee47a1d12d0d4e", "rental_uris": {"android": "https://dc.lft.to/lastmile_qr_scan", "ios": "https://dc.lft.to/lastmile_qr_scan"}, "name": "05074e0caa5e8b5734ee47a1d12d0d4e", "is_reserved": 0}, {"is_disabled": 0, "fusion_lon": 0.0, "fusion_lat": 0.0, "lat": 38.82878633333333, "type": "electric_bike", "lon": -77.112187, "bike_id": "e31522f4886279033ba7a296346f19c6", "rental_uris": {"android": "https://dc.lft.to/lastmile_qr_scan", "ios": "https://dc.lft.to/lastmile_qr_scan"}, "name": "e31522f4886279033ba7a296346f19c6", "is_reserved": 0}, {"is_disabled": 0, "fusion_lon": 0.0, "fusion_lat": 0.0, "lat": 38.8950785, "type": "electric_scooter", "lon": -77.02822333333333, "bike_id": "7b9201c3a074c37625831ed0efbe73a5", "rental_uris": {"android": "https://dc.lft.to/lastmile_qr_scan", "ios": "https://dc.lft.to/lastmile_qr_scan"}, "name": "7b9201c3a074c37625831ed0efbe73a5", "is_reserved": 0}, {"is_disabled": 0, "fusion_lon": 0.0, "fusion_lat": 0.0, "lat": 38.92550983333334, "type": "electric_scooter", "lon": -77.0406415, "bike_id": "66924ee414b9c6296b2f04ac06ce906f", "rental_uris": {"android": "https://dc.lft.to/lastmile_qr_scan", "ios": "https://dc.lft.to/lastmile_qr_scan"}, "name": "66924ee414b9c6296b2f04ac06ce906f", "is_reserved": 0}, {"is_disabled": 0, "fusion_lon": 0.0, "fusion_lat": 0.0, "lat": 38.9097125, "type": "electric_scooter", "lon": -77.01106866666667, "bike_id": "29c5ec4493c2f5cea506a157d56a501f", "rental_uris": {"android": "https://dc.lft.to/lastmile_qr_scan", "ios": "https://dc.lft.to/lastmile_qr_scan"}, "name": "29c5ec4493c2f5cea506a157d56a501f", "is_reserved": 0}, {"is_disabled": 0, "fusion_lon": 0.0, "fusion_lat": 0.0, "lat": 38.912529166666666, "type": "electric_scooter", "lon": -77.0223505, "bike_id": "ddf855032e657e511cbe9b1b108fca96", "rental_uris": {"android": "https://dc.lft.to/lastmile_qr_scan", "ios": "https://dc.lft.to/lastmile_qr_scan"}, "name": "ddf855032e657e511cbe9b1b108fca96", "is_reserved": 0}, {"is_disabled": 0, "fusion_lon": 0.0, "fusion_lat": 0.0, "lat": 38.895846, "type": "electric_scooter", "lon": -77.02593716666667, "bike_id": "18936735f0f6f1b448d09704b849e7bf", "rental_uris": {"android": "https://dc.lft.to/lastmile_qr_scan", "ios": "https://dc.lft.to/lastmile_qr_scan"}, "name": "18936735f0f6f1b448d09704b849e7bf", "is_reserved": 0}, {"is_disabled": 0, "fusion_lon": 0.0, "fusion_lat": 0.0, "lat": 38.925833833333336, "type": "electric_scooter", "lon": -77.04012866666666, "bike_id": "51209d3ee81e2ecef2fbbfb7d675796a", "rental_uris": {"android": "https://dc.lft.to/lastmile_qr_scan", "ios": "https://dc.lft.to/lastmile_qr_scan"}, "name": "51209d3ee81e2ecef2fbbfb7d675796a", "is_reserved": 0}, {"is_disabled": 0, "fusion_lon": 0.0, "fusion_lat": 0.0, "lat": 38.8996375, "type": "electric_scooter", "lon": -77.05085816666667, "bike_id": "7a79d841f394cbc53f946dd909083efb", "rental_uris": {"android": "https://dc.lft.to/lastmile_qr_scan", "ios": "https://dc.lft.to/lastmile_qr_scan"}, "name": "7a79d841f394cbc53f946dd909083efb", "is_reserved": 0}, {"is_disabled": 0, "fusion_lon": 0.0, "fusion_lat": 0.0, "lat": 38.930020999999996, "type": "electric_scooter", "lon": -77.03279916666666, "bike_id": "9c431d18d8fda2e9a1ddcf110bdd25d2", "rental_uris": {"android": "https://dc.lft.to/lastmile_qr_scan", "ios": "https://dc.lft.to/lastmile_qr_scan"}, "name": "9c431d18d8fda2e9a1ddcf110bdd25d2", "is_reserved": 0}, {"is_disabled": 0, "fusion_lon": 0.0, "fusion_lat": 0.0, "lat": 38.93918883333333, "type": "electric_scooter", "lon": -77.01905266666667, "bike_id": "d26e093e7963e867614507659877f24a", "rental_uris": {"android": "https://dc.lft.to/lastmile_qr_scan", "ios": "https://dc.lft.to/lastmile_qr_scan"}, "name": "d26e093e7963e867614507659877f24a", "is_reserved": 0}, {"is_disabled": 0, "fusion_lon": 0.0, "fusion_lat": 0.0, "lat": 38.90673566666667, "type": "electric_scooter", "lon": -77.02724183333333, "bike_id": "40cd21fb697e2ad3c3421eecf57c0634", "rental_uris": {"android": "https://dc.lft.to/lastmile_qr_scan", "ios": "https://dc.lft.to/lastmile_qr_scan"}, "name": "40cd21fb697e2ad3c3421eecf57c0634", "is_reserved": 0}, {"is_disabled": 0, "fusion_lon": 0.0, "fusion_lat": 0.0, "lat": 38.89395483333333, "type": "electric_scooter", "lon": -76.94997333333333, "bike_id": "d7b956e5e3f176681c4c0e6afb0e8637", "rental_uris": {"android": "https://dc.lft.to/lastmile_qr_scan", "ios": "https://dc.lft.to/lastmile_qr_scan"}, "name": "d7b956e5e3f176681c4c0e6afb0e8637", "is_reserved": 0}, {"is_disabled": 0, "fusion_lon": 0.0, "fusion_lat": 0.0, "lat": 38.9099285, "type": "electric_scooter", "lon": -77.04263433333334, "bike_id": "f59cda8928989eb884dea5dc5178f253", "rental_uris": {"android": "https://dc.lft.to/lastmile_qr_scan", "ios": "https://dc.lft.to/lastmile_qr_scan"}, "name": "f59cda8928989eb884dea5dc5178f253", "is_reserved": 0}, {"is_disabled": 0, "fusion_lon": 0.0, "fusion_lat": 0.0, "lat": 38.913607, "type": "electric_scooter", "lon": -77.02590966666666, "bike_id": "e03aa31c84a4a569dfa7e420eb29cf28", "rental_uris": {"android": "https://dc.lft.to/lastmile_qr_scan", "ios": "https://dc.lft.to/lastmile_qr_scan"}, "name": "e03aa31c84a4a569dfa7e420eb29cf28", "is_reserved": 0}, {"is_disabled": 0, "fusion_lon": 0.0, "fusion_lat": 0.0, "lat": 38.92750183333333, "type": "electric_bike", "lon": -77.09952716666666, "bike_id": "1e012ae639f38f7995623c8c53c442fb", "rental_uris": {"android": "https://dc.lft.to/lastmile_qr_scan", "ios": "https://dc.lft.to/lastmile_qr_scan"}, "name": "1e012ae639f38f7995623c8c53c442fb", "is_reserved": 0}, {"is_disabled": 0, "fusion_lon": 0.0, "fusion_lat": 0.0, "lat": 38.8941505, "type": "electric_scooter", "lon": -77.02296666666666, "bike_id": "30b4ba8356a45c2249499d44ba4c68c6", "rental_uris": {"android": "https://dc.lft.to/lastmile_qr_scan", "ios": "https://dc.lft.to/lastmile_qr_scan"}, "name": "30b4ba8356a45c2249499d44ba4c68c6", "is_reserved": 0}, {"is_disabled": 0, "fusion_lon": 0.0, "fusion_lat": 0.0, "lat": 38.918173333333336, "type": "electric_scooter", "lon": -77.03297816666667, "bike_id": "d2915db6f2ea79999352543c1d30aeee", "rental_uris": {"android": "https://dc.lft.to/lastmile_qr_scan", "ios": "https://dc.lft.to/lastmile_qr_scan"}, "name": "d2915db6f2ea79999352543c1d30aeee", "is_reserved": 0}, {"is_disabled": 0, "fusion_lon": 0.0, "fusion_lat": 0.0, "lat": 38.9132835, "type": "electric_scooter", "lon": -77.0319965, "bike_id": "21bc05a3e992cab13f5883959dfca0db", "rental_uris": {"android": "https://dc.lft.to/lastmile_qr_scan", "ios": "https://dc.lft.to/lastmile_qr_scan"}, "name": "21bc05a3e992cab13f5883959dfca0db", "is_reserved": 0}, {"is_disabled": 0, "fusion_lon": 0.0, "fusion_lat": 0.0, "lat": 38.908557, "type": "electric_scooter", "lon": -77.04771333333333, "bike_id": "f05b26a07c9a3b237a47447b028e1dc0", "rental_uris": {"android": "https://dc.lft.to/lastmile_qr_scan", "ios": "https://dc.lft.to/lastmile_qr_scan"}, "name": "f05b26a07c9a3b237a47447b028e1dc0", "is_reserved": 0}, {"is_disabled": 0, "fusion_lon": 0.0, "fusion_lat": 0.0, "lat": 38.91799866666667, "type": "electric_scooter", "lon": -77.03435966666666, "bike_id": "09c44b2b66efa75c2a9a9611de0d90a2", "rental_uris": {"android": "https://dc.lft.to/lastmile_qr_scan", "ios": "https://dc.lft.to/lastmile_qr_scan"}, "name": "09c44b2b66efa75c2a9a9611de0d90a2", "is_reserved": 0}, {"is_disabled": 0, "fusion_lon": 0.0, "fusion_lat": 0.0, "lat": 38.919906, "type": "electric_scooter", "lon": -77.032714, "bike_id": "39a92f52e78385746abbdcb3d97bd39b", "rental_uris": {"android": "https://dc.lft.to/lastmile_qr_scan", "ios": "https://dc.lft.to/lastmile_qr_scan"}, "name": "39a92f52e78385746abbdcb3d97bd39b", "is_reserved": 0}, {"is_disabled": 0, "fusion_lon": 0.0, "fusion_lat": 0.0, "lat": 38.916412666666666, "type": "electric_scooter", "lon": -77.03268483333333, "bike_id": "7c9a2304621d5bcd730a1b3b6677fc43", "rental_uris": {"android": "https://dc.lft.to/lastmile_qr_scan", "ios": "https://dc.lft.to/lastmile_qr_scan"}, "name": "7c9a2304621d5bcd730a1b3b6677fc43", "is_reserved": 0}, {"is_disabled": 0, "fusion_lon": 0.0, "fusion_lat": 0.0, "lat": 38.91114433333333, "type": "electric_scooter", "lon": -77.02422766666666, "bike_id": "1e68ba386b3e325a285aedfb766319b7", "rental_uris": {"android": "https://dc.lft.to/lastmile_qr_scan", "ios": "https://dc.lft.to/lastmile_qr_scan"}, "name": "1e68ba386b3e325a285aedfb766319b7", "is_reserved": 0}, {"is_disabled": 0, "fusion_lon": 0.0, "fusion_lat": 0.0, "lat": 38.989896, "type": "electric_scooter", "lon": -77.03362366666667, "bike_id": "fa841edd178c0867edf3b3f6ba6fb607", "rental_uris": {"android": "https://dc.lft.to/lastmile_qr_scan", "ios": "https://dc.lft.to/lastmile_qr_scan"}, "name": "fa841edd178c0867edf3b3f6ba6fb607", "is_reserved": 0}, {"is_disabled": 0, "fusion_lon": 0.0, "fusion_lat": 0.0, "lat": 38.94605216666667, "type": "electric_scooter", "lon": -77.02980866666667, "bike_id": "c6a04685cf17bdffd705eb8e2bb35cfd", "rental_uris": {"android": "https://dc.lft.to/lastmile_qr_scan", "ios": "https://dc.lft.to/lastmile_qr_scan"}, "name": "c6a04685cf17bdffd705eb8e2bb35cfd", "is_reserved": 0}, {"is_disabled": 0, "fusion_lon": 0.0, "fusion_lat": 0.0, "lat": 38.88501333333333, "type": "electric_scooter", "lon": -77.01725233333333, "bike_id": "1a5019cb8f243ebeb905274f034dcb4e", "rental_uris": {"android": "https://dc.lft.to/lastmile_qr_scan", "ios": "https://dc.lft.to/lastmile_qr_scan"}, "name": "1a5019cb8f243ebeb905274f034dcb4e", "is_reserved": 0}, {"is_disabled": 0, "fusion_lon": 0.0, "fusion_lat": 0.0, "lat": 38.897321, "type": "electric_scooter", "lon": -77.02161416666667, "bike_id": "34a4eacf8f6c41337314770d644321df", "rental_uris": {"android": "https://dc.lft.to/lastmile_qr_scan", "ios": "https://dc.lft.to/lastmile_qr_scan"}, "name": "34a4eacf8f6c41337314770d644321df", "is_reserved": 0}, {"is_disabled": 0, "fusion_lon": 0.0, "fusion_lat": 0.0, "lat": 38.90220566666667, "type": "electric_scooter", "lon": -77.02442833333333, "bike_id": "c3658b706308f072430463ff9e02c825", "rental_uris": {"android": "https://dc.lft.to/lastmile_qr_scan", "ios": "https://dc.lft.to/lastmile_qr_scan"}, "name": "c3658b706308f072430463ff9e02c825", "is_reserved": 0}, {"is_disabled": 0, "fusion_lon": 0.0, "fusion_lat": 0.0, "lat": 38.91269116666667, "type": "electric_scooter", "lon": -77.022392, "bike_id": "b67ff1697dd4876f0908c00d31b9c99a", "rental_uris": {"android": "https://dc.lft.to/lastmile_qr_scan", "ios": "https://dc.lft.to/lastmile_qr_scan"}, "name": "b67ff1697dd4876f0908c00d31b9c99a", "is_reserved": 0}, {"is_disabled": 0, "fusion_lon": 0.0, "fusion_lat": 0.0, "lat": 38.90672566666667, "type": "electric_scooter", "lon": -77.02716416666667, "bike_id": "9d33f8bd8f43a9ead381e5eb4acbc3e8", "rental_uris": {"android": "https://dc.lft.to/lastmile_qr_scan", "ios": "https://dc.lft.to/lastmile_qr_scan"}, "name": "9d33f8bd8f43a9ead381e5eb4acbc3e8", "is_reserved": 0}, {"is_disabled": 0, "fusion_lon": 0.0, "fusion_lat": 0.0, "lat": 38.91650383333333, "type": "electric_scooter", "lon": -77.02284616666667, "bike_id": "c94c78a0f55cbf1c36f8dff575104cc4", "rental_uris": {"android": "https://dc.lft.to/lastmile_qr_scan", "ios": "https://dc.lft.to/lastmile_qr_scan"}, "name": "c94c78a0f55cbf1c36f8dff575104cc4", "is_reserved": 0}, {"is_disabled": 0, "fusion_lon": 0.0, "fusion_lat": 0.0, "lat": 38.892276, "type": "electric_scooter", "lon": -77.02838433333334, "bike_id": "0e1c9f25037402ec160850c68d582aa9", "rental_uris": {"android": "https://dc.lft.to/lastmile_qr_scan", "ios": "https://dc.lft.to/lastmile_qr_scan"}, "name": "0e1c9f25037402ec160850c68d582aa9", "is_reserved": 0}, {"is_disabled": 0, "fusion_lon": 0.0, "fusion_lat": 0.0, "lat": 38.848965666666665, "type": "electric_scooter", "lon": -77.00523766666667, "bike_id": "bac9a3851ce197c0fefe21570038c7c0", "rental_uris": {"android": "https://dc.lft.to/lastmile_qr_scan", "ios": "https://dc.lft.to/lastmile_qr_scan"}, "name": "bac9a3851ce197c0fefe21570038c7c0", "is_reserved": 0}, {"is_disabled": 0, "fusion_lon": 0.0, "fusion_lat": 0.0, "lat": 38.9045535, "type": "electric_scooter", "lon": -77.003435, "bike_id": "2e2f2c5232e3a739f9cac296b33fd8a4", "rental_uris": {"android": "https://dc.lft.to/lastmile_qr_scan", "ios": "https://dc.lft.to/lastmile_qr_scan"}, "name": "2e2f2c5232e3a739f9cac296b33fd8a4", "is_reserved": 0}, {"is_disabled": 0, "fusion_lon": 0.0, "fusion_lat": 0.0, "lat": 38.8854235, "type": "electric_scooter", "lon": -77.0057845, "bike_id": "43ff74eb3c6d519b93b7009d00b6da16", "rental_uris": {"android": "https://dc.lft.to/lastmile_qr_scan", "ios": "https://dc.lft.to/lastmile_qr_scan"}, "name": "43ff74eb3c6d519b93b7009d00b6da16", "is_reserved": 0}, {"is_disabled": 0, "fusion_lon": 0.0, "fusion_lat": 0.0, "lat": 38.906043833333335, "type": "electric_scooter", "lon": -77.04047433333334, "bike_id": "a8b89f29e2e03709f5a03bc036860a4e", "rental_uris": {"android": "https://dc.lft.to/lastmile_qr_scan", "ios": "https://dc.lft.to/lastmile_qr_scan"}, "name": "a8b89f29e2e03709f5a03bc036860a4e", "is_reserved": 0}, {"is_disabled": 0, "fusion_lon": 0.0, "fusion_lat": 0.0, "lat": 38.906734166666666, "type": "electric_scooter", "lon": -77.07134766666667, "bike_id": "dae735caa746f47f60c2279a546b8c7c", "rental_uris": {"android": "https://dc.lft.to/lastmile_qr_scan", "ios": "https://dc.lft.to/lastmile_qr_scan"}, "name": "dae735caa746f47f60c2279a546b8c7c", "is_reserved": 0}, {"is_disabled": 0, "fusion_lon": 0.0, "fusion_lat": 0.0, "lat": 38.907248833333334, "type": "electric_scooter", "lon": -77.017141, "bike_id": "8909acdcd90914de576725078738d81e", "rental_uris": {"android": "https://dc.lft.to/lastmile_qr_scan", "ios": "https://dc.lft.to/lastmile_qr_scan"}, "name": "8909acdcd90914de576725078738d81e", "is_reserved": 0}, {"is_disabled": 0, "fusion_lon": 0.0, "fusion_lat": 0.0, "lat": 38.880173, "type": "electric_scooter", "lon": -76.93114616666666, "bike_id": "60e090970c2898bb367048c5f0e90cde", "rental_uris": {"android": "https://dc.lft.to/lastmile_qr_scan", "ios": "https://dc.lft.to/lastmile_qr_scan"}, "name": "60e090970c2898bb367048c5f0e90cde", "is_reserved": 0}, {"is_disabled": 0, "fusion_lon": 0.0, "fusion_lat": 0.0, "lat": 39.09588266666667, "type": "electric_bike", "lon": -77.14777116666667, "bike_id": "645a9af907635160dc65a0fb9f38c0e0", "rental_uris": {"android": "https://dc.lft.to/lastmile_qr_scan", "ios": "https://dc.lft.to/lastmile_qr_scan"}, "name": "645a9af907635160dc65a0fb9f38c0e0", "is_reserved": 0}, {"is_disabled": 0, "fusion_lon": 0.0, "fusion_lat": 0.0, "lat": 38.89501333333333, "type": "electric_scooter", "lon": -76.94880866666666, "bike_id": "33c685c93a142652c035677e4af0ae89", "rental_uris": {"android": "https://dc.lft.to/lastmile_qr_scan", "ios": "https://dc.lft.to/lastmile_qr_scan"}, "name": "33c685c93a142652c035677e4af0ae89", "is_reserved": 0}, {"is_disabled": 0, "fusion_lon": 0.0, "fusion_lat": 0.0, "lat": 38.91938533333333, "type": "electric_scooter", "lon": -77.08135483333334, "bike_id": "714831ca9ec52828d635ccaa950f124b", "rental_uris": {"android": "https://dc.lft.to/lastmile_qr_scan", "ios": "https://dc.lft.to/lastmile_qr_scan"}, "name": "714831ca9ec52828d635ccaa950f124b", "is_reserved": 0}, {"is_disabled": 0, "fusion_lon": 0.0, "fusion_lat": 0.0, "lat": 38.8555855, "type": "electric_bike", "lon": -77.10721883333333, "bike_id": "9742da279f8f6ed7d32aacf673a06a39", "rental_uris": {"android": "https://dc.lft.to/lastmile_qr_scan", "ios": "https://dc.lft.to/lastmile_qr_scan"}, "name": "9742da279f8f6ed7d32aacf673a06a39", "is_reserved": 0}, {"is_disabled": 0, "fusion_lon": 0.0, "fusion_lat": 0.0, "lat": 38.915570333333335, "type": "electric_scooter", "lon": -77.02049916666667, "bike_id": "8472c71889ea6206a698c45a17c45f68", "rental_uris": {"android": "https://dc.lft.to/lastmile_qr_scan", "ios": "https://dc.lft.to/lastmile_qr_scan"}, "name": "8472c71889ea6206a698c45a17c45f68", "is_reserved": 0}, {"is_disabled": 0, "fusion_lon": 0.0, "fusion_lat": 0.0, "lat": 38.91257133333333, "type": "electric_scooter", "lon": -77.04160716666667, "bike_id": "b1a71d751f3eefc0971d38e1fb82b755", "rental_uris": {"android": "https://dc.lft.to/lastmile_qr_scan", "ios": "https://dc.lft.to/lastmile_qr_scan"}, "name": "b1a71d751f3eefc0971d38e1fb82b755", "is_reserved": 0}, {"is_disabled": 0, "fusion_lon": 0.0, "fusion_lat": 0.0, "lat": 38.91410916666667, "type": "electric_scooter", "lon": -77.02671766666667, "bike_id": "980a715cd7949184bc34736047cd8cc6", "rental_uris": {"android": "https://dc.lft.to/lastmile_qr_scan", "ios": "https://dc.lft.to/lastmile_qr_scan"}, "name": "980a715cd7949184bc34736047cd8cc6", "is_reserved": 0}, {"is_disabled": 0, "fusion_lon": 0.0, "fusion_lat": 0.0, "lat": 38.931164333333335, "type": "electric_scooter", "lon": -77.03504683333334, "bike_id": "50285162991a0cfe0bd85d71557d2d8a", "rental_uris": {"android": "https://dc.lft.to/lastmile_qr_scan", "ios": "https://dc.lft.to/lastmile_qr_scan"}, "name": "50285162991a0cfe0bd85d71557d2d8a", "is_reserved": 0}, {"is_disabled": 0, "fusion_lon": 0.0, "fusion_lat": 0.0, "lat": 38.99936, "type": "electric_bike", "lon": -77.00124866666667, "bike_id": "2175e25c61d19bd670ad9ca37e4b6b33", "rental_uris": {"android": "https://dc.lft.to/lastmile_qr_scan", "ios": "https://dc.lft.to/lastmile_qr_scan"}, "name": "2175e25c61d19bd670ad9ca37e4b6b33", "is_reserved": 0}, {"is_disabled": 0, "fusion_lon": 0.0, "fusion_lat": 0.0, "lat": 38.89020683333333, "type": "electric_scooter", "lon": -76.93735766666667, "bike_id": "3fad14b8ca8262dd2c0e4f48b6d7086a", "rental_uris": {"android": "https://dc.lft.to/lastmile_qr_scan", "ios": "https://dc.lft.to/lastmile_qr_scan"}, "name": "3fad14b8ca8262dd2c0e4f48b6d7086a", "is_reserved": 0}, {"is_disabled": 0, "fusion_lon": 0.0, "fusion_lat": 0.0, "lat": 38.91895866666667, "type": "electric_scooter", "lon": -77.04478683333333, "bike_id": "50eb21c2bebe7e68ac5f5b03d4a8f167", "rental_uris": {"android": "https://dc.lft.to/lastmile_qr_scan", "ios": "https://dc.lft.to/lastmile_qr_scan"}, "name": "50eb21c2bebe7e68ac5f5b03d4a8f167", "is_reserved": 0}, {"is_disabled": 0, "fusion_lon": 0.0, "fusion_lat": 0.0, "lat": 38.919371166666664, "type": "electric_scooter", "lon": -77.03165666666666, "bike_id": "d76fd117639a623a3f5fe4ef31c22145", "rental_uris": {"android": "https://dc.lft.to/lastmile_qr_scan", "ios": "https://dc.lft.to/lastmile_qr_scan"}, "name": "d76fd117639a623a3f5fe4ef31c22145", "is_reserved": 0}, {"is_disabled": 0, "fusion_lon": 0.0, "fusion_lat": 0.0, "lat": 38.922845, "type": "electric_scooter", "lon": -77.073031, "bike_id": "08e839bfe52a451c648e0341fdf43215", "rental_uris": {"android": "https://dc.lft.to/lastmile_qr_scan", "ios": "https://dc.lft.to/lastmile_qr_scan"}, "name": "08e839bfe52a451c648e0341fdf43215", "is_reserved": 0}, {"is_disabled": 0, "fusion_lon": 0.0, "fusion_lat": 0.0, "lat": 38.92956183333333, "type": "electric_scooter", "lon": -77.034713, "bike_id": "a15ea5cb3a62552a6cd9c9e2bddbfeb5", "rental_uris": {"android": "https://dc.lft.to/lastmile_qr_scan", "ios": "https://dc.lft.to/lastmile_qr_scan"}, "name": "a15ea5cb3a62552a6cd9c9e2bddbfeb5", "is_reserved": 0}, {"is_disabled": 0, "fusion_lon": 0.0, "fusion_lat": 0.0, "lat": 38.91876883333333, "type": "electric_scooter", "lon": -77.0431145, "bike_id": "9bc616bf7c0cf0822649094f1b2911f4", "rental_uris": {"android": "https://dc.lft.to/lastmile_qr_scan", "ios": "https://dc.lft.to/lastmile_qr_scan"}, "name": "9bc616bf7c0cf0822649094f1b2911f4", "is_reserved": 0}, {"is_disabled": 0, "fusion_lon": 0.0, "fusion_lat": 0.0, "lat": 38.926975, "type": "electric_bike", "lon": -77.0613035, "bike_id": "42836f5ca49c8e8b4e496bbf9d6ff810", "rental_uris": {"android": "https://dc.lft.to/lastmile_qr_scan", "ios": "https://dc.lft.to/lastmile_qr_scan"}, "name": "42836f5ca49c8e8b4e496bbf9d6ff810", "is_reserved": 0}, {"is_disabled": 0, "fusion_lon": 0.0, "fusion_lat": 0.0, "lat": 38.94498316666667, "type": "electric_bike", "lon": -76.98662733333333, "bike_id": "bde6f8334c367138d3a34e18f5af4c39", "rental_uris": {"android": "https://dc.lft.to/lastmile_qr_scan", "ios": "https://dc.lft.to/lastmile_qr_scan"}, "name": "bde6f8334c367138d3a34e18f5af4c39", "is_reserved": 0}, {"is_disabled": 0, "fusion_lon": 0.0, "fusion_lat": 0.0, "lat": 38.912716333333336, "type": "electric_scooter", "lon": -77.02240033333334, "bike_id": "23f73a8caf1dd5c2bf574550fc03daf3", "rental_uris": {"android": "https://dc.lft.to/lastmile_qr_scan", "ios": "https://dc.lft.to/lastmile_qr_scan"}, "name": "23f73a8caf1dd5c2bf574550fc03daf3", "is_reserved": 0}, {"is_disabled": 0, "fusion_lon": 0.0, "fusion_lat": 0.0, "lat": 38.8653115, "type": "electric_scooter", "lon": -76.98973466666666, "bike_id": "9b6d1d375a02d27d65ab3218943d2a0e", "rental_uris": {"android": "https://dc.lft.to/lastmile_qr_scan", "ios": "https://dc.lft.to/lastmile_qr_scan"}, "name": "9b6d1d375a02d27d65ab3218943d2a0e", "is_reserved": 0}, {"is_disabled": 0, "fusion_lon": 0.0, "fusion_lat": 0.0, "lat": 38.90331616666667, "type": "electric_scooter", "lon": -76.98017666666667, "bike_id": "b0e1c3addc0aa585a4a987ee4314c3a4", "rental_uris": {"android": "https://dc.lft.to/lastmile_qr_scan", "ios": "https://dc.lft.to/lastmile_qr_scan"}, "name": "b0e1c3addc0aa585a4a987ee4314c3a4", "is_reserved": 0}, {"is_disabled": 0, "fusion_lon": 0.0, "fusion_lat": 0.0, "lat": 38.91252333333333, "type": "electric_scooter", "lon": -77.02236633333334, "bike_id": "bcf5800ae188daccde13268086afbd79", "rental_uris": {"android": "https://dc.lft.to/lastmile_qr_scan", "ios": "https://dc.lft.to/lastmile_qr_scan"}, "name": "bcf5800ae188daccde13268086afbd79", "is_reserved": 0}, {"is_disabled": 0, "fusion_lon": 0.0, "fusion_lat": 0.0, "lat": 38.9052015, "type": "electric_scooter", "lon": -77.05034183333333, "bike_id": "33a2cef8a12727d4a390e8fa9da743fd", "rental_uris": {"android": "https://dc.lft.to/lastmile_qr_scan", "ios": "https://dc.lft.to/lastmile_qr_scan"}, "name": "33a2cef8a12727d4a390e8fa9da743fd", "is_reserved": 0}, {"is_disabled": 0, "fusion_lon": 0.0, "fusion_lat": 0.0, "lat": 38.96217, "type": "electric_scooter", "lon": -77.02805066666667, "bike_id": "556c142ee6a05d7b87d9d709bc85c68f", "rental_uris": {"android": "https://dc.lft.to/lastmile_qr_scan", "ios": "https://dc.lft.to/lastmile_qr_scan"}, "name": "556c142ee6a05d7b87d9d709bc85c68f", "is_reserved": 0}, {"is_disabled": 0, "fusion_lon": 0.0, "fusion_lat": 0.0, "lat": 38.846200333333336, "type": "electric_scooter", "lon": -76.99629916666666, "bike_id": "9212074fe07e04687110376eeb56b993", "rental_uris": {"android": "https://dc.lft.to/lastmile_qr_scan", "ios": "https://dc.lft.to/lastmile_qr_scan"}, "name": "9212074fe07e04687110376eeb56b993", "is_reserved": 0}, {"is_disabled": 0, "fusion_lon": 0.0, "fusion_lat": 0.0, "lat": 38.9285435, "type": "electric_scooter", "lon": -76.99775583333333, "bike_id": "2726854e38fd744bb56471dcddc84bbf", "rental_uris": {"android": "https://dc.lft.to/lastmile_qr_scan", "ios": "https://dc.lft.to/lastmile_qr_scan"}, "name": "2726854e38fd744bb56471dcddc84bbf", "is_reserved": 0}, {"is_disabled": 0, "fusion_lon": 0.0, "fusion_lat": 0.0, "lat": 38.907849, "type": "electric_scooter", "lon": -77.04669016666666, "bike_id": "ca54f94627b22377348c31422e2cdc33", "rental_uris": {"android": "https://dc.lft.to/lastmile_qr_scan", "ios": "https://dc.lft.to/lastmile_qr_scan"}, "name": "ca54f94627b22377348c31422e2cdc33", "is_reserved": 0}, {"is_disabled": 0, "fusion_lon": 0.0, "fusion_lat": 0.0, "lat": 38.88516883333333, "type": "electric_scooter", "lon": -77.020919, "bike_id": "332902ceadeed8f7a259701764d44d7a", "rental_uris": {"android": "https://dc.lft.to/lastmile_qr_scan", "ios": "https://dc.lft.to/lastmile_qr_scan"}, "name": "332902ceadeed8f7a259701764d44d7a", "is_reserved": 0}, {"is_disabled": 0, "fusion_lon": 0.0, "fusion_lat": 0.0, "lat": 38.9138595, "type": "electric_scooter", "lon": -77.03969616666667, "bike_id": "2d6f442928cc3ae6d37828c42ea158af", "rental_uris": {"android": "https://dc.lft.to/lastmile_qr_scan", "ios": "https://dc.lft.to/lastmile_qr_scan"}, "name": "2d6f442928cc3ae6d37828c42ea158af", "is_reserved": 0}, {"is_disabled": 0, "fusion_lon": 0.0, "fusion_lat": 0.0, "lat": 38.852821666666664, "type": "electric_bike", "lon": -76.98157733333333, "bike_id": "532ab3a2a3cd1ede2cb448f909d8771c", "rental_uris": {"android": "https://dc.lft.to/lastmile_qr_scan", "ios": "https://dc.lft.to/lastmile_qr_scan"}, "name": "532ab3a2a3cd1ede2cb448f909d8771c", "is_reserved": 0}, {"is_disabled": 0, "fusion_lon": 0.0, "fusion_lat": 0.0, "lat": 38.9160255, "type": "electric_scooter", "lon": -77.04017316666666, "bike_id": "8038d00fb57ad0b48bda5df55bedcb24", "rental_uris": {"android": "https://dc.lft.to/lastmile_qr_scan", "ios": "https://dc.lft.to/lastmile_qr_scan"}, "name": "8038d00fb57ad0b48bda5df55bedcb24", "is_reserved": 0}, {"is_disabled": 0, "fusion_lon": 0.0, "fusion_lat": 0.0, "lat": 38.904749, "type": "electric_bike", "lon": -76.9295055, "bike_id": "ea9a1930d337e06cae99271bd4d99d40", "rental_uris": {"android": "https://dc.lft.to/lastmile_qr_scan", "ios": "https://dc.lft.to/lastmile_qr_scan"}, "name": "ea9a1930d337e06cae99271bd4d99d40", "is_reserved": 0}, {"is_disabled": 0, "fusion_lon": 0.0, "fusion_lat": 0.0, "lat": 38.80366716666666, "type": "electric_bike", "lon": -77.03896, "bike_id": "8a11500bdecf5537d07e429b65be6443", "rental_uris": {"android": "https://dc.lft.to/lastmile_qr_scan", "ios": "https://dc.lft.to/lastmile_qr_scan"}, "name": "8a11500bdecf5537d07e429b65be6443", "is_reserved": 0}, {"is_disabled": 0, "fusion_lon": 0.0, "fusion_lat": 0.0, "lat": 38.902648166666665, "type": "electric_scooter", "lon": -77.03444083333333, "bike_id": "b099bcc1d04ad1848dd4f1b609b2bfaa", "rental_uris": {"android": "https://dc.lft.to/lastmile_qr_scan", "ios": "https://dc.lft.to/lastmile_qr_scan"}, "name": "b099bcc1d04ad1848dd4f1b609b2bfaa", "is_reserved": 0}, {"is_disabled": 0, "fusion_lon": 0.0, "fusion_lat": 0.0, "lat": 38.93357866666667, "type": "electric_scooter", "lon": -77.03878916666666, "bike_id": "c6f613e2128a93532335bcb71caa34d6", "rental_uris": {"android": "https://dc.lft.to/lastmile_qr_scan", "ios": "https://dc.lft.to/lastmile_qr_scan"}, "name": "c6f613e2128a93532335bcb71caa34d6", "is_reserved": 0}, {"is_disabled": 0, "fusion_lon": 0.0, "fusion_lat": 0.0, "lat": 38.90278283333333, "type": "electric_scooter", "lon": -77.03449616666667, "bike_id": "b6feb3616e5254e401a18111bdbf418b", "rental_uris": {"android": "https://dc.lft.to/lastmile_qr_scan", "ios": "https://dc.lft.to/lastmile_qr_scan"}, "name": "b6feb3616e5254e401a18111bdbf418b", "is_reserved": 0}, {"is_disabled": 0, "fusion_lon": 0.0, "fusion_lat": 0.0, "lat": 38.931570666666666, "type": "electric_scooter", "lon": -77.07289333333334, "bike_id": "e33500a5f6ce79f7a5cf2216a9b3f9a6", "rental_uris": {"android": "https://dc.lft.to/lastmile_qr_scan", "ios": "https://dc.lft.to/lastmile_qr_scan"}, "name": "e33500a5f6ce79f7a5cf2216a9b3f9a6", "is_reserved": 0}, {"is_disabled": 0, "fusion_lon": 0.0, "fusion_lat": 0.0, "lat": 38.89689683333334, "type": "electric_scooter", "lon": -77.0050325, "bike_id": "3046c26f73cf1d1046d4430b200b0eff", "rental_uris": {"android": "https://dc.lft.to/lastmile_qr_scan", "ios": "https://dc.lft.to/lastmile_qr_scan"}, "name": "3046c26f73cf1d1046d4430b200b0eff", "is_reserved": 0}, {"is_disabled": 0, "fusion_lon": 0.0, "fusion_lat": 0.0, "lat": 38.93510783333333, "type": "electric_bike", "lon": -76.94957166666667, "bike_id": "7cc9c3c9247b958e987176dfe3a480d6", "rental_uris": {"android": "https://dc.lft.to/lastmile_qr_scan", "ios": "https://dc.lft.to/lastmile_qr_scan"}, "name": "7cc9c3c9247b958e987176dfe3a480d6", "is_reserved": 0}, {"is_disabled": 0, "fusion_lon": 0.0, "fusion_lat": 0.0, "lat": 38.96623866666667, "type": "electric_bike", "lon": -77.03439233333333, "bike_id": "237654c3bc40e0b2e56ff1b7e46b1812", "rental_uris": {"android": "https://dc.lft.to/lastmile_qr_scan", "ios": "https://dc.lft.to/lastmile_qr_scan"}, "name": "237654c3bc40e0b2e56ff1b7e46b1812", "is_reserved": 0}, {"is_disabled": 0, "fusion_lon": 0.0, "fusion_lat": 0.0, "lat": 38.90060533333333, "type": "electric_bike", "lon": -76.9881995, "bike_id": "25b21ec26ab5f9e44a03bc4ebacda3bf", "rental_uris": {"android": "https://dc.lft.to/lastmile_qr_scan", "ios": "https://dc.lft.to/lastmile_qr_scan"}, "name": "25b21ec26ab5f9e44a03bc4ebacda3bf", "is_reserved": 0}, {"is_disabled": 0, "fusion_lon": 0.0, "fusion_lat": 0.0, "lat": 38.904993166666664, "type": "electric_scooter", "lon": -77.05022516666666, "bike_id": "7424c3726fc7bddbe037bea124ef8515", "rental_uris": {"android": "https://dc.lft.to/lastmile_qr_scan", "ios": "https://dc.lft.to/lastmile_qr_scan"}, "name": "7424c3726fc7bddbe037bea124ef8515", "is_reserved": 0}, {"is_disabled": 0, "fusion_lon": 0.0, "fusion_lat": 0.0, "lat": 39.099456333333336, "type": "electric_bike", "lon": -77.18791116666667, "bike_id": "5a2b961d2bacbfddfbb96e1c9e77d583", "rental_uris": {"android": "https://dc.lft.to/lastmile_qr_scan", "ios": "https://dc.lft.to/lastmile_qr_scan"}, "name": "5a2b961d2bacbfddfbb96e1c9e77d583", "is_reserved": 0}, {"is_disabled": 0, "fusion_lon": 0.0, "fusion_lat": 0.0, "lat": 38.91754866666667, "type": "electric_scooter", "lon": -77.02593966666667, "bike_id": "7fee82a86446d69700dbac6abe4660b2", "rental_uris": {"android": "https://dc.lft.to/lastmile_qr_scan", "ios": "https://dc.lft.to/lastmile_qr_scan"}, "name": "7fee82a86446d69700dbac6abe4660b2", "is_reserved": 0}, {"is_disabled": 0, "fusion_lon": 0.0, "fusion_lat": 0.0, "lat": 38.908043166666666, "type": "electric_scooter", "lon": -77.04988533333334, "bike_id": "affe0935765bd97050b6bdb6d6c7f6fc", "rental_uris": {"android": "https://dc.lft.to/lastmile_qr_scan", "ios": "https://dc.lft.to/lastmile_qr_scan"}, "name": "affe0935765bd97050b6bdb6d6c7f6fc", "is_reserved": 0}, {"is_disabled": 0, "fusion_lon": 0.0, "fusion_lat": 0.0, "lat": 38.90033666666667, "type": "electric_scooter", "lon": -77.00214783333334, "bike_id": "bdbf3ad886129d550492a8d8fed4656b", "rental_uris": {"android": "https://dc.lft.to/lastmile_qr_scan", "ios": "https://dc.lft.to/lastmile_qr_scan"}, "name": "bdbf3ad886129d550492a8d8fed4656b", "is_reserved": 0}, {"is_disabled": 0, "fusion_lon": 0.0, "fusion_lat": 0.0, "lat": 38.83815766666667, "type": "electric_scooter", "lon": -77.00432666666667, "bike_id": "40ba55d58f7593e28afa84a2edbe4e0f", "rental_uris": {"android": "https://dc.lft.to/lastmile_qr_scan", "ios": "https://dc.lft.to/lastmile_qr_scan"}, "name": "40ba55d58f7593e28afa84a2edbe4e0f", "is_reserved": 0}, {"is_disabled": 0, "fusion_lon": 0.0, "fusion_lat": 0.0, "lat": 38.928116, "type": "electric_scooter", "lon": -77.05426016666667, "bike_id": "26adead8eb141c3697649b93d37437f0", "rental_uris": {"android": "https://dc.lft.to/lastmile_qr_scan", "ios": "https://dc.lft.to/lastmile_qr_scan"}, "name": "26adead8eb141c3697649b93d37437f0", "is_reserved": 0}, {"is_disabled": 0, "fusion_lon": 0.0, "fusion_lat": 0.0, "lat": 38.92481266666667, "type": "electric_scooter", "lon": -77.034858, "bike_id": "649e6abf166eae9619d5e3519f715b2b", "rental_uris": {"android": "https://dc.lft.to/lastmile_qr_scan", "ios": "https://dc.lft.to/lastmile_qr_scan"}, "name": "649e6abf166eae9619d5e3519f715b2b", "is_reserved": 0}, {"is_disabled": 0, "fusion_lon": 0.0, "fusion_lat": 0.0, "lat": 38.895278166666664, "type": "electric_scooter", "lon": -77.00331283333334, "bike_id": "af7229d85253f27809765d45834bd95c", "rental_uris": {"android": "https://dc.lft.to/lastmile_qr_scan", "ios": "https://dc.lft.to/lastmile_qr_scan"}, "name": "af7229d85253f27809765d45834bd95c", "is_reserved": 0}, {"is_disabled": 0, "fusion_lon": 0.0, "fusion_lat": 0.0, "lat": 38.94465016666667, "type": "electric_bike", "lon": -77.04344766666667, "bike_id": "33feeb01cb819735ce64234406506b2e", "rental_uris": {"android": "https://dc.lft.to/lastmile_qr_scan", "ios": "https://dc.lft.to/lastmile_qr_scan"}, "name": "33feeb01cb819735ce64234406506b2e", "is_reserved": 0}, {"is_disabled": 0, "fusion_lon": 0.0, "fusion_lat": 0.0, "lat": 38.911955666666664, "type": "electric_scooter", "lon": -77.04170283333333, "bike_id": "0257268379ae1a8446828a6ec72bbdf8", "rental_uris": {"android": "https://dc.lft.to/lastmile_qr_scan", "ios": "https://dc.lft.to/lastmile_qr_scan"}, "name": "0257268379ae1a8446828a6ec72bbdf8", "is_reserved": 0}, {"is_disabled": 0, "fusion_lon": 0.0, "fusion_lat": 0.0, "lat": 38.949003, "type": "electric_bike", "lon": -76.963724, "bike_id": "ac3597aa6a92359535d3887507211343", "rental_uris": {"android": "https://dc.lft.to/lastmile_qr_scan", "ios": "https://dc.lft.to/lastmile_qr_scan"}, "name": "ac3597aa6a92359535d3887507211343", "is_reserved": 0}, {"is_disabled": 0, "fusion_lon": 0.0, "fusion_lat": 0.0, "lat": 38.90019266666667, "type": "electric_scooter", "lon": -77.01187766666666, "bike_id": "8e76d4634c427192c672a3931885a9af", "rental_uris": {"android": "https://dc.lft.to/lastmile_qr_scan", "ios": "https://dc.lft.to/lastmile_qr_scan"}, "name": "8e76d4634c427192c672a3931885a9af", "is_reserved": 0}, {"is_disabled": 0, "fusion_lon": 0.0, "fusion_lat": 0.0, "lat": 39.05269833333333, "type": "electric_bike", "lon": -77.04387866666667, "bike_id": "2fb480ae384872618c4ee67cb4a5733e", "rental_uris": {"android": "https://dc.lft.to/lastmile_qr_scan", "ios": "https://dc.lft.to/lastmile_qr_scan"}, "name": "2fb480ae384872618c4ee67cb4a5733e", "is_reserved": 0}, {"is_disabled": 0, "fusion_lon": 0.0, "fusion_lat": 0.0, "lat": 38.917888833333336, "type": "electric_scooter", "lon": -77.01780566666666, "bike_id": "005f1c99fa3674eddc323ec82e10d362", "rental_uris": {"android": "https://dc.lft.to/lastmile_qr_scan", "ios": "https://dc.lft.to/lastmile_qr_scan"}, "name": "005f1c99fa3674eddc323ec82e10d362", "is_reserved": 0}, {"is_disabled": 0, "fusion_lon": 0.0, "fusion_lat": 0.0, "lat": 38.9963745, "type": "electric_bike", "lon": -77.02811916666667, "bike_id": "adbd0eb228dc645c3b0c8b4077b1cf69", "rental_uris": {"android": "https://dc.lft.to/lastmile_qr_scan", "ios": "https://dc.lft.to/lastmile_qr_scan"}, "name": "adbd0eb228dc645c3b0c8b4077b1cf69", "is_reserved": 0}, {"is_disabled": 0, "fusion_lon": 0.0, "fusion_lat": 0.0, "lat": 38.8845775, "type": "electric_bike", "lon": -76.91640933333333, "bike_id": "9acece9bffff6f725ba019916dbb1d2e", "rental_uris": {"android": "https://dc.lft.to/lastmile_qr_scan", "ios": "https://dc.lft.to/lastmile_qr_scan"}, "name": "9acece9bffff6f725ba019916dbb1d2e", "is_reserved": 0}, {"is_disabled": 0, "fusion_lon": 0.0, "fusion_lat": 0.0, "lat": 38.914268166666666, "type": "electric_scooter", "lon": -77.0453235, "bike_id": "b5a560c0d62d3c60691f47ef385b5ee9", "rental_uris": {"android": "https://dc.lft.to/lastmile_qr_scan", "ios": "https://dc.lft.to/lastmile_qr_scan"}, "name": "b5a560c0d62d3c60691f47ef385b5ee9", "is_reserved": 0}, {"is_disabled": 0, "fusion_lon": 0.0, "fusion_lat": 0.0, "lat": 38.9215825, "type": "electric_scooter", "lon": -77.03383816666667, "bike_id": "4443d4ed759ce9eeae50faf612900e05", "rental_uris": {"android": "https://dc.lft.to/lastmile_qr_scan", "ios": "https://dc.lft.to/lastmile_qr_scan"}, "name": "4443d4ed759ce9eeae50faf612900e05", "is_reserved": 0}, {"is_disabled": 0, "fusion_lon": 0.0, "fusion_lat": 0.0, "lat": 39.08898633333333, "type": "electric_bike", "lon": -77.17845116666666, "bike_id": "989c84530de92eb4d3929174d03339b6", "rental_uris": {"android": "https://dc.lft.to/lastmile_qr_scan", "ios": "https://dc.lft.to/lastmile_qr_scan"}, "name": "989c84530de92eb4d3929174d03339b6", "is_reserved": 0}, {"is_disabled": 0, "fusion_lon": 0.0, "fusion_lat": 0.0, "lat": 38.928678833333336, "type": "electric_scooter", "lon": -77.03163933333333, "bike_id": "7a772c34bf65c4b89cc31ad5e755257d", "rental_uris": {"android": "https://dc.lft.to/lastmile_qr_scan", "ios": "https://dc.lft.to/lastmile_qr_scan"}, "name": "7a772c34bf65c4b89cc31ad5e755257d", "is_reserved": 0}, {"is_disabled": 0, "fusion_lon": 0.0, "fusion_lat": 0.0, "lat": 38.911952166666666, "type": "electric_scooter", "lon": -77.0321795, "bike_id": "9f076ac4517ba5866b5e23542a9071dd", "rental_uris": {"android": "https://dc.lft.to/lastmile_qr_scan", "ios": "https://dc.lft.to/lastmile_qr_scan"}, "name": "9f076ac4517ba5866b5e23542a9071dd", "is_reserved": 0}, {"is_disabled": 0, "fusion_lon": 0.0, "fusion_lat": 0.0, "lat": 38.92310066666667, "type": "electric_scooter", "lon": -77.047401, "bike_id": "8e06a87daba84b4bf09fb9f6e08e5f87", "rental_uris": {"android": "https://dc.lft.to/lastmile_qr_scan", "ios": "https://dc.lft.to/lastmile_qr_scan"}, "name": "8e06a87daba84b4bf09fb9f6e08e5f87", "is_reserved": 0}, {"is_disabled": 0, "fusion_lon": 0.0, "fusion_lat": 0.0, "lat": 38.935091666666665, "type": "electric_scooter", "lon": -77.08224333333334, "bike_id": "e216d78b9fe38cd1be836f623dcaec2d", "rental_uris": {"android": "https://dc.lft.to/lastmile_qr_scan", "ios": "https://dc.lft.to/lastmile_qr_scan"}, "name": "e216d78b9fe38cd1be836f623dcaec2d", "is_reserved": 0}, {"is_disabled": 0, "fusion_lon": 0.0, "fusion_lat": 0.0, "lat": 38.8443585, "type": "electric_scooter", "lon": -76.9978505, "bike_id": "f813f8fa11ce48de6c27505aafacb0c7", "rental_uris": {"android": "https://dc.lft.to/lastmile_qr_scan", "ios": "https://dc.lft.to/lastmile_qr_scan"}, "name": "f813f8fa11ce48de6c27505aafacb0c7", "is_reserved": 0}, {"is_disabled": 0, "fusion_lon": 0.0, "fusion_lat": 0.0, "lat": 38.91821266666667, "type": "electric_scooter", "lon": -77.02479583333333, "bike_id": "faa12fc4a2eeee5b7cd7f4a88671cec3", "rental_uris": {"android": "https://dc.lft.to/lastmile_qr_scan", "ios": "https://dc.lft.to/lastmile_qr_scan"}, "name": "faa12fc4a2eeee5b7cd7f4a88671cec3", "is_reserved": 0}, {"is_disabled": 0, "fusion_lon": 0.0, "fusion_lat": 0.0, "lat": 38.9278645, "type": "electric_scooter", "lon": -77.014207, "bike_id": "25f9a00e79c5852d28e0ea226bebd229", "rental_uris": {"android": "https://dc.lft.to/lastmile_qr_scan", "ios": "https://dc.lft.to/lastmile_qr_scan"}, "name": "25f9a00e79c5852d28e0ea226bebd229", "is_reserved": 0}, {"is_disabled": 0, "fusion_lon": 0.0, "fusion_lat": 0.0, "lat": 38.907361333333334, "type": "electric_scooter", "lon": -77.04540233333333, "bike_id": "6a28ce812c845d4dbfc876a11ac2d238", "rental_uris": {"android": "https://dc.lft.to/lastmile_qr_scan", "ios": "https://dc.lft.to/lastmile_qr_scan"}, "name": "6a28ce812c845d4dbfc876a11ac2d238", "is_reserved": 0}, {"is_disabled": 0, "fusion_lon": 0.0, "fusion_lat": 0.0, "lat": 38.90075366666667, "type": "electric_scooter", "lon": -77.0020975, "bike_id": "c8afa8a7718b08583fe98e905578a8de", "rental_uris": {"android": "https://dc.lft.to/lastmile_qr_scan", "ios": "https://dc.lft.to/lastmile_qr_scan"}, "name": "c8afa8a7718b08583fe98e905578a8de", "is_reserved": 0}, {"is_disabled": 0, "fusion_lon": 0.0, "fusion_lat": 0.0, "lat": 38.93538383333333, "type": "electric_scooter", "lon": -77.02358766666667, "bike_id": "53004d6db2ba9f427c821ec6dd1f7da3", "rental_uris": {"android": "https://dc.lft.to/lastmile_qr_scan", "ios": "https://dc.lft.to/lastmile_qr_scan"}, "name": "53004d6db2ba9f427c821ec6dd1f7da3", "is_reserved": 0}, {"is_disabled": 0, "fusion_lon": 0.0, "fusion_lat": 0.0, "lat": 38.8729125, "type": "electric_scooter", "lon": -77.0099185, "bike_id": "067c3a35fd6e5350ba59a7c11b798e65", "rental_uris": {"android": "https://dc.lft.to/lastmile_qr_scan", "ios": "https://dc.lft.to/lastmile_qr_scan"}, "name": "067c3a35fd6e5350ba59a7c11b798e65", "is_reserved": 0}, {"is_disabled": 0, "fusion_lon": 0.0, "fusion_lat": 0.0, "lat": 38.94320333333334, "type": "electric_scooter", "lon": -77.08580916666666, "bike_id": "95b51d04babcfcbddb7c66e56149d357", "rental_uris": {"android": "https://dc.lft.to/lastmile_qr_scan", "ios": "https://dc.lft.to/lastmile_qr_scan"}, "name": "95b51d04babcfcbddb7c66e56149d357", "is_reserved": 0}, {"is_disabled": 0, "fusion_lon": 0.0, "fusion_lat": 0.0, "lat": 38.892743, "type": "electric_scooter", "lon": -76.937242, "bike_id": "6d5e512ddd45d178270831bc49ccb406", "rental_uris": {"android": "https://dc.lft.to/lastmile_qr_scan", "ios": "https://dc.lft.to/lastmile_qr_scan"}, "name": "6d5e512ddd45d178270831bc49ccb406", "is_reserved": 0}, {"is_disabled": 0, "fusion_lon": 0.0, "fusion_lat": 0.0, "lat": 38.898521333333335, "type": "electric_scooter", "lon": -77.03316666666667, "bike_id": "f72d64f0edeafcfb65fc41f20e020fc4", "rental_uris": {"android": "https://dc.lft.to/lastmile_qr_scan", "ios": "https://dc.lft.to/lastmile_qr_scan"}, "name": "f72d64f0edeafcfb65fc41f20e020fc4", "is_reserved": 0}, {"is_disabled": 0, "fusion_lon": 0.0, "fusion_lat": 0.0, "lat": 38.912518, "type": "electric_scooter", "lon": -77.041576, "bike_id": "a0ca8312e7accbaa501cfec5cb325748", "rental_uris": {"android": "https://dc.lft.to/lastmile_qr_scan", "ios": "https://dc.lft.to/lastmile_qr_scan"}, "name": "a0ca8312e7accbaa501cfec5cb325748", "is_reserved": 0}, {"is_disabled": 0, "fusion_lon": 0.0, "fusion_lat": 0.0, "lat": 38.91089683333333, "type": "electric_scooter", "lon": -77.02405866666666, "bike_id": "de74eba3d78639393680b6211ed1a192", "rental_uris": {"android": "https://dc.lft.to/lastmile_qr_scan", "ios": "https://dc.lft.to/lastmile_qr_scan"}, "name": "de74eba3d78639393680b6211ed1a192", "is_reserved": 0}, {"is_disabled": 0, "fusion_lon": 0.0, "fusion_lat": 0.0, "lat": 38.916658, "type": "electric_scooter", "lon": -77.0271235, "bike_id": "f27b717e25d4f0b4f2f4bb07df2c2c30", "rental_uris": {"android": "https://dc.lft.to/lastmile_qr_scan", "ios": "https://dc.lft.to/lastmile_qr_scan"}, "name": "f27b717e25d4f0b4f2f4bb07df2c2c30", "is_reserved": 0}, {"is_disabled": 0, "fusion_lon": 0.0, "fusion_lat": 0.0, "lat": 38.910083666666665, "type": "electric_scooter", "lon": -77.03741633333334, "bike_id": "be39172de3395eb599b6d5760c1e5ece", "rental_uris": {"android": "https://dc.lft.to/lastmile_qr_scan", "ios": "https://dc.lft.to/lastmile_qr_scan"}, "name": "be39172de3395eb599b6d5760c1e5ece", "is_reserved": 0}, {"is_disabled": 0, "fusion_lon": 0.0, "fusion_lat": 0.0, "lat": 38.92432566666667, "type": "electric_scooter", "lon": -77.0425385, "bike_id": "4070c527a2a0908433a93e3691f0ae65", "rental_uris": {"android": "https://dc.lft.to/lastmile_qr_scan", "ios": "https://dc.lft.to/lastmile_qr_scan"}, "name": "4070c527a2a0908433a93e3691f0ae65", "is_reserved": 0}, {"is_disabled": 0, "fusion_lon": 0.0, "fusion_lat": 0.0, "lat": 38.886037, "type": "electric_scooter", "lon": -76.99781933333334, "bike_id": "9c0ae20be825e22c7813a9bcb6f40323", "rental_uris": {"android": "https://dc.lft.to/lastmile_qr_scan", "ios": "https://dc.lft.to/lastmile_qr_scan"}, "name": "9c0ae20be825e22c7813a9bcb6f40323", "is_reserved": 0}, {"is_disabled": 0, "fusion_lon": 0.0, "fusion_lat": 0.0, "lat": 38.90277716666667, "type": "electric_scooter", "lon": -77.03847966666666, "bike_id": "3ed4bedf822f9da9b5869bbb23fb01b9", "rental_uris": {"android": "https://dc.lft.to/lastmile_qr_scan", "ios": "https://dc.lft.to/lastmile_qr_scan"}, "name": "3ed4bedf822f9da9b5869bbb23fb01b9", "is_reserved": 0}, {"is_disabled": 0, "fusion_lon": 0.0, "fusion_lat": 0.0, "lat": 38.8923615, "type": "electric_scooter", "lon": -77.03353566666667, "bike_id": "6a8fddaf0850ee8d1289b27da87d6770", "rental_uris": {"android": "https://dc.lft.to/lastmile_qr_scan", "ios": "https://dc.lft.to/lastmile_qr_scan"}, "name": "6a8fddaf0850ee8d1289b27da87d6770", "is_reserved": 0}, {"is_disabled": 0, "fusion_lon": 0.0, "fusion_lat": 0.0, "lat": 38.937026, "type": "electric_scooter", "lon": -77.05600983333333, "bike_id": "64316e6e3689462351ebd740cd315107", "rental_uris": {"android": "https://dc.lft.to/lastmile_qr_scan", "ios": "https://dc.lft.to/lastmile_qr_scan"}, "name": "64316e6e3689462351ebd740cd315107", "is_reserved": 0}, {"is_disabled": 0, "fusion_lon": 0.0, "fusion_lat": 0.0, "lat": 38.9059235, "type": "electric_scooter", "lon": -77.0472085, "bike_id": "0f26e5f05835c52ff9c2a279e831a6b5", "rental_uris": {"android": "https://dc.lft.to/lastmile_qr_scan", "ios": "https://dc.lft.to/lastmile_qr_scan"}, "name": "0f26e5f05835c52ff9c2a279e831a6b5", "is_reserved": 0}, {"is_disabled": 0, "fusion_lon": 0.0, "fusion_lat": 0.0, "lat": 38.93235633333333, "type": "electric_scooter", "lon": -76.9994075, "bike_id": "397a0c54805f9d0a0040b7e46619a57d", "rental_uris": {"android": "https://dc.lft.to/lastmile_qr_scan", "ios": "https://dc.lft.to/lastmile_qr_scan"}, "name": "397a0c54805f9d0a0040b7e46619a57d", "is_reserved": 0}, {"is_disabled": 0, "fusion_lon": 0.0, "fusion_lat": 0.0, "lat": 38.95301, "type": "electric_scooter", "lon": -77.06981033333334, "bike_id": "e0ab1e74302fba22993a9f32acf16832", "rental_uris": {"android": "https://dc.lft.to/lastmile_qr_scan", "ios": "https://dc.lft.to/lastmile_qr_scan"}, "name": "e0ab1e74302fba22993a9f32acf16832", "is_reserved": 0}, {"is_disabled": 0, "fusion_lon": 0.0, "fusion_lat": 0.0, "lat": 38.88506316666667, "type": "electric_scooter", "lon": -77.020941, "bike_id": "935d7abc7fb7fa999df404425354e6fc", "rental_uris": {"android": "https://dc.lft.to/lastmile_qr_scan", "ios": "https://dc.lft.to/lastmile_qr_scan"}, "name": "935d7abc7fb7fa999df404425354e6fc", "is_reserved": 0}, {"is_disabled": 0, "fusion_lon": 0.0, "fusion_lat": 0.0, "lat": 38.888365666666665, "type": "electric_scooter", "lon": -76.91783583333333, "bike_id": "a0ef7bdcd28ee7915062a138d1f54073", "rental_uris": {"android": "https://dc.lft.to/lastmile_qr_scan", "ios": "https://dc.lft.to/lastmile_qr_scan"}, "name": "a0ef7bdcd28ee7915062a138d1f54073", "is_reserved": 0}, {"is_disabled": 0, "fusion_lon": 0.0, "fusion_lat": 0.0, "lat": 38.897037166666664, "type": "electric_scooter", "lon": -77.02173883333333, "bike_id": "175dd5bf7df1c36d76b23d4b3b70ba20", "rental_uris": {"android": "https://dc.lft.to/lastmile_qr_scan", "ios": "https://dc.lft.to/lastmile_qr_scan"}, "name": "175dd5bf7df1c36d76b23d4b3b70ba20", "is_reserved": 0}, {"is_disabled": 0, "fusion_lon": 0.0, "fusion_lat": 0.0, "lat": 38.94813516666667, "type": "electric_bike", "lon": -77.02982816666666, "bike_id": "1b94ea7f8c1ac102b3c4c3abdc9284d8", "rental_uris": {"android": "https://dc.lft.to/lastmile_qr_scan", "ios": "https://dc.lft.to/lastmile_qr_scan"}, "name": "1b94ea7f8c1ac102b3c4c3abdc9284d8", "is_reserved": 0}, {"is_disabled": 0, "fusion_lon": 0.0, "fusion_lat": 0.0, "lat": 38.94901733333333, "type": "electric_bike", "lon": -76.9637375, "bike_id": "8a11302f0663c68f559744a11516d7dc", "rental_uris": {"android": "https://dc.lft.to/lastmile_qr_scan", "ios": "https://dc.lft.to/lastmile_qr_scan"}, "name": "8a11302f0663c68f559744a11516d7dc", "is_reserved": 0}, {"is_disabled": 0, "fusion_lon": 0.0, "fusion_lat": 0.0, "lat": 38.91711083333333, "type": "electric_scooter", "lon": -77.03395833333333, "bike_id": "ee1b5946524e5d50fc78351c30f318f1", "rental_uris": {"android": "https://dc.lft.to/lastmile_qr_scan", "ios": "https://dc.lft.to/lastmile_qr_scan"}, "name": "ee1b5946524e5d50fc78351c30f318f1", "is_reserved": 0}, {"is_disabled": 0, "fusion_lon": 0.0, "fusion_lat": 0.0, "lat": 38.915521, "type": "electric_scooter", "lon": -77.03877716666666, "bike_id": "ca0855db3eaa19267424002e64780065", "rental_uris": {"android": "https://dc.lft.to/lastmile_qr_scan", "ios": "https://dc.lft.to/lastmile_qr_scan"}, "name": "ca0855db3eaa19267424002e64780065", "is_reserved": 0}, {"is_disabled": 0, "fusion_lon": 0.0, "fusion_lat": 0.0, "lat": 38.91909916666667, "type": "electric_scooter", "lon": -77.03205783333334, "bike_id": "73269b105ea0154ed7228b03f1263ffc", "rental_uris": {"android": "https://dc.lft.to/lastmile_qr_scan", "ios": "https://dc.lft.to/lastmile_qr_scan"}, "name": "73269b105ea0154ed7228b03f1263ffc", "is_reserved": 0}, {"is_disabled": 0, "fusion_lon": 0.0, "fusion_lat": 0.0, "lat": 38.908249833333336, "type": "electric_scooter", "lon": -77.043475, "bike_id": "8a32871d8b81d0e4da0bf8a828779e8a", "rental_uris": {"android": "https://dc.lft.to/lastmile_qr_scan", "ios": "https://dc.lft.to/lastmile_qr_scan"}, "name": "8a32871d8b81d0e4da0bf8a828779e8a", "is_reserved": 0}, {"is_disabled": 0, "fusion_lon": 0.0, "fusion_lat": 0.0, "lat": 38.93414833333333, "type": "electric_scooter", "lon": -77.042774, "bike_id": "8f4a029022838e05276d25f768755aa1", "rental_uris": {"android": "https://dc.lft.to/lastmile_qr_scan", "ios": "https://dc.lft.to/lastmile_qr_scan"}, "name": "8f4a029022838e05276d25f768755aa1", "is_reserved": 0}, {"is_disabled": 0, "fusion_lon": 0.0, "fusion_lat": 0.0, "lat": 38.98503916666667, "type": "electric_bike", "lon": -76.98209, "bike_id": "94fe122cf0e22535de83823bacae1c91", "rental_uris": {"android": "https://dc.lft.to/lastmile_qr_scan", "ios": "https://dc.lft.to/lastmile_qr_scan"}, "name": "94fe122cf0e22535de83823bacae1c91", "is_reserved": 0}, {"is_disabled": 0, "fusion_lon": 0.0, "fusion_lat": 0.0, "lat": 38.90046783333333, "type": "electric_scooter", "lon": -76.9882995, "bike_id": "d1f021090a809fe266a716d99a14a07e", "rental_uris": {"android": "https://dc.lft.to/lastmile_qr_scan", "ios": "https://dc.lft.to/lastmile_qr_scan"}, "name": "d1f021090a809fe266a716d99a14a07e", "is_reserved": 0}, {"is_disabled": 0, "fusion_lon": 0.0, "fusion_lat": 0.0, "lat": 38.9232125, "type": "electric_scooter", "lon": -77.04211583333333, "bike_id": "f6a83d62f6b14ffd2c7d6d9b9acd1408", "rental_uris": {"android": "https://dc.lft.to/lastmile_qr_scan", "ios": "https://dc.lft.to/lastmile_qr_scan"}, "name": "f6a83d62f6b14ffd2c7d6d9b9acd1408", "is_reserved": 0}, {"is_disabled": 0, "fusion_lon": 0.0, "fusion_lat": 0.0, "lat": 38.8797785, "type": "electric_scooter", "lon": -76.993721, "bike_id": "d2bb11ec386fc546a84a6e6d8ece6c7d", "rental_uris": {"android": "https://dc.lft.to/lastmile_qr_scan", "ios": "https://dc.lft.to/lastmile_qr_scan"}, "name": "d2bb11ec386fc546a84a6e6d8ece6c7d", "is_reserved": 0}, {"is_disabled": 0, "fusion_lon": 0.0, "fusion_lat": 0.0, "lat": 38.9255365, "type": "electric_scooter", "lon": -77.03785616666667, "bike_id": "c7e822de183f4d0e69647ac08d4aa0d0", "rental_uris": {"android": "https://dc.lft.to/lastmile_qr_scan", "ios": "https://dc.lft.to/lastmile_qr_scan"}, "name": "c7e822de183f4d0e69647ac08d4aa0d0", "is_reserved": 0}, {"is_disabled": 0, "fusion_lon": 0.0, "fusion_lat": 0.0, "lat": 38.838120333333336, "type": "electric_scooter", "lon": -77.00437633333334, "bike_id": "091599e2b51120585777258e770a209a", "rental_uris": {"android": "https://dc.lft.to/lastmile_qr_scan", "ios": "https://dc.lft.to/lastmile_qr_scan"}, "name": "091599e2b51120585777258e770a209a", "is_reserved": 0}, {"is_disabled": 0, "fusion_lon": 0.0, "fusion_lat": 0.0, "lat": 38.9182095, "type": "electric_scooter", "lon": -77.03626416666667, "bike_id": "e89ddc31e34046fc2231fd4521d5272e", "rental_uris": {"android": "https://dc.lft.to/lastmile_qr_scan", "ios": "https://dc.lft.to/lastmile_qr_scan"}, "name": "e89ddc31e34046fc2231fd4521d5272e", "is_reserved": 0}, {"is_disabled": 0, "fusion_lon": 0.0, "fusion_lat": 0.0, "lat": 38.943050666666664, "type": "electric_scooter", "lon": -77.023573, "bike_id": "b62f969279e058474af39f927ff1d544", "rental_uris": {"android": "https://dc.lft.to/lastmile_qr_scan", "ios": "https://dc.lft.to/lastmile_qr_scan"}, "name": "b62f969279e058474af39f927ff1d544", "is_reserved": 0}, {"is_disabled": 0, "fusion_lon": 0.0, "fusion_lat": 0.0, "lat": 38.99084283333333, "type": "electric_bike", "lon": -77.00181916666666, "bike_id": "f850e44ed36f71aaae50eceae35d3369", "rental_uris": {"android": "https://dc.lft.to/lastmile_qr_scan", "ios": "https://dc.lft.to/lastmile_qr_scan"}, "name": "f850e44ed36f71aaae50eceae35d3369", "is_reserved": 0}, {"is_disabled": 0, "fusion_lon": 0.0, "fusion_lat": 0.0, "lat": 38.8546565, "type": "electric_bike", "lon": -76.97096333333333, "bike_id": "6994912231f51203061f2254e19382d8", "rental_uris": {"android": "https://dc.lft.to/lastmile_qr_scan", "ios": "https://dc.lft.to/lastmile_qr_scan"}, "name": "6994912231f51203061f2254e19382d8", "is_reserved": 0}, {"is_disabled": 0, "fusion_lon": 0.0, "fusion_lat": 0.0, "lat": 38.83121966666667, "type": "electric_bike", "lon": -77.04328083333333, "bike_id": "e382908b2a09ea7347cf6f92106cc3ba", "rental_uris": {"android": "https://dc.lft.to/lastmile_qr_scan", "ios": "https://dc.lft.to/lastmile_qr_scan"}, "name": "e382908b2a09ea7347cf6f92106cc3ba", "is_reserved": 0}, {"is_disabled": 0, "fusion_lon": 0.0, "fusion_lat": 0.0, "lat": 39.1150835, "type": "electric_bike", "lon": -77.1955405, "bike_id": "f88234975cc239664baf74eb4fd1727f", "rental_uris": {"android": "https://dc.lft.to/lastmile_qr_scan", "ios": "https://dc.lft.to/lastmile_qr_scan"}, "name": "f88234975cc239664baf74eb4fd1727f", "is_reserved": 0}, {"is_disabled": 0, "fusion_lon": 0.0, "fusion_lat": 0.0, "lat": 38.91927616666667, "type": "electric_scooter", "lon": -77.03233816666666, "bike_id": "b1a57b80bb8f50bf73d125d307dc07b5", "rental_uris": {"android": "https://dc.lft.to/lastmile_qr_scan", "ios": "https://dc.lft.to/lastmile_qr_scan"}, "name": "b1a57b80bb8f50bf73d125d307dc07b5", "is_reserved": 0},