{"data": {"bikes": [{"rental_uris": {"ios": "https://dc.lft.to/lastmile_qr_scan", "android": "https://dc.lft.to/lastmile_qr_scan"}, "lon": -77.0297535, "type": "electric_scooter", "fusion_lat": 0.0, "lat": 38.96229783333333, "name": "d6570ba7c93f941409f38d2177377cf4", "fusion_lon": 0.0, "bike_id": "d6570ba7c93f941409f38d2177377cf4", "is_disabled": 0, "is_reserved": 0}, {"rental_uris": {"ios": "https://dc.lft.to/lastmile_qr_scan", "android": "https://dc.lft.to/lastmile_qr_scan"}, "lon": -77.0268105, "type": "electric_scooter", "fusion_lat": 0.0, "lat": 38.88135416666667, "name": "d60ecfed9f53c7e6129af85bd3dca483", "fusion_lon": 0.0, "bike_id": "d60ecfed9f53c7e6129af85bd3dca483", "is_disabled": 0, "is_reserved": 0}, {"rental_uris": {"ios": "https://dc.lft.to/lastmile_qr_scan", "android": "https://dc.lft.to/lastmile_qr_scan"}, "lon": -77.0469365, "type": "electric_scooter", "fusion_lat": 0.0, "lat": 38.905669333333336, "name": "c197228244594ae95ad313fe1da64157", "fusion_lon": 0.0, "bike_id": "c197228244594ae95ad313fe1da64157", "is_disabled": 0, "is_reserved": 0}, {"rental_uris": {"ios": "https://dc.lft.to/lastmile_qr_scan", "android": "https://dc.lft.to/lastmile_qr_scan"}, "lon": -77.012757, "type": "electric_bike", "fusion_lat": 0.0, "lat": 38.881247333333334, "name": "0a58be3fad29b00b40052acdd4b59d50", "fusion_lon": 0.0, "bike_id": "0a58be3fad29b00b40052acdd4b59d50", "is_disabled": 0, "is_reserved": 0}, {"rental_uris": {"ios": "https://dc.lft.to/lastmile_qr_scan", "android": "https://dc.lft.to/lastmile_qr_scan"}, "lon": -77.00878466666667, "type": "electric_scooter", "fusion_lat": 0.0, "lat": 38.9140445, "name": "5aac6f124750d67b698a3bae349e3704", "fusion_lon": 0.0, "bike_id": "5aac6f124750d67b698a3bae349e3704", "is_disabled": 0, "is_reserved": 0}, {"rental_uris": {"ios": "https://dc.lft.to/lastmile_qr_scan", "android": "https://dc.lft.to/lastmile_qr_scan"}, "lon": -76.927141, "type": "electric_scooter", "fusion_lat": 0.0, "lat": 38.880455833333336, "name": "16b3449eb6135140d7ece48d518378b2", "fusion_lon": 0.0, "bike_id": "16b3449eb6135140d7ece48d518378b2", "is_disabled": 0, "is_reserved": 0}, {"rental_uris": {"ios": "https://dc.lft.to/lastmile_qr_scan", "android": "https://dc.lft.to/lastmile_qr_scan"}, "lon": -77.001355, "type": "electric_scooter", "fusion_lat": 0.0, "lat": 38.904146, "name": "1a10e46bfb5b2204c44ed1d6ec53a09f", "fusion_lon": 0.0, "bike_id": "1a10e46bfb5b2204c44ed1d6ec53a09f", "is_disabled": 0, "is_reserved": 0}, {"rental_uris": {"ios": "https://dc.lft.to/lastmile_qr_scan", "android": "https://dc.lft.to/lastmile_qr_scan"}, "lon": -77.03209116666666, "type": "electric_scooter", "fusion_lat": 0.0, "lat": 38.907468333333334, "name": "3ace466d887a5bdaf42a5facfebbe578", "fusion_lon": 0.0, "bike_id": "3ace466d887a5bdaf42a5facfebbe578", "is_disabled": 0, "is_reserved": 0}, {"rental_uris": {"ios": "https://dc.lft.to/lastmile_qr_scan", "android": "https://dc.lft.to/lastmile_qr_scan"}, "lon": -77.00494016666667, "type": "electric_scooter", "fusion_lat": 0.0, "lat": 38.87857616666667, "name": "354f05d32a5d032af7e9e6885628113f", "fusion_lon": 0.0, "bike_id": "354f05d32a5d032af7e9e6885628113f", "is_disabled": 0, "is_reserved": 0}, {"rental_uris": {"ios": "https://dc.lft.to/lastmile_qr_scan", "android": "https://dc.lft.to/lastmile_qr_scan"}, "lon": -76.92588333333333, "type": "electric_scooter", "fusion_lat": 0.0, "lat": 38.8973005, "name": "997cb65c558be4eba0b465a828b9fd96", "fusion_lon": 0.0, "bike_id": "997cb65c558be4eba0b465a828b9fd96", "is_disabled": 0, "is_reserved": 0}, {"rental_uris": {"ios": "https://dc.lft.to/lastmile_qr_scan", "android": "https://dc.lft.to/lastmile_qr_scan"}, "lon": -77.10337, "type": "electric_bike", "fusion_lat": 0.0, "lat": 38.85229866666667, "name": "c271a64af2b7d69f60c4bc5b52919062", "fusion_lon": 0.0, "bike_id": "c271a64af2b7d69f60c4bc5b52919062", "is_disabled": 0, "is_reserved": 0}, {"rental_uris": {"ios": "https://dc.lft.to/lastmile_qr_scan", "android": "https://dc.lft.to/lastmile_qr_scan"}, "lon": -77.0384765, "type": "electric_scooter", "fusion_lat": 0.0, "lat": 38.913211, "name": "1b88764e7039fb4e809d7c41dd4db06d", "fusion_lon": 0.0, "bike_id": "1b88764e7039fb4e809d7c41dd4db06d", "is_disabled": 0, "is_reserved": 0}, {"rental_uris": {"ios": "https://dc.lft.to/lastmile_qr_scan", "android": "https://dc.lft.to/lastmile_qr_scan"}, "lon": -76.993735, "type": "electric_scooter", "fusion_lat": 0.0, "lat": 38.87970816666667, "name": "ff1d606f8e797754908aa39baeae9364", "fusion_lon": 0.0, "bike_id": "ff1d606f8e797754908aa39baeae9364", "is_disabled": 0, "is_reserved": 0}, {"rental_uris": {"ios": "https://dc.lft.to/lastmile_qr_scan", "android": "https://dc.lft.to/lastmile_qr_scan"}, "lon": -77.07723116666666, "type": "electric_scooter", "fusion_lat": 0.0, "lat": 38.9470945, "name": "1d1a4944f32963a67ebb976a5482b545", "fusion_lon": 0.0, "bike_id": "1d1a4944f32963a67ebb976a5482b545", "is_disabled": 0, "is_reserved": 0}, {"rental_uris": {"ios": "https://dc.lft.to/lastmile_qr_scan", "android": "https://dc.lft.to/lastmile_qr_scan"}, "lon": -77.0550135, "type": "electric_scooter", "fusion_lat": 0.0, "lat": 38.89928716666667, "name": "e7a5979d875e1d2508bfbd6e6e1fee97", "fusion_lon": 0.0, "bike_id": "e7a5979d875e1d2508bfbd6e6e1fee97", "is_disabled": 0, "is_reserved": 0}, {"rental_uris": {"ios": "https://dc.lft.to/lastmile_qr_scan", "android": "https://dc.lft.to/lastmile_qr_scan"}, "lon": -76.98096233333334, "type": "electric_bike", "fusion_lat": 0.0, "lat": 38.8813545, "name": "efba1f3b2b7f05101978ae94e0732679", "fusion_lon": 0.0, "bike_id": "efba1f3b2b7f05101978ae94e0732679", "is_disabled": 0, "is_reserved": 0}, {"rental_uris": {"ios": "https://dc.lft.to/lastmile_qr_scan", "android": "https://dc.lft.to/lastmile_qr_scan"}, "lon": -77.00218516666666, "type": "electric_scooter", "fusion_lat": 0.0, "lat": 38.900188666666665, "name": "1b3a673312255b9bb1e5471a55034ca8", "fusion_lon": 0.0, "bike_id": "1b3a673312255b9bb1e5471a55034ca8", "is_disabled": 0, "is_reserved": 0}, {"rental_uris": {"ios": "https://dc.lft.to/lastmile_qr_scan", "android": "https://dc.lft.to/lastmile_qr_scan"}, "lon": -77.02224033333333, "type": "electric_scooter", "fusion_lat": 0.0, "lat": 38.91275983333333, "name": "2bc17f36d4a08964d321c945d237f568", "fusion_lon": 0.0, "bike_id": "2bc17f36d4a08964d321c945d237f568", "is_disabled": 0, "is_reserved": 0}, {"rental_uris": {"ios": "https://dc.lft.to/lastmile_qr_scan", "android": "https://dc.lft.to/lastmile_qr_scan"}, "lon": -77.04181216666667, "type": "electric_scooter", "fusion_lat": 0.0, "lat": 38.89962466666667, "name": "57f10c472c25fb074f13078fd08be2ea", "fusion_lon": 0.0, "bike_id": "57f10c472c25fb074f13078fd08be2ea", "is_disabled": 0, "is_reserved": 0}, {"rental_uris": {"ios": "https://dc.lft.to/lastmile_qr_scan", "android": "https://dc.lft.to/lastmile_qr_scan"}, "lon": -77.03962916666667, "type": "electric_scooter", "fusion_lat": 0.0, "lat": 38.92327733333333, "name": "7131401539ef427f43352255d9100fe4", "fusion_lon": 0.0, "bike_id": "7131401539ef427f43352255d9100fe4", "is_disabled": 0, "is_reserved": 0}, {"rental_uris": {"ios": "https://dc.lft.to/lastmile_qr_scan", "android": "https://dc.lft.to/lastmile_qr_scan"}, "lon": -77.02326783333334, "type": "electric_scooter", "fusion_lat": 0.0, "lat": 38.88201466666666, "name": "e90fde9f77782b5b818d9094b243fdea", "fusion_lon": 0.0, "bike_id": "e90fde9f77782b5b818d9094b243fdea", "is_disabled": 0, "is_reserved": 0}, {"rental_uris": {"ios": "https://dc.lft.to/lastmile_qr_scan", "android": "https://dc.lft.to/lastmile_qr_scan"}, "lon": -77.02461516666666, "type": "electric_scooter", "fusion_lat": 0.0, "lat": 38.90849983333333, "name": "234a27806e01fee6a73da377331d179a", "fusion_lon": 0.0, "bike_id": "234a27806e01fee6a73da377331d179a", "is_disabled": 0, "is_reserved": 0}, {"rental_uris": {"ios": "https://dc.lft.to/lastmile_qr_scan", "android": "https://dc.lft.to/lastmile_qr_scan"}, "lon": -77.05594966666666, "type": "electric_scooter", "fusion_lat": 0.0, "lat": 38.927749, "name": "0f013166443ffe9e2abd24b63c665b9a", "fusion_lon": 0.0, "bike_id": "0f013166443ffe9e2abd24b63c665b9a", "is_disabled": 0, "is_reserved": 0}, {"rental_uris": {"ios": "https://dc.lft.to/lastmile_qr_scan", "android": "https://dc.lft.to/lastmile_qr_scan"}, "lon": -77.03558733333334, "type": "electric_scooter", "fusion_lat": 0.0, "lat": 38.91812133333333, "name": "eb59d215616a71005151caf877b80802", "fusion_lon": 0.0, "bike_id": "eb59d215616a71005151caf877b80802", "is_disabled": 0, "is_reserved": 0}, {"rental_uris": {"ios": "https://dc.lft.to/lastmile_qr_scan", "android": "https://dc.lft.to/lastmile_qr_scan"}, "lon": -77.02215433333333, "type": "electric_scooter", "fusion_lat": 0.0, "lat": 38.912706166666666, "name": "46afa22373d029d4b7b36f2ab123e48a", "fusion_lon": 0.0, "bike_id": "46afa22373d029d4b7b36f2ab123e48a", "is_disabled": 0, "is_reserved": 0}, {"rental_uris": {"ios": "https://dc.lft.to/lastmile_qr_scan", "android": "https://dc.lft.to/lastmile_qr_scan"}, "lon": -77.03345233333333, "type": "electric_scooter", "fusion_lat": 0.0, "lat": 38.91912716666667, "name": "1dfcbad6770e21acb02a22f9b24b2836", "fusion_lon": 0.0, "bike_id": "1dfcbad6770e21acb02a22f9b24b2836", "is_disabled": 0, "is_reserved": 0}, {"rental_uris": {"ios": "https://dc.lft.to/lastmile_qr_scan", "android": "https://dc.lft.to/lastmile_qr_scan"}, "lon": -77.042538, "type": "electric_scooter", "fusion_lat": 0.0, "lat": 38.908513166666665, "name": "699a11531eb92d8051f750b0902c37a4", "fusion_lon": 0.0, "bike_id": "699a11531eb92d8051f750b0902c37a4", "is_disabled": 0, "is_reserved": 0}, {"rental_uris": {"ios": "https://dc.lft.to/lastmile_qr_scan", "android": "https://dc.lft.to/lastmile_qr_scan"}, "lon": -76.95816683333334, "type": "electric_scooter", "fusion_lat": 0.0, "lat": 38.890555166666665, "name": "228583437877a530527ff0827c710bca", "fusion_lon": 0.0, "bike_id": "228583437877a530527ff0827c710bca", "is_disabled": 0, "is_reserved": 0}, {"rental_uris": {"ios": "https://dc.lft.to/lastmile_qr_scan", "android": "https://dc.lft.to/lastmile_qr_scan"}, "lon": -77.02132766666666, "type": "electric_scooter", "fusion_lat": 0.0, "lat": 38.915544833333335, "name": "6665f64d193202564c49de6f44671a38", "fusion_lon": 0.0, "bike_id": "6665f64d193202564c49de6f44671a38", "is_disabled": 0, "is_reserved": 0}, {"rental_uris": {"ios": "https://dc.lft.to/lastmile_qr_scan", "android": "https://dc.lft.to/lastmile_qr_scan"}, "lon": -77.0412395, "type": "electric_scooter", "fusion_lat": 0.0, "lat": 38.92160366666667, "name": "b020394aea5694c12f996bb0ff5640dd", "fusion_lon": 0.0, "bike_id": "b020394aea5694c12f996bb0ff5640dd", "is_disabled": 0, "is_reserved": 0}, {"rental_uris": {"ios": "https://dc.lft.to/lastmile_qr_scan", "android": "https://dc.lft.to/lastmile_qr_scan"}, "lon": -77.04496466666667, "type": "electric_scooter", "fusion_lat": 0.0, "lat": 38.912835666666666, "name": "72f975b06e474b34e64d5ef574c2bc4a", "fusion_lon": 0.0, "bike_id": "72f975b06e474b34e64d5ef574c2bc4a", "is_disabled": 0, "is_reserved": 0}, {"rental_uris": {"ios": "https://dc.lft.to/lastmile_qr_scan", "android": "https://dc.lft.to/lastmile_qr_scan"}, "lon": -77.0174625, "type": "electric_scooter", "fusion_lat": 0.0, "lat": 38.9038705, "name": "27adeced5cc84428f651bf5b595fc208", "fusion_lon": 0.0, "bike_id": "27adeced5cc84428f651bf5b595fc208", "is_disabled": 0, "is_reserved": 0}, {"rental_uris": {"ios": "https://dc.lft.to/lastmile_qr_scan", "android": "https://dc.lft.to/lastmile_qr_scan"}, "lon": -76.98620583333333, "type": "electric_scooter", "fusion_lat": 0.0, "lat": 38.86822266666667, "name": "c302f212b04db42b25cc1d026bf0de68", "fusion_lon": 0.0, "bike_id": "c302f212b04db42b25cc1d026bf0de68", "is_disabled": 0, "is_reserved": 0}, {"rental_uris": {"ios": "https://dc.lft.to/lastmile_qr_scan", "android": "https://dc.lft.to/lastmile_qr_scan"}, "lon": -77.03261333333333, "type": "electric_scooter", "fusion_lat": 0.0, "lat": 38.9254385, "name": "5d1c775a9e390eb7d7f394df0ce5b949", "fusion_lon": 0.0, "bike_id": "5d1c775a9e390eb7d7f394df0ce5b949", "is_disabled": 0, "is_reserved": 0}, {"rental_uris": {"ios": "https://dc.lft.to/lastmile_qr_scan", "android": "https://dc.lft.to/lastmile_qr_scan"}, "lon": -77.09523116666666, "type": "electric_bike", "fusion_lat": 0.0, "lat": 38.83813033333333, "name": "f67c3632af54e3f339288dd9303ab6ed", "fusion_lon": 0.0, "bike_id": "f67c3632af54e3f339288dd9303ab6ed", "is_disabled": 0, "is_reserved": 0}, {"rental_uris": {"ios": "https://dc.lft.to/lastmile_qr_scan", "android": "https://dc.lft.to/lastmile_qr_scan"}, "lon": -77.06374466666666, "type": "electric_bike", "fusion_lat": 0.0, "lat": 38.90524166666667, "name": "4e79462645f08d00e9a69be453b44291", "fusion_lon": 0.0, "bike_id": "4e79462645f08d00e9a69be453b44291", "is_disabled": 0, "is_reserved": 0}, {"rental_uris": {"ios": "https://dc.lft.to/lastmile_qr_scan", "android": "https://dc.lft.to/lastmile_qr_scan"}, "lon": -77.023986, "type": "electric_scooter", "fusion_lat": 0.0, "lat": 38.917264833333334, "name": "2bdd7e560d31bbec5c1e92af130dd62d", "fusion_lon": 0.0, "bike_id": "2bdd7e560d31bbec5c1e92af130dd62d", "is_disabled": 0, "is_reserved": 0}, {"rental_uris": {"ios": "https://dc.lft.to/lastmile_qr_scan", "android": "https://dc.lft.to/lastmile_qr_scan"}, "lon": -77.05825783333333, "type": "electric_scooter", "fusion_lat": 0.0, "lat": 38.93421933333333, "name": "2da3897569271315a2081f36fff907ec", "fusion_lon": 0.0, "bike_id": "2da3897569271315a2081f36fff907ec", "is_disabled": 0, "is_reserved": 0}, {"rental_uris": {"ios": "https://dc.lft.to/lastmile_qr_scan", "android": "https://dc.lft.to/lastmile_qr_scan"}, "lon": -76.9678325, "type": "electric_scooter", "fusion_lat": 0.0, "lat": 38.86142066666667, "name": "43a784e9a64b943f501f0f210a27eaf7", "fusion_lon": 0.0, "bike_id": "43a784e9a64b943f501f0f210a27eaf7", "is_disabled": 0, "is_reserved": 0}, {"rental_uris": {"ios": "https://dc.lft.to/lastmile_qr_scan", "android": "https://dc.lft.to/lastmile_qr_scan"}, "lon": -77.07490183333333, "type": "electric_scooter", "fusion_lat": 0.0, "lat": 38.91496433333333, "name": "e733ca566afb387eb04509e9753516e5", "fusion_lon": 0.0, "bike_id": "e733ca566afb387eb04509e9753516e5", "is_disabled": 0, "is_reserved": 0}, {"rental_uris": {"ios": "https://dc.lft.to/lastmile_qr_scan", "android": "https://dc.lft.to/lastmile_qr_scan"}, "lon": -77.0502145, "type": "electric_scooter", "fusion_lat": 0.0, "lat": 38.896608, "name": "d8d4f74b47bbc79ce16b8e5a9520a484", "fusion_lon": 0.0, "bike_id": "d8d4f74b47bbc79ce16b8e5a9520a484", "is_disabled": 0, "is_reserved": 0}, {"rental_uris": {"ios": "https://dc.lft.to/lastmile_qr_scan", "android": "https://dc.lft.to/lastmile_qr_scan"}, "lon": -77.03488466666667, "type": "electric_scooter", "fusion_lat": 0.0, "lat": 38.90274333333333, "name": "ebdf04a64671eee6fe2a808b59746609", "fusion_lon": 0.0, "bike_id": "ebdf04a64671eee6fe2a808b59746609", "is_disabled": 0, "is_reserved": 0}, {"rental_uris": {"ios": "https://dc.lft.to/lastmile_qr_scan", "android": "https://dc.lft.to/lastmile_qr_scan"}, "lon": -77.031898, "type": "electric_scooter", "fusion_lat": 0.0, "lat": 38.89955233333333, "name": "1f5e2b01a8ae1b942261d3e045bc577e", "fusion_lon": 0.0, "bike_id": "1f5e2b01a8ae1b942261d3e045bc577e", "is_disabled": 0, "is_reserved": 0}, {"rental_uris": {"ios": "https://dc.lft.to/lastmile_qr_scan", "android": "https://dc.lft.to/lastmile_qr_scan"}, "lon": -77.033212, "type": "electric_scooter", "fusion_lat": 0.0, "lat": 38.9217595, "name": "8a4bffbd8a08b3bf79c8478c943a31ab", "fusion_lon": 0.0, "bike_id": "8a4bffbd8a08b3bf79c8478c943a31ab", "is_disabled": 0, "is_reserved": 0}, {"rental_uris": {"ios": "https://dc.lft.to/lastmile_qr_scan", "android": "https://dc.lft.to/lastmile_qr_scan"}, "lon": -77.002308, "type": "electric_scooter", "fusion_lat": 0.0, "lat": 38.905587, "name": "2bbfaaeb2499d28893d2aa2b0699f80e", "fusion_lon": 0.0, "bike_id": "2bbfaaeb2499d28893d2aa2b0699f80e", "is_disabled": 0, "is_reserved": 0}, {"rental_uris": {"ios": "https://dc.lft.to/lastmile_qr_scan", "android": "https://dc.lft.to/lastmile_qr_scan"}, "lon": -76.98412316666666, "type": "electric_scooter", "fusion_lat": 0.0, "lat": 38.913924, "name": "0301858b174c3998f32630909fa97cd5", "fusion_lon": 0.0, "bike_id": "0301858b174c3998f32630909fa97cd5", "is_disabled": 0, "is_reserved": 0}, {"rental_uris": {"ios": "https://dc.lft.to/lastmile_qr_scan", "android": "https://dc.lft.to/lastmile_qr_scan"}, "lon": -77.11427466666666, "type": "electric_bike", "fusion_lat": 0.0, "lat": 38.852465333333335, "name": "2625c9a7b67325432cfaec82d2d74ff7", "fusion_lon": 0.0, "bike_id": "2625c9a7b67325432cfaec82d2d74ff7", "is_disabled": 0, "is_reserved": 0}, {"rental_uris": {"ios": "https://dc.lft.to/lastmile_qr_scan", "android": "https://dc.lft.to/lastmile_qr_scan"}, "lon": -77.026927, "type": "electric_scooter", "fusion_lat": 0.0, "lat": 38.908453333333334, "name": "4b805f496e633dfc5dffa6e8023750aa", "fusion_lon": 0.0, "bike_id": "4b805f496e633dfc5dffa6e8023750aa", "is_disabled": 0, "is_reserved": 0}, {"rental_uris": {"ios": "https://dc.lft.to/lastmile_qr_scan", "android": "https://dc.lft.to/lastmile_qr_scan"}, "lon": -76.99382066666666, "type": "electric_scooter", "fusion_lat": 0.0, "lat": 38.887205333333334, "name": "3d85714eaf9e72c06e2ad02c6d81228f", "fusion_lon": 0.0, "bike_id": "3d85714eaf9e72c06e2ad02c6d81228f", "is_disabled": 0, "is_reserved": 0}, {"rental_uris": {"ios": "https://dc.lft.to/lastmile_qr_scan", "android": "https://dc.lft.to/lastmile_qr_scan"}, "lon": -77.036311, "type": "electric_scooter", "fusion_lat": 0.0, "lat": 38.918177, "name": "b576ef2238e7e2518240607a09848409", "fusion_lon": 0.0, "bike_id": "b576ef2238e7e2518240607a09848409", "is_disabled": 0, "is_reserved": 0}, {"rental_uris": {"ios": "https://dc.lft.to/lastmile_qr_scan", "android": "https://dc.lft.to/lastmile_qr_scan"}, "lon": -77.00322916666667, "type": "electric_scooter", "fusion_lat": 0.0, "lat": 38.909098666666665, "name": "fae3436c513464628653f59b484ba830", "fusion_lon": 0.0, "bike_id": "fae3436c513464628653f59b484ba830", "is_disabled": 0, "is_reserved": 0}, {"rental_uris": {"ios": "https://dc.lft.to/lastmile_qr_scan", "android": "https://dc.lft.to/lastmile_qr_scan"}, "lon": -77.055161, "type": "electric_scooter", "fusion_lat": 0.0, "lat": 38.91059416666667, "name": "5c5c37f4631deeaed5f2727fcd48d4d2", "fusion_lon": 0.0, "bike_id": "5c5c37f4631deeaed5f2727fcd48d4d2", "is_disabled": 0, "is_reserved": 0}, {"rental_uris": {"ios": "https://dc.lft.to/lastmile_qr_scan", "android": "https://dc.lft.to/lastmile_qr_scan"}, "lon": -77.02979983333333, "type": "electric_scooter", "fusion_lat": 0.0, "lat": 38.91625333333333, "name": "7bec4cb3a8920a0c29269f92fe29c33b", "fusion_lon": 0.0, "bike_id": "7bec4cb3a8920a0c29269f92fe29c33b", "is_disabled": 0, "is_reserved": 0}, {"rental_uris": {"ios": "https://dc.lft.to/lastmile_qr_scan", "android": "https://dc.lft.to/lastmile_qr_scan"}, "lon": -76.98437283333334, "type": "electric_scooter", "fusion_lat": 0.0, "lat": 38.91453216666667, "name": "8d21ff141801be2b5969bf780af666c0", "fusion_lon": 0.0, "bike_id": "8d21ff141801be2b5969bf780af666c0", "is_disabled": 0, "is_reserved": 0}, {"rental_uris": {"ios": "https://dc.lft.to/lastmile_qr_scan", "android": "https://dc.lft.to/lastmile_qr_scan"}, "lon": -76.993644, "type": "electric_scooter", "fusion_lat": 0.0, "lat": 38.9004205, "name": "28c0dc95b5870c35095ce96c5053bd91", "fusion_lon": 0.0, "bike_id": "28c0dc95b5870c35095ce96c5053bd91", "is_disabled": 0, "is_reserved": 0}, {"rental_uris": {"ios": "https://dc.lft.to/lastmile_qr_scan", "android": "https://dc.lft.to/lastmile_qr_scan"}, "lon": -77.0575985, "type": "electric_scooter", "fusion_lat": 0.0, "lat": 38.92464666666667, "name": "6bb93514a4d3b7e518fc679563089326", "fusion_lon": 0.0, "bike_id": "6bb93514a4d3b7e518fc679563089326", "is_disabled": 0, "is_reserved": 0}, {"rental_uris": {"ios": "https://dc.lft.to/lastmile_qr_scan", "android": "https://dc.lft.to/lastmile_qr_scan"}, "lon": -76.9980915, "type": "electric_scooter", "fusion_lat": 0.0, "lat": 38.900143666666665, "name": "0debde72b0be8d52575096d6c7aeb4a2", "fusion_lon": 0.0, "bike_id": "0debde72b0be8d52575096d6c7aeb4a2", "is_disabled": 0, "is_reserved": 0}, {"rental_uris": {"ios": "https://dc.lft.to/lastmile_qr_scan", "android": "https://dc.lft.to/lastmile_qr_scan"}, "lon": -77.02454566666667, "type": "electric_scooter", "fusion_lat": 0.0, "lat": 38.90245133333333, "name": "a2a8755b41cb3952e96b31bcb39e43bb", "fusion_lon": 0.0, "bike_id": "a2a8755b41cb3952e96b31bcb39e43bb", "is_disabled": 0, "is_reserved": 0}, {"rental_uris": {"ios": "https://dc.lft.to/lastmile_qr_scan", "android": "https://dc.lft.to/lastmile_qr_scan"}, "lon": -77.02714183333333, "type": "electric_scooter", "fusion_lat": 0.0, "lat": 38.918171666666666, "name": "fa02f56d5f5d8f133e4e0551d6c1bd33", "fusion_lon": 0.0, "bike_id": "fa02f56d5f5d8f133e4e0551d6c1bd33", "is_disabled": 0, "is_reserved": 0}, {"rental_uris": {"ios": "https://dc.lft.to/lastmile_qr_scan", "android": "https://dc.lft.to/lastmile_qr_scan"}, "lon": -77.044397, "type": "electric_scooter", "fusion_lat": 0.0, "lat": 38.9055815, "name": "8df495144a7a57448469886db69c7059", "fusion_lon": 0.0, "bike_id": "8df495144a7a57448469886db69c7059", "is_disabled": 0, "is_reserved": 0}, {"rental_uris": {"ios": "https://dc.lft.to/lastmile_qr_scan", "android": "https://dc.lft.to/lastmile_qr_scan"}, "lon": -77.01124183333333, "type": "electric_scooter", "fusion_lat": 0.0, "lat": 38.911805666666666, "name": "eaeac7a6faff8f134f9e3e259a6f1256", "fusion_lon": 0.0, "bike_id": "eaeac7a6faff8f134f9e3e259a6f1256", "is_disabled": 0, "is_reserved": 0}, {"rental_uris": {"ios": "https://dc.lft.to/lastmile_qr_scan", "android": "https://dc.lft.to/lastmile_qr_scan"}, "lon": -77.0487555, "type": "electric_scooter", "fusion_lat": 0.0, "lat": 38.909553, "name": "c91743bf26e4314358d4652e6dbb28db", "fusion_lon": 0.0, "bike_id": "c91743bf26e4314358d4652e6dbb28db", "is_disabled": 0, "is_reserved": 0}, {"rental_uris": {"ios": "https://dc.lft.to/lastmile_qr_scan", "android": "https://dc.lft.to/lastmile_qr_scan"}, "lon": -76.895385, "type": "electric_bike", "fusion_lat": 0.0, "lat": 38.94553916666667, "name": "763f028949acc4256948997fc1218455", "fusion_lon": 0.0, "bike_id": "763f028949acc4256948997fc1218455", "is_disabled": 0, "is_reserved": 0}, {"rental_uris": {"ios": "https://dc.lft.to/lastmile_qr_scan", "android": "https://dc.lft.to/lastmile_qr_scan"}, "lon": -77.0269785, "type": "electric_scooter", "fusion_lat": 0.0, "lat": 38.918682833333335, "name": "0e22b2a9afc96250ebd6aea93521355a", "fusion_lon": 0.0, "bike_id": "0e22b2a9afc96250ebd6aea93521355a", "is_disabled": 0, "is_reserved": 0}, {"rental_uris": {"ios": "https://dc.lft.to/lastmile_qr_scan", "android": "https://dc.lft.to/lastmile_qr_scan"}, "lon": -77.01582466666666, "type": "electric_scooter", "fusion_lat": 0.0, "lat": 38.88746416666667, "name": "cdfb16303fc0dbb2dd21edc0f90d6f39", "fusion_lon": 0.0, "bike_id": "cdfb16303fc0dbb2dd21edc0f90d6f39", "is_disabled": 0, "is_reserved": 0}, {"rental_uris": {"ios": "https://dc.lft.to/lastmile_qr_scan", "android": "https://dc.lft.to/lastmile_qr_scan"}, "lon": -77.02963816666667, "type": "electric_scooter", "fusion_lat": 0.0, "lat": 38.9252365, "name": "807bb3d50090f92e1dd3199a9e0e2aff", "fusion_lon": 0.0, "bike_id": "807bb3d50090f92e1dd3199a9e0e2aff", "is_disabled": 0, "is_reserved": 0}, {"rental_uris": {"ios": "https://dc.lft.to/lastmile_qr_scan", "android": "https://dc.lft.to/lastmile_qr_scan"}, "lon": -77.02759316666666, "type": "electric_scooter", "fusion_lat": 0.0, "lat": 38.916980833333334, "name": "3b83f6875fb6dc068fd20d84c7e0422b", "fusion_lon": 0.0, "bike_id": "3b83f6875fb6dc068fd20d84c7e0422b", "is_disabled": 0, "is_reserved": 0}, {"rental_uris": {"ios": "https://dc.lft.to/lastmile_qr_scan", "android": "https://dc.lft.to/lastmile_qr_scan"}, "lon": -77.04543183333334, "type": "electric_scooter", "fusion_lat": 0.0, "lat": 38.903753, "name": "70ef6725e8b7e21ec5a6cde6224aaf7d", "fusion_lon": 0.0, "bike_id": "70ef6725e8b7e21ec5a6cde6224aaf7d", "is_disabled": 0, "is_reserved": 0}, {"rental_uris": {"ios": "https://dc.lft.to/lastmile_qr_scan", "android": "https://dc.lft.to/lastmile_qr_scan"}, "lon": -77.0481035, "type": "electric_scooter", "fusion_lat": 0.0, "lat": 38.89752, "name": "35d3c1ef0aab6ee5482dedf22f693d29", "fusion_lon": 0.0, "bike_id": "35d3c1ef0aab6ee5482dedf22f693d29", "is_disabled": 0, "is_reserved": 0}, {"rental_uris": {"ios": "https://dc.lft.to/lastmile_qr_scan", "android": "https://dc.lft.to/lastmile_qr_scan"}, "lon": -77.01218233333333, "type": "electric_scooter", "fusion_lat": 0.0, "lat": 38.92033033333333, "name": "47ba6ebf84be283bfa8b2376c5832aad", "fusion_lon": 0.0, "bike_id": "47ba6ebf84be283bfa8b2376c5832aad", "is_disabled": 0, "is_reserved": 0}, {"rental_uris": {"ios": "https://dc.lft.to/lastmile_qr_scan", "android": "https://dc.lft.to/lastmile_qr_scan"}, "lon": -77.02383, "type": "electric_scooter", "fusion_lat": 0.0, "lat": 38.91966433333333, "name": "c8b99e4b10c1423c24a52b66e26fdd47", "fusion_lon": 0.0, "bike_id": "c8b99e4b10c1423c24a52b66e26fdd47", "is_disabled": 0, "is_reserved": 0}, {"rental_uris": {"ios": "https://dc.lft.to/lastmile_qr_scan", "android": "https://dc.lft.to/lastmile_qr_scan"}, "lon": -76.9915715, "type": "electric_scooter", "fusion_lat": 0.0, "lat": 38.89344416666667, "name": "32d7ac96b80f4ac1012e9073263e50a4", "fusion_lon": 0.0, "bike_id": "32d7ac96b80f4ac1012e9073263e50a4", "is_disabled": 0, "is_reserved": 0}, {"rental_uris": {"ios": "https://dc.lft.to/lastmile_qr_scan", "android": "https://dc.lft.to/lastmile_qr_scan"}, "lon": -77.02976466666667, "type": "electric_scooter", "fusion_lat": 0.0, "lat": 38.96233733333333, "name": "ceda2a36a76db81b80040cc03703c7f7", "fusion_lon": 0.0, "bike_id": "ceda2a36a76db81b80040cc03703c7f7", "is_disabled": 0, "is_reserved": 0}, {"rental_uris": {"ios": "https://dc.lft.to/lastmile_qr_scan", "android": "https://dc.lft.to/lastmile_qr_scan"}, "lon": -77.013541, "type": "electric_scooter", "fusion_lat": 0.0, "lat": 38.871211333333335, "name": "68f57d3d9d5d42241bf95db5598c37eb", "fusion_lon": 0.0, "bike_id": "68f57d3d9d5d42241bf95db5598c37eb", "is_disabled": 0, "is_reserved": 0}, {"rental_uris": {"ios": "https://dc.lft.to/lastmile_qr_scan", "android": "https://dc.lft.to/lastmile_qr_scan"}, "lon": -77.031495, "type": "electric_scooter", "fusion_lat": 0.0, "lat": 38.88301333333333, "name": "e676a7f453047d19caaf1410b2b506f7", "fusion_lon": 0.0, "bike_id": "e676a7f453047d19caaf1410b2b506f7", "is_disabled": 0, "is_reserved": 0}, {"rental_uris": {"ios": "https://dc.lft.to/lastmile_qr_scan", "android": "https://dc.lft.to/lastmile_qr_scan"}, "lon": -77.02317166666667, "type": "electric_scooter", "fusion_lat": 0.0, "lat": 38.927666, "name": "98ccd0065127f586964afe531e64c4fd", "fusion_lon": 0.0, "bike_id": "98ccd0065127f586964afe531e64c4fd", "is_disabled": 0, "is_reserved": 0}, {"rental_uris": {"ios": "https://dc.lft.to/lastmile_qr_scan", "android": "https://dc.lft.to/lastmile_qr_scan"}, "lon": -77.00405266666667, "type": "electric_scooter", "fusion_lat": 0.0, "lat": 38.87940033333334, "name": "78596ff4a2501c900958688e9371bf0f", "fusion_lon": 0.0, "bike_id": "78596ff4a2501c900958688e9371bf0f", "is_disabled": 0, "is_reserved": 0}, {"rental_uris": {"ios": "https://dc.lft.to/lastmile_qr_scan", "android": "https://dc.lft.to/lastmile_qr_scan"}, "lon": -77.00847533333334, "type": "electric_bike", "fusion_lat": 0.0, "lat": 38.94921516666667, "name": "d831954b2bb9986d32e5933ac1251215", "fusion_lon": 0.0, "bike_id": "d831954b2bb9986d32e5933ac1251215", "is_disabled": 0, "is_reserved": 0}, {"rental_uris": {"ios": "https://dc.lft.to/lastmile_qr_scan", "android": "https://dc.lft.to/lastmile_qr_scan"}, "lon": -77.024582, "type": "electric_scooter", "fusion_lat": 0.0, "lat": 38.938735, "name": "6b9ac68c04ef863e26774221f64fcde5", "fusion_lon": 0.0, "bike_id": "6b9ac68c04ef863e26774221f64fcde5", "is_disabled": 0, "is_reserved": 0}, {"rental_uris": {"ios": "https://dc.lft.to/lastmile_qr_scan", "android": "https://dc.lft.to/lastmile_qr_scan"}, "lon": -77.01776633333333, "type": "electric_bike", "fusion_lat": 0.0, "lat": 38.914850666666666, "name": "d1db61f40ceb66ab060c091e64b36717", "fusion_lon": 0.0, "bike_id": "d1db61f40ceb66ab060c091e64b36717", "is_disabled": 0, "is_reserved": 0}, {"rental_uris": {"ios": "https://dc.lft.to/lastmile_qr_scan", "android": "https://dc.lft.to/lastmile_qr_scan"}, "lon": -77.0417275, "type": "electric_scooter", "fusion_lat": 0.0, "lat": 38.917048, "name": "19f7f23e224d15c4d15eb156d4126fe9", "fusion_lon": 0.0, "bike_id": "19f7f23e224d15c4d15eb156d4126fe9", "is_disabled": 0, "is_reserved": 0}, {"rental_uris": {"ios": "https://dc.lft.to/lastmile_qr_scan", "android": "https://dc.lft.to/lastmile_qr_scan"}, "lon": -76.99519483333333, "type": "electric_scooter", "fusion_lat": 0.0, "lat": 38.862629166666665, "name": "df148f35718fc84af32c0670c187f835", "fusion_lon": 0.0, "bike_id": "df148f35718fc84af32c0670c187f835", "is_disabled": 0, "is_reserved": 0}, {"rental_uris": {"ios": "https://dc.lft.to/lastmile_qr_scan", "android": "https://dc.lft.to/lastmile_qr_scan"}, "lon": -77.0342205, "type": "electric_scooter", "fusion_lat": 0.0, "lat": 38.919243333333334, "name": "fb9f4c1dda339c78e627c8909c118e39", "fusion_lon": 0.0, "bike_id": "fb9f4c1dda339c78e627c8909c118e39", "is_disabled": 0, "is_reserved": 0}, {"rental_uris": {"ios": "https://dc.lft.to/lastmile_qr_scan", "android": "https://dc.lft.to/lastmile_qr_scan"}, "lon": -77.03640916666667, "type": "electric_scooter", "fusion_lat": 0.0, "lat": 38.91736183333333, "name": "c1dfb4bcbd50e2321ff87d9d6cce58d8", "fusion_lon": 0.0, "bike_id": "c1dfb4bcbd50e2321ff87d9d6cce58d8", "is_disabled": 0, "is_reserved": 0}, {"rental_uris": {"ios": "https://dc.lft.to/lastmile_qr_scan", "android": "https://dc.lft.to/lastmile_qr_scan"}, "lon": -77.01086816666667, "type": "electric_scooter", "fusion_lat": 0.0, "lat": 38.916336333333334, "name": "7ceedf2c2482eaa09521437371006f62", "fusion_lon": 0.0, "bike_id": "7ceedf2c2482eaa09521437371006f62", "is_disabled": 0, "is_reserved": 0}, {"rental_uris": {"ios": "https://dc.lft.to/lastmile_qr_scan", "android": "https://dc.lft.to/lastmile_qr_scan"}, "lon": -77.02848833333333, "type": "electric_scooter", "fusion_lat": 0.0, "lat": 38.9346665, "name": "f8f4596151616b1be396203e8399f8ed", "fusion_lon": 0.0, "bike_id": "f8f4596151616b1be396203e8399f8ed", "is_disabled": 0, "is_reserved": 0}, {"rental_uris": {"ios": "https://dc.lft.to/lastmile_qr_scan", "android": "https://dc.lft.to/lastmile_qr_scan"}, "lon": -77.1412065, "type": "electric_bike", "fusion_lat": 0.0, "lat": 38.8160425, "name": "f1789abeedb9a42dfb73c1bae9c0d30f", "fusion_lon": 0.0, "bike_id": "f1789abeedb9a42dfb73c1bae9c0d30f", "is_disabled": 0, "is_reserved": 0}, {"rental_uris": {"ios": "https://dc.lft.to/lastmile_qr_scan", "android": "https://dc.lft.to/lastmile_qr_scan"}, "lon": -77.0326785, "type": "electric_scooter", "fusion_lat": 0.0, "lat": 38.9381305, "name": "002b7ea5990b985c42317dc11444ab6b", "fusion_lon": 0.0, "bike_id": "002b7ea5990b985c42317dc11444ab6b", "is_disabled": 0, "is_reserved": 0}, {"rental_uris": {"ios": "https://dc.lft.to/lastmile_qr_scan", "android": "https://dc.lft.to/lastmile_qr_scan"}, "lon": -77.04492433333333, "type": "electric_scooter", "fusion_lat": 0.0, "lat": 38.90847983333333, "name": "d0ab1dd0a448d38ec86c6a320c338cd8", "fusion_lon": 0.0, "bike_id": "d0ab1dd0a448d38ec86c6a320c338cd8", "is_disabled": 0, "is_reserved": 0}, {"rental_uris": {"ios": "https://dc.lft.to/lastmile_qr_scan", "android": "https://dc.lft.to/lastmile_qr_scan"}, "lon": -77.00108716666666, "type": "electric_scooter", "fusion_lat": 0.0, "lat": 38.908453, "name": "3859f553df50cb6dcfbbe7bdb5c32608", "fusion_lon": 0.0, "bike_id": "3859f553df50cb6dcfbbe7bdb5c32608", "is_disabled": 0, "is_reserved": 0}, {"rental_uris": {"ios": "https://dc.lft.to/lastmile_qr_scan", "android": "https://dc.lft.to/lastmile_qr_scan"}, "lon": -77.104547, "type": "electric_bike", "fusion_lat": 0.0, "lat": 38.896360666666666, "name": "6bc745b9c1b14390598c9b9b5fd4a49e", "fusion_lon": 0.0, "bike_id": "6bc745b9c1b14390598c9b9b5fd4a49e", "is_disabled": 0, "is_reserved": 0}, {"rental_uris": {"ios": "https://dc.lft.to/lastmile_qr_scan", "android": "https://dc.lft.to/lastmile_qr_scan"}, "lon": -77.04441916666667, "type": "electric_scooter", "fusion_lat": 0.0, "lat": 38.91012933333333, "name": "eb0abae1147e2eb1ba73369a14c885fd", "fusion_lon": 0.0, "bike_id": "eb0abae1147e2eb1ba73369a14c885fd", "is_disabled": 0, "is_reserved": 0}, {"rental_uris": {"ios": "https://dc.lft.to/lastmile_qr_scan", "android": "https://dc.lft.to/lastmile_qr_scan"}, "lon": -77.02707866666667, "type": "electric_scooter", "fusion_lat": 0.0, "lat": 38.95003116666667, "name": "5c8f1e938f9bdf9e7cdc94f6faba14ed", "fusion_lon": 0.0, "bike_id": "5c8f1e938f9bdf9e7cdc94f6faba14ed", "is_disabled": 0, "is_reserved": 0}, {"rental_uris": {"ios": "https://dc.lft.to/lastmile_qr_scan", "android": "https://dc.lft.to/lastmile_qr_scan"}, "lon": -77.02585716666667, "type": "electric_scooter", "fusion_lat": 0.0, "lat": 38.92984516666667, "name": "5a032513522a57c336eeabdf0668310a", "fusion_lon": 0.0, "bike_id": "5a032513522a57c336eeabdf0668310a", "is_disabled": 0, "is_reserved": 0}, {"rental_uris": {"ios": "https://dc.lft.to/lastmile_qr_scan", "android": "https://dc.lft.to/lastmile_qr_scan"}, "lon": -77.04549566666667, "type": "electric_scooter", "fusion_lat": 0.0, "lat": 38.934103666666665, "name": "f61deaaff9522d1bb17affdb7af8bb1e", "fusion_lon": 0.0, "bike_id": "f61deaaff9522d1bb17affdb7af8bb1e", "is_disabled": 0, "is_reserved": 0}, {"rental_uris": {"ios": "https://dc.lft.to/lastmile_qr_scan", "android": "https://dc.lft.to/lastmile_qr_scan"}, "lon": -77.02825016666667, "type": "electric_scooter", "fusion_lat": 0.0, "lat": 38.911189, "name": "51158a61316dc42ea9641ac86606dd5d", "fusion_lon": 0.0, "bike_id": "51158a61316dc42ea9641ac86606dd5d", "is_disabled": 0, "is_reserved": 0}, {"rental_uris": {"ios": "https://dc.lft.to/lastmile_qr_scan", "android": "https://dc.lft.to/lastmile_qr_scan"}, "lon": -77.04234733333334, "type": "electric_scooter", "fusion_lat": 0.0, "lat": 38.921582666666666, "name": "7eda8108e2d50509fae73a178757b759", "fusion_lon": 0.0, "bike_id": "7eda8108e2d50509fae73a178757b759", "is_disabled": 0, "is_reserved": 0}, {"rental_uris": {"ios": "https://dc.lft.to/lastmile_qr_scan", "android": "https://dc.lft.to/lastmile_qr_scan"}, "lon": -77.03288466666666, "type": "electric_scooter", "fusion_lat": 0.0, "lat": 38.923563, "name": "08f1fba0f76f8322210df0803808b477", "fusion_lon": 0.0, "bike_id": "08f1fba0f76f8322210df0803808b477", "is_disabled": 0, "is_reserved": 0}, {"rental_uris": {"ios": "https://dc.lft.to/lastmile_qr_scan", "android": "https://dc.lft.to/lastmile_qr_scan"}, "lon": -76.94638333333333, "type": "electric_scooter", "fusion_lat": 0.0, "lat": 38.8983215, "name": "f65eb398572192889e94532fbcc73654", "fusion_lon": 0.0, "bike_id": "f65eb398572192889e94532fbcc73654", "is_disabled": 0, "is_reserved": 0}, {"rental_uris": {"ios": "https://dc.lft.to/lastmile_qr_scan", "android": "https://dc.lft.to/lastmile_qr_scan"}, "lon": -77.03415466666667, "type": "electric_scooter", "fusion_lat": 0.0, "lat": 38.935487333333334, "name": "bb92eb3542081b4d90dd8ad034278242", "fusion_lon": 0.0, "bike_id": "bb92eb3542081b4d90dd8ad034278242", "is_disabled": 0, "is_reserved": 0}, {"rental_uris": {"ios": "https://dc.lft.to/lastmile_qr_scan", "android": "https://dc.lft.to/lastmile_qr_scan"}, "lon": -77.01292566666666, "type": "electric_scooter", "fusion_lat": 0.0, "lat": 38.900624, "name": "9ebbf91a7e2ed9418d4427135dba9cd7", "fusion_lon": 0.0, "bike_id": "9ebbf91a7e2ed9418d4427135dba9cd7", "is_disabled": 0, "is_reserved": 0}, {"rental_uris": {"ios": "https://dc.lft.to/lastmile_qr_scan", "android": "https://dc.lft.to/lastmile_qr_scan"}, "lon": -77.04239566666666, "type": "electric_scooter", "fusion_lat": 0.0, "lat": 38.905847666666666, "name": "c2acc503740b3ab2ce6f108770f8a105", "fusion_lon": 0.0, "bike_id": "c2acc503740b3ab2ce6f108770f8a105", "is_disabled": 0, "is_reserved": 0}, {"rental_uris": {"ios": "https://dc.lft.to/lastmile_qr_scan", "android": "https://dc.lft.to/lastmile_qr_scan"}, "lon": -77.02860433333333, "type": "electric_scooter", "fusion_lat": 0.0, "lat": 38.92820416666667, "name": "ee34518437ebea3c24771972967599af", "fusion_lon": 0.0, "bike_id": "ee34518437ebea3c24771972967599af", "is_disabled": 0, "is_reserved": 0}, {"rental_uris": {"ios": "https://dc.lft.to/lastmile_qr_scan", "android": "https://dc.lft.to/lastmile_qr_scan"}, "lon": -77.023604, "type": "electric_scooter", "fusion_lat": 0.0, "lat": 38.92506233333334, "name": "290999ebee26918a3b5b421ba3466f2c", "fusion_lon": 0.0, "bike_id": "290999ebee26918a3b5b421ba3466f2c", "is_disabled": 0, "is_reserved": 0}, {"rental_uris": {"ios": "https://dc.lft.to/lastmile_qr_scan", "android": "https://dc.lft.to/lastmile_qr_scan"}, "lon": -77.01706733333333, "type": "electric_scooter", "fusion_lat": 0.0, "lat": 38.92042083333333, "name": "0c689eba7d434e76603a0cae9272523d", "fusion_lon": 0.0, "bike_id": "0c689eba7d434e76603a0cae9272523d", "is_disabled": 0, "is_reserved": 0}, {"rental_uris": {"ios": "https://dc.lft.to/lastmile_qr_scan", "android": "https://dc.lft.to/lastmile_qr_scan"}, "lon": -77.03345933333334, "type": "electric_scooter", "fusion_lat": 0.0, "lat": 38.934202, "name": "059edfd3b0301f24fd0b3abfd240465f", "fusion_lon": 0.0, "bike_id": "059edfd3b0301f24fd0b3abfd240465f", "is_disabled": 0, "is_reserved": 0}, {"rental_uris": {"ios": "https://dc.lft.to/lastmile_qr_scan", "android": "https://dc.lft.to/lastmile_qr_scan"}, "lon": -77.02256433333334, "type": "electric_scooter", "fusion_lat": 0.0, "lat": 38.92474383333333, "name": "b86ed1cc03167890a106545a4a19ce9e", "fusion_lon": 0.0, "bike_id": "b86ed1cc03167890a106545a4a19ce9e", "is_disabled": 0, "is_reserved": 0}, {"rental_uris": {"ios": "https://dc.lft.to/lastmile_qr_scan", "android": "https://dc.lft.to/lastmile_qr_scan"}, "lon": -77.04810016666667, "type": "electric_scooter", "fusion_lat": 0.0, "lat": 38.92036216666666, "name": "2ead3d791821e21eb9208f131217f808", "fusion_lon": 0.0, "bike_id": "2ead3d791821e21eb9208f131217f808", "is_disabled": 0, "is_reserved": 0}, {"rental_uris": {"ios": "https://dc.lft.to/lastmile_qr_scan", "android": "https://dc.lft.to/lastmile_qr_scan"}, "lon": -76.98588933333333, "type": "electric_scooter", "fusion_lat": 0.0, "lat": 38.899243166666665, "name": "6ae01645a80de16c6305068b25404a01", "fusion_lon": 0.0, "bike_id": "6ae01645a80de16c6305068b25404a01", "is_disabled": 0, "is_reserved": 0}, {"rental_uris": {"ios": "https://dc.lft.to/lastmile_qr_scan", "android": "https://dc.lft.to/lastmile_qr_scan"}, "lon": -77.04816183333334, "type": "electric_scooter", "fusion_lat": 0.0, "lat": 38.92041583333334, "name": "bdeded170a95c5480d43547a95da935e", "fusion_lon": 0.0, "bike_id": "bdeded170a95c5480d43547a95da935e", "is_disabled": 0, "is_reserved": 0}, {"rental_uris": {"ios": "https://dc.lft.to/lastmile_qr_scan", "android": "https://dc.lft.to/lastmile_qr_scan"}, "lon": -77.02964066666667, "type": "electric_scooter", "fusion_lat": 0.0, "lat": 38.907347, "name": "4c387b32b5c8c4b0e6219915341c0fde", "fusion_lon": 0.0, "bike_id": "4c387b32b5c8c4b0e6219915341c0fde", "is_disabled": 0, "is_reserved": 0}, {"rental_uris": {"ios": "https://dc.lft.to/lastmile_qr_scan", "android": "https://dc.lft.to/lastmile_qr_scan"}, "lon": -77.02333733333333, "type": "electric_scooter", "fusion_lat": 0.0, "lat": 38.93049633333333, "name": "1b1e69ef4ac443efe61abcfc26cc2317", "fusion_lon": 0.0, "bike_id": "1b1e69ef4ac443efe61abcfc26cc2317", "is_disabled": 0, "is_reserved": 0}, {"rental_uris": {"ios": "https://dc.lft.to/lastmile_qr_scan", "android": "https://dc.lft.to/lastmile_qr_scan"}, "lon": -76.99816533333333, "type": "electric_bike", "fusion_lat": 0.0, "lat": 38.84432916666667, "name": "05ef39af1e4ebb6ad13240f0a79f42ce", "fusion_lon": 0.0, "bike_id": "05ef39af1e4ebb6ad13240f0a79f42ce", "is_disabled": 0, "is_reserved": 0}, {"rental_uris": {"ios": "https://dc.lft.to/lastmile_qr_scan", "android": "https://dc.lft.to/lastmile_qr_scan"}, "lon": -77.000698, "type": "electric_scooter", "fusion_lat": 0.0, "lat": 38.9255395, "name": "c659233c3708a4814bdbe7bd9d7325e7", "fusion_lon": 0.0, "bike_id": "c659233c3708a4814bdbe7bd9d7325e7", "is_disabled": 0, "is_reserved": 0}, {"rental_uris": {"ios": "https://dc.lft.to/lastmile_qr_scan", "android": "https://dc.lft.to/lastmile_qr_scan"}, "lon": -77.04004716666667, "type": "electric_scooter", "fusion_lat": 0.0, "lat": 38.932489, "name": "d38a30abfe2e9312748979f137d1ef77", "fusion_lon": 0.0, "bike_id": "d38a30abfe2e9312748979f137d1ef77", "is_disabled": 0, "is_reserved": 0}, {"rental_uris": {"ios": "https://dc.lft.to/lastmile_qr_scan", "android": "https://dc.lft.to/lastmile_qr_scan"}, "lon": -77.03715616666666, "type": "electric_scooter", "fusion_lat": 0.0, "lat": 38.910413, "name": "9626c4c28cec1c58781b0199c2e13c5d", "fusion_lon": 0.0, "bike_id": "9626c4c28cec1c58781b0199c2e13c5d", "is_disabled": 0, "is_reserved": 0}, {"rental_uris": {"ios": "https://dc.lft.to/lastmile_qr_scan", "android": "https://dc.lft.to/lastmile_qr_scan"}, "lon": -77.0055385, "type": "electric_scooter", "fusion_lat": 0.0, "lat": 38.90583733333333, "name": "0c2a34b35fe8cfc6c9fedbb370dc6e98", "fusion_lon": 0.0, "bike_id": "0c2a34b35fe8cfc6c9fedbb370dc6e98", "is_disabled": 0, "is_reserved": 0}, {"rental_uris": {"ios": "https://dc.lft.to/lastmile_qr_scan", "android": "https://dc.lft.to/lastmile_qr_scan"}, "lon": -76.99670616666667, "type": "electric_scooter", "fusion_lat": 0.0, "lat": 38.90030983333333, "name": "68cdede93f53b4e6bca6c66f7037274d", "fusion_lon": 0.0, "bike_id": "68cdede93f53b4e6bca6c66f7037274d", "is_disabled": 0, "is_reserved": 0}, {"rental_uris": {"ios": "https://dc.lft.to/lastmile_qr_scan", "android": "https://dc.lft.to/lastmile_qr_scan"}, "lon": -77.046163, "type": "electric_scooter", "fusion_lat": 0.0, "lat": 38.91917016666667, "name": "ca0d265222fdf87f608ab86c964cf649", "fusion_lon": 0.0, "bike_id": "ca0d265222fdf87f608ab86c964cf649", "is_disabled": 0, "is_reserved": 0}, {"rental_uris": {"ios": "https://dc.lft.to/lastmile_qr_scan", "android": "https://dc.lft.to/lastmile_qr_scan"}, "lon": -77.14995766666667, "type": "electric_bike", "fusion_lat": 0.0, "lat": 39.094631, "name": "09660fecfcb7581938bf0da6025c95e6", "fusion_lon": 0.0, "bike_id": "09660fecfcb7581938bf0da6025c95e6", "is_disabled": 0, "is_reserved": 0}, {"rental_uris": {"ios": "https://dc.lft.to/lastmile_qr_scan", "android": "https://dc.lft.to/lastmile_qr_scan"}, "lon": -77.00571383333333, "type": "electric_scooter", "fusion_lat": 0.0, "lat": 38.879004333333334, "name": "17e83995ad90807e8a5c31955148d74d", "fusion_lon": 0.0, "bike_id": "17e83995ad90807e8a5c31955148d74d", "is_disabled": 0, "is_reserved": 0}, {"rental_uris": {"ios": "https://dc.lft.to/lastmile_qr_scan", "android": "https://dc.lft.to/lastmile_qr_scan"}, "lon": -76.93364883333334, "type": "electric_scooter", "fusion_lat": 0.0, "lat": 38.8991825, "name": "8cf7cf65992d06d67e0eab07d82bf21e", "fusion_lon": 0.0, "bike_id": "8cf7cf65992d06d67e0eab07d82bf21e", "is_disabled": 0, "is_reserved": 0}, {"rental_uris": {"ios": "https://dc.lft.to/lastmile_qr_scan", "android": "https://dc.lft.to/lastmile_qr_scan"}, "lon": -77.03184333333333, "type": "electric_scooter", "fusion_lat": 0.0, "lat": 38.9043605, "name": "4d268043de72e1e5bf8a8a1757b2aa62", "fusion_lon": 0.0, "bike_id": "4d268043de72e1e5bf8a8a1757b2aa62", "is_disabled": 0, "is_reserved": 0}, {"rental_uris": {"ios": "https://dc.lft.to/lastmile_qr_scan", "android": "https://dc.lft.to/lastmile_qr_scan"}, "lon": -77.199123, "type": "electric_bike", "fusion_lat": 0.0, "lat": 38.87531283333333, "name": "52a390b89b024404a78a4f442e4395fb", "fusion_lon": 0.0, "bike_id": "52a390b89b024404a78a4f442e4395fb", "is_disabled": 0, "is_reserved": 0}, {"rental_uris": {"ios": "https://dc.lft.to/lastmile_qr_scan", "android": "https://dc.lft.to/lastmile_qr_scan"}, "lon": -77.05982, "type": "electric_scooter", "fusion_lat": 0.0, "lat": 38.935506333333336, "name": "e2afd8faea396fad9f3af5af5c830ced", "fusion_lon": 0.0, "bike_id": "e2afd8faea396fad9f3af5af5c830ced", "is_disabled": 0, "is_reserved": 0}, {"rental_uris": {"ios": "https://dc.lft.to/lastmile_qr_scan", "android": "https://dc.lft.to/lastmile_qr_scan"}, "lon": -77.03856416666666, "type": "electric_scooter", "fusion_lat": 0.0, "lat": 38.92647816666667, "name": "1ad79de79af6343ccbad00adffe2ec2e", "fusion_lon": 0.0, "bike_id": "1ad79de79af6343ccbad00adffe2ec2e", "is_disabled": 0, "is_reserved": 0}, {"rental_uris": {"ios": "https://dc.lft.to/lastmile_qr_scan", "android": "https://dc.lft.to/lastmile_qr_scan"}, "lon": -77.0120895, "type": "electric_scooter", "fusion_lat": 0.0, "lat": 38.914975166666665, "name": "f50fde1a84db6b6a853bcea1ef3fb634", "fusion_lon": 0.0, "bike_id": "f50fde1a84db6b6a853bcea1ef3fb634", "is_disabled": 0, "is_reserved": 0}, {"rental_uris": {"ios": "https://dc.lft.to/lastmile_qr_scan", "android": "https://dc.lft.to/lastmile_qr_scan"}, "lon": -77.04611466666667, "type": "electric_scooter", "fusion_lat": 0.0, "lat": 38.9190055, "name": "78c6b5f63e2898ab632d2ff9f3c56316", "fusion_lon": 0.0, "bike_id": "78c6b5f63e2898ab632d2ff9f3c56316", "is_disabled": 0, "is_reserved": 0}, {"rental_uris": {"ios": "https://dc.lft.to/lastmile_qr_scan", "android": "https://dc.lft.to/lastmile_qr_scan"}, "lon": -77.05222116666667, "type": "electric_scooter", "fusion_lat": 0.0, "lat": 38.898106, "name": "6ce7bd6d6ad1a34a2772427c28c3b322", "fusion_lon": 0.0, "bike_id": "6ce7bd6d6ad1a34a2772427c28c3b322", "is_disabled": 0, "is_reserved": 0}, {"rental_uris": {"ios": "https://dc.lft.to/lastmile_qr_scan", "android": "https://dc.lft.to/lastmile_qr_scan"}, "lon": -77.0094055, "type": "electric_scooter", "fusion_lat": 0.0, "lat": 38.871949, "name": "3ca605f182f9fdb2b40336ec2f25c1f7", "fusion_lon": 0.0, "bike_id": "3ca605f182f9fdb2b40336ec2f25c1f7", "is_disabled": 0, "is_reserved": 0}, {"rental_uris": {"ios": "https://dc.lft.to/lastmile_qr_scan", "android": "https://dc.lft.to/lastmile_qr_scan"}, "lon": -76.9547145, "type": "electric_bike", "fusion_lat": 0.0, "lat": 38.886464833333335, "name": "3a0ee22edcfba29aab626aef6dbb7235", "fusion_lon": 0.0, "bike_id": "3a0ee22edcfba29aab626aef6dbb7235", "is_disabled": 0, "is_reserved": 0}, {"rental_uris": {"ios": "https://dc.lft.to/lastmile_qr_scan", "android": "https://dc.lft.to/lastmile_qr_scan"}, "lon": -76.99067716666667, "type": "electric_scooter", "fusion_lat": 0.0, "lat": 38.863592833333335, "name": "62ef22bbe044a2631ba3f290ed753d25", "fusion_lon": 0.0, "bike_id": "62ef22bbe044a2631ba3f290ed753d25", "is_disabled": 0, "is_reserved": 0}, {"rental_uris": {"ios": "https://dc.lft.to/lastmile_qr_scan", "android": "https://dc.lft.to/lastmile_qr_scan"}, "lon": -76.9879115, "type": "electric_bike", "fusion_lat": 0.0, "lat": 38.904145166666666, "name": "f7eaa55f2e8b310649577e8400cf4548", "fusion_lon": 0.0, "bike_id": "f7eaa55f2e8b310649577e8400cf4548", "is_disabled": 0, "is_reserved": 0}, {"rental_uris": {"ios": "https://dc.lft.to/lastmile_qr_scan", "android": "https://dc.lft.to/lastmile_qr_scan"}, "lon": -77.01514733333333, "type": "electric_scooter", "fusion_lat": 0.0, "lat": 38.887362, "name": "e89208cf2374dae11d7a26eebff6e0fb", "fusion_lon": 0.0, "bike_id": "e89208cf2374dae11d7a26eebff6e0fb", "is_disabled": 0, "is_reserved": 0}, {"rental_uris": {"ios": "https://dc.lft.to/lastmile_qr_scan", "android": "https://dc.lft.to/lastmile_qr_scan"}, "lon": -76.98343633333333, "type": "electric_scooter", "fusion_lat": 0.0, "lat": 38.91539216666666, "name": "557711046ac7a6287a41acecede3c6aa", "fusion_lon": 0.0, "bike_id": "557711046ac7a6287a41acecede3c6aa", "is_disabled": 0, "is_reserved": 0}, {"rental_uris": {"ios": "https://dc.lft.to/lastmile_qr_scan", "android": "https://dc.lft.to/lastmile_qr_scan"}, "lon": -77.02226783333333, "type": "electric_scooter", "fusion_lat": 0.0, "lat": 38.91268, "name": "3893f891e32cb1c8028f6fb81186ad40", "fusion_lon": 0.0, "bike_id": "3893f891e32cb1c8028f6fb81186ad40", "is_disabled": 0, "is_reserved": 0}, {"rental_uris": {"ios": "https://dc.lft.to/lastmile_qr_scan", "android": "https://dc.lft.to/lastmile_qr_scan"}, "lon": -76.974536, "type": "electric_scooter", "fusion_lat": 0.0, "lat": 38.865501333333334, "name": "967f4e7056f403462b190b88403df257", "fusion_lon": 0.0, "bike_id": "967f4e7056f403462b190b88403df257", "is_disabled": 0, "is_reserved": 0}, {"rental_uris": {"ios": "https://dc.lft.to/lastmile_qr_scan", "android": "https://dc.lft.to/lastmile_qr_scan"}, "lon": -77.117991, "type": "electric_bike", "fusion_lat": 0.0, "lat": 38.898343833333335, "name": "9f6d3670af6bd0e5f34948fafc6a706a", "fusion_lon": 0.0, "bike_id": "9f6d3670af6bd0e5f34948fafc6a706a", "is_disabled": 0, "is_reserved": 0}, {"rental_uris": {"ios": "https://dc.lft.to/lastmile_qr_scan", "android": "https://dc.lft.to/lastmile_qr_scan"}, "lon": -77.03195966666667, "type": "electric_scooter", "fusion_lat": 0.0, "lat": 38.90038933333334, "name": "a8d4ae098d57ebf86882e08582487aa3", "fusion_lon": 0.0, "bike_id": "a8d4ae098d57ebf86882e08582487aa3", "is_disabled": 0, "is_reserved": 0}, {"rental_uris": {"ios": "https://dc.lft.to/lastmile_qr_scan", "android": "https://dc.lft.to/lastmile_qr_scan"}, "lon": -77.03399983333334, "type": "electric_scooter", "fusion_lat": 0.0, "lat": 38.9216215, "name": "bf01fb83120abb951926e4778ff4a521", "fusion_lon": 0.0, "bike_id": "bf01fb83120abb951926e4778ff4a521", "is_disabled": 0, "is_reserved": 0}, {"rental_uris": {"ios": "https://dc.lft.to/lastmile_qr_scan", "android": "https://dc.lft.to/lastmile_qr_scan"}, "lon": -77.02709916666667, "type": "electric_scooter", "fusion_lat": 0.0, "lat": 38.918164, "name": "4cd3ebf21aea212811b984244f5759bf", "fusion_lon": 0.0, "bike_id": "4cd3ebf21aea212811b984244f5759bf", "is_disabled": 0, "is_reserved": 0}, {"rental_uris": {"ios": "https://dc.lft.to/lastmile_qr_scan", "android": "https://dc.lft.to/lastmile_qr_scan"}, "lon": -77.01226033333333, "type": "electric_scooter", "fusion_lat": 0.0, "lat": 38.91597333333333, "name": "92867fa5826a8aa337d51515b40ce414", "fusion_lon": 0.0, "bike_id": "92867fa5826a8aa337d51515b40ce414", "is_disabled": 0, "is_reserved": 0}, {"rental_uris": {"ios": "https://dc.lft.to/lastmile_qr_scan", "android": "https://dc.lft.to/lastmile_qr_scan"}, "lon": -77.02963416666667, "type": "electric_scooter", "fusion_lat": 0.0, "lat": 38.92568216666667, "name": "9ef4af9abed9feaafbeb861ae3c7e918", "fusion_lon": 0.0, "bike_id": "9ef4af9abed9feaafbeb861ae3c7e918", "is_disabled": 0, "is_reserved": 0}, {"rental_uris": {"ios": "https://dc.lft.to/lastmile_qr_scan", "android": "https://dc.lft.to/lastmile_qr_scan"}, "lon": -77.02905433333333, "type": "electric_scooter", "fusion_lat": 0.0, "lat": 38.89224183333333, "name": "23d4573400ca89752a58c4dbdcbf6c95", "fusion_lon": 0.0, "bike_id": "23d4573400ca89752a58c4dbdcbf6c95", "is_disabled": 0, "is_reserved": 0}, {"rental_uris": {"ios": "https://dc.lft.to/lastmile_qr_scan", "android": "https://dc.lft.to/lastmile_qr_scan"}, "lon": -77.02709766666666, "type": "electric_scooter", "fusion_lat": 0.0, "lat": 38.918174666666665, "name": "1a776b059ac85b584c47ef53e8d55218", "fusion_lon": 0.0, "bike_id": "1a776b059ac85b584c47ef53e8d55218", "is_disabled": 0, "is_reserved": 0}, {"rental_uris": {"ios": "https://dc.lft.to/lastmile_qr_scan", "android": "https://dc.lft.to/lastmile_qr_scan"}, "lon": -77.0152285, "type": "electric_scooter", "fusion_lat": 0.0, "lat": 38.902164666666664, "name": "f5bb4af631c2bc8ea689e95ef90055ea", "fusion_lon": 0.0, "bike_id": "f5bb4af631c2bc8ea689e95ef90055ea", "is_disabled": 0, "is_reserved": 0}, {"rental_uris": {"ios": "https://dc.lft.to/lastmile_qr_scan", "android": "https://dc.lft.to/lastmile_qr_scan"}, "lon": -77.03148483333334, "type": "electric_scooter", "fusion_lat": 0.0, "lat": 38.91566783333333, "name": "f398c85c73230273c3a5880bc6d7a032", "fusion_lon": 0.0, "bike_id": "f398c85c73230273c3a5880bc6d7a032", "is_disabled": 0, "is_reserved": 0}, {"rental_uris": {"ios": "https://dc.lft.to/lastmile_qr_scan", "android": "https://dc.lft.to/lastmile_qr_scan"}, "lon": -76.98745016666666, "type": "electric_bike", "fusion_lat": 0.0, "lat": 38.85793566666667, "name": "75654a5f78e192d6d567ec71726f388c", "fusion_lon": 0.0, "bike_id": "75654a5f78e192d6d567ec71726f388c", "is_disabled": 0, "is_reserved": 0}, {"rental_uris": {"ios": "https://dc.lft.to/lastmile_qr_scan", "android": "https://dc.lft.to/lastmile_qr_scan"}, "lon": -77.02962133333334, "type": "electric_scooter", "fusion_lat": 0.0, "lat": 38.90520316666667, "name": "e5348bbffe18f2a2b6ac5fa470833276", "fusion_lon": 0.0, "bike_id": "e5348bbffe18f2a2b6ac5fa470833276", "is_disabled": 0, "is_reserved": 0}, {"rental_uris": {"ios": "https://dc.lft.to/lastmile_qr_scan", "android": "https://dc.lft.to/lastmile_qr_scan"}, "lon": -76.99595133333334, "type": "electric_scooter", "fusion_lat": 0.0, "lat": 38.84539266666667, "name": "73b96a31e419fc569aaa498f3405edeb", "fusion_lon": 0.0, "bike_id": "73b96a31e419fc569aaa498f3405edeb", "is_disabled": 0, "is_reserved": 0}, {"rental_uris": {"ios": "https://dc.lft.to/lastmile_qr_scan", "android": "https://dc.lft.to/lastmile_qr_scan"}, "lon": -77.1009275, "type": "electric_bike", "fusion_lat": 0.0, "lat": 38.959542, "name": "584a5b1463712f10792757db5116ed35", "fusion_lon": 0.0, "bike_id": "584a5b1463712f10792757db5116ed35", "is_disabled": 0, "is_reserved": 0}, {"rental_uris": {"ios": "https://dc.lft.to/lastmile_qr_scan", "android": "https://dc.lft.to/lastmile_qr_scan"}, "lon": -76.985014, "type": "electric_scooter", "fusion_lat": 0.0, "lat": 38.8604775, "name": "efa6af7fbfa074faa89763ec6af4f24f", "fusion_lon": 0.0, "bike_id": "efa6af7fbfa074faa89763ec6af4f24f", "is_disabled": 0, "is_reserved": 0}, {"rental_uris": {"ios": "https://dc.lft.to/lastmile_qr_scan", "android": "https://dc.lft.to/lastmile_qr_scan"}, "lon": -77.04708933333333, "type": "electric_scooter", "fusion_lat": 0.0, "lat": 38.921692, "name": "fe886177af3b4f156149ba6b7db5119f", "fusion_lon": 0.0, "bike_id": "fe886177af3b4f156149ba6b7db5119f", "is_disabled": 0, "is_reserved": 0}, {"rental_uris": {"ios": "https://dc.lft.to/lastmile_qr_scan", "android": "https://dc.lft.to/lastmile_qr_scan"}, "lon": -77.03660683333334, "type": "electric_scooter", "fusion_lat": 0.0, "lat": 38.918206, "name": "c7940e6ffba02e4cbac8518715110cf1", "fusion_lon": 0.0, "bike_id": "c7940e6ffba02e4cbac8518715110cf1", "is_disabled": 0, "is_reserved": 0}, {"rental_uris": {"ios": "https://dc.lft.to/lastmile_qr_scan", "android": "https://dc.lft.to/lastmile_qr_scan"}, "lon": -77.03644133333333, "type": "electric_scooter", "fusion_lat": 0.0, "lat": 38.9027455, "name": "b9209f8d1e997abfac4978a5afd0b62a", "fusion_lon": 0.0, "bike_id": "b9209f8d1e997abfac4978a5afd0b62a", "is_disabled": 0, "is_reserved": 0}, {"rental_uris": {"ios": "https://dc.lft.to/lastmile_qr_scan", "android": "https://dc.lft.to/lastmile_qr_scan"}, "lon": -77.0389885, "type": "electric_scooter", "fusion_lat": 0.0, "lat": 38.904734833333336, "name": "c85d3d64e47bfe9cece0ecc94041a8b6", "fusion_lon": 0.0, "bike_id": "c85d3d64e47bfe9cece0ecc94041a8b6", "is_disabled": 0, "is_reserved": 0}, {"rental_uris": {"ios": "https://dc.lft.to/lastmile_qr_scan", "android": "https://dc.lft.to/lastmile_qr_scan"}, "lon": -77.0421485, "type": "electric_scooter", "fusion_lat": 0.0, "lat": 38.906076666666664, "name": "d4d29acafdde56c95cb1e6bb2dea2e82", "fusion_lon": 0.0, "bike_id": "d4d29acafdde56c95cb1e6bb2dea2e82", "is_disabled": 0, "is_reserved": 0}, {"rental_uris": {"ios": "https://dc.lft.to/lastmile_qr_scan", "android": "https://dc.lft.to/lastmile_qr_scan"}, "lon": -76.97887833333333, "type": "electric_scooter", "fusion_lat": 0.0, "lat": 38.904218666666665, "name": "84432ce884c869cdc477925ceb506b92", "fusion_lon": 0.0, "bike_id": "84432ce884c869cdc477925ceb506b92", "is_disabled": 0, "is_reserved": 0}, {"rental_uris": {"ios": "https://dc.lft.to/lastmile_qr_scan", "android": "https://dc.lft.to/lastmile_qr_scan"}, "lon": -77.06350966666666, "type": "electric_scooter", "fusion_lat": 0.0, "lat": 38.9445115, "name": "a65d992fe5e2531e9dad7ebecfc9a673", "fusion_lon": 0.0, "bike_id": "a65d992fe5e2531e9dad7ebecfc9a673", "is_disabled": 0, "is_reserved": 0}, {"rental_uris": {"ios": "https://dc.lft.to/lastmile_qr_scan", "android": "https://dc.lft.to/lastmile_qr_scan"}, "lon": -76.9856915, "type": "electric_scooter", "fusion_lat": 0.0, "lat": 38.892033, "name": "78612649032f086a41a7a9b854b6318a", "fusion_lon": 0.0, "bike_id": "78612649032f086a41a7a9b854b6318a", "is_disabled": 0, "is_reserved": 0}, {"rental_uris": {"ios": "https://dc.lft.to/lastmile_qr_scan", "android": "https://dc.lft.to/lastmile_qr_scan"}, "lon": -77.0391235, "type": "electric_scooter", "fusion_lat": 0.0, "lat": 38.892005166666664, "name": "7fe2d74fa243886dcb1633984c8b5d72", "fusion_lon": 0.0, "bike_id": "7fe2d74fa243886dcb1633984c8b5d72", "is_disabled": 0, "is_reserved": 0}, {"rental_uris": {"ios": "https://dc.lft.to/lastmile_qr_scan", "android": "https://dc.lft.to/lastmile_qr_scan"}, "lon": -76.99791966666666, "type": "electric_scooter", "fusion_lat": 0.0, "lat": 38.9218275, "name": "8591ff3a97cdd6d6af5c1812bfec4be0", "fusion_lon": 0.0, "bike_id": "8591ff3a97cdd6d6af5c1812bfec4be0", "is_disabled": 0, "is_reserved": 0}, {"rental_uris": {"ios": "https://dc.lft.to/lastmile_qr_scan", "android": "https://dc.lft.to/lastmile_qr_scan"}, "lon": -77.013917, "type": "electric_scooter", "fusion_lat": 0.0, "lat": 38.9701825, "name": "402dfa0bc3c5a8ba1b3a9608b96b9124", "fusion_lon": 0.0, "bike_id": "402dfa0bc3c5a8ba1b3a9608b96b9124", "is_disabled": 0, "is_reserved": 0}, {"rental_uris": {"ios": "https://dc.lft.to/lastmile_qr_scan", "android": "https://dc.lft.to/lastmile_qr_scan"}, "lon": -77.04501683333334, "type": "electric_scooter", "fusion_lat": 0.0, "lat": 38.919433, "name": "6f434d08e8cf8842fd37d425fcd658eb", "fusion_lon": 0.0, "bike_id": "6f434d08e8cf8842fd37d425fcd658eb", "is_disabled": 0, "is_reserved": 0}, {"rental_uris": {"ios": "https://dc.lft.to/lastmile_qr_scan", "android": "https://dc.lft.to/lastmile_qr_scan"}, "lon": -77.048409, "type": "electric_scooter", "fusion_lat": 0.0, "lat": 38.90980283333333, "name": "5d320b993924067458ecfab2754391dd", "fusion_lon": 0.0, "bike_id": "5d320b993924067458ecfab2754391dd", "is_disabled": 0, "is_reserved": 0}, {"rental_uris": {"ios": "https://dc.lft.to/lastmile_qr_scan", "android": "https://dc.lft.to/lastmile_qr_scan"}, "lon": -77.0111925, "type": "electric_scooter", "fusion_lat": 0.0, "lat": 38.89507666666667, "name": "c10029d63010c27cf59211e53c7362d6", "fusion_lon": 0.0, "bike_id": "c10029d63010c27cf59211e53c7362d6", "is_disabled": 0, "is_reserved": 0}, {"rental_uris": {"ios": "https://dc.lft.to/lastmile_qr_scan", "android": "https://dc.lft.to/lastmile_qr_scan"}, "lon": -76.97555483333333, "type": "electric_scooter", "fusion_lat": 0.0, "lat": 38.904418166666666, "name": "3b07a4f7e28e0ce7f99bfa602f7a4abb", "fusion_lon": 0.0, "bike_id": "3b07a4f7e28e0ce7f99bfa602f7a4abb", "is_disabled": 0, "is_reserved": 0}, {"rental_uris": {"ios": "https://dc.lft.to/lastmile_qr_scan", "android": "https://dc.lft.to/lastmile_qr_scan"}, "lon": -77.04894666666667, "type": "electric_scooter", "fusion_lat": 0.0, "lat": 38.91885883333333, "name": "91d5aa2f9a046d45a9b95a42d17eae0e", "fusion_lon": 0.0, "bike_id": "91d5aa2f9a046d45a9b95a42d17eae0e", "is_disabled": 0, "is_reserved": 0}, {"rental_uris": {"ios": "https://dc.lft.to/lastmile_qr_scan", "android": "https://dc.lft.to/lastmile_qr_scan"}, "lon": -76.9857485, "type": "electric_scooter", "fusion_lat": 0.0, "lat": 38.861504833333335, "name": "27ebf29611afa50f8f169c3780a5a3eb", "fusion_lon": 0.0, "bike_id": "27ebf29611afa50f8f169c3780a5a3eb", "is_disabled": 0, "is_reserved": 0}, {"rental_uris": {"ios": "https://dc.lft.to/lastmile_qr_scan", "android": "https://dc.lft.to/lastmile_qr_scan"}, "lon": -76.99606033333333, "type": "electric_scooter", "fusion_lat": 0.0, "lat": 38.8862715, "name": "913fd26a2dec22c616074c4e23b1f4f3", "fusion_lon": 0.0, "bike_id": "913fd26a2dec22c616074c4e23b1f4f3", "is_disabled": 0, "is_reserved": 0}, {"rental_uris": {"ios": "https://dc.lft.to/lastmile_qr_scan", "android": "https://dc.lft.to/lastmile_qr_scan"}, "lon": -77.04220766666667, "type": "electric_scooter", "fusion_lat": 0.0, "lat": 38.921403, "name": "78bcd6059fc1db23d745d3f293085a21", "fusion_lon": 0.0, "bike_id": "78bcd6059fc1db23d745d3f293085a21", "is_disabled": 0, "is_reserved": 0}, {"rental_uris": {"ios": "https://dc.lft.to/lastmile_qr_scan", "android": "https://dc.lft.to/lastmile_qr_scan"}, "lon": -77.00347666666667, "type": "electric_scooter", "fusion_lat": 0.0, "lat": 38.907385833333336, "name": "1ed982d6185177621a3422080768dad3", "fusion_lon": 0.0, "bike_id": "1ed982d6185177621a3422080768dad3", "is_disabled": 0, "is_reserved": 0}, {"rental_uris": {"ios": "https://dc.lft.to/lastmile_qr_scan", "android": "https://dc.lft.to/lastmile_qr_scan"}, "lon": -77.00284716666667, "type": "electric_scooter", "fusion_lat": 0.0, "lat": 38.90136416666667, "name": "89be4b4a15777fd33177a8321f5d476c", "fusion_lon": 0.0, "bike_id": "89be4b4a15777fd33177a8321f5d476c", "is_disabled": 0, "is_reserved": 0}, {"rental_uris": {"ios": "https://dc.lft.to/lastmile_qr_scan", "android": "https://dc.lft.to/lastmile_qr_scan"}, "lon": -77.0502385, "type": "electric_scooter", "fusion_lat": 0.0, "lat": 38.900374666666664, "name": "b3c6314a1c3ae701c014e403df716a38", "fusion_lon": 0.0, "bike_id": "b3c6314a1c3ae701c014e403df716a38", "is_disabled": 0, "is_reserved": 0}, {"rental_uris": {"ios": "https://dc.lft.to/lastmile_qr_scan", "android": "https://dc.lft.to/lastmile_qr_scan"}, "lon": -77.03840666666666, "type": "electric_scooter", "fusion_lat": 0.0, "lat": 38.931109666666664, "name": "e4002f392a5312469351405b31195cd7", "fusion_lon": 0.0, "bike_id": "e4002f392a5312469351405b31195cd7", "is_disabled": 0, "is_reserved": 0}, {"rental_uris": {"ios": "https://dc.lft.to/lastmile_qr_scan", "android": "https://dc.lft.to/lastmile_qr_scan"}, "lon": -76.98885883333334, "type": "electric_scooter", "fusion_lat": 0.0, "lat": 38.866617833333336, "name": "52a75b0b0c9dad87e07ab97a6d27970a", "fusion_lon": 0.0, "bike_id": "52a75b0b0c9dad87e07ab97a6d27970a", "is_disabled": 0, "is_reserved": 0}, {"rental_uris": {"ios": "https://dc.lft.to/lastmile_qr_scan", "android": "https://dc.lft.to/lastmile_qr_scan"}, "lon": -76.9977365, "type": "electric_bike", "fusion_lat": 0.0, "lat": 38.909338166666664, "name": "e54735ab782759dbfff310056891a7a8", "fusion_lon": 0.0, "bike_id": "e54735ab782759dbfff310056891a7a8", "is_disabled": 0, "is_reserved": 0}, {"rental_uris": {"ios": "https://dc.lft.to/lastmile_qr_scan", "android": "https://dc.lft.to/lastmile_qr_scan"}, "lon": -76.98002016666666, "type": "electric_bike", "fusion_lat": 0.0, "lat": 38.900025166666666, "name": "37465a11063698de3755178cc7e6f3df", "fusion_lon": 0.0, "bike_id": "37465a11063698de3755178cc7e6f3df", "is_disabled": 0, "is_reserved": 0}, {"rental_uris": {"ios": "https://dc.lft.to/lastmile_qr_scan", "android": "https://dc.lft.to/lastmile_qr_scan"}, "lon": -76.93172166666666, "type": "electric_scooter", "fusion_lat": 0.0, "lat": 38.898853, "name": "3abcaf88a4860b50eeb9e11e2629d718", "fusion_lon": 0.0, "bike_id": "3abcaf88a4860b50eeb9e11e2629d718", "is_disabled": 0, "is_reserved": 0}, {"rental_uris": {"ios": "https://dc.lft.to/lastmile_qr_scan", "android": "https://dc.lft.to/lastmile_qr_scan"}, "lon": -77.03673833333333, "type": "electric_scooter", "fusion_lat": 0.0, "lat": 38.91872133333333, "name": "82b3849cd1461e7804e329990ea85661", "fusion_lon": 0.0, "bike_id": "82b3849cd1461e7804e329990ea85661", "is_disabled": 0, "is_reserved": 0}, {"rental_uris": {"ios": "https://dc.lft.to/lastmile_qr_scan", "android": "https://dc.lft.to/lastmile_qr_scan"}, "lon": -76.95188583333334, "type": "electric_bike", "fusion_lat": 0.0, "lat": 38.90682816666666, "name": "16147982fc7abee4dde6fbdededeffdd", "fusion_lon": 0.0, "bike_id": "16147982fc7abee4dde6fbdededeffdd", "is_disabled": 0, "is_reserved": 0}, {"rental_uris": {"ios": "https://dc.lft.to/lastmile_qr_scan", "android": "https://dc.lft.to/lastmile_qr_scan"}, "lon": -77.0111035, "type": "electric_scooter", "fusion_lat": 0.0, "lat": 38.90360716666667, "name": "3a3298b3d8dcba613877c19a925430c2", "fusion_lon": 0.0, "bike_id": "3a3298b3d8dcba613877c19a925430c2", "is_disabled": 0, "is_reserved": 0}, {"rental_uris": {"ios": "https://dc.lft.to/lastmile_qr_scan", "android": "https://dc.lft.to/lastmile_qr_scan"}, "lon": -77.044149, "type": "electric_scooter", "fusion_lat": 0.0, "lat": 38.91313, "name": "bb902f5c3fc4d137f178a204102a052a", "fusion_lon": 0.0, "bike_id": "bb902f5c3fc4d137f178a204102a052a", "is_disabled": 0, "is_reserved": 0}, {"rental_uris": {"ios": "https://dc.lft.to/lastmile_qr_scan", "android": "https://dc.lft.to/lastmile_qr_scan"}, "lon": -77.01312633333333, "type": "electric_scooter", "fusion_lat": 0.0, "lat": 38.89738283333333, "name": "375a6fafc31bffbdaf2ca3be5c54f64e", "fusion_lon": 0.0, "bike_id": "375a6fafc31bffbdaf2ca3be5c54f64e", "is_disabled": 0, "is_reserved": 0}, {"rental_uris": {"ios": "https://dc.lft.to/lastmile_qr_scan", "android": "https://dc.lft.to/lastmile_qr_scan"}, "lon": -77.0238215, "type": "electric_scooter", "fusion_lat": 0.0, "lat": 38.93609766666667, "name": "e0a28594edee58cda7b74af9ea1e4e21", "fusion_lon": 0.0, "bike_id": "e0a28594edee58cda7b74af9ea1e4e21", "is_disabled": 0, "is_reserved": 0}, {"rental_uris": {"ios": "https://dc.lft.to/lastmile_qr_scan", "android": "https://dc.lft.to/lastmile_qr_scan"}, "lon": -77.01374366666667, "type": "electric_scooter", "fusion_lat": 0.0, "lat": 38.8865475, "name": "3f1931bfc03c450ca5399c2d4bf99bf3", "fusion_lon": 0.0, "bike_id": "3f1931bfc03c450ca5399c2d4bf99bf3", "is_disabled": 0, "is_reserved": 0}, {"rental_uris": {"ios": "https://dc.lft.to/lastmile_qr_scan", "android": "https://dc.lft.to/lastmile_qr_scan"}, "lon": -77.038552, "type": "electric_scooter", "fusion_lat": 0.0, "lat": 38.909358166666664, "name": "dd5ebabbd15dc7cb6325efa34240b066", "fusion_lon": 0.0, "bike_id": "dd5ebabbd15dc7cb6325efa34240b066", "is_disabled": 0, "is_reserved": 0}, {"rental_uris": {"ios": "https://dc.lft.to/lastmile_qr_scan", "android": "https://dc.lft.to/lastmile_qr_scan"}, "lon": -77.0526475, "type": "electric_scooter", "fusion_lat": 0.0, "lat": 38.93433866666667, "name": "355cf9b3a7293310e1eb3a6916f18721", "fusion_lon": 0.0, "bike_id": "355cf9b3a7293310e1eb3a6916f18721", "is_disabled": 0, "is_reserved": 0}, {"rental_uris": {"ios": "https://dc.lft.to/lastmile_qr_scan", "android": "https://dc.lft.to/lastmile_qr_scan"}, "lon": -77.04284983333334, "type": "electric_scooter", "fusion_lat": 0.0, "lat": 38.895349833333334, "name": "9f670e3277a9f215d75bca2dffd01ddc", "fusion_lon": 0.0, "bike_id": "9f670e3277a9f215d75bca2dffd01ddc", "is_disabled": 0, "is_reserved": 0}, {"rental_uris": {"ios": "https://dc.lft.to/lastmile_qr_scan", "android": "https://dc.lft.to/lastmile_qr_scan"}, "lon": -77.028656, "type": "electric_scooter", "fusion_lat": 0.0, "lat": 38.90869466666667, "name": "1f8cbcd2bfadd8fab6498b08692d7913", "fusion_lon": 0.0, "bike_id": "1f8cbcd2bfadd8fab6498b08692d7913", "is_disabled": 0, "is_reserved": 0}, {"rental_uris": {"ios": "https://dc.lft.to/lastmile_qr_scan", "android": "https://dc.lft.to/lastmile_qr_scan"}, "lon": -77.0377965, "type": "electric_scooter", "fusion_lat": 0.0, "lat": 38.930145333333336, "name": "de03a3338c4de227dc2fb7852f1a2fe9", "fusion_lon": 0.0, "bike_id": "de03a3338c4de227dc2fb7852f1a2fe9", "is_disabled": 0, "is_reserved": 0}, {"rental_uris": {"ios": "https://dc.lft.to/lastmile_qr_scan", "android": "https://dc.lft.to/lastmile_qr_scan"}, "lon": -76.9590295, "type": "electric_scooter", "fusion_lat": 0.0, "lat": 38.92692016666667, "name": "5ccb836fa0adfaccd885975476f9fbda", "fusion_lon": 0.0, "bike_id": "5ccb836fa0adfaccd885975476f9fbda", "is_disabled": 0, "is_reserved": 0}, {"rental_uris": {"ios": "https://dc.lft.to/lastmile_qr_scan", "android": "https://dc.lft.to/lastmile_qr_scan"}, "lon": -77.0020595, "type": "electric_scooter", "fusion_lat": 0.0, "lat": 38.90024833333333, "name": "c5d35bb6e14f54bcbbe6e3f7bf74ffcb", "fusion_lon": 0.0, "bike_id": "c5d35bb6e14f54bcbbe6e3f7bf74ffcb", "is_disabled": 0, "is_reserved": 0}, {"rental_uris": {"ios": "https://dc.lft.to/lastmile_qr_scan", "android": "https://dc.lft.to/lastmile_qr_scan"}, "lon": -77.0488985, "type": "electric_scooter", "fusion_lat": 0.0, "lat": 38.90585433333333, "name": "ab96576396b06caa90b8e77d3ac68568", "fusion_lon": 0.0, "bike_id": "ab96576396b06caa90b8e77d3ac68568", "is_disabled": 0, "is_reserved": 0}, {"rental_uris": {"ios": "https://dc.lft.to/lastmile_qr_scan", "android": "https://dc.lft.to/lastmile_qr_scan"}, "lon": -77.03283466666667, "type": "electric_scooter", "fusion_lat": 0.0, "lat": 38.93879666666667, "name": "b75b7616ebaa2f19be6e597c6f17a250", "fusion_lon": 0.0, "bike_id": "b75b7616ebaa2f19be6e597c6f17a250", "is_disabled": 0, "is_reserved": 0}, {"rental_uris": {"ios": "https://dc.lft.to/lastmile_qr_scan", "android": "https://dc.lft.to/lastmile_qr_scan"}, "lon": -77.027915, "type": "electric_scooter", "fusion_lat": 0.0, "lat": 38.930864666666665, "name": "09e692c438ff5fce976d11bc68bece69", "fusion_lon": 0.0, "bike_id": "09e692c438ff5fce976d11bc68bece69", "is_disabled": 0, "is_reserved": 0}, {"rental_uris": {"ios": "https://dc.lft.to/lastmile_qr_scan", "android": "https://dc.lft.to/lastmile_qr_scan"}, "lon": -77.03073116666667, "type": "electric_scooter", "fusion_lat": 0.0, "lat": 38.89469916666667, "name": "18aa5af738ff163dd94c3ecfb5ef0bd8", "fusion_lon": 0.0, "bike_id": "18aa5af738ff163dd94c3ecfb5ef0bd8", "is_disabled": 0, "is_reserved": 0}, {"rental_uris": {"ios": "https://dc.lft.to/lastmile_qr_scan", "android": "https://dc.lft.to/lastmile_qr_scan"}, "lon": -76.99000466666666, "type": "electric_scooter", "fusion_lat": 0.0, "lat": 38.865044, "name": "9983e23aae8b1aca876a2014f89a116e", "fusion_lon": 0.0, "bike_id": "9983e23aae8b1aca876a2014f89a116e", "is_disabled": 0, "is_reserved": 0}, {"rental_uris": {"ios": "https://dc.lft.to/lastmile_qr_scan", "android": "https://dc.lft.to/lastmile_qr_scan"}, "lon": -77.0111215, "type": "electric_scooter", "fusion_lat": 0.0, "lat": 38.907879333333334, "name": "6cae6b031bdc194be7f67db788176796", "fusion_lon": 0.0, "bike_id": "6cae6b031bdc194be7f67db788176796", "is_disabled": 0, "is_reserved": 0}, {"rental_uris": {"ios": "https://dc.lft.to/lastmile_qr_scan", "android": "https://dc.lft.to/lastmile_qr_scan"}, "lon": -77.0236375, "type": "electric_scooter", "fusion_lat": 0.0, "lat": 38.903078666666666, "name": "25ee0428d3b90a42fdd274ecebee534e", "fusion_lon": 0.0, "bike_id": "25ee0428d3b90a42fdd274ecebee534e", "is_disabled": 0, "is_reserved": 0}, {"rental_uris": {"ios": "https://dc.lft.to/lastmile_qr_scan", "android": "https://dc.lft.to/lastmile_qr_scan"}, "lon": -77.00630616666666, "type": "electric_scooter", "fusion_lat": 0.0, "lat": 38.8292975, "name": "427e60f8e3524ef2263ab461293de2f7", "fusion_lon": 0.0, "bike_id": "427e60f8e3524ef2263ab461293de2f7", "is_disabled": 0, "is_reserved": 0}, {"rental_uris": {"ios": "https://dc.lft.to/lastmile_qr_scan", "android": "https://dc.lft.to/lastmile_qr_scan"}, "lon": -77.01927, "type": "electric_scooter", "fusion_lat": 0.0, "lat": 38.956873, "name": "a01f52290523b76ab601dd56d0ce2ec1", "fusion_lon": 0.0, "bike_id": "a01f52290523b76ab601dd56d0ce2ec1", "is_disabled": 0, "is_reserved": 0}, {"rental_uris": {"ios": "https://dc.lft.to/lastmile_qr_scan", "android": "https://dc.lft.to/lastmile_qr_scan"}, "lon": -77.02836733333334, "type": "electric_scooter", "fusion_lat": 0.0, "lat": 38.92860066666667, "name": "dde7aafae4ceb9ce6f1e016f7338748d", "fusion_lon": 0.0, "bike_id": "dde7aafae4ceb9ce6f1e016f7338748d", "is_disabled": 0, "is_reserved": 0}, {"rental_uris": {"ios": "https://dc.lft.to/lastmile_qr_scan", "android": "https://dc.lft.to/lastmile_qr_scan"}, "lon": -77.03087, "type": "electric_scooter", "fusion_lat": 0.0, "lat": 38.894746166666664, "name": "e6b64e7b4e0a37d5a8a95a775eac5976", "fusion_lon": 0.0, "bike_id": "e6b64e7b4e0a37d5a8a95a775eac5976", "is_disabled": 0, "is_reserved": 0}, {"rental_uris": {"ios": "https://dc.lft.to/lastmile_qr_scan", "android": "https://dc.lft.to/lastmile_qr_scan"}, "lon": -77.07376383333333, "type": "electric_bike", "fusion_lat": 0.0, "lat": 38.9618535, "name": "40dfaabef7c927776a2d6599a63705f1", "fusion_lon": 0.0, "bike_id": "40dfaabef7c927776a2d6599a63705f1", "is_disabled": 0, "is_reserved": 0}, {"rental_uris": {"ios": "https://dc.lft.to/lastmile_qr_scan", "android": "https://dc.lft.to/lastmile_qr_scan"}, "lon": -77.03628483333334, "type": "electric_scooter", "fusion_lat": 0.0, "lat": 38.906837333333335, "name": "da91906fde697b1b465c77c18ffb244d", "fusion_lon": 0.0, "bike_id": "da91906fde697b1b465c77c18ffb244d", "is_disabled": 0, "is_reserved": 0}, {"rental_uris": {"ios": "https://dc.lft.to/lastmile_qr_scan", "android": "https://dc.lft.to/lastmile_qr_scan"}, "lon": -77.10508366666667, "type": "electric_bike", "fusion_lat": 0.0, "lat": 38.928519333333334, "name": "fb49f8e4386366f0687254cd949f1f8c", "fusion_lon": 0.0, "bike_id": "fb49f8e4386366f0687254cd949f1f8c", "is_disabled": 0, "is_reserved": 0}, {"rental_uris": {"ios": "https://dc.lft.to/lastmile_qr_scan", "android": "https://dc.lft.to/lastmile_qr_scan"}, "lon": -76.9697785, "type": "electric_scooter", "fusion_lat": 0.0, "lat": 38.86167016666667, "name": "a96408e220af189d78d33bdd295c3831", "fusion_lon": 0.0, "bike_id": "a96408e220af189d78d33bdd295c3831", "is_disabled": 0, "is_reserved": 0}, {"rental_uris": {"ios": "https://dc.lft.to/lastmile_qr_scan", "android": "https://dc.lft.to/lastmile_qr_scan"}, "lon": -76.99959216666667, "type": "electric_scooter", "fusion_lat": 0.0, "lat": 38.908686333333335, "name": "dd76e9a587f73b11acc433ccdc22d7c6", "fusion_lon": 0.0, "bike_id": "dd76e9a587f73b11acc433ccdc22d7c6", "is_disabled": 0, "is_reserved": 0}, {"rental_uris": {"ios": "https://dc.lft.to/lastmile_qr_scan", "android": "https://dc.lft.to/lastmile_qr_scan"}, "lon": -77.01535833333334, "type": "electric_scooter", "fusion_lat": 0.0, "lat": 38.887412166666664, "name": "01c6ee5df921ddf53ead2c03d5624f46", "fusion_lon": 0.0, "bike_id": "01c6ee5df921ddf53ead2c03d5624f46", "is_disabled": 0, "is_reserved": 0}, {"rental_uris": {"ios": "https://dc.lft.to/lastmile_qr_scan", "android": "https://dc.lft.to/lastmile_qr_scan"}, "lon": -77.02744866666667, "type": "electric_scooter", "fusion_lat": 0.0, "lat": 38.927741166666664, "name": "0a3c1655b79a493ff03c2e1b976b0a4f", "fusion_lon": 0.0, "bike_id": "0a3c1655b79a493ff03c2e1b976b0a4f", "is_disabled": 0, "is_reserved": 0}, {"rental_uris": {"ios": "https://dc.lft.to/lastmile_qr_scan", "android": "https://dc.lft.to/lastmile_qr_scan"}, "lon": -77.05353116666667, "type": "electric_scooter", "fusion_lat": 0.0, "lat": 38.92716016666667, "name": "4c468661201e9f2eddf41afdfcb3d750", "fusion_lon": 0.0, "bike_id": "4c468661201e9f2eddf41afdfcb3d750", "is_disabled": 0, "is_reserved": 0}, {"rental_uris": {"ios": "https://dc.lft.to/lastmile_qr_scan", "android": "https://dc.lft.to/lastmile_qr_scan"}, "lon": -77.03073266666667, "type": "electric_scooter", "fusion_lat": 0.0, "lat": 38.92384233333333, "name": "748dcfa107be861b6e6bb425852379bd", "fusion_lon": 0.0, "bike_id": "748dcfa107be861b6e6bb425852379bd", "is_disabled": 0, "is_reserved": 0}, {"rental_uris": {"ios": "https://dc.lft.to/lastmile_qr_scan", "android": "https://dc.lft.to/lastmile_qr_scan"}, "lon": -77.0412785, "type": "electric_scooter", "fusion_lat": 0.0, "lat": 38.9243485, "name": "899bdf40140843bd308d4a532394c6b4", "fusion_lon": 0.0, "bike_id": "899bdf40140843bd308d4a532394c6b4", "is_disabled": 0, "is_reserved": 0}, {"rental_uris": {"ios": "https://dc.lft.to/lastmile_qr_scan", "android": "https://dc.lft.to/lastmile_qr_scan"}, "lon": -77.01398033333334, "type": "electric_scooter", "fusion_lat": 0.0, "lat": 38.919443333333334, "name": "11f515a10d80d9edf033361a9b8c9e01", "fusion_lon": 0.0, "bike_id": "11f515a10d80d9edf033361a9b8c9e01", "is_disabled": 0, "is_reserved": 0}, {"rental_uris": {"ios": "https://dc.lft.to/lastmile_qr_scan", "android": "https://dc.lft.to/lastmile_qr_scan"}, "lon": -77.02945516666666, "type": "electric_scooter", "fusion_lat": 0.0, "lat": 38.93245483333333, "name": "38f325abfa2763ab9d30eec1e0da4888", "fusion_lon": 0.0, "bike_id": "38f325abfa2763ab9d30eec1e0da4888", "is_disabled": 0, "is_reserved": 0}, {"rental_uris": {"ios": "https://dc.lft.to/lastmile_qr_scan", "android": "https://dc.lft.to/lastmile_qr_scan"}, "lon": -77.031796, "type": "electric_scooter", "fusion_lat": 0.0, "lat": 38.9179905, "name": "6ac2dc649e77b2cc57d9869b48b4b925", "fusion_lon": 0.0, "bike_id": "6ac2dc649e77b2cc57d9869b48b4b925", "is_disabled": 0, "is_reserved": 0}, {"rental_uris": {"ios": "https://dc.lft.to/lastmile_qr_scan", "android": "https://dc.lft.to/lastmile_qr_scan"}, "lon": -77.0466765, "type": "electric_scooter", "fusion_lat": 0.0, "lat": 38.914824, "name": "8ed50ad8286e4287c983e6b303242634", "fusion_lon": 0.0, "bike_id": "8ed50ad8286e4287c983e6b303242634", "is_disabled": 0, "is_reserved": 0}, {"rental_uris": {"ios": "https://dc.lft.to/lastmile_qr_scan", "android": "https://dc.lft.to/lastmile_qr_scan"}, "lon": -77.0919255, "type": "electric_scooter", "fusion_lat": 0.0, "lat": 38.913663666666665, "name": "cf7f67feb645f9eda68ca8e7eaa11ced", "fusion_lon": 0.0, "bike_id": "cf7f67feb645f9eda68ca8e7eaa11ced", "is_disabled": 0, "is_reserved": 0}, {"rental_uris": {"ios": "https://dc.lft.to/lastmile_qr_scan", "android": "https://dc.lft.to/lastmile_qr_scan"}, "lon": -77.03456266666667, "type": "electric_scooter", "fusion_lat": 0.0, "lat": 38.917025, "name": "9e2590ce979eaeb274c697a3031c46ac", "fusion_lon": 0.0, "bike_id": "9e2590ce979eaeb274c697a3031c46ac", "is_disabled": 0, "is_reserved": 0}, {"rental_uris": {"ios": "https://dc.lft.to/lastmile_qr_scan", "android": "https://dc.lft.to/lastmile_qr_scan"}, "lon": -77.1068775, "type": "electric_bike", "fusion_lat": 0.0, "lat": 38.93585233333334, "name": "9137c1c8c5a90de7a675493fd33dfc7d", "fusion_lon": 0.0, "bike_id": "9137c1c8c5a90de7a675493fd33dfc7d", "is_disabled": 0, "is_reserved": 0}, {"rental_uris": {"ios": "https://dc.lft.to/lastmile_qr_scan", "android": "https://dc.lft.to/lastmile_qr_scan"}, "lon": -76.948819, "type": "electric_scooter", "fusion_lat": 0.0, "lat": 38.895009333333334, "name": "5476b48864841e75833721340a0ce173", "fusion_lon": 0.0, "bike_id": "5476b48864841e75833721340a0ce173", "is_disabled": 0, "is_reserved": 0}, {"rental_uris": {"ios": "https://dc.lft.to/lastmile_qr_scan", "android": "https://dc.lft.to/lastmile_qr_scan"}, "lon": -77.03508883333333, "type": "electric_scooter", "fusion_lat": 0.0, "lat": 38.92155866666667, "name": "c314198f6fea3141ab9c838934de03e3", "fusion_lon": 0.0, "bike_id": "c314198f6fea3141ab9c838934de03e3", "is_disabled": 0, "is_reserved": 0}, {"rental_uris": {"ios": "https://dc.lft.to/lastmile_qr_scan", "android": "https://dc.lft.to/lastmile_qr_scan"}, "lon": -77.029605, "type": "electric_scooter", "fusion_lat": 0.0, "lat": 38.905298, "name": "dbda7092d73eeb802c15d0d059f30983", "fusion_lon": 0.0, "bike_id": "dbda7092d73eeb802c15d0d059f30983", "is_disabled": 0, "is_reserved": 0}, {"rental_uris": {"ios": "https://dc.lft.to/lastmile_qr_scan", "android": "https://dc.lft.to/lastmile_qr_scan"}, "lon": -77.042645, "type": "electric_scooter", "fusion_lat": 0.0, "lat": 38.90283866666667, "name": "ccf955be0281143e69cac2db362dd250", "fusion_lon": 0.0, "bike_id": "ccf955be0281143e69cac2db362dd250", "is_disabled": 0, "is_reserved": 0}, {"rental_uris": {"ios": "https://dc.lft.to/lastmile_qr_scan", "android": "https://dc.lft.to/lastmile_qr_scan"}, "lon": -77.00657783333334, "type": "electric_scooter", "fusion_lat": 0.0, "lat": 38.944640166666666, "name": "afb7e98ac8b2f5c039cdf2e0e164659b", "fusion_lon": 0.0, "bike_id": "afb7e98ac8b2f5c039cdf2e0e164659b", "is_disabled": 0, "is_reserved": 0}, {"rental_uris": {"ios": "https://dc.lft.to/lastmile_qr_scan", "android": "https://dc.lft.to/lastmile_qr_scan"}, "lon": -77.03858316666667, "type": "electric_scooter", "fusion_lat": 0.0, "lat": 38.90788216666667, "name": "744b3891c221f6cf3f77ca9a2dd57d00", "fusion_lon": 0.0, "bike_id": "744b3891c221f6cf3f77ca9a2dd57d00", "is_disabled": 0, "is_reserved": 0}, {"rental_uris": {"ios": "https://dc.lft.to/lastmile_qr_scan", "android": "https://dc.lft.to/lastmile_qr_scan"}, "lon": -77.04332483333333, "type": "electric_scooter", "fusion_lat": 0.0, "lat": 38.89586283333333, "name": "2cc4a97f18835290d93d350d525780d1", "fusion_lon": 0.0, "bike_id": "2cc4a97f18835290d93d350d525780d1", "is_disabled": 0, "is_reserved": 0}, {"rental_uris": {"ios": "https://dc.lft.to/lastmile_qr_scan", "android": "https://dc.lft.to/lastmile_qr_scan"}, "lon": -77.03181433333333, "type": "electric_scooter", "fusion_lat": 0.0, "lat": 38.919283666666665, "name": "018ce4adde333b69279df1dbffb69fa2", "fusion_lon": 0.0, "bike_id": "018ce4adde333b69279df1dbffb69fa2", "is_disabled": 0, "is_reserved": 0}, {"rental_uris": {"ios": "https://dc.lft.to/lastmile_qr_scan", "android": "https://dc.lft.to/lastmile_qr_scan"}, "lon": -77.032628, "type": "electric_scooter", "fusion_lat": 0.0, "lat": 38.9255315, "name": "0627a4442fb7ad33d0bee135ab2d8e3f", "fusion_lon": 0.0, "bike_id": "0627a4442fb7ad33d0bee135ab2d8e3f", "is_disabled": 0, "is_reserved": 0}, {"rental_uris": {"ios": "https://dc.lft.to/lastmile_qr_scan", "android": "https://dc.lft.to/lastmile_qr_scan"}, "lon": -77.02964616666667, "type": "electric_bike", "fusion_lat": 0.0, "lat": 38.927196333333335, "name": "c03cf2b6b677c2616e53d2af94277716", "fusion_lon": 0.0, "bike_id": "c03cf2b6b677c2616e53d2af94277716", "is_disabled": 0, "is_reserved": 0}, {"rental_uris": {"ios": "https://dc.lft.to/lastmile_qr_scan", "android": "https://dc.lft.to/lastmile_qr_scan"}, "lon": -77.0012855, "type": "electric_scooter", "fusion_lat": 0.0, "lat": 38.92464666666667, "name": "9337bbb29df47ddcf78d3ff4929f2976", "fusion_lon": 0.0, "bike_id": "9337bbb29df47ddcf78d3ff4929f2976", "is_disabled": 0, "is_reserved": 0}, {"rental_uris": {"ios": "https://dc.lft.to/lastmile_qr_scan", "android": "https://dc.lft.to/lastmile_qr_scan"}, "lon": -77.0462295, "type": "electric_bike", "fusion_lat": 0.0, "lat": 38.99910833333333, "name": "b42a9c9abcd71c864d57085db3384f0a", "fusion_lon": 0.0, "bike_id": "b42a9c9abcd71c864d57085db3384f0a", "is_disabled": 0, "is_reserved": 0}, {"rental_uris": {"ios": "https://dc.lft.to/lastmile_qr_scan", "android": "https://dc.lft.to/lastmile_qr_scan"}, "lon": -77.03813833333334, "type": "electric_scooter", "fusion_lat": 0.0, "lat": 38.93111, "name": "9c650d1b2cb9fe7362af7867fb584a19", "fusion_lon": 0.0, "bike_id": "9c650d1b2cb9fe7362af7867fb584a19", "is_disabled": 0, "is_reserved": 0}, {"rental_uris": {"ios": "https://dc.lft.to/lastmile_qr_scan", "android": "https://dc.lft.to/lastmile_qr_scan"}, "lon": -77.031787, "type": "electric_scooter", "fusion_lat": 0.0, "lat": 38.92023116666667, "name": "6256dd2b8e6a27efdc45627048518882", "fusion_lon": 0.0, "bike_id": "6256dd2b8e6a27efdc45627048518882", "is_disabled": 0, "is_reserved": 0}, {"rental_uris": {"ios": "https://dc.lft.to/lastmile_qr_scan", "android": "https://dc.lft.to/lastmile_qr_scan"}, "lon": -77.06476716666667, "type": "electric_bike", "fusion_lat": 0.0, "lat": 38.97385516666667, "name": "bef8dc6e4bc218719d42fc85de2309ba", "fusion_lon": 0.0, "bike_id": "bef8dc6e4bc218719d42fc85de2309ba", "is_disabled": 0, "is_reserved": 0}, {"rental_uris": {"ios": "https://dc.lft.to/lastmile_qr_scan", "android": "https://dc.lft.to/lastmile_qr_scan"}, "lon": -77.09620433333333, "type": "electric_bike", "fusion_lat": 0.0, "lat": 38.845721, "name": "a07a86688c9a2b94cc88c722151b337c", "fusion_lon": 0.0, "bike_id": "a07a86688c9a2b94cc88c722151b337c", "is_disabled": 0, "is_reserved": 0}, {"rental_uris": {"ios": "https://dc.lft.to/lastmile_qr_scan", "android": "https://dc.lft.to/lastmile_qr_scan"}, "lon": -76.94888583333334, "type": "electric_scooter", "fusion_lat": 0.0, "lat": 38.8953445, "name": "47b7ab290c111a6fbe05870a478c7dba", "fusion_lon": 0.0, "bike_id": "47b7ab290c111a6fbe05870a478c7dba", "is_disabled": 0, "is_reserved": 0}, {"rental_uris": {"ios": "https://dc.lft.to/lastmile_qr_scan", "android": "https://dc.lft.to/lastmile_qr_scan"}, "lon": -77.0385275, "type": "electric_scooter", "fusion_lat": 0.0, "lat": 38.920273333333334, "name": "a3041559f15b16e65fbcb42709cc8fe0", "fusion_lon": 0.0, "bike_id": "a3041559f15b16e65fbcb42709cc8fe0", "is_disabled": 0, "is_reserved": 0}, {"rental_uris": {"ios": "https://dc.lft.to/lastmile_qr_scan", "android": "https://dc.lft.to/lastmile_qr_scan"}, "lon": -77.023533, "type": "electric_scooter", "fusion_lat": 0.0, "lat": 38.945211, "name": "cb40d59759d0a572c5f10c0d771014fc", "fusion_lon": 0.0, "bike_id": "cb40d59759d0a572c5f10c0d771014fc", "is_disabled": 0, "is_reserved": 0}, {"rental_uris": {"ios": "https://dc.lft.to/lastmile_qr_scan", "android": "https://dc.lft.to/lastmile_qr_scan"}, "lon": -77.0029585, "type": "electric_scooter", "fusion_lat": 0.0, "lat": 38.9088595, "name": "71e111f3ff613111fcd67ea68b86b538", "fusion_lon": 0.0, "bike_id": "71e111f3ff613111fcd67ea68b86b538", "is_disabled": 0, "is_reserved": 0}, {"rental_uris": {"ios": "https://dc.lft.to/lastmile_qr_scan", "android": "https://dc.lft.to/lastmile_qr_scan"}, "lon": -77.05887866666667, "type": "electric_scooter", "fusion_lat": 0.0, "lat": 38.936367, "name": "c713121137994b4b0a1e243db8e675a6", "fusion_lon": 0.0, "bike_id": "c713121137994b4b0a1e243db8e675a6", "is_disabled": 0, "is_reserved": 0}, {"rental_uris": {"ios": "https://dc.lft.to/lastmile_qr_scan", "android": "https://dc.lft.to/lastmile_qr_scan"}, "lon": -76.99519983333333, "type": "electric_scooter", "fusion_lat": 0.0, "lat": 38.862627333333336, "name": "60ef2c802706cda44225a86f2cd1a2ff", "fusion_lon": 0.0, "bike_id": "60ef2c802706cda44225a86f2cd1a2ff", "is_disabled": 0, "is_reserved": 0}, {"rental_uris": {"ios": "https://dc.lft.to/lastmile_qr_scan", "android": "https://dc.lft.to/lastmile_qr_scan"}, "lon": -77.03186416666667, "type": "electric_scooter", "fusion_lat": 0.0, "lat": 38.9211725, "name": "8570b0dfd498c0e8b47cfd641c43bc04", "fusion_lon": 0.0, "bike_id": "8570b0dfd498c0e8b47cfd641c43bc04", "is_disabled": 0, "is_reserved": 0}, {"rental_uris": {"ios": "https://dc.lft.to/lastmile_qr_scan", "android": "https://dc.lft.to/lastmile_qr_scan"}, "lon": -77.021507, "type": "electric_scooter", "fusion_lat": 0.0, "lat": 38.897299333333336, "name": "e767ab4e090209da0bb70269c3e02d3a", "fusion_lon": 0.0, "bike_id": "e767ab4e090209da0bb70269c3e02d3a", "is_disabled": 0, "is_reserved": 0}, {"rental_uris": {"ios": "https://dc.lft.to/lastmile_qr_scan", "android": "https://dc.lft.to/lastmile_qr_scan"}, "lon": -77.03760716666666, "type": "electric_scooter", "fusion_lat": 0.0, "lat": 38.92892533333333, "name": "75f7fd6f7473c64a1cd236e851feccee", "fusion_lon": 0.0, "bike_id": "75f7fd6f7473c64a1cd236e851feccee", "is_disabled": 0, "is_reserved": 0}, {"rental_uris": {"ios": "https://dc.lft.to/lastmile_qr_scan", "android": "https://dc.lft.to/lastmile_qr_scan"}, "lon": -77.02151483333333, "type": "electric_scooter", "fusion_lat": 0.0, "lat": 38.89626416666667, "name": "fdcf1b0eca537b29a7877aec42c274e9", "fusion_lon": 0.0, "bike_id": "fdcf1b0eca537b29a7877aec42c274e9", "is_disabled": 0, "is_reserved": 0}, {"rental_uris": {"ios": "https://dc.lft.to/lastmile_qr_scan", "android": "https://dc.lft.to/lastmile_qr_scan"}, "lon": -77.17846266666666, "type": "electric_bike", "fusion_lat": 0.0, "lat": 39.0889935, "name": "6abbd4a032c8fc97b8d0f8436d89cf54", "fusion_lon": 0.0, "bike_id": "6abbd4a032c8fc97b8d0f8436d89cf54", "is_disabled": 0, "is_reserved": 0}, {"rental_uris": {"ios": "https://dc.lft.to/lastmile_qr_scan", "android": "https://dc.lft.to/lastmile_qr_scan"}, "lon": -77.041581, "type": "electric_scooter", "fusion_lat": 0.0, "lat": 38.9148735, "name": "694ddae6a810b2578a909fbf69546e8b", "fusion_lon": 0.0, "bike_id": "694ddae6a810b2578a909fbf69546e8b", "is_disabled": 0, "is_reserved": 0}, {"rental_uris": {"ios": "https://dc.lft.to/lastmile_qr_scan", "android": "https://dc.lft.to/lastmile_qr_scan"}, "lon": -77.007975, "type": "electric_bike", "fusion_lat": 0.0, "lat": 38.94919266666667, "name": "8dfabc4fce68690b71abf1e7d102be7c", "fusion_lon": 0.0, "bike_id": "8dfabc4fce68690b71abf1e7d102be7c", "is_disabled": 0, "is_reserved": 0}, {"rental_uris": {"ios": "https://dc.lft.to/lastmile_qr_scan", "android": "https://dc.lft.to/lastmile_qr_scan"}, "lon": -77.03200366666667, "type": "electric_scooter", "fusion_lat": 0.0, "lat": 38.90765433333333, "name": "b2e1a312c97e451db898dd03fb94e6c2", "fusion_lon": 0.0, "bike_id": "b2e1a312c97e451db898dd03fb94e6c2", "is_disabled": 0, "is_reserved": 0}, {"rental_uris": {"ios": "https://dc.lft.to/lastmile_qr_scan", "android": "https://dc.lft.to/lastmile_qr_scan"}, "lon": -77.12627116666667, "type": "electric_bike", "fusion_lat": 0.0, "lat": 39.05813366666667, "name": "6bd57b7370e550fe87cc3a97cd72afd5", "fusion_lon": 0.0, "bike_id": "6bd57b7370e550fe87cc3a97cd72afd5", "is_disabled": 0, "is_reserved": 0}, {"rental_uris": {"ios": "https://dc.lft.to/lastmile_qr_scan", "android": "https://dc.lft.to/lastmile_qr_scan"}, "lon": -77.01423116666666, "type": "electric_scooter", "fusion_lat": 0.0, "lat": 38.928743, "name": "df731cb2bbc463dd3f24f83296929e98", "fusion_lon": 0.0, "bike_id": "df731cb2bbc463dd3f24f83296929e98", "is_disabled": 0, "is_reserved": 0}, {"rental_uris": {"ios": "https://dc.lft.to/lastmile_qr_scan", "android": "https://dc.lft.to/lastmile_qr_scan"}, "lon": -76.97827916666667, "type": "electric_bike", "fusion_lat": 0.0, "lat": 38.84613433333333, "name": "62f2022690256d19d5cfddefb4572aee", "fusion_lon": 0.0, "bike_id": "62f2022690256d19d5cfddefb4572aee", "is_disabled": 0, "is_reserved": 0}, {"rental_uris": {"ios": "https://dc.lft.to/lastmile_qr_scan", "android": "https://dc.lft.to/lastmile_qr_scan"}, "lon": -77.0392465, "type": "electric_scooter", "fusion_lat": 0.0, "lat": 38.92109633333333, "name": "5a2fd12d2f00e24297bb70254a93bf47", "fusion_lon": 0.0, "bike_id": "5a2fd12d2f00e24297bb70254a93bf47", "is_disabled": 0, "is_reserved": 0}, {"rental_uris": {"ios": "https://dc.lft.to/lastmile_qr_scan", "android": "https://dc.lft.to/lastmile_qr_scan"}, "lon": -77.02436916666667, "type": "electric_scooter", "fusion_lat": 0.0, "lat": 38.956338, "name": "8b4d102b66db4c9ec774711ab80776d9", "fusion_lon": 0.0, "bike_id": "8b4d102b66db4c9ec774711ab80776d9", "is_disabled": 0, "is_reserved": 0}, {"rental_uris": {"ios": "https://dc.lft.to/lastmile_qr_scan", "android": "https://dc.lft.to/lastmile_qr_scan"}, "lon": -76.9948205, "type": "electric_scooter", "fusion_lat": 0.0, "lat": 38.90239666666667, "name": "188912e8fb4c0e42f27cb76a384f9e51", "fusion_lon": 0.0, "bike_id": "188912e8fb4c0e42f27cb76a384f9e51", "is_disabled": 0, "is_reserved": 0}, {"rental_uris": {"ios": "https://dc.lft.to/lastmile_qr_scan", "android": "https://dc.lft.to/lastmile_qr_scan"}, "lon": -77.04030716666666, "type": "electric_scooter", "fusion_lat": 0.0, "lat": 38.92445083333333, "name": "ba2f8cff66bfc03cb8f000928dbb7cb9", "fusion_lon": 0.0, "bike_id": "ba2f8cff66bfc03cb8f000928dbb7cb9", "is_disabled": 0, "is_reserved": 0}, {"rental_uris": {"ios": "https://dc.lft.to/lastmile_qr_scan", "android": "https://dc.lft.to/lastmile_qr_scan"}, "lon": -77.03093433333333, "type": "electric_bike", "fusion_lat": 0.0, "lat": 38.94077983333333, "name": "9fa894978a176c057cace3a6e71bf22a", "fusion_lon": 0.0, "bike_id": "9fa894978a176c057cace3a6e71bf22a", "is_disabled": 0, "is_reserved": 0}, {"rental_uris": {"ios": "https://dc.lft.to/lastmile_qr_scan", "android": "https://dc.lft.to/lastmile_qr_scan"}, "lon": -76.99866566666667, "type": "electric_scooter", "fusion_lat": 0.0, "lat": 38.90031316666666, "name": "eac2e199ec179b13f7814ac1dcccbca6", "fusion_lon": 0.0, "bike_id": "eac2e199ec179b13f7814ac1dcccbca6", "is_disabled": 0, "is_reserved": 0}, {"rental_uris": {"ios": "https://dc.lft.to/lastmile_qr_scan", "android": "https://dc.lft.to/lastmile_qr_scan"}, "lon": -77.06937316666667, "type": "electric_scooter", "fusion_lat": 0.0, "lat": 38.90517366666667, "name": "5c166d96e8043bc63037c015e59641ef", "fusion_lon": 0.0, "bike_id": "5c166d96e8043bc63037c015e59641ef", "is_disabled": 0, "is_reserved": 0}, {"rental_uris": {"ios": "https://dc.lft.to/lastmile_qr_scan", "android": "https://dc.lft.to/lastmile_qr_scan"}, "lon": -77.0464305, "type": "electric_scooter", "fusion_lat": 0.0, "lat": 38.91531916666667, "name": "a8714361c55749299756c2349be81a54", "fusion_lon": 0.0, "bike_id": "a8714361c55749299756c2349be81a54", "is_disabled": 0, "is_reserved": 0}, {"rental_uris": {"ios": "https://dc.lft.to/lastmile_qr_scan", "android": "https://dc.lft.to/lastmile_qr_scan"}, "lon": -77.016376, "type": "electric_scooter", "fusion_lat": 0.0, "lat": 38.929402833333334, "name": "3899daab34b00d2a49d74c428644194c", "fusion_lon": 0.0, "bike_id": "3899daab34b00d2a49d74c428644194c", "is_disabled": 0, "is_reserved": 0}, {"rental_uris": {"ios": "https://dc.lft.to/lastmile_qr_scan", "android": "https://dc.lft.to/lastmile_qr_scan"}, "lon": -77.044173, "type": "electric_scooter", "fusion_lat": 0.0, "lat": 38.9112975, "name": "9e5128d093e1c7679e43003a0001ce53", "fusion_lon": 0.0, "bike_id": "9e5128d093e1c7679e43003a0001ce53", "is_disabled": 0, "is_reserved": 0}, {"rental_uris": {"ios": "https://dc.lft.to/lastmile_qr_scan", "android": "https://dc.lft.to/lastmile_qr_scan"}, "lon": -77.04886016666667, "type": "electric_scooter", "fusion_lat": 0.0, "lat": 38.903035333333335, "name": "65b0a860fc331de13b8ca3935e2a8399", "fusion_lon": 0.0, "bike_id": "65b0a860fc331de13b8ca3935e2a8399", "is_disabled": 0, "is_reserved": 0}, {"rental_uris": {"ios": "https://dc.lft.to/lastmile_qr_scan", "android": "https://dc.lft.to/lastmile_qr_scan"}, "lon": -77.04839733333333, "type": "electric_scooter", "fusion_lat": 0.0, "lat": 38.907251333333335, "name": "f8dc452e4b6fbf899cd7163498702cff", "fusion_lon": 0.0, "bike_id": "f8dc452e4b6fbf899cd7163498702cff", "is_disabled": 0, "is_reserved": 0}, {"rental_uris": {"ios": "https://dc.lft.to/lastmile_qr_scan", "android": "https://dc.lft.to/lastmile_qr_scan"}, "lon": -77.03977833333333, "type": "electric_scooter", "fusion_lat": 0.0, "lat": 38.92310466666667, "name": "ac5b4a95424cdd031b25c3a65a7b1275", "fusion_lon": 0.0, "bike_id": "ac5b4a95424cdd031b25c3a65a7b1275", "is_disabled": 0, "is_reserved": 0}, {"rental_uris": {"ios": "https://dc.lft.to/lastmile_qr_scan", "android": "https://dc.lft.to/lastmile_qr_scan"}, "lon": -77.0687655, "type": "electric_scooter", "fusion_lat": 0.0, "lat": 38.90518016666667, "name": "2905ea08b79340fe6fbddaae4c9646fc", "fusion_lon": 0.0, "bike_id": "2905ea08b79340fe6fbddaae4c9646fc", "is_disabled": 0, "is_reserved": 0}, {"rental_uris": {"ios": "https://dc.lft.to/lastmile_qr_scan", "android": "https://dc.lft.to/lastmile_qr_scan"}, "lon": -76.93243933333333, "type": "electric_scooter", "fusion_lat": 0.0, "lat": 38.89407716666667, "name": "665e3ac25cd959c7c3d135c989ecd194", "fusion_lon": 0.0, "bike_id": "665e3ac25cd959c7c3d135c989ecd194", "is_disabled": 0, "is_reserved": 0}, {"rental_uris": {"ios": "https://dc.lft.to/lastmile_qr_scan", "android": "https://dc.lft.to/lastmile_qr_scan"}, "lon": -77.024248, "type": "electric_scooter", "fusion_lat": 0.0, "lat": 38.915556, "name": "7f47ae5de214dd9f0647557af709d5a7", "fusion_lon": 0.0, "bike_id": "7f47ae5de214dd9f0647557af709d5a7", "is_disabled": 0, "is_reserved": 0}, {"rental_uris": {"ios": "https://dc.lft.to/lastmile_qr_scan", "android": "https://dc.lft.to/lastmile_qr_scan"}, "lon": -76.99066783333333, "type": "electric_scooter", "fusion_lat": 0.0, "lat": 38.863558833333336, "name": "c9cb9f8ed07291066a0b4377eccafdf7", "fusion_lon": 0.0, "bike_id": "c9cb9f8ed07291066a0b4377eccafdf7", "is_disabled": 0, "is_reserved": 0}, {"rental_uris": {"ios": "https://dc.lft.to/lastmile_qr_scan", "android": "https://dc.lft.to/lastmile_qr_scan"}, "lon": -77.08394466666667, "type": "electric_scooter", "fusion_lat": 0.0, "lat": 38.96096716666667, "name": "056d44a6dfe4cd1e4531936a901e6c05", "fusion_lon": 0.0, "bike_id": "056d44a6dfe4cd1e4531936a901e6c05", "is_disabled": 0, "is_reserved": 0}, {"rental_uris": {"ios": "https://dc.lft.to/lastmile_qr_scan", "android": "https://dc.lft.to/lastmile_qr_scan"}, "lon": -77.04643416666667, "type": "electric_bike", "fusion_lat": 0.0, "lat": 38.852118, "name": "7d329943ee1f126428c8adf22768c97f", "fusion_lon": 0.0, "bike_id": "7d329943ee1f126428c8adf22768c97f", "is_disabled": 0, "is_reserved": 0}, {"rental_uris": {"ios": "https://dc.lft.to/lastmile_qr_scan", "android": "https://dc.lft.to/lastmile_qr_scan"}, "lon": -77.024766, "type": "electric_scooter", "fusion_lat": 0.0, "lat": 38.93766866666667, "name": "b44fb8b75f1e5ea05c760a1b3851e792", "fusion_lon": 0.0, "bike_id": "b44fb8b75f1e5ea05c760a1b3851e792", "is_disabled": 0, "is_reserved": 0}, {"rental_uris": {"ios": "https://dc.lft.to/lastmile_qr_scan", "android": "https://dc.lft.to/lastmile_qr_scan"}, "lon": -77.0365435, "type": "electric_scooter", "fusion_lat": 0.0, "lat": 38.902812, "name": "ffe69f4e9df62fb139e20f90987d11ae", "fusion_lon": 0.0, "bike_id": "ffe69f4e9df62fb139e20f90987d11ae", "is_disabled": 0, "is_reserved": 0}, {"rental_uris": {"ios": "https://dc.lft.to/lastmile_qr_scan", "android": "https://dc.lft.to/lastmile_qr_scan"}, "lon": -77.0449365, "type": "electric_scooter", "fusion_lat": 0.0, "lat": 38.911029666666664, "name": "a66a7ccfccf9597c5683729d7c58d4e8", "fusion_lon": 0.0, "bike_id": "a66a7ccfccf9597c5683729d7c58d4e8", "is_disabled": 0, "is_reserved": 0}, {"rental_uris": {"ios": "https://dc.lft.to/lastmile_qr_scan", "android": "https://dc.lft.to/lastmile_qr_scan"}, "lon": -77.03026783333334, "type": "electric_scooter", "fusion_lat": 0.0, "lat": 38.896095, "name": "0de86b2b9c9827363eff44da15c17f9c", "fusion_lon": 0.0, "bike_id": "0de86b2b9c9827363eff44da15c17f9c", "is_disabled": 0, "is_reserved": 0}, {"rental_uris": {"ios": "https://dc.lft.to/lastmile_qr_scan", "android": "https://dc.lft.to/lastmile_qr_scan"}, "lon": -77.04885016666667, "type": "electric_scooter", "fusion_lat": 0.0, "lat": 38.90204466666667, "name": "ac6d5d3d914bd572e680581ee4e1df28", "fusion_lon": 0.0, "bike_id": "ac6d5d3d914bd572e680581ee4e1df28", "is_disabled": 0, "is_reserved": 0}, {"rental_uris": {"ios": "https://dc.lft.to/lastmile_qr_scan", "android": "https://dc.lft.to/lastmile_qr_scan"}, "lon": -77.03351133333334, "type": "electric_scooter", "fusion_lat": 0.0, "lat": 38.895346, "name": "de88522034961798e7ecdfb20fec7787", "fusion_lon": 0.0, "bike_id": "de88522034961798e7ecdfb20fec7787", "is_disabled": 0, "is_reserved": 0}, {"rental_uris": {"ios": "https://dc.lft.to/lastmile_qr_scan", "android": "https://dc.lft.to/lastmile_qr_scan"}, "lon": -77.12964483333333, "type": "electric_bike", "fusion_lat": 0.0, "lat": 38.807908, "name": "287a23d09e012e82732f8b989359b2b3", "fusion_lon": 0.0, "bike_id": "287a23d09e012e82732f8b989359b2b3", "is_disabled": 0, "is_reserved": 0}, {"rental_uris": {"ios": "https://dc.lft.to/lastmile_qr_scan", "android": "https://dc.lft.to/lastmile_qr_scan"}, "lon": -77.03917683333333, "type": "electric_scooter", "fusion_lat": 0.0, "lat": 38.921025666666665, "name": "67109acc95c0b0fb450c17a4d0e5bafa", "fusion_lon": 0.0, "bike_id": "67109acc95c0b0fb450c17a4d0e5bafa", "is_disabled": 0, "is_reserved": 0}, {"rental_uris": {"ios": "https://dc.lft.to/lastmile_qr_scan", "android": "https://dc.lft.to/lastmile_qr_scan"}, "lon": -77.01288916666667, "type": "electric_bike", "fusion_lat": 0.0, "lat": 39.0038175, "name": "541ded6aae739f51f797c422eb4a9673", "fusion_lon": 0.0, "bike_id": "541ded6aae739f51f797c422eb4a9673", "is_disabled": 0, "is_reserved": 0}, {"rental_uris": {"ios": "https://dc.lft.to/lastmile_qr_scan", "android": "https://dc.lft.to/lastmile_qr_scan"},