{"data": {"bikes": [{"bike_id": "fb8291f3366c12523c4f8065da17b71b", "is_reserved": 0, "fusion_lon": 0.0, "lat": 38.95097583333333, "is_disabled": 0, "name": "fb8291f3366c12523c4f8065da17b71b", "fusion_lat": 0.0, "rental_uris": {"ios": "https://dc.lft.to/lastmile_qr_scan", "android": "https://dc.lft.to/lastmile_qr_scan"}, "lon": -77.02337916666667, "type": "electric_scooter"}, {"bike_id": "b60a76fcf31cba73b7b57b955a71f5ae", "is_reserved": 0, "fusion_lon": 0.0, "lat": 38.9172965, "is_disabled": 0, "name": "b60a76fcf31cba73b7b57b955a71f5ae", "fusion_lat": 0.0, "rental_uris": {"ios": "https://dc.lft.to/lastmile_qr_scan", "android": "https://dc.lft.to/lastmile_qr_scan"}, "lon": -77.03353383333334, "type": "electric_scooter"}, {"bike_id": "f57d8ad0fa18bfa7db6db90dd85003d2", "is_reserved": 0, "fusion_lon": 0.0, "lat": 38.897362333333334, "is_disabled": 0, "name": "f57d8ad0fa18bfa7db6db90dd85003d2", "fusion_lat": 0.0, "rental_uris": {"ios": "https://dc.lft.to/lastmile_qr_scan", "android": "https://dc.lft.to/lastmile_qr_scan"}, "lon": -76.92585333333334, "type": "electric_scooter"}, {"bike_id": "a9d0dfd235ded79ebd5bb8c286d8b264", "is_reserved": 0, "fusion_lon": 0.0, "lat": 38.89346116666667, "is_disabled": 0, "name": "a9d0dfd235ded79ebd5bb8c286d8b264", "fusion_lat": 0.0, "rental_uris": {"ios": "https://dc.lft.to/lastmile_qr_scan", "android": "https://dc.lft.to/lastmile_qr_scan"}, "lon": -77.00199733333334, "type": "electric_scooter"}, {"bike_id": "6c411fb77ff36af77a80fec5f7ecbfec", "is_reserved": 0, "fusion_lon": 0.0, "lat": 38.896208, "is_disabled": 0, "name": "6c411fb77ff36af77a80fec5f7ecbfec", "fusion_lat": 0.0, "rental_uris": {"ios": "https://dc.lft.to/lastmile_qr_scan", "android": "https://dc.lft.to/lastmile_qr_scan"}, "lon": -76.98120933333334, "type": "electric_scooter"}, {"bike_id": "6097b824f63034bc00966b10d9adbbfc", "is_reserved": 0, "fusion_lon": 0.0, "lat": 38.85159066666667, "is_disabled": 0, "name": "6097b824f63034bc00966b10d9adbbfc", "fusion_lat": 0.0, "rental_uris": {"ios": "https://dc.lft.to/lastmile_qr_scan", "android": "https://dc.lft.to/lastmile_qr_scan"}, "lon": -77.12879633333333, "type": "electric_bike"}, {"bike_id": "7afed53640a8accfab6687cbf9705684", "is_reserved": 0, "fusion_lon": 0.0, "lat": 38.966219833333334, "is_disabled": 0, "name": "7afed53640a8accfab6687cbf9705684", "fusion_lat": 0.0, "rental_uris": {"ios": "https://dc.lft.to/lastmile_qr_scan", "android": "https://dc.lft.to/lastmile_qr_scan"}, "lon": -77.03426333333333, "type": "electric_bike"}, {"bike_id": "d6916dca3a654ee12076205f3a8bd0ef", "is_reserved": 0, "fusion_lon": 0.0, "lat": 38.865725166666664, "is_disabled": 0, "name": "d6916dca3a654ee12076205f3a8bd0ef", "fusion_lat": 0.0, "rental_uris": {"ios": "https://dc.lft.to/lastmile_qr_scan", "android": "https://dc.lft.to/lastmile_qr_scan"}, "lon": -76.98954, "type": "electric_scooter"}, {"bike_id": "f32144b6a2ed342c760707d968a480a1", "is_reserved": 0, "fusion_lon": 0.0, "lat": 38.8947765, "is_disabled": 0, "name": "f32144b6a2ed342c760707d968a480a1", "fusion_lat": 0.0, "rental_uris": {"ios": "https://dc.lft.to/lastmile_qr_scan", "android": "https://dc.lft.to/lastmile_qr_scan"}, "lon": -76.98400816666667, "type": "electric_scooter"}, {"bike_id": "8c0445f4c1348cc5997b390e1b7b3c68", "is_reserved": 0, "fusion_lon": 0.0, "lat": 38.901148166666665, "is_disabled": 0, "name": "8c0445f4c1348cc5997b390e1b7b3c68", "fusion_lat": 0.0, "rental_uris": {"ios": "https://dc.lft.to/lastmile_qr_scan", "android": "https://dc.lft.to/lastmile_qr_scan"}, "lon": -77.04470233333333, "type": "electric_scooter"}, {"bike_id": "e98f07a353da53299ed4cce90b67b09f", "is_reserved": 0, "fusion_lon": 0.0, "lat": 38.90312316666667, "is_disabled": 0, "name": "e98f07a353da53299ed4cce90b67b09f", "fusion_lat": 0.0, "rental_uris": {"ios": "https://dc.lft.to/lastmile_qr_scan", "android": "https://dc.lft.to/lastmile_qr_scan"}, "lon": -77.0434575, "type": "electric_scooter"}, {"bike_id": "a0394d70c7bdf65a9ae9d5a1b02efe8d", "is_reserved": 0, "fusion_lon": 0.0, "lat": 38.9167405, "is_disabled": 0, "name": "a0394d70c7bdf65a9ae9d5a1b02efe8d", "fusion_lat": 0.0, "rental_uris": {"ios": "https://dc.lft.to/lastmile_qr_scan", "android": "https://dc.lft.to/lastmile_qr_scan"}, "lon": -77.02328266666666, "type": "electric_scooter"}, {"bike_id": "8a339d4780266960c350fe4bbe1ccc3f", "is_reserved": 0, "fusion_lon": 0.0, "lat": 38.92381916666667, "is_disabled": 0, "name": "8a339d4780266960c350fe4bbe1ccc3f", "fusion_lat": 0.0, "rental_uris": {"ios": "https://dc.lft.to/lastmile_qr_scan", "android": "https://dc.lft.to/lastmile_qr_scan"}, "lon": -77.0355145, "type": "electric_scooter"}, {"bike_id": "85e423b2c0ca11c813777d7a30ba7e3a", "is_reserved": 0, "fusion_lon": 0.0, "lat": 38.90036166666667, "is_disabled": 0, "name": "85e423b2c0ca11c813777d7a30ba7e3a", "fusion_lat": 0.0, "rental_uris": {"ios": "https://dc.lft.to/lastmile_qr_scan", "android": "https://dc.lft.to/lastmile_qr_scan"}, "lon": -76.9882885, "type": "electric_scooter"}, {"bike_id": "d0e759c0c35578b39460e40fe2c4726c", "is_reserved": 0, "fusion_lon": 0.0, "lat": 38.92849966666667, "is_disabled": 0, "name": "d0e759c0c35578b39460e40fe2c4726c", "fusion_lat": 0.0, "rental_uris": {"ios": "https://dc.lft.to/lastmile_qr_scan", "android": "https://dc.lft.to/lastmile_qr_scan"}, "lon": -77.05432483333334, "type": "electric_scooter"}, {"bike_id": "6730fb1bffb86aea612974ada714b740", "is_reserved": 0, "fusion_lon": 0.0, "lat": 38.895589333333334, "is_disabled": 0, "name": "6730fb1bffb86aea612974ada714b740", "fusion_lat": 0.0, "rental_uris": {"ios": "https://dc.lft.to/lastmile_qr_scan", "android": "https://dc.lft.to/lastmile_qr_scan"}, "lon": -77.04678783333334, "type": "electric_scooter"}, {"bike_id": "eb0d07fbc735b2bee2cc26114e9748b2", "is_reserved": 0, "fusion_lon": 0.0, "lat": 38.90458566666667, "is_disabled": 0, "name": "eb0d07fbc735b2bee2cc26114e9748b2", "fusion_lat": 0.0, "rental_uris": {"ios": "https://dc.lft.to/lastmile_qr_scan", "android": "https://dc.lft.to/lastmile_qr_scan"}, "lon": -77.05328783333333, "type": "electric_scooter"}, {"bike_id": "19064b7c87cae0ad5ab69418c0167f3a", "is_reserved": 0, "fusion_lon": 0.0, "lat": 38.923371333333336, "is_disabled": 0, "name": "19064b7c87cae0ad5ab69418c0167f3a", "fusion_lat": 0.0, "rental_uris": {"ios": "https://dc.lft.to/lastmile_qr_scan", "android": "https://dc.lft.to/lastmile_qr_scan"}, "lon": -77.04136116666666, "type": "electric_scooter"}, {"bike_id": "4c93b8069b6e71738d993816b6ab628b", "is_reserved": 0, "fusion_lon": 0.0, "lat": 38.86168966666666, "is_disabled": 0, "name": "4c93b8069b6e71738d993816b6ab628b", "fusion_lat": 0.0, "rental_uris": {"ios": "https://dc.lft.to/lastmile_qr_scan", "android": "https://dc.lft.to/lastmile_qr_scan"}, "lon": -76.95067283333333, "type": "electric_bike"}, {"bike_id": "282301a4333df48b8126d843d3bb2085", "is_reserved": 0, "fusion_lon": 0.0, "lat": 38.92334, "is_disabled": 0, "name": "282301a4333df48b8126d843d3bb2085", "fusion_lat": 0.0, "rental_uris": {"ios": "https://dc.lft.to/lastmile_qr_scan", "android": "https://dc.lft.to/lastmile_qr_scan"}, "lon": -77.0476275, "type": "electric_scooter"}, {"bike_id": "3a8fd7b26c0669d71a0173fefc3c5156", "is_reserved": 0, "fusion_lon": 0.0, "lat": 38.924493166666664, "is_disabled": 0, "name": "3a8fd7b26c0669d71a0173fefc3c5156", "fusion_lat": 0.0, "rental_uris": {"ios": "https://dc.lft.to/lastmile_qr_scan", "android": "https://dc.lft.to/lastmile_qr_scan"}, "lon": -77.04107333333333, "type": "electric_scooter"}, {"bike_id": "243159b55070b9da52019ecfacf0c644", "is_reserved": 0, "fusion_lon": 0.0, "lat": 38.91254266666667, "is_disabled": 0, "name": "243159b55070b9da52019ecfacf0c644", "fusion_lat": 0.0, "rental_uris": {"ios": "https://dc.lft.to/lastmile_qr_scan", "android": "https://dc.lft.to/lastmile_qr_scan"}, "lon": -77.04442433333334, "type": "electric_scooter"}, {"bike_id": "4a98532a91deac4425d330d6e527714b", "is_reserved": 0, "fusion_lon": 0.0, "lat": 38.896140333333335, "is_disabled": 0, "name": "4a98532a91deac4425d330d6e527714b", "fusion_lat": 0.0, "rental_uris": {"ios": "https://dc.lft.to/lastmile_qr_scan", "android": "https://dc.lft.to/lastmile_qr_scan"}, "lon": -77.04791183333333, "type": "electric_scooter"}, {"bike_id": "f94291eb3b50244b29330e956c658b24", "is_reserved": 0, "fusion_lon": 0.0, "lat": 38.936828, "is_disabled": 0, "name": "f94291eb3b50244b29330e956c658b24", "fusion_lat": 0.0, "rental_uris": {"ios": "https://dc.lft.to/lastmile_qr_scan", "android": "https://dc.lft.to/lastmile_qr_scan"}, "lon": -77.03625183333334, "type": "electric_scooter"}, {"bike_id": "104146a4157eeab1f66df3487ac0b12c", "is_reserved": 0, "fusion_lon": 0.0, "lat": 38.96395833333333, "is_disabled": 0, "name": "104146a4157eeab1f66df3487ac0b12c", "fusion_lat": 0.0, "rental_uris": {"ios": "https://dc.lft.to/lastmile_qr_scan", "android": "https://dc.lft.to/lastmile_qr_scan"}, "lon": -77.025943, "type": "electric_scooter"}, {"bike_id": "5a30bc64899465af165daf1fbad733ac", "is_reserved": 0, "fusion_lon": 0.0, "lat": 38.8985605, "is_disabled": 0, "name": "5a30bc64899465af165daf1fbad733ac", "fusion_lat": 0.0, "rental_uris": {"ios": "https://dc.lft.to/lastmile_qr_scan", "android": "https://dc.lft.to/lastmile_qr_scan"}, "lon": -77.02887833333334, "type": "electric_scooter"}, {"bike_id": "e202c54d5c4a0b239a07a45a58e5c40c", "is_reserved": 0, "fusion_lon": 0.0, "lat": 38.9001265, "is_disabled": 0, "name": "e202c54d5c4a0b239a07a45a58e5c40c", "fusion_lat": 0.0, "rental_uris": {"ios": "https://dc.lft.to/lastmile_qr_scan", "android": "https://dc.lft.to/lastmile_qr_scan"}, "lon": -77.00695183333333, "type": "electric_scooter"}, {"bike_id": "120690be202d4b082fb9b931930b4372", "is_reserved": 0, "fusion_lon": 0.0, "lat": 38.9059525, "is_disabled": 0, "name": "120690be202d4b082fb9b931930b4372", "fusion_lat": 0.0, "rental_uris": {"ios": "https://dc.lft.to/lastmile_qr_scan", "android": "https://dc.lft.to/lastmile_qr_scan"}, "lon": -77.038374, "type": "electric_scooter"}, {"bike_id": "4e9b84caec120731fa5cc88242d00391", "is_reserved": 0, "fusion_lon": 0.0, "lat": 38.9171445, "is_disabled": 0, "name": "4e9b84caec120731fa5cc88242d00391", "fusion_lat": 0.0, "rental_uris": {"ios": "https://dc.lft.to/lastmile_qr_scan", "android": "https://dc.lft.to/lastmile_qr_scan"}, "lon": -77.03766516666667, "type": "electric_scooter"}, {"bike_id": "0d221f1f86e45ba67c1e173fed1b0e3f", "is_reserved": 0, "fusion_lon": 0.0, "lat": 38.91884733333333, "is_disabled": 0, "name": "0d221f1f86e45ba67c1e173fed1b0e3f", "fusion_lat": 0.0, "rental_uris": {"ios": "https://dc.lft.to/lastmile_qr_scan", "android": "https://dc.lft.to/lastmile_qr_scan"}, "lon": -77.0296815, "type": "electric_scooter"}, {"bike_id": "bb27170adddce1a110fa5fe3a76518eb", "is_reserved": 0, "fusion_lon": 0.0, "lat": 38.923364, "is_disabled": 0, "name": "bb27170adddce1a110fa5fe3a76518eb", "fusion_lat": 0.0, "rental_uris": {"ios": "https://dc.lft.to/lastmile_qr_scan", "android": "https://dc.lft.to/lastmile_qr_scan"}, "lon": -77.03502633333333, "type": "electric_scooter"}, {"bike_id": "cb6c697e8c90f2cbdbeaaeb992f90c14", "is_reserved": 0, "fusion_lon": 0.0, "lat": 38.842983333333336, "is_disabled": 0, "name": "cb6c697e8c90f2cbdbeaaeb992f90c14", "fusion_lat": 0.0, "rental_uris": {"ios": "https://dc.lft.to/lastmile_qr_scan", "android": "https://dc.lft.to/lastmile_qr_scan"}, "lon": -76.99943633333334, "type": "electric_scooter"}, {"bike_id": "ba12e834751c73c0fd12b1ea269e7197", "is_reserved": 0, "fusion_lon": 0.0, "lat": 38.884887666666664, "is_disabled": 0, "name": "ba12e834751c73c0fd12b1ea269e7197", "fusion_lat": 0.0, "rental_uris": {"ios": "https://dc.lft.to/lastmile_qr_scan", "android": "https://dc.lft.to/lastmile_qr_scan"}, "lon": -77.0152335, "type": "electric_scooter"}, {"bike_id": "0997d573de643674213a5209e84abb49", "is_reserved": 0, "fusion_lon": 0.0, "lat": 38.866180166666666, "is_disabled": 0, "name": "0997d573de643674213a5209e84abb49", "fusion_lat": 0.0, "rental_uris": {"ios": "https://dc.lft.to/lastmile_qr_scan", "android": "https://dc.lft.to/lastmile_qr_scan"}, "lon": -76.98696933333333, "type": "electric_scooter"}, {"bike_id": "f8df32ad7696222a33bb1b68f1c06d24", "is_reserved": 0, "fusion_lon": 0.0, "lat": 38.90758183333333, "is_disabled": 0, "name": "f8df32ad7696222a33bb1b68f1c06d24", "fusion_lat": 0.0, "rental_uris": {"ios": "https://dc.lft.to/lastmile_qr_scan", "android": "https://dc.lft.to/lastmile_qr_scan"}, "lon": -77.030768, "type": "electric_scooter"}, {"bike_id": "fd57e7bf71a1a047fc45ed637c4aa45b", "is_reserved": 0, "fusion_lon": 0.0, "lat": 38.857510166666664, "is_disabled": 0, "name": "fd57e7bf71a1a047fc45ed637c4aa45b", "fusion_lat": 0.0, "rental_uris": {"ios": "https://dc.lft.to/lastmile_qr_scan", "android": "https://dc.lft.to/lastmile_qr_scan"}, "lon": -76.98846533333334, "type": "electric_bike"}, {"bike_id": "8ad791910a9c50df569c7a55eb195a75", "is_reserved": 0, "fusion_lon": 0.0, "lat": 38.9212375, "is_disabled": 0, "name": "8ad791910a9c50df569c7a55eb195a75", "fusion_lat": 0.0, "rental_uris": {"ios": "https://dc.lft.to/lastmile_qr_scan", "android": "https://dc.lft.to/lastmile_qr_scan"}, "lon": -77.0179885, "type": "electric_scooter"}, {"bike_id": "40d82ec5b37f987abcb4df97ae91698d", "is_reserved": 0, "fusion_lon": 0.0, "lat": 38.88435666666667, "is_disabled": 0, "name": "40d82ec5b37f987abcb4df97ae91698d", "fusion_lat": 0.0, "rental_uris": {"ios": "https://dc.lft.to/lastmile_qr_scan", "android": "https://dc.lft.to/lastmile_qr_scan"}, "lon": -76.957578, "type": "electric_scooter"}, {"bike_id": "04ff6b40bbd5122c66d9250992045537", "is_reserved": 0, "fusion_lon": 0.0, "lat": 38.905357333333335, "is_disabled": 0, "name": "04ff6b40bbd5122c66d9250992045537", "fusion_lat": 0.0, "rental_uris": {"ios": "https://dc.lft.to/lastmile_qr_scan", "android": "https://dc.lft.to/lastmile_qr_scan"}, "lon": -76.99809066666667, "type": "electric_bike"}, {"bike_id": "f80ab08a1f47bb0acb345f25ac3aa900", "is_reserved": 0, "fusion_lon": 0.0, "lat": 38.92293866666667, "is_disabled": 0, "name": "f80ab08a1f47bb0acb345f25ac3aa900", "fusion_lat": 0.0, "rental_uris": {"ios": "https://dc.lft.to/lastmile_qr_scan", "android": "https://dc.lft.to/lastmile_qr_scan"}, "lon": -77.02072633333333, "type": "electric_scooter"}, {"bike_id": "1717bc69a8df82493b086bc1c7b5619c", "is_reserved": 0, "fusion_lon": 0.0, "lat": 38.904409333333334, "is_disabled": 0, "name": "1717bc69a8df82493b086bc1c7b5619c", "fusion_lat": 0.0, "rental_uris": {"ios": "https://dc.lft.to/lastmile_qr_scan", "android": "https://dc.lft.to/lastmile_qr_scan"}, "lon": -77.051422, "type": "electric_scooter"}, {"bike_id": "86e2461f514755108738b92c9f46cdee", "is_reserved": 0, "fusion_lon": 0.0, "lat": 38.91644683333333, "is_disabled": 0, "name": "86e2461f514755108738b92c9f46cdee", "fusion_lat": 0.0, "rental_uris": {"ios": "https://dc.lft.to/lastmile_qr_scan", "android": "https://dc.lft.to/lastmile_qr_scan"}, "lon": -77.03234016666667, "type": "electric_scooter"}, {"bike_id": "8ea02ff9f126a3271fc899197c24c529", "is_reserved": 0, "fusion_lon": 0.0, "lat": 38.90066516666667, "is_disabled": 0, "name": "8ea02ff9f126a3271fc899197c24c529", "fusion_lat": 0.0, "rental_uris": {"ios": "https://dc.lft.to/lastmile_qr_scan", "android": "https://dc.lft.to/lastmile_qr_scan"}, "lon": -76.933856, "type": "electric_scooter"}, {"bike_id": "a7bf72b119d644711438052a3cc6c271", "is_reserved": 0, "fusion_lon": 0.0, "lat": 38.866973333333334, "is_disabled": 0, "name": "a7bf72b119d644711438052a3cc6c271", "fusion_lat": 0.0, "rental_uris": {"ios": "https://dc.lft.to/lastmile_qr_scan", "android": "https://dc.lft.to/lastmile_qr_scan"}, "lon": -76.98712983333333, "type": "electric_scooter"}, {"bike_id": "28a988f0c84e7366690ada6282ceaf74", "is_reserved": 0, "fusion_lon": 0.0, "lat": 38.9310965, "is_disabled": 0, "name": "28a988f0c84e7366690ada6282ceaf74", "fusion_lat": 0.0, "rental_uris": {"ios": "https://dc.lft.to/lastmile_qr_scan", "android": "https://dc.lft.to/lastmile_qr_scan"}, "lon": -77.018502, "type": "electric_scooter"}, {"bike_id": "af680e1365cfd48df7ca67689d67454b", "is_reserved": 0, "fusion_lon": 0.0, "lat": 38.9214465, "is_disabled": 0, "name": "af680e1365cfd48df7ca67689d67454b", "fusion_lat": 0.0, "rental_uris": {"ios": "https://dc.lft.to/lastmile_qr_scan", "android": "https://dc.lft.to/lastmile_qr_scan"}, "lon": -77.04425366666666, "type": "electric_scooter"}, {"bike_id": "f50e7a1a14ca5459dc3a108ce0835146", "is_reserved": 0, "fusion_lon": 0.0, "lat": 38.89753483333333, "is_disabled": 0, "name": "f50e7a1a14ca5459dc3a108ce0835146", "fusion_lat": 0.0, "rental_uris": {"ios": "https://dc.lft.to/lastmile_qr_scan", "android": "https://dc.lft.to/lastmile_qr_scan"}, "lon": -77.05000533333333, "type": "electric_scooter"}, {"bike_id": "7c6d74bb13eedd4056ea3001b322a0c3", "is_reserved": 0, "fusion_lon": 0.0, "lat": 38.99077316666666, "is_disabled": 0, "name": "7c6d74bb13eedd4056ea3001b322a0c3", "fusion_lat": 0.0, "rental_uris": {"ios": "https://dc.lft.to/lastmile_qr_scan", "android": "https://dc.lft.to/lastmile_qr_scan"}, "lon": -76.874732, "type": "electric_bike"}, {"bike_id": "5fd73577a68b03495d0eb729ae876dca", "is_reserved": 0, "fusion_lon": 0.0, "lat": 38.92187883333333, "is_disabled": 0, "name": "5fd73577a68b03495d0eb729ae876dca", "fusion_lat": 0.0, "rental_uris": {"ios": "https://dc.lft.to/lastmile_qr_scan", "android": "https://dc.lft.to/lastmile_qr_scan"}, "lon": -77.02409683333333, "type": "electric_scooter"}, {"bike_id": "d91f9abbe660f3f1f8d070a201b8d5fc", "is_reserved": 0, "fusion_lon": 0.0, "lat": 38.887703333333334, "is_disabled": 0, "name": "d91f9abbe660f3f1f8d070a201b8d5fc", "fusion_lat": 0.0, "rental_uris": {"ios": "https://dc.lft.to/lastmile_qr_scan", "android": "https://dc.lft.to/lastmile_qr_scan"}, "lon": -77.02229183333333, "type": "electric_scooter"}, {"bike_id": "1912f10149cd2ad4f528f0de2b96ee26", "is_reserved": 0, "fusion_lon": 0.0, "lat": 38.91866183333333, "is_disabled": 0, "name": "1912f10149cd2ad4f528f0de2b96ee26", "fusion_lat": 0.0, "rental_uris": {"ios": "https://dc.lft.to/lastmile_qr_scan", "android": "https://dc.lft.to/lastmile_qr_scan"}, "lon": -77.04166033333334, "type": "electric_scooter"}, {"bike_id": "87e086b0b8ea90d553f96cf86b15e9e0", "is_reserved": 0, "fusion_lon": 0.0, "lat": 38.91171666666666, "is_disabled": 0, "name": "87e086b0b8ea90d553f96cf86b15e9e0", "fusion_lat": 0.0, "rental_uris": {"ios": "https://dc.lft.to/lastmile_qr_scan", "android": "https://dc.lft.to/lastmile_qr_scan"}, "lon": -77.02964266666666, "type": "electric_scooter"}, {"bike_id": "2bcef3667d5329bdb6059fe916e702b2", "is_reserved": 0, "fusion_lon": 0.0, "lat": 38.9032415, "is_disabled": 0, "name": "2bcef3667d5329bdb6059fe916e702b2", "fusion_lat": 0.0, "rental_uris": {"ios": "https://dc.lft.to/lastmile_qr_scan", "android": "https://dc.lft.to/lastmile_qr_scan"}, "lon": -77.05007233333333, "type": "electric_scooter"}, {"bike_id": "9a24691404aeb913179648c9441c0dea", "is_reserved": 0, "fusion_lon": 0.0, "lat": 38.89372566666667, "is_disabled": 0, "name": "9a24691404aeb913179648c9441c0dea", "fusion_lat": 0.0, "rental_uris": {"ios": "https://dc.lft.to/lastmile_qr_scan", "android": "https://dc.lft.to/lastmile_qr_scan"}, "lon": -76.94960916666666, "type": "electric_scooter"}, {"bike_id": "fa16212be29a0c919471f60eec738849", "is_reserved": 0, "fusion_lon": 0.0, "lat": 38.86822183333334, "is_disabled": 0, "name": "fa16212be29a0c919471f60eec738849", "fusion_lat": 0.0, "rental_uris": {"ios": "https://dc.lft.to/lastmile_qr_scan", "android": "https://dc.lft.to/lastmile_qr_scan"}, "lon": -76.98029583333333, "type": "electric_bike"}, {"bike_id": "ca9a83b64b877d6f84c5d3a88e6dadbe", "is_reserved": 0, "fusion_lon": 0.0, "lat": 38.928664, "is_disabled": 0, "name": "ca9a83b64b877d6f84c5d3a88e6dadbe", "fusion_lat": 0.0, "rental_uris": {"ios": "https://dc.lft.to/lastmile_qr_scan", "android": "https://dc.lft.to/lastmile_qr_scan"}, "lon": -77.01379866666667, "type": "electric_scooter"}, {"bike_id": "c3fdce226d5741f75427a7277a18871c", "is_reserved": 0, "fusion_lon": 0.0, "lat": 38.89687166666667, "is_disabled": 0, "name": "c3fdce226d5741f75427a7277a18871c", "fusion_lat": 0.0, "rental_uris": {"ios": "https://dc.lft.to/lastmile_qr_scan", "android": "https://dc.lft.to/lastmile_qr_scan"}, "lon": -76.996228, "type": "electric_scooter"}, {"bike_id": "6e2595816ded7b485480edd6a5569444", "is_reserved": 0, "fusion_lon": 0.0, "lat": 38.879196, "is_disabled": 0, "name": "6e2595816ded7b485480edd6a5569444", "fusion_lat": 0.0, "rental_uris": {"ios": "https://dc.lft.to/lastmile_qr_scan", "android": "https://dc.lft.to/lastmile_qr_scan"}, "lon": -76.99505216666667, "type": "electric_scooter"}, {"bike_id": "96cbc2c7a9368670aeb15051bda10e4b", "is_reserved": 0, "fusion_lon": 0.0, "lat": 38.892246166666666, "is_disabled": 0, "name": "96cbc2c7a9368670aeb15051bda10e4b", "fusion_lat": 0.0, "rental_uris": {"ios": "https://dc.lft.to/lastmile_qr_scan", "android": "https://dc.lft.to/lastmile_qr_scan"}, "lon": -77.04188033333334, "type": "electric_scooter"}, {"bike_id": "1291c68e128defcea2fcd2128eb7c0bb", "is_reserved": 0, "fusion_lon": 0.0, "lat": 38.916897166666665, "is_disabled": 0, "name": "1291c68e128defcea2fcd2128eb7c0bb", "fusion_lat": 0.0, "rental_uris": {"ios": "https://dc.lft.to/lastmile_qr_scan", "android": "https://dc.lft.to/lastmile_qr_scan"}, "lon": -77.02976966666667, "type": "electric_scooter"}, {"bike_id": "332b51a89eb9b02cb51084cb8c69c26b", "is_reserved": 0, "fusion_lon": 0.0, "lat": 38.91260366666667, "is_disabled": 0, "name": "332b51a89eb9b02cb51084cb8c69c26b", "fusion_lat": 0.0, "rental_uris": {"ios": "https://dc.lft.to/lastmile_qr_scan", "android": "https://dc.lft.to/lastmile_qr_scan"}, "lon": -77.02860616666666, "type": "electric_scooter"}, {"bike_id": "dc9b723b8af36f4fd80c68f6ce0cdbf6", "is_reserved": 0, "fusion_lon": 0.0, "lat": 38.919957833333335, "is_disabled": 0, "name": "dc9b723b8af36f4fd80c68f6ce0cdbf6", "fusion_lat": 0.0, "rental_uris": {"ios": "https://dc.lft.to/lastmile_qr_scan", "android": "https://dc.lft.to/lastmile_qr_scan"}, "lon": -77.0217565, "type": "electric_scooter"}, {"bike_id": "a93965abaa45cd95aaf44fd60d9469d0", "is_reserved": 0, "fusion_lon": 0.0, "lat": 38.89106, "is_disabled": 0, "name": "a93965abaa45cd95aaf44fd60d9469d0", "fusion_lat": 0.0, "rental_uris": {"ios": "https://dc.lft.to/lastmile_qr_scan", "android": "https://dc.lft.to/lastmile_qr_scan"}, "lon": -76.98705983333333, "type": "electric_scooter"}, {"bike_id": "c8867c46425a3f5e826965604beebaae", "is_reserved": 0, "fusion_lon": 0.0, "lat": 38.8996995, "is_disabled": 0, "name": "c8867c46425a3f5e826965604beebaae", "fusion_lat": 0.0, "rental_uris": {"ios": "https://dc.lft.to/lastmile_qr_scan", "android": "https://dc.lft.to/lastmile_qr_scan"}, "lon": -77.019826, "type": "electric_scooter"}, {"bike_id": "09083a623fec6eee2f0be96be302e3a8", "is_reserved": 0, "fusion_lon": 0.0, "lat": 38.87084083333333, "is_disabled": 0, "name": "09083a623fec6eee2f0be96be302e3a8", "fusion_lat": 0.0, "rental_uris": {"ios": "https://dc.lft.to/lastmile_qr_scan", "android": "https://dc.lft.to/lastmile_qr_scan"}, "lon": -77.0121185, "type": "electric_bike"}, {"bike_id": "56ca52cea10dc1752a30a9683a531ca2", "is_reserved": 0, "fusion_lon": 0.0, "lat": 38.928778, "is_disabled": 0, "name": "56ca52cea10dc1752a30a9683a531ca2", "fusion_lat": 0.0, "rental_uris": {"ios": "https://dc.lft.to/lastmile_qr_scan", "android": "https://dc.lft.to/lastmile_qr_scan"}, "lon": -77.040526, "type": "electric_scooter"}, {"bike_id": "dba0e9f323efc26839c94e5609756933", "is_reserved": 0, "fusion_lon": 0.0, "lat": 38.92764666666667, "is_disabled": 0, "name": "dba0e9f323efc26839c94e5609756933", "fusion_lat": 0.0, "rental_uris": {"ios": "https://dc.lft.to/lastmile_qr_scan", "android": "https://dc.lft.to/lastmile_qr_scan"}, "lon": -77.02847516666667, "type": "electric_scooter"}, {"bike_id": "32a6129639bcf98a64b0a03863393317", "is_reserved": 0, "fusion_lon": 0.0, "lat": 38.8804255, "is_disabled": 0, "name": "32a6129639bcf98a64b0a03863393317", "fusion_lat": 0.0, "rental_uris": {"ios": "https://dc.lft.to/lastmile_qr_scan", "android": "https://dc.lft.to/lastmile_qr_scan"}, "lon": -77.01924633333333, "type": "electric_scooter"}, {"bike_id": "e2b69fc70b197318798f26b53fe40439", "is_reserved": 0, "fusion_lon": 0.0, "lat": 38.90009666666667, "is_disabled": 0, "name": "e2b69fc70b197318798f26b53fe40439", "fusion_lat": 0.0, "rental_uris": {"ios": "https://dc.lft.to/lastmile_qr_scan", "android": "https://dc.lft.to/lastmile_qr_scan"}, "lon": -76.9976815, "type": "electric_scooter"}, {"bike_id": "6a7f99cfaaa5adbcebb66baa3c151030", "is_reserved": 0, "fusion_lon": 0.0, "lat": 38.90456733333333, "is_disabled": 0, "name": "6a7f99cfaaa5adbcebb66baa3c151030", "fusion_lat": 0.0, "rental_uris": {"ios": "https://dc.lft.to/lastmile_qr_scan", "android": "https://dc.lft.to/lastmile_qr_scan"}, "lon": -77.05319766666666, "type": "electric_scooter"}, {"bike_id": "26e99ea85d980b9dc3898219d6cec792", "is_reserved": 0, "fusion_lon": 0.0, "lat": 38.935003333333334, "is_disabled": 0, "name": "26e99ea85d980b9dc3898219d6cec792", "fusion_lat": 0.0, "rental_uris": {"ios": "https://dc.lft.to/lastmile_qr_scan", "android": "https://dc.lft.to/lastmile_qr_scan"}, "lon": -77.05804916666666, "type": "electric_scooter"}, {"bike_id": "1b25077b4157636ddc0e33f77dd43daf", "is_reserved": 0, "fusion_lon": 0.0, "lat": 38.93674566666667, "is_disabled": 0, "name": "1b25077b4157636ddc0e33f77dd43daf", "fusion_lat": 0.0, "rental_uris": {"ios": "https://dc.lft.to/lastmile_qr_scan", "android": "https://dc.lft.to/lastmile_qr_scan"}, "lon": -76.9522795, "type": "electric_bike"}, {"bike_id": "e986f6ab655cdd1f379081894e331f62", "is_reserved": 0, "fusion_lon": 0.0, "lat": 38.83695183333333, "is_disabled": 0, "name": "e986f6ab655cdd1f379081894e331f62", "fusion_lat": 0.0, "rental_uris": {"ios": "https://dc.lft.to/lastmile_qr_scan", "android": "https://dc.lft.to/lastmile_qr_scan"}, "lon": -77.00582616666667, "type": "electric_scooter"}, {"bike_id": "ee52277799e5b7ed56400f5dd3f711d2", "is_reserved": 0, "fusion_lon": 0.0, "lat": 38.90655433333333, "is_disabled": 0, "name": "ee52277799e5b7ed56400f5dd3f711d2", "fusion_lat": 0.0, "rental_uris": {"ios": "https://dc.lft.to/lastmile_qr_scan", "android": "https://dc.lft.to/lastmile_qr_scan"}, "lon": -77.04494533333333, "type": "electric_scooter"}, {"bike_id": "68c4c27bb69684f8ab936207d3c1a895", "is_reserved": 0, "fusion_lon": 0.0, "lat": 38.95555066666667, "is_disabled": 0, "name": "68c4c27bb69684f8ab936207d3c1a895", "fusion_lat": 0.0, "rental_uris": {"ios": "https://dc.lft.to/lastmile_qr_scan", "android": "https://dc.lft.to/lastmile_qr_scan"}, "lon": -76.94016516666667, "type": "electric_bike"}, {"bike_id": "590c8af6609232ca8908ee97f3bee315", "is_reserved": 0, "fusion_lon": 0.0, "lat": 38.91778016666667, "is_disabled": 0, "name": "590c8af6609232ca8908ee97f3bee315", "fusion_lat": 0.0, "rental_uris": {"ios": "https://dc.lft.to/lastmile_qr_scan", "android": "https://dc.lft.to/lastmile_qr_scan"}, "lon": -77.02318416666667, "type": "electric_scooter"}, {"bike_id": "97d47ff23d0ab5546bbe4a103f34174d", "is_reserved": 0, "fusion_lon": 0.0, "lat": 38.905753, "is_disabled": 0, "name": "97d47ff23d0ab5546bbe4a103f34174d", "fusion_lat": 0.0, "rental_uris": {"ios": "https://dc.lft.to/lastmile_qr_scan", "android": "https://dc.lft.to/lastmile_qr_scan"}, "lon": -77.018566, "type": "electric_scooter"}, {"bike_id": "7d7c30af5c90dbb16a1c7cf701bbc237", "is_reserved": 0, "fusion_lon": 0.0, "lat": 38.88008833333333, "is_disabled": 0, "name": "7d7c30af5c90dbb16a1c7cf701bbc237", "fusion_lat": 0.0, "rental_uris": {"ios": "https://dc.lft.to/lastmile_qr_scan", "android": "https://dc.lft.to/lastmile_qr_scan"}, "lon": -76.9159515, "type": "electric_bike"}, {"bike_id": "6c9ba8ab33b8bb12108bf08b17a8b429", "is_reserved": 0, "fusion_lon": 0.0, "lat": 38.923459333333334, "is_disabled": 0, "name": "6c9ba8ab33b8bb12108bf08b17a8b429", "fusion_lat": 0.0, "rental_uris": {"ios": "https://dc.lft.to/lastmile_qr_scan", "android": "https://dc.lft.to/lastmile_qr_scan"}, "lon": -77.04140683333334, "type": "electric_scooter"}, {"bike_id": "eaf82b6976bb50df33d245480e1f0a39", "is_reserved": 0, "fusion_lon": 0.0, "lat": 38.91212183333333, "is_disabled": 0, "name": "eaf82b6976bb50df33d245480e1f0a39", "fusion_lat": 0.0, "rental_uris": {"ios": "https://dc.lft.to/lastmile_qr_scan", "android": "https://dc.lft.to/lastmile_qr_scan"}, "lon": -77.0486365, "type": "electric_scooter"}, {"bike_id": "5c673f88fe5787a381a21e6d2aa43392", "is_reserved": 0, "fusion_lon": 0.0, "lat": 38.90804883333333, "is_disabled": 0, "name": "5c673f88fe5787a381a21e6d2aa43392", "fusion_lat": 0.0, "rental_uris": {"ios": "https://dc.lft.to/lastmile_qr_scan", "android": "https://dc.lft.to/lastmile_qr_scan"}, "lon": -77.03691316666666, "type": "electric_scooter"}, {"bike_id": "735a1a153b03ff6c0f03194f4ec31c63", "is_reserved": 0, "fusion_lon": 0.0, "lat": 38.9058185, "is_disabled": 0, "name": "735a1a153b03ff6c0f03194f4ec31c63", "fusion_lat": 0.0, "rental_uris": {"ios": "https://dc.lft.to/lastmile_qr_scan", "android": "https://dc.lft.to/lastmile_qr_scan"}, "lon": -77.02940516666666, "type": "electric_scooter"}, {"bike_id": "61b6300351da964387ef43eb8bce093b", "is_reserved": 0, "fusion_lon": 0.0, "lat": 38.9323985, "is_disabled": 0, "name": "61b6300351da964387ef43eb8bce093b", "fusion_lat": 0.0, "rental_uris": {"ios": "https://dc.lft.to/lastmile_qr_scan", "android": "https://dc.lft.to/lastmile_qr_scan"}, "lon": -77.0326535, "type": "electric_scooter"}, {"bike_id": "78b841800e51d4a8156e3ec41ffe934f", "is_reserved": 0, "fusion_lon": 0.0, "lat": 38.908946666666665, "is_disabled": 0, "name": "78b841800e51d4a8156e3ec41ffe934f", "fusion_lat": 0.0, "rental_uris": {"ios": "https://dc.lft.to/lastmile_qr_scan", "android": "https://dc.lft.to/lastmile_qr_scan"}, "lon": -77.08619033333333, "type": "electric_scooter"}, {"bike_id": "74bc7f7d4f86f36098efcfbdd9f2d1dc", "is_reserved": 0, "fusion_lon": 0.0, "lat": 38.902936833333335, "is_disabled": 0, "name": "74bc7f7d4f86f36098efcfbdd9f2d1dc", "fusion_lat": 0.0, "rental_uris": {"ios": "https://dc.lft.to/lastmile_qr_scan", "android": "https://dc.lft.to/lastmile_qr_scan"}, "lon": -77.036622, "type": "electric_scooter"}, {"bike_id": "ef89537ab4518ce7ae6d3d4dd8a6faf5", "is_reserved": 0, "fusion_lon": 0.0, "lat": 38.88382983333333, "is_disabled": 0, "name": "ef89537ab4518ce7ae6d3d4dd8a6faf5", "fusion_lat": 0.0, "rental_uris": {"ios": "https://dc.lft.to/lastmile_qr_scan", "android": "https://dc.lft.to/lastmile_qr_scan"}, "lon": -76.94923716666666, "type": "electric_scooter"}, {"bike_id": "48a65a018cb49ba4ba7be144f289079e", "is_reserved": 0, "fusion_lon": 0.0, "lat": 38.88728783333333, "is_disabled": 0, "name": "48a65a018cb49ba4ba7be144f289079e", "fusion_lat": 0.0, "rental_uris": {"ios": "https://dc.lft.to/lastmile_qr_scan", "android": "https://dc.lft.to/lastmile_qr_scan"}, "lon": -77.13314883333334, "type": "electric_bike"}, {"bike_id": "7ef6bb916abc690a8a3120c500b19393", "is_reserved": 0, "fusion_lon": 0.0, "lat": 38.82447466666667, "is_disabled": 0, "name": "7ef6bb916abc690a8a3120c500b19393", "fusion_lat": 0.0, "rental_uris": {"ios": "https://dc.lft.to/lastmile_qr_scan", "android": "https://dc.lft.to/lastmile_qr_scan"}, "lon": -77.0704455, "type": "electric_bike"}, {"bike_id": "ec92d89f93bbb3a5ff246559a5c9f611", "is_reserved": 0, "fusion_lon": 0.0, "lat": 38.892445, "is_disabled": 0, "name": "ec92d89f93bbb3a5ff246559a5c9f611", "fusion_lat": 0.0, "rental_uris": {"ios": "https://dc.lft.to/lastmile_qr_scan", "android": "https://dc.lft.to/lastmile_qr_scan"}, "lon": -77.03222283333334, "type": "electric_scooter"}, {"bike_id": "002f33400e27d6d034049672ea10c0bf", "is_reserved": 0, "fusion_lon": 0.0, "lat": 38.90667, "is_disabled": 0, "name": "002f33400e27d6d034049672ea10c0bf", "fusion_lat": 0.0, "rental_uris": {"ios": "https://dc.lft.to/lastmile_qr_scan", "android": "https://dc.lft.to/lastmile_qr_scan"}, "lon": -77.04504683333333, "type": "electric_scooter"}, {"bike_id": "2cdd506a7add073581c92a791ee4e771", "is_reserved": 0, "fusion_lon": 0.0, "lat": 38.91127, "is_disabled": 0, "name": "2cdd506a7add073581c92a791ee4e771", "fusion_lat": 0.0, "rental_uris": {"ios": "https://dc.lft.to/lastmile_qr_scan", "android": "https://dc.lft.to/lastmile_qr_scan"}, "lon": -76.99706866666666, "type": "electric_scooter"}, {"bike_id": "8bec82e550a658502279d0e3c2f9ce2b", "is_reserved": 0, "fusion_lon": 0.0, "lat": 38.8204895, "is_disabled": 0, "name": "8bec82e550a658502279d0e3c2f9ce2b", "fusion_lat": 0.0, "rental_uris": {"ios": "https://dc.lft.to/lastmile_qr_scan", "android": "https://dc.lft.to/lastmile_qr_scan"}, "lon": -77.053133, "type": "electric_bike"}, {"bike_id": "f3067fb538265a39a8f9f6fde97c0518", "is_reserved": 0, "fusion_lon": 0.0, "lat": 38.95072733333333, "is_disabled": 0, "name": "f3067fb538265a39a8f9f6fde97c0518", "fusion_lat": 0.0, "rental_uris": {"ios": "https://dc.lft.to/lastmile_qr_scan", "android": "https://dc.lft.to/lastmile_qr_scan"}, "lon": -77.01201683333333, "type": "electric_bike"}, {"bike_id": "3b0d2a175858f82d956b0b8ecc22ddd0", "is_reserved": 0, "fusion_lon": 0.0, "lat": 38.900684166666665, "is_disabled": 0, "name": "3b0d2a175858f82d956b0b8ecc22ddd0", "fusion_lat": 0.0, "rental_uris": {"ios": "https://dc.lft.to/lastmile_qr_scan", "android": "https://dc.lft.to/lastmile_qr_scan"}, "lon": -77.050732, "type": "electric_scooter"}, {"bike_id": "a07fd6e89763db29858b435b707a7169", "is_reserved": 0, "fusion_lon": 0.0, "lat": 38.91721616666667, "is_disabled": 0, "name": "a07fd6e89763db29858b435b707a7169", "fusion_lat": 0.0, "rental_uris": {"ios": "https://dc.lft.to/lastmile_qr_scan", "android": "https://dc.lft.to/lastmile_qr_scan"}, "lon": -77.02400866666666, "type": "electric_scooter"}, {"bike_id": "9e145211f4c9baeef38c4238915a5e4f", "is_reserved": 0, "fusion_lon": 0.0, "lat": 38.903711, "is_disabled": 0, "name": "9e145211f4c9baeef38c4238915a5e4f", "fusion_lat": 0.0, "rental_uris": {"ios": "https://dc.lft.to/lastmile_qr_scan", "android": "https://dc.lft.to/lastmile_qr_scan"}, "lon": -77.03864716666666, "type": "electric_scooter"}, {"bike_id": "d95f60cf4cada40ac6354a477fb09eb2", "is_reserved": 0, "fusion_lon": 0.0, "lat": 38.91786783333333, "is_disabled": 0, "name": "d95f60cf4cada40ac6354a477fb09eb2", "fusion_lat": 0.0, "rental_uris": {"ios": "https://dc.lft.to/lastmile_qr_scan", "android": "https://dc.lft.to/lastmile_qr_scan"}, "lon": -77.02699233333334, "type": "electric_scooter"}, {"bike_id": "34833ac4fbae94ad9feefdf1d66db4dc", "is_reserved": 0, "fusion_lon": 0.0, "lat": 38.91991083333333, "is_disabled": 0, "name": "34833ac4fbae94ad9feefdf1d66db4dc", "fusion_lat": 0.0, "rental_uris": {"ios": "https://dc.lft.to/lastmile_qr_scan", "android": "https://dc.lft.to/lastmile_qr_scan"}, "lon": -76.97304166666666, "type": "electric_scooter"}, {"bike_id": "5dc95524f727556fef5fa1f02d78b302", "is_reserved": 0, "fusion_lon": 0.0, "lat": 38.886458833333336, "is_disabled": 0, "name": "5dc95524f727556fef5fa1f02d78b302", "fusion_lat": 0.0, "rental_uris": {"ios": "https://dc.lft.to/lastmile_qr_scan", "android": "https://dc.lft.to/lastmile_qr_scan"}, "lon": -77.02135933333334, "type": "electric_scooter"}, {"bike_id": "6230bfce62499c1c11fe329abda8acd1", "is_reserved": 0, "fusion_lon": 0.0, "lat": 38.900873, "is_disabled": 0, "name": "6230bfce62499c1c11fe329abda8acd1", "fusion_lat": 0.0, "rental_uris": {"ios": "https://dc.lft.to/lastmile_qr_scan", "android": "https://dc.lft.to/lastmile_qr_scan"}, "lon": -77.0450195, "type": "electric_scooter"}, {"bike_id": "e0edcb302dc65c342235cbff9f31f195", "is_reserved": 0, "fusion_lon": 0.0, "lat": 38.9021685, "is_disabled": 0, "name": "e0edcb302dc65c342235cbff9f31f195", "fusion_lat": 0.0, "rental_uris": {"ios": "https://dc.lft.to/lastmile_qr_scan", "android": "https://dc.lft.to/lastmile_qr_scan"}, "lon": -76.945867, "type": "electric_scooter"}, {"bike_id": "095d0d7135b59e6fb7decb5ff2b1bf68", "is_reserved": 0, "fusion_lon": 0.0, "lat": 38.896251166666666, "is_disabled": 0, "name": "095d0d7135b59e6fb7decb5ff2b1bf68", "fusion_lat": 0.0, "rental_uris": {"ios": "https://dc.lft.to/lastmile_qr_scan", "android": "https://dc.lft.to/lastmile_qr_scan"}, "lon": -77.00901816666666, "type": "electric_scooter"}, {"bike_id": "2ae31234ada53572d5236018fbecd043", "is_reserved": 0, "fusion_lon": 0.0, "lat": 38.924309666666666, "is_disabled": 0, "name": "2ae31234ada53572d5236018fbecd043", "fusion_lat": 0.0, "rental_uris": {"ios": "https://dc.lft.to/lastmile_qr_scan", "android": "https://dc.lft.to/lastmile_qr_scan"}, "lon": -77.040028, "type": "electric_scooter"}, {"bike_id": "f0e63703d4ce5330fcd0128cf41f4a50", "is_reserved": 0, "fusion_lon": 0.0, "lat": 38.917126333333336, "is_disabled": 0, "name": "f0e63703d4ce5330fcd0128cf41f4a50", "fusion_lat": 0.0, "rental_uris": {"ios": "https://dc.lft.to/lastmile_qr_scan", "android": "https://dc.lft.to/lastmile_qr_scan"}, "lon": -77.0237845, "type": "electric_scooter"}, {"bike_id": "960f99090a38907e1703163b70ba3d15", "is_reserved": 0, "fusion_lon": 0.0, "lat": 38.86196233333333, "is_disabled": 0, "name": "960f99090a38907e1703163b70ba3d15", "fusion_lat": 0.0, "rental_uris": {"ios": "https://dc.lft.to/lastmile_qr_scan", "android": "https://dc.lft.to/lastmile_qr_scan"}, "lon": -76.99466666666666, "type": "electric_scooter"}, {"bike_id": "3060d46e70e6df5201bdaa892b4ce33f", "is_reserved": 0, "fusion_lon": 0.0, "lat": 38.919645333333335, "is_disabled": 0, "name": "3060d46e70e6df5201bdaa892b4ce33f", "fusion_lat": 0.0, "rental_uris": {"ios": "https://dc.lft.to/lastmile_qr_scan", "android": "https://dc.lft.to/lastmile_qr_scan"}, "lon": -76.9726865, "type": "electric_bike"}, {"bike_id": "2865dc871987cec64770e01384cced4c", "is_reserved": 0, "fusion_lon": 0.0, "lat": 38.96176116666667, "is_disabled": 0, "name": "2865dc871987cec64770e01384cced4c", "fusion_lat": 0.0, "rental_uris": {"ios": "https://dc.lft.to/lastmile_qr_scan", "android": "https://dc.lft.to/lastmile_qr_scan"}, "lon": -76.99594233333333, "type": "electric_bike"}, {"bike_id": "d90d0512711514cd422a5cae623bddd1", "is_reserved": 0, "fusion_lon": 0.0, "lat": 38.91550183333333, "is_disabled": 0, "name": "d90d0512711514cd422a5cae623bddd1", "fusion_lat": 0.0, "rental_uris": {"ios": "https://dc.lft.to/lastmile_qr_scan", "android": "https://dc.lft.to/lastmile_qr_scan"}, "lon": -77.04667433333333, "type": "electric_scooter"}, {"bike_id": "0caf82f352fe92d0a217036eafe1f44e", "is_reserved": 0, "fusion_lon": 0.0, "lat": 38.90598283333333, "is_disabled": 0, "name": "0caf82f352fe92d0a217036eafe1f44e", "fusion_lat": 0.0, "rental_uris": {"ios": "https://dc.lft.to/lastmile_qr_scan", "android": "https://dc.lft.to/lastmile_qr_scan"}, "lon": -77.06297566666667, "type": "electric_scooter"}, {"bike_id": "dd9841f12c08214a42a8828e254cb4b3", "is_reserved": 0, "fusion_lon": 0.0, "lat": 38.897675, "is_disabled": 0, "name": "dd9841f12c08214a42a8828e254cb4b3", "fusion_lat": 0.0, "rental_uris": {"ios": "https://dc.lft.to/lastmile_qr_scan", "android": "https://dc.lft.to/lastmile_qr_scan"}, "lon": -76.98550766666666, "type": "electric_scooter"}, {"bike_id": "3af4b1d76d2a713cfb3432ef0587076c", "is_reserved": 0, "fusion_lon": 0.0, "lat": 38.88771333333333, "is_disabled": 0, "name": "3af4b1d76d2a713cfb3432ef0587076c", "fusion_lat": 0.0, "rental_uris": {"ios": "https://dc.lft.to/lastmile_qr_scan", "android": "https://dc.lft.to/lastmile_qr_scan"}, "lon": -77.03013516666667, "type": "electric_scooter"}, {"bike_id": "1e5140ee3242e188d135b51f4ca5926b", "is_reserved": 0, "fusion_lon": 0.0, "lat": 38.909651833333335, "is_disabled": 0, "name": "1e5140ee3242e188d135b51f4ca5926b", "fusion_lat": 0.0, "rental_uris": {"ios": "https://dc.lft.to/lastmile_qr_scan", "android": "https://dc.lft.to/lastmile_qr_scan"}, "lon": -77.04865216666667, "type": "electric_scooter"}, {"bike_id": "1aed74315a100486dc25dd233095ed29", "is_reserved": 0, "fusion_lon": 0.0, "lat": 38.858104833333336, "is_disabled": 0, "name": "1aed74315a100486dc25dd233095ed29", "fusion_lat": 0.0, "rental_uris": {"ios": "https://dc.lft.to/lastmile_qr_scan", "android": "https://dc.lft.to/lastmile_qr_scan"}, "lon": -76.98652533333333, "type": "electric_scooter"}, {"bike_id": "0edd21e9060ed856bbafd38de22b2ea4", "is_reserved": 0, "fusion_lon": 0.0, "lat": 38.8922305, "is_disabled": 0, "name": "0edd21e9060ed856bbafd38de22b2ea4", "fusion_lat": 0.0, "rental_uris": {"ios": "https://dc.lft.to/lastmile_qr_scan", "android": "https://dc.lft.to/lastmile_qr_scan"}, "lon": -77.024448, "type": "electric_scooter"}, {"bike_id": "43f2d3b48f932f7f1a9ef92cfb305c21", "is_reserved": 0, "fusion_lon": 0.0, "lat": 39.03883733333333, "is_disabled": 0, "name": "43f2d3b48f932f7f1a9ef92cfb305c21", "fusion_lat": 0.0, "rental_uris": {"ios": "https://dc.lft.to/lastmile_qr_scan", "android": "https://dc.lft.to/lastmile_qr_scan"}, "lon": -76.990455, "type": "electric_bike"}, {"bike_id": "7f0544550fa46df4af66e6f438776b1f", "is_reserved": 0, "fusion_lon": 0.0, "lat": 38.90488583333333, "is_disabled": 0, "name": "7f0544550fa46df4af66e6f438776b1f", "fusion_lat": 0.0, "rental_uris": {"ios": "https://dc.lft.to/lastmile_qr_scan", "android": "https://dc.lft.to/lastmile_qr_scan"}, "lon": -77.06017516666667, "type": "electric_scooter"}, {"bike_id": "707016836d49fa3c97d8828ade5c368e", "is_reserved": 0, "fusion_lon": 0.0, "lat": 38.89853466666667, "is_disabled": 0, "name": "707016836d49fa3c97d8828ade5c368e", "fusion_lat": 0.0, "rental_uris": {"ios": "https://dc.lft.to/lastmile_qr_scan", "android": "https://dc.lft.to/lastmile_qr_scan"}, "lon": -77.03274916666666, "type": "electric_scooter"}, {"bike_id": "78c308e992b7c5d7c098c7362a4cc954", "is_reserved": 0, "fusion_lon": 0.0, "lat": 38.903734666666665, "is_disabled": 0, "name": "78c308e992b7c5d7c098c7362a4cc954", "fusion_lat": 0.0, "rental_uris": {"ios": "https://dc.lft.to/lastmile_qr_scan", "android": "https://dc.lft.to/lastmile_qr_scan"}, "lon": -77.043373, "type": "electric_scooter"}, {"bike_id": "d091974641b0dfd1be46d5f3344e8cc4", "is_reserved": 0, "fusion_lon": 0.0, "lat": 38.90534983333333, "is_disabled": 0, "name": "d091974641b0dfd1be46d5f3344e8cc4", "fusion_lat": 0.0, "rental_uris": {"ios": "https://dc.lft.to/lastmile_qr_scan", "android": "https://dc.lft.to/lastmile_qr_scan"}, "lon": -77.06103, "type": "electric_bike"}, {"bike_id": "38c1f71624c63a7c7b486c380d16a3e8", "is_reserved": 0, "fusion_lon": 0.0, "lat": 38.926633833333334, "is_disabled": 0, "name": "38c1f71624c63a7c7b486c380d16a3e8", "fusion_lat": 0.0, "rental_uris": {"ios": "https://dc.lft.to/lastmile_qr_scan", "android": "https://dc.lft.to/lastmile_qr_scan"}, "lon": -76.995607, "type": "electric_scooter"}, {"bike_id": "d7f7fde6b6eceee1dfa0208a737b1c74", "is_reserved": 0, "fusion_lon": 0.0, "lat": 38.89612366666667, "is_disabled": 0, "name": "d7f7fde6b6eceee1dfa0208a737b1c74", "fusion_lat": 0.0, "rental_uris": {"ios": "https://dc.lft.to/lastmile_qr_scan", "android": "https://dc.lft.to/lastmile_qr_scan"}, "lon": -77.04596466666666, "type": "electric_scooter"}, {"bike_id": "fd99957167cd8764ffbdc2b0d39a0f9b", "is_reserved": 0, "fusion_lon": 0.0, "lat": 38.89844516666667, "is_disabled": 0, "name": "fd99957167cd8764ffbdc2b0d39a0f9b", "fusion_lat": 0.0, "rental_uris": {"ios": "https://dc.lft.to/lastmile_qr_scan", "android": "https://dc.lft.to/lastmile_qr_scan"}, "lon": -77.0075795, "type": "electric_scooter"}, {"bike_id": "813950aa32e28ed9870eab755cfe3595", "is_reserved": 0, "fusion_lon": 0.0, "lat": 38.8736745, "is_disabled": 0, "name": "813950aa32e28ed9870eab755cfe3595", "fusion_lat": 0.0, "rental_uris": {"ios": "https://dc.lft.to/lastmile_qr_scan", "android": "https://dc.lft.to/lastmile_qr_scan"}, "lon": -77.00085316666667, "type": "electric_scooter"}, {"bike_id": "d414413e3d72d3b9301b8c985cefc32d", "is_reserved": 0, "fusion_lon": 0.0, "lat": 38.8932885, "is_disabled": 0, "name": "d414413e3d72d3b9301b8c985cefc32d", "fusion_lat": 0.0, "rental_uris": {"ios": "https://dc.lft.to/lastmile_qr_scan", "android": "https://dc.lft.to/lastmile_qr_scan"}, "lon": -76.92991233333333, "type": "electric_scooter"}, {"bike_id": "6e09b2962b032a89e13d25048c390797", "is_reserved": 0, "fusion_lon": 0.0, "lat": 38.905317833333335, "is_disabled": 0, "name": "6e09b2962b032a89e13d25048c390797", "fusion_lat": 0.0, "rental_uris": {"ios": "https://dc.lft.to/lastmile_qr_scan", "android": "https://dc.lft.to/lastmile_qr_scan"}, "lon": -77.05006466666667, "type": "electric_scooter"}, {"bike_id": "c1b39dd4030d91e5391b621768b8f4ec", "is_reserved": 0, "fusion_lon": 0.0, "lat": 38.90511433333333, "is_disabled": 0, "name": "c1b39dd4030d91e5391b621768b8f4ec", "fusion_lat": 0.0, "rental_uris": {"ios": "https://dc.lft.to/lastmile_qr_scan", "android": "https://dc.lft.to/lastmile_qr_scan"}, "lon": -77.0514045, "type": "electric_scooter"}, {"bike_id": "0edf6ee90e8478091ea7aa177261344e", "is_reserved": 0, "fusion_lon": 0.0, "lat": 38.876306, "is_disabled": 0, "name": "0edf6ee90e8478091ea7aa177261344e", "fusion_lat": 0.0, "rental_uris": {"ios": "https://dc.lft.to/lastmile_qr_scan", "android": "https://dc.lft.to/lastmile_qr_scan"}, "lon": -76.96526733333333, "type": "electric_scooter"}, {"bike_id": "6bfac3040186a08112a48bbdb904eb0a", "is_reserved": 0, "fusion_lon": 0.0, "lat": 38.9155455, "is_disabled": 0, "name": "6bfac3040186a08112a48bbdb904eb0a", "fusion_lat": 0.0, "rental_uris": {"ios": "https://dc.lft.to/lastmile_qr_scan", "android": "https://dc.lft.to/lastmile_qr_scan"}, "lon": -77.02155166666667, "type": "electric_scooter"}, {"bike_id": "efcedd96be5833c92dec64cf26c9503c", "is_reserved": 0, "fusion_lon": 0.0, "lat": 38.917147166666666, "is_disabled": 0, "name": "efcedd96be5833c92dec64cf26c9503c", "fusion_lat": 0.0, "rental_uris": {"ios": "https://dc.lft.to/lastmile_qr_scan", "android": "https://dc.lft.to/lastmile_qr_scan"}, "lon": -77.0322735, "type": "electric_scooter"}, {"bike_id": "ae2288339705e56513bcaf7726b7eeab", "is_reserved": 0, "fusion_lon": 0.0, "lat": 38.89835216666667, "is_disabled": 0, "name": "ae2288339705e56513bcaf7726b7eeab", "fusion_lat": 0.0, "rental_uris": {"ios": "https://dc.lft.to/lastmile_qr_scan", "android": "https://dc.lft.to/lastmile_qr_scan"}, "lon": -76.94636183333333, "type": "electric_scooter"}, {"bike_id": "239bbdd90769b31c5a6a294578fc699a", "is_reserved": 0, "fusion_lon": 0.0, "lat": 38.91237533333333, "is_disabled": 0, "name": "239bbdd90769b31c5a6a294578fc699a", "fusion_lat": 0.0, "rental_uris": {"ios": "https://dc.lft.to/lastmile_qr_scan", "android": "https://dc.lft.to/lastmile_qr_scan"}, "lon": -77.04521916666667, "type": "electric_scooter"}, {"bike_id": "f968a216969d9a826f70a78c214752ba", "is_reserved": 0, "fusion_lon": 0.0, "lat": 38.936942, "is_disabled": 0, "name": "f968a216969d9a826f70a78c214752ba", "fusion_lat": 0.0, "rental_uris": {"ios": "https://dc.lft.to/lastmile_qr_scan", "android": "https://dc.lft.to/lastmile_qr_scan"}, "lon": -77.0271605, "type": "electric_scooter"}, {"bike_id": "6423b78f8613bdd51adbb92fe2ae6e45", "is_reserved": 0, "fusion_lon": 0.0, "lat": 38.907341333333335, "is_disabled": 0, "name": "6423b78f8613bdd51adbb92fe2ae6e45", "fusion_lat": 0.0, "rental_uris": {"ios": "https://dc.lft.to/lastmile_qr_scan", "android": "https://dc.lft.to/lastmile_qr_scan"}, "lon": -77.00061816666667, "type": "electric_scooter"}, {"bike_id": "54bab8f5a3e001dec073b681fc4c4ee5", "is_reserved": 0, "fusion_lon": 0.0, "lat": 38.91729483333334, "is_disabled": 0, "name": "54bab8f5a3e001dec073b681fc4c4ee5", "fusion_lat": 0.0, "rental_uris": {"ios": "https://dc.lft.to/lastmile_qr_scan", "android": "https://dc.lft.to/lastmile_qr_scan"}, "lon": -77.0361435, "type": "electric_scooter"}, {"bike_id": "8a8717199ed0ce7273105155010c041d", "is_reserved": 0, "fusion_lon": 0.0, "lat": 38.93116333333333, "is_disabled": 0, "name": "8a8717199ed0ce7273105155010c041d", "fusion_lat": 0.0, "rental_uris": {"ios": "https://dc.lft.to/lastmile_qr_scan", "android": "https://dc.lft.to/lastmile_qr_scan"}, "lon": -77.021407, "type": "electric_scooter"}, {"bike_id": "bc4a51833fba3a0a653c6cb5fff4ba57", "is_reserved": 0, "fusion_lon": 0.0, "lat": 38.890147, "is_disabled": 0, "name": "bc4a51833fba3a0a653c6cb5fff4ba57", "fusion_lat": 0.0, "rental_uris": {"ios": "https://dc.lft.to/lastmile_qr_scan", "android": "https://dc.lft.to/lastmile_qr_scan"}, "lon": -76.93738416666666, "type": "electric_scooter"}, {"bike_id": "c3ea66a4286bf95945791e3fb8d2ef85", "is_reserved": 0, "fusion_lon": 0.0, "lat": 38.96501766666667, "is_disabled": 0, "name": "c3ea66a4286bf95945791e3fb8d2ef85", "fusion_lat": 0.0, "rental_uris": {"ios": "https://dc.lft.to/lastmile_qr_scan", "android": "https://dc.lft.to/lastmile_qr_scan"}, "lon": -77.0649095, "type": "electric_bike"}, {"bike_id": "80d6300eba38fcd4be51c0dbfa2add4e", "is_reserved": 0, "fusion_lon": 0.0, "lat": 38.90495516666667, "is_disabled": 0, "name": "80d6300eba38fcd4be51c0dbfa2add4e", "fusion_lat": 0.0, "rental_uris": {"ios": "https://dc.lft.to/lastmile_qr_scan", "android": "https://dc.lft.to/lastmile_qr_scan"}, "lon": -77.04339116666667, "type": "electric_scooter"}, {"bike_id": "6f01997be45c365252b231b25f9b5976", "is_reserved": 0, "fusion_lon": 0.0, "lat": 38.8666465, "is_disabled": 0, "name": "6f01997be45c365252b231b25f9b5976", "fusion_lat": 0.0, "rental_uris": {"ios": "https://dc.lft.to/lastmile_qr_scan", "android": "https://dc.lft.to/lastmile_qr_scan"}, "lon": -76.98906116666667, "type": "electric_scooter"}, {"bike_id": "af2be246fb6853cfc96ca65138d36b2a", "is_reserved": 0, "fusion_lon": 0.0, "lat": 38.910361, "is_disabled": 0, "name": "af2be246fb6853cfc96ca65138d36b2a", "fusion_lat": 0.0, "rental_uris": {"ios": "https://dc.lft.to/lastmile_qr_scan", "android": "https://dc.lft.to/lastmile_qr_scan"}, "lon": -77.04395116666667, "type": "electric_scooter"}, {"bike_id": "87701e3a0c4383ac48ee5f4085a6df6f", "is_reserved": 0, "fusion_lon": 0.0, "lat": 38.91271016666666, "is_disabled": 0, "name": "87701e3a0c4383ac48ee5f4085a6df6f", "fusion_lat": 0.0, "rental_uris": {"ios": "https://dc.lft.to/lastmile_qr_scan", "android": "https://dc.lft.to/lastmile_qr_scan"}, "lon": -77.02879816666666, "type": "electric_scooter"}, {"bike_id": "cf19d16832633f3481e04a853a2a710c", "is_reserved": 0, "fusion_lon": 0.0, "lat": 38.91429, "is_disabled": 0, "name": "cf19d16832633f3481e04a853a2a710c", "fusion_lat": 0.0, "rental_uris": {"ios": "https://dc.lft.to/lastmile_qr_scan", "android": "https://dc.lft.to/lastmile_qr_scan"}, "lon": -77.04586966666666, "type": "electric_scooter"}, {"bike_id": "91991769fbc5a61054d0ac613433f1be", "is_reserved": 0, "fusion_lon": 0.0, "lat": 38.90979816666667, "is_disabled": 0, "name": "91991769fbc5a61054d0ac613433f1be", "fusion_lat": 0.0, "rental_uris": {"ios": "https://dc.lft.to/lastmile_qr_scan", "android": "https://dc.lft.to/lastmile_qr_scan"}, "lon": -77.048722, "type": "electric_scooter"}, {"bike_id": "fee11d1230f94a1be561261e54165654", "is_reserved": 0, "fusion_lon": 0.0, "lat": 38.9344895, "is_disabled": 0, "name": "fee11d1230f94a1be561261e54165654", "fusion_lat": 0.0, "rental_uris": {"ios": "https://dc.lft.to/lastmile_qr_scan", "android": "https://dc.lft.to/lastmile_qr_scan"}, "lon": -77.02840216666667, "type": "electric_scooter"}, {"bike_id": "9822e3dff390d6f5159f75c51e4fd4b3", "is_reserved": 0, "fusion_lon": 0.0, "lat": 38.909600833333336, "is_disabled": 0, "name": "9822e3dff390d6f5159f75c51e4fd4b3", "fusion_lat": 0.0, "rental_uris": {"ios": "https://dc.lft.to/lastmile_qr_scan", "android": "https://dc.lft.to/lastmile_qr_scan"}, "lon": -77.04455933333334, "type": "electric_scooter"}, {"bike_id": "061c1e0762d80009033443ffc0192c03", "is_reserved": 0, "fusion_lon": 0.0, "lat": 38.918427333333334, "is_disabled": 0, "name": "061c1e0762d80009033443ffc0192c03", "fusion_lat": 0.0, "rental_uris": {"ios": "https://dc.lft.to/lastmile_qr_scan", "android": "https://dc.lft.to/lastmile_qr_scan"}, "lon": -77.0390785, "type": "electric_scooter"}, {"bike_id": "43a279d6e665ef5f7c7ebf1254686f66", "is_reserved": 0, "fusion_lon": 0.0, "lat": 38.928705666666666, "is_disabled": 0, "name": "43a279d6e665ef5f7c7ebf1254686f66", "fusion_lat": 0.0, "rental_uris": {"ios": "https://dc.lft.to/lastmile_qr_scan", "android": "https://dc.lft.to/lastmile_qr_scan"}, "lon": -77.033782, "type": "electric_scooter"}, {"bike_id": "87b4c3f6eec7042d6b333194501bf27e", "is_reserved": 0, "fusion_lon": 0.0, "lat": 38.956468, "is_disabled": 0, "name": "87b4c3f6eec7042d6b333194501bf27e", "fusion_lat": 0.0, "rental_uris": {"ios": "https://dc.lft.to/lastmile_qr_scan", "android": "https://dc.lft.to/lastmile_qr_scan"}, "lon": -76.93890616666667, "type": "electric_bike"}, {"bike_id": "e0c357797f7cec32489d570eef12102b", "is_reserved": 0, "fusion_lon": 0.0, "lat": 38.8850575, "is_disabled": 0, "name": "e0c357797f7cec32489d570eef12102b", "fusion_lat": 0.0, "rental_uris": {"ios": "https://dc.lft.to/lastmile_qr_scan", "android": "https://dc.lft.to/lastmile_qr_scan"}, "lon": -77.00567433333333, "type": "electric_scooter"}, {"bike_id": "90d4a612e331fb24a234b7f118e0074d", "is_reserved": 0, "fusion_lon": 0.0, "lat": 38.867246, "is_disabled": 0, "name": "90d4a612e331fb24a234b7f118e0074d", "fusion_lat": 0.0, "rental_uris": {"ios": "https://dc.lft.to/lastmile_qr_scan", "android": "https://dc.lft.to/lastmile_qr_scan"}, "lon": -76.98786116666666, "type": "electric_scooter"}, {"bike_id": "3714cd10aef80a9dcf34264e7e2cfd95", "is_reserved": 0, "fusion_lon": 0.0, "lat": 38.897758333333336, "is_disabled": 0, "name": "3714cd10aef80a9dcf34264e7e2cfd95", "fusion_lat": 0.0, "rental_uris": {"ios": "https://dc.lft.to/lastmile_qr_scan", "android": "https://dc.lft.to/lastmile_qr_scan"}, "lon": -76.90438683333333, "type": "electric_bike"}, {"bike_id": "69f3569eeba5e61e77641f6803b9c64e", "is_reserved": 0, "fusion_lon": 0.0, "lat": 38.866314, "is_disabled": 0, "name": "69f3569eeba5e61e77641f6803b9c64e", "fusion_lat": 0.0, "rental_uris": {"ios": "https://dc.lft.to/lastmile_qr_scan", "android": "https://dc.lft.to/lastmile_qr_scan"}, "lon": -76.98714766666667, "type": "electric_scooter"}, {"bike_id": "3ceb95bcfc09e0558f454f4902d4427e", "is_reserved": 0, "fusion_lon": 0.0, "lat": 38.87405533333333, "is_disabled": 0, "name": "3ceb95bcfc09e0558f454f4902d4427e", "fusion_lat": 0.0, "rental_uris": {"ios": "https://dc.lft.to/lastmile_qr_scan", "android": "https://dc.lft.to/lastmile_qr_scan"}, "lon": -77.000568, "type": "electric_scooter"}, {"bike_id": "4d86bc41cbfe9480edd32bfd1492f236", "is_reserved": 0, "fusion_lon": 0.0, "lat": 38.880408, "is_disabled": 0, "name": "4d86bc41cbfe9480edd32bfd1492f236", "fusion_lat": 0.0, "rental_uris": {"ios": "https://dc.lft.to/lastmile_qr_scan", "android": "https://dc.lft.to/lastmile_qr_scan"}, "lon": -77.02517883333333, "type": "electric_scooter"}, {"bike_id": "aff86127a1af7f19bdbe79195ab5e38a", "is_reserved": 0, "fusion_lon": 0.0, "lat": 38.89676933333333, "is_disabled": 0, "name": "aff86127a1af7f19bdbe79195ab5e38a", "fusion_lat": 0.0, "rental_uris": {"ios": "https://dc.lft.to/lastmile_qr_scan", "android": "https://dc.lft.to/lastmile_qr_scan"}, "lon": -77.0090165, "type": "electric_scooter"}, {"bike_id": "d5a98ac41314272e9ada0fb96fce7729", "is_reserved": 0, "fusion_lon": 0.0, "lat": 38.924717666666666, "is_disabled": 0, "name": "d5a98ac41314272e9ada0fb96fce7729", "fusion_lat": 0.0, "rental_uris": {"ios": "https://dc.lft.to/lastmile_qr_scan", "android": "https://dc.lft.to/lastmile_qr_scan"}, "lon": -77.05207483333334, "type": "electric_scooter"}, {"bike_id": "8d8b09286cebb05c3041037009bbfd60", "is_reserved": 0, "fusion_lon": 0.0, "lat": 38.89620166666667, "is_disabled": 0, "name": "8d8b09286cebb05c3041037009bbfd60", "fusion_lat": 0.0, "rental_uris": {"ios": "https://dc.lft.to/lastmile_qr_scan", "android": "https://dc.lft.to/lastmile_qr_scan"}, "lon": -76.95646383333333, "type": "electric_scooter"}, {"bike_id": "9c7ea1fdc30b9ca5aec06dcbca4392fa", "is_reserved": 0, "fusion_lon": 0.0, "lat": 38.921017, "is_disabled": 0, "name": "9c7ea1fdc30b9ca5aec06dcbca4392fa", "fusion_lat": 0.0, "rental_uris": {"ios": "https://dc.lft.to/lastmile_qr_scan", "android": "https://dc.lft.to/lastmile_qr_scan"}, "lon": -77.043723, "type": "electric_scooter"}, {"bike_id": "e89389580ef5072f4d23333fb334da3c", "is_reserved": 0, "fusion_lon": 0.0, "lat": 38.92883583333333, "is_disabled": 0, "name": "e89389580ef5072f4d23333fb334da3c", "fusion_lat": 0.0, "rental_uris": {"ios": "https://dc.lft.to/lastmile_qr_scan", "android": "https://dc.lft.to/lastmile_qr_scan"}, "lon": -77.03301766666667, "type": "electric_scooter"}, {"bike_id": "30ec24c86ba80d397b2db0d00c464fe4", "is_reserved": 0, "fusion_lon": 0.0, "lat": 38.8909505, "is_disabled": 0, "name": "30ec24c86ba80d397b2db0d00c464fe4", "fusion_lat": 0.0, "rental_uris": {"ios": "https://dc.lft.to/lastmile_qr_scan", "android": "https://dc.lft.to/lastmile_qr_scan"}, "lon": -76.943893, "type": "electric_scooter"}, {"bike_id": "a43e0768fcc668726b2c4a952f68b8cd", "is_reserved": 0, "fusion_lon": 0.0, "lat": 38.88886166666666, "is_disabled": 0, "name": "a43e0768fcc668726b2c4a952f68b8cd", "fusion_lat": 0.0, "rental_uris": {"ios": "https://dc.lft.to/lastmile_qr_scan", "android": "https://dc.lft.to/lastmile_qr_scan"}, "lon": -76.93156083333334, "type": "electric_scooter"}, {"bike_id": "b46df42100cd6ff973099da36f1c1289", "is_reserved": 0, "fusion_lon": 0.0, "lat": 38.8988275, "is_disabled": 0, "name": "b46df42100cd6ff973099da36f1c1289", "fusion_lat": 0.0, "rental_uris": {"ios": "https://dc.lft.to/lastmile_qr_scan", "android": "https://dc.lft.to/lastmile_qr_scan"}, "lon": -77.02979033333334, "type": "electric_scooter"}, {"bike_id": "47411cfbb6850f8ee52594f1386f845f", "is_reserved": 0, "fusion_lon": 0.0, "lat": 38.898438166666665, "is_disabled": 0, "name": "47411cfbb6850f8ee52594f1386f845f", "fusion_lat": 0.0, "rental_uris": {"ios": "https://dc.lft.to/lastmile_qr_scan", "android": "https://dc.lft.to/lastmile_qr_scan"}, "lon": -76.994978, "type": "electric_scooter"}, {"bike_id": "cf21f13173226ab159891921aec9bfdc", "is_reserved": 0, "fusion_lon": 0.0, "lat": 38.90274016666667, "is_disabled": 0, "name": "cf21f13173226ab159891921aec9bfdc", "fusion_lat": 0.0, "rental_uris": {"ios": "https://dc.lft.to/lastmile_qr_scan", "android": "https://dc.lft.to/lastmile_qr_scan"}, "lon": -77.03850833333334, "type": "electric_scooter"}, {"bike_id": "3f6de15544a041fbc07c47626b6be713", "is_reserved": 0, "fusion_lon": 0.0, "lat": 38.89794333333333, "is_disabled": 0, "name": "3f6de15544a041fbc07c47626b6be713", "fusion_lat": 0.0, "rental_uris": {"ios": "https://dc.lft.to/lastmile_qr_scan", "android": "https://dc.lft.to/lastmile_qr_scan"}, "lon": -76.94689666666666, "type": "electric_scooter"}, {"bike_id": "9e68f5de25dbce42f0fb426d8fbe5efe", "is_reserved": 0, "fusion_lon": 0.0, "lat": 38.89564266666667, "is_disabled": 0, "name": "9e68f5de25dbce42f0fb426d8fbe5efe", "fusion_lat": 0.0, "rental_uris": {"ios": "https://dc.lft.to/lastmile_qr_scan", "android": "https://dc.lft.to/lastmile_qr_scan"}, "lon": -77.021786, "type": "electric_scooter"}, {"bike_id": "5f791cc7beea7239dd59b9f7b245634c", "is_reserved": 0, "fusion_lon": 0.0, "lat": 38.922192333333335, "is_disabled": 0, "name": "5f791cc7beea7239dd59b9f7b245634c", "fusion_lat": 0.0, "rental_uris": {"ios": "https://dc.lft.to/lastmile_qr_scan", "android": "https://dc.lft.to/lastmile_qr_scan"}, "lon": -77.04227166666666, "type": "electric_scooter"}, {"bike_id": "b85747732fcc6338c29eabfa5a728492", "is_reserved": 0, "fusion_lon": 0.0, "lat": 38.9247925, "is_disabled": 0, "name": "b85747732fcc6338c29eabfa5a728492", "fusion_lat": 0.0, "rental_uris": {"ios": "https://dc.lft.to/lastmile_qr_scan", "android": "https://dc.lft.to/lastmile_qr_scan"}, "lon": -77.05216166666666, "type": "electric_scooter"}, {"bike_id": "14bac199d23e4c74350be9bef934a8de", "is_reserved": 0, "fusion_lon": 0.0, "lat": 38.92363666666667, "is_disabled": 0, "name": "14bac199d23e4c74350be9bef934a8de", "fusion_lat": 0.0, "rental_uris": {"ios": "https://dc.lft.to/lastmile_qr_scan", "android": "https://dc.lft.to/lastmile_qr_scan"}, "lon": -77.019124, "type": "electric_scooter"}, {"bike_id": "6a61b493a52550179ad637aa06d38c5c", "is_reserved": 0, "fusion_lon": 0.0, "lat": 38.924325833333334, "is_disabled": 0, "name": "6a61b493a52550179ad637aa06d38c5c", "fusion_lat": 0.0, "rental_uris": {"ios": "https://dc.lft.to/lastmile_qr_scan", "android": "https://dc.lft.to/lastmile_qr_scan"}, "lon": -77.02238166666666, "type": "electric_scooter"}, {"bike_id": "9a7017ff72293e17ee55aeb3c5e6672c", "is_reserved": 0, "fusion_lon": 0.0, "lat": 38.923366666666666, "is_disabled": 0, "name": "9a7017ff72293e17ee55aeb3c5e6672c", "fusion_lat": 0.0, "rental_uris": {"ios": "https://dc.lft.to/lastmile_qr_scan", "android": "https://dc.lft.to/lastmile_qr_scan"}, "lon": -77.037551, "type": "electric_scooter"}, {"bike_id": "268dd9fa7bfa681573c20e65f8204478", "is_reserved": 0, "fusion_lon": 0.0, "lat": 38.90382533333333, "is_disabled": 0, "name": "268dd9fa7bfa681573c20e65f8204478", "fusion_lat": 0.0, "rental_uris": {"ios": "https://dc.lft.to/lastmile_qr_scan", "android": "https://dc.lft.to/lastmile_qr_scan"}, "lon": -77.04452283333333, "type": "electric_scooter"}, {"bike_id": "54697c4522e150a248e9b009a6959949", "is_reserved": 0, "fusion_lon": 0.0, "lat": 38.90028733333333, "is_disabled": 0, "name": "54697c4522e150a248e9b009a6959949", "fusion_lat": 0.0, "rental_uris": {"ios": "https://dc.lft.to/lastmile_qr_scan", "android": "https://dc.lft.to/lastmile_qr_scan"}, "lon": -77.00223633333333, "type": "electric_scooter"}, {"bike_id": "123314a247a09a1d9da6b7e405500d58", "is_reserved": 0, "fusion_lon": 0.0, "lat": 38.918935833333336, "is_disabled": 0, "name": "123314a247a09a1d9da6b7e405500d58", "fusion_lat": 0.0, "rental_uris": {"ios": "https://dc.lft.to/lastmile_qr_scan", "android": "https://dc.lft.to/lastmile_qr_scan"}, "lon": -77.039142, "type": "electric_scooter"}, {"bike_id": "d4d9ce74d7dbc634463be180532e4b30", "is_reserved": 0, "fusion_lon": 0.0, "lat": 38.87358533333333, "is_disabled": 0, "name": "d4d9ce74d7dbc634463be180532e4b30", "fusion_lat": 0.0, "rental_uris": {"ios": "https://dc.lft.to/lastmile_qr_scan", "android": "https://dc.lft.to/lastmile_qr_scan"}, "lon": -77.00019533333334, "type": "electric_scooter"}, {"bike_id": "cdbdc49ced769de302a86e14640db2ff", "is_reserved": 0, "fusion_lon": 0.0, "lat": 38.90398183333333, "is_disabled": 0, "name": "cdbdc49ced769de302a86e14640db2ff", "fusion_lat": 0.0, "rental_uris": {"ios": "https://dc.lft.to/lastmile_qr_scan", "android": "https://dc.lft.to/lastmile_qr_scan"}, "lon": -77.06293783333334, "type": "electric_scooter"}, {"bike_id": "7cec2201da6f78f912eb39ba8308d803", "is_reserved": 0, "fusion_lon": 0.0, "lat": 38.905758, "is_disabled": 0, "name": "7cec2201da6f78f912eb39ba8308d803", "fusion_lat": 0.0, "rental_uris": {"ios": "https://dc.lft.to/lastmile_qr_scan", "android": "https://dc.lft.to/lastmile_qr_scan"}, "lon": -77.02438816666667, "type": "electric_scooter"}, {"bike_id": "0d78458cba60f7c829cedd26a14d45af", "is_reserved": 0, "fusion_lon": 0.0, "lat": 38.89624083333333, "is_disabled": 0, "name": "0d78458cba60f7c829cedd26a14d45af", "fusion_lat": 0.0, "rental_uris": {"ios": "https://dc.lft.to/lastmile_qr_scan", "android": "https://dc.lft.to/lastmile_qr_scan"}, "lon": -76.955876, "type": "electric_scooter"}, {"bike_id": "141e69c1172877cb056dca58a3eecc0f", "is_reserved": 0, "fusion_lon": 0.0, "lat": 38.916085, "is_disabled": 0, "name": "141e69c1172877cb056dca58a3eecc0f", "fusion_lat": 0.0, "rental_uris": {"ios": "https://dc.lft.to/lastmile_qr_scan", "android": "https://dc.lft.to/lastmile_qr_scan"}, "lon": -77.04034566666667, "type": "electric_scooter"}, {"bike_id": "e0a8990db28f80b08c3e13b499f7113d", "is_reserved": 0, "fusion_lon": 0.0, "lat": 38.9168725, "is_disabled": 0, "name": "e0a8990db28f80b08c3e13b499f7113d", "fusion_lat": 0.0, "rental_uris": {"ios": "https://dc.lft.to/lastmile_qr_scan", "android": "https://dc.lft.to/lastmile_qr_scan"}, "lon": -77.02949683333334, "type": "electric_scooter"}, {"bike_id": "103636d8a388fa0941e72ed13dd3975e", "is_reserved": 0, "fusion_lon": 0.0, "lat": 38.909789, "is_disabled": 0, "name": "103636d8a388fa0941e72ed13dd3975e", "fusion_lat": 0.0, "rental_uris": {"ios": "https://dc.lft.to/lastmile_qr_scan", "android": "https://dc.lft.to/lastmile_qr_scan"}, "lon": -77.04873933333333, "type": "electric_scooter"}, {"bike_id": "615c85d3708303f45b32416869f26abc", "is_reserved": 0, "fusion_lon": 0.0, "lat": 38.90030483333334, "is_disabled": 0, "name": "615c85d3708303f45b32416869f26abc", "fusion_lat": 0.0, "rental_uris": {"ios": "https://dc.lft.to/lastmile_qr_scan", "android": "https://dc.lft.to/lastmile_qr_scan"}, "lon": -77.00227366666667, "type": "electric_scooter"}, {"bike_id": "38296ceefa0f69f95d64f33f25e8a5ea", "is_reserved": 0, "fusion_lon": 0.0, "lat": 38.902760666666666, "is_disabled": 0, "name": "38296ceefa0f69f95d64f33f25e8a5ea", "fusion_lat": 0.0, "rental_uris": {"ios": "https://dc.lft.to/lastmile_qr_scan", "android": "https://dc.lft.to/lastmile_qr_scan"}, "lon": -77.03843733333333, "type": "electric_scooter"}, {"bike_id": "1a56bf82a2999eaa23db171e1489aa55", "is_reserved": 0, "fusion_lon": 0.0, "lat": 38.933562333333334, "is_disabled": 0, "name": "1a56bf82a2999eaa23db171e1489aa55", "fusion_lat": 0.0, "rental_uris": {"ios": "https://dc.lft.to/lastmile_qr_scan", "android": "https://dc.lft.to/lastmile_qr_scan"}, "lon": -77.06933283333333, "type": "electric_scooter"}, {"bike_id": "eb8d047082caf515839b4df18c2e1d28", "is_reserved": 0, "fusion_lon": 0.0, "lat": 38.888610166666666, "is_disabled": 0, "name": "eb8d047082caf515839b4df18c2e1d28", "fusion_lat": 0.0, "rental_uris": {"ios": "https://dc.lft.to/lastmile_qr_scan", "android": "https://dc.lft.to/lastmile_qr_scan"}, "lon": -77.0011755, "type": "electric_scooter"}, {"bike_id": "5c6029247e5d766ca0c7f3097e71e4f6", "is_reserved": 0, "fusion_lon": 0.0, "lat": 38.866614166666665, "is_disabled": 0, "name": "5c6029247e5d766ca0c7f3097e71e4f6", "fusion_lat": 0.0, "rental_uris": {"ios": "https://dc.lft.to/lastmile_qr_scan", "android": "https://dc.lft.to/lastmile_qr_scan"}, "lon": -76.98903866666667, "type": "electric_scooter"}, {"bike_id": "9e82dded3ae2d376421d48b1d1dfce62", "is_reserved": 0, "fusion_lon": 0.0, "lat": 38.92102416666667, "is_disabled": 0, "name": "9e82dded3ae2d376421d48b1d1dfce62", "fusion_lat": 0.0, "rental_uris": {"ios": "https://dc.lft.to/lastmile_qr_scan", "android": "https://dc.lft.to/lastmile_qr_scan"}, "lon": -77.06334966666667, "type": "electric_scooter"}, {"bike_id": "20b15568be4a779196cf4af431f10ff6", "is_reserved": 0, "fusion_lon": 0.0, "lat": 38.89223066666667, "is_disabled": 0, "name": "20b15568be4a779196cf4af431f10ff6", "fusion_lat": 0.0, "rental_uris": {"ios": "https://dc.lft.to/lastmile_qr_scan", "android": "https://dc.lft.to/lastmile_qr_scan"}, "lon": -77.04508833333334, "type": "electric_scooter"}, {"bike_id": "fcfbe7233f41b3ddf549ddfe58cb0277", "is_reserved": 0, "fusion_lon": 0.0, "lat": 38.881822, "is_disabled": 0, "name": "fcfbe7233f41b3ddf549ddfe58cb0277", "fusion_lat": 0.0, "rental_uris": {"ios": "https://dc.lft.to/lastmile_qr_scan", "android": "https://dc.lft.to/lastmile_qr_scan"}, "lon": -77.035721, "type": "electric_scooter"}, {"bike_id": "51c06e81ac5932ac150f8d028b909ee2", "is_reserved": 0, "fusion_lon": 0.0, "lat": 38.8991585, "is_disabled": 0, "name": "51c06e81ac5932ac150f8d028b909ee2", "fusion_lat": 0.0, "rental_uris": {"ios": "https://dc.lft.to/lastmile_qr_scan", "android": "https://dc.lft.to/lastmile_qr_scan"}, "lon": -77.0394025, "type": "electric_scooter"}, {"bike_id": "bfb1a710cf64094639fa591ab836578a", "is_reserved": 0, "fusion_lon": 0.0, "lat": 38.912637333333336, "is_disabled": 0, "name": "bfb1a710cf64094639fa591ab836578a", "fusion_lat": 0.0, "rental_uris": {"ios": "https://dc.lft.to/lastmile_qr_scan", "android": "https://dc.lft.to/lastmile_qr_scan"}, "lon": -77.07591483333333, "type": "electric_scooter"}, {"bike_id": "faed5c66d31eb37f17783009bc2e4267", "is_reserved": 0, "fusion_lon": 0.0, "lat": 38.90580466666667, "is_disabled": 0, "name": "faed5c66d31eb37f17783009bc2e4267", "fusion_lat": 0.0, "rental_uris": {"ios": "https://dc.lft.to/lastmile_qr_scan", "android": "https://dc.lft.to/lastmile_qr_scan"}, "lon": -77.03441516666666, "type": "electric_scooter"}, {"bike_id": "313aad22f535c3afd517e2b994a06440", "is_reserved": 0, "fusion_lon": 0.0, "lat": 38.9180355, "is_disabled": 0, "name": "313aad22f535c3afd517e2b994a06440", "fusion_lat": 0.0, "rental_uris": {"ios": "https://dc.lft.to/lastmile_qr_scan", "android": "https://dc.lft.to/lastmile_qr_scan"}, "lon": -77.04156083333334, "type": "electric_scooter"}, {"bike_id": "caa88fc3220f391584ba0f4eca227601", "is_reserved": 0, "fusion_lon": 0.0, "lat": 38.926236333333335, "is_disabled": 0, "name": "caa88fc3220f391584ba0f4eca227601", "fusion_lat": 0.0, "rental_uris": {"ios": "https://dc.lft.to/lastmile_qr_scan", "android": "https://dc.lft.to/lastmile_qr_scan"}, "lon": -77.0378585, "type": "electric_scooter"}, {"bike_id": "8e3873a49e934b8afdb5a9fc7b041aaf", "is_reserved": 0, "fusion_lon": 0.0, "lat": 38.925891, "is_disabled": 0, "name": "8e3873a49e934b8afdb5a9fc7b041aaf", "fusion_lat": 0.0, "rental_uris": {"ios": "https://dc.lft.to/lastmile_qr_scan", "android": "https://dc.lft.to/lastmile_qr_scan"}, "lon": -77.00477066666667, "type": "electric_scooter"}, {"bike_id": "a9d841dde8fe302055e1b07f5c9e8f3c", "is_reserved": 0, "fusion_lon": 0.0, "lat": 38.925072666666665, "is_disabled": 0, "name": "a9d841dde8fe302055e1b07f5c9e8f3c", "fusion_lat": 0.0, "rental_uris": {"ios": "https://dc.lft.to/lastmile_qr_scan", "android": "https://dc.lft.to/lastmile_qr_scan"}, "lon": -77.03879516666667, "type": "electric_scooter"}, {"bike_id": "a6214d243e297d23d63432ffe11f5842", "is_reserved": 0, "fusion_lon": 0.0, "lat": 38.90035783333333, "is_disabled": 0, "name": "a6214d243e297d23d63432ffe11f5842", "fusion_lat": 0.0, "rental_uris": {"ios": "https://dc.lft.to/lastmile_qr_scan", "android": "https://dc.lft.to/lastmile_qr_scan"}, "lon": -76.98832233333333, "type": "electric_scooter"}, {"bike_id": "3c5bf75731d944b22c8be3ec95cdca00", "is_reserved": 0, "fusion_lon": 0.0, "lat": 38.900532, "is_disabled": 0, "name": "3c5bf75731d944b22c8be3ec95cdca00", "fusion_lat": 0.0, "rental_uris": {"ios": "https://dc.lft.to/lastmile_qr_scan", "android": "https://dc.lft.to/lastmile_qr_scan"}, "lon": -77.0022465, "type": "electric_scooter"}, {"bike_id": "02c9977d40455bccd7ef5c0ecb3214b5", "is_reserved": 0, "fusion_lon": 0.0, "lat": 38.916851, "is_disabled": 0, "name": "02c9977d40455bccd7ef5c0ecb3214b5", "fusion_lat": 0.0, "rental_uris": {"ios": "https://dc.lft.to/lastmile_qr_scan", "android": "https://dc.lft.to/lastmile_qr_scan"}, "lon": -77.029728, "type": "electric_scooter"}, {"bike_id": "981a96c2dc8a166f46464bde4ef4012b", "is_reserved": 0, "fusion_lon": 0.0, "lat": 38.97093866666667, "is_disabled": 0, "name": "981a96c2dc8a166f46464bde4ef4012b", "fusion_lat": 0.0, "rental_uris": {"ios": "https://dc.lft.to/lastmile_qr_scan", "android": "https://dc.lft.to/lastmile_qr_scan"}, "lon": -77.06966916666667, "type": "electric_bike"}, {"bike_id": "36a9f04634bbea124ba09de2799be55e", "is_reserved": 0, "fusion_lon": 0.0, "lat": 38.91333733333333, "is_disabled": 0, "name": "36a9f04634bbea124ba09de2799be55e", "fusion_lat": 0.0, "rental_uris": {"ios": "https://dc.lft.to/lastmile_qr_scan", "android": "https://dc.lft.to/lastmile_qr_scan"}, "lon": -77.04872583333334, "type": "electric_scooter"}, {"bike_id": "329e3ed15947be28279a9d4773128cbe", "is_reserved": 0, "fusion_lon": 0.0, "lat": 38.89907516666667, "is_disabled": 0, "name": "329e3ed15947be28279a9d4773128cbe", "fusion_lat": 0.0, "rental_uris": {"ios": "https://dc.lft.to/lastmile_qr_scan", "android": "https://dc.lft.to/lastmile_qr_scan"}, "lon": -77.032818, "type": "electric_scooter"}, {"bike_id": "d8d9fabc0e93cec4d4fe388fe445cc68", "is_reserved": 0, "fusion_lon": 0.0, "lat": 38.92624983333333, "is_disabled": 0, "name": "d8d9fabc0e93cec4d4fe388fe445cc68", "fusion_lat": 0.0, "rental_uris": {"ios": "https://dc.lft.to/lastmile_qr_scan", "android": "https://dc.lft.to/lastmile_qr_scan"}, "lon": -77.0393055, "type": "electric_bike"}, {"bike_id": "91d6bc060e2fd586ae6be867c271ac11", "is_reserved": 0, "fusion_lon": 0.0, "lat": 38.86508716666667, "is_disabled": 0, "name": "91d6bc060e2fd586ae6be867c271ac11", "fusion_lat": 0.0, "rental_uris": {"ios": "https://dc.lft.to/lastmile_qr_scan", "android": "https://dc.lft.to/lastmile_qr_scan"}, "lon": -76.98977516666666, "type": "electric_scooter"}, {"bike_id": "fcb17cf6045cecee064e18cf27f13e0f", "is_reserved": 0, "fusion_lon": 0.0, "lat": 38.88522016666667, "is_disabled": 0, "name": "fcb17cf6045cecee064e18cf27f13e0f", "fusion_lat": 0.0, "rental_uris": {"ios": "https://dc.lft.to/lastmile_qr_scan", "android": "https://dc.lft.to/lastmile_qr_scan"}, "lon": -77.015585, "type": "electric_scooter"}, {"bike_id": "1ef6376e50ce88ce51b626b53c46fd36", "is_reserved": 0, "fusion_lon": 0.0, "lat": 38.89344166666667, "is_disabled": 0, "name": "1ef6376e50ce88ce51b626b53c46fd36", "fusion_lat": 0.0, "rental_uris": {"ios": "https://dc.lft.to/lastmile_qr_scan", "android": "https://dc.lft.to/lastmile_qr_scan"}, "lon": -76.98450533333333, "type": "electric_scooter"}, {"bike_id": "30d0495d7b1d3a66db6b93d3f03e7f02", "is_reserved": 0, "fusion_lon": 0.0, "lat": 38.93427333333333, "is_disabled": 0, "name": "30d0495d7b1d3a66db6b93d3f03e7f02", "fusion_lat": 0.0, "rental_uris": {"ios": "https://dc.lft.to/lastmile_qr_scan", "android": "https://dc.lft.to/lastmile_qr_scan"}, "lon": -76.96508566666667, "type": "electric_scooter"}, {"bike_id": "c2427cde7db12d22a9e945f015bbf3fc", "is_reserved": 0, "fusion_lon": 0.0, "lat": 38.884940666666665, "is_disabled": 0, "name": "c2427cde7db12d22a9e945f015bbf3fc", "fusion_lat": 0.0, "rental_uris": {"ios": "https://dc.lft.to/lastmile_qr_scan", "android": "https://dc.lft.to/lastmile_qr_scan"}, "lon": -77.00711133333333, "type": "electric_scooter"}, {"bike_id": "4348c42a080ae45369b13127d38ddd0d", "is_reserved": 0, "fusion_lon": 0.0, "lat": 38.922170666666666, "is_disabled": 0, "name": "4348c42a080ae45369b13127d38ddd0d", "fusion_lat": 0.0, "rental_uris": {"ios": "https://dc.lft.to/lastmile_qr_scan", "android": "https://dc.lft.to/lastmile_qr_scan"}, "lon": -77.03660633333334, "type": "electric_scooter"}, {"bike_id": "5d6ed86ca80600ad4bd5faa8b2fe5e61", "is_reserved": 0, "fusion_lon": 0.0, "lat": 38.90175383333333, "is_disabled": 0, "name": "5d6ed86ca80600ad4bd5faa8b2fe5e61", "fusion_lat": 0.0, "rental_uris": {"ios": "https://dc.lft.to/lastmile_qr_scan", "android": "https://dc.lft.to/lastmile_qr_scan"}, "lon": -77.02480533333333, "type": "electric_scooter"}, {"bike_id": "6e70ae46d1ab5557144b6d6589fa7a5b", "is_reserved": 0, "fusion_lon": 0.0, "lat": 38.89169533333333, "is_disabled": 0, "name": "6e70ae46d1ab5557144b6d6589fa7a5b", "fusion_lat": 0.0, "rental_uris": {"ios": "https://dc.lft.to/lastmile_qr_scan", "android": "https://dc.lft.to/lastmile_qr_scan"}, "lon": -77.01544416666667, "type": "electric_scooter"}, {"bike_id": "722e996dcdc5d92f989f50b8cd251564", "is_reserved": 0, "fusion_lon": 0.0, "lat": 38.876420333333336, "is_disabled": 0, "name": "722e996dcdc5d92f989f50b8cd251564", "fusion_lat": 0.0, "rental_uris": {"ios": "https://dc.lft.to/lastmile_qr_scan", "android": "https://dc.lft.to/lastmile_qr_scan"}, "lon": -76.9958745, "type": "electric_scooter"}, {"bike_id": "188cf64d91a22dca19f653c6dec7fd5b", "is_reserved": 0, "fusion_lon": 0.0, "lat": 38.99671083333333, "is_disabled": 0, "name": "188cf64d91a22dca19f653c6dec7fd5b", "fusion_lat": 0.0, "rental_uris": {"ios": "https://dc.lft.to/lastmile_qr_scan", "android": "https://dc.lft.to/lastmile_qr_scan"}, "lon": -77.03777366666667, "type": "electric_bike"}, {"bike_id": "dbe993e034463ba2c0c34afaf116990f", "is_reserved": 0, "fusion_lon": 0.0, "lat": 38.898197, "is_disabled": 0, "name": "dbe993e034463ba2c0c34afaf116990f", "fusion_lat": 0.0, "rental_uris": {"ios": "https://dc.lft.to/lastmile_qr_scan", "android": "https://dc.lft.to/lastmile_qr_scan"}, "lon": -77.03314983333334, "type": "electric_scooter"}, {"bike_id": "c74429d579ec8a48a3a279c6af1193d1", "is_reserved": 0, "fusion_lon": 0.0, "lat": 38.91842883333333, "is_disabled": 0, "name": "c74429d579ec8a48a3a279c6af1193d1", "fusion_lat": 0.0, "rental_uris": {"ios": "https://dc.lft.to/lastmile_qr_scan", "android": "https://dc.lft.to/lastmile_qr_scan"}, "lon": -77.03896266666666, "type": "electric_scooter"}, {"bike_id": "e85cdbe52e35b37613dfaf106fa9225d", "is_reserved": 0, "fusion_lon": 0.0, "lat": 38.91302016666667, "is_disabled": 0, "name": "e85cdbe52e35b37613dfaf106fa9225d", "fusion_lat": 0.0, "rental_uris": {"ios": "https://dc.lft.to/lastmile_qr_scan", "android": "https://dc.lft.to/lastmile_qr_scan"}, "lon": -77.08288416666667, "type": "electric_bike"}, {"bike_id": "fc85f39fc7f6865f8aed395ff966f789", "is_reserved": 0, "fusion_lon": 0.0, "lat": 38.9133875, "is_disabled": 0, "name": "fc85f39fc7f6865f8aed395ff966f789", "fusion_lat": 0.0, "rental_uris": {"ios": "https://dc.lft.to/lastmile_qr_scan", "android": "https://dc.lft.to/lastmile_qr_scan"}, "lon": -77.04816366666667, "type": "electric_scooter"}, {"bike_id": "b0c42bce8d0729147b46cceb447ff386", "is_reserved": 0, "fusion_lon": 0.0, "lat": 38.87927966666667, "is_disabled": 0, "name": "b0c42bce8d0729147b46cceb447ff386", "fusion_lat": 0.0, "rental_uris": {"ios": "https://dc.lft.to/lastmile_qr_scan", "android": "https://dc.lft.to/lastmile_qr_scan"}, "lon": -76.992526, "type": "electric_scooter"}, {"bike_id": "c895ef42fbd723dc5ba73506f3350558", "is_reserved": 0, "fusion_lon": 0.0, "lat": 38.923136166666666, "is_disabled": 0, "name": "c895ef42fbd723dc5ba73506f3350558", "fusion_lat": 0.0, "rental_uris": {"ios": "https://dc.lft.to/lastmile_qr_scan", "android": "https://dc.lft.to/lastmile_qr_scan"}, "lon": -77.041251, "type": "electric_scooter"}, {"bike_id": "87ba905de43a969ee78e017c665692a6", "is_reserved": 0, "fusion_lon": 0.0, "lat": 38.9247, "is_disabled": 0, "name": "87ba905de43a969ee78e017c665692a6", "fusion_lat": 0.0, "rental_uris": {"ios": "https://dc.lft.to/lastmile_qr_scan", "android": "https://dc.lft.to/lastmile_qr_scan"}, "lon": -77.02712216666667, "type": "electric_scooter"}, {"bike_id": "6581ef9049a1b903e4d87e345ff7405c", "is_reserved": 0, "fusion_lon": 0.0, "lat": 38.90777716666667, "is_disabled": 0, "name": "6581ef9049a1b903e4d87e345ff7405c", "fusion_lat": 0.0, "rental_uris": {"ios": "https://dc.lft.to/lastmile_qr_scan", "android": "https://dc.lft.to/lastmile_qr_scan"}, "lon": -77.03833533333334, "type": "electric_scooter"}, {"bike_id": "f05bba4eaa231b442b1f3adfb3a1a48e", "is_reserved": 0, "fusion_lon": 0.0, "lat": 38.900462166666664, "is_disabled": 0, "name": "f05bba4eaa231b442b1f3adfb3a1a48e", "fusion_lat": 0.0, "rental_uris": {"ios": "https://dc.lft.to/lastmile_qr_scan", "android": "https://dc.lft.to/lastmile_qr_scan"}, "lon": -77.00223983333333, "type": "electric_scooter"}, {"bike_id": "1dbf0ca755919d75ca8d9d6d716fd799", "is_reserved": 0, "fusion_lon": 0.0, "lat": 38.94437683333334, "is_disabled": 0, "name": "1dbf0ca755919d75ca8d9d6d716fd799", "fusion_lat": 0.0, "rental_uris": {"ios": "https://dc.lft.to/lastmile_qr_scan", "android": "https://dc.lft.to/lastmile_qr_scan"}, "lon": -77.06354533333334, "type": "electric_scooter"}, {"bike_id": "b561714fc69ea2cd8485e96b8fe5d082", "is_reserved": 0, "fusion_lon": 0.0, "lat": 38.866670666666664, "is_disabled": 0, "name": "b561714fc69ea2cd8485e96b8fe5d082", "fusion_lat": 0.0, "rental_uris": {"ios": "https://dc.lft.to/lastmile_qr_scan", "android": "https://dc.lft.to/lastmile_qr_scan"}, "lon": -76.98906216666667, "type": "electric_scooter"}, {"bike_id": "1268d40982d9eb58301342eff02273b3", "is_reserved": 0, "fusion_lon": 0.0, "lat": 38.87629366666667, "is_disabled": 0, "name": "1268d40982d9eb58301342eff02273b3", "fusion_lat": 0.0, "rental_uris": {"ios": "https://dc.lft.to/lastmile_qr_scan", "android": "https://dc.lft.to/lastmile_qr_scan"}, "lon": -76.96526766666666, "type": "electric_scooter"}, {"bike_id": "30b6667bb649797573d263a27e034dd5", "is_reserved": 0, "fusion_lon": 0.0, "lat": 38.946301, "is_disabled": 0, "name": "30b6667bb649797573d263a27e034dd5", "fusion_lat": 0.0, "rental_uris": {"ios": "https://dc.lft.to/lastmile_qr_scan", "android": "https://dc.lft.to/lastmile_qr_scan"}, "lon": -77.0184505, "type": "electric_scooter"}, {"bike_id": "b0ce302b9033f55b92482fa601a639ba", "is_reserved": 0, "fusion_lon": 0.0, "lat": 38.90479916666666, "is_disabled": 0, "name": "b0ce302b9033f55b92482fa601a639ba", "fusion_lat": 0.0, "rental_uris": {"ios": "https://dc.lft.to/lastmile_qr_scan", "android": "https://dc.lft.to/lastmile_qr_scan"}, "lon": -77.02974566666667, "type": "electric_scooter"}, {"bike_id": "c07f92d40e3b3ffe481ded67317cecad", "is_reserved": 0, "fusion_lon": 0.0, "lat": 38.838123, "is_disabled": 0, "name": "c07f92d40e3b3ffe481ded67317cecad", "fusion_lat": 0.0, "rental_uris": {"ios": "https://dc.lft.to/lastmile_qr_scan", "android": "https://dc.lft.to/lastmile_qr_scan"}, "lon": -77.0952585, "type": "electric_bike"}, {"bike_id": "0053cc4550a4a19e339e57efe72c4fd5", "is_reserved": 0, "fusion_lon": 0.0, "lat": 38.93289883333333, "is_disabled": 0, "name": "0053cc4550a4a19e339e57efe72c4fd5", "fusion_lat": 0.0, "rental_uris": {"ios": "https://dc.lft.to/lastmile_qr_scan", "android": "https://dc.lft.to/lastmile_qr_scan"}, "lon": -77.03979066666666, "type": "electric_scooter"}, {"bike_id": "aefaec5f8ad608bce67ea73d1810f04f", "is_reserved": 0, "fusion_lon": 0.0, "lat": 38.838690666666665, "is_disabled": 0, "name": "aefaec5f8ad608bce67ea73d1810f04f", "fusion_lat": 0.0, "rental_uris": {"ios": "https://dc.lft.to/lastmile_qr_scan", "android": "https://dc.lft.to/lastmile_qr_scan"}, "lon": -76.996941, "type": "electric_bike"}, {"bike_id": "d0a662b96b5459b3330059d90b7f0d2f", "is_reserved": 0, "fusion_lon": 0.0, "lat": 38.92125383333333, "is_disabled": 0, "name": "d0a662b96b5459b3330059d90b7f0d2f", "fusion_lat": 0.0, "rental_uris": {"ios": "https://dc.lft.to/lastmile_qr_scan", "android": "https://dc.lft.to/lastmile_qr_scan"}, "lon": -77.04576483333334, "type": "electric_scooter"}, {"bike_id": "6fcc26eba8ee2d503c56326af688e5ef", "is_reserved": 0, "fusion_lon": 0.0, "lat": 38.9118665, "is_disabled": 0, "name": "6fcc26eba8ee2d503c56326af688e5ef", "fusion_lat": 0.0, "rental_uris": {"ios": "https://dc.lft.to/lastmile_qr_scan", "android": "https://dc.lft.to/lastmile_qr_scan"}, "lon": -77.0313905, "type": "electric_scooter"}, {"bike_id": "786549f363050e61f33aab312d0da1e6", "is_reserved": 0, "fusion_lon": 0.0, "lat": 38.86529516666667, "is_disabled": 0, "name": "786549f363050e61f33aab312d0da1e6", "fusion_lat": 0.0, "rental_uris": {"ios": "https://dc.lft.to/lastmile_qr_scan", "android": "https://dc.lft.to/lastmile_qr_scan"}, "lon": -76.99024333333334, "type": "electric_scooter"}, {"bike_id": "4431b11e092100df50abc05c017f1231", "is_reserved": 0, "fusion_lon": 0.0, "lat": 38.8974255, "is_disabled": 0, "name": "4431b11e092100df50abc05c017f1231", "fusion_lat": 0.0, "rental_uris": {"ios": "https://dc.lft.to/lastmile_qr_scan", "android": "https://dc.lft.to/lastmile_qr_scan"}, "lon": -76.93846683333334, "type": "electric_scooter"}, {"bike_id": "52a6cc5462affdbd8820355684f200a9", "is_reserved": 0, "fusion_lon": 0.0, "lat": 38.89605316666667, "is_disabled": 0, "name": "52a6cc5462affdbd8820355684f200a9", "fusion_lat": 0.0, "rental_uris": {"ios": "https://dc.lft.to/lastmile_qr_scan", "android": "https://dc.lft.to/lastmile_qr_scan"}, "lon": -77.0445255, "type": "electric_scooter"}, {"bike_id": "ce7244d8d674786116457ca5fa5afd64", "is_reserved": 0, "fusion_lon": 0.0, "lat": 38.914697, "is_disabled": 0, "name": "ce7244d8d674786116457ca5fa5afd64", "fusion_lat": 0.0, "rental_uris": {"ios": "https://dc.lft.to/lastmile_qr_scan", "android": "https://dc.lft.to/lastmile_qr_scan"}, "lon": -76.9842815, "type": "electric_scooter"}, {"bike_id": "9389ed99c36bd7031467cf6eabe8ab50", "is_reserved": 0, "fusion_lon": 0.0, "lat": 38.91276666666667, "is_disabled": 0, "name": "9389ed99c36bd7031467cf6eabe8ab50", "fusion_lat": 0.0, "rental_uris": {"ios": "https://dc.lft.to/lastmile_qr_scan", "android": "https://dc.lft.to/lastmile_qr_scan"}, "lon": -77.0313195, "type": "electric_scooter"}, {"bike_id": "cf653151d6accaa494827c49d4f8139c", "is_reserved": 0, "fusion_lon": 0.0, "lat": 38.941762833333335, "is_disabled": 0, "name": "cf653151d6accaa494827c49d4f8139c", "fusion_lat": 0.0, "rental_uris": {"ios": "https://dc.lft.to/lastmile_qr_scan", "android": "https://dc.lft.to/lastmile_qr_scan"}, "lon": -77.02503566666667, "type": "electric_scooter"}, {"bike_id": "00306462027c6d66add9572d8bc1caca", "is_reserved": 0, "fusion_lon": 0.0, "lat": 38.891994, "is_disabled": 0, "name": "00306462027c6d66add9572d8bc1caca", "fusion_lat": 0.0, "rental_uris": {"ios": "https://dc.lft.to/lastmile_qr_scan", "android": "https://dc.lft.to/lastmile_qr_scan"}, "lon": -77.01539133333333, "type": "electric_scooter"}, {"bike_id": "20745aab2855a357c17ceb5101aeb2d3", "is_reserved": 0, "fusion_lon": 0.0, "lat": 38.90298533333333, "is_disabled": 0, "name": "20745aab2855a357c17ceb5101aeb2d3", "fusion_lat": 0.0, "rental_uris": {"ios": "https://dc.lft.to/lastmile_qr_scan", "android": "https://dc.lft.to/lastmile_qr_scan"}, "lon": -76.998583, "type": "electric_scooter"}, {"bike_id": "89b943d9e3c97cdf01e9ded85fc084d9", "is_reserved": 0, "fusion_lon": 0.0, "lat": 38.89367583333333, "is_disabled": 0, "name": "89b943d9e3c97cdf01e9ded85fc084d9", "fusion_lat": 0.0, "rental_uris": {"ios": "https://dc.lft.to/lastmile_qr_scan", "android": "https://dc.lft.to/lastmile_qr_scan"}, "lon": -76.94967083333333, "type": "electric_scooter"}, {"bike_id": "30598fe605ef222b484ba11c5a005ca9", "is_reserved": 0, "fusion_lon": 0.0, "lat": 38.9045505, "is_disabled": 0, "name": "30598fe605ef222b484ba11c5a005ca9", "fusion_lat": 0.0, "rental_uris": {"ios": "https://dc.lft.to/lastmile_qr_scan", "android": "https://dc.lft.to/lastmile_qr_scan"}, "lon": -76.996282, "type": "electric_scooter"}, {"bike_id": "5f67f7478378e1652be9a7959131de18", "is_reserved": 0, "fusion_lon": 0.0, "lat": 38.9026465, "is_disabled": 0, "name": "5f67f7478378e1652be9a7959131de18", "fusion_lat": 0.0, "rental_uris": {"ios": "https://dc.lft.to/lastmile_qr_scan", "android": "https://dc.lft.to/lastmile_qr_scan"}, "lon": -77.03335033333333, "type": "electric_scooter"}, {"bike_id": "a1ed687745bd2d38f6ffe08126346ac4", "is_reserved": 0, "fusion_lon": 0.0, "lat": 38.922648333333335, "is_disabled": 0, "name": "a1ed687745bd2d38f6ffe08126346ac4", "fusion_lat": 0.0, "rental_uris": {"ios": "https://dc.lft.to/lastmile_qr_scan", "android": "https://dc.lft.to/lastmile_qr_scan"}, "lon": -77.0182605, "type": "electric_scooter"}, {"bike_id": "c95a0030c8023c763fc49a3349254d3a", "is_reserved": 0, "fusion_lon": 0.0, "lat": 38.92042583333333, "is_disabled": 0, "name": "c95a0030c8023c763fc49a3349254d3a", "fusion_lat": 0.0, "rental_uris": {"ios": "https://dc.lft.to/lastmile_qr_scan", "android": "https://dc.lft.to/lastmile_qr_scan"}, "lon": -77.04800133333333, "type": "electric_scooter"}, {"bike_id": "2529daa46b24e1ab8b14e554d4d89611", "is_reserved": 0, "fusion_lon": 0.0, "lat": 38.842961, "is_disabled": 0, "name": "2529daa46b24e1ab8b14e554d4d89611", "fusion_lat": 0.0, "rental_uris": {"ios": "https://dc.lft.to/lastmile_qr_scan", "android": "https://dc.lft.to/lastmile_qr_scan"}, "lon": -76.99942416666667, "type": "electric_scooter"}, {"bike_id": "66346c2220780ab424499d34fb766ccb", "is_reserved": 0, "fusion_lon": 0.0, "lat": 38.876314666666666, "is_disabled": 0, "name": "66346c2220780ab424499d34fb766ccb", "fusion_lat": 0.0, "rental_uris": {"ios": "https://dc.lft.to/lastmile_qr_scan", "android": "https://dc.lft.to/lastmile_qr_scan"}, "lon": -76.96523333333333, "type": "electric_scooter"}, {"bike_id": "6edb886a06c1e6915928d27f82cf89c3", "is_reserved": 0, "fusion_lon": 0.0, "lat": 38.91206533333333, "is_disabled": 0, "name": "6edb886a06c1e6915928d27f82cf89c3", "fusion_lat": 0.0, "rental_uris": {"ios": "https://dc.lft.to/lastmile_qr_scan", "android": "https://dc.lft.to/lastmile_qr_scan"}, "lon": -77.01596233333333, "type": "electric_scooter"}, {"bike_id": "71562dca0fe8dccdc77dfe25e6320c18", "is_reserved": 0, "fusion_lon": 0.0, "lat": 38.91832866666667, "is_disabled": 0, "name": "71562dca0fe8dccdc77dfe25e6320c18", "fusion_lat": 0.0, "rental_uris": {"ios": "https://dc.lft.to/lastmile_qr_scan", "android": "https://dc.lft.to/lastmile_qr_scan"}, "lon": -77.04512883333334, "type": "electric_scooter"}, {"bike_id": "f22339760851dc6d7f5520ef7e8a9815", "is_reserved": 0, "fusion_lon": 0.0, "lat": 38.880769666666666, "is_disabled": 0, "name": "f22339760851dc6d7f5520ef7e8a9815", "fusion_lat": 0.0, "rental_uris": {"ios": "https://dc.lft.to/lastmile_qr_scan", "android": "https://dc.lft.to/lastmile_qr_scan"}, "lon": -76.98528266666666, "type": "electric_scooter"}, {"bike_id": "4213a9972caaf0563de32c430c62120f", "is_reserved": 0, "fusion_lon": 0.0, "lat": 38.92421133333333, "is_disabled": 0, "name": "4213a9972caaf0563de32c430c62120f", "fusion_lat": 0.0, "rental_uris": {"ios": "https://dc.lft.to/lastmile_qr_scan", "android": "https://dc.lft.to/lastmile_qr_scan"}, "lon": -77.02234833333333, "type": "electric_scooter"}, {"bike_id": "162693fed49e029cd930b4927aefca1d", "is_reserved": 0, "fusion_lon": 0.0, "lat": 38.94018633333334, "is_disabled": 0, "name": "162693fed49e029cd930b4927aefca1d", "fusion_lat": 0.0, "rental_uris": {"ios": "https://dc.lft.to/lastmile_qr_scan", "android": "https://dc.lft.to/lastmile_qr_scan"}, "lon": -77.071676, "type": "electric_scooter"}, {"bike_id": "5abfafabf31b4bfde41e1b45ad08c825", "is_reserved": 0, "fusion_lon": 0.0, "lat": 38.892049, "is_disabled": 0, "name": "5abfafabf31b4bfde41e1b45ad08c825", "fusion_lat": 0.0, "rental_uris": {"ios": "https://dc.lft.to/lastmile_qr_scan", "android": "https://dc.lft.to/lastmile_qr_scan"}, "lon": -77.02377966666667, "type": "electric_scooter"}, {"bike_id": "67e31ed7dc07f7dd2691746396a6a24e", "is_reserved": 0, "fusion_lon": 0.0, "lat": 38.90492016666666, "is_disabled": 0, "name": "67e31ed7dc07f7dd2691746396a6a24e", "fusion_lat": 0.0, "rental_uris": {"ios": "https://dc.lft.to/lastmile_qr_scan", "android": "https://dc.lft.to/lastmile_qr_scan"}, "lon": -77.06013416666667, "type": "electric_scooter"}, {"bike_id": "237f82430f0ba69d956157274e32235d", "is_reserved": 0, "fusion_lon": 0.0, "lat": 38.899130666666665, "is_disabled": 0, "name": "237f82430f0ba69d956157274e32235d", "fusion_lat": 0.0, "rental_uris": {"ios": "https://dc.lft.to/lastmile_qr_scan", "android": "https://dc.lft.to/lastmile_qr_scan"}, "lon": -76.93350933333333, "type": "electric_scooter"}, {"bike_id": "0d5638f13012ab16cfdb05c9875f3e4b", "is_reserved": 0, "fusion_lon": 0.0, "lat": 38.90962533333333, "is_disabled": 0, "name": "0d5638f13012ab16cfdb05c9875f3e4b", "fusion_lat": 0.0, "rental_uris": {"ios": "https://dc.lft.to/lastmile_qr_scan", "android": "https://dc.lft.to/lastmile_qr_scan"}, "lon": -77.015344, "type": "electric_scooter"}, {"bike_id": "b1df9e1702251c0a88003be518f68f99", "is_reserved": 0, "fusion_lon": 0.0, "lat": 38.875014166666666, "is_disabled": 0, "name": "b1df9e1702251c0a88003be518f68f99", "fusion_lat": 0.0, "rental_uris": {"ios": "https://dc.lft.to/lastmile_qr_scan", "android": "https://dc.lft.to/lastmile_qr_scan"}, "lon": -76.99798266666667, "type": "electric_scooter"}, {"bike_id": "116dd5c1353325619e9b125190ac9e6e", "is_reserved": 0, "fusion_lon": 0.0, "lat": 38.858146166666664, "is_disabled": 0, "name": "116dd5c1353325619e9b125190ac9e6e", "fusion_lat": 0.0, "rental_uris": {"ios": "https://dc.lft.to/lastmile_qr_scan", "android": "https://dc.lft.to/lastmile_qr_scan"}, "lon": -76.9898705, "type": "electric_scooter"}, {"bike_id": "cf4ddf25c8feb1b14d2254357f33eb4a", "is_reserved": 0, "fusion_lon": 0.0, "lat": 38.90381133333333, "is_disabled": 0, "name": "cf4ddf25c8feb1b14d2254357f33eb4a", "fusion_lat": 0.0, "rental_uris": {"ios": "https://dc.lft.to/lastmile_qr_scan", "android": "https://dc.lft.to/lastmile_qr_scan"}, "lon": -77.04503716666666, "type": "electric_scooter"}, {"bike_id": "2ab855838edbd086efc98428eae2e760", "is_reserved": 0, "fusion_lon": 0.0, "lat": 38.903796666666665, "is_disabled": 0, "name": "2ab855838edbd086efc98428eae2e760", "fusion_lat": 0.0, "rental_uris": {"ios": "https://dc.lft.to/lastmile_qr_scan", "android": "https://dc.lft.to/lastmile_qr_scan"}, "lon": -77.04196466666667, "type": "electric_scooter"}, {"bike_id": "74bad34b65c7d884f77e0c1973106ff5", "is_reserved": 0, "fusion_lon": 0.0, "lat": 38.88522966666667, "is_disabled": 0, "name": "74bad34b65c7d884f77e0c1973106ff5", "fusion_lat": 0.0, "rental_uris": {"ios": "https://dc.lft.to/lastmile_qr_scan", "android": "https://dc.lft.to/lastmile_qr_scan"}, "lon": -77.03337966666666, "type": "electric_scooter"}, {"bike_id": "01f0cc33af49df2bfbdda7a7b7f508bf", "is_reserved": 0, "fusion_lon": 0.0, "lat": 38.904194833333335, "is_disabled": 0, "name": "01f0cc33af49df2bfbdda7a7b7f508bf", "fusion_lat": 0.0, "rental_uris": {"ios": "https://dc.lft.to/lastmile_qr_scan", "android": "https://dc.lft.to/lastmile_qr_scan"}, "lon": -77.04036583333334, "type": "electric_scooter"}, {"bike_id": "da3910a27caf3e3b67e11e8a2a39eca6", "is_reserved": 0, "fusion_lon": 0.0, "lat": 38.90594133333333, "is_disabled": 0, "name": "da3910a27caf3e3b67e11e8a2a39eca6", "fusion_lat": 0.0, "rental_uris": {"ios": "https://dc.lft.to/lastmile_qr_scan", "android": "https://dc.lft.to/lastmile_qr_scan"}, "lon": -77.00288716666667, "type": "electric_scooter"}, {"bike_id": "04a945a1e5f6ed9a9ba5b7f580af4f28", "is_reserved": 0, "fusion_lon": 0.0, "lat": 38.92171, "is_disabled": 0, "name": "04a945a1e5f6ed9a9ba5b7f580af4f28", "fusion_lat": 0.0, "rental_uris": {"ios": "https://dc.lft.to/lastmile_qr_scan", "android": "https://dc.lft.to/lastmile_qr_scan"}, "lon": -77.043487, "type": "electric_scooter"}, {"bike_id": "1c8835d05f8b091ca9d1455c4382948e", "is_reserved": 0, "fusion_lon": 0.0, "lat": 38.88421316666667, "is_disabled": 0, "name": "1c8835d05f8b091ca9d1455c4382948e", "fusion_lat": 0.0, "rental_uris": {"ios": "https://dc.lft.to/lastmile_qr_scan", "android": "https://dc.lft.to/lastmile_qr_scan"}, "lon": -77.02609033333333, "type": "electric_scooter"}, {"bike_id": "daf434884af20ca782b6eaf5a83f18c9", "is_reserved": 0, "fusion_lon": 0.0, "lat": 38.954916, "is_disabled": 0, "name": "daf434884af20ca782b6eaf5a83f18c9", "fusion_lat": 0.0, "rental_uris": {"ios": "https://dc.lft.to/lastmile_qr_scan", "android": "https://dc.lft.to/lastmile_qr_scan"}, "lon": -77.06568533333333, "type": "electric_scooter"}, {"bike_id": "0b7602a2edfb9d2ce39bb2a46ea63628", "is_reserved": 0, "fusion_lon": 0.0, "lat": 38.866573, "is_disabled": 0, "name": "0b7602a2edfb9d2ce39bb2a46ea63628", "fusion_lat": 0.0, "rental_uris": {"ios": "https://dc.lft.to/lastmile_qr_scan", "android": "https://dc.lft.to/lastmile_qr_scan"}, "lon": -76.98883883333333, "type": "electric_scooter"}, {"bike_id": "bfc80633dadd5e12e21cb3cf37cf9c56", "is_reserved": 0, "fusion_lon": 0.0, "lat": 38.879166, "is_disabled": 0, "name": "bfc80633dadd5e12e21cb3cf37cf9c56", "fusion_lat": 0.0, "rental_uris": {"ios": "https://dc.lft.to/lastmile_qr_scan", "android": "https://dc.lft.to/lastmile_qr_scan"}, "lon": -77.00587766666666, "type": "electric_scooter"}, {"bike_id": "d1558e32cf3856850255eb7bbd824bbd", "is_reserved": 0, "fusion_lon": 0.0, "lat": 38.8922425, "is_disabled": 0, "name": "d1558e32cf3856850255eb7bbd824bbd", "fusion_lat": 0.0, "rental_uris": {"ios": "https://dc.lft.to/lastmile_qr_scan", "android": "https://dc.lft.to/lastmile_qr_scan"}, "lon": -77.03166166666666, "type": "electric_scooter"}, {"bike_id": "07af9f2ab84bb2afc227f5ff0a7b5018", "is_reserved": 0, "fusion_lon": 0.0, "lat": 38.899676, "is_disabled": 0, "name": "07af9f2ab84bb2afc227f5ff0a7b5018", "fusion_lat": 0.0, "rental_uris": {"ios": "https://dc.lft.to/lastmile_qr_scan", "android": "https://dc.lft.to/lastmile_qr_scan"}, "lon": -77.02192166666667, "type": "electric_scooter"}, {"bike_id": "bcd9c11c70ba3efb8ed14ddee546b251", "is_reserved": 0, "fusion_lon": 0.0, "lat": 38.86540383333333, "is_disabled": 0, "name": "bcd9c11c70ba3efb8ed14ddee546b251", "fusion_lat": 0.0, "rental_uris": {"ios": "https://dc.lft.to/lastmile_qr_scan", "android": "https://dc.lft.to/lastmile_qr_scan"}, "lon": -76.9871155, "type": "electric_scooter"}, {"bike_id": "2ae1bd92b5f701e46e1e5107932aa735", "is_reserved": 0, "fusion_lon": 0.0, "lat": 38.812523, "is_disabled": 0, "name": "2ae1bd92b5f701e46e1e5107932aa735", "fusion_lat": 0.0, "rental_uris": {"ios": "https://dc.lft.to/lastmile_qr_scan", "android": "https://dc.lft.to/lastmile_qr_scan"}, "lon": -77.11764933333333, "type": "electric_bike"}, {"bike_id": "e1b99b0ad59d1ddfd3fc17f6cd715f41", "is_reserved": 0, "fusion_lon": 0.0, "lat": 38.90398833333333, "is_disabled": 0, "name": "e1b99b0ad59d1ddfd3fc17f6cd715f41", "fusion_lat": 0.0, "rental_uris": {"ios": "https://dc.lft.to/lastmile_qr_scan", "android": "https://dc.lft.to/lastmile_qr_scan"}, "lon": -77.0433545, "type": "electric_scooter"}, {"bike_id": "4114bb06ff0ab4925d6d6e7b6feaff05", "is_reserved": 0, "fusion_lon": 0.0, "lat": 38.922982, "is_disabled": 0, "name": "4114bb06ff0ab4925d6d6e7b6feaff05", "fusion_lat": 0.0, "rental_uris": {"ios": "https://dc.lft.to/lastmile_qr_scan", "android": "https://dc.lft.to/lastmile_qr_scan"}, "lon": -77.04152533333334, "type": "electric_scooter"}, {"bike_id": "ea3f0838d548ab7ee26172399c10e2a6", "is_reserved": 0, "fusion_lon": 0.0, "lat": 38.916728, "is_disabled": 0, "name": "ea3f0838d548ab7ee26172399c10e2a6", "fusion_lat": 0.0, "rental_uris": {"ios": "https://dc.lft.to/lastmile_qr_scan", "android": "https://dc.lft.to/lastmile_qr_scan"}, "lon": -77.02303916666666, "type": "electric_scooter"}, {"bike_id": "5c95fe317e105425f48a185c94006e8f", "is_reserved": 0, "fusion_lon": 0.0, "lat": 38.91261316666667, "is_disabled": 0, "name": "5c95fe317e105425f48a185c94006e8f", "fusion_lat": 0.0, "rental_uris": {"ios": "https://dc.lft.to/lastmile_qr_scan", "android": "https://dc.lft.to/lastmile_qr_scan"}, "lon": -77.03148933333334, "type": "electric_scooter"}, {"bike_id": "af5115c8e0a46cdee5aa82bf6bb00def", "is_reserved": 0, "fusion_lon": 0.0, "lat": 38.9205445, "is_disabled": 0, "name": "af5115c8e0a46cdee5aa82bf6bb00def", "fusion_lat": 0.0, "rental_uris": {"ios": "https://dc.lft.to/lastmile_qr_scan", "android": "https://dc.lft.to/lastmile_qr_scan"}, "lon": -77.03457683333333, "type": "electric_scooter"}, {"bike_id": "1eb62abab80961e966673b2d7f49e191", "is_reserved": 0, "fusion_lon": 0.0, "lat": 38.906655, "is_disabled": 0, "name": "1eb62abab80961e966673b2d7f49e191", "fusion_lat": 0.0, "rental_uris": {"ios": "https://dc.lft.to/lastmile_qr_scan", "android": "https://dc.lft.to/lastmile_qr_scan"}, "lon": -77.03870883333333, "type": "electric_scooter"}, {"bike_id": "7f90cb411a93dca9e14ecff9f28a3c3d", "is_reserved": 0, "fusion_lon": 0.0, "lat": 38.911478333333335, "is_disabled": 0, "name": "7f90cb411a93dca9e14ecff9f28a3c3d", "fusion_lat": 0.0, "rental_uris": {"ios": "https://dc.lft.to/lastmile_qr_scan", "android": "https://dc.lft.to/lastmile_qr_scan"}, "lon": -77.02811483333333, "type": "electric_scooter"}, {"bike_id": "949a938334ac820343748b8dab0602e5", "is_reserved": 0, "fusion_lon": 0.0, "lat": 38.938953, "is_disabled": 0, "name": "949a938334ac820343748b8dab0602e5", "fusion_lat": 0.0, "rental_uris": {"ios": "https://dc.lft.to/lastmile_qr_scan", "android": "https://dc.lft.to/lastmile_qr_scan"}, "lon": -77.0297115, "type": "electric_scooter"}, {"bike_id": "a692f115ef8180e237bce46d6c378942", "is_reserved": 0, "fusion_lon": 0.0, "lat": 38.92243933333334, "is_disabled": 0, "name": "a692f115ef8180e237bce46d6c378942", "fusion_lat": 0.0, "rental_uris": {"ios": "https://dc.lft.to/lastmile_qr_scan", "android": "https://dc.lft.to/lastmile_qr_scan"}, "lon": -77.03075283333334, "type": "electric_scooter"}, {"bike_id": "fa80681603a8c9f0084c2fa9db0e6f53", "is_reserved": 0, "fusion_lon": 0.0, "lat": 38.87502716666667, "is_disabled": 0, "name": "fa80681603a8c9f0084c2fa9db0e6f53", "fusion_lat": 0.0, "rental_uris": {"ios": "https://dc.lft.to/lastmile_qr_scan", "android": "https://dc.lft.to/lastmile_qr_scan"}, "lon": -77.02587833333334, "type": "electric_bike"},