{"data": {"bikes": [{"is_disabled": 0, "fusion_lon": 0.0, "fusion_lat": 0.0, "lat": 38.94147783333333, "type": "electric_bike", "lon": -77.00197033333333, "bike_id": "e99405531c5065fac18f47ecc8063998", "rental_uris": {"android": "https://dc.lft.to/lastmile_qr_scan", "ios": "https://dc.lft.to/lastmile_qr_scan"}, "name": "e99405531c5065fac18f47ecc8063998", "is_reserved": 0}, {"is_disabled": 0, "fusion_lon": 0.0, "fusion_lat": 0.0, "lat": 38.9347505, "type": "electric_scooter", "lon": -77.07271716666666, "bike_id": "8f4c8066ecbd2f147ba21febef131645", "rental_uris": {"android": "https://dc.lft.to/lastmile_qr_scan", "ios": "https://dc.lft.to/lastmile_qr_scan"}, "name": "8f4c8066ecbd2f147ba21febef131645", "is_reserved": 0}, {"is_disabled": 0, "fusion_lon": 0.0, "fusion_lat": 0.0, "lat": 38.92791616666667, "type": "electric_scooter", "lon": -77.032085, "bike_id": "793c36f82f2ffd8a6133ada8713b4d38", "rental_uris": {"android": "https://dc.lft.to/lastmile_qr_scan", "ios": "https://dc.lft.to/lastmile_qr_scan"}, "name": "793c36f82f2ffd8a6133ada8713b4d38", "is_reserved": 0}, {"is_disabled": 0, "fusion_lon": 0.0, "fusion_lat": 0.0, "lat": 38.935316, "type": "electric_scooter", "lon": -77.0235925, "bike_id": "a66c3c7112ddf254254a0a8b09c68033", "rental_uris": {"android": "https://dc.lft.to/lastmile_qr_scan", "ios": "https://dc.lft.to/lastmile_qr_scan"}, "name": "a66c3c7112ddf254254a0a8b09c68033", "is_reserved": 0}, {"is_disabled": 0, "fusion_lon": 0.0, "fusion_lat": 0.0, "lat": 38.936618, "type": "electric_scooter", "lon": -77.0363385, "bike_id": "cbd7535635eaf0fd91e87257c8def8dc", "rental_uris": {"android": "https://dc.lft.to/lastmile_qr_scan", "ios": "https://dc.lft.to/lastmile_qr_scan"}, "name": "cbd7535635eaf0fd91e87257c8def8dc", "is_reserved": 0}, {"is_disabled": 0, "fusion_lon": 0.0, "fusion_lat": 0.0, "lat": 38.914803166666665, "type": "electric_scooter", "lon": -76.98369666666666, "bike_id": "b011a166f63c28e0408e91c7dbcbc1bd", "rental_uris": {"android": "https://dc.lft.to/lastmile_qr_scan", "ios": "https://dc.lft.to/lastmile_qr_scan"}, "name": "b011a166f63c28e0408e91c7dbcbc1bd", "is_reserved": 0}, {"is_disabled": 0, "fusion_lon": 0.0, "fusion_lat": 0.0, "lat": 38.9191365, "type": "electric_scooter", "lon": -77.07037783333334, "bike_id": "05257539f2b91b46ce0e7b8947a61c80", "rental_uris": {"android": "https://dc.lft.to/lastmile_qr_scan", "ios": "https://dc.lft.to/lastmile_qr_scan"}, "name": "05257539f2b91b46ce0e7b8947a61c80", "is_reserved": 0}, {"is_disabled": 0, "fusion_lon": 0.0, "fusion_lat": 0.0, "lat": 38.92182916666667, "type": "electric_scooter", "lon": -77.03798666666667, "bike_id": "029b62ed759e7ac1bbc466af11921455", "rental_uris": {"android": "https://dc.lft.to/lastmile_qr_scan", "ios": "https://dc.lft.to/lastmile_qr_scan"}, "name": "029b62ed759e7ac1bbc466af11921455", "is_reserved": 0}, {"is_disabled": 0, "fusion_lon": 0.0, "fusion_lat": 0.0, "lat": 38.9655725, "type": "electric_bike", "lon": -77.02294266666667, "bike_id": "f67b96943ea8c0668464ad75e9c3aa22", "rental_uris": {"android": "https://dc.lft.to/lastmile_qr_scan", "ios": "https://dc.lft.to/lastmile_qr_scan"}, "name": "f67b96943ea8c0668464ad75e9c3aa22", "is_reserved": 0}, {"is_disabled": 0, "fusion_lon": 0.0, "fusion_lat": 0.0, "lat": 38.92001233333333, "type": "electric_scooter", "lon": -77.03230216666667, "bike_id": "dfcea8ff3dc221bae0259ee449e92d7f", "rental_uris": {"android": "https://dc.lft.to/lastmile_qr_scan", "ios": "https://dc.lft.to/lastmile_qr_scan"}, "name": "dfcea8ff3dc221bae0259ee449e92d7f", "is_reserved": 0}, {"is_disabled": 0, "fusion_lon": 0.0, "fusion_lat": 0.0, "lat": 38.920071, "type": "electric_scooter", "lon": -77.0322985, "bike_id": "bbd44a546a342ce6240f602d8e83c664", "rental_uris": {"android": "https://dc.lft.to/lastmile_qr_scan", "ios": "https://dc.lft.to/lastmile_qr_scan"}, "name": "bbd44a546a342ce6240f602d8e83c664", "is_reserved": 0}, {"is_disabled": 0, "fusion_lon": 0.0, "fusion_lat": 0.0, "lat": 38.907559166666665, "type": "electric_scooter", "lon": -77.00312366666667, "bike_id": "23e47ce02576d590e608e8d31861dbb3", "rental_uris": {"android": "https://dc.lft.to/lastmile_qr_scan", "ios": "https://dc.lft.to/lastmile_qr_scan"}, "name": "23e47ce02576d590e608e8d31861dbb3", "is_reserved": 0}, {"is_disabled": 0, "fusion_lon": 0.0, "fusion_lat": 0.0, "lat": 38.93243016666667, "type": "electric_scooter", "lon": -77.04016983333334, "bike_id": "f8b04e330ddc021ca63afe2c17b3d459", "rental_uris": {"android": "https://dc.lft.to/lastmile_qr_scan", "ios": "https://dc.lft.to/lastmile_qr_scan"}, "name": "f8b04e330ddc021ca63afe2c17b3d459", "is_reserved": 0}, {"is_disabled": 0, "fusion_lon": 0.0, "fusion_lat": 0.0, "lat": 38.923036333333336, "type": "electric_scooter", "lon": -77.0310525, "bike_id": "d0b01bf152182bfd5a1d55f3da3a6115", "rental_uris": {"android": "https://dc.lft.to/lastmile_qr_scan", "ios": "https://dc.lft.to/lastmile_qr_scan"}, "name": "d0b01bf152182bfd5a1d55f3da3a6115", "is_reserved": 0}, {"is_disabled": 0, "fusion_lon": 0.0, "fusion_lat": 0.0, "lat": 38.91548616666667, "type": "electric_scooter", "lon": -77.0388255, "bike_id": "de83b0929f9be385cf37ab6a4bbcacc6", "rental_uris": {"android": "https://dc.lft.to/lastmile_qr_scan", "ios": "https://dc.lft.to/lastmile_qr_scan"}, "name": "de83b0929f9be385cf37ab6a4bbcacc6", "is_reserved": 0}, {"is_disabled": 0, "fusion_lon": 0.0, "fusion_lat": 0.0, "lat": 38.90514983333333, "type": "electric_scooter", "lon": -77.03862933333333, "bike_id": "82cd86a8164122b7b15b7cbf6fd12dc5", "rental_uris": {"android": "https://dc.lft.to/lastmile_qr_scan", "ios": "https://dc.lft.to/lastmile_qr_scan"}, "name": "82cd86a8164122b7b15b7cbf6fd12dc5", "is_reserved": 0}, {"is_disabled": 0, "fusion_lon": 0.0, "fusion_lat": 0.0, "lat": 38.91889066666667, "type": "electric_scooter", "lon": -77.0447645, "bike_id": "540b29a6943b3f798bd9213cd91fcd48", "rental_uris": {"android": "https://dc.lft.to/lastmile_qr_scan", "ios": "https://dc.lft.to/lastmile_qr_scan"}, "name": "540b29a6943b3f798bd9213cd91fcd48", "is_reserved": 0}, {"is_disabled": 0, "fusion_lon": 0.0, "fusion_lat": 0.0, "lat": 38.92371633333333, "type": "electric_scooter", "lon": -77.05030916666666, "bike_id": "e7446f68a64c271c90e82e0ba626f8ad", "rental_uris": {"android": "https://dc.lft.to/lastmile_qr_scan", "ios": "https://dc.lft.to/lastmile_qr_scan"}, "name": "e7446f68a64c271c90e82e0ba626f8ad", "is_reserved": 0}, {"is_disabled": 0, "fusion_lon": 0.0, "fusion_lat": 0.0, "lat": 38.9226945, "type": "electric_scooter", "lon": -77.03672183333333, "bike_id": "8c0fee53f9d41f43164d8457ce2400b2", "rental_uris": {"android": "https://dc.lft.to/lastmile_qr_scan", "ios": "https://dc.lft.to/lastmile_qr_scan"}, "name": "8c0fee53f9d41f43164d8457ce2400b2", "is_reserved": 0}, {"is_disabled": 0, "fusion_lon": 0.0, "fusion_lat": 0.0, "lat": 38.9038765, "type": "electric_scooter", "lon": -77.040158, "bike_id": "6fe967cf918f90385106c563cb219fa2", "rental_uris": {"android": "https://dc.lft.to/lastmile_qr_scan", "ios": "https://dc.lft.to/lastmile_qr_scan"}, "name": "6fe967cf918f90385106c563cb219fa2", "is_reserved": 0}, {"is_disabled": 0, "fusion_lon": 0.0, "fusion_lat": 0.0, "lat": 38.923710166666666, "type": "electric_scooter", "lon": -77.0298535, "bike_id": "a6a2731d3874e503fc640092f191b326", "rental_uris": {"android": "https://dc.lft.to/lastmile_qr_scan", "ios": "https://dc.lft.to/lastmile_qr_scan"}, "name": "a6a2731d3874e503fc640092f191b326", "is_reserved": 0}, {"is_disabled": 0, "fusion_lon": 0.0, "fusion_lat": 0.0, "lat": 38.90162616666667, "type": "electric_scooter", "lon": -77.05907983333333, "bike_id": "2590bf3b87d23446a1475a118eae745a", "rental_uris": {"android": "https://dc.lft.to/lastmile_qr_scan", "ios": "https://dc.lft.to/lastmile_qr_scan"}, "name": "2590bf3b87d23446a1475a118eae745a", "is_reserved": 0}, {"is_disabled": 0, "fusion_lon": 0.0, "fusion_lat": 0.0, "lat": 38.905582833333334, "type": "electric_scooter", "lon": -77.04650033333333, "bike_id": "e782355d9ba4e1c7ff5cbb7a385f1f03", "rental_uris": {"android": "https://dc.lft.to/lastmile_qr_scan", "ios": "https://dc.lft.to/lastmile_qr_scan"}, "name": "e782355d9ba4e1c7ff5cbb7a385f1f03", "is_reserved": 0}, {"is_disabled": 0, "fusion_lon": 0.0, "fusion_lat": 0.0, "lat": 38.92171616666667, "type": "electric_scooter", "lon": -77.055307, "bike_id": "0227749d34641e33b650d3a32e86b1ce", "rental_uris": {"android": "https://dc.lft.to/lastmile_qr_scan", "ios": "https://dc.lft.to/lastmile_qr_scan"}, "name": "0227749d34641e33b650d3a32e86b1ce", "is_reserved": 0}, {"is_disabled": 0, "fusion_lon": 0.0, "fusion_lat": 0.0, "lat": 38.91626333333333, "type": "electric_scooter", "lon": -77.02559616666667, "bike_id": "def0cbb38b7d169ee81f25841a58e790", "rental_uris": {"android": "https://dc.lft.to/lastmile_qr_scan", "ios": "https://dc.lft.to/lastmile_qr_scan"}, "name": "def0cbb38b7d169ee81f25841a58e790", "is_reserved": 0}, {"is_disabled": 0, "fusion_lon": 0.0, "fusion_lat": 0.0, "lat": 38.9175955, "type": "electric_scooter", "lon": -77.00498166666667, "bike_id": "ed0feb08da6c95877b02dd68716e84f3", "rental_uris": {"android": "https://dc.lft.to/lastmile_qr_scan", "ios": "https://dc.lft.to/lastmile_qr_scan"}, "name": "ed0feb08da6c95877b02dd68716e84f3", "is_reserved": 0}, {"is_disabled": 0, "fusion_lon": 0.0, "fusion_lat": 0.0, "lat": 38.893517, "type": "electric_scooter", "lon": -76.94948733333334, "bike_id": "a2b690e98cfe019c01e9434266d51b3c", "rental_uris": {"android": "https://dc.lft.to/lastmile_qr_scan", "ios": "https://dc.lft.to/lastmile_qr_scan"}, "name": "a2b690e98cfe019c01e9434266d51b3c", "is_reserved": 0}, {"is_disabled": 0, "fusion_lon": 0.0, "fusion_lat": 0.0, "lat": 38.935475833333335, "type": "electric_scooter", "lon": -77.0285165, "bike_id": "49bef5b925a76bde79d2c5105e304974", "rental_uris": {"android": "https://dc.lft.to/lastmile_qr_scan", "ios": "https://dc.lft.to/lastmile_qr_scan"}, "name": "49bef5b925a76bde79d2c5105e304974", "is_reserved": 0}, {"is_disabled": 0, "fusion_lon": 0.0, "fusion_lat": 0.0, "lat": 38.94923416666666, "type": "electric_scooter", "lon": -77.01858416666667, "bike_id": "6cb13b001dbc84910a16bc9b6662e46a", "rental_uris": {"android": "https://dc.lft.to/lastmile_qr_scan", "ios": "https://dc.lft.to/lastmile_qr_scan"}, "name": "6cb13b001dbc84910a16bc9b6662e46a", "is_reserved": 0}, {"is_disabled": 0, "fusion_lon": 0.0, "fusion_lat": 0.0, "lat": 38.905619, "type": "electric_scooter", "lon": -77.06612516666667, "bike_id": "e5c9e73f30428aafc548e60742f06650", "rental_uris": {"android": "https://dc.lft.to/lastmile_qr_scan", "ios": "https://dc.lft.to/lastmile_qr_scan"}, "name": "e5c9e73f30428aafc548e60742f06650", "is_reserved": 0}, {"is_disabled": 0, "fusion_lon": 0.0, "fusion_lat": 0.0, "lat": 38.900184833333334, "type": "electric_scooter", "lon": -77.043921, "bike_id": "c72191364d5c65b9c3785e58a73e48d4", "rental_uris": {"android": "https://dc.lft.to/lastmile_qr_scan", "ios": "https://dc.lft.to/lastmile_qr_scan"}, "name": "c72191364d5c65b9c3785e58a73e48d4", "is_reserved": 0}, {"is_disabled": 0, "fusion_lon": 0.0, "fusion_lat": 0.0, "lat": 38.907683166666665, "type": "electric_scooter", "lon": -77.03466816666666, "bike_id": "e25b857d040a8ff753dd03897b24a8fe", "rental_uris": {"android": "https://dc.lft.to/lastmile_qr_scan", "ios": "https://dc.lft.to/lastmile_qr_scan"}, "name": "e25b857d040a8ff753dd03897b24a8fe", "is_reserved": 0}, {"is_disabled": 0, "fusion_lon": 0.0, "fusion_lat": 0.0, "lat": 38.902826166666664, "type": "electric_scooter", "lon": -76.9740515, "bike_id": "b9f4f6e39bedad8fbd6d6bf5852372e0", "rental_uris": {"android": "https://dc.lft.to/lastmile_qr_scan", "ios": "https://dc.lft.to/lastmile_qr_scan"}, "name": "b9f4f6e39bedad8fbd6d6bf5852372e0", "is_reserved": 0}, {"is_disabled": 0, "fusion_lon": 0.0, "fusion_lat": 0.0, "lat": 38.914833333333334, "type": "electric_scooter", "lon": -77.03294666666666, "bike_id": "17009c4df4d5546fc906e9ef7ae96f49", "rental_uris": {"android": "https://dc.lft.to/lastmile_qr_scan", "ios": "https://dc.lft.to/lastmile_qr_scan"}, "name": "17009c4df4d5546fc906e9ef7ae96f49", "is_reserved": 0}, {"is_disabled": 0, "fusion_lon": 0.0, "fusion_lat": 0.0, "lat": 38.878621833333334, "type": "electric_scooter", "lon": -77.00738233333334, "bike_id": "1a7f66899ce7d2a8422d74678d065713", "rental_uris": {"android": "https://dc.lft.to/lastmile_qr_scan", "ios": "https://dc.lft.to/lastmile_qr_scan"}, "name": "1a7f66899ce7d2a8422d74678d065713", "is_reserved": 0}, {"is_disabled": 0, "fusion_lon": 0.0, "fusion_lat": 0.0, "lat": 38.8430185, "type": "electric_bike", "lon": -77.0765455, "bike_id": "036068e0bd6ddcf2a0108e747e505f66", "rental_uris": {"android": "https://dc.lft.to/lastmile_qr_scan", "ios": "https://dc.lft.to/lastmile_qr_scan"}, "name": "036068e0bd6ddcf2a0108e747e505f66", "is_reserved": 0}, {"is_disabled": 0, "fusion_lon": 0.0, "fusion_lat": 0.0, "lat": 38.88047433333333, "type": "electric_bike", "lon": -76.99009116666667, "bike_id": "575cdc3cb774a80bcb31fcc383ddd910", "rental_uris": {"android": "https://dc.lft.to/lastmile_qr_scan", "ios": "https://dc.lft.to/lastmile_qr_scan"}, "name": "575cdc3cb774a80bcb31fcc383ddd910", "is_reserved": 0}, {"is_disabled": 0, "fusion_lon": 0.0, "fusion_lat": 0.0, "lat": 38.90024716666667, "type": "electric_scooter", "lon": -77.011864, "bike_id": "5f102a9ed15735dc057e7ae32eec8261", "rental_uris": {"android": "https://dc.lft.to/lastmile_qr_scan", "ios": "https://dc.lft.to/lastmile_qr_scan"}, "name": "5f102a9ed15735dc057e7ae32eec8261", "is_reserved": 0}, {"is_disabled": 0, "fusion_lon": 0.0, "fusion_lat": 0.0, "lat": 38.89898433333333, "type": "electric_bike", "lon": -77.0216795, "bike_id": "dc1c9af6cbe8bf484f8d5a505784b8c2", "rental_uris": {"android": "https://dc.lft.to/lastmile_qr_scan", "ios": "https://dc.lft.to/lastmile_qr_scan"}, "name": "dc1c9af6cbe8bf484f8d5a505784b8c2", "is_reserved": 0}, {"is_disabled": 0, "fusion_lon": 0.0, "fusion_lat": 0.0, "lat": 38.89927266666667, "type": "electric_scooter", "lon": -77.04029583333333, "bike_id": "a1ce66ef730266e3a939a7b00c357bbe", "rental_uris": {"android": "https://dc.lft.to/lastmile_qr_scan", "ios": "https://dc.lft.to/lastmile_qr_scan"}, "name": "a1ce66ef730266e3a939a7b00c357bbe", "is_reserved": 0}, {"is_disabled": 0, "fusion_lon": 0.0, "fusion_lat": 0.0, "lat": 38.916085, "type": "electric_scooter", "lon": -77.01117666666667, "bike_id": "4158886a3f084bd6bdca55a7ca82674b", "rental_uris": {"android": "https://dc.lft.to/lastmile_qr_scan", "ios": "https://dc.lft.to/lastmile_qr_scan"}, "name": "4158886a3f084bd6bdca55a7ca82674b", "is_reserved": 0}, {"is_disabled": 0, "fusion_lon": 0.0, "fusion_lat": 0.0, "lat": 38.924160666666666, "type": "electric_scooter", "lon": -77.050783, "bike_id": "25ef51c0fc4792cc8844b942da74a68b", "rental_uris": {"android": "https://dc.lft.to/lastmile_qr_scan", "ios": "https://dc.lft.to/lastmile_qr_scan"}, "name": "25ef51c0fc4792cc8844b942da74a68b", "is_reserved": 0}, {"is_disabled": 0, "fusion_lon": 0.0, "fusion_lat": 0.0, "lat": 38.86621133333333, "type": "electric_scooter", "lon": -76.98717333333333, "bike_id": "7845fb9e35af7509e021856a9b21953b", "rental_uris": {"android": "https://dc.lft.to/lastmile_qr_scan", "ios": "https://dc.lft.to/lastmile_qr_scan"}, "name": "7845fb9e35af7509e021856a9b21953b", "is_reserved": 0}, {"is_disabled": 0, "fusion_lon": 0.0, "fusion_lat": 0.0, "lat": 38.876862333333335, "type": "electric_scooter", "lon": -77.01611366666667, "bike_id": "77faad87d88614de35e3f6022df244e2", "rental_uris": {"android": "https://dc.lft.to/lastmile_qr_scan", "ios": "https://dc.lft.to/lastmile_qr_scan"}, "name": "77faad87d88614de35e3f6022df244e2", "is_reserved": 0}, {"is_disabled": 0, "fusion_lon": 0.0, "fusion_lat": 0.0, "lat": 38.90021333333333, "type": "electric_scooter", "lon": -76.99117616666666, "bike_id": "3c548e15561d3898c923939bd867c9c0", "rental_uris": {"android": "https://dc.lft.to/lastmile_qr_scan", "ios": "https://dc.lft.to/lastmile_qr_scan"}, "name": "3c548e15561d3898c923939bd867c9c0", "is_reserved": 0}, {"is_disabled": 0, "fusion_lon": 0.0, "fusion_lat": 0.0, "lat": 38.8922425, "type": "electric_scooter", "lon": -77.048041, "bike_id": "aa853540ae27ff175f0f73daead5c2b9", "rental_uris": {"android": "https://dc.lft.to/lastmile_qr_scan", "ios": "https://dc.lft.to/lastmile_qr_scan"}, "name": "aa853540ae27ff175f0f73daead5c2b9", "is_reserved": 0}, {"is_disabled": 0, "fusion_lon": 0.0, "fusion_lat": 0.0, "lat": 38.90986683333333, "type": "electric_scooter", "lon": -77.03185083333334, "bike_id": "cc33c2a7e8b19d15793607c92186c41a", "rental_uris": {"android": "https://dc.lft.to/lastmile_qr_scan", "ios": "https://dc.lft.to/lastmile_qr_scan"}, "name": "cc33c2a7e8b19d15793607c92186c41a", "is_reserved": 0}, {"is_disabled": 0, "fusion_lon": 0.0, "fusion_lat": 0.0, "lat": 38.90666083333333, "type": "electric_scooter", "lon": -77.01206933333333, "bike_id": "a0233d65cd104181b4677139d23eed37", "rental_uris": {"android": "https://dc.lft.to/lastmile_qr_scan", "ios": "https://dc.lft.to/lastmile_qr_scan"}, "name": "a0233d65cd104181b4677139d23eed37", "is_reserved": 0}, {"is_disabled": 0, "fusion_lon": 0.0, "fusion_lat": 0.0, "lat": 38.8652105, "type": "electric_scooter", "lon": -76.98970366666667, "bike_id": "52a9f6703e218b10604da550103c9b46", "rental_uris": {"android": "https://dc.lft.to/lastmile_qr_scan", "ios": "https://dc.lft.to/lastmile_qr_scan"}, "name": "52a9f6703e218b10604da550103c9b46", "is_reserved": 0}, {"is_disabled": 0, "fusion_lon": 0.0, "fusion_lat": 0.0, "lat": 38.9023705, "type": "electric_scooter", "lon": -77.04731016666666, "bike_id": "59875dddcee0753d5f55db478e035904", "rental_uris": {"android": "https://dc.lft.to/lastmile_qr_scan", "ios": "https://dc.lft.to/lastmile_qr_scan"}, "name": "59875dddcee0753d5f55db478e035904", "is_reserved": 0}, {"is_disabled": 0, "fusion_lon": 0.0, "fusion_lat": 0.0, "lat": 38.896343333333334, "type": "electric_bike", "lon": -77.03336333333333, "bike_id": "184545cffbccfab7843839a65662bd78", "rental_uris": {"android": "https://dc.lft.to/lastmile_qr_scan", "ios": "https://dc.lft.to/lastmile_qr_scan"}, "name": "184545cffbccfab7843839a65662bd78", "is_reserved": 0}, {"is_disabled": 0, "fusion_lon": 0.0, "fusion_lat": 0.0, "lat": 38.89683483333334, "type": "electric_scooter", "lon": -76.93712366666666, "bike_id": "f5e18610883d68718c7842e1e5a60189", "rental_uris": {"android": "https://dc.lft.to/lastmile_qr_scan", "ios": "https://dc.lft.to/lastmile_qr_scan"}, "name": "f5e18610883d68718c7842e1e5a60189", "is_reserved": 0}, {"is_disabled": 0, "fusion_lon": 0.0, "fusion_lat": 0.0, "lat": 38.91184366666667, "type": "electric_scooter", "lon": -77.04150416666667, "bike_id": "b9660a36899b0a067ed9dd125073cefd", "rental_uris": {"android": "https://dc.lft.to/lastmile_qr_scan", "ios": "https://dc.lft.to/lastmile_qr_scan"}, "name": "b9660a36899b0a067ed9dd125073cefd", "is_reserved": 0}, {"is_disabled": 0, "fusion_lon": 0.0, "fusion_lat": 0.0, "lat": 38.90414083333334, "type": "electric_scooter", "lon": -77.05142666666667, "bike_id": "7b453e1a2c60d31745017e9f613db3e1", "rental_uris": {"android": "https://dc.lft.to/lastmile_qr_scan", "ios": "https://dc.lft.to/lastmile_qr_scan"}, "name": "7b453e1a2c60d31745017e9f613db3e1", "is_reserved": 0}, {"is_disabled": 0, "fusion_lon": 0.0, "fusion_lat": 0.0, "lat": 38.900065833333336, "type": "electric_scooter", "lon": -77.04485316666667, "bike_id": "424e4fbf6e93bb925c6221663e905cd3", "rental_uris": {"android": "https://dc.lft.to/lastmile_qr_scan", "ios": "https://dc.lft.to/lastmile_qr_scan"}, "name": "424e4fbf6e93bb925c6221663e905cd3", "is_reserved": 0}, {"is_disabled": 0, "fusion_lon": 0.0, "fusion_lat": 0.0, "lat": 38.91398733333333, "type": "electric_scooter", "lon": -77.029806, "bike_id": "61fddae727b9bdef746d13922b1170d2", "rental_uris": {"android": "https://dc.lft.to/lastmile_qr_scan", "ios": "https://dc.lft.to/lastmile_qr_scan"}, "name": "61fddae727b9bdef746d13922b1170d2", "is_reserved": 0}, {"is_disabled": 0, "fusion_lon": 0.0, "fusion_lat": 0.0, "lat": 38.897366, "type": "electric_scooter", "lon": -77.00938516666666, "bike_id": "0a791c8da7224e83dbc68ad393147fc1", "rental_uris": {"android": "https://dc.lft.to/lastmile_qr_scan", "ios": "https://dc.lft.to/lastmile_qr_scan"}, "name": "0a791c8da7224e83dbc68ad393147fc1", "is_reserved": 0}, {"is_disabled": 0, "fusion_lon": 0.0, "fusion_lat": 0.0, "lat": 38.9153925, "type": "electric_scooter", "lon": -77.0127075, "bike_id": "7fc0fc8a092c89d6d16cc631a00b47fa", "rental_uris": {"android": "https://dc.lft.to/lastmile_qr_scan", "ios": "https://dc.lft.to/lastmile_qr_scan"}, "name": "7fc0fc8a092c89d6d16cc631a00b47fa", "is_reserved": 0}, {"is_disabled": 0, "fusion_lon": 0.0, "fusion_lat": 0.0, "lat": 39.022976, "type": "electric_bike", "lon": -77.0210615, "bike_id": "3c56a2dafcfd5aebfd63c4df7e9dd0f7", "rental_uris": {"android": "https://dc.lft.to/lastmile_qr_scan", "ios": "https://dc.lft.to/lastmile_qr_scan"}, "name": "3c56a2dafcfd5aebfd63c4df7e9dd0f7", "is_reserved": 0}, {"is_disabled": 0, "fusion_lon": 0.0, "fusion_lat": 0.0, "lat": 38.898442333333335, "type": "electric_scooter", "lon": -76.94498566666667, "bike_id": "79773d1eb68a733957908e265e2c1ecf", "rental_uris": {"android": "https://dc.lft.to/lastmile_qr_scan", "ios": "https://dc.lft.to/lastmile_qr_scan"}, "name": "79773d1eb68a733957908e265e2c1ecf", "is_reserved": 0}, {"is_disabled": 0, "fusion_lon": 0.0, "fusion_lat": 0.0, "lat": 38.87655983333333, "type": "electric_scooter", "lon": -77.01589666666666, "bike_id": "948aec8122996a797b01c5c4d8df0401", "rental_uris": {"android": "https://dc.lft.to/lastmile_qr_scan", "ios": "https://dc.lft.to/lastmile_qr_scan"}, "name": "948aec8122996a797b01c5c4d8df0401", "is_reserved": 0}, {"is_disabled": 0, "fusion_lon": 0.0, "fusion_lat": 0.0, "lat": 38.93546966666667, "type": "electric_scooter", "lon": -77.0590455, "bike_id": "10a6bb810639815de0c7dae9143e3775", "rental_uris": {"android": "https://dc.lft.to/lastmile_qr_scan", "ios": "https://dc.lft.to/lastmile_qr_scan"}, "name": "10a6bb810639815de0c7dae9143e3775", "is_reserved": 0}, {"is_disabled": 0, "fusion_lon": 0.0, "fusion_lat": 0.0, "lat": 38.83042433333333, "type": "electric_scooter", "lon": -77.012364, "bike_id": "f46f10e0ae3ad4665710e3cac4679835", "rental_uris": {"android": "https://dc.lft.to/lastmile_qr_scan", "ios": "https://dc.lft.to/lastmile_qr_scan"}, "name": "f46f10e0ae3ad4665710e3cac4679835", "is_reserved": 0}, {"is_disabled": 0, "fusion_lon": 0.0, "fusion_lat": 0.0, "lat": 38.8951015, "type": "electric_scooter", "lon": -77.0228115, "bike_id": "0ce319692003aaf00a3c66e73eccd1e0", "rental_uris": {"android": "https://dc.lft.to/lastmile_qr_scan", "ios": "https://dc.lft.to/lastmile_qr_scan"}, "name": "0ce319692003aaf00a3c66e73eccd1e0", "is_reserved": 0}, {"is_disabled": 0, "fusion_lon": 0.0, "fusion_lat": 0.0, "lat": 38.89591016666667, "type": "electric_bike", "lon": -77.07100516666667, "bike_id": "bac713b5e3ad0f1a52778fc01a851e30", "rental_uris": {"android": "https://dc.lft.to/lastmile_qr_scan", "ios": "https://dc.lft.to/lastmile_qr_scan"}, "name": "bac713b5e3ad0f1a52778fc01a851e30", "is_reserved": 0}, {"is_disabled": 0, "fusion_lon": 0.0, "fusion_lat": 0.0, "lat": 38.918801333333334, "type": "electric_scooter", "lon": -77.043192, "bike_id": "f9a57200c60dbc41d5a128730edd2cda", "rental_uris": {"android": "https://dc.lft.to/lastmile_qr_scan", "ios": "https://dc.lft.to/lastmile_qr_scan"}, "name": "f9a57200c60dbc41d5a128730edd2cda", "is_reserved": 0}, {"is_disabled": 0, "fusion_lon": 0.0, "fusion_lat": 0.0, "lat": 38.91849933333334, "type": "electric_bike", "lon": -76.96088383333333, "bike_id": "6d037e4ef6c10d98192c9216b1d43ce3", "rental_uris": {"android": "https://dc.lft.to/lastmile_qr_scan", "ios": "https://dc.lft.to/lastmile_qr_scan"}, "name": "6d037e4ef6c10d98192c9216b1d43ce3", "is_reserved": 0}, {"is_disabled": 0, "fusion_lon": 0.0, "fusion_lat": 0.0, "lat": 38.88875616666667, "type": "electric_scooter", "lon": -76.95375966666667, "bike_id": "2ffb8e609d0a27c8fda0ae8ee647d165", "rental_uris": {"android": "https://dc.lft.to/lastmile_qr_scan", "ios": "https://dc.lft.to/lastmile_qr_scan"}, "name": "2ffb8e609d0a27c8fda0ae8ee647d165", "is_reserved": 0}, {"is_disabled": 0, "fusion_lon": 0.0, "fusion_lat": 0.0, "lat": 38.945475, "type": "electric_scooter", "lon": -77.04242616666667, "bike_id": "6cbbc8e8266ecfe9717738c718474f3e", "rental_uris": {"android": "https://dc.lft.to/lastmile_qr_scan", "ios": "https://dc.lft.to/lastmile_qr_scan"}, "name": "6cbbc8e8266ecfe9717738c718474f3e", "is_reserved": 0}, {"is_disabled": 0, "fusion_lon": 0.0, "fusion_lat": 0.0, "lat": 38.90317266666667, "type": "electric_bike", "lon": -76.9756615, "bike_id": "58a5849939643b65c371b6736d011cf9", "rental_uris": {"android": "https://dc.lft.to/lastmile_qr_scan", "ios": "https://dc.lft.to/lastmile_qr_scan"}, "name": "58a5849939643b65c371b6736d011cf9", "is_reserved": 0}, {"is_disabled": 0, "fusion_lon": 0.0, "fusion_lat": 0.0, "lat": 38.9235865, "type": "electric_scooter", "lon": -77.05063633333333, "bike_id": "8623ab9e3beaa8c4d58ec33e67f25676", "rental_uris": {"android": "https://dc.lft.to/lastmile_qr_scan", "ios": "https://dc.lft.to/lastmile_qr_scan"}, "name": "8623ab9e3beaa8c4d58ec33e67f25676", "is_reserved": 0}, {"is_disabled": 0, "fusion_lon": 0.0, "fusion_lat": 0.0, "lat": 38.921531, "type": "electric_scooter", "lon": -77.03505433333333, "bike_id": "311e01b9d3d5fd63576877b396af86e8", "rental_uris": {"android": "https://dc.lft.to/lastmile_qr_scan", "ios": "https://dc.lft.to/lastmile_qr_scan"}, "name": "311e01b9d3d5fd63576877b396af86e8", "is_reserved": 0}, {"is_disabled": 0, "fusion_lon": 0.0, "fusion_lat": 0.0, "lat": 38.9874005, "type": "electric_scooter", "lon": -77.04223833333333, "bike_id": "4907c2f52342c7780d521fa50c00dfd1", "rental_uris": {"android": "https://dc.lft.to/lastmile_qr_scan", "ios": "https://dc.lft.to/lastmile_qr_scan"}, "name": "4907c2f52342c7780d521fa50c00dfd1", "is_reserved": 0}, {"is_disabled": 0, "fusion_lon": 0.0, "fusion_lat": 0.0, "lat": 38.926553166666665, "type": "electric_scooter", "lon": -77.0429775, "bike_id": "fe786a08f0e8cca83d17824eb7479d50", "rental_uris": {"android": "https://dc.lft.to/lastmile_qr_scan", "ios": "https://dc.lft.to/lastmile_qr_scan"}, "name": "fe786a08f0e8cca83d17824eb7479d50", "is_reserved": 0}, {"is_disabled": 0, "fusion_lon": 0.0, "fusion_lat": 0.0, "lat": 38.84297433333333, "type": "electric_bike", "lon": -77.11464416666666, "bike_id": "0bb535a92d63a95f16099af9cb7267df", "rental_uris": {"android": "https://dc.lft.to/lastmile_qr_scan", "ios": "https://dc.lft.to/lastmile_qr_scan"}, "name": "0bb535a92d63a95f16099af9cb7267df", "is_reserved": 0}, {"is_disabled": 0, "fusion_lon": 0.0, "fusion_lat": 0.0, "lat": 38.93454233333333, "type": "electric_scooter", "lon": -77.07271483333334, "bike_id": "08d91344c03a8308f103a5b449676af6", "rental_uris": {"android": "https://dc.lft.to/lastmile_qr_scan", "ios": "https://dc.lft.to/lastmile_qr_scan"}, "name": "08d91344c03a8308f103a5b449676af6", "is_reserved": 0}, {"is_disabled": 0, "fusion_lon": 0.0, "fusion_lat": 0.0, "lat": 38.93465416666667, "type": "electric_scooter", "lon": -77.07255833333333, "bike_id": "bdd85ea9c732a10632be66d2b6151deb", "rental_uris": {"android": "https://dc.lft.to/lastmile_qr_scan", "ios": "https://dc.lft.to/lastmile_qr_scan"}, "name": "bdd85ea9c732a10632be66d2b6151deb", "is_reserved": 0}, {"is_disabled": 0, "fusion_lon": 0.0, "fusion_lat": 0.0, "lat": 38.912663333333334, "type": "electric_scooter", "lon": -77.04168366666667, "bike_id": "2d496d200c044d3ac832bdb29184f72f", "rental_uris": {"android": "https://dc.lft.to/lastmile_qr_scan", "ios": "https://dc.lft.to/lastmile_qr_scan"}, "name": "2d496d200c044d3ac832bdb29184f72f", "is_reserved": 0}, {"is_disabled": 0, "fusion_lon": 0.0, "fusion_lat": 0.0, "lat": 38.912438, "type": "electric_scooter", "lon": -77.02236216666667, "bike_id": "11242cae3574c25fbde145ff405bd54d", "rental_uris": {"android": "https://dc.lft.to/lastmile_qr_scan", "ios": "https://dc.lft.to/lastmile_qr_scan"}, "name": "11242cae3574c25fbde145ff405bd54d", "is_reserved": 0}, {"is_disabled": 0, "fusion_lon": 0.0, "fusion_lat": 0.0, "lat": 38.953209666666666, "type": "electric_bike", "lon": -77.01517666666666, "bike_id": "6b76f4536e73f3efba52d64bee0b9f6e", "rental_uris": {"android": "https://dc.lft.to/lastmile_qr_scan", "ios": "https://dc.lft.to/lastmile_qr_scan"}, "name": "6b76f4536e73f3efba52d64bee0b9f6e", "is_reserved": 0}, {"is_disabled": 0, "fusion_lon": 0.0, "fusion_lat": 0.0, "lat": 38.931704333333336, "type": "electric_scooter", "lon": -77.072544, "bike_id": "1b9f9fd849d2a727491c395385254a4a", "rental_uris": {"android": "https://dc.lft.to/lastmile_qr_scan", "ios": "https://dc.lft.to/lastmile_qr_scan"}, "name": "1b9f9fd849d2a727491c395385254a4a", "is_reserved": 0}, {"is_disabled": 0, "fusion_lon": 0.0, "fusion_lat": 0.0, "lat": 38.9193345, "type": "electric_scooter", "lon": -77.02595583333333, "bike_id": "a8357efd5a78128c1f4c9b10e5a7f60c", "rental_uris": {"android": "https://dc.lft.to/lastmile_qr_scan", "ios": "https://dc.lft.to/lastmile_qr_scan"}, "name": "a8357efd5a78128c1f4c9b10e5a7f60c", "is_reserved": 0}, {"is_disabled": 0, "fusion_lon": 0.0, "fusion_lat": 0.0, "lat": 38.897713, "type": "electric_scooter", "lon": -77.0247845, "bike_id": "8c72f77a04bbd624b4a2af5470792a24", "rental_uris": {"android": "https://dc.lft.to/lastmile_qr_scan", "ios": "https://dc.lft.to/lastmile_qr_scan"}, "name": "8c72f77a04bbd624b4a2af5470792a24", "is_reserved": 0}, {"is_disabled": 0, "fusion_lon": 0.0, "fusion_lat": 0.0, "lat": 38.90292916666667, "type": "electric_scooter", "lon": -77.0362515, "bike_id": "3831e6fe325b1f42e915259d10dc3fca", "rental_uris": {"android": "https://dc.lft.to/lastmile_qr_scan", "ios": "https://dc.lft.to/lastmile_qr_scan"}, "name": "3831e6fe325b1f42e915259d10dc3fca", "is_reserved": 0}, {"is_disabled": 0, "fusion_lon": 0.0, "fusion_lat": 0.0, "lat": 38.866977166666665, "type": "electric_scooter", "lon": -76.98715316666667, "bike_id": "e484e604cadf46b6850bb5630aa897a0", "rental_uris": {"android": "https://dc.lft.to/lastmile_qr_scan", "ios": "https://dc.lft.to/lastmile_qr_scan"}, "name": "e484e604cadf46b6850bb5630aa897a0", "is_reserved": 0}, {"is_disabled": 0, "fusion_lon": 0.0, "fusion_lat": 0.0, "lat": 38.905251166666666, "type": "electric_scooter", "lon": -77.04349133333334, "bike_id": "2683ea72ba4e196eb738dd2d9d49832d", "rental_uris": {"android": "https://dc.lft.to/lastmile_qr_scan", "ios": "https://dc.lft.to/lastmile_qr_scan"}, "name": "2683ea72ba4e196eb738dd2d9d49832d", "is_reserved": 0}, {"is_disabled": 0, "fusion_lon": 0.0, "fusion_lat": 0.0, "lat": 38.944394, "type": "electric_scooter", "lon": -77.06392583333333, "bike_id": "b8c80b55ec9eb02281646c756e063470", "rental_uris": {"android": "https://dc.lft.to/lastmile_qr_scan", "ios": "https://dc.lft.to/lastmile_qr_scan"}, "name": "b8c80b55ec9eb02281646c756e063470", "is_reserved": 0}, {"is_disabled": 0, "fusion_lon": 0.0, "fusion_lat": 0.0, "lat": 38.92888166666667, "type": "electric_scooter", "lon": -77.0316995, "bike_id": "88531aa8ea9fa83a612c71e4eb064c2a", "rental_uris": {"android": "https://dc.lft.to/lastmile_qr_scan", "ios": "https://dc.lft.to/lastmile_qr_scan"}, "name": "88531aa8ea9fa83a612c71e4eb064c2a", "is_reserved": 0}, {"is_disabled": 0, "fusion_lon": 0.0, "fusion_lat": 0.0, "lat": 38.894353833333334, "type": "electric_scooter", "lon": -77.021905, "bike_id": "8ed16bf7ceb8c6f80417d285a31c5c04", "rental_uris": {"android": "https://dc.lft.to/lastmile_qr_scan", "ios": "https://dc.lft.to/lastmile_qr_scan"}, "name": "8ed16bf7ceb8c6f80417d285a31c5c04", "is_reserved": 0}, {"is_disabled": 0, "fusion_lon": 0.0, "fusion_lat": 0.0, "lat": 38.91189383333333, "type": "electric_scooter", "lon": -77.04151766666666, "bike_id": "4b6498542b98f60ff5ada62daa05aff4", "rental_uris": {"android": "https://dc.lft.to/lastmile_qr_scan", "ios": "https://dc.lft.to/lastmile_qr_scan"}, "name": "4b6498542b98f60ff5ada62daa05aff4", "is_reserved": 0}, {"is_disabled": 0, "fusion_lon": 0.0, "fusion_lat": 0.0, "lat": 38.9296465, "type": "electric_scooter", "lon": -77.0318945, "bike_id": "06907e034d2dc543416c6a8447e8ae69", "rental_uris": {"android": "https://dc.lft.to/lastmile_qr_scan", "ios": "https://dc.lft.to/lastmile_qr_scan"}, "name": "06907e034d2dc543416c6a8447e8ae69", "is_reserved": 0}, {"is_disabled": 0, "fusion_lon": 0.0, "fusion_lat": 0.0, "lat": 38.94541016666667, "type": "electric_scooter", "lon": -77.02534, "bike_id": "1c3cea7e9346cc4d7d1532bfec365de1", "rental_uris": {"android": "https://dc.lft.to/lastmile_qr_scan", "ios": "https://dc.lft.to/lastmile_qr_scan"}, "name": "1c3cea7e9346cc4d7d1532bfec365de1", "is_reserved": 0}, {"is_disabled": 0, "fusion_lon": 0.0, "fusion_lat": 0.0, "lat": 38.9357575, "type": "electric_scooter", "lon": -77.03734833333333, "bike_id": "1e8e2e7815522a3a2d2debaa39502ce7", "rental_uris": {"android": "https://dc.lft.to/lastmile_qr_scan", "ios": "https://dc.lft.to/lastmile_qr_scan"}, "name": "1e8e2e7815522a3a2d2debaa39502ce7", "is_reserved": 0}, {"is_disabled": 0, "fusion_lon": 0.0, "fusion_lat": 0.0, "lat": 38.910519666666666, "type": "electric_scooter", "lon": -77.022027, "bike_id": "dcab20b21309a89ebf1ad3ba18fa1310", "rental_uris": {"android": "https://dc.lft.to/lastmile_qr_scan", "ios": "https://dc.lft.to/lastmile_qr_scan"}, "name": "dcab20b21309a89ebf1ad3ba18fa1310", "is_reserved": 0}, {"is_disabled": 0, "fusion_lon": 0.0, "fusion_lat": 0.0, "lat": 38.91810733333333, "type": "electric_scooter", "lon": -77.0140415, "bike_id": "1348478ca969b2cc386dfec597833d7b", "rental_uris": {"android": "https://dc.lft.to/lastmile_qr_scan", "ios": "https://dc.lft.to/lastmile_qr_scan"}, "name": "1348478ca969b2cc386dfec597833d7b", "is_reserved": 0}, {"is_disabled": 0, "fusion_lon": 0.0, "fusion_lat": 0.0, "lat": 38.86836616666667, "type": "electric_bike", "lon": -77.097316, "bike_id": "621e7d6d89cae5f0d5187610634288dd", "rental_uris": {"android": "https://dc.lft.to/lastmile_qr_scan", "ios": "https://dc.lft.to/lastmile_qr_scan"}, "name": "621e7d6d89cae5f0d5187610634288dd", "is_reserved": 0}, {"is_disabled": 0, "fusion_lon": 0.0, "fusion_lat": 0.0, "lat": 38.92035466666667, "type": "electric_scooter", "lon": -77.02586966666667, "bike_id": "5eeedf517cc2704350470a5c4010005f", "rental_uris": {"android": "https://dc.lft.to/lastmile_qr_scan", "ios": "https://dc.lft.to/lastmile_qr_scan"}, "name": "5eeedf517cc2704350470a5c4010005f", "is_reserved": 0}, {"is_disabled": 0, "fusion_lon": 0.0, "fusion_lat": 0.0, "lat": 38.8984925, "type": "electric_bike", "lon": -76.931893, "bike_id": "9f2bbe11b861e1e17d85518b67f795ae", "rental_uris": {"android": "https://dc.lft.to/lastmile_qr_scan", "ios": "https://dc.lft.to/lastmile_qr_scan"}, "name": "9f2bbe11b861e1e17d85518b67f795ae", "is_reserved": 0}, {"is_disabled": 0, "fusion_lon": 0.0, "fusion_lat": 0.0, "lat": 38.911078, "type": "electric_scooter", "lon": -77.042698, "bike_id": "47d0b2d3834ae2b919c236122efd275c", "rental_uris": {"android": "https://dc.lft.to/lastmile_qr_scan", "ios": "https://dc.lft.to/lastmile_qr_scan"}, "name": "47d0b2d3834ae2b919c236122efd275c", "is_reserved": 0}, {"is_disabled": 0, "fusion_lon": 0.0, "fusion_lat": 0.0, "lat": 38.9141625, "type": "electric_scooter", "lon": -77.02564233333334, "bike_id": "c47d2178dd45f4025a1a604ee09772a7", "rental_uris": {"android": "https://dc.lft.to/lastmile_qr_scan", "ios": "https://dc.lft.to/lastmile_qr_scan"}, "name": "c47d2178dd45f4025a1a604ee09772a7", "is_reserved": 0}, {"is_disabled": 0, "fusion_lon": 0.0, "fusion_lat": 0.0, "lat": 38.918501666666664, "type": "electric_bike", "lon": -76.96086933333333, "bike_id": "c2e73826ae10eb7c66fe6e3c4dac305d", "rental_uris": {"android": "https://dc.lft.to/lastmile_qr_scan", "ios": "https://dc.lft.to/lastmile_qr_scan"}, "name": "c2e73826ae10eb7c66fe6e3c4dac305d", "is_reserved": 0}, {"is_disabled": 0, "fusion_lon": 0.0, "fusion_lat": 0.0, "lat": 38.87052, "type": "electric_bike", "lon": -77.01359866666667, "bike_id": "a216090408ccfb98be8f366ee9a0f7e1", "rental_uris": {"android": "https://dc.lft.to/lastmile_qr_scan", "ios": "https://dc.lft.to/lastmile_qr_scan"}, "name": "a216090408ccfb98be8f366ee9a0f7e1", "is_reserved": 0}, {"is_disabled": 0, "fusion_lon": 0.0, "fusion_lat": 0.0, "lat": 38.918068, "type": "electric_scooter", "lon": -77.026868, "bike_id": "063432bad6b31c293ff84b29252f43c1", "rental_uris": {"android": "https://dc.lft.to/lastmile_qr_scan", "ios": "https://dc.lft.to/lastmile_qr_scan"}, "name": "063432bad6b31c293ff84b29252f43c1", "is_reserved": 0}, {"is_disabled": 0, "fusion_lon": 0.0, "fusion_lat": 0.0, "lat": 38.9168865, "type": "electric_scooter", "lon": -77.01213566666667, "bike_id": "ca6bcc28b81a5365f649fdac07355d2b", "rental_uris": {"android": "https://dc.lft.to/lastmile_qr_scan", "ios": "https://dc.lft.to/lastmile_qr_scan"}, "name": "ca6bcc28b81a5365f649fdac07355d2b", "is_reserved": 0}, {"is_disabled": 0, "fusion_lon": 0.0, "fusion_lat": 0.0, "lat": 38.898092, "type": "electric_scooter", "lon": -77.00214316666667, "bike_id": "83d253dbe24e19bcfd60e506f42a37ff", "rental_uris": {"android": "https://dc.lft.to/lastmile_qr_scan", "ios": "https://dc.lft.to/lastmile_qr_scan"}, "name": "83d253dbe24e19bcfd60e506f42a37ff", "is_reserved": 0}, {"is_disabled": 0, "fusion_lon": 0.0, "fusion_lat": 0.0, "lat": 38.90775333333333, "type": "electric_scooter", "lon": -77.034635, "bike_id": "fcb9b825b25213186a1bc0d0f5f7d9ea", "rental_uris": {"android": "https://dc.lft.to/lastmile_qr_scan", "ios": "https://dc.lft.to/lastmile_qr_scan"}, "name": "fcb9b825b25213186a1bc0d0f5f7d9ea", "is_reserved": 0}, {"is_disabled": 0, "fusion_lon": 0.0, "fusion_lat": 0.0, "lat": 38.874903833333335, "type": "electric_scooter", "lon": -77.001769, "bike_id": "1bc6c8d0f5bf8504ea24803bc6dbf650", "rental_uris": {"android": "https://dc.lft.to/lastmile_qr_scan", "ios": "https://dc.lft.to/lastmile_qr_scan"}, "name": "1bc6c8d0f5bf8504ea24803bc6dbf650", "is_reserved": 0}, {"is_disabled": 0, "fusion_lon": 0.0, "fusion_lat": 0.0, "lat": 38.90090716666667, "type": "electric_scooter", "lon": -77.04794166666667, "bike_id": "e8c14dabf8a75f04a800aa56ccbe4d0c", "rental_uris": {"android": "https://dc.lft.to/lastmile_qr_scan", "ios": "https://dc.lft.to/lastmile_qr_scan"}, "name": "e8c14dabf8a75f04a800aa56ccbe4d0c", "is_reserved": 0}, {"is_disabled": 0, "fusion_lon": 0.0, "fusion_lat": 0.0, "lat": 38.891532, "type": "electric_scooter", "lon": -76.91903616666667, "bike_id": "dd0f02d7a9e888d394d20739032e2784", "rental_uris": {"android": "https://dc.lft.to/lastmile_qr_scan", "ios": "https://dc.lft.to/lastmile_qr_scan"}, "name": "dd0f02d7a9e888d394d20739032e2784", "is_reserved": 0}, {"is_disabled": 0, "fusion_lon": 0.0, "fusion_lat": 0.0, "lat": 38.929723333333335, "type": "electric_scooter", "lon": -77.036454, "bike_id": "f4cb826d375794afed9baa3dcc8ace48", "rental_uris": {"android": "https://dc.lft.to/lastmile_qr_scan", "ios": "https://dc.lft.to/lastmile_qr_scan"}, "name": "f4cb826d375794afed9baa3dcc8ace48", "is_reserved": 0}, {"is_disabled": 0, "fusion_lon": 0.0, "fusion_lat": 0.0, "lat": 38.894674, "type": "electric_scooter", "lon": -76.9330685, "bike_id": "629d8562bf658c38b915bc0d91c7bd33", "rental_uris": {"android": "https://dc.lft.to/lastmile_qr_scan", "ios": "https://dc.lft.to/lastmile_qr_scan"}, "name": "629d8562bf658c38b915bc0d91c7bd33", "is_reserved": 0}, {"is_disabled": 0, "fusion_lon": 0.0, "fusion_lat": 0.0, "lat": 38.88396016666667, "type": "electric_scooter", "lon": -77.01983766666666, "bike_id": "a89d4522bebe8f58af5805ea34cf1638", "rental_uris": {"android": "https://dc.lft.to/lastmile_qr_scan", "ios": "https://dc.lft.to/lastmile_qr_scan"}, "name": "a89d4522bebe8f58af5805ea34cf1638", "is_reserved": 0}, {"is_disabled": 0, "fusion_lon": 0.0, "fusion_lat": 0.0, "lat": 38.91945316666666, "type": "electric_scooter", "lon": -77.0341235, "bike_id": "9e21627931d3d717774a29d1466226a1", "rental_uris": {"android": "https://dc.lft.to/lastmile_qr_scan", "ios": "https://dc.lft.to/lastmile_qr_scan"}, "name": "9e21627931d3d717774a29d1466226a1", "is_reserved": 0}, {"is_disabled": 0, "fusion_lon": 0.0, "fusion_lat": 0.0, "lat": 38.897967666666666, "type": "electric_scooter", "lon": -77.01196683333333, "bike_id": "2f88beab8e8bcd05e9a0922604abb578", "rental_uris": {"android": "https://dc.lft.to/lastmile_qr_scan", "ios": "https://dc.lft.to/lastmile_qr_scan"}, "name": "2f88beab8e8bcd05e9a0922604abb578", "is_reserved": 0}, {"is_disabled": 0, "fusion_lon": 0.0, "fusion_lat": 0.0, "lat": 38.807938166666666, "type": "electric_bike", "lon": -77.13837816666667, "bike_id": "131b9ebd2afec371a77db11c09bb6cbc", "rental_uris": {"android": "https://dc.lft.to/lastmile_qr_scan", "ios": "https://dc.lft.to/lastmile_qr_scan"}, "name": "131b9ebd2afec371a77db11c09bb6cbc", "is_reserved": 0}, {"is_disabled": 0, "fusion_lon": 0.0, "fusion_lat": 0.0, "lat": 38.91265816666667, "type": "electric_scooter", "lon": -77.041689, "bike_id": "07c34eebcd9f2fd6c3858e07f23fe99b", "rental_uris": {"android": "https://dc.lft.to/lastmile_qr_scan", "ios": "https://dc.lft.to/lastmile_qr_scan"}, "name": "07c34eebcd9f2fd6c3858e07f23fe99b", "is_reserved": 0}, {"is_disabled": 0, "fusion_lon": 0.0, "fusion_lat": 0.0, "lat": 38.900208, "type": "electric_scooter", "lon": -77.00688416666667, "bike_id": "540dbd17b31b185674e4af166342137c", "rental_uris": {"android": "https://dc.lft.to/lastmile_qr_scan", "ios": "https://dc.lft.to/lastmile_qr_scan"}, "name": "540dbd17b31b185674e4af166342137c", "is_reserved": 0}, {"is_disabled": 0, "fusion_lon": 0.0, "fusion_lat": 0.0, "lat": 38.878972166666664, "type": "electric_scooter", "lon": -76.93525366666667, "bike_id": "a9304b129b9c6a6fd577a020c85e3b55", "rental_uris": {"android": "https://dc.lft.to/lastmile_qr_scan", "ios": "https://dc.lft.to/lastmile_qr_scan"}, "name": "a9304b129b9c6a6fd577a020c85e3b55", "is_reserved": 0}, {"is_disabled": 0, "fusion_lon": 0.0, "fusion_lat": 0.0, "lat": 38.94302966666667, "type": "electric_scooter", "lon": -77.02531266666666, "bike_id": "ebe31ed1b9f0d1751c056e71f66e24f6", "rental_uris": {"android": "https://dc.lft.to/lastmile_qr_scan", "ios": "https://dc.lft.to/lastmile_qr_scan"}, "name": "ebe31ed1b9f0d1751c056e71f66e24f6", "is_reserved": 0}, {"is_disabled": 0, "fusion_lon": 0.0, "fusion_lat": 0.0, "lat": 38.90380916666667, "type": "electric_scooter", "lon": -77.05347416666666, "bike_id": "d6a264d2d71011fbe069c23945b177f7", "rental_uris": {"android": "https://dc.lft.to/lastmile_qr_scan", "ios": "https://dc.lft.to/lastmile_qr_scan"}, "name": "d6a264d2d71011fbe069c23945b177f7", "is_reserved": 0}, {"is_disabled": 0, "fusion_lon": 0.0, "fusion_lat": 0.0, "lat": 38.90239316666667, "type": "electric_scooter", "lon": -77.02853566666667, "bike_id": "86ae0b49032c7434eb96dd606b0c497c", "rental_uris": {"android": "https://dc.lft.to/lastmile_qr_scan", "ios": "https://dc.lft.to/lastmile_qr_scan"}, "name": "86ae0b49032c7434eb96dd606b0c497c", "is_reserved": 0}, {"is_disabled": 0, "fusion_lon": 0.0, "fusion_lat": 0.0, "lat": 38.9019765, "type": "electric_scooter", "lon": -77.024225, "bike_id": "2ec5f382e034b466339d397ea9b7db1f", "rental_uris": {"android": "https://dc.lft.to/lastmile_qr_scan", "ios": "https://dc.lft.to/lastmile_qr_scan"}, "name": "2ec5f382e034b466339d397ea9b7db1f", "is_reserved": 0}, {"is_disabled": 0, "fusion_lon": 0.0, "fusion_lat": 0.0, "lat": 38.912700666666666, "type": "electric_scooter", "lon": -77.02240933333333, "bike_id": "3b0ed7f0d718eb8876ac7dd87f9db34c", "rental_uris": {"android": "https://dc.lft.to/lastmile_qr_scan", "ios": "https://dc.lft.to/lastmile_qr_scan"}, "name": "3b0ed7f0d718eb8876ac7dd87f9db34c", "is_reserved": 0}, {"is_disabled": 0, "fusion_lon": 0.0, "fusion_lat": 0.0, "lat": 38.913269, "type": "electric_scooter", "lon": -77.0318385, "bike_id": "099b957be2dfd0bec5721c5bdccc5d40", "rental_uris": {"android": "https://dc.lft.to/lastmile_qr_scan", "ios": "https://dc.lft.to/lastmile_qr_scan"}, "name": "099b957be2dfd0bec5721c5bdccc5d40", "is_reserved": 0}, {"is_disabled": 0, "fusion_lon": 0.0, "fusion_lat": 0.0, "lat": 38.93969933333333, "type": "electric_scooter", "lon": -77.03256483333334, "bike_id": "9e055e8c791139d697c30b24d9b3a883", "rental_uris": {"android": "https://dc.lft.to/lastmile_qr_scan", "ios": "https://dc.lft.to/lastmile_qr_scan"}, "name": "9e055e8c791139d697c30b24d9b3a883", "is_reserved": 0}, {"is_disabled": 0, "fusion_lon": 0.0, "fusion_lat": 0.0, "lat": 38.917977666666665, "type": "electric_scooter", "lon": -77.03442416666667, "bike_id": "6d501840662791238f2b6c345ab77259", "rental_uris": {"android": "https://dc.lft.to/lastmile_qr_scan", "ios": "https://dc.lft.to/lastmile_qr_scan"}, "name": "6d501840662791238f2b6c345ab77259", "is_reserved": 0}, {"is_disabled": 0, "fusion_lon": 0.0, "fusion_lat": 0.0, "lat": 38.90855366666667, "type": "electric_scooter", "lon": -77.04774066666667, "bike_id": "05d38e1db984acba09a3fd4dcd93f9a9", "rental_uris": {"android": "https://dc.lft.to/lastmile_qr_scan", "ios": "https://dc.lft.to/lastmile_qr_scan"}, "name": "05d38e1db984acba09a3fd4dcd93f9a9", "is_reserved": 0}, {"is_disabled": 0, "fusion_lon": 0.0, "fusion_lat": 0.0, "lat": 38.911031333333334, "type": "electric_scooter", "lon": -77.0241795, "bike_id": "9d3dc9e493090480955a7cfa436ddffc", "rental_uris": {"android": "https://dc.lft.to/lastmile_qr_scan", "ios": "https://dc.lft.to/lastmile_qr_scan"}, "name": "9d3dc9e493090480955a7cfa436ddffc", "is_reserved": 0}, {"is_disabled": 0, "fusion_lon": 0.0, "fusion_lat": 0.0, "lat": 38.91619333333333, "type": "electric_scooter", "lon": -77.03259133333333, "bike_id": "7c0bf34f8f7bd2246fa43d59ba69cd2f", "rental_uris": {"android": "https://dc.lft.to/lastmile_qr_scan", "ios": "https://dc.lft.to/lastmile_qr_scan"}, "name": "7c0bf34f8f7bd2246fa43d59ba69cd2f", "is_reserved": 0}, {"is_disabled": 0, "fusion_lon": 0.0, "fusion_lat": 0.0, "lat": 38.9198845, "type": "electric_scooter", "lon": -77.03274583333334, "bike_id": "948b11c42793128914f6592989db77c3", "rental_uris": {"android": "https://dc.lft.to/lastmile_qr_scan", "ios": "https://dc.lft.to/lastmile_qr_scan"}, "name": "948b11c42793128914f6592989db77c3", "is_reserved": 0}, {"is_disabled": 0, "fusion_lon": 0.0, "fusion_lat": 0.0, "lat": 38.9898725, "type": "electric_scooter", "lon": -77.0336275, "bike_id": "0d5502803e82d7b61485c5f9b4e62915", "rental_uris": {"android": "https://dc.lft.to/lastmile_qr_scan", "ios": "https://dc.lft.to/lastmile_qr_scan"}, "name": "0d5502803e82d7b61485c5f9b4e62915", "is_reserved": 0}, {"is_disabled": 0, "fusion_lon": 0.0, "fusion_lat": 0.0, "lat": 38.884920666666666, "type": "electric_scooter", "lon": -77.01720066666667, "bike_id": "8e01aa2d85a3489cc30a8f4dc1e4e67a", "rental_uris": {"android": "https://dc.lft.to/lastmile_qr_scan", "ios": "https://dc.lft.to/lastmile_qr_scan"}, "name": "8e01aa2d85a3489cc30a8f4dc1e4e67a", "is_reserved": 0}, {"is_disabled": 0, "fusion_lon": 0.0, "fusion_lat": 0.0, "lat": 38.92728866666667, "type": "electric_bike", "lon": -77.0259125, "bike_id": "60756a4e19c1fc8039b70bfc93489cda", "rental_uris": {"android": "https://dc.lft.to/lastmile_qr_scan", "ios": "https://dc.lft.to/lastmile_qr_scan"}, "name": "60756a4e19c1fc8039b70bfc93489cda", "is_reserved": 0}, {"is_disabled": 0, "fusion_lon": 0.0, "fusion_lat": 0.0, "lat": 38.838087, "type": "electric_bike", "lon": -77.0952275, "bike_id": "f68e139b9980f08f0b726cfb98c5aa4e", "rental_uris": {"android": "https://dc.lft.to/lastmile_qr_scan", "ios": "https://dc.lft.to/lastmile_qr_scan"}, "name": "f68e139b9980f08f0b726cfb98c5aa4e", "is_reserved": 0}, {"is_disabled": 0, "fusion_lon": 0.0, "fusion_lat": 0.0, "lat": 38.897331666666666, "type": "electric_scooter", "lon": -77.02167716666666, "bike_id": "0ada2a9ac79c943c8a1e43633aa546f2", "rental_uris": {"android": "https://dc.lft.to/lastmile_qr_scan", "ios": "https://dc.lft.to/lastmile_qr_scan"}, "name": "0ada2a9ac79c943c8a1e43633aa546f2", "is_reserved": 0}, {"is_disabled": 0, "fusion_lon": 0.0, "fusion_lat": 0.0, "lat": 38.913601166666666, "type": "electric_scooter", "lon": -77.046537, "bike_id": "4160e9c96490177796cd67e4b8d7f418", "rental_uris": {"android": "https://dc.lft.to/lastmile_qr_scan", "ios": "https://dc.lft.to/lastmile_qr_scan"}, "name": "4160e9c96490177796cd67e4b8d7f418", "is_reserved": 0}, {"is_disabled": 0, "fusion_lon": 0.0, "fusion_lat": 0.0, "lat": 38.936396333333334, "type": "electric_scooter", "lon": -77.02087616666667, "bike_id": "ae54aa32d8c1ce0d436e904651f0fce5", "rental_uris": {"android": "https://dc.lft.to/lastmile_qr_scan", "ios": "https://dc.lft.to/lastmile_qr_scan"}, "name": "ae54aa32d8c1ce0d436e904651f0fce5", "is_reserved": 0}, {"is_disabled": 0, "fusion_lon": 0.0, "fusion_lat": 0.0, "lat": 38.889993, "type": "electric_scooter", "lon": -77.048973, "bike_id": "fb4a59f668ec4d5ad5e26575dc373d14", "rental_uris": {"android": "https://dc.lft.to/lastmile_qr_scan", "ios": "https://dc.lft.to/lastmile_qr_scan"}, "name": "fb4a59f668ec4d5ad5e26575dc373d14", "is_reserved": 0}, {"is_disabled": 0, "fusion_lon": 0.0, "fusion_lat": 0.0, "lat": 38.892157833333336, "type": "electric_scooter", "lon": -77.02223766666667, "bike_id": "2408cacab0ba54e449b97bf55a757062", "rental_uris": {"android": "https://dc.lft.to/lastmile_qr_scan", "ios": "https://dc.lft.to/lastmile_qr_scan"}, "name": "2408cacab0ba54e449b97bf55a757062", "is_reserved": 0}, {"is_disabled": 0, "fusion_lon": 0.0, "fusion_lat": 0.0, "lat": 38.8982285, "type": "electric_scooter", "lon": -77.03215016666667, "bike_id": "325d76f407b5e94f8dfae9e636219fea", "rental_uris": {"android": "https://dc.lft.to/lastmile_qr_scan", "ios": "https://dc.lft.to/lastmile_qr_scan"}, "name": "325d76f407b5e94f8dfae9e636219fea", "is_reserved": 0}, {"is_disabled": 0, "fusion_lon": 0.0, "fusion_lat": 0.0, "lat": 38.90762516666667, "type": "electric_scooter", "lon": -76.99649716666667, "bike_id": "93935a944948cdefad125740dc0684d1", "rental_uris": {"android": "https://dc.lft.to/lastmile_qr_scan", "ios": "https://dc.lft.to/lastmile_qr_scan"}, "name": "93935a944948cdefad125740dc0684d1", "is_reserved": 0}, {"is_disabled": 0, "fusion_lon": 0.0, "fusion_lat": 0.0, "lat": 38.90555583333333, "type": "electric_scooter", "lon": -77.0279185, "bike_id": "825458fc49b21233827f13dd864fa61a", "rental_uris": {"android": "https://dc.lft.to/lastmile_qr_scan", "ios": "https://dc.lft.to/lastmile_qr_scan"}, "name": "825458fc49b21233827f13dd864fa61a", "is_reserved": 0}, {"is_disabled": 0, "fusion_lon": 0.0, "fusion_lat": 0.0, "lat": 38.90057016666667, "type": "electric_scooter", "lon": -76.934738, "bike_id": "ee48cb8b860a156b35bf4384c12774f0", "rental_uris": {"android": "https://dc.lft.to/lastmile_qr_scan", "ios": "https://dc.lft.to/lastmile_qr_scan"}, "name": "ee48cb8b860a156b35bf4384c12774f0", "is_reserved": 0}, {"is_disabled": 0, "fusion_lon": 0.0, "fusion_lat": 0.0, "lat": 38.906882333333336, "type": "electric_bike", "lon": -76.952538, "bike_id": "58a521765248fb67f1716f3e7586d0c3", "rental_uris": {"android": "https://dc.lft.to/lastmile_qr_scan", "ios": "https://dc.lft.to/lastmile_qr_scan"}, "name": "58a521765248fb67f1716f3e7586d0c3", "is_reserved": 0}, {"is_disabled": 0, "fusion_lon": 0.0, "fusion_lat": 0.0, "lat": 38.91698383333333, "type": "electric_scooter", "lon": -77.0248875, "bike_id": "8c0fbc23eebb11f9292545722b7d4455", "rental_uris": {"android": "https://dc.lft.to/lastmile_qr_scan", "ios": "https://dc.lft.to/lastmile_qr_scan"}, "name": "8c0fbc23eebb11f9292545722b7d4455", "is_reserved": 0}, {"is_disabled": 0, "fusion_lon": 0.0, "fusion_lat": 0.0, "lat": 38.913273, "type": "electric_scooter", "lon": -77.0318475, "bike_id": "a62540732b0fae0c895af9b6edc24146", "rental_uris": {"android": "https://dc.lft.to/lastmile_qr_scan", "ios": "https://dc.lft.to/lastmile_qr_scan"}, "name": "a62540732b0fae0c895af9b6edc24146", "is_reserved": 0}, {"is_disabled": 0, "fusion_lon": 0.0, "fusion_lat": 0.0, "lat": 38.863325333333336, "type": "electric_bike", "lon": -76.9870665, "bike_id": "6e85fdc17ab3a32ec4622ef2f4250a67", "rental_uris": {"android": "https://dc.lft.to/lastmile_qr_scan", "ios": "https://dc.lft.to/lastmile_qr_scan"}, "name": "6e85fdc17ab3a32ec4622ef2f4250a67", "is_reserved": 0}, {"is_disabled": 0, "fusion_lon": 0.0, "fusion_lat": 0.0, "lat": 38.91766783333333, "type": "electric_scooter", "lon": -77.0405875, "bike_id": "aaff27d5f24a1827c510895d96e137ab", "rental_uris": {"android": "https://dc.lft.to/lastmile_qr_scan", "ios": "https://dc.lft.to/lastmile_qr_scan"}, "name": "aaff27d5f24a1827c510895d96e137ab", "is_reserved": 0}, {"is_disabled": 0, "fusion_lon": 0.0, "fusion_lat": 0.0, "lat": 38.912157666666666, "type": "electric_scooter", "lon": -77.0209695, "bike_id": "44bb07126292c574abb9ae9e69c323f2", "rental_uris": {"android": "https://dc.lft.to/lastmile_qr_scan", "ios": "https://dc.lft.to/lastmile_qr_scan"}, "name": "44bb07126292c574abb9ae9e69c323f2", "is_reserved": 0}, {"is_disabled": 0, "fusion_lon": 0.0, "fusion_lat": 0.0, "lat": 38.91930766666667, "type": "electric_scooter", "lon": -77.02593733333333, "bike_id": "188a8e225ca8e38e51d47e0ee9c55042", "rental_uris": {"android": "https://dc.lft.to/lastmile_qr_scan", "ios": "https://dc.lft.to/lastmile_qr_scan"}, "name": "188a8e225ca8e38e51d47e0ee9c55042", "is_reserved": 0}, {"is_disabled": 0, "fusion_lon": 0.0, "fusion_lat": 0.0, "lat": 38.9245705, "type": "electric_scooter", "lon": -77.05231766666667, "bike_id": "e731e95d5467677a2743aa7049cdca4e", "rental_uris": {"android": "https://dc.lft.to/lastmile_qr_scan", "ios": "https://dc.lft.to/lastmile_qr_scan"}, "name": "e731e95d5467677a2743aa7049cdca4e", "is_reserved": 0}, {"is_disabled": 0, "fusion_lon": 0.0, "fusion_lat": 0.0, "lat": 38.928163166666664, "type": "electric_scooter", "lon": -77.05433933333333, "bike_id": "7d77e4fbdf7d3381bb7f4a427348a47a", "rental_uris": {"android": "https://dc.lft.to/lastmile_qr_scan", "ios": "https://dc.lft.to/lastmile_qr_scan"}, "name": "7d77e4fbdf7d3381bb7f4a427348a47a", "is_reserved": 0}, {"is_disabled": 0, "fusion_lon": 0.0, "fusion_lat": 0.0, "lat": 38.932766, "type": "electric_scooter", "lon": -77.0397755, "bike_id": "989067c24f97e9609f406623ddc943f8", "rental_uris": {"android": "https://dc.lft.to/lastmile_qr_scan", "ios": "https://dc.lft.to/lastmile_qr_scan"}, "name": "989067c24f97e9609f406623ddc943f8", "is_reserved": 0}, {"is_disabled": 0, "fusion_lon": 0.0, "fusion_lat": 0.0, "lat": 38.88120583333333, "type": "electric_bike", "lon": -77.001915, "bike_id": "12fd644289c8038ac2e9481dbc62d8c2", "rental_uris": {"android": "https://dc.lft.to/lastmile_qr_scan", "ios": "https://dc.lft.to/lastmile_qr_scan"}, "name": "12fd644289c8038ac2e9481dbc62d8c2", "is_reserved": 0}, {"is_disabled": 0, "fusion_lon": 0.0, "fusion_lat": 0.0, "lat": 38.9130275, "type": "electric_scooter", "lon": -77.03199316666667, "bike_id": "b273cdb42cb1083aec3190c7aca4cc4e", "rental_uris": {"android": "https://dc.lft.to/lastmile_qr_scan", "ios": "https://dc.lft.to/lastmile_qr_scan"}, "name": "b273cdb42cb1083aec3190c7aca4cc4e", "is_reserved": 0}, {"is_disabled": 0, "fusion_lon": 0.0, "fusion_lat": 0.0, "lat": 38.8906625, "type": "electric_scooter", "lon": -76.93848766666666, "bike_id": "f3325d4690032dee2be976463a167eb1", "rental_uris": {"android": "https://dc.lft.to/lastmile_qr_scan", "ios": "https://dc.lft.to/lastmile_qr_scan"}, "name": "f3325d4690032dee2be976463a167eb1", "is_reserved": 0}, {"is_disabled": 0, "fusion_lon": 0.0, "fusion_lat": 0.0, "lat": 38.89988, "type": "electric_scooter", "lon": -77.02890883333333, "bike_id": "ba119bbdde78747b69a791c51635ca4e", "rental_uris": {"android": "https://dc.lft.to/lastmile_qr_scan", "ios": "https://dc.lft.to/lastmile_qr_scan"}, "name": "ba119bbdde78747b69a791c51635ca4e", "is_reserved": 0}, {"is_disabled": 0, "fusion_lon": 0.0, "fusion_lat": 0.0, "lat": 38.9093585, "type": "electric_scooter", "lon": -77.03519083333333, "bike_id": "f480fe8f06dd29e168c4fad31493f527", "rental_uris": {"android": "https://dc.lft.to/lastmile_qr_scan", "ios": "https://dc.lft.to/lastmile_qr_scan"}, "name": "f480fe8f06dd29e168c4fad31493f527", "is_reserved": 0}, {"is_disabled": 0, "fusion_lon": 0.0, "fusion_lat": 0.0, "lat": 38.9079275, "type": "electric_scooter", "lon": -77.03855416666667, "bike_id": "00eb8206a29129975c20074c66b95df5", "rental_uris": {"android": "https://dc.lft.to/lastmile_qr_scan", "ios": "https://dc.lft.to/lastmile_qr_scan"}, "name": "00eb8206a29129975c20074c66b95df5", "is_reserved": 0}, {"is_disabled": 0, "fusion_lon": 0.0, "fusion_lat": 0.0, "lat": 38.95007283333333, "type": "electric_bike", "lon": -77.05444833333334, "bike_id": "65b828ac138f67ab8e58948ecbd1c3dc", "rental_uris": {"android": "https://dc.lft.to/lastmile_qr_scan", "ios": "https://dc.lft.to/lastmile_qr_scan"}, "name": "65b828ac138f67ab8e58948ecbd1c3dc", "is_reserved": 0}, {"is_disabled": 0, "fusion_lon": 0.0, "fusion_lat": 0.0, "lat": 38.89224866666667, "type": "electric_scooter", "lon": -77.047934, "bike_id": "b7d7b9689862894875d14ded076e29c1", "rental_uris": {"android": "https://dc.lft.to/lastmile_qr_scan", "ios": "https://dc.lft.to/lastmile_qr_scan"}, "name": "b7d7b9689862894875d14ded076e29c1", "is_reserved": 0}, {"is_disabled": 0, "fusion_lon": 0.0, "fusion_lat": 0.0, "lat": 38.9908845, "type": "electric_bike", "lon": -76.87495383333334, "bike_id": "04951a5c60b9d6dd6cbf40b830a03221", "rental_uris": {"android": "https://dc.lft.to/lastmile_qr_scan", "ios": "https://dc.lft.to/lastmile_qr_scan"}, "name": "04951a5c60b9d6dd6cbf40b830a03221", "is_reserved": 0}, {"is_disabled": 0, "fusion_lon": 0.0, "fusion_lat": 0.0, "lat": 38.957238833333335, "type": "electric_scooter", "lon": -77.03099316666666, "bike_id": "e87b4be1f39aac56e4319686bac3629e", "rental_uris": {"android": "https://dc.lft.to/lastmile_qr_scan", "ios": "https://dc.lft.to/lastmile_qr_scan"}, "name": "e87b4be1f39aac56e4319686bac3629e", "is_reserved": 0}, {"is_disabled": 0, "fusion_lon": 0.0, "fusion_lat": 0.0, "lat": 38.9240265, "type": "electric_scooter", "lon": -77.0254365, "bike_id": "079c7d96d4a9ba093281fcd71960bb1a", "rental_uris": {"android": "https://dc.lft.to/lastmile_qr_scan", "ios": "https://dc.lft.to/lastmile_qr_scan"}, "name": "079c7d96d4a9ba093281fcd71960bb1a", "is_reserved": 0}, {"is_disabled": 0, "fusion_lon": 0.0, "fusion_lat": 0.0, "lat": 38.899244833333334, "type": "electric_bike", "lon": -77.02165516666666, "bike_id": "3dda4448664ef59639693aea61789e43", "rental_uris": {"android": "https://dc.lft.to/lastmile_qr_scan", "ios": "https://dc.lft.to/lastmile_qr_scan"}, "name": "3dda4448664ef59639693aea61789e43", "is_reserved": 0}, {"is_disabled": 0, "fusion_lon": 0.0, "fusion_lat": 0.0, "lat": 38.85559766666667, "type": "electric_bike", "lon": -77.10728, "bike_id": "dca306e555fe28e51d3e25ea1fad13fe", "rental_uris": {"android": "https://dc.lft.to/lastmile_qr_scan", "ios": "https://dc.lft.to/lastmile_qr_scan"}, "name": "dca306e555fe28e51d3e25ea1fad13fe", "is_reserved": 0}, {"is_disabled": 0, "fusion_lon": 0.0, "fusion_lat": 0.0, "lat": 38.975701666666666, "type": "electric_bike", "lon": -76.9640285, "bike_id": "4c2614838e4d9550649d69d9f04a00fa", "rental_uris": {"android": "https://dc.lft.to/lastmile_qr_scan", "ios": "https://dc.lft.to/lastmile_qr_scan"}, "name": "4c2614838e4d9550649d69d9f04a00fa", "is_reserved": 0}, {"is_disabled": 0, "fusion_lon": 0.0, "fusion_lat": 0.0, "lat": 38.8881325, "type": "electric_bike", "lon": -77.1274925, "bike_id": "8cee43eb6b03e19381051ab581cb9761", "rental_uris": {"android": "https://dc.lft.to/lastmile_qr_scan", "ios": "https://dc.lft.to/lastmile_qr_scan"}, "name": "8cee43eb6b03e19381051ab581cb9761", "is_reserved": 0}, {"is_disabled": 0, "fusion_lon": 0.0, "fusion_lat": 0.0, "lat": 38.9199245, "type": "electric_scooter", "lon": -77.0387955, "bike_id": "6cf44de90bd026de91dd063fce5f614c", "rental_uris": {"android": "https://dc.lft.to/lastmile_qr_scan", "ios": "https://dc.lft.to/lastmile_qr_scan"}, "name": "6cf44de90bd026de91dd063fce5f614c", "is_reserved": 0}, {"is_disabled": 0, "fusion_lon": 0.0, "fusion_lat": 0.0, "lat": 38.907724333333334, "type": "electric_scooter", "lon": -77.03261116666667, "bike_id": "5d4fee3c18760a978b5bb6070839d85b", "rental_uris": {"android": "https://dc.lft.to/lastmile_qr_scan", "ios": "https://dc.lft.to/lastmile_qr_scan"}, "name": "5d4fee3c18760a978b5bb6070839d85b", "is_reserved": 0}, {"is_disabled": 0, "fusion_lon": 0.0, "fusion_lat": 0.0, "lat": 38.92467583333333, "type": "electric_scooter", "lon": -77.02205283333333, "bike_id": "a0309a6b536849a900542288c454f8bb", "rental_uris": {"android": "https://dc.lft.to/lastmile_qr_scan", "ios": "https://dc.lft.to/lastmile_qr_scan"}, "name": "a0309a6b536849a900542288c454f8bb", "is_reserved": 0}, {"is_disabled": 0, "fusion_lon": 0.0, "fusion_lat": 0.0, "lat": 38.961908, "type": "electric_scooter", "lon": -77.027853, "bike_id": "7503ba3af445d2c9c6462850f8167b37", "rental_uris": {"android": "https://dc.lft.to/lastmile_qr_scan", "ios": "https://dc.lft.to/lastmile_qr_scan"}, "name": "7503ba3af445d2c9c6462850f8167b37", "is_reserved": 0}, {"is_disabled": 0, "fusion_lon": 0.0, "fusion_lat": 0.0, "lat": 38.87829416666667, "type": "electric_scooter", "lon": -76.96309333333333, "bike_id": "3a083b2dae9e76542080e7b452110fe8", "rental_uris": {"android": "https://dc.lft.to/lastmile_qr_scan", "ios": "https://dc.lft.to/lastmile_qr_scan"}, "name": "3a083b2dae9e76542080e7b452110fe8", "is_reserved": 0}, {"is_disabled": 0, "fusion_lon": 0.0, "fusion_lat": 0.0, "lat": 38.909539333333335, "type": "electric_scooter", "lon": -77.02307666666667, "bike_id": "275f94e53aab27d650b66642b51b7e3a", "rental_uris": {"android": "https://dc.lft.to/lastmile_qr_scan", "ios": "https://dc.lft.to/lastmile_qr_scan"}, "name": "275f94e53aab27d650b66642b51b7e3a", "is_reserved": 0}, {"is_disabled": 0, "fusion_lon": 0.0, "fusion_lat": 0.0, "lat": 38.902461333333335, "type": "electric_scooter", "lon": -77.03455716666667, "bike_id": "a76ee911d2c2135ffd9369ae955aae21", "rental_uris": {"android": "https://dc.lft.to/lastmile_qr_scan", "ios": "https://dc.lft.to/lastmile_qr_scan"}, "name": "a76ee911d2c2135ffd9369ae955aae21", "is_reserved": 0}, {"is_disabled": 0, "fusion_lon": 0.0, "fusion_lat": 0.0, "lat": 38.9028185, "type": "electric_scooter", "lon": -77.01757083333334, "bike_id": "d5cec3b4e02c946fe0c01b80f08d5ed3", "rental_uris": {"android": "https://dc.lft.to/lastmile_qr_scan", "ios": "https://dc.lft.to/lastmile_qr_scan"}, "name": "d5cec3b4e02c946fe0c01b80f08d5ed3", "is_reserved": 0}, {"is_disabled": 0, "fusion_lon": 0.0, "fusion_lat": 0.0, "lat": 38.86040833333333, "type": "electric_scooter", "lon": -76.98379983333334, "bike_id": "bf54fadfc4ed1d97d233d53899adbf41", "rental_uris": {"android": "https://dc.lft.to/lastmile_qr_scan", "ios": "https://dc.lft.to/lastmile_qr_scan"}, "name": "bf54fadfc4ed1d97d233d53899adbf41", "is_reserved": 0}, {"is_disabled": 0, "fusion_lon": 0.0, "fusion_lat": 0.0, "lat": 38.8651015, "type": "electric_scooter", "lon": -76.9734455, "bike_id": "6cb09a6c1094bcb3c4fad9feca2ffdb7", "rental_uris": {"android": "https://dc.lft.to/lastmile_qr_scan", "ios": "https://dc.lft.to/lastmile_qr_scan"}, "name": "6cb09a6c1094bcb3c4fad9feca2ffdb7", "is_reserved": 0}, {"is_disabled": 0, "fusion_lon": 0.0, "fusion_lat": 0.0, "lat": 38.858392333333335, "type": "electric_scooter", "lon": -76.990743, "bike_id": "dbe8b00193b5b167d882fd29e593f0a8", "rental_uris": {"android": "https://dc.lft.to/lastmile_qr_scan", "ios": "https://dc.lft.to/lastmile_qr_scan"}, "name": "dbe8b00193b5b167d882fd29e593f0a8", "is_reserved": 0}, {"is_disabled": 0, "fusion_lon": 0.0, "fusion_lat": 0.0, "lat": 38.962204, "type": "electric_scooter", "lon": -77.0280605, "bike_id": "ce072988b97dd96216f6a3171554bb29", "rental_uris": {"android": "https://dc.lft.to/lastmile_qr_scan", "ios": "https://dc.lft.to/lastmile_qr_scan"}, "name": "ce072988b97dd96216f6a3171554bb29", "is_reserved": 0}, {"is_disabled": 0, "fusion_lon": 0.0, "fusion_lat": 0.0, "lat": 38.94981283333333, "type": "electric_scooter", "lon": -77.02703516666666, "bike_id": "3ccadb5824e195ff75f872dd81797ade", "rental_uris": {"android": "https://dc.lft.to/lastmile_qr_scan", "ios": "https://dc.lft.to/lastmile_qr_scan"}, "name": "3ccadb5824e195ff75f872dd81797ade", "is_reserved": 0}, {"is_disabled": 0, "fusion_lon": 0.0, "fusion_lat": 0.0, "lat": 38.89503333333333, "type": "electric_scooter", "lon": -77.022949, "bike_id": "2aa518d8fa3eaa9f689929705e13c688", "rental_uris": {"android": "https://dc.lft.to/lastmile_qr_scan", "ios": "https://dc.lft.to/lastmile_qr_scan"}, "name": "2aa518d8fa3eaa9f689929705e13c688", "is_reserved": 0}, {"is_disabled": 0, "fusion_lon": 0.0, "fusion_lat": 0.0, "lat": 38.89913116666666, "type": "electric_scooter", "lon": -76.93396566666667, "bike_id": "b30a333991af16b515d8cccab9ed8c3f", "rental_uris": {"android": "https://dc.lft.to/lastmile_qr_scan", "ios": "https://dc.lft.to/lastmile_qr_scan"}, "name": "b30a333991af16b515d8cccab9ed8c3f", "is_reserved": 0}, {"is_disabled": 0, "fusion_lon": 0.0, "fusion_lat": 0.0, "lat": 38.86298466666667, "type": "electric_scooter", "lon": -76.9827505, "bike_id": "fc0ebde206b502e51b528ab2ef03bde7", "rental_uris": {"android": "https://dc.lft.to/lastmile_qr_scan", "ios": "https://dc.lft.to/lastmile_qr_scan"}, "name": "fc0ebde206b502e51b528ab2ef03bde7", "is_reserved": 0}, {"is_disabled": 0, "fusion_lon": 0.0, "fusion_lat": 0.0, "lat": 38.902683, "type": "electric_scooter", "lon": -77.00330766666667, "bike_id": "352312ecc6a8d717e6f75d4725d4a0e2", "rental_uris": {"android": "https://dc.lft.to/lastmile_qr_scan", "ios": "https://dc.lft.to/lastmile_qr_scan"}, "name": "352312ecc6a8d717e6f75d4725d4a0e2", "is_reserved": 0}, {"is_disabled": 0, "fusion_lon": 0.0, "fusion_lat": 0.0, "lat": 38.845925666666666, "type": "electric_bike", "lon": -76.96879266666667, "bike_id": "d223acecf31a702bd2f14166fb2c8fd9", "rental_uris": {"android": "https://dc.lft.to/lastmile_qr_scan", "ios": "https://dc.lft.to/lastmile_qr_scan"}, "name": "d223acecf31a702bd2f14166fb2c8fd9", "is_reserved": 0}, {"is_disabled": 0, "fusion_lon": 0.0, "fusion_lat": 0.0, "lat": 38.922262333333336, "type": "electric_scooter", "lon": -77.043472, "bike_id": "9564941ddf67eda59b5aeec8cde352f6", "rental_uris": {"android": "https://dc.lft.to/lastmile_qr_scan", "ios": "https://dc.lft.to/lastmile_qr_scan"}, "name": "9564941ddf67eda59b5aeec8cde352f6", "is_reserved": 0}, {"is_disabled": 0, "fusion_lon": 0.0, "fusion_lat": 0.0, "lat": 38.95964933333333, "type": "electric_scooter", "lon": -77.02110733333333, "bike_id": "16d745afdc45458ddd8efadcc5563dda", "rental_uris": {"android": "https://dc.lft.to/lastmile_qr_scan", "ios": "https://dc.lft.to/lastmile_qr_scan"}, "name": "16d745afdc45458ddd8efadcc5563dda", "is_reserved": 0}, {"is_disabled": 0, "fusion_lon": 0.0, "fusion_lat": 0.0, "lat": 38.9040115, "type": "electric_scooter", "lon": -77.054048, "bike_id": "69435141eb211e362872ce421e353bdd", "rental_uris": {"android": "https://dc.lft.to/lastmile_qr_scan", "ios": "https://dc.lft.to/lastmile_qr_scan"}, "name": "69435141eb211e362872ce421e353bdd", "is_reserved": 0}, {"is_disabled": 0, "fusion_lon": 0.0, "fusion_lat": 0.0, "lat": 38.89509066666667, "type": "electric_scooter", "lon": -77.0228465, "bike_id": "4a4d1e796095d100f4d6c8d538f8e4d6", "rental_uris": {"android": "https://dc.lft.to/lastmile_qr_scan", "ios": "https://dc.lft.to/lastmile_qr_scan"}, "name": "4a4d1e796095d100f4d6c8d538f8e4d6", "is_reserved": 0}, {"is_disabled": 0, "fusion_lon": 0.0, "fusion_lat": 0.0, "lat": 38.954032833333336, "type": "electric_scooter", "lon": -77.02753083333333, "bike_id": "4c5687fa3c4f760e88bf985bd8a2a43e", "rental_uris": {"android": "https://dc.lft.to/lastmile_qr_scan", "ios": "https://dc.lft.to/lastmile_qr_scan"}, "name": "4c5687fa3c4f760e88bf985bd8a2a43e", "is_reserved": 0}, {"is_disabled": 0, "fusion_lon": 0.0, "fusion_lat": 0.0, "lat": 38.8962165, "type": "electric_scooter", "lon": -77.025823, "bike_id": "d2b8b54e76d5ebfb3c29991ccaf28506", "rental_uris": {"android": "https://dc.lft.to/lastmile_qr_scan", "ios": "https://dc.lft.to/lastmile_qr_scan"}, "name": "d2b8b54e76d5ebfb3c29991ccaf28506", "is_reserved": 0}, {"is_disabled": 0, "fusion_lon": 0.0, "fusion_lat": 0.0, "lat": 38.933097, "type": "electric_scooter", "lon": -77.08194183333333, "bike_id": "cda4f09f31aec4dec2cad243b1aefaac", "rental_uris": {"android": "https://dc.lft.to/lastmile_qr_scan", "ios": "https://dc.lft.to/lastmile_qr_scan"}, "name": "cda4f09f31aec4dec2cad243b1aefaac", "is_reserved": 0}, {"is_disabled": 0, "fusion_lon": 0.0, "fusion_lat": 0.0, "lat": 38.96266466666667, "type": "electric_scooter", "lon": -77.03348183333334, "bike_id": "d72acedf9120aa3be835b867db86df34", "rental_uris": {"android": "https://dc.lft.to/lastmile_qr_scan", "ios": "https://dc.lft.to/lastmile_qr_scan"}, "name": "d72acedf9120aa3be835b867db86df34", "is_reserved": 0}, {"is_disabled": 0, "fusion_lon": 0.0, "fusion_lat": 0.0, "lat": 38.904563, "type": "electric_scooter", "lon": -77.028897, "bike_id": "730610af3dee69ce0e51a99fa399f7e4", "rental_uris": {"android": "https://dc.lft.to/lastmile_qr_scan", "ios": "https://dc.lft.to/lastmile_qr_scan"}, "name": "730610af3dee69ce0e51a99fa399f7e4", "is_reserved": 0}, {"is_disabled": 0, "fusion_lon": 0.0, "fusion_lat": 0.0, "lat": 38.96646416666667, "type": "electric_bike", "lon": -76.93022866666666, "bike_id": "13a89ed1af0190cd7b64b4f03c723175", "rental_uris": {"android": "https://dc.lft.to/lastmile_qr_scan", "ios": "https://dc.lft.to/lastmile_qr_scan"}, "name": "13a89ed1af0190cd7b64b4f03c723175", "is_reserved": 0}, {"is_disabled": 0, "fusion_lon": 0.0, "fusion_lat": 0.0, "lat": 38.85803583333333, "type": "electric_bike", "lon": -76.98758616666667, "bike_id": "0f7497e3fd37e39923f34d80e5e58d58", "rental_uris": {"android": "https://dc.lft.to/lastmile_qr_scan", "ios": "https://dc.lft.to/lastmile_qr_scan"}, "name": "0f7497e3fd37e39923f34d80e5e58d58", "is_reserved": 0}, {"is_disabled": 0, "fusion_lon": 0.0, "fusion_lat": 0.0, "lat": 38.90442516666667, "type": "electric_scooter", "lon": -77.043488, "bike_id": "bd3e1fff44807f31a285c827981de1a2", "rental_uris": {"android": "https://dc.lft.to/lastmile_qr_scan", "ios": "https://dc.lft.to/lastmile_qr_scan"}, "name": "bd3e1fff44807f31a285c827981de1a2", "is_reserved": 0}, {"is_disabled": 0, "fusion_lon": 0.0, "fusion_lat": 0.0, "lat": 38.905570833333336, "type": "electric_scooter", "lon": -77.0056495, "bike_id": "64350e81c0e58536b895d045c6991dce", "rental_uris": {"android": "https://dc.lft.to/lastmile_qr_scan", "ios": "https://dc.lft.to/lastmile_qr_scan"}, "name": "64350e81c0e58536b895d045c6991dce", "is_reserved": 0}, {"is_disabled": 0, "fusion_lon": 0.0, "fusion_lat": 0.0, "lat": 38.8935645, "type": "electric_scooter", "lon": -77.02217816666666, "bike_id": "f214d666137cef35131ef273bda6a0e4", "rental_uris": {"android": "https://dc.lft.to/lastmile_qr_scan", "ios": "https://dc.lft.to/lastmile_qr_scan"}, "name": "f214d666137cef35131ef273bda6a0e4", "is_reserved": 0}, {"is_disabled": 0, "fusion_lon": 0.0, "fusion_lat": 0.0, "lat": 38.87982616666667, "type": "electric_bike", "lon": -76.91600533333333, "bike_id": "cfa55723c489f3b5057a4047fe796fd8", "rental_uris": {"android": "https://dc.lft.to/lastmile_qr_scan", "ios": "https://dc.lft.to/lastmile_qr_scan"}, "name": "cfa55723c489f3b5057a4047fe796fd8", "is_reserved": 0}, {"is_disabled": 0, "fusion_lon": 0.0, "fusion_lat": 0.0, "lat": 38.896078833333334, "type": "electric_scooter", "lon": -77.0294575, "bike_id": "cccf395f88cc17be6ecc9e5edcc13924", "rental_uris": {"android": "https://dc.lft.to/lastmile_qr_scan", "ios": "https://dc.lft.to/lastmile_qr_scan"}, "name": "cccf395f88cc17be6ecc9e5edcc13924", "is_reserved": 0}, {"is_disabled": 0, "fusion_lon": 0.0, "fusion_lat": 0.0, "lat": 38.91672583333333, "type": "electric_scooter", "lon": -77.02960683333333, "bike_id": "dd4b03fef48e1f728fb2d708fc0dcda8", "rental_uris": {"android": "https://dc.lft.to/lastmile_qr_scan", "ios": "https://dc.lft.to/lastmile_qr_scan"}, "name": "dd4b03fef48e1f728fb2d708fc0dcda8", "is_reserved": 0}, {"is_disabled": 0, "fusion_lon": 0.0, "fusion_lat": 0.0, "lat": 38.922441, "type": "electric_scooter", "lon": -77.0224155, "bike_id": "9866dd79ae45823fd22084d9080637df", "rental_uris": {"android": "https://dc.lft.to/lastmile_qr_scan", "ios": "https://dc.lft.to/lastmile_qr_scan"}, "name": "9866dd79ae45823fd22084d9080637df", "is_reserved": 0}, {"is_disabled": 0, "fusion_lon": 0.0, "fusion_lat": 0.0, "lat": 38.9228055, "type": "electric_scooter", "lon": -77.03660283333333, "bike_id": "70b37ee6349ed2a1cc0c2cac96e3f994", "rental_uris": {"android": "https://dc.lft.to/lastmile_qr_scan", "ios": "https://dc.lft.to/lastmile_qr_scan"}, "name": "70b37ee6349ed2a1cc0c2cac96e3f994", "is_reserved": 0}, {"is_disabled": 0, "fusion_lon": 0.0, "fusion_lat": 0.0, "lat": 38.91153466666667, "type": "electric_scooter", "lon": -77.0879485, "bike_id": "79208ea56d2e2b1c666eb9f1ccb96d1b", "rental_uris": {"android": "https://dc.lft.to/lastmile_qr_scan", "ios": "https://dc.lft.to/lastmile_qr_scan"}, "name": "79208ea56d2e2b1c666eb9f1ccb96d1b", "is_reserved": 0}, {"is_disabled": 0, "fusion_lon": 0.0, "fusion_lat": 0.0, "lat": 38.910850833333335, "type": "electric_scooter", "lon": -77.02194016666667, "bike_id": "1fb5a0883f49fe319d874ae3438a6642", "rental_uris": {"android": "https://dc.lft.to/lastmile_qr_scan", "ios": "https://dc.lft.to/lastmile_qr_scan"}, "name": "1fb5a0883f49fe319d874ae3438a6642", "is_reserved": 0}, {"is_disabled": 0, "fusion_lon": 0.0, "fusion_lat": 0.0, "lat": 38.917257666666664, "type": "electric_scooter", "lon": -77.03206083333333, "bike_id": "f6278f4ea1a4597b8be8205a004162bd", "rental_uris": {"android": "https://dc.lft.to/lastmile_qr_scan", "ios": "https://dc.lft.to/lastmile_qr_scan"}, "name": "f6278f4ea1a4597b8be8205a004162bd", "is_reserved": 0}, {"is_disabled": 0, "fusion_lon": 0.0, "fusion_lat": 0.0, "lat": 38.9044915, "type": "electric_scooter", "lon": -77.02706233333333, "bike_id": "aa5f8c294363e936617bd7c159dc53e6", "rental_uris": {"android": "https://dc.lft.to/lastmile_qr_scan", "ios": "https://dc.lft.to/lastmile_qr_scan"}, "name": "aa5f8c294363e936617bd7c159dc53e6", "is_reserved": 0}, {"is_disabled": 0, "fusion_lon": 0.0, "fusion_lat": 0.0, "lat": 38.9492575, "type": "electric_scooter", "lon": -77.019368, "bike_id": "c0eca26143dd2a5043b224e4d0faa4d5", "rental_uris": {"android": "https://dc.lft.to/lastmile_qr_scan", "ios": "https://dc.lft.to/lastmile_qr_scan"}, "name": "c0eca26143dd2a5043b224e4d0faa4d5", "is_reserved": 0}, {"is_disabled": 0, "fusion_lon": 0.0, "fusion_lat": 0.0, "lat": 38.92030716666667, "type": "electric_scooter", "lon": -77.01814933333333, "bike_id": "d095b4fc6246c29e41fd826c47df81c9", "rental_uris": {"android": "https://dc.lft.to/lastmile_qr_scan", "ios": "https://dc.lft.to/lastmile_qr_scan"}, "name": "d095b4fc6246c29e41fd826c47df81c9", "is_reserved": 0}, {"is_disabled": 0, "fusion_lon": 0.0, "fusion_lat": 0.0, "lat": 38.88605416666667, "type": "electric_scooter", "lon": -77.00574666666667, "bike_id": "f67d66a5358008417f5a3116412a1102", "rental_uris": {"android": "https://dc.lft.to/lastmile_qr_scan", "ios": "https://dc.lft.to/lastmile_qr_scan"}, "name": "f67d66a5358008417f5a3116412a1102", "is_reserved": 0}, {"is_disabled": 0, "fusion_lon": 0.0, "fusion_lat": 0.0, "lat": 38.9063965, "type": "electric_scooter", "lon": -77.0237555, "bike_id": "240984e227e9b48ff978941312258181", "rental_uris": {"android": "https://dc.lft.to/lastmile_qr_scan", "ios": "https://dc.lft.to/lastmile_qr_scan"}, "name": "240984e227e9b48ff978941312258181", "is_reserved": 0}, {"is_disabled": 0, "fusion_lon": 0.0, "fusion_lat": 0.0, "lat": 38.92866766666667, "type": "electric_scooter", "lon": -77.03423966666666, "bike_id": "730f9c16b50c2cae8d489904bec0bc0d", "rental_uris": {"android": "https://dc.lft.to/lastmile_qr_scan", "ios": "https://dc.lft.to/lastmile_qr_scan"}, "name": "730f9c16b50c2cae8d489904bec0bc0d", "is_reserved": 0}, {"is_disabled": 0, "fusion_lon": 0.0, "fusion_lat": 0.0, "lat": 38.85646066666666, "type": "electric_bike", "lon": -77.0853425, "bike_id": "e0bdc591221dde5fb1c745fd8e5c3c62", "rental_uris": {"android": "https://dc.lft.to/lastmile_qr_scan", "ios": "https://dc.lft.to/lastmile_qr_scan"}, "name": "e0bdc591221dde5fb1c745fd8e5c3c62", "is_reserved": 0}, {"is_disabled": 0, "fusion_lon": 0.0, "fusion_lat": 0.0, "lat": 38.9357945, "type": "electric_scooter", "lon": -77.024488, "bike_id": "231c1d7a709a4b29390e16855c1a4bed", "rental_uris": {"android": "https://dc.lft.to/lastmile_qr_scan", "ios": "https://dc.lft.to/lastmile_qr_scan"}, "name": "231c1d7a709a4b29390e16855c1a4bed", "is_reserved": 0}, {"is_disabled": 0, "fusion_lon": 0.0, "fusion_lat": 0.0, "lat": 38.899472833333334, "type": "electric_scooter", "lon": -77.0515525, "bike_id": "910067795dd49c753515cba01aac54e9", "rental_uris": {"android": "https://dc.lft.to/lastmile_qr_scan", "ios": "https://dc.lft.to/lastmile_qr_scan"}, "name": "910067795dd49c753515cba01aac54e9", "is_reserved": 0}, {"is_disabled": 0, "fusion_lon": 0.0, "fusion_lat": 0.0, "lat": 38.9240815, "type": "electric_scooter", "lon": -77.02565533333333, "bike_id": "726bbd6f923dd871c25565aaf8740e07", "rental_uris": {"android": "https://dc.lft.to/lastmile_qr_scan", "ios": "https://dc.lft.to/lastmile_qr_scan"}, "name": "726bbd6f923dd871c25565aaf8740e07", "is_reserved": 0}, {"is_disabled": 0, "fusion_lon": 0.0, "fusion_lat": 0.0, "lat": 38.87682866666667, "type": "electric_scooter", "lon": -77.00273033333333, "bike_id": "a7d980aa3fe305002f898c2f04aa00fd", "rental_uris": {"android": "https://dc.lft.to/lastmile_qr_scan", "ios": "https://dc.lft.to/lastmile_qr_scan"}, "name": "a7d980aa3fe305002f898c2f04aa00fd", "is_reserved": 0}, {"is_disabled": 0, "fusion_lon": 0.0, "fusion_lat": 0.0, "lat": 38.870557833333336, "type": "electric_scooter", "lon": -76.98094633333334, "bike_id": "fd1feeaa05ab81091a21e165a2934963", "rental_uris": {"android": "https://dc.lft.to/lastmile_qr_scan", "ios": "https://dc.lft.to/lastmile_qr_scan"}, "name": "fd1feeaa05ab81091a21e165a2934963", "is_reserved": 0}, {"is_disabled": 0, "fusion_lon": 0.0, "fusion_lat": 0.0, "lat": 38.902279666666665, "type": "electric_scooter", "lon": -77.0600415, "bike_id": "c0c1a1521e09e05c17069ccebc8f8835", "rental_uris": {"android": "https://dc.lft.to/lastmile_qr_scan", "ios": "https://dc.lft.to/lastmile_qr_scan"}, "name": "c0c1a1521e09e05c17069ccebc8f8835", "is_reserved": 0}, {"is_disabled": 0, "fusion_lon": 0.0, "fusion_lat": 0.0, "lat": 38.9011575, "type": "electric_scooter", "lon": -77.04869416666666, "bike_id": "ee0bf392f7ea62c215089974a83492b7", "rental_uris": {"android": "https://dc.lft.to/lastmile_qr_scan", "ios": "https://dc.lft.to/lastmile_qr_scan"}, "name": "ee0bf392f7ea62c215089974a83492b7", "is_reserved": 0}, {"is_disabled": 0, "fusion_lon": 0.0, "fusion_lat": 0.0, "lat": 38.918155666666664, "type": "electric_scooter", "lon": -77.0108375, "bike_id": "c4713cf1148c79c25f3662512e37a71c", "rental_uris": {"android": "https://dc.lft.to/lastmile_qr_scan", "ios": "https://dc.lft.to/lastmile_qr_scan"}, "name": "c4713cf1148c79c25f3662512e37a71c", "is_reserved": 0}, {"is_disabled": 0, "fusion_lon": 0.0, "fusion_lat": 0.0, "lat": 38.84932666666667, "type": "electric_bike", "lon": -77.1001405, "bike_id": "b3f152a96a72ec7087595de1200871fa", "rental_uris": {"android": "https://dc.lft.to/lastmile_qr_scan", "ios": "https://dc.lft.to/lastmile_qr_scan"}, "name": "b3f152a96a72ec7087595de1200871fa", "is_reserved": 0}, {"is_disabled": 0, "fusion_lon": 0.0, "fusion_lat": 0.0, "lat": 38.95637633333333, "type": "electric_scooter", "lon": -77.09102933333334, "bike_id": "e39833cb75aa32d6af24b4a3d04c120a", "rental_uris": {"android": "https://dc.lft.to/lastmile_qr_scan", "ios": "https://dc.lft.to/lastmile_qr_scan"}, "name": "e39833cb75aa32d6af24b4a3d04c120a", "is_reserved": 0}, {"is_disabled": 0, "fusion_lon": 0.0, "fusion_lat": 0.0, "lat": 38.8844705, "type": "electric_scooter", "lon": -77.02964233333333, "bike_id": "c30cb3495c39a83100abcb680ed5a232", "rental_uris": {"android": "https://dc.lft.to/lastmile_qr_scan", "ios": "https://dc.lft.to/lastmile_qr_scan"}, "name": "c30cb3495c39a83100abcb680ed5a232", "is_reserved": 0}, {"is_disabled": 0, "fusion_lon": 0.0, "fusion_lat": 0.0, "lat": 38.9138205, "type": "electric_scooter", "lon": -77.02969833333333, "bike_id": "6e7e331431fac14631022c7f2158bcbd", "rental_uris": {"android": "https://dc.lft.to/lastmile_qr_scan", "ios": "https://dc.lft.to/lastmile_qr_scan"}, "name": "6e7e331431fac14631022c7f2158bcbd", "is_reserved": 0}, {"is_disabled": 0, "fusion_lon": 0.0, "fusion_lat": 0.0, "lat": 38.89831016666667, "type": "electric_scooter", "lon": -76.94635, "bike_id": "2a0d9141f7e2c1d73702adf5c8bca1cc", "rental_uris": {"android": "https://dc.lft.to/lastmile_qr_scan", "ios": "https://dc.lft.to/lastmile_qr_scan"}, "name": "2a0d9141f7e2c1d73702adf5c8bca1cc", "is_reserved": 0}, {"is_disabled": 0, "fusion_lon": 0.0, "fusion_lat": 0.0, "lat": 38.91187166666667, "type": "electric_scooter", "lon": -77.02980116666667, "bike_id": "89f07121f34dc45de3ea939218ac128e", "rental_uris": {"android": "https://dc.lft.to/lastmile_qr_scan", "ios": "https://dc.lft.to/lastmile_qr_scan"}, "name": "89f07121f34dc45de3ea939218ac128e", "is_reserved": 0}, {"is_disabled": 0, "fusion_lon": 0.0, "fusion_lat": 0.0, "lat": 38.907195, "type": "electric_scooter", "lon": -77.02546633333333, "bike_id": "7cf3c2fa635ff16a61dc70797c7019ed", "rental_uris": {"android": "https://dc.lft.to/lastmile_qr_scan", "ios": "https://dc.lft.to/lastmile_qr_scan"}, "name": "7cf3c2fa635ff16a61dc70797c7019ed", "is_reserved": 0}, {"is_disabled": 0, "fusion_lon": 0.0, "fusion_lat": 0.0, "lat": 38.8314495, "type": "electric_bike", "lon": -76.99689816666667, "bike_id": "1006170d9454e211b4a41003493e9cdf", "rental_uris": {"android": "https://dc.lft.to/lastmile_qr_scan", "ios": "https://dc.lft.to/lastmile_qr_scan"}, "name": "1006170d9454e211b4a41003493e9cdf", "is_reserved": 0}, {"is_disabled": 0, "fusion_lon": 0.0, "fusion_lat": 0.0, "lat": 38.89729, "type": "electric_scooter", "lon": -77.04988283333333, "bike_id": "407fa7e4c7c43604805ebd23636eced6", "rental_uris": {"android": "https://dc.lft.to/lastmile_qr_scan", "ios": "https://dc.lft.to/lastmile_qr_scan"}, "name": "407fa7e4c7c43604805ebd23636eced6", "is_reserved": 0}, {"is_disabled": 0, "fusion_lon": 0.0, "fusion_lat": 0.0, "lat": 38.92118216666667, "type": "electric_bike", "lon": -77.01212766666667, "bike_id": "0ebf29b84f5bd809fa4d65111ffc7f31", "rental_uris": {"android": "https://dc.lft.to/lastmile_qr_scan", "ios": "https://dc.lft.to/lastmile_qr_scan"}, "name": "0ebf29b84f5bd809fa4d65111ffc7f31", "is_reserved": 0}, {"is_disabled": 0, "fusion_lon": 0.0, "fusion_lat": 0.0, "lat": 38.897929500000004, "type": "electric_scooter", "lon": -76.93055133333333, "bike_id": "03a21563b2ce405f9561d1dc8a0acee7", "rental_uris": {"android": "https://dc.lft.to/lastmile_qr_scan", "ios": "https://dc.lft.to/lastmile_qr_scan"}, "name": "03a21563b2ce405f9561d1dc8a0acee7", "is_reserved": 0}, {"is_disabled": 0, "fusion_lon": 0.0, "fusion_lat": 0.0, "lat": 38.93535633333333, "type": "electric_scooter", "lon": -77.05769733333334, "bike_id": "82ecf22288a7713b4acf6b3a096c9e1c", "rental_uris": {"android": "https://dc.lft.to/lastmile_qr_scan", "ios": "https://dc.lft.to/lastmile_qr_scan"}, "name": "82ecf22288a7713b4acf6b3a096c9e1c", "is_reserved": 0}, {"is_disabled": 0, "fusion_lon": 0.0, "fusion_lat": 0.0, "lat": 38.90842516666667, "type": "electric_scooter", "lon": -77.0271455, "bike_id": "2f63eb7529a7165d295f7bea2581fb40", "rental_uris": {"android": "https://dc.lft.to/lastmile_qr_scan", "ios": "https://dc.lft.to/lastmile_qr_scan"}, "name": "2f63eb7529a7165d295f7bea2581fb40", "is_reserved": 0}, {"is_disabled": 0, "fusion_lon": 0.0, "fusion_lat": 0.0, "lat": 38.94288933333333, "type": "electric_scooter", "lon": -77.021702, "bike_id": "3ee3a7012b2b481c5207e572443f89b3", "rental_uris": {"android": "https://dc.lft.to/lastmile_qr_scan", "ios": "https://dc.lft.to/lastmile_qr_scan"}, "name": "3ee3a7012b2b481c5207e572443f89b3", "is_reserved": 0}, {"is_disabled": 0, "fusion_lon": 0.0, "fusion_lat": 0.0, "lat": 38.8673815, "type": "electric_scooter", "lon": -76.9885345, "bike_id": "f001fc903335846358ae3b5303a7423a", "rental_uris": {"android": "https://dc.lft.to/lastmile_qr_scan", "ios": "https://dc.lft.to/lastmile_qr_scan"}, "name": "f001fc903335846358ae3b5303a7423a", "is_reserved": 0}, {"is_disabled": 0, "fusion_lon": 0.0, "fusion_lat": 0.0, "lat": 38.949810166666666, "type": "electric_scooter", "lon": -77.02703916666667, "bike_id": "a7b666519e0af168e9b7676a2315cf30", "rental_uris": {"android": "https://dc.lft.to/lastmile_qr_scan", "ios": "https://dc.lft.to/lastmile_qr_scan"}, "name": "a7b666519e0af168e9b7676a2315cf30", "is_reserved": 0}, {"is_disabled": 0, "fusion_lon": 0.0, "fusion_lat": 0.0, "lat": 38.87684216666667, "type": "electric_scooter", "lon": -77.017553, "bike_id": "78869d9acc1c38eb15567832928016fb", "rental_uris": {"android": "https://dc.lft.to/lastmile_qr_scan", "ios": "https://dc.lft.to/lastmile_qr_scan"}, "name": "78869d9acc1c38eb15567832928016fb", "is_reserved": 0}, {"is_disabled": 0, "fusion_lon": 0.0, "fusion_lat": 0.0, "lat": 38.9060425, "type": "electric_scooter", "lon": -77.037265, "bike_id": "88488a19883a4700295b9cf71260a000", "rental_uris": {"android": "https://dc.lft.to/lastmile_qr_scan", "ios": "https://dc.lft.to/lastmile_qr_scan"}, "name": "88488a19883a4700295b9cf71260a000", "is_reserved": 0}, {"is_disabled": 0, "fusion_lon": 0.0, "fusion_lat": 0.0, "lat": 38.907856, "type": "electric_scooter", "lon": -77.00972733333333, "bike_id": "7088ced7cdabba569c2ac73a6fcb12a5", "rental_uris": {"android": "https://dc.lft.to/lastmile_qr_scan", "ios": "https://dc.lft.to/lastmile_qr_scan"}, "name": "7088ced7cdabba569c2ac73a6fcb12a5", "is_reserved": 0}, {"is_disabled": 0, "fusion_lon": 0.0, "fusion_lat": 0.0, "lat": 38.84099166666667, "type": "electric_bike", "lon": -77.0894145, "bike_id": "61d76611d974d80e81d607547be6e166", "rental_uris": {"android": "https://dc.lft.to/lastmile_qr_scan", "ios": "https://dc.lft.to/lastmile_qr_scan"}, "name": "61d76611d974d80e81d607547be6e166", "is_reserved": 0}, {"is_disabled": 0, "fusion_lon": 0.0, "fusion_lat": 0.0, "lat": 38.91268783333334, "type": "electric_scooter", "lon": -77.03865366666666, "bike_id": "e3041f4cbfda5f3a6983dc020915bf0a", "rental_uris": {"android": "https://dc.lft.to/lastmile_qr_scan", "ios": "https://dc.lft.to/lastmile_qr_scan"}, "name": "e3041f4cbfda5f3a6983dc020915bf0a", "is_reserved": 0}, {"is_disabled": 0, "fusion_lon": 0.0, "fusion_lat": 0.0, "lat": 38.92988916666667, "type": "electric_scooter", "lon": -77.019805, "bike_id": "3caf87fccf489f6622e809c105bf37de", "rental_uris": {"android": "https://dc.lft.to/lastmile_qr_scan", "ios": "https://dc.lft.to/lastmile_qr_scan"}, "name": "3caf87fccf489f6622e809c105bf37de", "is_reserved": 0}, {"is_disabled": 0, "fusion_lon": 0.0, "fusion_lat": 0.0, "lat": 38.90401, "type": "electric_scooter", "lon": -77.01794583333333, "bike_id": "60ba852ab1b128715e774224dc98841a", "rental_uris": {"android": "https://dc.lft.to/lastmile_qr_scan", "ios": "https://dc.lft.to/lastmile_qr_scan"}, "name": "60ba852ab1b128715e774224dc98841a", "is_reserved": 0}, {"is_disabled": 0, "fusion_lon": 0.0, "fusion_lat": 0.0, "lat": 38.896721666666664, "type": "electric_bike", "lon": -76.94059016666667, "bike_id": "ae11d861fbb7967dc2f574fc197f4977", "rental_uris": {"android": "https://dc.lft.to/lastmile_qr_scan", "ios": "https://dc.lft.to/lastmile_qr_scan"}, "name": "ae11d861fbb7967dc2f574fc197f4977", "is_reserved": 0}, {"is_disabled": 0, "fusion_lon": 0.0, "fusion_lat": 0.0, "lat": 38.91978983333333, "type": "electric_scooter", "lon": -77.03267866666667, "bike_id": "5de7e45d54f9d2e1bec8b3224c47a480", "rental_uris": {"android": "https://dc.lft.to/lastmile_qr_scan", "ios": "https://dc.lft.to/lastmile_qr_scan"}, "name": "5de7e45d54f9d2e1bec8b3224c47a480", "is_reserved": 0}, {"is_disabled": 0, "fusion_lon": 0.0, "fusion_lat": 0.0, "lat": 38.917945, "type": "electric_scooter", "lon": -77.03274183333333, "bike_id": "1b3bbd868507f7c221c1837c5dbc7452", "rental_uris": {"android": "https://dc.lft.to/lastmile_qr_scan", "ios": "https://dc.lft.to/lastmile_qr_scan"}, "name": "1b3bbd868507f7c221c1837c5dbc7452", "is_reserved": 0}, {"is_disabled": 0, "fusion_lon": 0.0, "fusion_lat": 0.0, "lat": 38.906337666666666, "type": "electric_scooter", "lon": -77.03147566666667, "bike_id": "c2988cddb06670b16b96cfd12be12592", "rental_uris": {"android": "https://dc.lft.to/lastmile_qr_scan", "ios": "https://dc.lft.to/lastmile_qr_scan"}, "name": "c2988cddb06670b16b96cfd12be12592", "is_reserved": 0}, {"is_disabled": 0, "fusion_lon": 0.0, "fusion_lat": 0.0, "lat": 38.85907616666667, "type": "electric_scooter", "lon": -76.987763, "bike_id": "3092d68fcb3fb6508bdb17a5fc463f27", "rental_uris": {"android": "https://dc.lft.to/lastmile_qr_scan", "ios": "https://dc.lft.to/lastmile_qr_scan"}, "name": "3092d68fcb3fb6508bdb17a5fc463f27", "is_reserved": 0}, {"is_disabled": 0, "fusion_lon": 0.0, "fusion_lat": 0.0, "lat": 38.9245915, "type": "electric_scooter", "lon": -77.05085683333333, "bike_id": "bde9d921d6e9cd99ebee7d516a18e07d", "rental_uris": {"android": "https://dc.lft.to/lastmile_qr_scan", "ios": "https://dc.lft.to/lastmile_qr_scan"}, "name": "bde9d921d6e9cd99ebee7d516a18e07d", "is_reserved": 0}, {"is_disabled": 0, "fusion_lon": 0.0, "fusion_lat": 0.0, "lat": 38.8763425, "type": "electric_scooter", "lon": -77.01632916666667, "bike_id": "ca53805260b56cc4e4b890bafec9d497", "rental_uris": {"android": "https://dc.lft.to/lastmile_qr_scan", "ios": "https://dc.lft.to/lastmile_qr_scan"}, "name": "ca53805260b56cc4e4b890bafec9d497", "is_reserved": 0}, {"is_disabled": 0, "fusion_lon": 0.0, "fusion_lat": 0.0, "lat": 38.91340566666667, "type": "electric_scooter", "lon": -77.0122425, "bike_id": "e98ba1857b49680c038c34bf042c37a5", "rental_uris": {"android": "https://dc.lft.to/lastmile_qr_scan", "ios": "https://dc.lft.to/lastmile_qr_scan"}, "name": "e98ba1857b49680c038c34bf042c37a5", "is_reserved": 0}, {"is_disabled": 0, "fusion_lon": 0.0, "fusion_lat": 0.0, "lat": 38.92604033333333, "type": "electric_scooter", "lon": -77.021572, "bike_id": "d133bf587d40a5aeee5926b39f0e2fe5", "rental_uris": {"android": "https://dc.lft.to/lastmile_qr_scan", "ios": "https://dc.lft.to/lastmile_qr_scan"}, "name": "d133bf587d40a5aeee5926b39f0e2fe5", "is_reserved": 0}, {"is_disabled": 0, "fusion_lon": 0.0, "fusion_lat": 0.0, "lat": 38.872290666666665, "type": "electric_scooter", "lon": -77.00573233333333, "bike_id": "809e89b77b0c1dd8104eca088dfd4f3a", "rental_uris": {"android": "https://dc.lft.to/lastmile_qr_scan", "ios": "https://dc.lft.to/lastmile_qr_scan"}, "name": "809e89b77b0c1dd8104eca088dfd4f3a", "is_reserved": 0}, {"is_disabled": 0, "fusion_lon": 0.0, "fusion_lat": 0.0, "lat": 38.952941333333335, "type": "electric_scooter", "lon": -77.03586333333334, "bike_id": "d5f2ceee9f351b1d3027fa6719e1bcfa", "rental_uris": {"android": "https://dc.lft.to/lastmile_qr_scan", "ios": "https://dc.lft.to/lastmile_qr_scan"}, "name": "d5f2ceee9f351b1d3027fa6719e1bcfa", "is_reserved": 0}, {"is_disabled": 0, "fusion_lon": 0.0, "fusion_lat": 0.0, "lat": 38.860582, "type": "electric_bike", "lon": -77.094297, "bike_id": "36cee2603f480e292412da24df4819e5", "rental_uris": {"android": "https://dc.lft.to/lastmile_qr_scan", "ios": "https://dc.lft.to/lastmile_qr_scan"}, "name": "36cee2603f480e292412da24df4819e5", "is_reserved": 0}, {"is_disabled": 0, "fusion_lon": 0.0, "fusion_lat": 0.0, "lat": 38.911192666666665, "type": "electric_scooter", "lon": -77.047175, "bike_id": "3d00b139d1a89ef0bad1bad972a776d0", "rental_uris": {"android": "https://dc.lft.to/lastmile_qr_scan", "ios": "https://dc.lft.to/lastmile_qr_scan"}, "name": "3d00b139d1a89ef0bad1bad972a776d0", "is_reserved": 0}, {"is_disabled": 0, "fusion_lon": 0.0, "fusion_lat": 0.0, "lat": 38.92061833333333, "type": "electric_scooter", "lon": -77.0287215, "bike_id": "9f09f74faa676653a8d8aadf660ded4e", "rental_uris": {"android": "https://dc.lft.to/lastmile_qr_scan", "ios": "https://dc.lft.to/lastmile_qr_scan"}, "name": "9f09f74faa676653a8d8aadf660ded4e", "is_reserved": 0}, {"is_disabled": 0, "fusion_lon": 0.0, "fusion_lat": 0.0, "lat": 38.893552166666666, "type": "electric_scooter", "lon": -77.02216183333333, "bike_id": "1d21edb1e19b27b32dbc6da6d86242c8", "rental_uris": {"android": "https://dc.lft.to/lastmile_qr_scan", "ios": "https://dc.lft.to/lastmile_qr_scan"}, "name": "1d21edb1e19b27b32dbc6da6d86242c8", "is_reserved": 0}, {"is_disabled": 0, "fusion_lon": 0.0, "fusion_lat": 0.0, "lat": 38.92974433333333, "type": "electric_scooter", "lon": -77.03470966666667, "bike_id": "602fb28055103b95e381dca794b579d0", "rental_uris": {"android": "https://dc.lft.to/lastmile_qr_scan", "ios": "https://dc.lft.to/lastmile_qr_scan"}, "name": "602fb28055103b95e381dca794b579d0", "is_reserved": 0}, {"is_disabled": 0, "fusion_lon": 0.0, "fusion_lat": 0.0, "lat": 38.928686166666665, "type": "electric_scooter", "lon": -77.014111, "bike_id": "2822c20e4aff6c33d7bacd4cddf73ca0", "rental_uris": {"android": "https://dc.lft.to/lastmile_qr_scan", "ios": "https://dc.lft.to/lastmile_qr_scan"}, "name": "2822c20e4aff6c33d7bacd4cddf73ca0", "is_reserved": 0}, {"is_disabled": 0, "fusion_lon": 0.0, "fusion_lat": 0.0, "lat": 38.915808166666665, "type": "electric_scooter", "lon": -76.98116116666667, "bike_id": "9c3c7e46c7067bf8e0bc33eed61e40c5", "rental_uris": {"android": "https://dc.lft.to/lastmile_qr_scan", "ios": "https://dc.lft.to/lastmile_qr_scan"}, "name": "9c3c7e46c7067bf8e0bc33eed61e40c5", "is_reserved": 0}, {"is_disabled": 0, "fusion_lon": 0.0, "fusion_lat": 0.0, "lat": 38.988276166666665, "type": "electric_bike", "lon": -76.98751633333333, "bike_id": "b4474313b4f8aed0d9f060c9624ba963", "rental_uris": {"android": "https://dc.lft.to/lastmile_qr_scan", "ios": "https://dc.lft.to/lastmile_qr_scan"}, "name": "b4474313b4f8aed0d9f060c9624ba963", "is_reserved": 0}, {"is_disabled": 0, "fusion_lon": 0.0, "fusion_lat": 0.0, "lat": 38.8988735, "type": "electric_scooter", "lon": -76.98683983333333, "bike_id": "ee21c4371c9f32f6d3c897f21af0d9d2", "rental_uris": {"android": "https://dc.lft.to/lastmile_qr_scan", "ios": "https://dc.lft.to/lastmile_qr_scan"}, "name": "ee21c4371c9f32f6d3c897f21af0d9d2", "is_reserved": 0}, {"is_disabled": 0, "fusion_lon": 0.0, "fusion_lat": 0.0, "lat": 38.92257983333333, "type": "electric_scooter", "lon": -77.03528483333334, "bike_id": "8263ffdd833b8d14fdda6b27181199f4", "rental_uris": {"android": "https://dc.lft.to/lastmile_qr_scan", "ios": "https://dc.lft.to/lastmile_qr_scan"}, "name": "8263ffdd833b8d14fdda6b27181199f4", "is_reserved": 0}, {"is_disabled": 0, "fusion_lon": 0.0, "fusion_lat": 0.0, "lat": 38.9017275, "type": "electric_scooter", "lon": -77.0532245, "bike_id": "37e89a259794a8ea6c0383e45881e70c", "rental_uris": {"android": "https://dc.lft.to/lastmile_qr_scan", "ios": "https://dc.lft.to/lastmile_qr_scan"}, "name": "37e89a259794a8ea6c0383e45881e70c", "is_reserved": 0}, {"is_disabled": 0, "fusion_lon": 0.0, "fusion_lat": 0.0, "lat": 38.927488, "type": "electric_scooter", "lon": -77.03357766666667, "bike_id": "5f5022a9142fe92c11c4753c79cdb725", "rental_uris": {"android": "https://dc.lft.to/lastmile_qr_scan", "ios": "https://dc.lft.to/lastmile_qr_scan"}, "name": "5f5022a9142fe92c11c4753c79cdb725", "is_reserved": 0}, {"is_disabled": 0, "fusion_lon": 0.0, "fusion_lat": 0.0, "lat": 38.882752833333335, "type": "electric_scooter", "lon": -76.98778983333334, "bike_id": "00aab82df88ce885a9630498693ddbae", "rental_uris": {"android": "https://dc.lft.to/lastmile_qr_scan", "ios": "https://dc.lft.to/lastmile_qr_scan"}, "name": "00aab82df88ce885a9630498693ddbae", "is_reserved": 0}, {"is_disabled": 0, "fusion_lon": 0.0, "fusion_lat": 0.0, "lat": 38.92577766666667, "type": "electric_scooter", "lon": -76.99495283333333, "bike_id": "abe7b14f634e2f93118e2bf856f35f05", "rental_uris": {"android": "https://dc.lft.to/lastmile_qr_scan", "ios": "https://dc.lft.to/lastmile_qr_scan"}, "name": "abe7b14f634e2f93118e2bf856f35f05", "is_reserved": 0}, {"is_disabled": 0, "fusion_lon": 0.0, "fusion_lat": 0.0, "lat": 38.907354833333336, "type": "electric_scooter", "lon": -77.0344275, "bike_id": "8411cb3e7cea60474d357cb8d8a416c0", "rental_uris": {"android": "https://dc.lft.to/lastmile_qr_scan", "ios": "https://dc.lft.to/lastmile_qr_scan"}, "name": "8411cb3e7cea60474d357cb8d8a416c0", "is_reserved": 0}, {"is_disabled": 0, "fusion_lon": 0.0, "fusion_lat": 0.0, "lat": 38.94197333333334, "type": "electric_scooter", "lon": -77.02579933333334, "bike_id": "892ade70aa2749037a839e2dc2df0b88", "rental_uris": {"android": "https://dc.lft.to/lastmile_qr_scan", "ios": "https://dc.lft.to/lastmile_qr_scan"}, "name": "892ade70aa2749037a839e2dc2df0b88", "is_reserved": 0}, {"is_disabled": 0, "fusion_lon": 0.0, "fusion_lat": 0.0, "lat": 38.91932666666666, "type": "electric_scooter", "lon": -77.02594783333333, "bike_id": "c821de4af97f622593b100efea900b38", "rental_uris": {"android": "https://dc.lft.to/lastmile_qr_scan", "ios": "https://dc.lft.to/lastmile_qr_scan"}, "name": "c821de4af97f622593b100efea900b38", "is_reserved": 0}, {"is_disabled": 0, "fusion_lon": 0.0, "fusion_lat": 0.0, "lat": 38.909040833333336, "type": "electric_scooter", "lon": -76.99866583333333, "bike_id": "1e78018f68c1437a14d07a09cb824c77", "rental_uris": {"android": "https://dc.lft.to/lastmile_qr_scan", "ios": "https://dc.lft.to/lastmile_qr_scan"}, "name": "1e78018f68c1437a14d07a09cb824c77", "is_reserved": 0}, {"is_disabled": 0, "fusion_lon": 0.0, "fusion_lat": 0.0, "lat": 38.876434833333334, "type": "electric_scooter", "lon": -77.00792116666666, "bike_id": "779948821753cb5f1010a5157b0b8048", "rental_uris": {"android": "https://dc.lft.to/lastmile_qr_scan", "ios": "https://dc.lft.to/lastmile_qr_scan"}, "name": "779948821753cb5f1010a5157b0b8048", "is_reserved": 0}, {"is_disabled": 0, "fusion_lon": 0.0, "fusion_lat": 0.0, "lat": 38.944557833333334, "type": "electric_scooter", "lon": -77.06020083333334, "bike_id": "2c41eed9efbb3a9cd4d329e438ca7731", "rental_uris": {"android": "https://dc.lft.to/lastmile_qr_scan", "ios": "https://dc.lft.to/lastmile_qr_scan"}, "name": "2c41eed9efbb3a9cd4d329e438ca7731", "is_reserved": 0}, {"is_disabled": 0, "fusion_lon": 0.0, "fusion_lat": 0.0, "lat": 38.92621466666667, "type": "electric_scooter", "lon": -77.04190866666667, "bike_id": "f65a8b3327e61303b57d779ad72ae49f", "rental_uris": {"android": "https://dc.lft.to/lastmile_qr_scan", "ios": "https://dc.lft.to/lastmile_qr_scan"}, "name": "f65a8b3327e61303b57d779ad72ae49f", "is_reserved": 0}, {"is_disabled": 0, "fusion_lon": 0.0, "fusion_lat": 0.0, "lat": 38.895231833333334, "type": "electric_scooter", "lon": -77.0281245, "bike_id": "f3eafecba13f8c71d12ce2ea589cdea0", "rental_uris": {"android": "https://dc.lft.to/lastmile_qr_scan", "ios": "https://dc.lft.to/lastmile_qr_scan"}, "name": "f3eafecba13f8c71d12ce2ea589cdea0", "is_reserved": 0}, {"is_disabled": 0, "fusion_lon": 0.0, "fusion_lat": 0.0, "lat": 38.909710833333335, "type": "electric_scooter", "lon": -77.038711, "bike_id": "c1bb129dd09edb8165d6c7278d4e00a1", "rental_uris": {"android": "https://dc.lft.to/lastmile_qr_scan", "ios": "https://dc.lft.to/lastmile_qr_scan"}, "name": "c1bb129dd09edb8165d6c7278d4e00a1", "is_reserved": 0}, {"is_disabled": 0, "fusion_lon": 0.0, "fusion_lat": 0.0, "lat": 38.86957016666667, "type": "electric_scooter", "lon": -76.9760065, "bike_id": "8d570cfac74b01b230981270bb62fe6f", "rental_uris": {"android": "https://dc.lft.to/lastmile_qr_scan", "ios": "https://dc.lft.to/lastmile_qr_scan"}, "name": "8d570cfac74b01b230981270bb62fe6f", "is_reserved": 0}, {"is_disabled": 0, "fusion_lon": 0.0, "fusion_lat": 0.0, "lat": 38.921511333333335, "type": "electric_scooter", "lon": -77.035058, "bike_id": "adfe2c6874ec7b4005c32bc0dd5326f8", "rental_uris": {"android": "https://dc.lft.to/lastmile_qr_scan", "ios": "https://dc.lft.to/lastmile_qr_scan"}, "name": "adfe2c6874ec7b4005c32bc0dd5326f8", "is_reserved": 0}, {"is_disabled": 0, "fusion_lon": 0.0, "fusion_lat": 0.0, "lat": 38.99665533333334, "type": "electric_bike", "lon": -76.99142616666667, "bike_id": "41b5b58a606d64ac886afc94a16266ad", "rental_uris": {"android": "https://dc.lft.to/lastmile_qr_scan", "ios": "https://dc.lft.to/lastmile_qr_scan"},