{"data": {"bikes": [{"rental_uris": {"android": "https://dc.lft.to/lastmile_qr_scan", "ios": "https://dc.lft.to/lastmile_qr_scan"}, "type": "electric_bike", "lon": -77.08528933333334, "name": "07e5df5e5a0d6ae364ff877884714ae1", "bike_id": "07e5df5e5a0d6ae364ff877884714ae1", "fusion_lat": 0.0, "is_reserved": 0, "lat": 38.856499166666666, "fusion_lon": 0.0, "is_disabled": 0}, {"rental_uris": {"android": "https://dc.lft.to/lastmile_qr_scan", "ios": "https://dc.lft.to/lastmile_qr_scan"}, "type": "electric_scooter", "lon": -77.04840116666666, "name": "f194099ec1e80ade61d3f07f3d38739c", "bike_id": "f194099ec1e80ade61d3f07f3d38739c", "fusion_lat": 0.0, "is_reserved": 0, "lat": 38.9132925, "fusion_lon": 0.0, "is_disabled": 0}, {"rental_uris": {"android": "https://dc.lft.to/lastmile_qr_scan", "ios": "https://dc.lft.to/lastmile_qr_scan"}, "type": "electric_scooter", "lon": -77.04764566666667, "name": "49f4939231e5fe6a284d40aaf368a315", "bike_id": "49f4939231e5fe6a284d40aaf368a315", "fusion_lat": 0.0, "is_reserved": 0, "lat": 38.9126905, "fusion_lon": 0.0, "is_disabled": 0}, {"rental_uris": {"android": "https://dc.lft.to/lastmile_qr_scan", "ios": "https://dc.lft.to/lastmile_qr_scan"}, "type": "electric_scooter", "lon": -77.02366116666667, "name": "a2067b0299b2b617a1dfdf88f3d82419", "bike_id": "a2067b0299b2b617a1dfdf88f3d82419", "fusion_lat": 0.0, "is_reserved": 0, "lat": 38.90306966666667, "fusion_lon": 0.0, "is_disabled": 0}, {"rental_uris": {"android": "https://dc.lft.to/lastmile_qr_scan", "ios": "https://dc.lft.to/lastmile_qr_scan"}, "type": "electric_scooter", "lon": -77.02546183333334, "name": "f5cbe5ec55091104b558df15010b9b5a", "bike_id": "f5cbe5ec55091104b558df15010b9b5a", "fusion_lat": 0.0, "is_reserved": 0, "lat": 38.89225916666667, "fusion_lon": 0.0, "is_disabled": 0}, {"rental_uris": {"android": "https://dc.lft.to/lastmile_qr_scan", "ios": "https://dc.lft.to/lastmile_qr_scan"}, "type": "electric_scooter", "lon": -77.02801083333334, "name": "253dfcf9c559a47d2964404980f0212f", "bike_id": "253dfcf9c559a47d2964404980f0212f", "fusion_lat": 0.0, "is_reserved": 0, "lat": 38.9043335, "fusion_lon": 0.0, "is_disabled": 0}, {"rental_uris": {"android": "https://dc.lft.to/lastmile_qr_scan", "ios": "https://dc.lft.to/lastmile_qr_scan"}, "type": "electric_scooter", "lon": -77.0172195, "name": "d8d92e42f03671f07c071a97daa97b4f", "bike_id": "d8d92e42f03671f07c071a97daa97b4f", "fusion_lat": 0.0, "is_reserved": 0, "lat": 38.885948, "fusion_lon": 0.0, "is_disabled": 0}, {"rental_uris": {"android": "https://dc.lft.to/lastmile_qr_scan", "ios": "https://dc.lft.to/lastmile_qr_scan"}, "type": "electric_scooter", "lon": -76.94845566666666, "name": "ab254195b5077243a2ae2b484978aee7", "bike_id": "ab254195b5077243a2ae2b484978aee7", "fusion_lat": 0.0, "is_reserved": 0, "lat": 38.89485883333333, "fusion_lon": 0.0, "is_disabled": 0}, {"rental_uris": {"android": "https://dc.lft.to/lastmile_qr_scan", "ios": "https://dc.lft.to/lastmile_qr_scan"}, "type": "electric_scooter", "lon": -77.01127983333333, "name": "1b96bb5a090d4b990dd8e2d3e976170b", "bike_id": "1b96bb5a090d4b990dd8e2d3e976170b", "fusion_lat": 0.0, "is_reserved": 0, "lat": 38.9035265, "fusion_lon": 0.0, "is_disabled": 0}, {"rental_uris": {"android": "https://dc.lft.to/lastmile_qr_scan", "ios": "https://dc.lft.to/lastmile_qr_scan"}, "type": "electric_scooter", "lon": -77.06321383333334, "name": "635b1cc75128cd355923d61020391338", "bike_id": "635b1cc75128cd355923d61020391338", "fusion_lat": 0.0, "is_reserved": 0, "lat": 38.92173233333333, "fusion_lon": 0.0, "is_disabled": 0}, {"rental_uris": {"android": "https://dc.lft.to/lastmile_qr_scan", "ios": "https://dc.lft.to/lastmile_qr_scan"}, "type": "electric_bike", "lon": -77.0129815, "name": "dc3bbc9e0e2099dbe3dce506c6f534c1", "bike_id": "dc3bbc9e0e2099dbe3dce506c6f534c1", "fusion_lat": 0.0, "is_reserved": 0, "lat": 39.003765, "fusion_lon": 0.0, "is_disabled": 0}, {"rental_uris": {"android": "https://dc.lft.to/lastmile_qr_scan", "ios": "https://dc.lft.to/lastmile_qr_scan"}, "type": "electric_scooter", "lon": -77.05924333333333, "name": "e62a86d9930dfbb8d9f31b4cbf410682", "bike_id": "e62a86d9930dfbb8d9f31b4cbf410682", "fusion_lat": 0.0, "is_reserved": 0, "lat": 38.936546, "fusion_lon": 0.0, "is_disabled": 0}, {"rental_uris": {"android": "https://dc.lft.to/lastmile_qr_scan", "ios": "https://dc.lft.to/lastmile_qr_scan"}, "type": "electric_scooter", "lon": -77.005779, "name": "c6e962f5fd2c7e6935409af22fc9c040", "bike_id": "c6e962f5fd2c7e6935409af22fc9c040", "fusion_lat": 0.0, "is_reserved": 0, "lat": 38.90624583333334, "fusion_lon": 0.0, "is_disabled": 0}, {"rental_uris": {"android": "https://dc.lft.to/lastmile_qr_scan", "ios": "https://dc.lft.to/lastmile_qr_scan"}, "type": "electric_scooter", "lon": -77.03271083333334, "name": "44402f78c91c7d04da8fbf2ae50163a4", "bike_id": "44402f78c91c7d04da8fbf2ae50163a4", "fusion_lat": 0.0, "is_reserved": 0, "lat": 38.933364166666664, "fusion_lon": 0.0, "is_disabled": 0}, {"rental_uris": {"android": "https://dc.lft.to/lastmile_qr_scan", "ios": "https://dc.lft.to/lastmile_qr_scan"}, "type": "electric_scooter", "lon": -77.0270645, "name": "6fbf548111a706c8b00f0fa0c81c88cc", "bike_id": "6fbf548111a706c8b00f0fa0c81c88cc", "fusion_lat": 0.0, "is_reserved": 0, "lat": 38.949956, "fusion_lon": 0.0, "is_disabled": 0}, {"rental_uris": {"android": "https://dc.lft.to/lastmile_qr_scan", "ios": "https://dc.lft.to/lastmile_qr_scan"}, "type": "electric_scooter", "lon": -77.0125165, "name": "eb7ca919aef8389047225b80637d0519", "bike_id": "eb7ca919aef8389047225b80637d0519", "fusion_lat": 0.0, "is_reserved": 0, "lat": 38.908652000000004, "fusion_lon": 0.0, "is_disabled": 0}, {"rental_uris": {"android": "https://dc.lft.to/lastmile_qr_scan", "ios": "https://dc.lft.to/lastmile_qr_scan"}, "type": "electric_scooter", "lon": -76.96518983333333, "name": "35043872c74c4fcfe982d029926cfc9c", "bike_id": "35043872c74c4fcfe982d029926cfc9c", "fusion_lat": 0.0, "is_reserved": 0, "lat": 38.87476016666667, "fusion_lon": 0.0, "is_disabled": 0}, {"rental_uris": {"android": "https://dc.lft.to/lastmile_qr_scan", "ios": "https://dc.lft.to/lastmile_qr_scan"}, "type": "electric_bike", "lon": -77.0060485, "name": "9a2f907a1e9a8dce3b0191cabac19e4b", "bike_id": "9a2f907a1e9a8dce3b0191cabac19e4b", "fusion_lat": 0.0, "is_reserved": 0, "lat": 38.902659166666666, "fusion_lon": 0.0, "is_disabled": 0}, {"rental_uris": {"android": "https://dc.lft.to/lastmile_qr_scan", "ios": "https://dc.lft.to/lastmile_qr_scan"}, "type": "electric_scooter", "lon": -77.01219466666667, "name": "1f35b2a8d34a4bb86061004ae0abadd8", "bike_id": "1f35b2a8d34a4bb86061004ae0abadd8", "fusion_lat": 0.0, "is_reserved": 0, "lat": 38.915184333333336, "fusion_lon": 0.0, "is_disabled": 0}, {"rental_uris": {"android": "https://dc.lft.to/lastmile_qr_scan", "ios": "https://dc.lft.to/lastmile_qr_scan"}, "type": "electric_scooter", "lon": -76.97475833333333, "name": "317f16fd9022463c68d7bc6b85d18ac0", "bike_id": "317f16fd9022463c68d7bc6b85d18ac0", "fusion_lat": 0.0, "is_reserved": 0, "lat": 38.903507, "fusion_lon": 0.0, "is_disabled": 0}, {"rental_uris": {"android": "https://dc.lft.to/lastmile_qr_scan", "ios": "https://dc.lft.to/lastmile_qr_scan"}, "type": "electric_scooter", "lon": -76.9841465, "name": "361115ffffd3b9e8ee952d79287fd9e6", "bike_id": "361115ffffd3b9e8ee952d79287fd9e6", "fusion_lat": 0.0, "is_reserved": 0, "lat": 38.913975, "fusion_lon": 0.0, "is_disabled": 0}, {"rental_uris": {"android": "https://dc.lft.to/lastmile_qr_scan", "ios": "https://dc.lft.to/lastmile_qr_scan"}, "type": "electric_scooter", "lon": -77.082161, "name": "4341f6de342f0ef92b5dcd0268943fc7", "bike_id": "4341f6de342f0ef92b5dcd0268943fc7", "fusion_lat": 0.0, "is_reserved": 0, "lat": 38.93554866666667, "fusion_lon": 0.0, "is_disabled": 0}, {"rental_uris": {"android": "https://dc.lft.to/lastmile_qr_scan", "ios": "https://dc.lft.to/lastmile_qr_scan"}, "type": "electric_scooter", "lon": -77.002932, "name": "ffca7c2543a7babd4cb21292d81e4fcd", "bike_id": "ffca7c2543a7babd4cb21292d81e4fcd", "fusion_lat": 0.0, "is_reserved": 0, "lat": 38.88986583333333, "fusion_lon": 0.0, "is_disabled": 0}, {"rental_uris": {"android": "https://dc.lft.to/lastmile_qr_scan", "ios": "https://dc.lft.to/lastmile_qr_scan"}, "type": "electric_scooter", "lon": -77.00919716666667, "name": "193740de8437f1b5da1aab9d12fb04ea", "bike_id": "193740de8437f1b5da1aab9d12fb04ea", "fusion_lat": 0.0, "is_reserved": 0, "lat": 38.910527, "fusion_lon": 0.0, "is_disabled": 0}, {"rental_uris": {"android": "https://dc.lft.to/lastmile_qr_scan", "ios": "https://dc.lft.to/lastmile_qr_scan"}, "type": "electric_scooter", "lon": -77.04325283333333, "name": "5fc8b4c719cb884d40f3356512afeb9f", "bike_id": "5fc8b4c719cb884d40f3356512afeb9f", "fusion_lat": 0.0, "is_reserved": 0, "lat": 38.9006145, "fusion_lon": 0.0, "is_disabled": 0}, {"rental_uris": {"android": "https://dc.lft.to/lastmile_qr_scan", "ios": "https://dc.lft.to/lastmile_qr_scan"}, "type": "electric_scooter", "lon": -77.03063033333333, "name": "2ca5d63455237ec1609dcdabbe05825c", "bike_id": "2ca5d63455237ec1609dcdabbe05825c", "fusion_lat": 0.0, "is_reserved": 0, "lat": 38.91914416666667, "fusion_lon": 0.0, "is_disabled": 0}, {"rental_uris": {"android": "https://dc.lft.to/lastmile_qr_scan", "ios": "https://dc.lft.to/lastmile_qr_scan"}, "type": "electric_scooter", "lon": -76.93828233333333, "name": "5826fb41f236770e264c7a97c07339fc", "bike_id": "5826fb41f236770e264c7a97c07339fc", "fusion_lat": 0.0, "is_reserved": 0, "lat": 38.897583166666664, "fusion_lon": 0.0, "is_disabled": 0}, {"rental_uris": {"android": "https://dc.lft.to/lastmile_qr_scan", "ios": "https://dc.lft.to/lastmile_qr_scan"}, "type": "electric_scooter", "lon": -77.02809, "name": "263453d706435f9e3069d72e12700d82", "bike_id": "263453d706435f9e3069d72e12700d82", "fusion_lat": 0.0, "is_reserved": 0, "lat": 38.944568833333335, "fusion_lon": 0.0, "is_disabled": 0}, {"rental_uris": {"android": "https://dc.lft.to/lastmile_qr_scan", "ios": "https://dc.lft.to/lastmile_qr_scan"}, "type": "electric_scooter", "lon": -76.99214466666666, "name": "409bfc8d6f58098af9e34614b9b20a6e", "bike_id": "409bfc8d6f58098af9e34614b9b20a6e", "fusion_lat": 0.0, "is_reserved": 0, "lat": 38.90470766666667, "fusion_lon": 0.0, "is_disabled": 0}, {"rental_uris": {"android": "https://dc.lft.to/lastmile_qr_scan", "ios": "https://dc.lft.to/lastmile_qr_scan"}, "type": "electric_scooter", "lon": -77.00345933333334, "name": "dee3ba85100cbae5b774247522e792ea", "bike_id": "dee3ba85100cbae5b774247522e792ea", "fusion_lat": 0.0, "is_reserved": 0, "lat": 38.913423333333334, "fusion_lon": 0.0, "is_disabled": 0}, {"rental_uris": {"android": "https://dc.lft.to/lastmile_qr_scan", "ios": "https://dc.lft.to/lastmile_qr_scan"}, "type": "electric_scooter", "lon": -76.9484295, "name": "10fe0962491ed452e7557e7dffca2d0f", "bike_id": "10fe0962491ed452e7557e7dffca2d0f", "fusion_lat": 0.0, "is_reserved": 0, "lat": 38.8948485, "fusion_lon": 0.0, "is_disabled": 0}, {"rental_uris": {"android": "https://dc.lft.to/lastmile_qr_scan", "ios": "https://dc.lft.to/lastmile_qr_scan"}, "type": "electric_scooter", "lon": -77.0257775, "name": "c9984e16a85c0c98648ebf83eddafdf7", "bike_id": "c9984e16a85c0c98648ebf83eddafdf7", "fusion_lat": 0.0, "is_reserved": 0, "lat": 38.925078166666665, "fusion_lon": 0.0, "is_disabled": 0}, {"rental_uris": {"android": "https://dc.lft.to/lastmile_qr_scan", "ios": "https://dc.lft.to/lastmile_qr_scan"}, "type": "electric_bike", "lon": -77.12267683333333, "name": "60ab2b05524f282b0fbd806b4951ea44", "bike_id": "60ab2b05524f282b0fbd806b4951ea44", "fusion_lat": 0.0, "is_reserved": 0, "lat": 38.8973395, "fusion_lon": 0.0, "is_disabled": 0}, {"rental_uris": {"android": "https://dc.lft.to/lastmile_qr_scan", "ios": "https://dc.lft.to/lastmile_qr_scan"}, "type": "electric_scooter", "lon": -77.040137, "name": "cbb1519b8014838886dd11e802a8f5c3", "bike_id": "cbb1519b8014838886dd11e802a8f5c3", "fusion_lat": 0.0, "is_reserved": 0, "lat": 38.91315083333333, "fusion_lon": 0.0, "is_disabled": 0}, {"rental_uris": {"android": "https://dc.lft.to/lastmile_qr_scan", "ios": "https://dc.lft.to/lastmile_qr_scan"}, "type": "electric_scooter", "lon": -77.043876, "name": "d01b52d049e8b1bfee9c46fab698195d", "bike_id": "d01b52d049e8b1bfee9c46fab698195d", "fusion_lat": 0.0, "is_reserved": 0, "lat": 38.906559, "fusion_lon": 0.0, "is_disabled": 0}, {"rental_uris": {"android": "https://dc.lft.to/lastmile_qr_scan", "ios": "https://dc.lft.to/lastmile_qr_scan"}, "type": "electric_scooter", "lon": -77.07349966666666, "name": "e7f786fc69a4ee4f7a4fd2495f07da53", "bike_id": "e7f786fc69a4ee4f7a4fd2495f07da53", "fusion_lat": 0.0, "is_reserved": 0, "lat": 38.911021166666664, "fusion_lon": 0.0, "is_disabled": 0}, {"rental_uris": {"android": "https://dc.lft.to/lastmile_qr_scan", "ios": "https://dc.lft.to/lastmile_qr_scan"}, "type": "electric_bike", "lon": -76.9165855, "name": "0e677cf04a718e5c7b0b502bfd346235", "bike_id": "0e677cf04a718e5c7b0b502bfd346235", "fusion_lat": 0.0, "is_reserved": 0, "lat": 38.86857883333333, "fusion_lon": 0.0, "is_disabled": 0}, {"rental_uris": {"android": "https://dc.lft.to/lastmile_qr_scan", "ios": "https://dc.lft.to/lastmile_qr_scan"}, "type": "electric_scooter", "lon": -77.04811533333333, "name": "06f9a3235e6a20573b81c0e77a48942b", "bike_id": "06f9a3235e6a20573b81c0e77a48942b", "fusion_lat": 0.0, "is_reserved": 0, "lat": 38.911029, "fusion_lon": 0.0, "is_disabled": 0}, {"rental_uris": {"android": "https://dc.lft.to/lastmile_qr_scan", "ios": "https://dc.lft.to/lastmile_qr_scan"}, "type": "electric_bike", "lon": -77.23312066666666, "name": "0a6226b0cf8f3059af3ebfdb9fa124ca", "bike_id": "0a6226b0cf8f3059af3ebfdb9fa124ca", "fusion_lat": 0.0, "is_reserved": 0, "lat": 38.9250505, "fusion_lon": 0.0, "is_disabled": 0}, {"rental_uris": {"android": "https://dc.lft.to/lastmile_qr_scan", "ios": "https://dc.lft.to/lastmile_qr_scan"}, "type": "electric_scooter", "lon": -77.0421255, "name": "f37f0d8d1419757bc3ec0cd940aa203b", "bike_id": "f37f0d8d1419757bc3ec0cd940aa203b", "fusion_lat": 0.0, "is_reserved": 0, "lat": 38.90387916666667, "fusion_lon": 0.0, "is_disabled": 0}, {"rental_uris": {"android": "https://dc.lft.to/lastmile_qr_scan", "ios": "https://dc.lft.to/lastmile_qr_scan"}, "type": "electric_scooter", "lon": -76.95408083333334, "name": "1b17634275fec286b3d042c365d272ca", "bike_id": "1b17634275fec286b3d042c365d272ca", "fusion_lat": 0.0, "is_reserved": 0, "lat": 38.89159083333333, "fusion_lon": 0.0, "is_disabled": 0}, {"rental_uris": {"android": "https://dc.lft.to/lastmile_qr_scan", "ios": "https://dc.lft.to/lastmile_qr_scan"}, "type": "electric_scooter", "lon": -77.04227583333333, "name": "134210cf7cd483818286789d37272b71", "bike_id": "134210cf7cd483818286789d37272b71", "fusion_lat": 0.0, "is_reserved": 0, "lat": 38.911075833333335, "fusion_lon": 0.0, "is_disabled": 0}, {"rental_uris": {"android": "https://dc.lft.to/lastmile_qr_scan", "ios": "https://dc.lft.to/lastmile_qr_scan"}, "type": "electric_scooter", "lon": -77.04182866666666, "name": "15773872852b4d7093e54f89481420c4", "bike_id": "15773872852b4d7093e54f89481420c4", "fusion_lat": 0.0, "is_reserved": 0, "lat": 38.92049566666667, "fusion_lon": 0.0, "is_disabled": 0}, {"rental_uris": {"android": "https://dc.lft.to/lastmile_qr_scan", "ios": "https://dc.lft.to/lastmile_qr_scan"}, "type": "electric_scooter", "lon": -77.033201, "name": "365a76228ee94281023f95888b6aeda9", "bike_id": "365a76228ee94281023f95888b6aeda9", "fusion_lat": 0.0, "is_reserved": 0, "lat": 38.89847566666667, "fusion_lon": 0.0, "is_disabled": 0}, {"rental_uris": {"android": "https://dc.lft.to/lastmile_qr_scan", "ios": "https://dc.lft.to/lastmile_qr_scan"}, "type": "electric_scooter", "lon": -77.04478716666667, "name": "caf509d5e5c45735e7b5c94611a4df4d", "bike_id": "caf509d5e5c45735e7b5c94611a4df4d", "fusion_lat": 0.0, "is_reserved": 0, "lat": 38.91241466666666, "fusion_lon": 0.0, "is_disabled": 0}, {"rental_uris": {"android": "https://dc.lft.to/lastmile_qr_scan", "ios": "https://dc.lft.to/lastmile_qr_scan"}, "type": "electric_scooter", "lon": -77.04199716666666, "name": "05e79aaad94c46a1e82a99372a2f0372", "bike_id": "05e79aaad94c46a1e82a99372a2f0372", "fusion_lat": 0.0, "is_reserved": 0, "lat": 38.892193, "fusion_lon": 0.0, "is_disabled": 0}, {"rental_uris": {"android": "https://dc.lft.to/lastmile_qr_scan", "ios": "https://dc.lft.to/lastmile_qr_scan"}, "type": "electric_scooter", "lon": -77.00583533333334, "name": "9c0879272e57faa2985766150ad14cbe", "bike_id": "9c0879272e57faa2985766150ad14cbe", "fusion_lat": 0.0, "is_reserved": 0, "lat": 38.905662166666666, "fusion_lon": 0.0, "is_disabled": 0}, {"rental_uris": {"android": "https://dc.lft.to/lastmile_qr_scan", "ios": "https://dc.lft.to/lastmile_qr_scan"}, "type": "electric_scooter", "lon": -77.0264235, "name": "5d79b2a75d8ca4b107394a12686a8eea", "bike_id": "5d79b2a75d8ca4b107394a12686a8eea", "fusion_lat": 0.0, "is_reserved": 0, "lat": 38.88106166666667, "fusion_lon": 0.0, "is_disabled": 0}, {"rental_uris": {"android": "https://dc.lft.to/lastmile_qr_scan", "ios": "https://dc.lft.to/lastmile_qr_scan"}, "type": "electric_scooter", "lon": -76.98828766666666, "name": "da7a540b48b9f6e93c2213e9c62b3fd3", "bike_id": "da7a540b48b9f6e93c2213e9c62b3fd3", "fusion_lat": 0.0, "is_reserved": 0, "lat": 38.880186333333334, "fusion_lon": 0.0, "is_disabled": 0}, {"rental_uris": {"android": "https://dc.lft.to/lastmile_qr_scan", "ios": "https://dc.lft.to/lastmile_qr_scan"}, "type": "electric_scooter", "lon": -77.021967, "name": "1e579550d6618b435f79e94f1cf592a5", "bike_id": "1e579550d6618b435f79e94f1cf592a5", "fusion_lat": 0.0, "is_reserved": 0, "lat": 38.89758533333333, "fusion_lon": 0.0, "is_disabled": 0}, {"rental_uris": {"android": "https://dc.lft.to/lastmile_qr_scan", "ios": "https://dc.lft.to/lastmile_qr_scan"}, "type": "electric_scooter", "lon": -77.034635, "name": "8c1c164cef54b9f03461d5a3cd23e91e", "bike_id": "8c1c164cef54b9f03461d5a3cd23e91e", "fusion_lat": 0.0, "is_reserved": 0, "lat": 38.90278466666667, "fusion_lon": 0.0, "is_disabled": 0}, {"rental_uris": {"android": "https://dc.lft.to/lastmile_qr_scan", "ios": "https://dc.lft.to/lastmile_qr_scan"}, "type": "electric_scooter", "lon": -76.9745455, "name": "fac1498a70a303d8d7712b9c53d54083", "bike_id": "fac1498a70a303d8d7712b9c53d54083", "fusion_lat": 0.0, "is_reserved": 0, "lat": 38.863739333333335, "fusion_lon": 0.0, "is_disabled": 0}, {"rental_uris": {"android": "https://dc.lft.to/lastmile_qr_scan", "ios": "https://dc.lft.to/lastmile_qr_scan"}, "type": "electric_scooter", "lon": -77.02428266666666, "name": "f7e9b4828ec3c13092306d573cc67f3b", "bike_id": "f7e9b4828ec3c13092306d573cc67f3b", "fusion_lat": 0.0, "is_reserved": 0, "lat": 38.922472, "fusion_lon": 0.0, "is_disabled": 0}, {"rental_uris": {"android": "https://dc.lft.to/lastmile_qr_scan", "ios": "https://dc.lft.to/lastmile_qr_scan"}, "type": "electric_scooter", "lon": -77.02162116666666, "name": "379ea0656ce8e6caca136f6b30508478", "bike_id": "379ea0656ce8e6caca136f6b30508478", "fusion_lat": 0.0, "is_reserved": 0, "lat": 38.926140333333336, "fusion_lon": 0.0, "is_disabled": 0}, {"rental_uris": {"android": "https://dc.lft.to/lastmile_qr_scan", "ios": "https://dc.lft.to/lastmile_qr_scan"}, "type": "electric_scooter", "lon": -77.02480116666666, "name": "648d4400a96d01d813fd0e967b02692c", "bike_id": "648d4400a96d01d813fd0e967b02692c", "fusion_lat": 0.0, "is_reserved": 0, "lat": 38.93871333333333, "fusion_lon": 0.0, "is_disabled": 0}, {"rental_uris": {"android": "https://dc.lft.to/lastmile_qr_scan", "ios": "https://dc.lft.to/lastmile_qr_scan"}, "type": "electric_scooter", "lon": -77.03873083333333, "name": "06f9d133c6c47128cbbbcaef49076292", "bike_id": "06f9d133c6c47128cbbbcaef49076292", "fusion_lat": 0.0, "is_reserved": 0, "lat": 38.9140505, "fusion_lon": 0.0, "is_disabled": 0}, {"rental_uris": {"android": "https://dc.lft.to/lastmile_qr_scan", "ios": "https://dc.lft.to/lastmile_qr_scan"}, "type": "electric_bike", "lon": -77.10029316666666, "name": "48d98c49c7043495a0b45c7110734ffa", "bike_id": "48d98c49c7043495a0b45c7110734ffa", "fusion_lat": 0.0, "is_reserved": 0, "lat": 38.99059833333333, "fusion_lon": 0.0, "is_disabled": 0}, {"rental_uris": {"android": "https://dc.lft.to/lastmile_qr_scan", "ios": "https://dc.lft.to/lastmile_qr_scan"}, "type": "electric_scooter", "lon": -77.04359666666667, "name": "24493de42750993d63d4a5ce0a1fb941", "bike_id": "24493de42750993d63d4a5ce0a1fb941", "fusion_lat": 0.0, "is_reserved": 0, "lat": 38.90102533333334, "fusion_lon": 0.0, "is_disabled": 0}, {"rental_uris": {"android": "https://dc.lft.to/lastmile_qr_scan", "ios": "https://dc.lft.to/lastmile_qr_scan"}, "type": "electric_scooter", "lon": -77.02648516666666, "name": "7b0af62b476f66ad357443b21a59ced8", "bike_id": "7b0af62b476f66ad357443b21a59ced8", "fusion_lat": 0.0, "is_reserved": 0, "lat": 38.9386565, "fusion_lon": 0.0, "is_disabled": 0}, {"rental_uris": {"android": "https://dc.lft.to/lastmile_qr_scan", "ios": "https://dc.lft.to/lastmile_qr_scan"}, "type": "electric_scooter", "lon": -77.03038333333333, "name": "9fd7b0d5f7309bb1cd672b75975c42d1", "bike_id": "9fd7b0d5f7309bb1cd672b75975c42d1", "fusion_lat": 0.0, "is_reserved": 0, "lat": 38.883999, "fusion_lon": 0.0, "is_disabled": 0}, {"rental_uris": {"android": "https://dc.lft.to/lastmile_qr_scan", "ios": "https://dc.lft.to/lastmile_qr_scan"}, "type": "electric_scooter", "lon": -77.03208083333334, "name": "07141b42684d5b6d4eabb0c84b92ff54", "bike_id": "07141b42684d5b6d4eabb0c84b92ff54", "fusion_lat": 0.0, "is_reserved": 0, "lat": 38.91201233333334, "fusion_lon": 0.0, "is_disabled": 0}, {"rental_uris": {"android": "https://dc.lft.to/lastmile_qr_scan", "ios": "https://dc.lft.to/lastmile_qr_scan"}, "type": "electric_scooter", "lon": -77.0319575, "name": "32100a34314af7bcf1b5579b945786d8", "bike_id": "32100a34314af7bcf1b5579b945786d8", "fusion_lat": 0.0, "is_reserved": 0, "lat": 38.9187725, "fusion_lon": 0.0, "is_disabled": 0}, {"rental_uris": {"android": "https://dc.lft.to/lastmile_qr_scan", "ios": "https://dc.lft.to/lastmile_qr_scan"}, "type": "electric_scooter", "lon": -76.98570366666667, "name": "a20813771f0d8d8f9f05373bb14c4a29", "bike_id": "a20813771f0d8d8f9f05373bb14c4a29", "fusion_lat": 0.0, "is_reserved": 0, "lat": 38.898891166666665, "fusion_lon": 0.0, "is_disabled": 0}, {"rental_uris": {"android": "https://dc.lft.to/lastmile_qr_scan", "ios": "https://dc.lft.to/lastmile_qr_scan"}, "type": "electric_bike", "lon": -77.04900533333333, "name": "58b9158286ab6e4429b8d62b2aac100d", "bike_id": "58b9158286ab6e4429b8d62b2aac100d", "fusion_lat": 0.0, "is_reserved": 0, "lat": 38.874908166666664, "fusion_lon": 0.0, "is_disabled": 0}, {"rental_uris": {"android": "https://dc.lft.to/lastmile_qr_scan", "ios": "https://dc.lft.to/lastmile_qr_scan"}, "type": "electric_scooter", "lon": -77.00904016666667, "name": "890ea49d9b38bc70633f0c0e64411587", "bike_id": "890ea49d9b38bc70633f0c0e64411587", "fusion_lat": 0.0, "is_reserved": 0, "lat": 38.898696, "fusion_lon": 0.0, "is_disabled": 0}, {"rental_uris": {"android": "https://dc.lft.to/lastmile_qr_scan", "ios": "https://dc.lft.to/lastmile_qr_scan"}, "type": "electric_scooter", "lon": -77.02467183333333, "name": "c2536f01d740777b5b209324864ae0e0", "bike_id": "c2536f01d740777b5b209324864ae0e0", "fusion_lat": 0.0, "is_reserved": 0, "lat": 38.90645133333334, "fusion_lon": 0.0, "is_disabled": 0}, {"rental_uris": {"android": "https://dc.lft.to/lastmile_qr_scan", "ios": "https://dc.lft.to/lastmile_qr_scan"}, "type": "electric_scooter", "lon": -77.0679345, "name": "296a2e23c29e67b5c00a871086d82c38", "bike_id": "296a2e23c29e67b5c00a871086d82c38", "fusion_lat": 0.0, "is_reserved": 0, "lat": 38.910753166666666, "fusion_lon": 0.0, "is_disabled": 0}, {"rental_uris": {"android": "https://dc.lft.to/lastmile_qr_scan", "ios": "https://dc.lft.to/lastmile_qr_scan"}, "type": "electric_scooter", "lon": -77.0319925, "name": "70fd3c3255960b6f5f72af6b91107a54", "bike_id": "70fd3c3255960b6f5f72af6b91107a54", "fusion_lat": 0.0, "is_reserved": 0, "lat": 38.9168065, "fusion_lon": 0.0, "is_disabled": 0}, {"rental_uris": {"android": "https://dc.lft.to/lastmile_qr_scan", "ios": "https://dc.lft.to/lastmile_qr_scan"}, "type": "electric_scooter", "lon": -77.01902816666667, "name": "778d64262aad318e9859c5ddd633c05a", "bike_id": "778d64262aad318e9859c5ddd633c05a", "fusion_lat": 0.0, "is_reserved": 0, "lat": 38.923434, "fusion_lon": 0.0, "is_disabled": 0}, {"rental_uris": {"android": "https://dc.lft.to/lastmile_qr_scan", "ios": "https://dc.lft.to/lastmile_qr_scan"}, "type": "electric_scooter", "lon": -77.015944, "name": "febbd20ecfee9b850bda638e70f90256", "bike_id": "febbd20ecfee9b850bda638e70f90256", "fusion_lat": 0.0, "is_reserved": 0, "lat": 38.893346666666666, "fusion_lon": 0.0, "is_disabled": 0}, {"rental_uris": {"android": "https://dc.lft.to/lastmile_qr_scan", "ios": "https://dc.lft.to/lastmile_qr_scan"}, "type": "electric_scooter", "lon": -77.02965933333333, "name": "b8118e84b4730cb2d37d3e75d00d154a", "bike_id": "b8118e84b4730cb2d37d3e75d00d154a", "fusion_lat": 0.0, "is_reserved": 0, "lat": 38.92913866666667, "fusion_lon": 0.0, "is_disabled": 0}, {"rental_uris": {"android": "https://dc.lft.to/lastmile_qr_scan", "ios": "https://dc.lft.to/lastmile_qr_scan"}, "type": "electric_scooter", "lon": -77.0033275, "name": "c8796fcc5a9137ac2abbecb8d92e2c9f", "bike_id": "c8796fcc5a9137ac2abbecb8d92e2c9f", "fusion_lat": 0.0, "is_reserved": 0, "lat": 38.89357616666667, "fusion_lon": 0.0, "is_disabled": 0}, {"rental_uris": {"android": "https://dc.lft.to/lastmile_qr_scan", "ios": "https://dc.lft.to/lastmile_qr_scan"}, "type": "electric_scooter", "lon": -77.02550833333333, "name": "334e81b91b8b29c40292205a1de5e3e7", "bike_id": "334e81b91b8b29c40292205a1de5e3e7", "fusion_lat": 0.0, "is_reserved": 0, "lat": 38.91635216666667, "fusion_lon": 0.0, "is_disabled": 0}, {"rental_uris": {"android": "https://dc.lft.to/lastmile_qr_scan", "ios": "https://dc.lft.to/lastmile_qr_scan"}, "type": "electric_scooter", "lon": -77.06566166666667, "name": "592e63864bcaf77aceff90d5718525c9", "bike_id": "592e63864bcaf77aceff90d5718525c9", "fusion_lat": 0.0, "is_reserved": 0, "lat": 38.90520016666667, "fusion_lon": 0.0, "is_disabled": 0}, {"rental_uris": {"android": "https://dc.lft.to/lastmile_qr_scan", "ios": "https://dc.lft.to/lastmile_qr_scan"}, "type": "electric_scooter", "lon": -77.02389366666667, "name": "bffd1ec92c276d447fd0edcf89306867", "bike_id": "bffd1ec92c276d447fd0edcf89306867", "fusion_lat": 0.0, "is_reserved": 0, "lat": 38.9098745, "fusion_lon": 0.0, "is_disabled": 0}, {"rental_uris": {"android": "https://dc.lft.to/lastmile_qr_scan", "ios": "https://dc.lft.to/lastmile_qr_scan"}, "type": "electric_scooter", "lon": -77.03224916666667, "name": "a5585fd015f91b96768a5eca1c972602", "bike_id": "a5585fd015f91b96768a5eca1c972602", "fusion_lat": 0.0, "is_reserved": 0, "lat": 38.91603533333333, "fusion_lon": 0.0, "is_disabled": 0}, {"rental_uris": {"android": "https://dc.lft.to/lastmile_qr_scan", "ios": "https://dc.lft.to/lastmile_qr_scan"}, "type": "electric_scooter", "lon": -77.00409166666667, "name": "20c1c801e44be04bfa9593b9d12996c4", "bike_id": "20c1c801e44be04bfa9593b9d12996c4", "fusion_lat": 0.0, "is_reserved": 0, "lat": 38.87661, "fusion_lon": 0.0, "is_disabled": 0}, {"rental_uris": {"android": "https://dc.lft.to/lastmile_qr_scan", "ios": "https://dc.lft.to/lastmile_qr_scan"}, "type": "electric_scooter", "lon": -77.01378566666666, "name": "a7135446713d68d728c5ef3f57706410", "bike_id": "a7135446713d68d728c5ef3f57706410", "fusion_lat": 0.0, "is_reserved": 0, "lat": 38.9149825, "fusion_lon": 0.0, "is_disabled": 0}, {"rental_uris": {"android": "https://dc.lft.to/lastmile_qr_scan", "ios": "https://dc.lft.to/lastmile_qr_scan"}, "type": "electric_scooter", "lon": -77.044048, "name": "61e9a53defa052c3d25b31219d314bd9", "bike_id": "61e9a53defa052c3d25b31219d314bd9", "fusion_lat": 0.0, "is_reserved": 0, "lat": 38.9345855, "fusion_lon": 0.0, "is_disabled": 0}, {"rental_uris": {"android": "https://dc.lft.to/lastmile_qr_scan", "ios": "https://dc.lft.to/lastmile_qr_scan"}, "type": "electric_scooter", "lon": -77.03343633333333, "name": "cb53b46f8b49f7cfe952429d8cb7c68f", "bike_id": "cb53b46f8b49f7cfe952429d8cb7c68f", "fusion_lat": 0.0, "is_reserved": 0, "lat": 38.90335483333333, "fusion_lon": 0.0, "is_disabled": 0}, {"rental_uris": {"android": "https://dc.lft.to/lastmile_qr_scan", "ios": "https://dc.lft.to/lastmile_qr_scan"}, "type": "electric_scooter", "lon": -76.9532315, "name": "9648ffc7e4949510804e96398166a3af", "bike_id": "9648ffc7e4949510804e96398166a3af", "fusion_lat": 0.0, "is_reserved": 0, "lat": 38.889772, "fusion_lon": 0.0, "is_disabled": 0}, {"rental_uris": {"android": "https://dc.lft.to/lastmile_qr_scan", "ios": "https://dc.lft.to/lastmile_qr_scan"}, "type": "electric_bike", "lon": -77.023806, "name": "9979655492d3f69c5c431f6a7cd27b62", "bike_id": "9979655492d3f69c5c431f6a7cd27b62", "fusion_lat": 0.0, "is_reserved": 0, "lat": 38.95299333333333, "fusion_lon": 0.0, "is_disabled": 0}, {"rental_uris": {"android": "https://dc.lft.to/lastmile_qr_scan", "ios": "https://dc.lft.to/lastmile_qr_scan"}, "type": "electric_bike", "lon": -76.909677, "name": "b9969a37a1332caa5ecc739a1f76df46", "bike_id": "b9969a37a1332caa5ecc739a1f76df46", "fusion_lat": 0.0, "is_reserved": 0, "lat": 38.854363166666666, "fusion_lon": 0.0, "is_disabled": 0}, {"rental_uris": {"android": "https://dc.lft.to/lastmile_qr_scan", "ios": "https://dc.lft.to/lastmile_qr_scan"}, "type": "electric_scooter", "lon": -77.02200916666666, "name": "c8732603d6890c0fd3783f8f30465544", "bike_id": "c8732603d6890c0fd3783f8f30465544", "fusion_lat": 0.0, "is_reserved": 0, "lat": 38.9036695, "fusion_lon": 0.0, "is_disabled": 0}, {"rental_uris": {"android": "https://dc.lft.to/lastmile_qr_scan", "ios": "https://dc.lft.to/lastmile_qr_scan"}, "type": "electric_bike", "lon": -77.00371616666666, "name": "0fc70a5953d3428b34deec0f533cddf8", "bike_id": "0fc70a5953d3428b34deec0f533cddf8", "fusion_lat": 0.0, "is_reserved": 0, "lat": 38.83606533333333, "fusion_lon": 0.0, "is_disabled": 0}, {"rental_uris": {"android": "https://dc.lft.to/lastmile_qr_scan", "ios": "https://dc.lft.to/lastmile_qr_scan"}, "type": "electric_scooter", "lon": -77.00592166666667, "name": "d95cded1e0c49c463feb6345823265af", "bike_id": "d95cded1e0c49c463feb6345823265af", "fusion_lat": 0.0, "is_reserved": 0, "lat": 38.90654333333333, "fusion_lon": 0.0, "is_disabled": 0}, {"rental_uris": {"android": "https://dc.lft.to/lastmile_qr_scan", "ios": "https://dc.lft.to/lastmile_qr_scan"}, "type": "electric_scooter", "lon": -77.02125883333333, "name": "985e2104601a33395d556a48d72a5abd", "bike_id": "985e2104601a33395d556a48d72a5abd", "fusion_lat": 0.0, "is_reserved": 0, "lat": 38.903139, "fusion_lon": 0.0, "is_disabled": 0}, {"rental_uris": {"android": "https://dc.lft.to/lastmile_qr_scan", "ios": "https://dc.lft.to/lastmile_qr_scan"}, "type": "electric_scooter", "lon": -76.9493965, "name": "a08da712fd377adc474473647eab648b", "bike_id": "a08da712fd377adc474473647eab648b", "fusion_lat": 0.0, "is_reserved": 0, "lat": 38.88321333333333, "fusion_lon": 0.0, "is_disabled": 0}, {"rental_uris": {"android": "https://dc.lft.to/lastmile_qr_scan", "ios": "https://dc.lft.to/lastmile_qr_scan"}, "type": "electric_bike", "lon": -76.98327516666667, "name": "49f580ab9a755511539a3981356e7933", "bike_id": "49f580ab9a755511539a3981356e7933", "fusion_lat": 0.0, "is_reserved": 0, "lat": 38.9660545, "fusion_lon": 0.0, "is_disabled": 0}, {"rental_uris": {"android": "https://dc.lft.to/lastmile_qr_scan", "ios": "https://dc.lft.to/lastmile_qr_scan"}, "type": "electric_bike", "lon": -77.089402, "name": "11f0ea0c32fb57f868e349fa3e3bd271", "bike_id": "11f0ea0c32fb57f868e349fa3e3bd271", "fusion_lat": 0.0, "is_reserved": 0, "lat": 38.84096783333333, "fusion_lon": 0.0, "is_disabled": 0}, {"rental_uris": {"android": "https://dc.lft.to/lastmile_qr_scan", "ios": "https://dc.lft.to/lastmile_qr_scan"}, "type": "electric_scooter", "lon": -76.99778583333334, "name": "5b86eb2081bb15e730540920136a6b14", "bike_id": "5b86eb2081bb15e730540920136a6b14", "fusion_lat": 0.0, "is_reserved": 0, "lat": 38.844273333333334, "fusion_lon": 0.0, "is_disabled": 0}, {"rental_uris": {"android": "https://dc.lft.to/lastmile_qr_scan", "ios": "https://dc.lft.to/lastmile_qr_scan"}, "type": "electric_scooter", "lon": -77.032943, "name": "949ca4d2c59580644355c59f34b67904", "bike_id": "949ca4d2c59580644355c59f34b67904", "fusion_lat": 0.0, "is_reserved": 0, "lat": 38.95651183333333, "fusion_lon": 0.0, "is_disabled": 0}, {"rental_uris": {"android": "https://dc.lft.to/lastmile_qr_scan", "ios": "https://dc.lft.to/lastmile_qr_scan"}, "type": "electric_bike", "lon": -77.036258, "name": "86d1e08e393c8bd74da535b5d1c936b0", "bike_id": "86d1e08e393c8bd74da535b5d1c936b0", "fusion_lat": 0.0, "is_reserved": 0, "lat": 38.97293466666667, "fusion_lon": 0.0, "is_disabled": 0}, {"rental_uris": {"android": "https://dc.lft.to/lastmile_qr_scan", "ios": "https://dc.lft.to/lastmile_qr_scan"}, "type": "electric_bike", "lon": -77.01375533333334, "name": "6fdb91dc3cb40eb335ea38adf163b8d7", "bike_id": "6fdb91dc3cb40eb335ea38adf163b8d7", "fusion_lat": 0.0, "is_reserved": 0, "lat": 38.8922765, "fusion_lon": 0.0, "is_disabled": 0}, {"rental_uris": {"android": "https://dc.lft.to/lastmile_qr_scan", "ios": "https://dc.lft.to/lastmile_qr_scan"}, "type": "electric_scooter", "lon": -76.94772666666667, "name": "11b75cbccb6c9c08f1c5ff1ca9540314", "bike_id": "11b75cbccb6c9c08f1c5ff1ca9540314", "fusion_lat": 0.0, "is_reserved": 0, "lat": 38.8962945, "fusion_lon": 0.0, "is_disabled": 0}, {"rental_uris": {"android": "https://dc.lft.to/lastmile_qr_scan", "ios": "https://dc.lft.to/lastmile_qr_scan"}, "type": "electric_scooter", "lon": -77.0440755, "name": "cdcd20c52b5203b4271778b163199576", "bike_id": "cdcd20c52b5203b4271778b163199576", "fusion_lat": 0.0, "is_reserved": 0, "lat": 38.909163666666664, "fusion_lon": 0.0, "is_disabled": 0}, {"rental_uris": {"android": "https://dc.lft.to/lastmile_qr_scan", "ios": "https://dc.lft.to/lastmile_qr_scan"}, "type": "electric_bike", "lon": -76.98164966666667, "name": "c8c05f98ce53d97f71e88c987b012fbc", "bike_id": "c8c05f98ce53d97f71e88c987b012fbc", "fusion_lat": 0.0, "is_reserved": 0, "lat": 38.959572, "fusion_lon": 0.0, "is_disabled": 0}, {"rental_uris": {"android": "https://dc.lft.to/lastmile_qr_scan", "ios": "https://dc.lft.to/lastmile_qr_scan"}, "type": "electric_scooter", "lon": -77.00344866666667, "name": "a3bdcb1d629f455ee617ff3e45a9bb15", "bike_id": "a3bdcb1d629f455ee617ff3e45a9bb15", "fusion_lat": 0.0, "is_reserved": 0, "lat": 38.8946745, "fusion_lon": 0.0, "is_disabled": 0}, {"rental_uris": {"android": "https://dc.lft.to/lastmile_qr_scan", "ios": "https://dc.lft.to/lastmile_qr_scan"}, "type": "electric_scooter", "lon": -77.00010783333333, "name": "37ffa4ca0223e723c0d3add8475ebea8", "bike_id": "37ffa4ca0223e723c0d3add8475ebea8", "fusion_lat": 0.0, "is_reserved": 0, "lat": 38.9001735, "fusion_lon": 0.0, "is_disabled": 0}, {"rental_uris": {"android": "https://dc.lft.to/lastmile_qr_scan", "ios": "https://dc.lft.to/lastmile_qr_scan"}, "type": "electric_scooter", "lon": -77.03180633333334, "name": "c01fb9a365c4a2b79a39b2569e460cf8", "bike_id": "c01fb9a365c4a2b79a39b2569e460cf8", "fusion_lat": 0.0, "is_reserved": 0, "lat": 38.919228333333336, "fusion_lon": 0.0, "is_disabled": 0}, {"rental_uris": {"android": "https://dc.lft.to/lastmile_qr_scan", "ios": "https://dc.lft.to/lastmile_qr_scan"}, "type": "electric_scooter", "lon": -77.002217, "name": "6aee5734ab67feb48703fe12092f831e", "bike_id": "6aee5734ab67feb48703fe12092f831e", "fusion_lat": 0.0, "is_reserved": 0, "lat": 38.95726666666667, "fusion_lon": 0.0, "is_disabled": 0}, {"rental_uris": {"android": "https://dc.lft.to/lastmile_qr_scan", "ios": "https://dc.lft.to/lastmile_qr_scan"}, "type": "electric_scooter", "lon": -77.01187433333334, "name": "a32d38226cd3c1cf7a05afe662d5b59c", "bike_id": "a32d38226cd3c1cf7a05afe662d5b59c", "fusion_lat": 0.0, "is_reserved": 0, "lat": 38.90028816666667, "fusion_lon": 0.0, "is_disabled": 0}, {"rental_uris": {"android": "https://dc.lft.to/lastmile_qr_scan", "ios": "https://dc.lft.to/lastmile_qr_scan"}, "type": "electric_scooter", "lon": -77.01868616666667, "name": "56dfa19cf86b5fe804f7553bc4277b2a", "bike_id": "56dfa19cf86b5fe804f7553bc4277b2a", "fusion_lat": 0.0, "is_reserved": 0, "lat": 38.94891766666667, "fusion_lon": 0.0, "is_disabled": 0}, {"rental_uris": {"android": "https://dc.lft.to/lastmile_qr_scan", "ios": "https://dc.lft.to/lastmile_qr_scan"}, "type": "electric_scooter", "lon": -77.00937533333334, "name": "947c0d4c02ea47adf3ae4584ef0fbdb1", "bike_id": "947c0d4c02ea47adf3ae4584ef0fbdb1", "fusion_lat": 0.0, "is_reserved": 0, "lat": 38.876259166666664, "fusion_lon": 0.0, "is_disabled": 0}, {"rental_uris": {"android": "https://dc.lft.to/lastmile_qr_scan", "ios": "https://dc.lft.to/lastmile_qr_scan"}, "type": "electric_scooter", "lon": -77.02928383333334, "name": "441cf811c7f5c798b1a9fc1194bb666c", "bike_id": "441cf811c7f5c798b1a9fc1194bb666c", "fusion_lat": 0.0, "is_reserved": 0, "lat": 38.882177666666664, "fusion_lon": 0.0, "is_disabled": 0}, {"rental_uris": {"android": "https://dc.lft.to/lastmile_qr_scan", "ios": "https://dc.lft.to/lastmile_qr_scan"}, "type": "electric_scooter", "lon": -77.04105066666666, "name": "4c5669fd44065b479aa91745f06873ff", "bike_id": "4c5669fd44065b479aa91745f06873ff", "fusion_lat": 0.0, "is_reserved": 0, "lat": 38.920804, "fusion_lon": 0.0, "is_disabled": 0}, {"rental_uris": {"android": "https://dc.lft.to/lastmile_qr_scan", "ios": "https://dc.lft.to/lastmile_qr_scan"}, "type": "electric_scooter", "lon": -76.98618383333333, "name": "7852c9612e97f33948473d259037bcf0", "bike_id": "7852c9612e97f33948473d259037bcf0", "fusion_lat": 0.0, "is_reserved": 0, "lat": 38.93828033333333, "fusion_lon": 0.0, "is_disabled": 0}, {"rental_uris": {"android": "https://dc.lft.to/lastmile_qr_scan", "ios": "https://dc.lft.to/lastmile_qr_scan"}, "type": "electric_scooter", "lon": -76.9342955, "name": "846fd828a4bd02e3bcf7b6dcc6a7476b", "bike_id": "846fd828a4bd02e3bcf7b6dcc6a7476b", "fusion_lat": 0.0, "is_reserved": 0, "lat": 38.89960466666667, "fusion_lon": 0.0, "is_disabled": 0}, {"rental_uris": {"android": "https://dc.lft.to/lastmile_qr_scan", "ios": "https://dc.lft.to/lastmile_qr_scan"}, "type": "electric_scooter", "lon": -77.02853, "name": "5c5829736ed177c807f1cd160912b3f9", "bike_id": "5c5829736ed177c807f1cd160912b3f9", "fusion_lat": 0.0, "is_reserved": 0, "lat": 38.92230383333333, "fusion_lon": 0.0, "is_disabled": 0}, {"rental_uris": {"android": "https://dc.lft.to/lastmile_qr_scan", "ios": "https://dc.lft.to/lastmile_qr_scan"}, "type": "electric_scooter", "lon": -77.038974, "name": "9579eaffd9b7c1143aac6d17f075eb84", "bike_id": "9579eaffd9b7c1143aac6d17f075eb84", "fusion_lat": 0.0, "is_reserved": 0, "lat": 38.922356, "fusion_lon": 0.0, "is_disabled": 0}, {"rental_uris": {"android": "https://dc.lft.to/lastmile_qr_scan", "ios": "https://dc.lft.to/lastmile_qr_scan"}, "type": "electric_scooter", "lon": -77.02955683333333, "name": "eda9ad6ea9a3ff80b470fed0090a7548", "bike_id": "eda9ad6ea9a3ff80b470fed0090a7548", "fusion_lat": 0.0, "is_reserved": 0, "lat": 38.89827183333333, "fusion_lon": 0.0, "is_disabled": 0}, {"rental_uris": {"android": "https://dc.lft.to/lastmile_qr_scan", "ios": "https://dc.lft.to/lastmile_qr_scan"}, "type": "electric_scooter", "lon": -77.0502865, "name": "7ccc67210f3f4b85e2406af352cbcc7a", "bike_id": "7ccc67210f3f4b85e2406af352cbcc7a", "fusion_lat": 0.0, "is_reserved": 0, "lat": 38.9236625, "fusion_lon": 0.0, "is_disabled": 0}, {"rental_uris": {"android": "https://dc.lft.to/lastmile_qr_scan", "ios": "https://dc.lft.to/lastmile_qr_scan"}, "type": "electric_scooter", "lon": -76.948179, "name": "42fb8d5550337b5a19c9ed8962f82b7a", "bike_id": "42fb8d5550337b5a19c9ed8962f82b7a", "fusion_lat": 0.0, "is_reserved": 0, "lat": 38.893483833333335, "fusion_lon": 0.0, "is_disabled": 0}, {"rental_uris": {"android": "https://dc.lft.to/lastmile_qr_scan", "ios": "https://dc.lft.to/lastmile_qr_scan"}, "type": "electric_bike", "lon": -76.99799266666666, "name": "3c1df602e067ce1696925fdb644634e8", "bike_id": "3c1df602e067ce1696925fdb644634e8", "fusion_lat": 0.0, "is_reserved": 0, "lat": 38.935026666666666, "fusion_lon": 0.0, "is_disabled": 0}, {"rental_uris": {"android": "https://dc.lft.to/lastmile_qr_scan", "ios": "https://dc.lft.to/lastmile_qr_scan"}, "type": "electric_scooter", "lon": -77.0176815, "name": "93bfaa06921600c6791b335435478ae8", "bike_id": "93bfaa06921600c6791b335435478ae8", "fusion_lat": 0.0, "is_reserved": 0, "lat": 38.87289916666667, "fusion_lon": 0.0, "is_disabled": 0}, {"rental_uris": {"android": "https://dc.lft.to/lastmile_qr_scan", "ios": "https://dc.lft.to/lastmile_qr_scan"}, "type": "electric_scooter", "lon": -76.99002716666666, "name": "060238888aa01003217a34226f895efe", "bike_id": "060238888aa01003217a34226f895efe", "fusion_lat": 0.0, "is_reserved": 0, "lat": 38.865010833333336, "fusion_lon": 0.0, "is_disabled": 0}, {"rental_uris": {"android": "https://dc.lft.to/lastmile_qr_scan", "ios": "https://dc.lft.to/lastmile_qr_scan"}, "type": "electric_scooter", "lon": -77.01135066666667, "name": "04fdadb6616fcd03e3aa0d6aa37173da", "bike_id": "04fdadb6616fcd03e3aa0d6aa37173da", "fusion_lat": 0.0, "is_reserved": 0, "lat": 38.907265833333334, "fusion_lon": 0.0, "is_disabled": 0}, {"rental_uris": {"android": "https://dc.lft.to/lastmile_qr_scan", "ios": "https://dc.lft.to/lastmile_qr_scan"}, "type": "electric_scooter", "lon": -77.022172, "name": "78d8ca62d2d84054586ef569841c2eb7", "bike_id": "78d8ca62d2d84054586ef569841c2eb7", "fusion_lat": 0.0, "is_reserved": 0, "lat": 38.909578333333336, "fusion_lon": 0.0, "is_disabled": 0}, {"rental_uris": {"android": "https://dc.lft.to/lastmile_qr_scan", "ios": "https://dc.lft.to/lastmile_qr_scan"}, "type": "electric_bike", "lon": -76.994942, "name": "71d433cba2874210f7b01a2c13dee50f", "bike_id": "71d433cba2874210f7b01a2c13dee50f", "fusion_lat": 0.0, "is_reserved": 0, "lat": 38.925714, "fusion_lon": 0.0, "is_disabled": 0}, {"rental_uris": {"android": "https://dc.lft.to/lastmile_qr_scan", "ios": "https://dc.lft.to/lastmile_qr_scan"}, "type": "electric_scooter", "lon": -77.0514365, "name": "7f4e18864fb94ab26bd8d08476700863", "bike_id": "7f4e18864fb94ab26bd8d08476700863", "fusion_lat": 0.0, "is_reserved": 0, "lat": 38.90799166666667, "fusion_lon": 0.0, "is_disabled": 0}, {"rental_uris": {"android": "https://dc.lft.to/lastmile_qr_scan", "ios": "https://dc.lft.to/lastmile_qr_scan"}, "type": "electric_scooter", "lon": -77.02316233333333, "name": "a1552aedfc40b41f7e47235e191cebf9", "bike_id": "a1552aedfc40b41f7e47235e191cebf9", "fusion_lat": 0.0, "is_reserved": 0, "lat": 38.917875333333335, "fusion_lon": 0.0, "is_disabled": 0}, {"rental_uris": {"android": "https://dc.lft.to/lastmile_qr_scan", "ios": "https://dc.lft.to/lastmile_qr_scan"}, "type": "electric_scooter", "lon": -77.03264266666666, "name": "7d42257163126ef8a735f4f90cd4265d", "bike_id": "7d42257163126ef8a735f4f90cd4265d", "fusion_lat": 0.0, "is_reserved": 0, "lat": 38.936623166666664, "fusion_lon": 0.0, "is_disabled": 0}, {"rental_uris": {"android": "https://dc.lft.to/lastmile_qr_scan", "ios": "https://dc.lft.to/lastmile_qr_scan"}, "type": "electric_scooter", "lon": -77.02987233333333, "name": "177c63823e8b16727817d42ceeaf7500", "bike_id": "177c63823e8b16727817d42ceeaf7500", "fusion_lat": 0.0, "is_reserved": 0, "lat": 38.922383333333336, "fusion_lon": 0.0, "is_disabled": 0}, {"rental_uris": {"android": "https://dc.lft.to/lastmile_qr_scan", "ios": "https://dc.lft.to/lastmile_qr_scan"}, "type": "electric_scooter", "lon": -77.01734, "name": "9213d12631854b356c36c7a12a502497", "bike_id": "9213d12631854b356c36c7a12a502497", "fusion_lat": 0.0, "is_reserved": 0, "lat": 38.87693633333333, "fusion_lon": 0.0, "is_disabled": 0}, {"rental_uris": {"android": "https://dc.lft.to/lastmile_qr_scan", "ios": "https://dc.lft.to/lastmile_qr_scan"}, "type": "electric_scooter", "lon": -77.03220283333333, "name": "eb784ef92559318b50468d6afca54f71", "bike_id": "eb784ef92559318b50468d6afca54f71", "fusion_lat": 0.0, "is_reserved": 0, "lat": 38.912819, "fusion_lon": 0.0, "is_disabled": 0}, {"rental_uris": {"android": "https://dc.lft.to/lastmile_qr_scan", "ios": "https://dc.lft.to/lastmile_qr_scan"}, "type": "electric_scooter", "lon": -77.04412483333333, "name": "83244261dd9389a81ae8376546487427", "bike_id": "83244261dd9389a81ae8376546487427", "fusion_lat": 0.0, "is_reserved": 0, "lat": 38.874318333333335, "fusion_lon": 0.0, "is_disabled": 0}, {"rental_uris": {"android": "https://dc.lft.to/lastmile_qr_scan", "ios": "https://dc.lft.to/lastmile_qr_scan"}, "type": "electric_scooter", "lon": -77.03373, "name": "04fe919456cf277318dd315afb751857", "bike_id": "04fe919456cf277318dd315afb751857", "fusion_lat": 0.0, "is_reserved": 0, "lat": 38.91037133333333, "fusion_lon": 0.0, "is_disabled": 0}, {"rental_uris": {"android": "https://dc.lft.to/lastmile_qr_scan", "ios": "https://dc.lft.to/lastmile_qr_scan"}, "type": "electric_scooter", "lon": -76.96919166666666, "name": "5fac92e2b4b5386db45a2fb53a736f6c", "bike_id": "5fac92e2b4b5386db45a2fb53a736f6c", "fusion_lat": 0.0, "is_reserved": 0, "lat": 38.85521516666667, "fusion_lon": 0.0, "is_disabled": 0}, {"rental_uris": {"android": "https://dc.lft.to/lastmile_qr_scan", "ios": "https://dc.lft.to/lastmile_qr_scan"}, "type": "electric_scooter", "lon": -77.03032833333333, "name": "095dbf900d9b74078b218b91e92f30a0", "bike_id": "095dbf900d9b74078b218b91e92f30a0", "fusion_lat": 0.0, "is_reserved": 0, "lat": 38.905132, "fusion_lon": 0.0, "is_disabled": 0}, {"rental_uris": {"android": "https://dc.lft.to/lastmile_qr_scan", "ios": "https://dc.lft.to/lastmile_qr_scan"}, "type": "electric_scooter", "lon": -77.03908316666667, "name": "34b2e9b45a360a8b61027765da8233c0", "bike_id": "34b2e9b45a360a8b61027765da8233c0", "fusion_lat": 0.0, "is_reserved": 0, "lat": 38.90647083333333, "fusion_lon": 0.0, "is_disabled": 0}, {"rental_uris": {"android": "https://dc.lft.to/lastmile_qr_scan", "ios": "https://dc.lft.to/lastmile_qr_scan"}, "type": "electric_bike", "lon": -77.05033766666666, "name": "134e855205666ac056c2972f2db5b053", "bike_id": "134e855205666ac056c2972f2db5b053", "fusion_lat": 0.0, "is_reserved": 0, "lat": 38.91108083333334, "fusion_lon": 0.0, "is_disabled": 0}, {"rental_uris": {"android": "https://dc.lft.to/lastmile_qr_scan", "ios": "https://dc.lft.to/lastmile_qr_scan"}, "type": "electric_scooter", "lon": -77.01956166666666, "name": "fa6fffb3211f06befccffd1594871dcb", "bike_id": "fa6fffb3211f06befccffd1594871dcb", "fusion_lat": 0.0, "is_reserved": 0, "lat": 38.92260133333333, "fusion_lon": 0.0, "is_disabled": 0}, {"rental_uris": {"android": "https://dc.lft.to/lastmile_qr_scan", "ios": "https://dc.lft.to/lastmile_qr_scan"}, "type": "electric_scooter", "lon": -77.02642416666667, "name": "7954a7a0c1238dd9dfa52cef481faff0", "bike_id": "7954a7a0c1238dd9dfa52cef481faff0", "fusion_lat": 0.0, "is_reserved": 0, "lat": 38.936669, "fusion_lon": 0.0, "is_disabled": 0}, {"rental_uris": {"android": "https://dc.lft.to/lastmile_qr_scan", "ios": "https://dc.lft.to/lastmile_qr_scan"}, "type": "electric_scooter", "lon": -77.03216416666666, "name": "58331c12e22011194b156caa0ec303da", "bike_id": "58331c12e22011194b156caa0ec303da", "fusion_lat": 0.0, "is_reserved": 0, "lat": 38.89249566666667, "fusion_lon": 0.0, "is_disabled": 0}, {"rental_uris": {"android": "https://dc.lft.to/lastmile_qr_scan", "ios": "https://dc.lft.to/lastmile_qr_scan"}, "type": "electric_scooter", "lon": -77.0312495, "name": "34b0b4393b819ed1c7f384b71e87b30e", "bike_id": "34b0b4393b819ed1c7f384b71e87b30e", "fusion_lat": 0.0, "is_reserved": 0, "lat": 38.97375316666667, "fusion_lon": 0.0, "is_disabled": 0}, {"rental_uris": {"android": "https://dc.lft.to/lastmile_qr_scan", "ios": "https://dc.lft.to/lastmile_qr_scan"}, "type": "electric_scooter", "lon": -77.02282016666666, "name": "418ce9b7ed93d4db77a3264b37dcbedf", "bike_id": "418ce9b7ed93d4db77a3264b37dcbedf", "fusion_lat": 0.0, "is_reserved": 0, "lat": 38.91284733333333, "fusion_lon": 0.0, "is_disabled": 0}, {"rental_uris": {"android": "https://dc.lft.to/lastmile_qr_scan", "ios": "https://dc.lft.to/lastmile_qr_scan"}, "type": "electric_bike", "lon": -77.091639, "name": "d2cf4351769ca2a10ad03cafe9bddad4", "bike_id": "d2cf4351769ca2a10ad03cafe9bddad4", "fusion_lat": 0.0, "is_reserved": 0, "lat": 38.967587333333334, "fusion_lon": 0.0, "is_disabled": 0}, {"rental_uris": {"android": "https://dc.lft.to/lastmile_qr_scan", "ios": "https://dc.lft.to/lastmile_qr_scan"}, "type": "electric_scooter", "lon": -77.046601, "name": "a6d310aedb59dabee146ec320965ab4b", "bike_id": "a6d310aedb59dabee146ec320965ab4b", "fusion_lat": 0.0, "is_reserved": 0, "lat": 38.89297333333333, "fusion_lon": 0.0, "is_disabled": 0}, {"rental_uris": {"android": "https://dc.lft.to/lastmile_qr_scan", "ios": "https://dc.lft.to/lastmile_qr_scan"}, "type": "electric_scooter", "lon": -77.04154966666667, "name": "6ba8db0a5b3afbc2ae40e550f28eb715", "bike_id": "6ba8db0a5b3afbc2ae40e550f28eb715", "fusion_lat": 0.0, "is_reserved": 0, "lat": 38.92352233333333, "fusion_lon": 0.0, "is_disabled": 0}, {"rental_uris": {"android": "https://dc.lft.to/lastmile_qr_scan", "ios": "https://dc.lft.to/lastmile_qr_scan"}, "type": "electric_scooter", "lon": -77.04678583333333, "name": "dc5b69eb8ae9e2b67366e67e14f236bb", "bike_id": "dc5b69eb8ae9e2b67366e67e14f236bb", "fusion_lat": 0.0, "is_reserved": 0, "lat": 38.9157265, "fusion_lon": 0.0, "is_disabled": 0}, {"rental_uris": {"android": "https://dc.lft.to/lastmile_qr_scan", "ios": "https://dc.lft.to/lastmile_qr_scan"}, "type": "electric_bike", "lon": -76.96698933333333, "name": "6e6bf787402ba56b3b337089da6a0631", "bike_id": "6e6bf787402ba56b3b337089da6a0631", "fusion_lat": 0.0, "is_reserved": 0, "lat": 38.86839333333333, "fusion_lon": 0.0, "is_disabled": 0}, {"rental_uris": {"android": "https://dc.lft.to/lastmile_qr_scan", "ios": "https://dc.lft.to/lastmile_qr_scan"}, "type": "electric_scooter", "lon": -77.02737666666667, "name": "5135a3e67fb73d06c16aecfa13096f67", "bike_id": "5135a3e67fb73d06c16aecfa13096f67", "fusion_lat": 0.0, "is_reserved": 0, "lat": 38.92759983333333, "fusion_lon": 0.0, "is_disabled": 0}, {"rental_uris": {"android": "https://dc.lft.to/lastmile_qr_scan", "ios": "https://dc.lft.to/lastmile_qr_scan"}, "type": "electric_scooter", "lon": -76.99569833333334, "name": "c2138e1d2efa241136156472c230350b", "bike_id": "c2138e1d2efa241136156472c230350b", "fusion_lat": 0.0, "is_reserved": 0, "lat": 38.92050616666667, "fusion_lon": 0.0, "is_disabled": 0}, {"rental_uris": {"android": "https://dc.lft.to/lastmile_qr_scan", "ios": "https://dc.lft.to/lastmile_qr_scan"}, "type": "electric_scooter", "lon": -76.99827, "name": "fc98a1f508ed779b1a98a7c1d8c380fa", "bike_id": "fc98a1f508ed779b1a98a7c1d8c380fa", "fusion_lat": 0.0, "is_reserved": 0, "lat": 38.882692666666664, "fusion_lon": 0.0, "is_disabled": 0}, {"rental_uris": {"android": "https://dc.lft.to/lastmile_qr_scan", "ios": "https://dc.lft.to/lastmile_qr_scan"}, "type": "electric_bike", "lon": -77.195476, "name": "d8585cd787e971b365cbd4350f82f508", "bike_id": "d8585cd787e971b365cbd4350f82f508", "fusion_lat": 0.0, "is_reserved": 0, "lat": 39.11509566666667, "fusion_lon": 0.0, "is_disabled": 0}, {"rental_uris": {"android": "https://dc.lft.to/lastmile_qr_scan", "ios": "https://dc.lft.to/lastmile_qr_scan"}, "type": "electric_scooter", "lon": -77.035843, "name": "a626fcacd0880e3ac01c17552caa2e96", "bike_id": "a626fcacd0880e3ac01c17552caa2e96", "fusion_lat": 0.0, "is_reserved": 0, "lat": 38.928685333333334, "fusion_lon": 0.0, "is_disabled": 0}, {"rental_uris": {"android": "https://dc.lft.to/lastmile_qr_scan", "ios": "https://dc.lft.to/lastmile_qr_scan"}, "type": "electric_bike", "lon": -77.04983016666667, "name": "0bc0e2a75097c364907a804553620a2d", "bike_id": "0bc0e2a75097c364907a804553620a2d", "fusion_lat": 0.0, "is_reserved": 0, "lat": 38.99241416666667, "fusion_lon": 0.0, "is_disabled": 0}, {"rental_uris": {"android": "https://dc.lft.to/lastmile_qr_scan", "ios": "https://dc.lft.to/lastmile_qr_scan"}, "type": "electric_scooter", "lon": -77.00919983333333, "name": "44d1f774038fdc81402a71b712c2f2e9", "bike_id": "44d1f774038fdc81402a71b712c2f2e9", "fusion_lat": 0.0, "is_reserved": 0, "lat": 38.876330333333335, "fusion_lon": 0.0, "is_disabled": 0}, {"rental_uris": {"android": "https://dc.lft.to/lastmile_qr_scan", "ios": "https://dc.lft.to/lastmile_qr_scan"}, "type": "electric_scooter", "lon": -76.94155066666667, "name": "f4671e3454ced12c8995dac41f44d731", "bike_id": "f4671e3454ced12c8995dac41f44d731", "fusion_lat": 0.0, "is_reserved": 0, "lat": 38.88362083333333, "fusion_lon": 0.0, "is_disabled": 0}, {"rental_uris": {"android": "https://dc.lft.to/lastmile_qr_scan", "ios": "https://dc.lft.to/lastmile_qr_scan"}, "type": "electric_scooter", "lon": -77.03622366666667, "name": "adb1585cd4b9ff621df210d14a35f284", "bike_id": "adb1585cd4b9ff621df210d14a35f284", "fusion_lat": 0.0, "is_reserved": 0, "lat": 38.936785666666665, "fusion_lon": 0.0, "is_disabled": 0}, {"rental_uris": {"android": "https://dc.lft.to/lastmile_qr_scan", "ios": "https://dc.lft.to/lastmile_qr_scan"}, "type": "electric_scooter", "lon": -77.02979466666666, "name": "aac8396b59a039d11eec44948b58d43f", "bike_id": "aac8396b59a039d11eec44948b58d43f", "fusion_lat": 0.0, "is_reserved": 0, "lat": 38.94702783333334, "fusion_lon": 0.0, "is_disabled": 0}, {"rental_uris": {"android": "https://dc.lft.to/lastmile_qr_scan", "ios": "https://dc.lft.to/lastmile_qr_scan"}, "type": "electric_scooter", "lon": -77.040845, "name": "80688a871a5bbd66ab1bf32413673cf3", "bike_id": "80688a871a5bbd66ab1bf32413673cf3", "fusion_lat": 0.0, "is_reserved": 0, "lat": 38.907125666666666, "fusion_lon": 0.0, "is_disabled": 0}, {"rental_uris": {"android": "https://dc.lft.to/lastmile_qr_scan", "ios": "https://dc.lft.to/lastmile_qr_scan"}, "type": "electric_scooter", "lon": -77.05178933333333, "name": "403d23b82e78ecb5a6e823f9b56e3e26", "bike_id": "403d23b82e78ecb5a6e823f9b56e3e26", "fusion_lat": 0.0, "is_reserved": 0, "lat": 38.92422333333333, "fusion_lon": 0.0, "is_disabled": 0}, {"rental_uris": {"android": "https://dc.lft.to/lastmile_qr_scan", "ios": "https://dc.lft.to/lastmile_qr_scan"}, "type": "electric_scooter", "lon": -76.98731583333333, "name": "7cdd1f46cbaee800f5a7af693ec2dc0d", "bike_id": "7cdd1f46cbaee800f5a7af693ec2dc0d", "fusion_lat": 0.0, "is_reserved": 0, "lat": 38.86711833333333, "fusion_lon": 0.0, "is_disabled": 0}, {"rental_uris": {"android": "https://dc.lft.to/lastmile_qr_scan", "ios": "https://dc.lft.to/lastmile_qr_scan"}, "type": "electric_scooter", "lon": -77.02736216666666, "name": "260b7f88752f2bc4b15e9d57bc4c4979", "bike_id": "260b7f88752f2bc4b15e9d57bc4c4979", "fusion_lat": 0.0, "is_reserved": 0, "lat": 38.927632333333335, "fusion_lon": 0.0, "is_disabled": 0}, {"rental_uris": {"android": "https://dc.lft.to/lastmile_qr_scan", "ios": "https://dc.lft.to/lastmile_qr_scan"}, "type": "electric_scooter", "lon": -77.00128083333334, "name": "2d81d529fba4e202a41412dee1686de0", "bike_id": "2d81d529fba4e202a41412dee1686de0", "fusion_lat": 0.0, "is_reserved": 0, "lat": 38.907244666666664, "fusion_lon": 0.0, "is_disabled": 0}, {"rental_uris": {"android": "https://dc.lft.to/lastmile_qr_scan", "ios": "https://dc.lft.to/lastmile_qr_scan"}, "type": "electric_scooter", "lon": -77.013656, "name": "45caa202e3a382c960cde6df9749c30b", "bike_id": "45caa202e3a382c960cde6df9749c30b", "fusion_lat": 0.0, "is_reserved": 0, "lat": 38.900576, "fusion_lon": 0.0, "is_disabled": 0}, {"rental_uris": {"android": "https://dc.lft.to/lastmile_qr_scan", "ios": "https://dc.lft.to/lastmile_qr_scan"}, "type": "electric_scooter", "lon": -77.02570033333333, "name": "fb9ce1b59fb38a1c2d80e2f0b73857a9", "bike_id": "fb9ce1b59fb38a1c2d80e2f0b73857a9", "fusion_lat": 0.0, "is_reserved": 0, "lat": 38.88586316666667, "fusion_lon": 0.0, "is_disabled": 0}, {"rental_uris": {"android": "https://dc.lft.to/lastmile_qr_scan", "ios": "https://dc.lft.to/lastmile_qr_scan"}, "type": "electric_bike", "lon": -76.97559633333333, "name": "7086a362fee5cad5056ec61b785507d6", "bike_id": "7086a362fee5cad5056ec61b785507d6", "fusion_lat": 0.0, "is_reserved": 0, "lat": 38.90322, "fusion_lon": 0.0, "is_disabled": 0}, {"rental_uris": {"android": "https://dc.lft.to/lastmile_qr_scan", "ios": "https://dc.lft.to/lastmile_qr_scan"}, "type": "electric_scooter", "lon": -77.02903366666666, "name": "9a9722db28cd23a8e7ca1183e65c7fca", "bike_id": "9a9722db28cd23a8e7ca1183e65c7fca", "fusion_lat": 0.0, "is_reserved": 0, "lat": 38.95846383333333, "fusion_lon": 0.0, "is_disabled": 0}, {"rental_uris": {"android": "https://dc.lft.to/lastmile_qr_scan", "ios": "https://dc.lft.to/lastmile_qr_scan"}, "type": "electric_scooter", "lon": -77.03812333333333, "name": "e36750101cf9bf14c57a8b859a65ef70", "bike_id": "e36750101cf9bf14c57a8b859a65ef70", "fusion_lat": 0.0, "is_reserved": 0, "lat": 38.914180333333334, "fusion_lon": 0.0, "is_disabled": 0}, {"rental_uris": {"android": "https://dc.lft.to/lastmile_qr_scan", "ios": "https://dc.lft.to/lastmile_qr_scan"}, "type": "electric_scooter", "lon": -77.0234295, "name": "cdd9ff4a14e03dd18556cdfddb26aff0", "bike_id": "cdd9ff4a14e03dd18556cdfddb26aff0", "fusion_lat": 0.0, "is_reserved": 0, "lat": 38.884737333333334, "fusion_lon": 0.0, "is_disabled": 0}, {"rental_uris": {"android": "https://dc.lft.to/lastmile_qr_scan", "ios": "https://dc.lft.to/lastmile_qr_scan"}, "type": "electric_scooter", "lon": -77.0387195, "name": "2a02244658fe01bf02f8e4ca19361e3c", "bike_id": "2a02244658fe01bf02f8e4ca19361e3c", "fusion_lat": 0.0, "is_reserved": 0, "lat": 38.91264566666667, "fusion_lon": 0.0, "is_disabled": 0}, {"rental_uris": {"android": "https://dc.lft.to/lastmile_qr_scan", "ios": "https://dc.lft.to/lastmile_qr_scan"}, "type": "electric_bike", "lon": -77.08825633333333, "name": "a605542dd22f8836a039d87ebe8d69ca", "bike_id": "a605542dd22f8836a039d87ebe8d69ca", "fusion_lat": 0.0, "is_reserved": 0, "lat": 38.909720666666665, "fusion_lon": 0.0, "is_disabled": 0}, {"rental_uris": {"android": "https://dc.lft.to/lastmile_qr_scan", "ios": "https://dc.lft.to/lastmile_qr_scan"}, "type": "electric_scooter", "lon": -77.06235933333333, "name": "f15b7a4bb24fec77f56d453dab4fd60b", "bike_id": "f15b7a4bb24fec77f56d453dab4fd60b", "fusion_lat": 0.0, "is_reserved": 0, "lat": 38.905276, "fusion_lon": 0.0, "is_disabled": 0}, {"rental_uris": {"android": "https://dc.lft.to/lastmile_qr_scan", "ios": "https://dc.lft.to/lastmile_qr_scan"}, "type": "electric_scooter", "lon": -76.994603, "name": "2d6027ca15448253d292f48a8055e42d", "bike_id": "2d6027ca15448253d292f48a8055e42d", "fusion_lat": 0.0, "is_reserved": 0, "lat": 38.8621875, "fusion_lon": 0.0, "is_disabled": 0}, {"rental_uris": {"android": "https://dc.lft.to/lastmile_qr_scan", "ios": "https://dc.lft.to/lastmile_qr_scan"}, "type": "electric_scooter", "lon": -77.00355216666667, "name": "676bf7f71e0050413dee343333b9544c", "bike_id": "676bf7f71e0050413dee343333b9544c", "fusion_lat": 0.0, "is_reserved": 0, "lat": 38.897640833333334, "fusion_lon": 0.0, "is_disabled": 0}, {"rental_uris": {"android": "https://dc.lft.to/lastmile_qr_scan", "ios": "https://dc.lft.to/lastmile_qr_scan"}, "type": "electric_scooter", "lon": -77.05731683333333, "name": "8214e3b09357971f7aae6750a4a04d4b", "bike_id": "8214e3b09357971f7aae6750a4a04d4b", "fusion_lat": 0.0, "is_reserved": 0, "lat": 38.93363816666667, "fusion_lon": 0.0, "is_disabled": 0}, {"rental_uris": {"android": "https://dc.lft.to/lastmile_qr_scan", "ios": "https://dc.lft.to/lastmile_qr_scan"}, "type": "electric_scooter", "lon": -76.98540116666666, "name": "2c34b7eec154edc3b4af229b3f4bcdf3", "bike_id": "2c34b7eec154edc3b4af229b3f4bcdf3", "fusion_lat": 0.0, "is_reserved": 0, "lat": 38.920001666666664, "fusion_lon": 0.0, "is_disabled": 0}, {"rental_uris": {"android": "https://dc.lft.to/lastmile_qr_scan", "ios": "https://dc.lft.to/lastmile_qr_scan"}, "type": "electric_scooter", "lon": -77.10171433333333, "name": "caa1c731a108fcb58b1ab61fd3d3a26e", "bike_id": "caa1c731a108fcb58b1ab61fd3d3a26e", "fusion_lat": 0.0, "is_reserved": 0, "lat": 38.9254475, "fusion_lon": 0.0, "is_disabled": 0}, {"rental_uris": {"android": "https://dc.lft.to/lastmile_qr_scan", "ios": "https://dc.lft.to/lastmile_qr_scan"}, "type": "electric_scooter", "lon": -77.04816966666667, "name": "86d9b17eb6f6f0076fd811995432d125", "bike_id": "86d9b17eb6f6f0076fd811995432d125", "fusion_lat": 0.0, "is_reserved": 0, "lat": 38.91330266666667, "fusion_lon": 0.0, "is_disabled": 0}, {"rental_uris": {"android": "https://dc.lft.to/lastmile_qr_scan", "ios": "https://dc.lft.to/lastmile_qr_scan"}, "type": "electric_bike", "lon": -76.908159, "name": "8799f6cbd39068a1306a4b5447319a78", "bike_id": "8799f6cbd39068a1306a4b5447319a78", "fusion_lat": 0.0, "is_reserved": 0, "lat": 38.9945065, "fusion_lon": 0.0, "is_disabled": 0}, {"rental_uris": {"android": "https://dc.lft.to/lastmile_qr_scan", "ios": "https://dc.lft.to/lastmile_qr_scan"}, "type": "electric_scooter", "lon": -77.0200045, "name": "58b95d81fdc6eb433792e53dc0b932d7", "bike_id": "58b95d81fdc6eb433792e53dc0b932d7", "fusion_lat": 0.0, "is_reserved": 0, "lat": 38.901572, "fusion_lon": 0.0, "is_disabled": 0}, {"rental_uris": {"android": "https://dc.lft.to/lastmile_qr_scan", "ios": "https://dc.lft.to/lastmile_qr_scan"}, "type": "electric_scooter", "lon": -77.03208133333334, "name": "cd65fb8f7302f89b34d8e7bf55f3aeb1", "bike_id": "cd65fb8f7302f89b34d8e7bf55f3aeb1", "fusion_lat": 0.0, "is_reserved": 0, "lat": 38.929680833333336, "fusion_lon": 0.0, "is_disabled": 0}, {"rental_uris": {"android": "https://dc.lft.to/lastmile_qr_scan", "ios": "https://dc.lft.to/lastmile_qr_scan"}, "type": "electric_scooter", "lon": -77.06532183333333, "name": "f5fceb89ecc88fa2c4763fe49432395b", "bike_id": "f5fceb89ecc88fa2c4763fe49432395b", "fusion_lat": 0.0, "is_reserved": 0, "lat": 38.93473633333333, "fusion_lon": 0.0, "is_disabled": 0}, {"rental_uris": {"android": "https://dc.lft.to/lastmile_qr_scan", "ios": "https://dc.lft.to/lastmile_qr_scan"}, "type": "electric_scooter", "lon": -77.02681383333334, "name": "bcc7de6bead8d79d115ce792ec3c626d", "bike_id": "bcc7de6bead8d79d115ce792ec3c626d", "fusion_lat": 0.0, "is_reserved": 0, "lat": 38.89729966666667, "fusion_lon": 0.0, "is_disabled": 0}, {"rental_uris": {"android": "https://dc.lft.to/lastmile_qr_scan", "ios": "https://dc.lft.to/lastmile_qr_scan"}, "type": "electric_bike", "lon": -76.91597033333333, "name": "48f0680e74bf3416105126d79898505f", "bike_id": "48f0680e74bf3416105126d79898505f", "fusion_lat": 0.0, "is_reserved": 0, "lat": 38.880075833333336, "fusion_lon": 0.0, "is_disabled": 0}, {"rental_uris": {"android": "https://dc.lft.to/lastmile_qr_scan", "ios": "https://dc.lft.to/lastmile_qr_scan"}, "type": "electric_bike", "lon": -76.98781916666667, "name": "69dac23f7790d4edaba27ea1f6096811", "bike_id": "69dac23f7790d4edaba27ea1f6096811", "fusion_lat": 0.0, "is_reserved": 0, "lat": 38.8454065, "fusion_lon": 0.0, "is_disabled": 0}, {"rental_uris": {"android": "https://dc.lft.to/lastmile_qr_scan", "ios": "https://dc.lft.to/lastmile_qr_scan"}, "type": "electric_scooter", "lon": -77.004587, "name": "a1216e9363c5eab36b9179749ae7f8cb", "bike_id": "a1216e9363c5eab36b9179749ae7f8cb", "fusion_lat": 0.0, "is_reserved": 0, "lat": 38.897104666666664, "fusion_lon": 0.0, "is_disabled": 0}, {"rental_uris": {"android": "https://dc.lft.to/lastmile_qr_scan", "ios": "https://dc.lft.to/lastmile_qr_scan"}, "type": "electric_scooter", "lon": -77.0016385, "name": "df5f544117b3898120a7c1e8834b2173", "bike_id": "df5f544117b3898120a7c1e8834b2173", "fusion_lat": 0.0, "is_reserved": 0, "lat": 38.905176, "fusion_lon": 0.0, "is_disabled": 0}, {"rental_uris": {"android": "https://dc.lft.to/lastmile_qr_scan", "ios": "https://dc.lft.to/lastmile_qr_scan"}, "type": "electric_scooter", "lon": -77.03979233333334, "name": "04d8946d69646de10300c26e9cf0f4e6", "bike_id": "04d8946d69646de10300c26e9cf0f4e6", "fusion_lat": 0.0, "is_reserved": 0, "lat": 38.901159666666665, "fusion_lon": 0.0, "is_disabled": 0}, {"rental_uris": {"android": "https://dc.lft.to/lastmile_qr_scan", "ios": "https://dc.lft.to/lastmile_qr_scan"}, "type": "electric_scooter", "lon": -77.07152583333334, "name": "ffd212a8172238a57868994d655f3b9c", "bike_id": "ffd212a8172238a57868994d655f3b9c", "fusion_lat": 0.0, "is_reserved": 0, "lat": 38.958412333333335, "fusion_lon": 0.0, "is_disabled": 0}, {"rental_uris": {"android": "https://dc.lft.to/lastmile_qr_scan", "ios": "https://dc.lft.to/lastmile_qr_scan"}, "type": "electric_scooter", "lon": -77.04503966666667, "name": "cbd969a1cdb30774ca7066aa57b8c0a7", "bike_id": "cbd969a1cdb30774ca7066aa57b8c0a7", "fusion_lat": 0.0, "is_reserved": 0, "lat": 38.892182166666665, "fusion_lon": 0.0, "is_disabled": 0}, {"rental_uris": {"android": "https://dc.lft.to/lastmile_qr_scan", "ios": "https://dc.lft.to/lastmile_qr_scan"}, "type": "electric_scooter", "lon": -77.01092216666666, "name": "5f727809de1b7b673a6955e915226a08", "bike_id": "5f727809de1b7b673a6955e915226a08", "fusion_lat": 0.0, "is_reserved": 0, "lat": 38.894765, "fusion_lon": 0.0, "is_disabled": 0}, {"rental_uris": {"android": "https://dc.lft.to/lastmile_qr_scan", "ios": "https://dc.lft.to/lastmile_qr_scan"}, "type": "electric_scooter", "lon": -77.018208, "name": "6da1570a70a60c3f1decd31ad9d8bfed", "bike_id": "6da1570a70a60c3f1decd31ad9d8bfed", "fusion_lat": 0.0, "is_reserved": 0, "lat": 38.921708333333335, "fusion_lon": 0.0, "is_disabled": 0}, {"rental_uris": {"android": "https://dc.lft.to/lastmile_qr_scan", "ios": "https://dc.lft.to/lastmile_qr_scan"}, "type": "electric_scooter", "lon": -77.043534, "name": "93e538402586293b1c19d07912d882b2", "bike_id": "93e538402586293b1c19d07912d882b2", "fusion_lat": 0.0, "is_reserved": 0, "lat": 38.90520383333333, "fusion_lon": 0.0, "is_disabled": 0}, {"rental_uris": {"android": "https://dc.lft.to/lastmile_qr_scan", "ios": "https://dc.lft.to/lastmile_qr_scan"}, "type": "electric_bike", "lon": -76.9956805, "name": "8243e6219a2dc7ab33bdc698b6a2af6f", "bike_id": "8243e6219a2dc7ab33bdc698b6a2af6f", "fusion_lat": 0.0, "is_reserved": 0, "lat": 39.007831, "fusion_lon": 0.0, "is_disabled": 0}, {"rental_uris": {"android": "https://dc.lft.to/lastmile_qr_scan", "ios": "https://dc.lft.to/lastmile_qr_scan"}, "type": "electric_bike", "lon": -77.1250585, "name": "1271863d0f3b7c84fb545f76428c38ca", "bike_id": "1271863d0f3b7c84fb545f76428c38ca", "fusion_lat": 0.0, "is_reserved": 0, "lat": 39.024170166666664, "fusion_lon": 0.0, "is_disabled": 0}, {"rental_uris": {"android": "https://dc.lft.to/lastmile_qr_scan", "ios": "https://dc.lft.to/lastmile_qr_scan"}, "type": "electric_scooter", "lon": -76.98712783333333, "name": "997fd4d852f9c1cb307b8ab4e18a77e1", "bike_id": "997fd4d852f9c1cb307b8ab4e18a77e1", "fusion_lat": 0.0, "is_reserved": 0, "lat": 38.86698716666667, "fusion_lon": 0.0, "is_disabled": 0}, {"rental_uris": {"android": "https://dc.lft.to/lastmile_qr_scan", "ios": "https://dc.lft.to/lastmile_qr_scan"}, "type": "electric_scooter", "lon": -77.048797, "name": "1717c0507f326c60700fdb97d0a54c96", "bike_id": "1717c0507f326c60700fdb97d0a54c96", "fusion_lat": 0.0, "is_reserved": 0, "lat": 38.90297133333333, "fusion_lon": 0.0, "is_disabled": 0}, {"rental_uris": {"android": "https://dc.lft.to/lastmile_qr_scan", "ios": "https://dc.lft.to/lastmile_qr_scan"}, "type": "electric_scooter", "lon": -77.02938766666666, "name": "76291b68f16f9ce58476de497032c85d", "bike_id": "76291b68f16f9ce58476de497032c85d", "fusion_lat": 0.0, "is_reserved": 0, "lat": 38.90370883333333, "fusion_lon": 0.0, "is_disabled": 0}, {"rental_uris": {"android": "https://dc.lft.to/lastmile_qr_scan", "ios": "https://dc.lft.to/lastmile_qr_scan"}, "type": "electric_scooter", "lon": -77.04150833333334, "name": "ba1bc7fc5f01c9282c26ba1863e45115", "bike_id": "ba1bc7fc5f01c9282c26ba1863e45115", "fusion_lat": 0.0, "is_reserved": 0, "lat": 38.92349166666666, "fusion_lon": 0.0, "is_disabled": 0}, {"rental_uris": {"android": "https://dc.lft.to/lastmile_qr_scan", "ios": "https://dc.lft.to/lastmile_qr_scan"}, "type": "electric_scooter", "lon": -77.01380883333333, "name": "b3bcbeae679b69c3e15bdf2f2afb813b", "bike_id": "b3bcbeae679b69c3e15bdf2f2afb813b", "fusion_lat": 0.0, "is_reserved": 0, "lat": 38.928311, "fusion_lon": 0.0, "is_disabled": 0}, {"rental_uris": {"android": "https://dc.lft.to/lastmile_qr_scan", "ios": "https://dc.lft.to/lastmile_qr_scan"}, "type": "electric_scooter", "lon": -77.032887, "name": "7f59d557c3157d706b3437a611516d61", "bike_id": "7f59d557c3157d706b3437a611516d61", "fusion_lat": 0.0, "is_reserved": 0, "lat": 38.9284965, "fusion_lon": 0.0, "is_disabled": 0}, {"rental_uris": {"android": "https://dc.lft.to/lastmile_qr_scan", "ios": "https://dc.lft.to/lastmile_qr_scan"}, "type": "electric_bike", "lon": -76.94625183333333, "name": "56abcb07d596d0e35fc9ad8a8bf568e8", "bike_id": "56abcb07d596d0e35fc9ad8a8bf568e8", "fusion_lat": 0.0, "is_reserved": 0, "lat": 38.832307666666665, "fusion_lon": 0.0, "is_disabled": 0}, {"rental_uris": {"android": "https://dc.lft.to/lastmile_qr_scan", "ios": "https://dc.lft.to/lastmile_qr_scan"}, "type": "electric_scooter", "lon": -77.02726833333334, "name": "533edcc6aeea521bcd7c61d246c9f4a0", "bike_id": "533edcc6aeea521bcd7c61d246c9f4a0", "fusion_lat": 0.0, "is_reserved": 0, "lat": 38.95129083333333, "fusion_lon": 0.0, "is_disabled": 0}, {"rental_uris": {"android": "https://dc.lft.to/lastmile_qr_scan", "ios": "https://dc.lft.to/lastmile_qr_scan"}, "type": "electric_scooter", "lon": -77.0258045, "name": "9441532f2f023a43a9ddf7921be5c72f", "bike_id": "9441532f2f023a43a9ddf7921be5c72f", "fusion_lat": 0.0, "is_reserved": 0, "lat": 38.92505633333333, "fusion_lon": 0.0, "is_disabled": 0}, {"rental_uris": {"android": "https://dc.lft.to/lastmile_qr_scan", "ios": "https://dc.lft.to/lastmile_qr_scan"}, "type": "electric_scooter", "lon": -77.04676833333333, "name": "ee7159c038368be0ca59b0b32a960a89", "bike_id": "ee7159c038368be0ca59b0b32a960a89", "fusion_lat": 0.0, "is_reserved": 0, "lat": 38.89504783333334, "fusion_lon": 0.0, "is_disabled": 0}, {"rental_uris": {"android": "https://dc.lft.to/lastmile_qr_scan", "ios": "https://dc.lft.to/lastmile_qr_scan"}, "type": "electric_scooter", "lon": -77.03789016666667, "name": "a951a9a75e4612811f00d062d4e29ea0", "bike_id": "a951a9a75e4612811f00d062d4e29ea0", "fusion_lat": 0.0, "is_reserved": 0, "lat": 38.93325816666667, "fusion_lon": 0.0, "is_disabled": 0}, {"rental_uris": {"android": "https://dc.lft.to/lastmile_qr_scan", "ios": "https://dc.lft.to/lastmile_qr_scan"}, "type": "electric_scooter", "lon": -76.98769633333333, "name": "051157374216c4ea8d9aa7fb12e25304", "bike_id": "051157374216c4ea8d9aa7fb12e25304", "fusion_lat": 0.0, "is_reserved": 0, "lat": 38.88313016666667, "fusion_lon": 0.0, "is_disabled": 0}, {"rental_uris": {"android": "https://dc.lft.to/lastmile_qr_scan", "ios": "https://dc.lft.to/lastmile_qr_scan"}, "type": "electric_scooter", "lon": -77.00524233333333, "name": "e51b8af138b029c5ae5095b492d6280f", "bike_id": "e51b8af138b029c5ae5095b492d6280f", "fusion_lat": 0.0, "is_reserved": 0, "lat": 38.91695516666667, "fusion_lon": 0.0, "is_disabled": 0}, {"rental_uris": {"android": "https://dc.lft.to/lastmile_qr_scan", "ios": "https://dc.lft.to/lastmile_qr_scan"}, "type": "electric_scooter", "lon": -77.00689, "name": "539e241404c03327b07b105e2aebe0fc", "bike_id": "539e241404c03327b07b105e2aebe0fc", "fusion_lat": 0.0, "is_reserved": 0, "lat": 38.900218833333334, "fusion_lon": 0.0, "is_disabled": 0}, {"rental_uris": {"android": "https://dc.lft.to/lastmile_qr_scan", "ios": "https://dc.lft.to/lastmile_qr_scan"}, "type": "electric_scooter", "lon": -77.02482866666666, "name": "a887779364292e702e07ad2a0172f534", "bike_id": "a887779364292e702e07ad2a0172f534", "fusion_lat": 0.0, "is_reserved": 0, "lat": 38.93877633333334, "fusion_lon": 0.0, "is_disabled": 0}, {"rental_uris": {"android": "https://dc.lft.to/lastmile_qr_scan", "ios": "https://dc.lft.to/lastmile_qr_scan"}, "type": "electric_scooter", "lon": -77.04996416666667, "name": "accf1b31d8433bf7c51a660ceca8f423", "bike_id": "accf1b31d8433bf7c51a660ceca8f423", "fusion_lat": 0.0, "is_reserved": 0, "lat": 38.9007455, "fusion_lon": 0.0, "is_disabled": 0}, {"rental_uris": {"android": "https://dc.lft.to/lastmile_qr_scan", "ios": "https://dc.lft.to/lastmile_qr_scan"}, "type": "electric_scooter", "lon": -77.02723083333333, "name": "4bcd6c1148128c79945e603a32770f98", "bike_id": "4bcd6c1148128c79945e603a32770f98", "fusion_lat": 0.0, "is_reserved": 0, "lat": 38.94083883333333, "fusion_lon": 0.0, "is_disabled": 0}, {"rental_uris": {"android": "https://dc.lft.to/lastmile_qr_scan", "ios": "https://dc.lft.to/lastmile_qr_scan"}, "type": "electric_scooter", "lon": -77.02405783333333, "name": "55201f696fce2ef35ab8d4255c163309", "bike_id": "55201f696fce2ef35ab8d4255c163309", "fusion_lat": 0.0, "is_reserved": 0, "lat": 38.916727333333334, "fusion_lon": 0.0, "is_disabled": 0}, {"rental_uris": {"android": "https://dc.lft.to/lastmile_qr_scan", "ios": "https://dc.lft.to/lastmile_qr_scan"}, "type": "electric_scooter", "lon": -76.99615133333333, "name": "b7e2ce34b224ee0ac3808686359961e5", "bike_id": "b7e2ce34b224ee0ac3808686359961e5", "fusion_lat": 0.0, "is_reserved": 0, "lat": 38.900305, "fusion_lon": 0.0, "is_disabled": 0}, {"rental_uris": {"android": "https://dc.lft.to/lastmile_qr_scan", "ios": "https://dc.lft.to/lastmile_qr_scan"}, "type": "electric_scooter", "lon": -77.0158245, "name": "3a085320efd02d0f42d2884371879cdb", "bike_id": "3a085320efd02d0f42d2884371879cdb", "fusion_lat": 0.0, "is_reserved": 0, "lat": 38.928479333333335, "fusion_lon": 0.0, "is_disabled": 0}, {"rental_uris": {"android": "https://dc.lft.to/lastmile_qr_scan", "ios": "https://dc.lft.to/lastmile_qr_scan"}, "type": "electric_scooter", "lon": -77.03180766666667, "name": "76b24a9a6230f23d5462e28c100a795f", "bike_id": "76b24a9a6230f23d5462e28c100a795f", "fusion_lat": 0.0, "is_reserved": 0, "lat": 38.898474666666665, "fusion_lon": 0.0, "is_disabled": 0}, {"rental_uris": {"android": "https://dc.lft.to/lastmile_qr_scan", "ios": "https://dc.lft.to/lastmile_qr_scan"}, "type": "electric_bike", "lon": -76.97622266666667, "name": "356c27a602b724b03b1888283642a75e", "bike_id": "356c27a602b724b03b1888283642a75e", "fusion_lat": 0.0, "is_reserved": 0, "lat": 38.89578783333333, "fusion_lon": 0.0, "is_disabled": 0}, {"rental_uris": {"android": "https://dc.lft.to/lastmile_qr_scan", "ios": "https://dc.lft.to/lastmile_qr_scan"}, "type": "electric_scooter", "lon": -77.01222733333333, "name": "1b4c83af74f39ca0ef599bc35ccf4666", "bike_id": "1b4c83af74f39ca0ef599bc35ccf4666", "fusion_lat": 0.0, "is_reserved": 0, "lat": 38.91544616666667, "fusion_lon": 0.0, "is_disabled": 0}, {"rental_uris": {"android": "https://dc.lft.to/lastmile_qr_scan", "ios": "https://dc.lft.to/lastmile_qr_scan"}, "type": "electric_scooter", "lon": -77.01060433333333, "name": "06819af571bcc4d858fcb349312ec0b1", "bike_id": "06819af571bcc4d858fcb349312ec0b1", "fusion_lat": 0.0, "is_reserved": 0, "lat": 38.87241016666667, "fusion_lon": 0.0, "is_disabled": 0}, {"rental_uris": {"android": "https://dc.lft.to/lastmile_qr_scan", "ios": "https://dc.lft.to/lastmile_qr_scan"}, "type": "electric_scooter", "lon": -77.0237855, "name": "8edced5b5f16b8c1323ce9740887917e", "bike_id": "8edced5b5f16b8c1323ce9740887917e", "fusion_lat": 0.0, "is_reserved": 0, "lat": 38.89225833333333, "fusion_lon": 0.0, "is_disabled": 0}, {"rental_uris": {"android": "https://dc.lft.to/lastmile_qr_scan", "ios": "https://dc.lft.to/lastmile_qr_scan"}, "type": "electric_scooter", "lon": -77.04502683333334, "name": "ce5d4c692911d5c12c876746d89b587c", "bike_id": "ce5d4c692911d5c12c876746d89b587c", "fusion_lat": 0.0, "is_reserved": 0, "lat": 38.907066666666665, "fusion_lon": 0.0, "is_disabled": 0}, {"rental_uris": {"android": "https://dc.lft.to/lastmile_qr_scan", "ios": "https://dc.lft.to/lastmile_qr_scan"}, "type": "electric_scooter", "lon": -77.032303, "name": "8a96e64d103dc8ff1475b06c4963905b", "bike_id": "8a96e64d103dc8ff1475b06c4963905b", "fusion_lat": 0.0, "is_reserved": 0, "lat": 38.92993216666667, "fusion_lon": 0.0, "is_disabled": 0}, {"rental_uris": {"android": "https://dc.lft.to/lastmile_qr_scan", "ios": "https://dc.lft.to/lastmile_qr_scan"}, "type": "electric_scooter", "lon": -77.02642533333334, "name": "ef7b47e1d14e6f34dde97b162e93a166", "bike_id": "ef7b47e1d14e6f34dde97b162e93a166", "fusion_lat": 0.0, "is_reserved": 0, "lat": 38.9011195, "fusion_lon": 0.0, "is_disabled": 0}, {"rental_uris": {"android": "https://dc.lft.to/lastmile_qr_scan", "ios": "https://dc.lft.to/lastmile_qr_scan"}, "type": "electric_bike", "lon": -76.9750215, "name": "de2caa403b6404e26aa58757bfa39e41", "bike_id": "de2caa403b6404e26aa58757bfa39e41", "fusion_lat": 0.0, "is_reserved": 0, "lat": 38.919345, "fusion_lon": 0.0, "is_disabled": 0}, {"rental_uris": {"android": "https://dc.lft.to/lastmile_qr_scan", "ios": "https://dc.lft.to/lastmile_qr_scan"}, "type": "electric_bike", "lon": -77.08442133333334, "name": "142badc1230d4af462d5208038fef9a0", "bike_id": "142badc1230d4af462d5208038fef9a0", "fusion_lat": 0.0, "is_reserved": 0, "lat": 38.81020483333333, "fusion_lon": 0.0, "is_disabled": 0}, {"rental_uris": {"android": "https://dc.lft.to/lastmile_qr_scan", "ios": "https://dc.lft.to/lastmile_qr_scan"}, "type": "electric_scooter", "lon": -76.97558383333333, "name": "8dc016311e300a28dc9a37466a9ba3bb", "bike_id": "8dc016311e300a28dc9a37466a9ba3bb", "fusion_lat": 0.0, "is_reserved": 0, "lat": 38.904437333333334, "fusion_lon": 0.0, "is_disabled": 0}, {"rental_uris": {"android": "https://dc.lft.to/lastmile_qr_scan", "ios": "https://dc.lft.to/lastmile_qr_scan"}, "type": "electric_scooter", "lon": -77.04156283333333, "name": "0f3e3d936feaada08f4de89832c1a052", "bike_id": "0f3e3d936feaada08f4de89832c1a052", "fusion_lat": 0.0, "is_reserved": 0, "lat": 38.9192815, "fusion_lon": 0.0, "is_disabled": 0}, {"rental_uris": {"android": "https://dc.lft.to/lastmile_qr_scan", "ios": "https://dc.lft.to/lastmile_qr_scan"}, "type": "electric_scooter", "lon": -77.04258933333334, "name": "17007ad8195ab86e1b8e0974f0145480", "bike_id": "17007ad8195ab86e1b8e0974f0145480", "fusion_lat": 0.0, "is_reserved": 0, "lat": 38.90831883333333, "fusion_lon": 0.0, "is_disabled": 0}, {"rental_uris": {"android": "https://dc.lft.to/lastmile_qr_scan", "ios": "https://dc.lft.to/lastmile_qr_scan"}, "type": "electric_scooter", "lon": -76.999536, "name": "8efd3723814f65a634427c1248b16004", "bike_id": "8efd3723814f65a634427c1248b16004", "fusion_lat": 0.0, "is_reserved": 0, "lat": 38.90858883333333, "fusion_lon": 0.0, "is_disabled": 0}, {"rental_uris": {"android": "https://dc.lft.to/lastmile_qr_scan", "ios": "https://dc.lft.to/lastmile_qr_scan"}, "type": "electric_scooter", "lon": -77.04458966666667, "name": "519259b4894d3f1d858b75f22b54ed2a", "bike_id": "519259b4894d3f1d858b75f22b54ed2a", "fusion_lat": 0.0, "is_reserved": 0, "lat": 38.91919933333333, "fusion_lon": 0.0, "is_disabled": 0}, {"rental_uris": {"android": "https://dc.lft.to/lastmile_qr_scan", "ios": "https://dc.lft.to/lastmile_qr_scan"}, "type": "electric_scooter", "lon": -77.01812383333333, "name": "3c4289b78ef569c2d31575114670ed3f", "bike_id": "3c4289b78ef569c2d31575114670ed3f", "fusion_lat": 0.0, "is_reserved": 0, "lat": 38.886251666666666, "fusion_lon": 0.0, "is_disabled": 0}, {"rental_uris": {"android": "https://dc.lft.to/lastmile_qr_scan", "ios": "https://dc.lft.to/lastmile_qr_scan"}, "type": "electric_scooter", "lon": -76.9845725, "name": "9763cc173d21b6c693fa79694fd747c2", "bike_id": "9763cc173d21b6c693fa79694fd747c2", "fusion_lat": 0.0, "is_reserved": 0, "lat": 38.88012116666667, "fusion_lon": 0.0, "is_disabled": 0}, {"rental_uris": {"android": "https://dc.lft.to/lastmile_qr_scan", "ios": "https://dc.lft.to/lastmile_qr_scan"}, "type": "electric_scooter", "lon": -76.99491233333333, "name": "07ec3ca581d6a5c0689afb20d9609ce0", "bike_id": "07ec3ca581d6a5c0689afb20d9609ce0", "fusion_lat": 0.0, "is_reserved": 0, "lat": 38.862439333333334, "fusion_lon": 0.0, "is_disabled": 0}, {"rental_uris": {"android": "https://dc.lft.to/lastmile_qr_scan", "ios": "https://dc.lft.to/lastmile_qr_scan"}, "type": "electric_scooter", "lon": -76.99459716666667, "name": "6e7c96986cd43067a7020b0aa9bb588d", "bike_id": "6e7c96986cd43067a7020b0aa9bb588d", "fusion_lat": 0.0, "is_reserved": 0, "lat": 38.8860245, "fusion_lon": 0.0, "is_disabled": 0}, {"rental_uris": {"android": "https://dc.lft.to/lastmile_qr_scan", "ios": "https://dc.lft.to/lastmile_qr_scan"}, "type": "electric_scooter", "lon": -77.05002133333333, "name": "e6455ebba50fa32d2c94b1eb25d21731", "bike_id": "e6455ebba50fa32d2c94b1eb25d21731", "fusion_lat": 0.0, "is_reserved": 0, "lat": 38.892314666666664, "fusion_lon": 0.0, "is_disabled": 0}, {"rental_uris": {"android": "https://dc.lft.to/lastmile_qr_scan", "ios": "https://dc.lft.to/lastmile_qr_scan"}, "type": "electric_scooter", "lon": -77.02558566666667, "name": "e6885ed1640be05cba551a62a85c5fe8", "bike_id": "e6885ed1640be05cba551a62a85c5fe8", "fusion_lat": 0.0, "is_reserved": 0, "lat": 38.94163666666667, "fusion_lon": 0.0, "is_disabled": 0}, {"rental_uris": {"android": "https://dc.lft.to/lastmile_qr_scan", "ios": "https://dc.lft.to/lastmile_qr_scan"}, "type": "electric_scooter", "lon": -76.98889366666667, "name": "caeef155ddf0adfaaf540678586dc63d", "bike_id": "caeef155ddf0adfaaf540678586dc63d", "fusion_lat": 0.0, "is_reserved": 0, "lat": 38.866732, "fusion_lon": 0.0, "is_disabled": 0}, {"rental_uris": {"android": "https://dc.lft.to/lastmile_qr_scan", "ios": "https://dc.lft.to/lastmile_qr_scan"}, "type": "electric_scooter", "lon": -76.9875825, "name": "e1ed1131578a7a3a537879dafe50be97", "bike_id": "e1ed1131578a7a3a537879dafe50be97", "fusion_lat": 0.0, "is_reserved": 0, "lat": 38.844573833333335, "fusion_lon": 0.0, "is_disabled": 0}, {"rental_uris": {"android": "https://dc.lft.to/lastmile_qr_scan", "ios": "https://dc.lft.to/lastmile_qr_scan"}, "type": "electric_bike", "lon": -77.026297, "name": "f2dbebceba36d20a7b1180a101da4e0e", "bike_id": "f2dbebceba36d20a7b1180a101da4e0e", "fusion_lat": 0.0, "is_reserved": 0, "lat": 38.9622005, "fusion_lon": 0.0, "is_disabled": 0}, {"rental_uris": {"android": "https://dc.lft.to/lastmile_qr_scan", "ios": "https://dc.lft.to/lastmile_qr_scan"}, "type": "electric_scooter", "lon": -77.02807083333333, "name": "09198bfb4c3ca281e5aa076ab5eccc30", "bike_id": "09198bfb4c3ca281e5aa076ab5eccc30", "fusion_lat": 0.0, "is_reserved": 0, "lat": 38.961474333333335, "fusion_lon": 0.0, "is_disabled": 0}, {"rental_uris": {"android": "https://dc.lft.to/lastmile_qr_scan", "ios": "https://dc.lft.to/lastmile_qr_scan"}, "type": "electric_scooter", "lon": -77.03758816666667, "name": "419dc3b44af8213fa8098e50e5bcd26f", "bike_id": "419dc3b44af8213fa8098e50e5bcd26f", "fusion_lat": 0.0, "is_reserved": 0, "lat": 38.892968333333336, "fusion_lon": 0.0, "is_disabled": 0}, {"rental_uris": {"android": "https://dc.lft.to/lastmile_qr_scan", "ios": "https://dc.lft.to/lastmile_qr_scan"}, "type": "electric_scooter", "lon": -77.03746916666667, "name": "1bf2377c29d608f7d511ef38e0adb344", "bike_id": "1bf2377c29d608f7d511ef38e0adb344", "fusion_lat": 0.0, "is_reserved": 0, "lat": 38.91684466666667, "fusion_lon": 0.0, "is_disabled": 0}, {"rental_uris": {"android": "https://dc.lft.to/lastmile_qr_scan", "ios": "https://dc.lft.to/lastmile_qr_scan"}, "type": "electric_scooter", "lon": -77.02034233333333, "name": "03d33d165a86d5e46525be281fc37cba", "bike_id": "03d33d165a86d5e46525be281fc37cba", "fusion_lat": 0.0, "is_reserved": 0, "lat": 38.89268216666667, "fusion_lon": 0.0, "is_disabled": 0}, {"rental_uris": {"android": "https://dc.lft.to/lastmile_qr_scan", "ios": "https://dc.lft.to/lastmile_qr_scan"}, "type": "electric_scooter", "lon": -77.0653595, "name": "7446e43443e2659f1b03a91837fb8ded", "bike_id": "7446e43443e2659f1b03a91837fb8ded", "fusion_lat": 0.0, "is_reserved": 0, "lat": 38.950662666666666, "fusion_lon": 0.0, "is_disabled": 0}, {"rental_uris": {"android": "https://dc.lft.to/lastmile_qr_scan", "ios": "https://dc.lft.to/lastmile_qr_scan"}, "type": "electric_bike", "lon": -77.08536983333333, "name": "63349bb7ebd6a453b5447d00465c78cc", "bike_id": "63349bb7ebd6a453b5447d00465c78cc", "fusion_lat": 0.0, "is_reserved": 0, "lat": 38.856211, "fusion_lon": 0.0, "is_disabled": 0}, {"rental_uris": {"android": "https://dc.lft.to/lastmile_qr_scan", "ios": "https://dc.lft.to/lastmile_qr_scan"}, "type": "electric_scooter", "lon": -77.01798283333333, "name": "6da45c306f4b3d96f74b799a0a74db2b", "bike_id": "6da45c306f4b3d96f74b799a0a74db2b", "fusion_lat": 0.0, "is_reserved": 0, "lat": 38.91992966666667, "fusion_lon": 0.0, "is_disabled": 0}, {"rental_uris": {"android": "https://dc.lft.to/lastmile_qr_scan", "ios": "https://dc.lft.to/lastmile_qr_scan"}, "type": "electric_scooter", "lon": -77.0242675, "name": "d416e430143baa6cbb05f7836559f5d3", "bike_id": "d416e430143baa6cbb05f7836559f5d3", "fusion_lat": 0.0, "is_reserved": 0, "lat": 38.892180833333335, "fusion_lon": 0.0, "is_disabled": 0}, {"rental_uris": {"android": "https://dc.lft.to/lastmile_qr_scan", "ios": "https://dc.lft.to/lastmile_qr_scan"}, "type": "electric_scooter", "lon": -77.03639366666667, "name": "c9e0b0e6bf23e9435057a7219eb0c34c", "bike_id": "c9e0b0e6bf23e9435057a7219eb0c34c", "fusion_lat": 0.0, "is_reserved": 0, "lat": 38.9131795, "fusion_lon": 0.0, "is_disabled": 0}, {"rental_uris": {"android": "https://dc.lft.to/lastmile_qr_scan", "ios": "https://dc.lft.to/lastmile_qr_scan"}, "type": "electric_scooter", "lon": -76.987014, "name": "518366419536d7e3c23dbfee3d02fc5a", "bike_id": "518366419536d7e3c23dbfee3d02fc5a", "fusion_lat": 0.0, "is_reserved": 0, "lat": 38.902006166666666, "fusion_lon": 0.0, "is_disabled": 0}, {"rental_uris": {"android": "https://dc.lft.to/lastmile_qr_scan", "ios": "https://dc.lft.to/lastmile_qr_scan"}, "type": "electric_scooter", "lon": -76.98504183333333, "name": "c2e258b595aaef0bb93523d936e9d717", "bike_id": "c2e258b595aaef0bb93523d936e9d717", "fusion_lat": 0.0, "is_reserved": 0, "lat": 38.880878, "fusion_lon": 0.0, "is_disabled": 0}, {"rental_uris": {"android": "https://dc.lft.to/lastmile_qr_scan", "ios": "https://dc.lft.to/lastmile_qr_scan"}, "type": "electric_bike", "lon": -77.178035, "name": "307f265890222ff98e5cbcde31787c13", "bike_id": "307f265890222ff98e5cbcde31787c13", "fusion_lat": 0.0, "is_reserved": 0, "lat": 39.08844033333333, "fusion_lon": 0.0, "is_disabled": 0}, {"rental_uris": {"android": "https://dc.lft.to/lastmile_qr_scan", "ios": "https://dc.lft.to/lastmile_qr_scan"}, "type": "electric_scooter", "lon": -77.027315, "name": "8ff9c541757b0456eca5c5a3040b823b", "bike_id": "8ff9c541757b0456eca5c5a3040b823b", "fusion_lat": 0.0, "is_reserved": 0, "lat": 38.93398416666667, "fusion_lon": 0.0, "is_disabled": 0}, {"rental_uris": {"android": "https://dc.lft.to/lastmile_qr_scan", "ios": "https://dc.lft.to/lastmile_qr_scan"}, "type": "electric_scooter", "lon": -77.05624016666667, "name": "7d84785a61e5af0090bc0102542b8c7a", "bike_id": "7d84785a61e5af0090bc0102542b8c7a", "fusion_lat": 0.0, "is_reserved": 0, "lat": 38.924101, "fusion_lon": 0.0, "is_disabled": 0}, {"rental_uris": {"android": "https://dc.lft.to/lastmile_qr_scan", "ios": "https://dc.lft.to/lastmile_qr_scan"}, "type": "electric_scooter", "lon": -77.09197483333334, "name": "9efc13935314665f69852ca39ee1331c", "bike_id": "9efc13935314665f69852ca39ee1331c", "fusion_lat": 0.0, "is_reserved": 0, "lat": 38.917192166666666, "fusion_lon": 0.0, "is_disabled": 0}, {"rental_uris": {"android": "https://dc.lft.to/lastmile_qr_scan", "ios": "https://dc.lft.to/lastmile_qr_scan"}, "type": "electric_scooter", "lon": -77.02939166666667, "name": "ea4cf88b5b355127d353f062ed55e313", "bike_id": "ea4cf88b5b355127d353f062ed55e313", "fusion_lat": 0.0, "is_reserved": 0, "lat": 38.90488666666667, "fusion_lon": 0.0, "is_disabled": 0}, {"rental_uris": {"android": "https://dc.lft.to/lastmile_qr_scan", "ios": "https://dc.lft.to/lastmile_qr_scan"}, "type": "electric_scooter", "lon": -77.032857, "name": "a6f7ec5edf63514ec36434160cb6d1a2", "bike_id": "a6f7ec5edf63514ec36434160cb6d1a2", "fusion_lat": 0.0, "is_reserved": 0, "lat": 38.93985716666667, "fusion_lon": 0.0, "is_disabled": 0}, {"rental_uris": {"android": "https://dc.lft.to/lastmile_qr_scan", "ios": "https://dc.lft.to/lastmile_qr_scan"}, "type": "electric_scooter", "lon": -77.004499, "name": "afedf368e86c57ec0db729a2d1ec5be9", "bike_id": "afedf368e86c57ec0db729a2d1ec5be9", "fusion_lat": 0.0, "is_reserved": 0, "lat": 38.92895466666667, "fusion_lon": 0.0, "is_disabled": 0}, {"rental_uris": {"android": "https://dc.lft.to/lastmile_qr_scan", "ios": "https://dc.lft.to/lastmile_qr_scan"}, "type": "electric_scooter", "lon": -77.02236483333333, "name": "5662673563d0f7fbab66232a39287243", "bike_id": "5662673563d0f7fbab66232a39287243", "fusion_lat": 0.0, "is_reserved": 0, "lat": 38.913542666666665, "fusion_lon": 0.0, "is_disabled": 0}, {"rental_uris": {"android": "https://dc.lft.to/lastmile_qr_scan", "ios": "https://dc.lft.to/lastmile_qr_scan"}, "type": "electric_scooter", "lon": -77.04712183333334, "name": "d8907c9f675945f3d863c827d1802326", "bike_id": "d8907c9f675945f3d863c827d1802326", "fusion_lat": 0.0, "is_reserved": 0, "lat": 38.912550833333334, "fusion_lon": 0.0, "is_disabled": 0}, {"rental_uris": {"android": "https://dc.lft.to/lastmile_qr_scan", "ios": "https://dc.lft.to/lastmile_qr_scan"}, "type": "electric_scooter", "lon": -77.03292383333333, "name": "af94afe22d4b7791d7037a59f6362bca", "bike_id": "af94afe22d4b7791d7037a59f6362bca", "fusion_lat": 0.0, "is_reserved": 0, "lat": 38.95638916666667, "fusion_lon": 0.0, "is_disabled": 0}, {"rental_uris": {"android": "https://dc.lft.to/lastmile_qr_scan", "ios": "https://dc.lft.to/lastmile_qr_scan"}, "type": "electric_scooter", "lon": -77.03934316666667, "name": "23cab8b676cf464e1ab6021a5e807a2d", "bike_id": "23cab8b676cf464e1ab6021a5e807a2d", "fusion_lat": 0.0, "is_reserved": 0, "lat": 38.90427716666667, "fusion_lon": 0.0, "is_disabled": 0}, {"rental_uris": {"android": "https://dc.lft.to/lastmile_qr_scan", "ios": "https://dc.lft.to/lastmile_qr_scan"}, "type": "electric_scooter", "lon": -77.04660516666667, "name": "1afbbc02875c606f728b4c1c136bffa1", "bike_id": "1afbbc02875c606f728b4c1c136bffa1", "fusion_lat": 0.0, "is_reserved": 0, "lat": 38.905166333333334, "fusion_lon": 0.0, "is_disabled": 0}, {"rental_uris": {"android": "https://dc.lft.to/lastmile_qr_scan", "ios": "https://dc.lft.to/lastmile_qr_scan"}, "type": "electric_scooter", "lon": -77.03454516666666, "name": "2817d8061e3e8f4ddfc3b082cd254a51", "bike_id": "2817d8061e3e8f4ddfc3b082cd254a51", "fusion_lat": 0.0, "is_reserved": 0, "lat": 38.903186166666664, "fusion_lon": 0.0, "is_disabled": 0}, {"rental_uris": {"android": "https://dc.lft.to/lastmile_qr_scan", "ios": "https://dc.lft.to/lastmile_qr_scan"}, "type": "electric_scooter", "lon": -77.04989483333334, "name": "012629465e25b8ca7da857c243bd06b0", "bike_id": "012629465e25b8ca7da857c243bd06b0", "fusion_lat": 0.0, "is_reserved": 0, "lat": 38.9008055, "fusion_lon": 0.0, "is_disabled": 0}, {"rental_uris": {"android": "https://dc.lft.to/lastmile_qr_scan", "ios": "https://dc.lft.to/lastmile_qr_scan"}, "type": "electric_scooter", "lon": -77.032178, "name": "4e9f12678c27b8544dc61cf1c599982a", "bike_id": "4e9f12678c27b8544dc61cf1c599982a", "fusion_lat": 0.0, "is_reserved": 0, "lat": 38.92254416666667, "fusion_lon": 0.0, "is_disabled": 0}, {"rental_uris": {"android": "https://dc.lft.to/lastmile_qr_scan", "ios": "https://dc.lft.to/lastmile_qr_scan"}, "type": "electric_scooter", "lon": -77.009178, "name": "5622773a78121f630da3d8d7aa61f041", "bike_id": "5622773a78121f630da3d8d7aa61f041", "fusion_lat": 0.0, "is_reserved": 0, "lat": 38.895531166666665, "fusion_lon": 0.0, "is_disabled": 0}, {"rental_uris": {"android": "https://dc.lft.to/lastmile_qr_scan", "ios": "https://dc.lft.to/lastmile_qr_scan"}, "type": "electric_scooter", "lon": -77.03987616666667, "name": "019f34a8c6941dd648eb525d23eb3cfc", "bike_id": "019f34a8c6941dd648eb525d23eb3cfc", "fusion_lat": 0.0, "is_reserved": 0, "lat": 38.925825333333336, "fusion_lon": 0.0, "is_disabled": 0}, {"rental_uris": {"android": "https://dc.lft.to/lastmile_qr_scan", "ios": "https://dc.lft.to/lastmile_qr_scan"}, "type": "electric_scooter", "lon": -77.03209316666667, "name": "7f56a866f955718e81f9173367d6111d", "bike_id": "7f56a866f955718e81f9173367d6111d", "fusion_lat": 0.0, "is_reserved": 0, "lat": 38.90912, "fusion_lon": 0.0, "is_disabled": 0}, {"rental_uris": {"android": "https://dc.lft.to/lastmile_qr_scan", "ios": "https://dc.lft.to/lastmile_qr_scan"}, "type": "electric_scooter", "lon": -77.02286366666667, "name": "9b02f01fd5503f6ca6f62679e77c4692", "bike_id": "9b02f01fd5503f6ca6f62679e77c4692", "fusion_lat": 0.0, "is_reserved": 0, "lat": 38.917311166666664, "fusion_lon": 0.0, "is_disabled": 0}, {"rental_uris": {"android": "https://dc.lft.to/lastmile_qr_scan", "ios": "https://dc.lft.to/lastmile_qr_scan"}, "type": "electric_scooter", "lon": -77.0529765, "name": "881978d6f7198f880f4b7c3cfd574122", "bike_id": "881978d6f7198f880f4b7c3cfd574122", "fusion_lat": 0.0, "is_reserved": 0, "lat": 38.898804166666665, "fusion_lon": 0.0, "is_disabled": 0}, {"rental_uris": {"android": "https://dc.lft.to/lastmile_qr_scan", "ios": "https://dc.lft.to/lastmile_qr_scan"}, "type": "electric_scooter", "lon": -76.99405666666667, "name": "245a8be03c7d12e955a46a47e8fa378f", "bike_id": "245a8be03c7d12e955a46a47e8fa378f", "fusion_lat": 0.0, "is_reserved": 0, "lat": 38.87784933333333, "fusion_lon": 0.0, "is_disabled": 0}, {"rental_uris": {"android": "https://dc.lft.to/lastmile_qr_scan", "ios": "https://dc.lft.to/lastmile_qr_scan"}, "type": "electric_scooter", "lon": -76.98601666666667, "name": "132292d7dc798f93fb22a4dcee11e93c", "bike_id": "132292d7dc798f93fb22a4dcee11e93c", "fusion_lat": 0.0, "is_reserved": 0, "lat": 38.89921616666667, "fusion_lon": 0.0, "is_disabled": 0}, {"rental_uris": {"android": "https://dc.lft.to/lastmile_qr_scan", "ios": "https://dc.lft.to/lastmile_qr_scan"}, "type": "electric_scooter", "lon": -77.03896216666666, "name": "917fd7a13f5d7fc1fa21a698e2c7430d", "bike_id": "917fd7a13f5d7fc1fa21a698e2c7430d", "fusion_lat": 0.0, "is_reserved": 0, "lat": 38.93370133333333, "fusion_lon": 0.0, "is_disabled": 0}, {"rental_uris": {"android": "https://dc.lft.to/lastmile_qr_scan", "ios": "https://dc.lft.to/lastmile_qr_scan"}, "type": "electric_scooter", "lon": -77.02697716666667, "name": "766da5eb758b42c48859b6835945f368", "bike_id": "766da5eb758b42c48859b6835945f368", "fusion_lat": 0.0, "is_reserved": 0, "lat": 38.91821733333333, "fusion_lon": 0.0, "is_disabled": 0}, {"rental_uris": {"android": "https://dc.lft.to/lastmile_qr_scan", "ios": "https://dc.lft.to/lastmile_qr_scan"}, "type": "electric_scooter", "lon": -77.04504316666667, "name": "7bdbedf5988061fd10303548f13d9254", "bike_id": "7bdbedf5988061fd10303548f13d9254", "fusion_lat": 0.0, "is_reserved": 0, "lat": 38.903563, "fusion_lon": 0.0, "is_disabled": 0}, {"rental_uris": {"android": "https://dc.lft.to/lastmile_qr_scan", "ios": "https://dc.lft.to/lastmile_qr_scan"}, "type": "electric_bike", "lon": -76.98011016666666, "name": "1ee689825cad419b0abc0c8c7cb6a0ac", "bike_id": "1ee689825cad419b0abc0c8c7cb6a0ac", "fusion_lat": 0.0, "is_reserved": 0, "lat": 38.90245683333333, "fusion_lon": 0.0, "is_disabled": 0}, {"rental_uris": {"android": "https://dc.lft.to/lastmile_qr_scan", "ios": "https://dc.lft.to/lastmile_qr_scan"}, "type": "electric_bike", "lon": -76.99470533333333, "name": "b05bab3f2052e34f88ce155838fb6ec0", "bike_id": "b05bab3f2052e34f88ce155838fb6ec0", "fusion_lat": 0.0, "is_reserved": 0, "lat": 38.862632, "fusion_lon": 0.0, "is_disabled": 0}, {"rental_uris": {"android": "https://dc.lft.to/lastmile_qr_scan", "ios": "https://dc.lft.to/lastmile_qr_scan"}, "type": "electric_scooter", "lon": -77.02807483333333, "name": "39ff76b3c45e68a095f4240a371fac37", "bike_id": "39ff76b3c45e68a095f4240a371fac37", "fusion_lat": 0.0, "is_reserved": 0, "lat": 38.898414333333335, "fusion_lon": 0.0, "is_disabled": 0}, {"rental_uris": {"android": "https://dc.lft.to/lastmile_qr_scan", "ios": "https://dc.lft.to/lastmile_qr_scan"}, "type": "electric_scooter", "lon": -76.98778566666667, "name": "3daae3c58195cc210809042c12a80b58", "bike_id": "3daae3c58195cc210809042c12a80b58", "fusion_lat": 0.0, "is_reserved": 0, "lat": 38.90025416666667, "fusion_lon": 0.0, "is_disabled": 0}, {"rental_uris": {"android": "https://dc.lft.to/lastmile_qr_scan", "ios": "https://dc.lft.to/lastmile_qr_scan"}, "type": "electric_scooter", "lon": -76.987812, "name": "ebe24412348ffde459f9349822ce374e", "bike_id": "ebe24412348ffde459f9349822ce374e", "fusion_lat": 0.0, "is_reserved": 0, "lat": 38.9002035, "fusion_lon": 0.0, "is_disabled": 0}, {"rental_uris": {"android": "https://dc.lft.to/lastmile_qr_scan", "ios": "https://dc.lft.to/lastmile_qr_scan"}, "type": "electric_bike", "lon": -76.94876066666667, "name": "585fe29c988165bfc6357975c7be3107", "bike_id": "585fe29c988165bfc6357975c7be3107", "fusion_lat": 0.0, "is_reserved": 0, "lat": 38.88963566666666, "fusion_lon": 0.0, "is_disabled": 0}, {"rental_uris": {"android": "https://dc.lft.to/lastmile_qr_scan", "ios": "https://dc.lft.to/lastmile_qr_scan"}, "type": "electric_bike", "lon": -77.0517675, "name": "9211b20935c16e2e8a6025999aab716e", "bike_id": "9211b20935c16e2e8a6025999aab716e", "fusion_lat": 0.0, "is_reserved": 0, "lat": 38.90310266666667, "fusion_lon": 0.0, "is_disabled": 0}, {"rental_uris": {"android": "https://dc.lft.to/lastmile_qr_scan", "ios": "https://dc.lft.to/lastmile_qr_scan"}, "type": "electric_bike", "lon": -76.877777, "name": "a1bab682ae03c4639173704c9d999e3c", "bike_id": "a1bab682ae03c4639173704c9d999e3c", "fusion_lat": 0.0, "is_reserved": 0, "lat": 38.99227666666667, "fusion_lon": 0.0, "is_disabled": 0}, {"rental_uris": {"android": "https://dc.lft.to/lastmile_qr_scan", "ios": "https://dc.lft.to/lastmile_qr_scan"}, "type": "electric_scooter", "lon": -77.0378335, "name": "833dfd429d25e8acded62cf4a45c6362", "bike_id": "833dfd429d25e8acded62cf4a45c6362", "fusion_lat": 0.0, "is_reserved": 0, "lat": 38.926236, "fusion_lon": 0.0, "is_disabled": 0}, {"rental_uris": {"android": "https://dc.lft.to/lastmile_qr_scan", "ios": "https://dc.lft.to/lastmile_qr_scan"}, "type": "electric_scooter", "lon": -77.03281033333333, "name": "d6ce8461d1a12328ad3001ef4548f3b8", "bike_id": "d6ce8461d1a12328ad3001ef4548f3b8", "fusion_lat": 0.0, "is_reserved": 0, "lat": 38.89894233333333, "fusion_lon": 0.0, "is_disabled": 0}, {"rental_uris": {"android": "https://dc.lft.to/lastmile_qr_scan", "ios": "https://dc.lft.to/lastmile_qr_scan"}, "type": "electric_scooter", "lon": -77.03971766666666, "name": "b14225b30704721f38bdfab4fb5f0ec4", "bike_id": "b14225b30704721f38bdfab4fb5f0ec4", "fusion_lat": 0.0, "is_reserved": 0, "lat": 38.90136183333333, "fusion_lon": 0.0, "is_disabled": 0}, {"rental_uris": {"android": "https://dc.lft.to/lastmile_qr_scan", "ios": "https://dc.lft.to/lastmile_qr_scan"}, "type": "electric_scooter", "lon": -77.00334116666667, "name": "7f30b54c4b84de308a8c9f7f5dc7f783", "bike_id": "7f30b54c4b84de308a8c9f7f5dc7f783", "fusion_lat": 0.0, "is_reserved": 0, "lat": 38.89356633333333, "fusion_lon": 0.0, "is_disabled": 0}, {"rental_uris": {"android": "https://dc.lft.to/lastmile_qr_scan", "ios": "https://dc.lft.to/lastmile_qr_scan"}, "type": "electric_bike", "lon": -77.10722816666667, "name": "c3d4b4f65a5e792f9fa03d0f32e56286", "bike_id": "c3d4b4f65a5e792f9fa03d0f32e56286", "fusion_lat": 0.0, "is_reserved": 0, "lat": 38.85522183333333, "fusion_lon": 0.0, "is_disabled": 0}, {"rental_uris": {"android": "https://dc.lft.to/lastmile_qr_scan", "ios": "https://dc.lft.to/lastmile_qr_scan"}, "type": "electric_scooter", "lon": -77.03525166666667, "name": "e1addf3e067334ce1751c24ee254fb57", "bike_id": "e1addf3e067334ce1751c24ee254fb57", "fusion_lat": 0.0, "is_reserved": 0, "lat": 38.92350016666666, "fusion_lon": 0.0, "is_disabled": 0},