{"data": {"bikes": [{"is_disabled": 0, "is_reserved": 0, "fusion_lat": 0.0, "lat": 38.9463035, "fusion_lon": 0.0, "rental_uris": {"ios": "https://dc.lft.to/lastmile_qr_scan", "android": "https://dc.lft.to/lastmile_qr_scan"}, "lon": -77.018443, "bike_id": "288ee654dee5f422715305bd44fa8742", "type": "electric_scooter", "name": "288ee654dee5f422715305bd44fa8742"}, {"is_disabled": 0, "is_reserved": 0, "fusion_lat": 0.0, "lat": 38.9029385, "fusion_lon": 0.0, "rental_uris": {"ios": "https://dc.lft.to/lastmile_qr_scan", "android": "https://dc.lft.to/lastmile_qr_scan"}, "lon": -77.0122145, "bike_id": "01908a564404ef3cfc33e9dad8de44e7", "type": "electric_scooter", "name": "01908a564404ef3cfc33e9dad8de44e7"}, {"is_disabled": 0, "is_reserved": 0, "fusion_lat": 0.0, "lat": 38.842812333333335, "fusion_lon": 0.0, "rental_uris": {"ios": "https://dc.lft.to/lastmile_qr_scan", "android": "https://dc.lft.to/lastmile_qr_scan"}, "lon": -76.98837066666667, "bike_id": "ed58916d61f76bc12c1dfeefce2d51cd", "type": "electric_bike", "name": "ed58916d61f76bc12c1dfeefce2d51cd"}, {"is_disabled": 0, "is_reserved": 0, "fusion_lat": 0.0, "lat": 38.88568333333333, "fusion_lon": 0.0, "rental_uris": {"ios": "https://dc.lft.to/lastmile_qr_scan", "android": "https://dc.lft.to/lastmile_qr_scan"}, "lon": -77.01980916666666, "bike_id": "baf691a97bf58e1e2e77643c25cfa783", "type": "electric_scooter", "name": "baf691a97bf58e1e2e77643c25cfa783"}, {"is_disabled": 0, "is_reserved": 0, "fusion_lat": 0.0, "lat": 38.94591483333333, "fusion_lon": 0.0, "rental_uris": {"ios": "https://dc.lft.to/lastmile_qr_scan", "android": "https://dc.lft.to/lastmile_qr_scan"}, "lon": -77.02035983333333, "bike_id": "fa0bc7918c8e932eb9eb4e8a4ae10f91", "type": "electric_scooter", "name": "fa0bc7918c8e932eb9eb4e8a4ae10f91"}, {"is_disabled": 0, "is_reserved": 0, "fusion_lat": 0.0, "lat": 38.8068705, "fusion_lon": 0.0, "rental_uris": {"ios": "https://dc.lft.to/lastmile_qr_scan", "android": "https://dc.lft.to/lastmile_qr_scan"}, "lon": -77.0691395, "bike_id": "edddc9f25699fb76f680c03f1101d312", "type": "electric_bike", "name": "edddc9f25699fb76f680c03f1101d312"}, {"is_disabled": 0, "is_reserved": 0, "fusion_lat": 0.0, "lat": 38.923767166666664, "fusion_lon": 0.0, "rental_uris": {"ios": "https://dc.lft.to/lastmile_qr_scan", "android": "https://dc.lft.to/lastmile_qr_scan"}, "lon": -77.04022783333333, "bike_id": "d28670c0cf082413cddbb8b5afa2a6d9", "type": "electric_scooter", "name": "d28670c0cf082413cddbb8b5afa2a6d9"}, {"is_disabled": 0, "is_reserved": 0, "fusion_lat": 0.0, "lat": 38.9105045, "fusion_lon": 0.0, "rental_uris": {"ios": "https://dc.lft.to/lastmile_qr_scan", "android": "https://dc.lft.to/lastmile_qr_scan"}, "lon": -77.015099, "bike_id": "8522c10c0ac0d0639f9881470120e825", "type": "electric_scooter", "name": "8522c10c0ac0d0639f9881470120e825"}, {"is_disabled": 0, "is_reserved": 0, "fusion_lat": 0.0, "lat": 38.934291333333334, "fusion_lon": 0.0, "rental_uris": {"ios": "https://dc.lft.to/lastmile_qr_scan", "android": "https://dc.lft.to/lastmile_qr_scan"}, "lon": -77.04314566666666, "bike_id": "98990860df879d97e4cb88a37f40e61d", "type": "electric_scooter", "name": "98990860df879d97e4cb88a37f40e61d"}, {"is_disabled": 0, "is_reserved": 0, "fusion_lat": 0.0, "lat": 38.90962183333333, "fusion_lon": 0.0, "rental_uris": {"ios": "https://dc.lft.to/lastmile_qr_scan", "android": "https://dc.lft.to/lastmile_qr_scan"}, "lon": -77.04566316666667, "bike_id": "7ea061ec49b5f020cb4a684082b1ecb8", "type": "electric_scooter", "name": "7ea061ec49b5f020cb4a684082b1ecb8"}, {"is_disabled": 0, "is_reserved": 0, "fusion_lat": 0.0, "lat": 38.90627533333333, "fusion_lon": 0.0, "rental_uris": {"ios": "https://dc.lft.to/lastmile_qr_scan", "android": "https://dc.lft.to/lastmile_qr_scan"}, "lon": -77.04537683333334, "bike_id": "e316f2e9e88f99a352899d946adf193f", "type": "electric_scooter", "name": "e316f2e9e88f99a352899d946adf193f"}, {"is_disabled": 0, "is_reserved": 0, "fusion_lat": 0.0, "lat": 39.022954166666665, "fusion_lon": 0.0, "rental_uris": {"ios": "https://dc.lft.to/lastmile_qr_scan", "android": "https://dc.lft.to/lastmile_qr_scan"}, "lon": -77.02107016666666, "bike_id": "d538f4a6bf53a5f345a1bd8895d2993a", "type": "electric_bike", "name": "d538f4a6bf53a5f345a1bd8895d2993a"}, {"is_disabled": 0, "is_reserved": 0, "fusion_lat": 0.0, "lat": 38.910435166666666, "fusion_lon": 0.0, "rental_uris": {"ios": "https://dc.lft.to/lastmile_qr_scan", "android": "https://dc.lft.to/lastmile_qr_scan"}, "lon": -77.00957083333333, "bike_id": "423c206277a443506ebc050e14095631", "type": "electric_scooter", "name": "423c206277a443506ebc050e14095631"}, {"is_disabled": 0, "is_reserved": 0, "fusion_lat": 0.0, "lat": 38.92781316666667, "fusion_lon": 0.0, "rental_uris": {"ios": "https://dc.lft.to/lastmile_qr_scan", "android": "https://dc.lft.to/lastmile_qr_scan"}, "lon": -77.02964583333333, "bike_id": "838eac45cf7a7aac6488fc2b9307dcf8", "type": "electric_bike", "name": "838eac45cf7a7aac6488fc2b9307dcf8"}, {"is_disabled": 0, "is_reserved": 0, "fusion_lat": 0.0, "lat": 38.90579566666667, "fusion_lon": 0.0, "rental_uris": {"ios": "https://dc.lft.to/lastmile_qr_scan", "android": "https://dc.lft.to/lastmile_qr_scan"}, "lon": -76.98165083333333, "bike_id": "d75414225afbebd193d3dde882293475", "type": "electric_bike", "name": "d75414225afbebd193d3dde882293475"}, {"is_disabled": 0, "is_reserved": 0, "fusion_lat": 0.0, "lat": 38.898516666666666, "fusion_lon": 0.0, "rental_uris": {"ios": "https://dc.lft.to/lastmile_qr_scan", "android": "https://dc.lft.to/lastmile_qr_scan"}, "lon": -77.00198383333333, "bike_id": "449818f0b9a5976e3450bd45f4abed4c", "type": "electric_scooter", "name": "449818f0b9a5976e3450bd45f4abed4c"}, {"is_disabled": 0, "is_reserved": 0, "fusion_lat": 0.0, "lat": 38.917668166666665, "fusion_lon": 0.0, "rental_uris": {"ios": "https://dc.lft.to/lastmile_qr_scan", "android": "https://dc.lft.to/lastmile_qr_scan"}, "lon": -77.040596, "bike_id": "b64288a182bf9dad91dc6f9cdc6ca162", "type": "electric_scooter", "name": "b64288a182bf9dad91dc6f9cdc6ca162"}, {"is_disabled": 0, "is_reserved": 0, "fusion_lat": 0.0, "lat": 38.920584, "fusion_lon": 0.0, "rental_uris": {"ios": "https://dc.lft.to/lastmile_qr_scan", "android": "https://dc.lft.to/lastmile_qr_scan"}, "lon": -77.04541333333333, "bike_id": "31ac71e1b2dd23ea930e2b5f0e559631", "type": "electric_scooter", "name": "31ac71e1b2dd23ea930e2b5f0e559631"}, {"is_disabled": 0, "is_reserved": 0, "fusion_lat": 0.0, "lat": 38.9048445, "fusion_lon": 0.0, "rental_uris": {"ios": "https://dc.lft.to/lastmile_qr_scan", "android": "https://dc.lft.to/lastmile_qr_scan"}, "lon": -77.02579883333334, "bike_id": "e3ed6eee3b908238e8ebeaae1e00d871", "type": "electric_scooter", "name": "e3ed6eee3b908238e8ebeaae1e00d871"}, {"is_disabled": 0, "is_reserved": 0, "fusion_lat": 0.0, "lat": 38.846296333333335, "fusion_lon": 0.0, "rental_uris": {"ios": "https://dc.lft.to/lastmile_qr_scan", "android": "https://dc.lft.to/lastmile_qr_scan"}, "lon": -76.9689765, "bike_id": "342ef5b4d67abc4cf62044d5d5e54a09", "type": "electric_bike", "name": "342ef5b4d67abc4cf62044d5d5e54a09"}, {"is_disabled": 0, "is_reserved": 0, "fusion_lat": 0.0, "lat": 38.834912833333334, "fusion_lon": 0.0, "rental_uris": {"ios": "https://dc.lft.to/lastmile_qr_scan", "android": "https://dc.lft.to/lastmile_qr_scan"}, "lon": -77.00434883333334, "bike_id": "a201a389abd29658bf22bb91281af322", "type": "electric_bike", "name": "a201a389abd29658bf22bb91281af322"}, {"is_disabled": 0, "is_reserved": 0, "fusion_lat": 0.0, "lat": 38.9747435, "fusion_lon": 0.0, "rental_uris": {"ios": "https://dc.lft.to/lastmile_qr_scan", "android": "https://dc.lft.to/lastmile_qr_scan"}, "lon": -76.98674966666667, "bike_id": "b22e24cd998661cab33dce4e2ce20973", "type": "electric_bike", "name": "b22e24cd998661cab33dce4e2ce20973"}, {"is_disabled": 0, "is_reserved": 0, "fusion_lat": 0.0, "lat": 38.8735945, "fusion_lon": 0.0, "rental_uris": {"ios": "https://dc.lft.to/lastmile_qr_scan", "android": "https://dc.lft.to/lastmile_qr_scan"}, "lon": -77.11868716666666, "bike_id": "4fa66ccbc4e728851d1eb5e04776190b", "type": "electric_bike", "name": "4fa66ccbc4e728851d1eb5e04776190b"}, {"is_disabled": 0, "is_reserved": 0, "fusion_lat": 0.0, "lat": 38.908001166666665, "fusion_lon": 0.0, "rental_uris": {"ios": "https://dc.lft.to/lastmile_qr_scan", "android": "https://dc.lft.to/lastmile_qr_scan"}, "lon": -77.0060355, "bike_id": "3b902f42765ffee6e7e600b41f5791d3", "type": "electric_scooter", "name": "3b902f42765ffee6e7e600b41f5791d3"}, {"is_disabled": 0, "is_reserved": 0, "fusion_lat": 0.0, "lat": 38.9027645, "fusion_lon": 0.0, "rental_uris": {"ios": "https://dc.lft.to/lastmile_qr_scan", "android": "https://dc.lft.to/lastmile_qr_scan"}, "lon": -77.00889083333334, "bike_id": "4bb0fcab795ea70ac4c9edeb36e55349", "type": "electric_scooter", "name": "4bb0fcab795ea70ac4c9edeb36e55349"}, {"is_disabled": 0, "is_reserved": 0, "fusion_lat": 0.0, "lat": 38.902939833333335, "fusion_lon": 0.0, "rental_uris": {"ios": "https://dc.lft.to/lastmile_qr_scan", "android": "https://dc.lft.to/lastmile_qr_scan"}, "lon": -77.03966333333334, "bike_id": "a1b33e9420b8da96893a6be6fb3116c7", "type": "electric_scooter", "name": "a1b33e9420b8da96893a6be6fb3116c7"}, {"is_disabled": 0, "is_reserved": 0, "fusion_lat": 0.0, "lat": 38.923433333333335, "fusion_lon": 0.0, "rental_uris": {"ios": "https://dc.lft.to/lastmile_qr_scan", "android": "https://dc.lft.to/lastmile_qr_scan"}, "lon": -77.03524883333333, "bike_id": "a2d7fa4cadc390faa5f190ecaf86f9dc", "type": "electric_scooter", "name": "a2d7fa4cadc390faa5f190ecaf86f9dc"}, {"is_disabled": 0, "is_reserved": 0, "fusion_lat": 0.0, "lat": 38.90188966666667, "fusion_lon": 0.0, "rental_uris": {"ios": "https://dc.lft.to/lastmile_qr_scan", "android": "https://dc.lft.to/lastmile_qr_scan"}, "lon": -77.00213666666667, "bike_id": "e687968cfc1cc56384503ca522f0eebc", "type": "electric_scooter", "name": "e687968cfc1cc56384503ca522f0eebc"}, {"is_disabled": 0, "is_reserved": 0, "fusion_lat": 0.0, "lat": 38.888745166666666, "fusion_lon": 0.0, "rental_uris": {"ios": "https://dc.lft.to/lastmile_qr_scan", "android": "https://dc.lft.to/lastmile_qr_scan"}, "lon": -76.957019, "bike_id": "cd333a5a0c46b5fae614acde7df70acd", "type": "electric_bike", "name": "cd333a5a0c46b5fae614acde7df70acd"}, {"is_disabled": 0, "is_reserved": 0, "fusion_lat": 0.0, "lat": 38.879607, "fusion_lon": 0.0, "rental_uris": {"ios": "https://dc.lft.to/lastmile_qr_scan", "android": "https://dc.lft.to/lastmile_qr_scan"}, "lon": -76.93180283333334, "bike_id": "b7c5d81519fe807905246dcf735092a8", "type": "electric_bike", "name": "b7c5d81519fe807905246dcf735092a8"}, {"is_disabled": 0, "is_reserved": 0, "fusion_lat": 0.0, "lat": 38.88042983333333, "fusion_lon": 0.0, "rental_uris": {"ios": "https://dc.lft.to/lastmile_qr_scan", "android": "https://dc.lft.to/lastmile_qr_scan"}, "lon": -76.92729516666667, "bike_id": "049529f1d3f2a67d3069f0ceb476f295", "type": "electric_scooter", "name": "049529f1d3f2a67d3069f0ceb476f295"}, {"is_disabled": 0, "is_reserved": 0, "fusion_lat": 0.0, "lat": 38.876325666666666, "fusion_lon": 0.0, "rental_uris": {"ios": "https://dc.lft.to/lastmile_qr_scan", "android": "https://dc.lft.to/lastmile_qr_scan"}, "lon": -77.00952883333333, "bike_id": "33b67cad66d2cdf18cda29256e493c0f", "type": "electric_scooter", "name": "33b67cad66d2cdf18cda29256e493c0f"}, {"is_disabled": 0, "is_reserved": 0, "fusion_lat": 0.0, "lat": 38.87073516666667, "fusion_lon": 0.0, "rental_uris": {"ios": "https://dc.lft.to/lastmile_qr_scan", "android": "https://dc.lft.to/lastmile_qr_scan"}, "lon": -76.98130966666666, "bike_id": "cd0d70bbd579f551be8394c71916e75b", "type": "electric_scooter", "name": "cd0d70bbd579f551be8394c71916e75b"}, {"is_disabled": 0, "is_reserved": 0, "fusion_lat": 0.0, "lat": 38.90734, "fusion_lon": 0.0, "rental_uris": {"ios": "https://dc.lft.to/lastmile_qr_scan", "android": "https://dc.lft.to/lastmile_qr_scan"}, "lon": -77.0231615, "bike_id": "485ab9bc3794b4f5efc1476257a4f401", "type": "electric_scooter", "name": "485ab9bc3794b4f5efc1476257a4f401"}, {"is_disabled": 0, "is_reserved": 0, "fusion_lat": 0.0, "lat": 38.885177166666665, "fusion_lon": 0.0, "rental_uris": {"ios": "https://dc.lft.to/lastmile_qr_scan", "android": "https://dc.lft.to/lastmile_qr_scan"}, "lon": -77.02821233333333, "bike_id": "fef3314d55aa168e02c6fcb223dae9bb", "type": "electric_scooter", "name": "fef3314d55aa168e02c6fcb223dae9bb"}, {"is_disabled": 0, "is_reserved": 0, "fusion_lat": 0.0, "lat": 38.916056, "fusion_lon": 0.0, "rental_uris": {"ios": "https://dc.lft.to/lastmile_qr_scan", "android": "https://dc.lft.to/lastmile_qr_scan"}, "lon": -77.0384935, "bike_id": "e0a22008c6c486431e5c494fb6901ad5", "type": "electric_scooter", "name": "e0a22008c6c486431e5c494fb6901ad5"}, {"is_disabled": 0, "is_reserved": 0, "fusion_lat": 0.0, "lat": 38.930344833333336, "fusion_lon": 0.0, "rental_uris": {"ios": "https://dc.lft.to/lastmile_qr_scan", "android": "https://dc.lft.to/lastmile_qr_scan"}, "lon": -77.06076283333333, "bike_id": "2cb81f5092cd06bf03db9230e284147f", "type": "electric_scooter", "name": "2cb81f5092cd06bf03db9230e284147f"}, {"is_disabled": 0, "is_reserved": 0, "fusion_lat": 0.0, "lat": 38.8757925, "fusion_lon": 0.0, "rental_uris": {"ios": "https://dc.lft.to/lastmile_qr_scan", "android": "https://dc.lft.to/lastmile_qr_scan"}, "lon": -77.23412783333333, "bike_id": "980b8f093bd3f1cf1f09631e5d273d0f", "type": "electric_bike", "name": "980b8f093bd3f1cf1f09631e5d273d0f"}, {"is_disabled": 0, "is_reserved": 0, "fusion_lat": 0.0, "lat": 38.91439833333333, "fusion_lon": 0.0, "rental_uris": {"ios": "https://dc.lft.to/lastmile_qr_scan", "android": "https://dc.lft.to/lastmile_qr_scan"}, "lon": -77.02286266666667, "bike_id": "4ef6b4ba6e07e877e79da27a3985b1a0", "type": "electric_scooter", "name": "4ef6b4ba6e07e877e79da27a3985b1a0"}, {"is_disabled": 0, "is_reserved": 0, "fusion_lat": 0.0, "lat": 38.887138, "fusion_lon": 0.0, "rental_uris": {"ios": "https://dc.lft.to/lastmile_qr_scan", "android": "https://dc.lft.to/lastmile_qr_scan"}, "lon": -76.98381316666666, "bike_id": "2d61ead3c77f81bb31de850e5e6d2b02", "type": "electric_scooter", "name": "2d61ead3c77f81bb31de850e5e6d2b02"}, {"is_disabled": 0, "is_reserved": 0, "fusion_lat": 0.0, "lat": 38.920260166666665, "fusion_lon": 0.0, "rental_uris": {"ios": "https://dc.lft.to/lastmile_qr_scan", "android": "https://dc.lft.to/lastmile_qr_scan"}, "lon": -76.99983083333333, "bike_id": "be6aaa5f27f4e8a846c6c5a18ed01d64", "type": "electric_scooter", "name": "be6aaa5f27f4e8a846c6c5a18ed01d64"}, {"is_disabled": 0, "is_reserved": 0, "fusion_lat": 0.0, "lat": 38.95733333333333, "fusion_lon": 0.0, "rental_uris": {"ios": "https://dc.lft.to/lastmile_qr_scan", "android": "https://dc.lft.to/lastmile_qr_scan"}, "lon": -77.02423483333334, "bike_id": "29acd9108cc7b0003ef006f5fa215fec", "type": "electric_scooter", "name": "29acd9108cc7b0003ef006f5fa215fec"}, {"is_disabled": 0, "is_reserved": 0, "fusion_lat": 0.0, "lat": 38.92162583333333, "fusion_lon": 0.0, "rental_uris": {"ios": "https://dc.lft.to/lastmile_qr_scan", "android": "https://dc.lft.to/lastmile_qr_scan"}, "lon": -77.0181235, "bike_id": "d070b939c2700ccdf3547c1f7a767343", "type": "electric_scooter", "name": "d070b939c2700ccdf3547c1f7a767343"}, {"is_disabled": 0, "is_reserved": 0, "fusion_lat": 0.0, "lat": 38.8984595, "fusion_lon": 0.0, "rental_uris": {"ios": "https://dc.lft.to/lastmile_qr_scan", "android": "https://dc.lft.to/lastmile_qr_scan"}, "lon": -77.00190816666667, "bike_id": "5a37c67f526d1e3f5b165cd9befb807e", "type": "electric_scooter", "name": "5a37c67f526d1e3f5b165cd9befb807e"}, {"is_disabled": 0, "is_reserved": 0, "fusion_lat": 0.0, "lat": 38.93031933333333, "fusion_lon": 0.0, "rental_uris": {"ios": "https://dc.lft.to/lastmile_qr_scan", "android": "https://dc.lft.to/lastmile_qr_scan"}, "lon": -77.029638, "bike_id": "5663cdf53ad1754ba6d9f7c018d2068b", "type": "electric_scooter", "name": "5663cdf53ad1754ba6d9f7c018d2068b"}, {"is_disabled": 0, "is_reserved": 0, "fusion_lat": 0.0, "lat": 38.92548716666667, "fusion_lon": 0.0, "rental_uris": {"ios": "https://dc.lft.to/lastmile_qr_scan", "android": "https://dc.lft.to/lastmile_qr_scan"}, "lon": -76.99608833333333, "bike_id": "d044d3f19ae89ca12a5480c716bd69fd", "type": "electric_scooter", "name": "d044d3f19ae89ca12a5480c716bd69fd"}, {"is_disabled": 0, "is_reserved": 0, "fusion_lat": 0.0, "lat": 38.9140415, "fusion_lon": 0.0, "rental_uris": {"ios": "https://dc.lft.to/lastmile_qr_scan", "android": "https://dc.lft.to/lastmile_qr_scan"}, "lon": -77.0308745, "bike_id": "1584b5a51d621e7e15525764c2413cf4", "type": "electric_scooter", "name": "1584b5a51d621e7e15525764c2413cf4"}, {"is_disabled": 0, "is_reserved": 0, "fusion_lat": 0.0, "lat": 38.96018616666667, "fusion_lon": 0.0, "rental_uris": {"ios": "https://dc.lft.to/lastmile_qr_scan", "android": "https://dc.lft.to/lastmile_qr_scan"}, "lon": -77.02821716666666, "bike_id": "1da942e27b238a937cd25bcb4225e7e1", "type": "electric_scooter", "name": "1da942e27b238a937cd25bcb4225e7e1"}, {"is_disabled": 0, "is_reserved": 0, "fusion_lat": 0.0, "lat": 38.903689166666666, "fusion_lon": 0.0, "rental_uris": {"ios": "https://dc.lft.to/lastmile_qr_scan", "android": "https://dc.lft.to/lastmile_qr_scan"}, "lon": -77.01769333333333, "bike_id": "0a937b65990038b71df589d0437fe38e", "type": "electric_scooter", "name": "0a937b65990038b71df589d0437fe38e"}, {"is_disabled": 0, "is_reserved": 0, "fusion_lat": 0.0, "lat": 38.915534, "fusion_lon": 0.0, "rental_uris": {"ios": "https://dc.lft.to/lastmile_qr_scan", "android": "https://dc.lft.to/lastmile_qr_scan"}, "lon": -77.03832983333334, "bike_id": "fe4603481f2b7808d0e1651bae3f6893", "type": "electric_scooter", "name": "fe4603481f2b7808d0e1651bae3f6893"}, {"is_disabled": 0, "is_reserved": 0, "fusion_lat": 0.0, "lat": 38.892085, "fusion_lon": 0.0, "rental_uris": {"ios": "https://dc.lft.to/lastmile_qr_scan", "android": "https://dc.lft.to/lastmile_qr_scan"}, "lon": -76.92920916666667, "bike_id": "15d6bf4baa8fab0b88a7696114a1ca46", "type": "electric_scooter", "name": "15d6bf4baa8fab0b88a7696114a1ca46"}, {"is_disabled": 0, "is_reserved": 0, "fusion_lat": 0.0, "lat": 38.8939995, "fusion_lon": 0.0, "rental_uris": {"ios": "https://dc.lft.to/lastmile_qr_scan", "android": "https://dc.lft.to/lastmile_qr_scan"}, "lon": -77.02372616666666, "bike_id": "868687bda6d464b26e35844ab36b3229", "type": "electric_scooter", "name": "868687bda6d464b26e35844ab36b3229"}, {"is_disabled": 0, "is_reserved": 0, "fusion_lat": 0.0, "lat": 38.8992985, "fusion_lon": 0.0, "rental_uris": {"ios": "https://dc.lft.to/lastmile_qr_scan", "android": "https://dc.lft.to/lastmile_qr_scan"}, "lon": -77.00163916666666, "bike_id": "0a6ed82ed43bf641dbb7dae7b5ed8f08", "type": "electric_bike", "name": "0a6ed82ed43bf641dbb7dae7b5ed8f08"}, {"is_disabled": 0, "is_reserved": 0, "fusion_lat": 0.0, "lat": 38.91669016666667, "fusion_lon": 0.0, "rental_uris": {"ios": "https://dc.lft.to/lastmile_qr_scan", "android": "https://dc.lft.to/lastmile_qr_scan"}, "lon": -77.00051283333333, "bike_id": "ca4603e1dc465431f2dcaafc422e07c8", "type": "electric_scooter", "name": "ca4603e1dc465431f2dcaafc422e07c8"}, {"is_disabled": 0, "is_reserved": 0, "fusion_lat": 0.0, "lat": 38.922359166666666, "fusion_lon": 0.0, "rental_uris": {"ios": "https://dc.lft.to/lastmile_qr_scan", "android": "https://dc.lft.to/lastmile_qr_scan"}, "lon": -77.02299716666667, "bike_id": "6d135d8a14c4ff5aaf7838d6cae49078", "type": "electric_scooter", "name": "6d135d8a14c4ff5aaf7838d6cae49078"}, {"is_disabled": 0, "is_reserved": 0, "fusion_lat": 0.0, "lat": 38.909254, "fusion_lon": 0.0, "rental_uris": {"ios": "https://dc.lft.to/lastmile_qr_scan", "android": "https://dc.lft.to/lastmile_qr_scan"}, "lon": -77.04572766666666, "bike_id": "cea8a53e110c245582b1733ea8d8bd69", "type": "electric_scooter", "name": "cea8a53e110c245582b1733ea8d8bd69"}, {"is_disabled": 0, "is_reserved": 0, "fusion_lat": 0.0, "lat": 38.91272266666667, "fusion_lon": 0.0, "rental_uris": {"ios": "https://dc.lft.to/lastmile_qr_scan", "android": "https://dc.lft.to/lastmile_qr_scan"}, "lon": -77.04662883333333, "bike_id": "3b9d0f33c19aa9234d85aacab3d59aaa", "type": "electric_scooter", "name": "3b9d0f33c19aa9234d85aacab3d59aaa"}, {"is_disabled": 0, "is_reserved": 0, "fusion_lat": 0.0, "lat": 38.9985125, "fusion_lon": 0.0, "rental_uris": {"ios": "https://dc.lft.to/lastmile_qr_scan", "android": "https://dc.lft.to/lastmile_qr_scan"}, "lon": -77.00248116666667, "bike_id": "6d3e8da700db8b7b6c8411754bfed6f9", "type": "electric_bike", "name": "6d3e8da700db8b7b6c8411754bfed6f9"}, {"is_disabled": 0, "is_reserved": 0, "fusion_lat": 0.0, "lat": 38.89473016666667, "fusion_lon": 0.0, "rental_uris": {"ios": "https://dc.lft.to/lastmile_qr_scan", "android": "https://dc.lft.to/lastmile_qr_scan"}, "lon": -77.00267883333333, "bike_id": "a581dfe501fd2f730dc1e45bf906007a", "type": "electric_scooter", "name": "a581dfe501fd2f730dc1e45bf906007a"}, {"is_disabled": 0, "is_reserved": 0, "fusion_lat": 0.0, "lat": 38.87566433333333, "fusion_lon": 0.0, "rental_uris": {"ios": "https://dc.lft.to/lastmile_qr_scan", "android": "https://dc.lft.to/lastmile_qr_scan"}, "lon": -77.047077, "bike_id": "2c4e823a5bc75f6940c8ad3ea0777631", "type": "electric_bike", "name": "2c4e823a5bc75f6940c8ad3ea0777631"}, {"is_disabled": 0, "is_reserved": 0, "fusion_lat": 0.0, "lat": 38.9075515, "fusion_lon": 0.0, "rental_uris": {"ios": "https://dc.lft.to/lastmile_qr_scan", "android": "https://dc.lft.to/lastmile_qr_scan"}, "lon": -77.00035916666667, "bike_id": "cc43c77dc48f45aece86648ede112487", "type": "electric_scooter", "name": "cc43c77dc48f45aece86648ede112487"}, {"is_disabled": 0, "is_reserved": 0, "fusion_lat": 0.0, "lat": 38.90890683333333, "fusion_lon": 0.0, "rental_uris": {"ios": "https://dc.lft.to/lastmile_qr_scan", "android": "https://dc.lft.to/lastmile_qr_scan"}, "lon": -77.046681, "bike_id": "eca8394b1ffb1156c24ee3a956dbac45", "type": "electric_scooter", "name": "eca8394b1ffb1156c24ee3a956dbac45"}, {"is_disabled": 0, "is_reserved": 0, "fusion_lat": 0.0, "lat": 39.04236983333333, "fusion_lon": 0.0, "rental_uris": {"ios": "https://dc.lft.to/lastmile_qr_scan", "android": "https://dc.lft.to/lastmile_qr_scan"}, "lon": -76.99737533333334, "bike_id": "aa61b9be39b85eed930330969814f936", "type": "electric_bike", "name": "aa61b9be39b85eed930330969814f936"}, {"is_disabled": 0, "is_reserved": 0, "fusion_lat": 0.0, "lat": 38.923511, "fusion_lon": 0.0, "rental_uris": {"ios": "https://dc.lft.to/lastmile_qr_scan", "android": "https://dc.lft.to/lastmile_qr_scan"}, "lon": -77.02446216666667, "bike_id": "ab0ce1274c34d54dda06e2aabc03597d", "type": "electric_scooter", "name": "ab0ce1274c34d54dda06e2aabc03597d"}, {"is_disabled": 0, "is_reserved": 0, "fusion_lat": 0.0, "lat": 38.9182105, "fusion_lon": 0.0, "rental_uris": {"ios": "https://dc.lft.to/lastmile_qr_scan", "android": "https://dc.lft.to/lastmile_qr_scan"}, "lon": -77.01210583333334, "bike_id": "f5b924a3ad4f5d42f2bee27b576107ed", "type": "electric_scooter", "name": "f5b924a3ad4f5d42f2bee27b576107ed"}, {"is_disabled": 0, "is_reserved": 0, "fusion_lat": 0.0, "lat": 38.88467933333333, "fusion_lon": 0.0, "rental_uris": {"ios": "https://dc.lft.to/lastmile_qr_scan", "android": "https://dc.lft.to/lastmile_qr_scan"}, "lon": -77.02985816666667, "bike_id": "57dbecca671898d01858af757f926f5a", "type": "electric_scooter", "name": "57dbecca671898d01858af757f926f5a"}, {"is_disabled": 0, "is_reserved": 0, "fusion_lat": 0.0, "lat": 38.9290815, "fusion_lon": 0.0, "rental_uris": {"ios": "https://dc.lft.to/lastmile_qr_scan", "android": "https://dc.lft.to/lastmile_qr_scan"}, "lon": -77.059845, "bike_id": "e80c6ac2015fa320a03dcc882a8a272c", "type": "electric_scooter", "name": "e80c6ac2015fa320a03dcc882a8a272c"}, {"is_disabled": 0, "is_reserved": 0, "fusion_lat": 0.0, "lat": 38.907161, "fusion_lon": 0.0, "rental_uris": {"ios": "https://dc.lft.to/lastmile_qr_scan", "android": "https://dc.lft.to/lastmile_qr_scan"}, "lon": -77.02558783333333, "bike_id": "1d3807885b5bd7aede8b9616e9182278", "type": "electric_scooter", "name": "1d3807885b5bd7aede8b9616e9182278"}, {"is_disabled": 0, "is_reserved": 0, "fusion_lat": 0.0, "lat": 38.953622, "fusion_lon": 0.0, "rental_uris": {"ios": "https://dc.lft.to/lastmile_qr_scan", "android": "https://dc.lft.to/lastmile_qr_scan"}, "lon": -76.99844583333334, "bike_id": "799e134a60eb3a27ece4e05e8c1490f1", "type": "electric_scooter", "name": "799e134a60eb3a27ece4e05e8c1490f1"}, {"is_disabled": 0, "is_reserved": 0, "fusion_lat": 0.0, "lat": 38.885812333333334, "fusion_lon": 0.0, "rental_uris": {"ios": "https://dc.lft.to/lastmile_qr_scan", "android": "https://dc.lft.to/lastmile_qr_scan"}, "lon": -77.01223, "bike_id": "6a730b306e63d260ac067d16f0c18d6c", "type": "electric_scooter", "name": "6a730b306e63d260ac067d16f0c18d6c"}, {"is_disabled": 0, "is_reserved": 0, "fusion_lat": 0.0, "lat": 38.934589, "fusion_lon": 0.0, "rental_uris": {"ios": "https://dc.lft.to/lastmile_qr_scan", "android": "https://dc.lft.to/lastmile_qr_scan"}, "lon": -77.0240755, "bike_id": "196bc4ba0c5b87adbf053fcccc7e80eb", "type": "electric_scooter", "name": "196bc4ba0c5b87adbf053fcccc7e80eb"}, {"is_disabled": 0, "is_reserved": 0, "fusion_lat": 0.0, "lat": 38.92081133333333, "fusion_lon": 0.0, "rental_uris": {"ios": "https://dc.lft.to/lastmile_qr_scan", "android": "https://dc.lft.to/lastmile_qr_scan"}, "lon": -77.004534, "bike_id": "b456f764f3f96dea3dfd916d905d5091", "type": "electric_scooter", "name": "b456f764f3f96dea3dfd916d905d5091"}, {"is_disabled": 0, "is_reserved": 0, "fusion_lat": 0.0, "lat": 38.931963833333334, "fusion_lon": 0.0, "rental_uris": {"ios": "https://dc.lft.to/lastmile_qr_scan", "android": "https://dc.lft.to/lastmile_qr_scan"}, "lon": -77.02451366666666, "bike_id": "754ffed21a09368fa75f1df3dda837d8", "type": "electric_scooter", "name": "754ffed21a09368fa75f1df3dda837d8"}, {"is_disabled": 0, "is_reserved": 0, "fusion_lat": 0.0, "lat": 38.9460615, "fusion_lon": 0.0, "rental_uris": {"ios": "https://dc.lft.to/lastmile_qr_scan", "android": "https://dc.lft.to/lastmile_qr_scan"}, "lon": -77.01736083333333, "bike_id": "63c33c692ab02819473fa0087d0a94e1", "type": "electric_bike", "name": "63c33c692ab02819473fa0087d0a94e1"}, {"is_disabled": 0, "is_reserved": 0, "fusion_lat": 0.0, "lat": 38.90849383333333, "fusion_lon": 0.0, "rental_uris": {"ios": "https://dc.lft.to/lastmile_qr_scan", "android": "https://dc.lft.to/lastmile_qr_scan"}, "lon": -77.0206485, "bike_id": "cfdf96bf221e41b5b6699d461f268d6f", "type": "electric_scooter", "name": "cfdf96bf221e41b5b6699d461f268d6f"}, {"is_disabled": 0, "is_reserved": 0, "fusion_lat": 0.0, "lat": 38.921117833333334, "fusion_lon": 0.0, "rental_uris": {"ios": "https://dc.lft.to/lastmile_qr_scan", "android": "https://dc.lft.to/lastmile_qr_scan"}, "lon": -77.03640116666666, "bike_id": "15c64f2498b8be1f23d02c0de84422e8", "type": "electric_scooter", "name": "15c64f2498b8be1f23d02c0de84422e8"}, {"is_disabled": 0, "is_reserved": 0, "fusion_lat": 0.0, "lat": 38.95309916666667, "fusion_lon": 0.0, "rental_uris": {"ios": "https://dc.lft.to/lastmile_qr_scan", "android": "https://dc.lft.to/lastmile_qr_scan"}, "lon": -77.02020133333333, "bike_id": "b6ad59bcc3913fd66fbe578da83f1ed5", "type": "electric_scooter", "name": "b6ad59bcc3913fd66fbe578da83f1ed5"}, {"is_disabled": 0, "is_reserved": 0, "fusion_lat": 0.0, "lat": 38.936996666666666, "fusion_lon": 0.0, "rental_uris": {"ios": "https://dc.lft.to/lastmile_qr_scan", "android": "https://dc.lft.to/lastmile_qr_scan"}, "lon": -77.05598866666666, "bike_id": "32c594cacd25118a80c1217b48d74167", "type": "electric_scooter", "name": "32c594cacd25118a80c1217b48d74167"}, {"is_disabled": 0, "is_reserved": 0, "fusion_lat": 0.0, "lat": 38.9041125, "fusion_lon": 0.0, "rental_uris": {"ios": "https://dc.lft.to/lastmile_qr_scan", "android": "https://dc.lft.to/lastmile_qr_scan"}, "lon": -77.01876133333333, "bike_id": "788e9c315364e0af9051b54771c73973", "type": "electric_scooter", "name": "788e9c315364e0af9051b54771c73973"}, {"is_disabled": 0, "is_reserved": 0, "fusion_lat": 0.0, "lat": 38.91639633333333, "fusion_lon": 0.0, "rental_uris": {"ios": "https://dc.lft.to/lastmile_qr_scan", "android": "https://dc.lft.to/lastmile_qr_scan"}, "lon": -77.02386333333334, "bike_id": "a4c7ad1460b44250460134610228f804", "type": "electric_scooter", "name": "a4c7ad1460b44250460134610228f804"}, {"is_disabled": 0, "is_reserved": 0, "fusion_lat": 0.0, "lat": 38.92225416666667, "fusion_lon": 0.0, "rental_uris": {"ios": "https://dc.lft.to/lastmile_qr_scan", "android": "https://dc.lft.to/lastmile_qr_scan"}, "lon": -77.03297833333333, "bike_id": "4d67a788ec81eeba7af736bb8563dd89", "type": "electric_scooter", "name": "4d67a788ec81eeba7af736bb8563dd89"}, {"is_disabled": 0, "is_reserved": 0, "fusion_lat": 0.0, "lat": 38.904756666666664, "fusion_lon": 0.0, "rental_uris": {"ios": "https://dc.lft.to/lastmile_qr_scan", "android": "https://dc.lft.to/lastmile_qr_scan"}, "lon": -76.95043166666666, "bike_id": "93121b28534e491223d695de04acea42", "type": "electric_scooter", "name": "93121b28534e491223d695de04acea42"}, {"is_disabled": 0, "is_reserved": 0, "fusion_lat": 0.0, "lat": 38.85525633333334, "fusion_lon": 0.0, "rental_uris": {"ios": "https://dc.lft.to/lastmile_qr_scan", "android": "https://dc.lft.to/lastmile_qr_scan"}, "lon": -76.9915325, "bike_id": "9237577a88aaeeffcb6dfb461cc63810", "type": "electric_scooter", "name": "9237577a88aaeeffcb6dfb461cc63810"}, {"is_disabled": 0, "is_reserved": 0, "fusion_lat": 0.0, "lat": 38.8970245, "fusion_lon": 0.0, "rental_uris": {"ios": "https://dc.lft.to/lastmile_qr_scan", "android": "https://dc.lft.to/lastmile_qr_scan"}, "lon": -77.04873516666666, "bike_id": "7c7a2d839898219bd309c0588ab3de5d", "type": "electric_scooter", "name": "7c7a2d839898219bd309c0588ab3de5d"}, {"is_disabled": 0, "is_reserved": 0, "fusion_lat": 0.0, "lat": 38.9242895, "fusion_lon": 0.0, "rental_uris": {"ios": "https://dc.lft.to/lastmile_qr_scan", "android": "https://dc.lft.to/lastmile_qr_scan"}, "lon": -77.02982083333333, "bike_id": "f008ad6fa1aec33102f800988f8e5fb6", "type": "electric_scooter", "name": "f008ad6fa1aec33102f800988f8e5fb6"}, {"is_disabled": 0, "is_reserved": 0, "fusion_lat": 0.0, "lat": 38.9092, "fusion_lon": 0.0, "rental_uris": {"ios": "https://dc.lft.to/lastmile_qr_scan", "android": "https://dc.lft.to/lastmile_qr_scan"}, "lon": -77.0494295, "bike_id": "6b9a92420450e9a9012f213380e75be9", "type": "electric_scooter", "name": "6b9a92420450e9a9012f213380e75be9"}, {"is_disabled": 0, "is_reserved": 0, "fusion_lat": 0.0, "lat": 38.91030383333333, "fusion_lon": 0.0, "rental_uris": {"ios": "https://dc.lft.to/lastmile_qr_scan", "android": "https://dc.lft.to/lastmile_qr_scan"}, "lon": -76.92334066666666, "bike_id": "b9e3abb1d9e96e0cf624115e9c9e3f21", "type": "electric_bike", "name": "b9e3abb1d9e96e0cf624115e9c9e3f21"}, {"is_disabled": 0, "is_reserved": 0, "fusion_lat": 0.0, "lat": 38.92504, "fusion_lon": 0.0, "rental_uris": {"ios": "https://dc.lft.to/lastmile_qr_scan", "android": "https://dc.lft.to/lastmile_qr_scan"}, "lon": -77.023583, "bike_id": "fd0b3ec5769eac7bef4d035c83f9f9e8", "type": "electric_scooter", "name": "fd0b3ec5769eac7bef4d035c83f9f9e8"}, {"is_disabled": 0, "is_reserved": 0, "fusion_lat": 0.0, "lat": 38.91353183333333, "fusion_lon": 0.0, "rental_uris": {"ios": "https://dc.lft.to/lastmile_qr_scan", "android": "https://dc.lft.to/lastmile_qr_scan"}, "lon": -76.97136983333333, "bike_id": "29765eaf2f8b8fe8249c45d0f51a79ca", "type": "electric_scooter", "name": "29765eaf2f8b8fe8249c45d0f51a79ca"}, {"is_disabled": 0, "is_reserved": 0, "fusion_lat": 0.0, "lat": 38.89918266666667, "fusion_lon": 0.0, "rental_uris": {"ios": "https://dc.lft.to/lastmile_qr_scan", "android": "https://dc.lft.to/lastmile_qr_scan"}, "lon": -77.014796, "bike_id": "565c6eaf06c4c023c91d70f9ba1ed0f1", "type": "electric_scooter", "name": "565c6eaf06c4c023c91d70f9ba1ed0f1"}, {"is_disabled": 0, "is_reserved": 0, "fusion_lat": 0.0, "lat": 38.9299055, "fusion_lon": 0.0, "rental_uris": {"ios": "https://dc.lft.to/lastmile_qr_scan", "android": "https://dc.lft.to/lastmile_qr_scan"}, "lon": -77.0388715, "bike_id": "ad54022238c7d6df5d7f9861269e8ec3", "type": "electric_scooter", "name": "ad54022238c7d6df5d7f9861269e8ec3"}, {"is_disabled": 0, "is_reserved": 0, "fusion_lat": 0.0, "lat": 38.89980533333333, "fusion_lon": 0.0, "rental_uris": {"ios": "https://dc.lft.to/lastmile_qr_scan", "android": "https://dc.lft.to/lastmile_qr_scan"}, "lon": -77.006564, "bike_id": "6039958b23deeec9c02931c913f68b0a", "type": "electric_scooter", "name": "6039958b23deeec9c02931c913f68b0a"}, {"is_disabled": 0, "is_reserved": 0, "fusion_lat": 0.0, "lat": 38.93258466666666, "fusion_lon": 0.0, "rental_uris": {"ios": "https://dc.lft.to/lastmile_qr_scan", "android": "https://dc.lft.to/lastmile_qr_scan"}, "lon": -77.02937016666667, "bike_id": "21940f4543c99ed8d197ad631f73a050", "type": "electric_scooter", "name": "21940f4543c99ed8d197ad631f73a050"}, {"is_disabled": 0, "is_reserved": 0, "fusion_lat": 0.0, "lat": 38.878428666666665, "fusion_lon": 0.0, "rental_uris": {"ios": "https://dc.lft.to/lastmile_qr_scan", "android": "https://dc.lft.to/lastmile_qr_scan"}, "lon": -76.93114116666666, "bike_id": "a3ead4ca05cfdd681643914115ea5ed1", "type": "electric_scooter", "name": "a3ead4ca05cfdd681643914115ea5ed1"}, {"is_disabled": 0, "is_reserved": 0, "fusion_lat": 0.0, "lat": 38.912645833333336, "fusion_lon": 0.0, "rental_uris": {"ios": "https://dc.lft.to/lastmile_qr_scan", "android": "https://dc.lft.to/lastmile_qr_scan"}, "lon": -77.00504333333333, "bike_id": "f0a0475df3e2bddc61acfbec456828a0", "type": "electric_scooter", "name": "f0a0475df3e2bddc61acfbec456828a0"}, {"is_disabled": 0, "is_reserved": 0, "fusion_lat": 0.0, "lat": 38.88305483333333, "fusion_lon": 0.0, "rental_uris": {"ios": "https://dc.lft.to/lastmile_qr_scan", "android": "https://dc.lft.to/lastmile_qr_scan"}, "lon": -77.0255705, "bike_id": "388ff233f5e2e46cf12393d46b02a1c8", "type": "electric_scooter", "name": "388ff233f5e2e46cf12393d46b02a1c8"}, {"is_disabled": 0, "is_reserved": 0, "fusion_lat": 0.0, "lat": 39.01065933333334, "fusion_lon": 0.0, "rental_uris": {"ios": "https://dc.lft.to/lastmile_qr_scan", "android": "https://dc.lft.to/lastmile_qr_scan"}, "lon": -76.92245583333333, "bike_id": "a74723b7e9d201e43446f11c6f278d33", "type": "electric_bike", "name": "a74723b7e9d201e43446f11c6f278d33"}, {"is_disabled": 0, "is_reserved": 0, "fusion_lat": 0.0, "lat": 38.923207833333336, "fusion_lon": 0.0, "rental_uris": {"ios": "https://dc.lft.to/lastmile_qr_scan", "android": "https://dc.lft.to/lastmile_qr_scan"}, "lon": -77.0391575, "bike_id": "4fa637d7d7226b6a2d12ec6ef22fb5f3", "type": "electric_scooter", "name": "4fa637d7d7226b6a2d12ec6ef22fb5f3"}, {"is_disabled": 0, "is_reserved": 0, "fusion_lat": 0.0, "lat": 38.917694833333336, "fusion_lon": 0.0, "rental_uris": {"ios": "https://dc.lft.to/lastmile_qr_scan", "android": "https://dc.lft.to/lastmile_qr_scan"}, "lon": -77.031996, "bike_id": "875e1648138858e9feabae6a4459cdfd", "type": "electric_scooter", "name": "875e1648138858e9feabae6a4459cdfd"}, {"is_disabled": 0, "is_reserved": 0, "fusion_lat": 0.0, "lat": 38.882715166666664, "fusion_lon": 0.0, "rental_uris": {"ios": "https://dc.lft.to/lastmile_qr_scan", "android": "https://dc.lft.to/lastmile_qr_scan"}, "lon": -77.00649416666667, "bike_id": "10779a119c3bfb4ed88aa3188aa397c3", "type": "electric_scooter", "name": "10779a119c3bfb4ed88aa3188aa397c3"}, {"is_disabled": 0, "is_reserved": 0, "fusion_lat": 0.0, "lat": 38.90151083333333, "fusion_lon": 0.0, "rental_uris": {"ios": "https://dc.lft.to/lastmile_qr_scan", "android": "https://dc.lft.to/lastmile_qr_scan"}, "lon": -76.98564966666666, "bike_id": "2e95ad8879b45da30a404329f3f33913", "type": "electric_scooter", "name": "2e95ad8879b45da30a404329f3f33913"}, {"is_disabled": 0, "is_reserved": 0, "fusion_lat": 0.0, "lat": 38.98146933333334, "fusion_lon": 0.0, "rental_uris": {"ios": "https://dc.lft.to/lastmile_qr_scan", "android": "https://dc.lft.to/lastmile_qr_scan"}, "lon": -77.00776316666666, "bike_id": "52e5347411205c24ef1b76b9206e7e72", "type": "electric_bike", "name": "52e5347411205c24ef1b76b9206e7e72"}, {"is_disabled": 0, "is_reserved": 0, "fusion_lat": 0.0, "lat": 38.9173395, "fusion_lon": 0.0, "rental_uris": {"ios": "https://dc.lft.to/lastmile_qr_scan", "android": "https://dc.lft.to/lastmile_qr_scan"}, "lon": -77.0261055, "bike_id": "e9ad21f42a97c5690597c41f4452d8e9", "type": "electric_scooter", "name": "e9ad21f42a97c5690597c41f4452d8e9"}, {"is_disabled": 0, "is_reserved": 0, "fusion_lat": 0.0, "lat": 38.900755, "fusion_lon": 0.0, "rental_uris": {"ios": "https://dc.lft.to/lastmile_qr_scan", "android": "https://dc.lft.to/lastmile_qr_scan"}, "lon": -77.0507165, "bike_id": "6542c683be0e69bec2ffe0e50970f997", "type": "electric_scooter", "name": "6542c683be0e69bec2ffe0e50970f997"}, {"is_disabled": 0, "is_reserved": 0, "fusion_lat": 0.0, "lat": 38.876688, "fusion_lon": 0.0, "rental_uris": {"ios": "https://dc.lft.to/lastmile_qr_scan", "android": "https://dc.lft.to/lastmile_qr_scan"}, "lon": -77.0157625, "bike_id": "f3617c180e2af63ee9d965b3f0ef8a3f", "type": "electric_scooter", "name": "f3617c180e2af63ee9d965b3f0ef8a3f"}, {"is_disabled": 0, "is_reserved": 0, "fusion_lat": 0.0, "lat": 38.91268766666666, "fusion_lon": 0.0, "rental_uris": {"ios": "https://dc.lft.to/lastmile_qr_scan", "android": "https://dc.lft.to/lastmile_qr_scan"}, "lon": -77.04713333333333, "bike_id": "d1509bb5ce67d18087b880306e59b272", "type": "electric_scooter", "name": "d1509bb5ce67d18087b880306e59b272"}, {"is_disabled": 0, "is_reserved": 0, "fusion_lat": 0.0, "lat": 38.896046, "fusion_lon": 0.0, "rental_uris": {"ios": "https://dc.lft.to/lastmile_qr_scan", "android": "https://dc.lft.to/lastmile_qr_scan"}, "lon": -76.98311916666667, "bike_id": "088306465bb14d72ddd8ac4879541d63", "type": "electric_scooter", "name": "088306465bb14d72ddd8ac4879541d63"}, {"is_disabled": 0, "is_reserved": 0, "fusion_lat": 0.0, "lat": 38.8688805, "fusion_lon": 0.0, "rental_uris": {"ios": "https://dc.lft.to/lastmile_qr_scan", "android": "https://dc.lft.to/lastmile_qr_scan"}, "lon": -76.9900225, "bike_id": "f23c6dfc48d060a76d297e5dc1ee6846", "type": "electric_scooter", "name": "f23c6dfc48d060a76d297e5dc1ee6846"}, {"is_disabled": 0, "is_reserved": 0, "fusion_lat": 0.0, "lat": 38.923121, "fusion_lon": 0.0, "rental_uris": {"ios": "https://dc.lft.to/lastmile_qr_scan", "android": "https://dc.lft.to/lastmile_qr_scan"}, "lon": -77.03803616666667, "bike_id": "9cc4abf035c7647a8a510ec6db166a68", "type": "electric_scooter", "name": "9cc4abf035c7647a8a510ec6db166a68"}, {"is_disabled": 0, "is_reserved": 0, "fusion_lat": 0.0, "lat": 38.911748333333335, "fusion_lon": 0.0, "rental_uris": {"ios": "https://dc.lft.to/lastmile_qr_scan", "android": "https://dc.lft.to/lastmile_qr_scan"}, "lon": -77.00452583333333, "bike_id": "87e249f204e9bba491d67d0defcea777", "type": "electric_scooter", "name": "87e249f204e9bba491d67d0defcea777"}, {"is_disabled": 0, "is_reserved": 0, "fusion_lat": 0.0, "lat": 38.9036005, "fusion_lon": 0.0, "rental_uris": {"ios": "https://dc.lft.to/lastmile_qr_scan", "android": "https://dc.lft.to/lastmile_qr_scan"}, "lon": -77.003444, "bike_id": "bd014a82c2c48b2bf6170c61746c54f3", "type": "electric_scooter", "name": "bd014a82c2c48b2bf6170c61746c54f3"}, {"is_disabled": 0, "is_reserved": 0, "fusion_lat": 0.0, "lat": 38.9178305, "fusion_lon": 0.0, "rental_uris": {"ios": "https://dc.lft.to/lastmile_qr_scan", "android": "https://dc.lft.to/lastmile_qr_scan"}, "lon": -77.03448866666666, "bike_id": "f8bd5fe64d46adde4701b9092c653d10", "type": "electric_scooter", "name": "f8bd5fe64d46adde4701b9092c653d10"}, {"is_disabled": 0, "is_reserved": 0, "fusion_lat": 0.0, "lat": 38.933987333333334, "fusion_lon": 0.0, "rental_uris": {"ios": "https://dc.lft.to/lastmile_qr_scan", "android": "https://dc.lft.to/lastmile_qr_scan"}, "lon": -77.03517916666667, "bike_id": "a5de8b6fc697895524bd105dff70ce02", "type": "electric_scooter", "name": "a5de8b6fc697895524bd105dff70ce02"}, {"is_disabled": 0, "is_reserved": 0, "fusion_lat": 0.0, "lat": 38.918362, "fusion_lon": 0.0, "rental_uris": {"ios": "https://dc.lft.to/lastmile_qr_scan", "android": "https://dc.lft.to/lastmile_qr_scan"}, "lon": -77.02300383333333, "bike_id": "37d0b68b8a36846c2d1620639a024ace", "type": "electric_scooter", "name": "37d0b68b8a36846c2d1620639a024ace"}, {"is_disabled": 0, "is_reserved": 0, "fusion_lat": 0.0, "lat": 38.90554916666667, "fusion_lon": 0.0, "rental_uris": {"ios": "https://dc.lft.to/lastmile_qr_scan", "android": "https://dc.lft.to/lastmile_qr_scan"}, "lon": -77.025996, "bike_id": "f2c74db1d6e8782ae361406fc0c7e635", "type": "electric_scooter", "name": "f2c74db1d6e8782ae361406fc0c7e635"}, {"is_disabled": 0, "is_reserved": 0, "fusion_lat": 0.0, "lat": 38.90068316666667, "fusion_lon": 0.0, "rental_uris": {"ios": "https://dc.lft.to/lastmile_qr_scan", "android": "https://dc.lft.to/lastmile_qr_scan"}, "lon": -77.05010416666667, "bike_id": "ea336ec054a952786b807e9f2a3576b9", "type": "electric_scooter", "name": "ea336ec054a952786b807e9f2a3576b9"}, {"is_disabled": 0, "is_reserved": 0, "fusion_lat": 0.0, "lat": 38.93395866666667, "fusion_lon": 0.0, "rental_uris": {"ios": "https://dc.lft.to/lastmile_qr_scan", "android": "https://dc.lft.to/lastmile_qr_scan"}, "lon": -77.02614266666667, "bike_id": "72c772f20d17369375affedb9e5a0ffa", "type": "electric_scooter", "name": "72c772f20d17369375affedb9e5a0ffa"}, {"is_disabled": 0, "is_reserved": 0, "fusion_lat": 0.0, "lat": 38.896696166666665, "fusion_lon": 0.0, "rental_uris": {"ios": "https://dc.lft.to/lastmile_qr_scan", "android": "https://dc.lft.to/lastmile_qr_scan"}, "lon": -76.9490715, "bike_id": "5ae36d01aa81331060678e13df6a4a71", "type": "electric_scooter", "name": "5ae36d01aa81331060678e13df6a4a71"}, {"is_disabled": 0, "is_reserved": 0, "fusion_lat": 0.0, "lat": 38.90357233333334, "fusion_lon": 0.0, "rental_uris": {"ios": "https://dc.lft.to/lastmile_qr_scan", "android": "https://dc.lft.to/lastmile_qr_scan"}, "lon": -77.01677466666666, "bike_id": "fa1517fff28387e0529fa683446d3d11", "type": "electric_scooter", "name": "fa1517fff28387e0529fa683446d3d11"}, {"is_disabled": 0, "is_reserved": 0, "fusion_lat": 0.0, "lat": 38.846743833333335, "fusion_lon": 0.0, "rental_uris": {"ios": "https://dc.lft.to/lastmile_qr_scan", "android": "https://dc.lft.to/lastmile_qr_scan"}, "lon": -77.13936383333333, "bike_id": "298b57e7f2532eb19c3a13158f2b38c1", "type": "electric_bike", "name": "298b57e7f2532eb19c3a13158f2b38c1"}, {"is_disabled": 0, "is_reserved": 0, "fusion_lat": 0.0, "lat": 38.91610083333333, "fusion_lon": 0.0, "rental_uris": {"ios": "https://dc.lft.to/lastmile_qr_scan", "android": "https://dc.lft.to/lastmile_qr_scan"}, "lon": -77.04343883333334, "bike_id": "a2d22043c1e7986034443838f0cde8f8", "type": "electric_scooter", "name": "a2d22043c1e7986034443838f0cde8f8"}, {"is_disabled": 0, "is_reserved": 0, "fusion_lat": 0.0, "lat": 38.9208485, "fusion_lon": 0.0, "rental_uris": {"ios": "https://dc.lft.to/lastmile_qr_scan", "android": "https://dc.lft.to/lastmile_qr_scan"}, "lon": -77.04113066666666, "bike_id": "7d413ecaa1d647eb9c022cb931d0285f", "type": "electric_scooter", "name": "7d413ecaa1d647eb9c022cb931d0285f"}, {"is_disabled": 0, "is_reserved": 0, "fusion_lat": 0.0, "lat": 38.91710033333333, "fusion_lon": 0.0, "rental_uris": {"ios": "https://dc.lft.to/lastmile_qr_scan", "android": "https://dc.lft.to/lastmile_qr_scan"}, "lon": -77.038686, "bike_id": "7eb5c712630a012e5209abe3e9b6bb71", "type": "electric_scooter", "name": "7eb5c712630a012e5209abe3e9b6bb71"}, {"is_disabled": 0, "is_reserved": 0, "fusion_lat": 0.0, "lat": 38.87930816666667, "fusion_lon": 0.0, "rental_uris": {"ios": "https://dc.lft.to/lastmile_qr_scan", "android": "https://dc.lft.to/lastmile_qr_scan"}, "lon": -77.00523633333333, "bike_id": "f4bed3257c85c33c2632629805c2adc8", "type": "electric_scooter", "name": "f4bed3257c85c33c2632629805c2adc8"}, {"is_disabled": 0, "is_reserved": 0, "fusion_lat": 0.0, "lat": 38.915566, "fusion_lon": 0.0, "rental_uris": {"ios": "https://dc.lft.to/lastmile_qr_scan", "android": "https://dc.lft.to/lastmile_qr_scan"}, "lon": -77.05102633333334, "bike_id": "84c7d1de9b7d1683dc693cd7f406b075", "type": "electric_scooter", "name": "84c7d1de9b7d1683dc693cd7f406b075"}, {"is_disabled": 0, "is_reserved": 0, "fusion_lat": 0.0, "lat": 38.94920316666666, "fusion_lon": 0.0, "rental_uris": {"ios": "https://dc.lft.to/lastmile_qr_scan", "android": "https://dc.lft.to/lastmile_qr_scan"}, "lon": -77.023179, "bike_id": "d5a11908a4e7d2bd574118101cf33dbb", "type": "electric_scooter", "name": "d5a11908a4e7d2bd574118101cf33dbb"}, {"is_disabled": 0, "is_reserved": 0, "fusion_lat": 0.0, "lat": 38.9375, "fusion_lon": 0.0, "rental_uris": {"ios": "https://dc.lft.to/lastmile_qr_scan", "android": "https://dc.lft.to/lastmile_qr_scan"}, "lon": -77.03430416666667, "bike_id": "3ffa04de109f4b5024137554cbce0322", "type": "electric_scooter", "name": "3ffa04de109f4b5024137554cbce0322"}, {"is_disabled": 0, "is_reserved": 0, "fusion_lat": 0.0, "lat": 38.902656666666665, "fusion_lon": 0.0, "rental_uris": {"ios": "https://dc.lft.to/lastmile_qr_scan", "android": "https://dc.lft.to/lastmile_qr_scan"}, "lon": -77.03919183333333, "bike_id": "50ee73a68850a686622585c58265c994", "type": "electric_scooter", "name": "50ee73a68850a686622585c58265c994"}, {"is_disabled": 0, "is_reserved": 0, "fusion_lat": 0.0, "lat": 38.83417566666667, "fusion_lon": 0.0, "rental_uris": {"ios": "https://dc.lft.to/lastmile_qr_scan", "android": "https://dc.lft.to/lastmile_qr_scan"}, "lon": -77.05001583333333, "bike_id": "5b86dccf57e74dfa5ad2d717d4e56d51", "type": "electric_bike", "name": "5b86dccf57e74dfa5ad2d717d4e56d51"}, {"is_disabled": 0, "is_reserved": 0, "fusion_lat": 0.0, "lat": 38.8987515, "fusion_lon": 0.0, "rental_uris": {"ios": "https://dc.lft.to/lastmile_qr_scan", "android": "https://dc.lft.to/lastmile_qr_scan"}, "lon": -76.93141316666667, "bike_id": "ecdf6bd28678a463ad674632af779cfc", "type": "electric_scooter", "name": "ecdf6bd28678a463ad674632af779cfc"}, {"is_disabled": 0, "is_reserved": 0, "fusion_lat": 0.0, "lat": 38.90518616666667, "fusion_lon": 0.0, "rental_uris": {"ios": "https://dc.lft.to/lastmile_qr_scan", "android": "https://dc.lft.to/lastmile_qr_scan"}, "lon": -77.0499255, "bike_id": "a6a4986fb380784e3d8c7b301f93e5de", "type": "electric_scooter", "name": "a6a4986fb380784e3d8c7b301f93e5de"}, {"is_disabled": 0, "is_reserved": 0, "fusion_lat": 0.0, "lat": 38.9307805, "fusion_lon": 0.0, "rental_uris": {"ios": "https://dc.lft.to/lastmile_qr_scan", "android": "https://dc.lft.to/lastmile_qr_scan"}, "lon": -77.02337083333333, "bike_id": "0b38e1259ff6751cd198d3cc4204a5e5", "type": "electric_scooter", "name": "0b38e1259ff6751cd198d3cc4204a5e5"}, {"is_disabled": 0, "is_reserved": 0, "fusion_lat": 0.0, "lat": 38.885405666666664, "fusion_lon": 0.0, "rental_uris": {"ios": "https://dc.lft.to/lastmile_qr_scan", "android": "https://dc.lft.to/lastmile_qr_scan"}, "lon": -76.97889766666667, "bike_id": "ce93a6e9c5277bc05c2558c40c0035ad", "type": "electric_scooter", "name": "ce93a6e9c5277bc05c2558c40c0035ad"}, {"is_disabled": 0, "is_reserved": 0, "fusion_lat": 0.0, "lat": 38.892271, "fusion_lon": 0.0, "rental_uris": {"ios": "https://dc.lft.to/lastmile_qr_scan", "android": "https://dc.lft.to/lastmile_qr_scan"}, "lon": -77.03324966666666, "bike_id": "40483995ee72b5a69fdabcd3d592b0cd", "type": "electric_bike", "name": "40483995ee72b5a69fdabcd3d592b0cd"}, {"is_disabled": 0, "is_reserved": 0, "fusion_lat": 0.0, "lat": 38.964296, "fusion_lon": 0.0, "rental_uris": {"ios": "https://dc.lft.to/lastmile_qr_scan", "android": "https://dc.lft.to/lastmile_qr_scan"}, "lon": -77.07424783333333, "bike_id": "467e1b720676d81eba6c5f97d91af095", "type": "electric_scooter", "name": "467e1b720676d81eba6c5f97d91af095"}, {"is_disabled": 0, "is_reserved": 0, "fusion_lat": 0.0, "lat": 38.857136833333335, "fusion_lon": 0.0, "rental_uris": {"ios": "https://dc.lft.to/lastmile_qr_scan", "android": "https://dc.lft.to/lastmile_qr_scan"}, "lon": -76.98094433333333, "bike_id": "51c0ede71eba0876b25cd99b0010d433", "type": "electric_scooter", "name": "51c0ede71eba0876b25cd99b0010d433"}, {"is_disabled": 0, "is_reserved": 0, "fusion_lat": 0.0, "lat": 38.89674933333333, "fusion_lon": 0.0, "rental_uris": {"ios": "https://dc.lft.to/lastmile_qr_scan", "android": "https://dc.lft.to/lastmile_qr_scan"}, "lon": -77.05465533333333, "bike_id": "ad4e5f7175c7d5bfd038da5efe12eab2", "type": "electric_scooter", "name": "ad4e5f7175c7d5bfd038da5efe12eab2"}, {"is_disabled": 0, "is_reserved": 0, "fusion_lat": 0.0, "lat": 38.896037166666666, "fusion_lon": 0.0, "rental_uris": {"ios": "https://dc.lft.to/lastmile_qr_scan", "android": "https://dc.lft.to/lastmile_qr_scan"}, "lon": -77.00340766666666, "bike_id": "669c06d0ae6f940a27cb9e4ecef13f9d", "type": "electric_scooter", "name": "669c06d0ae6f940a27cb9e4ecef13f9d"}, {"is_disabled": 0, "is_reserved": 0, "fusion_lat": 0.0, "lat": 38.94261183333333, "fusion_lon": 0.0, "rental_uris": {"ios": "https://dc.lft.to/lastmile_qr_scan", "android": "https://dc.lft.to/lastmile_qr_scan"}, "lon": -76.98451916666667, "bike_id": "49c7e37bc7fbaa998e2fc76474faaabe", "type": "electric_scooter", "name": "49c7e37bc7fbaa998e2fc76474faaabe"}, {"is_disabled": 0, "is_reserved": 0, "fusion_lat": 0.0, "lat": 38.88355333333333, "fusion_lon": 0.0, "rental_uris": {"ios": "https://dc.lft.to/lastmile_qr_scan", "android": "https://dc.lft.to/lastmile_qr_scan"}, "lon": -76.95766533333334, "bike_id": "8bb0d458d5888c898aa3119392c9a620", "type": "electric_scooter", "name": "8bb0d458d5888c898aa3119392c9a620"}, {"is_disabled": 0, "is_reserved": 0, "fusion_lat": 0.0, "lat": 38.896567166666664, "fusion_lon": 0.0, "rental_uris": {"ios": "https://dc.lft.to/lastmile_qr_scan", "android": "https://dc.lft.to/lastmile_qr_scan"}, "lon": -77.05108566666667, "bike_id": "5c6fa1c93360a9db0e60fc41b7287ec2", "type": "electric_scooter", "name": "5c6fa1c93360a9db0e60fc41b7287ec2"}, {"is_disabled": 0, "is_reserved": 0, "fusion_lat": 0.0, "lat": 38.88622083333333, "fusion_lon": 0.0, "rental_uris": {"ios": "https://dc.lft.to/lastmile_qr_scan", "android": "https://dc.lft.to/lastmile_qr_scan"}, "lon": -76.9902365, "bike_id": "8a1565e137416b35bb2ac2668dc54640", "type": "electric_bike", "name": "8a1565e137416b35bb2ac2668dc54640"}, {"is_disabled": 0, "is_reserved": 0, "fusion_lat": 0.0, "lat": 38.906931166666666, "fusion_lon": 0.0, "rental_uris": {"ios": "https://dc.lft.to/lastmile_qr_scan", "android": "https://dc.lft.to/lastmile_qr_scan"}, "lon": -76.95252083333334, "bike_id": "f193d720c3eccb1553a563c1677504a3", "type": "electric_bike", "name": "f193d720c3eccb1553a563c1677504a3"}, {"is_disabled": 0, "is_reserved": 0, "fusion_lat": 0.0, "lat": 38.947138333333335, "fusion_lon": 0.0, "rental_uris": {"ios": "https://dc.lft.to/lastmile_qr_scan", "android": "https://dc.lft.to/lastmile_qr_scan"}, "lon": -77.06802133333333, "bike_id": "01eb75e47846053ee6868f12561a2f49", "type": "electric_scooter", "name": "01eb75e47846053ee6868f12561a2f49"}, {"is_disabled": 0, "is_reserved": 0, "fusion_lat": 0.0, "lat": 38.89232116666667, "fusion_lon": 0.0, "rental_uris": {"ios": "https://dc.lft.to/lastmile_qr_scan", "android": "https://dc.lft.to/lastmile_qr_scan"}, "lon": -77.05001783333333, "bike_id": "e5ad5ad68d542c989457eec8002b675f", "type": "electric_scooter", "name": "e5ad5ad68d542c989457eec8002b675f"}, {"is_disabled": 0, "is_reserved": 0, "fusion_lat": 0.0, "lat": 38.92571616666667, "fusion_lon": 0.0, "rental_uris": {"ios": "https://dc.lft.to/lastmile_qr_scan", "android": "https://dc.lft.to/lastmile_qr_scan"}, "lon": -77.03134283333333, "bike_id": "c101791e0bd39e0ff62b072afe17c530", "type": "electric_scooter", "name": "c101791e0bd39e0ff62b072afe17c530"}, {"is_disabled": 0, "is_reserved": 0, "fusion_lat": 0.0, "lat": 38.94334533333333, "fusion_lon": 0.0, "rental_uris": {"ios": "https://dc.lft.to/lastmile_qr_scan", "android": "https://dc.lft.to/lastmile_qr_scan"}, "lon": -77.01550533333334, "bike_id": "c72fa7f6939c8a67f6105b94acb30cee", "type": "electric_scooter", "name": "c72fa7f6939c8a67f6105b94acb30cee"}, {"is_disabled": 0, "is_reserved": 0, "fusion_lat": 0.0, "lat": 38.883004, "fusion_lon": 0.0, "rental_uris": {"ios": "https://dc.lft.to/lastmile_qr_scan", "android": "https://dc.lft.to/lastmile_qr_scan"}, "lon": -76.93486566666667, "bike_id": "337c7634f8c88e8fe9961f3f03652d5c", "type": "electric_scooter", "name": "337c7634f8c88e8fe9961f3f03652d5c"}, {"is_disabled": 0, "is_reserved": 0, "fusion_lat": 0.0, "lat": 38.89229483333333, "fusion_lon": 0.0, "rental_uris": {"ios": "https://dc.lft.to/lastmile_qr_scan", "android": "https://dc.lft.to/lastmile_qr_scan"}, "lon": -77.03238033333334, "bike_id": "2fefdea0a86e4a1b284fffd4317da776", "type": "electric_scooter", "name": "2fefdea0a86e4a1b284fffd4317da776"}, {"is_disabled": 0, "is_reserved": 0, "fusion_lat": 0.0, "lat": 38.842773333333334, "fusion_lon": 0.0, "rental_uris": {"ios": "https://dc.lft.to/lastmile_qr_scan", "android": "https://dc.lft.to/lastmile_qr_scan"}, "lon": -76.98846333333333, "bike_id": "e73066b5d5219d4024dfc7050a21da2e", "type": "electric_scooter", "name": "e73066b5d5219d4024dfc7050a21da2e"}, {"is_disabled": 0, "is_reserved": 0, "fusion_lat": 0.0, "lat": 38.91994416666667, "fusion_lon": 0.0, "rental_uris": {"ios": "https://dc.lft.to/lastmile_qr_scan", "android": "https://dc.lft.to/lastmile_qr_scan"}, "lon": -77.03221133333334, "bike_id": "8cf00a2e50a5bbc655800b882eea4598", "type": "electric_scooter", "name": "8cf00a2e50a5bbc655800b882eea4598"}, {"is_disabled": 0, "is_reserved": 0, "fusion_lat": 0.0, "lat": 38.906912166666665, "fusion_lon": 0.0, "rental_uris": {"ios": "https://dc.lft.to/lastmile_qr_scan", "android": "https://dc.lft.to/lastmile_qr_scan"}, "lon": -77.0628785, "bike_id": "a57593bfec5300b087db02eb8b97c900", "type": "electric_scooter", "name": "a57593bfec5300b087db02eb8b97c900"}, {"is_disabled": 0, "is_reserved": 0, "fusion_lat": 0.0, "lat": 38.89670066666667, "fusion_lon": 0.0, "rental_uris": {"ios": "https://dc.lft.to/lastmile_qr_scan", "android": "https://dc.lft.to/lastmile_qr_scan"}, "lon": -77.048769, "bike_id": "797d23aa3cf823eaefe880fb64d5433e", "type": "electric_scooter", "name": "797d23aa3cf823eaefe880fb64d5433e"}, {"is_disabled": 0, "is_reserved": 0, "fusion_lat": 0.0, "lat": 38.9063795, "fusion_lon": 0.0, "rental_uris": {"ios": "https://dc.lft.to/lastmile_qr_scan", "android": "https://dc.lft.to/lastmile_qr_scan"}, "lon": -77.04558116666666, "bike_id": "f33d863b167b1d42107dc7155a2eb4a1", "type": "electric_scooter", "name": "f33d863b167b1d42107dc7155a2eb4a1"}, {"is_disabled": 0, "is_reserved": 0, "fusion_lat": 0.0, "lat": 39.006456166666666, "fusion_lon": 0.0, "rental_uris": {"ios": "https://dc.lft.to/lastmile_qr_scan", "android": "https://dc.lft.to/lastmile_qr_scan"}, "lon": -76.90021683333333, "bike_id": "d9dd7591d095431fbf43363178ceaae4", "type": "electric_bike", "name": "d9dd7591d095431fbf43363178ceaae4"}, {"is_disabled": 0, "is_reserved": 0, "fusion_lat": 0.0, "lat": 38.9015285, "fusion_lon": 0.0, "rental_uris": {"ios": "https://dc.lft.to/lastmile_qr_scan", "android": "https://dc.lft.to/lastmile_qr_scan"}, "lon": -76.9298835, "bike_id": "ac69cf61d281bb98099080d040b59671", "type": "electric_scooter", "name": "ac69cf61d281bb98099080d040b59671"}, {"is_disabled": 0, "is_reserved": 0, "fusion_lat": 0.0, "lat": 38.852476833333334, "fusion_lon": 0.0, "rental_uris": {"ios": "https://dc.lft.to/lastmile_qr_scan", "android": "https://dc.lft.to/lastmile_qr_scan"}, "lon": -77.11410633333334, "bike_id": "467243dd7c630102a9713ea9a81a396f", "type": "electric_bike", "name": "467243dd7c630102a9713ea9a81a396f"}, {"is_disabled": 0, "is_reserved": 0, "fusion_lat": 0.0, "lat": 38.91414816666666, "fusion_lon": 0.0, "rental_uris": {"ios": "https://dc.lft.to/lastmile_qr_scan", "android": "https://dc.lft.to/lastmile_qr_scan"}, "lon": -77.02423233333333, "bike_id": "7fe4ca924cd0fcc2e4b87e43f395c30e", "type": "electric_scooter", "name": "7fe4ca924cd0fcc2e4b87e43f395c30e"}, {"is_disabled": 0, "is_reserved": 0, "fusion_lat": 0.0, "lat": 38.894879833333334, "fusion_lon": 0.0, "rental_uris": {"ios": "https://dc.lft.to/lastmile_qr_scan", "android": "https://dc.lft.to/lastmile_qr_scan"}, "lon": -77.0226825, "bike_id": "997ad937dd956a95ae3e8a512835f73f", "type": "electric_scooter", "name": "997ad937dd956a95ae3e8a512835f73f"}, {"is_disabled": 0, "is_reserved": 0, "fusion_lat": 0.0, "lat": 38.91542966666667, "fusion_lon": 0.0, "rental_uris": {"ios": "https://dc.lft.to/lastmile_qr_scan", "android": "https://dc.lft.to/lastmile_qr_scan"}, "lon": -77.03846216666666, "bike_id": "4b2721a78813795dd63f0abb5811db25", "type": "electric_scooter", "name": "4b2721a78813795dd63f0abb5811db25"}, {"is_disabled": 0, "is_reserved": 0, "fusion_lat": 0.0, "lat": 38.91050033333333, "fusion_lon": 0.0, "rental_uris": {"ios": "https://dc.lft.to/lastmile_qr_scan", "android": "https://dc.lft.to/lastmile_qr_scan"}, "lon": -76.99802016666666, "bike_id": "c421133d820ac19d5ccffbd5951f2dbc", "type": "electric_scooter", "name": "c421133d820ac19d5ccffbd5951f2dbc"}, {"is_disabled": 0, "is_reserved": 0, "fusion_lat": 0.0, "lat": 38.92312033333333, "fusion_lon": 0.0, "rental_uris": {"ios": "https://dc.lft.to/lastmile_qr_scan", "android": "https://dc.lft.to/lastmile_qr_scan"}, "lon": -77.029025, "bike_id": "9c79a82ccf8ae5dc69965e4840269eb6", "type": "electric_scooter", "name": "9c79a82ccf8ae5dc69965e4840269eb6"}, {"is_disabled": 0, "is_reserved": 0, "fusion_lat": 0.0, "lat": 38.952179, "fusion_lon": 0.0, "rental_uris": {"ios": "https://dc.lft.to/lastmile_qr_scan", "android": "https://dc.lft.to/lastmile_qr_scan"}, "lon": -77.08861483333334, "bike_id": "8493b568a7c4b915915f40338391d833", "type": "electric_scooter", "name": "8493b568a7c4b915915f40338391d833"}, {"is_disabled": 0, "is_reserved": 0, "fusion_lat": 0.0, "lat": 38.925349833333335, "fusion_lon": 0.0, "rental_uris": {"ios": "https://dc.lft.to/lastmile_qr_scan", "android": "https://dc.lft.to/lastmile_qr_scan"}, "lon": -77.0255845, "bike_id": "af624536756ca451765ab9d1ebb62511", "type": "electric_scooter", "name": "af624536756ca451765ab9d1ebb62511"}, {"is_disabled": 0, "is_reserved": 0, "fusion_lat": 0.0, "lat": 38.89819583333333, "fusion_lon": 0.0, "rental_uris": {"ios": "https://dc.lft.to/lastmile_qr_scan", "android": "https://dc.lft.to/lastmile_qr_scan"}, "lon": -76.93004366666666, "bike_id": "0bf2d34970d702120de41760f13a45dc", "type": "electric_scooter", "name": "0bf2d34970d702120de41760f13a45dc"}, {"is_disabled": 0, "is_reserved": 0, "fusion_lat": 0.0, "lat": 38.809805833333336, "fusion_lon": 0.0, "rental_uris": {"ios": "https://dc.lft.to/lastmile_qr_scan", "android": "https://dc.lft.to/lastmile_qr_scan"}, "lon": -77.076575, "bike_id": "0ac90f3aa79826461c5f9a83ab3ab8cf", "type": "electric_bike", "name": "0ac90f3aa79826461c5f9a83ab3ab8cf"}, {"is_disabled": 0, "is_reserved": 0, "fusion_lat": 0.0, "lat": 38.90989066666667, "fusion_lon": 0.0, "rental_uris": {"ios": "https://dc.lft.to/lastmile_qr_scan", "android": "https://dc.lft.to/lastmile_qr_scan"}, "lon": -77.04650716666667, "bike_id": "0020b35aa995c335a29510eb6a8ce911", "type": "electric_scooter", "name": "0020b35aa995c335a29510eb6a8ce911"}, {"is_disabled": 0, "is_reserved": 0, "fusion_lat": 0.0, "lat": 38.949762166666666, "fusion_lon": 0.0, "rental_uris": {"ios": "https://dc.lft.to/lastmile_qr_scan", "android": "https://dc.lft.to/lastmile_qr_scan"}, "lon": -77.02448, "bike_id": "dc27e79273cf7600b945846616955ca0", "type": "electric_scooter", "name": "dc27e79273cf7600b945846616955ca0"}, {"is_disabled": 0, "is_reserved": 0, "fusion_lat": 0.0, "lat": 38.9180135, "fusion_lon": 0.0, "rental_uris": {"ios": "https://dc.lft.to/lastmile_qr_scan", "android": "https://dc.lft.to/lastmile_qr_scan"}, "lon": -77.03438833333334, "bike_id": "15d6cde41a2ca612195d044ac6974046", "type": "electric_scooter", "name": "15d6cde41a2ca612195d044ac6974046"}, {"is_disabled": 0, "is_reserved": 0, "fusion_lat": 0.0, "lat": 38.94219, "fusion_lon": 0.0, "rental_uris": {"ios": "https://dc.lft.to/lastmile_qr_scan", "android": "https://dc.lft.to/lastmile_qr_scan"}, "lon": -76.96129333333333, "bike_id": "aebab1d5ec55f812427e40088c23347a", "type": "electric_bike", "name": "aebab1d5ec55f812427e40088c23347a"}, {"is_disabled": 0, "is_reserved": 0, "fusion_lat": 0.0, "lat": 38.909679833333335, "fusion_lon": 0.0, "rental_uris": {"ios": "https://dc.lft.to/lastmile_qr_scan", "android": "https://dc.lft.to/lastmile_qr_scan"}, "lon": -77.0110065, "bike_id": "849d3667e109f13b967251a48fce852c", "type": "electric_scooter", "name": "849d3667e109f13b967251a48fce852c"}, {"is_disabled": 0, "is_reserved": 0, "fusion_lat": 0.0, "lat": 38.9175845, "fusion_lon": 0.0, "rental_uris": {"ios": "https://dc.lft.to/lastmile_qr_scan", "android": "https://dc.lft.to/lastmile_qr_scan"}, "lon": -77.01492483333334, "bike_id": "a6a77496b8666c7272c6744d98983383", "type": "electric_scooter", "name": "a6a77496b8666c7272c6744d98983383"}, {"is_disabled": 0, "is_reserved": 0, "fusion_lat": 0.0, "lat": 38.895482, "fusion_lon": 0.0, "rental_uris": {"ios": "https://dc.lft.to/lastmile_qr_scan", "android": "https://dc.lft.to/lastmile_qr_scan"}, "lon": -77.01641866666667, "bike_id": "cee0a3ac423a2b0120eb6995b3f52c4c", "type": "electric_scooter", "name": "cee0a3ac423a2b0120eb6995b3f52c4c"}, {"is_disabled": 0, "is_reserved": 0, "fusion_lat": 0.0, "lat": 38.91830216666666, "fusion_lon": 0.0, "rental_uris": {"ios": "https://dc.lft.to/lastmile_qr_scan", "android": "https://dc.lft.to/lastmile_qr_scan"}, "lon": -77.03195733333334, "bike_id": "813f2b95b27fc11c1f1631b181064f73", "type": "electric_scooter", "name": "813f2b95b27fc11c1f1631b181064f73"}, {"is_disabled": 0, "is_reserved": 0, "fusion_lat": 0.0, "lat": 38.923396333333336, "fusion_lon": 0.0, "rental_uris": {"ios": "https://dc.lft.to/lastmile_qr_scan", "android": "https://dc.lft.to/lastmile_qr_scan"}, "lon": -77.03530016666667, "bike_id": "faa179ef2cb5f2c0385e8e787c9b33dd", "type": "electric_scooter", "name": "faa179ef2cb5f2c0385e8e787c9b33dd"}, {"is_disabled": 0, "is_reserved": 0, "fusion_lat": 0.0, "lat": 38.92564633333333, "fusion_lon": 0.0, "rental_uris": {"ios": "https://dc.lft.to/lastmile_qr_scan", "android": "https://dc.lft.to/lastmile_qr_scan"}, "lon": -77.02289533333334, "bike_id": "a351367904b70ab2e5e2cf944f8a5bb8", "type": "electric_scooter", "name": "a351367904b70ab2e5e2cf944f8a5bb8"}, {"is_disabled": 0, "is_reserved": 0, "fusion_lat": 0.0, "lat": 38.945166666666665, "fusion_lon": 0.0, "rental_uris": {"ios": "https://dc.lft.to/lastmile_qr_scan", "android": "https://dc.lft.to/lastmile_qr_scan"}, "lon": -77.023653, "bike_id": "5a39ca9aa8cf8bfb9f4f810bc43cf87a", "type": "electric_bike", "name": "5a39ca9aa8cf8bfb9f4f810bc43cf87a"}, {"is_disabled": 0, "is_reserved": 0, "fusion_lat": 0.0, "lat": 38.91409866666667, "fusion_lon": 0.0, "rental_uris": {"ios": "https://dc.lft.to/lastmile_qr_scan", "android": "https://dc.lft.to/lastmile_qr_scan"}, "lon": -77.0102295, "bike_id": "133d747c88df6ddb79aee702257e59de", "type": "electric_scooter", "name": "133d747c88df6ddb79aee702257e59de"}, {"is_disabled": 0, "is_reserved": 0, "fusion_lat": 0.0, "lat": 38.9285925, "fusion_lon": 0.0, "rental_uris": {"ios": "https://dc.lft.to/lastmile_qr_scan", "android": "https://dc.lft.to/lastmile_qr_scan"}, "lon": -77.02988316666666, "bike_id": "ca86ca4d85834d29efcc629fa7fc503a", "type": "electric_scooter", "name": "ca86ca4d85834d29efcc629fa7fc503a"}, {"is_disabled": 0, "is_reserved": 0, "fusion_lat": 0.0, "lat": 38.929137833333336, "fusion_lon": 0.0, "rental_uris": {"ios": "https://dc.lft.to/lastmile_qr_scan", "android": "https://dc.lft.to/lastmile_qr_scan"}, "lon": -77.02614933333334, "bike_id": "a9152a65bfa0a93e462e57b4a51e4b11", "type": "electric_scooter", "name": "a9152a65bfa0a93e462e57b4a51e4b11"}, {"is_disabled": 0, "is_reserved": 0, "fusion_lat": 0.0, "lat": 38.876875, "fusion_lon": 0.0, "rental_uris": {"ios": "https://dc.lft.to/lastmile_qr_scan", "android": "https://dc.lft.to/lastmile_qr_scan"}, "lon": -77.01762883333333, "bike_id": "532815170fdac09ab5fb80d51212d525", "type": "electric_scooter", "name": "532815170fdac09ab5fb80d51212d525"}, {"is_disabled": 0, "is_reserved": 0, "fusion_lat": 0.0, "lat": 38.94195633333333, "fusion_lon": 0.0, "rental_uris": {"ios": "https://dc.lft.to/lastmile_qr_scan", "android": "https://dc.lft.to/lastmile_qr_scan"}, "lon": -77.08826533333334, "bike_id": "942e0eac8b6a8adbc1afca90692fc1e9", "type": "electric_scooter", "name": "942e0eac8b6a8adbc1afca90692fc1e9"}, {"is_disabled": 0, "is_reserved": 0, "fusion_lat": 0.0, "lat": 38.90571933333333, "fusion_lon": 0.0, "rental_uris": {"ios": "https://dc.lft.to/lastmile_qr_scan", "android": "https://dc.lft.to/lastmile_qr_scan"}, "lon": -77.048562, "bike_id": "76f42c6f4fb5c077cfe53d85739dc3bd", "type": "electric_scooter", "name": "76f42c6f4fb5c077cfe53d85739dc3bd"}, {"is_disabled": 0, "is_reserved": 0, "fusion_lat": 0.0, "lat": 38.8774695, "fusion_lon": 0.0, "rental_uris": {"ios": "https://dc.lft.to/lastmile_qr_scan", "android": "https://dc.lft.to/lastmile_qr_scan"}, "lon": -77.004641, "bike_id": "e63aee94c15402423c3849045852b9bf", "type": "electric_scooter", "name": "e63aee94c15402423c3849045852b9bf"}, {"is_disabled": 0, "is_reserved": 0, "fusion_lat": 0.0, "lat": 38.919944666666666, "fusion_lon": 0.0, "rental_uris": {"ios": "https://dc.lft.to/lastmile_qr_scan", "android": "https://dc.lft.to/lastmile_qr_scan"}, "lon": -77.03219083333333, "bike_id": "5aee527b27ab320313cef59b1df2a309", "type": "electric_scooter", "name": "5aee527b27ab320313cef59b1df2a309"}, {"is_disabled": 0, "is_reserved": 0, "fusion_lat": 0.0, "lat": 38.90444633333333, "fusion_lon": 0.0, "rental_uris": {"ios": "https://dc.lft.to/lastmile_qr_scan", "android": "https://dc.lft.to/lastmile_qr_scan"}, "lon": -76.97304566666666, "bike_id": "a5e8cf1366c6d2f27e63dcddd9f932b3", "type": "electric_scooter", "name": "a5e8cf1366c6d2f27e63dcddd9f932b3"}, {"is_disabled": 0, "is_reserved": 0, "fusion_lat": 0.0, "lat": 38.96355783333333, "fusion_lon": 0.0, "rental_uris": {"ios": "https://dc.lft.to/lastmile_qr_scan", "android": "https://dc.lft.to/lastmile_qr_scan"}, "lon": -77.034393, "bike_id": "984d80223506a8a60cb3f16bc912b644", "type": "electric_scooter", "name": "984d80223506a8a60cb3f16bc912b644"}, {"is_disabled": 0, "is_reserved": 0, "fusion_lat": 0.0, "lat": 38.87661883333333, "fusion_lon": 0.0, "rental_uris": {"ios": "https://dc.lft.to/lastmile_qr_scan", "android": "https://dc.lft.to/lastmile_qr_scan"}, "lon": -77.00463366666666, "bike_id": "5f8249067457ef0c52e993adcf186d56", "type": "electric_scooter", "name": "5f8249067457ef0c52e993adcf186d56"}, {"is_disabled": 0, "is_reserved": 0, "fusion_lat": 0.0, "lat": 38.895608333333335, "fusion_lon": 0.0, "rental_uris": {"ios": "https://dc.lft.to/lastmile_qr_scan", "android": "https://dc.lft.to/lastmile_qr_scan"}, "lon": -77.04664016666666, "bike_id": "d03a2aa5d4cf761deca86975a3bf8456", "type": "electric_scooter", "name": "d03a2aa5d4cf761deca86975a3bf8456"}, {"is_disabled": 0, "is_reserved": 0, "fusion_lat": 0.0, "lat": 38.842705, "fusion_lon": 0.0, "rental_uris": {"ios": "https://dc.lft.to/lastmile_qr_scan", "android": "https://dc.lft.to/lastmile_qr_scan"}, "lon": -76.98831166666666, "bike_id": "d697976528ca779814c0cff55da73ba6", "type": "electric_scooter", "name": "d697976528ca779814c0cff55da73ba6"}, {"is_disabled": 0, "is_reserved": 0, "fusion_lat": 0.0, "lat": 38.876573666666665, "fusion_lon": 0.0, "rental_uris": {"ios": "https://dc.lft.to/lastmile_qr_scan", "android": "https://dc.lft.to/lastmile_qr_scan"}, "lon": -77.00887266666666, "bike_id": "4866f6c7a004964b4044be00d93c138f", "type": "electric_scooter", "name": "4866f6c7a004964b4044be00d93c138f"}, {"is_disabled": 0, "is_reserved": 0, "fusion_lat": 0.0, "lat": 38.97440816666666, "fusion_lon": 0.0, "rental_uris": {"ios": "https://dc.lft.to/lastmile_qr_scan", "android": "https://dc.lft.to/lastmile_qr_scan"}, "lon": -77.09611133333334, "bike_id": "9ad21c3501ccaf3d33a6658c1a9d96fe", "type": "electric_bike", "name": "9ad21c3501ccaf3d33a6658c1a9d96fe"}, {"is_disabled": 0, "is_reserved": 0, "fusion_lat": 0.0, "lat": 38.894611833333336, "fusion_lon": 0.0, "rental_uris": {"ios": "https://dc.lft.to/lastmile_qr_scan", "android": "https://dc.lft.to/lastmile_qr_scan"}, "lon": -76.93681866666667, "bike_id": "076280e5f4a8c7851958fa2fd2761530", "type": "electric_bike", "name": "076280e5f4a8c7851958fa2fd2761530"}, {"is_disabled": 0, "is_reserved": 0, "fusion_lat": 0.0, "lat": 38.92304083333333, "fusion_lon": 0.0, "rental_uris": {"ios": "https://dc.lft.to/lastmile_qr_scan", "android": "https://dc.lft.to/lastmile_qr_scan"}, "lon": -77.033975, "bike_id": "da9ed85306f54e156bc9b8531e3ff196", "type": "electric_scooter", "name": "da9ed85306f54e156bc9b8531e3ff196"}, {"is_disabled": 0, "is_reserved": 0, "fusion_lat": 0.0, "lat": 38.898442333333335, "fusion_lon": 0.0, "rental_uris": {"ios": "https://dc.lft.to/lastmile_qr_scan", "android": "https://dc.lft.to/lastmile_qr_scan"}, "lon": -77.00207633333333, "bike_id": "68faca7510c1b6ab9f7360e1a577644d", "type": "electric_scooter", "name": "68faca7510c1b6ab9f7360e1a577644d"}, {"is_disabled": 0, "is_reserved": 0, "fusion_lat": 0.0, "lat": 38.918211166666666, "fusion_lon": 0.0, "rental_uris": {"ios": "https://dc.lft.to/lastmile_qr_scan", "android": "https://dc.lft.to/lastmile_qr_scan"}, "lon": -77.02716966666667, "bike_id": "50a4d6e671755b1224293ca64fc0e003", "type": "electric_scooter", "name": "50a4d6e671755b1224293ca64fc0e003"}, {"is_disabled": 0, "is_reserved": 0, "fusion_lat": 0.0, "lat": 38.92359833333333, "fusion_lon": 0.0, "rental_uris": {"ios": "https://dc.lft.to/lastmile_qr_scan", "android": "https://dc.lft.to/lastmile_qr_scan"}, "lon": -77.04382916666667, "bike_id": "c8e29024ad640066fcd1e3598a91ebec", "type": "electric_scooter", "name": "c8e29024ad640066fcd1e3598a91ebec"}, {"is_disabled": 0, "is_reserved": 0, "fusion_lat": 0.0, "lat": 38.91116233333333, "fusion_lon": 0.0, "rental_uris": {"ios": "https://dc.lft.to/lastmile_qr_scan", "android": "https://dc.lft.to/lastmile_qr_scan"}, "lon": -77.00376833333333, "bike_id": "c852d2b55039907d31b70e60c4e03eb3", "type": "electric_scooter", "name": "c852d2b55039907d31b70e60c4e03eb3"}, {"is_disabled": 0, "is_reserved": 0, "fusion_lat": 0.0, "lat": 38.9265625, "fusion_lon": 0.0, "rental_uris": {"ios": "https://dc.lft.to/lastmile_qr_scan", "android": "https://dc.lft.to/lastmile_qr_scan"}, "lon": -77.02424083333334, "bike_id": "95ee760357acf42d2be16fc73ebfba75", "type": "electric_scooter", "name": "95ee760357acf42d2be16fc73ebfba75"}, {"is_disabled": 0, "is_reserved": 0, "fusion_lat": 0.0, "lat": 38.923529, "fusion_lon": 0.0, "rental_uris": {"ios": "https://dc.lft.to/lastmile_qr_scan", "android": "https://dc.lft.to/lastmile_qr_scan"}, "lon": -77.07311483333334, "bike_id": "358a7faaf6d654fbda682212dae1d56c", "type": "electric_scooter", "name": "358a7faaf6d654fbda682212dae1d56c"}, {"is_disabled": 0, "is_reserved": 0, "fusion_lat": 0.0, "lat": 38.93602766666667, "fusion_lon": 0.0, "rental_uris": {"ios": "https://dc.lft.to/lastmile_qr_scan", "android": "https://dc.lft.to/lastmile_qr_scan"}, "lon": -77.05587633333333, "bike_id": "aa7a658558dffc975eb847bc139e92fc", "type": "electric_scooter", "name": "aa7a658558dffc975eb847bc139e92fc"}, {"is_disabled": 0, "is_reserved": 0, "fusion_lat": 0.0, "lat": 38.9370225, "fusion_lon": 0.0, "rental_uris": {"ios": "https://dc.lft.to/lastmile_qr_scan", "android": "https://dc.lft.to/lastmile_qr_scan"}, "lon": -77.0559755, "bike_id": "1b6db37a59d651bf82c76b89f2a3b3d8", "type": "electric_scooter", "name": "1b6db37a59d651bf82c76b89f2a3b3d8"}, {"is_disabled": 0, "is_reserved": 0, "fusion_lat": 0.0, "lat": 38.914083, "fusion_lon": 0.0, "rental_uris": {"ios": "https://dc.lft.to/lastmile_qr_scan", "android": "https://dc.lft.to/lastmile_qr_scan"}, "lon": -77.0439455, "bike_id": "8c248ea5f82e02bfaf0ec96bec3e315a", "type": "electric_scooter", "name": "8c248ea5f82e02bfaf0ec96bec3e315a"}, {"is_disabled": 0, "is_reserved": 0, "fusion_lat": 0.0, "lat": 38.92654683333333, "fusion_lon": 0.0, "rental_uris": {"ios": "https://dc.lft.to/lastmile_qr_scan", "android": "https://dc.lft.to/lastmile_qr_scan"}, "lon": -77.02447716666667, "bike_id": "67a45d27a488085ef3ea924366129a01", "type": "electric_scooter", "name": "67a45d27a488085ef3ea924366129a01"}, {"is_disabled": 0, "is_reserved": 0, "fusion_lat": 0.0, "lat": 38.931188166666665, "fusion_lon": 0.0, "rental_uris": {"ios": "https://dc.lft.to/lastmile_qr_scan", "android": "https://dc.lft.to/lastmile_qr_scan"}, "lon": -77.0206805, "bike_id": "e7aa2eb2774d0847bccd9342dfab88cf", "type": "electric_scooter", "name": "e7aa2eb2774d0847bccd9342dfab88cf"}, {"is_disabled": 0, "is_reserved": 0, "fusion_lat": 0.0, "lat": 38.90406433333333, "fusion_lon": 0.0, "rental_uris": {"ios": "https://dc.lft.to/lastmile_qr_scan", "android": "https://dc.lft.to/lastmile_qr_scan"}, "lon": -77.02487066666667, "bike_id": "f39ea4b7588771194560d5e13cb4430d", "type": "electric_scooter", "name": "f39ea4b7588771194560d5e13cb4430d"}, {"is_disabled": 0, "is_reserved": 0, "fusion_lat": 0.0, "lat": 38.9205415, "fusion_lon": 0.0, "rental_uris": {"ios": "https://dc.lft.to/lastmile_qr_scan", "android": "https://dc.lft.to/lastmile_qr_scan"}, "lon": -77.03375016666666, "bike_id": "1d457eeba67cc6479ee7cdb76c1a5cf5", "type": "electric_scooter", "name": "1d457eeba67cc6479ee7cdb76c1a5cf5"}, {"is_disabled": 0, "is_reserved": 0, "fusion_lat": 0.0, "lat": 38.90363083333333, "fusion_lon": 0.0, "rental_uris": {"ios": "https://dc.lft.to/lastmile_qr_scan", "android": "https://dc.lft.to/lastmile_qr_scan"}, "lon": -77.01651183333334, "bike_id": "e893c400ffa8f5c02a106c058afb4052", "type": "electric_scooter", "name": "e893c400ffa8f5c02a106c058afb4052"}, {"is_disabled": 0, "is_reserved": 0, "fusion_lat": 0.0, "lat": 38.92423266666667, "fusion_lon": 0.0, "rental_uris": {"ios": "https://dc.lft.to/lastmile_qr_scan", "android": "https://dc.lft.to/lastmile_qr_scan"}, "lon": -77.02298183333333, "bike_id": "1c7026b81ec3dccc4d7c397dde2e2f6f", "type": "electric_scooter", "name": "1c7026b81ec3dccc4d7c397dde2e2f6f"}, {"is_disabled": 0, "is_reserved": 0, "fusion_lat": 0.0, "lat": 38.92599233333333, "fusion_lon": 0.0, "rental_uris": {"ios": "https://dc.lft.to/lastmile_qr_scan", "android": "https://dc.lft.to/lastmile_qr_scan"}, "lon": -77.0249975, "bike_id": "8387e79bdb826751e9bed67bba0b2fca", "type": "electric_scooter", "name": "8387e79bdb826751e9bed67bba0b2fca"}, {"is_disabled": 0, "is_reserved": 0, "fusion_lat": 0.0, "lat": 38.92656216666666, "fusion_lon": 0.0, "rental_uris": {"ios": "https://dc.lft.to/lastmile_qr_scan", "android": "https://dc.lft.to/lastmile_qr_scan"}, "lon": -77.02431266666666, "bike_id": "f1ebbc45ca54d1ca0631244cd4fd9fb4", "type": "electric_scooter", "name": "f1ebbc45ca54d1ca0631244cd4fd9fb4"}, {"is_disabled": 0, "is_reserved": 0, "fusion_lat": 0.0, "lat": 38.94728033333333, "fusion_lon": 0.0, "rental_uris": {"ios": "https://dc.lft.to/lastmile_qr_scan", "android": "https://dc.lft.to/lastmile_qr_scan"}, "lon": -77.02356666666667, "bike_id": "84ec2dfecc1a7eefb66c40d282e840b9", "type": "electric_scooter", "name": "84ec2dfecc1a7eefb66c40d282e840b9"}, {"is_disabled": 0, "is_reserved": 0, "fusion_lat": 0.0, "lat": 38.9133365, "fusion_lon": 0.0, "rental_uris": {"ios": "https://dc.lft.to/lastmile_qr_scan", "android": "https://dc.lft.to/lastmile_qr_scan"}, "lon": -77.031288, "bike_id": "acac030d81d5cc8e55e43eb845297f6a", "type": "electric_scooter", "name": "acac030d81d5cc8e55e43eb845297f6a"}, {"is_disabled": 0, "is_reserved": 0, "fusion_lat": 0.0, "lat": 38.91190483333333, "fusion_lon": 0.0, "rental_uris": {"ios": "https://dc.lft.to/lastmile_qr_scan", "android": "https://dc.lft.to/lastmile_qr_scan"}, "lon": -77.00208716666667, "bike_id": "4b0642378796c73e38e6abd2c2e1df11", "type": "electric_scooter", "name": "4b0642378796c73e38e6abd2c2e1df11"}, {"is_disabled": 0, "is_reserved": 0, "fusion_lat": 0.0, "lat": 38.919459333333336, "fusion_lon": 0.0, "rental_uris": {"ios": "https://dc.lft.to/lastmile_qr_scan", "android": "https://dc.lft.to/lastmile_qr_scan"}, "lon": -77.014046, "bike_id": "f08c83ca23ff15b9611e43fd7bac5871", "type": "electric_scooter", "name": "f08c83ca23ff15b9611e43fd7bac5871"}, {"is_disabled": 0, "is_reserved": 0, "fusion_lat": 0.0, "lat": 38.914074, "fusion_lon": 0.0, "rental_uris": {"ios": "https://dc.lft.to/lastmile_qr_scan", "android": "https://dc.lft.to/lastmile_qr_scan"}, "lon": -77.01070816666666, "bike_id": "fe4fca2287791f1b0cccb6781d8dd03a", "type": "electric_scooter", "name": "fe4fca2287791f1b0cccb6781d8dd03a"}, {"is_disabled": 0, "is_reserved": 0, "fusion_lat": 0.0, "lat": 38.9280555, "fusion_lon": 0.0, "rental_uris": {"ios": "https://dc.lft.to/lastmile_qr_scan", "android": "https://dc.lft.to/lastmile_qr_scan"}, "lon": -76.97605833333333, "bike_id": "d10b682d4888de7b99602d0871b13625", "type": "electric_scooter", "name": "d10b682d4888de7b99602d0871b13625"}, {"is_disabled": 0, "is_reserved": 0, "fusion_lat": 0.0, "lat": 38.90515883333333, "fusion_lon": 0.0, "rental_uris": {"ios": "https://dc.lft.to/lastmile_qr_scan", "android": "https://dc.lft.to/lastmile_qr_scan"}, "lon": -77.048237, "bike_id": "249b6fe7652f50bc30784947abcd6527", "type": "electric_scooter", "name": "249b6fe7652f50bc30784947abcd6527"}, {"is_disabled": 0, "is_reserved": 0, "fusion_lat": 0.0, "lat": 38.9037935, "fusion_lon": 0.0, "rental_uris": {"ios": "https://dc.lft.to/lastmile_qr_scan", "android": "https://dc.lft.to/lastmile_qr_scan"}, "lon": -77.0164425, "bike_id": "7f859a491f9a6d767ad6b847bcad8130", "type": "electric_scooter", "name": "7f859a491f9a6d767ad6b847bcad8130"}, {"is_disabled": 0, "is_reserved": 0, "fusion_lat": 0.0, "lat": 38.822090333333335, "fusion_lon": 0.0, "rental_uris": {"ios": "https://dc.lft.to/lastmile_qr_scan", "android": "https://dc.lft.to/lastmile_qr_scan"}, "lon": -76.97702333333334, "bike_id": "eaa3aedabacb124dd03dc0045d474054", "type": "electric_bike", "name": "eaa3aedabacb124dd03dc0045d474054"}, {"is_disabled": 0, "is_reserved": 0, "fusion_lat": 0.0, "lat": 38.91473466666667, "fusion_lon": 0.0, "rental_uris": {"ios": "https://dc.lft.to/lastmile_qr_scan", "android": "https://dc.lft.to/lastmile_qr_scan"}, "lon": -77.00194883333333, "bike_id": "a50d8ec67701d7e7214ca0f920b3b98d", "type": "electric_scooter", "name": "a50d8ec67701d7e7214ca0f920b3b98d"}, {"is_disabled": 0, "is_reserved": 0, "fusion_lat": 0.0, "lat": 38.96158783333333, "fusion_lon": 0.0, "rental_uris": {"ios": "https://dc.lft.to/lastmile_qr_scan", "android": "https://dc.lft.to/lastmile_qr_scan"}, "lon": -77.0278655, "bike_id": "bd4184323a8edb9ae9073d8fbf98269a", "type": "electric_scooter", "name": "bd4184323a8edb9ae9073d8fbf98269a"}, {"is_disabled": 0, "is_reserved": 0, "fusion_lat": 0.0, "lat": 38.9728645, "fusion_lon": 0.0, "rental_uris": {"ios": "https://dc.lft.to/lastmile_qr_scan", "android": "https://dc.lft.to/lastmile_qr_scan"}, "lon": -77.0362675, "bike_id": "57f567ea4d85879a4a15b6028509a420", "type": "electric_bike", "name": "57f567ea4d85879a4a15b6028509a420"}, {"is_disabled": 0, "is_reserved": 0, "fusion_lat": 0.0, "lat": 38.9020235, "fusion_lon": 0.0, "rental_uris": {"ios": "https://dc.lft.to/lastmile_qr_scan", "android": "https://dc.lft.to/lastmile_qr_scan"}, "lon": -77.02529066666666, "bike_id": "eae7d3de262d26942920f13c1b47d771", "type": "electric_scooter", "name": "eae7d3de262d26942920f13c1b47d771"}, {"is_disabled": 0, "is_reserved": 0, "fusion_lat": 0.0, "lat": 38.89738966666667, "fusion_lon": 0.0, "rental_uris": {"ios": "https://dc.lft.to/lastmile_qr_scan", "android": "https://dc.lft.to/lastmile_qr_scan"}, "lon": -77.04552783333334, "bike_id": "ac11d43434a310999586612c2a99eb96", "type": "electric_scooter", "name": "ac11d43434a310999586612c2a99eb96"}, {"is_disabled": 0, "is_reserved": 0, "fusion_lat": 0.0, "lat": 38.95251283333333, "fusion_lon": 0.0, "rental_uris": {"ios": "https://dc.lft.to/lastmile_qr_scan", "android": "https://dc.lft.to/lastmile_qr_scan"}, "lon": -77.09628366666666, "bike_id": "2a26f09b85f2861563da1260d7ae89d2", "type": "electric_bike", "name": "2a26f09b85f2861563da1260d7ae89d2"}, {"is_disabled": 0, "is_reserved": 0, "fusion_lat": 0.0, "lat": 38.929727666666665, "fusion_lon": 0.0, "rental_uris": {"ios": "https://dc.lft.to/lastmile_qr_scan", "android": "https://dc.lft.to/lastmile_qr_scan"}, "lon": -77.029219, "bike_id": "918266ce9b0b4c6ca57a08d2e96f18e6", "type": "electric_scooter", "name": "918266ce9b0b4c6ca57a08d2e96f18e6"}, {"is_disabled": 0, "is_reserved": 0, "fusion_lat": 0.0, "lat": 38.926603, "fusion_lon": 0.0, "rental_uris": {"ios": "https://dc.lft.to/lastmile_qr_scan", "android": "https://dc.lft.to/lastmile_qr_scan"}, "lon": -76.992933, "bike_id": "07973adb24966b87b43cf4c7a8a74f8b", "type": "electric_scooter", "name": "07973adb24966b87b43cf4c7a8a74f8b"}, {"is_disabled": 0, "is_reserved": 0, "fusion_lat": 0.0, "lat": 38.84290383333333, "fusion_lon": 0.0, "rental_uris": {"ios": "https://dc.lft.to/lastmile_qr_scan", "android": "https://dc.lft.to/lastmile_qr_scan"}, "lon": -77.06379383333334, "bike_id": "31cd3b6bd6943835e1835ffe7757f6e6", "type": "electric_bike", "name": "31cd3b6bd6943835e1835ffe7757f6e6"}, {"is_disabled": 0, "is_reserved": 0, "fusion_lat": 0.0, "lat": 38.87919566666667, "fusion_lon": 0.0, "rental_uris": {"ios": "https://dc.lft.to/lastmile_qr_scan", "android": "https://dc.lft.to/lastmile_qr_scan"}, "lon": -76.9914085, "bike_id": "ba5b78fa28ba7b87140b3af90da94dc8", "type": "electric_scooter", "name": "ba5b78fa28ba7b87140b3af90da94dc8"}, {"is_disabled": 0, "is_reserved": 0, "fusion_lat": 0.0, "lat": 38.90234616666667, "fusion_lon": 0.0, "rental_uris": {"ios": "https://dc.lft.to/lastmile_qr_scan", "android": "https://dc.lft.to/lastmile_qr_scan"}, "lon": -77.0532445, "bike_id": "93043a35447ad86954f5a8e4e5d84d17", "type": "electric_scooter", "name": "93043a35447ad86954f5a8e4e5d84d17"}, {"is_disabled": 0, "is_reserved": 0, "fusion_lat": 0.0, "lat": 38.90924866666667, "fusion_lon": 0.0, "rental_uris": {"ios": "https://dc.lft.to/lastmile_qr_scan", "android": "https://dc.lft.to/lastmile_qr_scan"}, "lon": -76.99776283333334, "bike_id": "d4af75d7ab5dead00e54829c9ae7942d", "type": "electric_scooter", "name": "d4af75d7ab5dead00e54829c9ae7942d"}, {"is_disabled": 0, "is_reserved": 0, "fusion_lat": 0.0, "lat": 38.84280833333333, "fusion_lon": 0.0, "rental_uris": {"ios": "https://dc.lft.to/lastmile_qr_scan", "android": "https://dc.lft.to/lastmile_qr_scan"}, "lon": -76.98837816666666, "bike_id": "2875f44c171be0ca2de89dbe06f4f387", "type": "electric_bike", "name": "2875f44c171be0ca2de89dbe06f4f387"}, {"is_disabled": 0, "is_reserved": 0, "fusion_lat": 0.0, "lat": 38.88765516666667, "fusion_lon": 0.0, "rental_uris": {"ios": "https://dc.lft.to/lastmile_qr_scan", "android": "https://dc.lft.to/lastmile_qr_scan"}, "lon": -77.15658233333333, "bike_id": "ccef2b92cd97840166377650a6775c25", "type": "electric_bike", "name": "ccef2b92cd97840166377650a6775c25"}, {"is_disabled": 0, "is_reserved": 0, "fusion_lat": 0.0, "lat": 38.93601, "fusion_lon": 0.0, "rental_uris": {"ios": "https://dc.lft.to/lastmile_qr_scan", "android": "https://dc.lft.to/lastmile_qr_scan"}, "lon": -77.03870916666666, "bike_id": "fcaf1bbb356608226d3a63754ff81da7", "type": "electric_scooter", "name": "fcaf1bbb356608226d3a63754ff81da7"}, {"is_disabled": 0, "is_reserved": 0, "fusion_lat": 0.0, "lat": 38.922386833333334, "fusion_lon": 0.0, "rental_uris": {"ios": "https://dc.lft.to/lastmile_qr_scan", "android": "https://dc.lft.to/lastmile_qr_scan"}, "lon": -77.02267566666667, "bike_id": "31ebbb73c5f3dac5afa91a3e2c4a3321", "type": "electric_scooter", "name": "31ebbb73c5f3dac5afa91a3e2c4a3321"}, {"is_disabled": 0, "is_reserved": 0, "fusion_lat": 0.0, "lat": 38.934084, "fusion_lon": 0.0, "rental_uris": {"ios": "https://dc.lft.to/lastmile_qr_scan", "android": "https://dc.lft.to/lastmile_qr_scan"}, "lon": -77.04277783333333, "bike_id": "10b1cae704d6eeb1bd5c4c4e2a9cbb56", "type": "electric_scooter", "name": "10b1cae704d6eeb1bd5c4c4e2a9cbb56"}, {"is_disabled": 0, "is_reserved": 0, "fusion_lat": 0.0, "lat": 38.92859833333333, "fusion_lon": 0.0, "rental_uris": {"ios": "https://dc.lft.to/lastmile_qr_scan", "android": "https://dc.lft.to/lastmile_qr_scan"}, "lon": -77.02882316666667, "bike_id": "685d4f9201692f30b6768449029807f7", "type": "electric_scooter", "name": "685d4f9201692f30b6768449029807f7"}, {"is_disabled": 0, "is_reserved": 0, "fusion_lat": 0.0, "lat": 38.89888333333333, "fusion_lon": 0.0, "rental_uris": {"ios": "https://dc.lft.to/lastmile_qr_scan", "android": "https://dc.lft.to/lastmile_qr_scan"}, "lon": -77.01983183333333, "bike_id": "a5dfe3642f8c955100c0da1b86c2820f", "type": "electric_scooter", "name": "a5dfe3642f8c955100c0da1b86c2820f"}, {"is_disabled": 0, "is_reserved": 0, "fusion_lat": 0.0, "lat": 38.89503233333333, "fusion_lon": 0.0, "rental_uris": {"ios": "https://dc.lft.to/lastmile_qr_scan", "android": "https://dc.lft.to/lastmile_qr_scan"}, "lon": -77.02567666666667, "bike_id": "43a2158a2a2e3b52c8287c0372f04a25", "type": "electric_scooter", "name": "43a2158a2a2e3b52c8287c0372f04a25"}, {"is_disabled": 0, "is_reserved": 0, "fusion_lat": 0.0, "lat": 38.91736783333333, "fusion_lon": 0.0, "rental_uris": {"ios": "https://dc.lft.to/lastmile_qr_scan", "android": "https://dc.lft.to/lastmile_qr_scan"}, "lon": -77.02293166666666, "bike_id": "4c70e3e3d8ca0f272e0fc472a9696554", "type": "electric_scooter", "name": "4c70e3e3d8ca0f272e0fc472a9696554"}, {"is_disabled": 0, "is_reserved": 0, "fusion_lat": 0.0, "lat": 38.92992383333333, "fusion_lon": 0.0, "rental_uris": {"ios": "https://dc.lft.to/lastmile_qr_scan", "android": "https://dc.lft.to/lastmile_qr_scan"}, "lon": -77.0347265, "bike_id": "499f3660033c1ec2d37e80bb7f0258c1", "type": "electric_scooter", "name": "499f3660033c1ec2d37e80bb7f0258c1"}, {"is_disabled": 0, "is_reserved": 0, "fusion_lat": 0.0, "lat": 38.89529366666667, "fusion_lon": 0.0, "rental_uris": {"ios": "https://dc.lft.to/lastmile_qr_scan", "android": "https://dc.lft.to/lastmile_qr_scan"}, "lon": -77.02664666666666, "bike_id": "504bed5b8631830330ed219581e9ad7c", "type": "electric_scooter", "name": "504bed5b8631830330ed219581e9ad7c"}, {"is_disabled": 0, "is_reserved": 0, "fusion_lat": 0.0, "lat": 38.924926666666664, "fusion_lon": 0.0, "rental_uris": {"ios": "https://dc.lft.to/lastmile_qr_scan", "android": "https://dc.lft.to/lastmile_qr_scan"}, "lon": -77.042541, "bike_id": "e0189953a241626d90289be835c0fb83", "type": "electric_bike", "name": "e0189953a241626d90289be835c0fb83"}, {"is_disabled": 0, "is_reserved": 0, "fusion_lat": 0.0, "lat": 38.92319083333334, "fusion_lon": 0.0, "rental_uris": {"ios": "https://dc.lft.to/lastmile_qr_scan", "android": "https://dc.lft.to/lastmile_qr_scan"}, "lon": -77.0279995, "bike_id": "5039112aac9bf69d82ae87da4b30c056", "type": "electric_scooter", "name": "5039112aac9bf69d82ae87da4b30c056"}, {"is_disabled": 0, "is_reserved": 0, "fusion_lat": 0.0, "lat": 38.85847783333333, "fusion_lon": 0.0, "rental_uris": {"ios": "https://dc.lft.to/lastmile_qr_scan", "android": "https://dc.lft.to/lastmile_qr_scan"}, "lon": -76.98836366666667, "bike_id": "0e419a13d000b52c7da5594ff157ce0a", "type": "electric_scooter", "name": "0e419a13d000b52c7da5594ff157ce0a"}, {"is_disabled": 0, "is_reserved": 0, "fusion_lat": 0.0, "lat": 38.85786516666667, "fusion_lon": 0.0, "rental_uris": {"ios": "https://dc.lft.to/lastmile_qr_scan", "android": "https://dc.lft.to/lastmile_qr_scan"}, "lon": -76.98756016666667, "bike_id": "b93f9ed1b4a4ba19e62655c17cce7d9f", "type": "electric_bike", "name": "b93f9ed1b4a4ba19e62655c17cce7d9f"}, {"is_disabled": 0, "is_reserved": 0, "fusion_lat": 0.0, "lat": 38.918350833333335, "fusion_lon": 0.0, "rental_uris": {"ios": "https://dc.lft.to/lastmile_qr_scan", "android": "https://dc.lft.to/lastmile_qr_scan"}, "lon": -77.040206, "bike_id": "535cd0a5db2c84833f6468724f4f1074", "type": "electric_scooter", "name": "535cd0a5db2c84833f6468724f4f1074"}, {"is_disabled": 0, "is_reserved": 0, "fusion_lat": 0.0, "lat": 38.924227333333334, "fusion_lon": 0.0, "rental_uris": {"ios": "https://dc.lft.to/lastmile_qr_scan", "android": "https://dc.lft.to/lastmile_qr_scan"}, "lon": -77.02006283333333, "bike_id": "b3c7c3797438f42359e37816903625f9", "type": "electric_scooter", "name": "b3c7c3797438f42359e37816903625f9"}, {"is_disabled": 0, "is_reserved": 0, "fusion_lat": 0.0, "lat": 38.92393966666667, "fusion_lon": 0.0, "rental_uris": {"ios": "https://dc.lft.to/lastmile_qr_scan", "android": "https://dc.lft.to/lastmile_qr_scan"}, "lon": -77.03640066666667, "bike_id": "d4a4ee9c8e1110f096d5225ba87f0e44", "type": "electric_scooter", "name": "d4a4ee9c8e1110f096d5225ba87f0e44"}, {"is_disabled": 0, "is_reserved": 0, "fusion_lat": 0.0, "lat": 38.83601783333334, "fusion_lon": 0.0, "rental_uris": {"ios": "https://dc.lft.to/lastmile_qr_scan", "android": "https://dc.lft.to/lastmile_qr_scan"}, "lon": -77.0037485, "bike_id": "a424538915e7eac2ef9fa24641c50a2f", "type": "electric_bike", "name": "a424538915e7eac2ef9fa24641c50a2f"}, {"is_disabled": 0, "is_reserved": 0, "fusion_lat": 0.0, "lat": 38.904180833333335, "fusion_lon": 0.0, "rental_uris": {"ios": "https://dc.lft.to/lastmile_qr_scan", "android": "https://dc.lft.to/lastmile_qr_scan"}, "lon": -77.05131583333333, "bike_id": "d27b26f3d0a2333846e02746a57e3bb0", "type": "electric_scooter", "name": "d27b26f3d0a2333846e02746a57e3bb0"}, {"is_disabled": 0, "is_reserved": 0, "fusion_lat": 0.0, "lat": 38.8988875, "fusion_lon": 0.0, "rental_uris": {"ios": "https://dc.lft.to/lastmile_qr_scan", "android": "https://dc.lft.to/lastmile_qr_scan"}, "lon": -77.01956916666667, "bike_id": "6d4ac191a5f0c7af8086e0b257b8092f", "type": "electric_scooter", "name": "6d4ac191a5f0c7af8086e0b257b8092f"}, {"is_disabled": 0, "is_reserved": 0, "fusion_lat": 0.0, "lat": 38.846208833333336, "fusion_lon": 0.0, "rental_uris": {"ios": "https://dc.lft.to/lastmile_qr_scan", "android": "https://dc.lft.to/lastmile_qr_scan"}, "lon": -76.97837516666667, "bike_id": "c3851d9ce63117fa66ec1827f555c654", "type": "electric_bike", "name": "c3851d9ce63117fa66ec1827f555c654"}, {"is_disabled": 0, "is_reserved": 0, "fusion_lat": 0.0, "lat": 38.908842, "fusion_lon": 0.0, "rental_uris": {"ios": "https://dc.lft.to/lastmile_qr_scan", "android": "https://dc.lft.to/lastmile_qr_scan"}, "lon": -77.03455483333333, "bike_id": "11226e9c98d9701834d3b714885b9f78", "type": "electric_scooter", "name": "11226e9c98d9701834d3b714885b9f78"}, {"is_disabled": 0, "is_reserved": 0, "fusion_lat": 0.0, "lat": 38.88711683333333, "fusion_lon": 0.0, "rental_uris": {"ios": "https://dc.lft.to/lastmile_qr_scan", "android": "https://dc.lft.to/lastmile_qr_scan"}, "lon": -76.9834525, "bike_id": "adce4d30660a2187547841050fcb7b2d", "type": "electric_scooter", "name": "adce4d30660a2187547841050fcb7b2d"}, {"is_disabled": 0, "is_reserved": 0, "fusion_lat": 0.0, "lat": 38.88024033333333, "fusion_lon": 0.0, "rental_uris": {"ios": "https://dc.lft.to/lastmile_qr_scan", "android": "https://dc.lft.to/lastmile_qr_scan"}, "lon": -76.94323733333333, "bike_id": "530d478807882d9a2f246d1998331ef3", "type": "electric_scooter", "name": "530d478807882d9a2f246d1998331ef3"}, {"is_disabled": 0, "is_reserved": 0, "fusion_lat": 0.0, "lat": 38.90633783333333, "fusion_lon": 0.0, "rental_uris": {"ios": "https://dc.lft.to/lastmile_qr_scan", "android": "https://dc.lft.to/lastmile_qr_scan"}, "lon": -77.07036566666666, "bike_id": "094c1be3949f436c80a1a9c95c6727d5", "type": "electric_scooter", "name": "094c1be3949f436c80a1a9c95c6727d5"}, {"is_disabled": 0, "is_reserved": 0, "fusion_lat": 0.0, "lat": 38.90045966666667, "fusion_lon": 0.0, "rental_uris": {"ios": "https://dc.lft.to/lastmile_qr_scan", "android": "https://dc.lft.to/lastmile_qr_scan"}, "lon": -77.01781666666666, "bike_id": "0905451f6255f3e93602eaf05042b14f", "type": "electric_scooter", "name": "0905451f6255f3e93602eaf05042b14f"}, {"is_disabled": 0, "is_reserved": 0, "fusion_lat": 0.0, "lat": 38.846489166666665, "fusion_lon": 0.0, "rental_uris": {"ios": "https://dc.lft.to/lastmile_qr_scan", "android": "https://dc.lft.to/lastmile_qr_scan"}, "lon": -77.00366983333333, "bike_id": "ba4726540eac5da5dcde6c1572b8a46e", "type": "electric_scooter", "name": "ba4726540eac5da5dcde6c1572b8a46e"}, {"is_disabled": 0, "is_reserved": 0, "fusion_lat": 0.0, "lat": 38.91836983333334, "fusion_lon": 0.0, "rental_uris": {"ios": "https://dc.lft.to/lastmile_qr_scan", "android": "https://dc.lft.to/lastmile_qr_scan"}, "lon": -77.0231125, "bike_id": "467a35dc7dbcdf95ac49489405bf4f94", "type": "electric_scooter", "name": "467a35dc7dbcdf95ac49489405bf4f94"}, {"is_disabled": 0, "is_reserved": 0, "fusion_lat": 0.0, "lat": 38.935328166666665, "fusion_lon": 0.0, "rental_uris": {"ios": "https://dc.lft.to/lastmile_qr_scan", "android": "https://dc.lft.to/lastmile_qr_scan"}, "lon": -77.02842866666667, "bike_id": "c2b7fa0c84ec22d0001c84500ba98378", "type": "electric_scooter", "name": "c2b7fa0c84ec22d0001c84500ba98378"}, {"is_disabled": 0, "is_reserved": 0, "fusion_lat": 0.0, "lat": 38.91936583333333, "fusion_lon": 0.0, "rental_uris": {"ios": "https://dc.lft.to/lastmile_qr_scan", "android": "https://dc.lft.to/lastmile_qr_scan"}, "lon": -77.02316933333333, "bike_id": "bbca7d40b774f3bc0d7011bc98991c09", "type": "electric_scooter", "name": "bbca7d40b774f3bc0d7011bc98991c09"}, {"is_disabled": 0, "is_reserved": 0, "fusion_lat": 0.0, "lat": 38.900371666666665, "fusion_lon": 0.0, "rental_uris": {"ios": "https://dc.lft.to/lastmile_qr_scan", "android": "https://dc.lft.to/lastmile_qr_scan"}, "lon": -77.00365033333334, "bike_id": "ffd3175616c4eb8c229ac0ea46aec871", "type": "electric_scooter", "name": "ffd3175616c4eb8c229ac0ea46aec871"}, {"is_disabled": 0, "is_reserved": 0, "fusion_lat": 0.0, "lat": 38.87292733333334, "fusion_lon": 0.0, "rental_uris": {"ios": "https://dc.lft.to/lastmile_qr_scan", "android": "https://dc.lft.to/lastmile_qr_scan"}, "lon": -77.0098545, "bike_id": "36d1ea5f8bd0a457b9a67ab5731525d6", "type": "electric_scooter", "name": "36d1ea5f8bd0a457b9a67ab5731525d6"}, {"is_disabled": 0, "is_reserved": 0, "fusion_lat": 0.0, "lat": 38.926716166666665, "fusion_lon": 0.0, "rental_uris": {"ios": "https://dc.lft.to/lastmile_qr_scan", "android": "https://dc.lft.to/lastmile_qr_scan"}, "lon": -77.0302085, "bike_id": "0b45a244222837eebcdd483e8fe56880", "type": "electric_scooter", "name": "0b45a244222837eebcdd483e8fe56880"}, {"is_disabled": 0, "is_reserved": 0, "fusion_lat": 0.0, "lat": 38.92486316666667, "fusion_lon": 0.0, "rental_uris": {"ios": "https://dc.lft.to/lastmile_qr_scan", "android": "https://dc.lft.to/lastmile_qr_scan"}, "lon": -77.0266225, "bike_id": "eb8968df2b4380ea056c8ba4b47c8c25", "type": "electric_scooter", "name": "eb8968df2b4380ea056c8ba4b47c8c25"}, {"is_disabled": 0, "is_reserved": 0, "fusion_lat": 0.0, "lat": 38.922097, "fusion_lon": 0.0, "rental_uris": {"ios": "https://dc.lft.to/lastmile_qr_scan", "android": "https://dc.lft.to/lastmile_qr_scan"}, "lon": -77.037762, "bike_id": "e2e9d0e71aa2bb3d66549abfaa41b322", "type": "electric_scooter", "name": "e2e9d0e71aa2bb3d66549abfaa41b322"}, {"is_disabled": 0, "is_reserved": 0, "fusion_lat": 0.0, "lat": 38.92815183333333, "fusion_lon": 0.0, "rental_uris": {"ios": "https://dc.lft.to/lastmile_qr_scan", "android": "https://dc.lft.to/lastmile_qr_scan"}, "lon": -77.04358183333333, "bike_id": "3eacf676c4dfff348aefc0f515b7dc3f", "type": "electric_scooter", "name": "3eacf676c4dfff348aefc0f515b7dc3f"}, {"is_disabled": 0, "is_reserved": 0, "fusion_lat": 0.0, "lat": 38.9353155, "fusion_lon": 0.0, "rental_uris": {"ios": "https://dc.lft.to/lastmile_qr_scan", "android": "https://dc.lft.to/lastmile_qr_scan"}, "lon": -77.02351866666666, "bike_id": "0affa8bb625128c22c8e0ac86360525a", "type": "electric_scooter", "name": "0affa8bb625128c22c8e0ac86360525a"}, {"is_disabled": 0, "is_reserved": 0, "fusion_lat": 0.0, "lat": 38.90077616666667, "fusion_lon": 0.0, "rental_uris": {"ios": "https://dc.lft.to/lastmile_qr_scan", "android": "https://dc.lft.to/lastmile_qr_scan"}, "lon": -77.0187545, "bike_id": "5d80bdaf691139a791058400e99289d1", "type": "electric_scooter", "name": "5d80bdaf691139a791058400e99289d1"}, {"is_disabled": 0, "is_reserved": 0, "fusion_lat": 0.0, "lat": 38.9284895, "fusion_lon": 0.0, "rental_uris": {"ios": "https://dc.lft.to/lastmile_qr_scan", "android": "https://dc.lft.to/lastmile_qr_scan"}, "lon": -77.03580583333333, "bike_id": "585ea667a873625cbe0465d601ac00d2", "type": "electric_scooter", "name": "585ea667a873625cbe0465d601ac00d2"}, {"is_disabled": 0, "is_reserved": 0, "fusion_lat": 0.0, "lat": 38.94133133333333, "fusion_lon": 0.0, "rental_uris": {"ios": "https://dc.lft.to/lastmile_qr_scan", "android": "https://dc.lft.to/lastmile_qr_scan"}, "lon": -77.023221, "bike_id": "0e912b7f2f00dd197532510c8574a222", "type": "electric_scooter", "name": "0e912b7f2f00dd197532510c8574a222"}, {"is_disabled": 0, "is_reserved": 0, "fusion_lat": 0.0, "lat": 38.90332033333333, "fusion_lon": 0.0, "rental_uris": {"ios": "https://dc.lft.to/lastmile_qr_scan", "android": "https://dc.lft.to/lastmile_qr_scan"}, "lon": -77.019679, "bike_id": "a424af7dcfc25c9a4297f06eaa3abb4c", "type": "electric_scooter", "name": "a424af7dcfc25c9a4297f06eaa3abb4c"}, {"is_disabled": 0, "is_reserved": 0, "fusion_lat": 0.0, "lat": 38.80523133333333, "fusion_lon": 0.0, "rental_uris": {"ios": "https://dc.lft.to/lastmile_qr_scan", "android": "https://dc.lft.to/lastmile_qr_scan"}, "lon": -77.04335916666666, "bike_id": "84b397970e3eddd1d3f4c632e94ff47f", "type": "electric_bike", "name": "84b397970e3eddd1d3f4c632e94ff47f"}, {"is_disabled": 0, "is_reserved": 0, "fusion_lat": 0.0, "lat": 38.967978, "fusion_lon": 0.0, "rental_uris": {"ios": "https://dc.lft.to/lastmile_qr_scan", "android": "https://dc.lft.to/lastmile_qr_scan"}, "lon": -77.02431016666667, "bike_id": "f708698ec10b74b896d3e0a1a5cd3fec", "type": "electric_scooter", "name": "f708698ec10b74b896d3e0a1a5cd3fec"}, {"is_disabled": 0, "is_reserved": 0, "fusion_lat": 0.0, "lat": 38.908719833333336, "fusion_lon": 0.0, "rental_uris": {"ios": "https://dc.lft.to/lastmile_qr_scan", "android": "https://dc.lft.to/lastmile_qr_scan"}, "lon": -77.00399466666667, "bike_id": "2aa736a9981c6bcd77220a0e64c2bc82", "type": "electric_scooter", "name": "2aa736a9981c6bcd77220a0e64c2bc82"}, {"is_disabled": 0, "is_reserved": 0, "fusion_lat": 0.0, "lat": 38.908472, "fusion_lon": 0.0, "rental_uris": {"ios": "https://dc.lft.to/lastmile_qr_scan", "android": "https://dc.lft.to/lastmile_qr_scan"}, "lon": -76.93447983333333, "bike_id": "d57e806d62c9869c73d90532ddf6e31e", "type": "electric_scooter", "name": "d57e806d62c9869c73d90532ddf6e31e"}, {"is_disabled": 0, "is_reserved": 0, "fusion_lat": 0.0, "lat": 38.965536166666666, "fusion_lon": 0.0, "rental_uris": {"ios": "https://dc.lft.to/lastmile_qr_scan", "android": "https://dc.lft.to/lastmile_qr_scan"}, "lon": -77.016304, "bike_id": "219ee9aa533463d44d85d646d51de675", "type": "electric_bike", "name": "219ee9aa533463d44d85d646d51de675"}, {"is_disabled": 0, "is_reserved": 0, "fusion_lat": 0.0, "lat": 38.881245666666665, "fusion_lon": 0.0, "rental_uris": {"ios": "https://dc.lft.to/lastmile_qr_scan", "android": "https://dc.lft.to/lastmile_qr_scan"}, "lon": -76.99285466666667, "bike_id": "d263f1750222be66d09731c6fce3f254", "type": "electric_scooter", "name": "d263f1750222be66d09731c6fce3f254"}, {"is_disabled": 0, "is_reserved": 0, "fusion_lat": 0.0, "lat": 38.944946, "fusion_lon": 0.0, "rental_uris": {"ios": "https://dc.lft.to/lastmile_qr_scan", "android": "https://dc.lft.to/lastmile_qr_scan"}, "lon": -77.00738033333333, "bike_id": "6bfe651211f28845a8846ee0e94dd491", "type": "electric_bike", "name": "6bfe651211f28845a8846ee0e94dd491"}, {"is_disabled": 0, "is_reserved": 0, "fusion_lat": 0.0, "lat": 38.8783435, "fusion_lon": 0.0, "rental_uris": {"ios": "https://dc.lft.to/lastmile_qr_scan", "android": "https://dc.lft.to/lastmile_qr_scan"}, "lon": -77.00545083333333, "bike_id": "68d5cbdad4fe54cd6b674e7eebcc9ee1", "type": "electric_scooter", "name": "68d5cbdad4fe54cd6b674e7eebcc9ee1"},