{"data": {"bikes": [{"fusion_lat": 0.0, "is_disabled": 0, "lat": 38.90141966666667, "lon": -77.02936383333333, "fusion_lon": 0.0, "bike_id": "64e3f149d62d83ceb818e89d842d8a2a", "type": "electric_scooter", "name": "64e3f149d62d83ceb818e89d842d8a2a", "is_reserved": 0, "rental_uris": {"ios": "https://dc.lft.to/lastmile_qr_scan", "android": "https://dc.lft.to/lastmile_qr_scan"}}, {"fusion_lat": 0.0, "is_disabled": 0, "lat": 38.916051333333336, "lon": -77.0230165, "fusion_lon": 0.0, "bike_id": "b4fecb4ad7f2a17c20dce3b456364c42", "type": "electric_scooter", "name": "b4fecb4ad7f2a17c20dce3b456364c42", "is_reserved": 0, "rental_uris": {"ios": "https://dc.lft.to/lastmile_qr_scan", "android": "https://dc.lft.to/lastmile_qr_scan"}}, {"fusion_lat": 0.0, "is_disabled": 0, "lat": 38.92510383333333, "lon": -77.00227033333333, "fusion_lon": 0.0, "bike_id": "3109f4f6c81cee91f03ed2942abed5ba", "type": "electric_scooter", "name": "3109f4f6c81cee91f03ed2942abed5ba", "is_reserved": 0, "rental_uris": {"ios": "https://dc.lft.to/lastmile_qr_scan", "android": "https://dc.lft.to/lastmile_qr_scan"}}, {"fusion_lat": 0.0, "is_disabled": 0, "lat": 38.887156833333336, "lon": -77.02836316666667, "fusion_lon": 0.0, "bike_id": "b577fc764ac86dc42921121861d451dd", "type": "electric_scooter", "name": "b577fc764ac86dc42921121861d451dd", "is_reserved": 0, "rental_uris": {"ios": "https://dc.lft.to/lastmile_qr_scan", "android": "https://dc.lft.to/lastmile_qr_scan"}}, {"fusion_lat": 0.0, "is_disabled": 0, "lat": 38.926276666666666, "lon": -77.07332933333333, "fusion_lon": 0.0, "bike_id": "7816a0ce9376a7631831b46fe35ae103", "type": "electric_scooter", "name": "7816a0ce9376a7631831b46fe35ae103", "is_reserved": 0, "rental_uris": {"ios": "https://dc.lft.to/lastmile_qr_scan", "android": "https://dc.lft.to/lastmile_qr_scan"}}, {"fusion_lat": 0.0, "is_disabled": 0, "lat": 38.8736945, "lon": -77.00100983333333, "fusion_lon": 0.0, "bike_id": "5bb2ee62800407fb122a481a43c833c0", "type": "electric_scooter", "name": "5bb2ee62800407fb122a481a43c833c0", "is_reserved": 0, "rental_uris": {"ios": "https://dc.lft.to/lastmile_qr_scan", "android": "https://dc.lft.to/lastmile_qr_scan"}}, {"fusion_lat": 0.0, "is_disabled": 0, "lat": 38.90058833333333, "lon": -77.048119, "fusion_lon": 0.0, "bike_id": "87ca484d0dc2aa449df02bab6f08a3e1", "type": "electric_scooter", "name": "87ca484d0dc2aa449df02bab6f08a3e1", "is_reserved": 0, "rental_uris": {"ios": "https://dc.lft.to/lastmile_qr_scan", "android": "https://dc.lft.to/lastmile_qr_scan"}}, {"fusion_lat": 0.0, "is_disabled": 0, "lat": 38.92151166666667, "lon": -77.03513633333333, "fusion_lon": 0.0, "bike_id": "73a5f0c88c8f88841918695627fa9506", "type": "electric_scooter", "name": "73a5f0c88c8f88841918695627fa9506", "is_reserved": 0, "rental_uris": {"ios": "https://dc.lft.to/lastmile_qr_scan", "android": "https://dc.lft.to/lastmile_qr_scan"}}, {"fusion_lat": 0.0, "is_disabled": 0, "lat": 38.92250416666667, "lon": -77.01944983333334, "fusion_lon": 0.0, "bike_id": "02175c7bb36088820f8260e9e12b6989", "type": "electric_scooter", "name": "02175c7bb36088820f8260e9e12b6989", "is_reserved": 0, "rental_uris": {"ios": "https://dc.lft.to/lastmile_qr_scan", "android": "https://dc.lft.to/lastmile_qr_scan"}}, {"fusion_lat": 0.0, "is_disabled": 0, "lat": 38.9090115, "lon": -77.04314216666667, "fusion_lon": 0.0, "bike_id": "c86d89421bc7eecc0c1cc82229e6ba92", "type": "electric_scooter", "name": "c86d89421bc7eecc0c1cc82229e6ba92", "is_reserved": 0, "rental_uris": {"ios": "https://dc.lft.to/lastmile_qr_scan", "android": "https://dc.lft.to/lastmile_qr_scan"}}, {"fusion_lat": 0.0, "is_disabled": 0, "lat": 38.88641, "lon": -77.00208916666666, "fusion_lon": 0.0, "bike_id": "f6b1628ea2a8257ef9552ea29f80422d", "type": "electric_scooter", "name": "f6b1628ea2a8257ef9552ea29f80422d", "is_reserved": 0, "rental_uris": {"ios": "https://dc.lft.to/lastmile_qr_scan", "android": "https://dc.lft.to/lastmile_qr_scan"}}, {"fusion_lat": 0.0, "is_disabled": 0, "lat": 38.903929166666664, "lon": -77.053405, "fusion_lon": 0.0, "bike_id": "d2ad9459882286eea9b540ea9546b29e", "type": "electric_scooter", "name": "d2ad9459882286eea9b540ea9546b29e", "is_reserved": 0, "rental_uris": {"ios": "https://dc.lft.to/lastmile_qr_scan", "android": "https://dc.lft.to/lastmile_qr_scan"}}, {"fusion_lat": 0.0, "is_disabled": 0, "lat": 38.908688833333336, "lon": -77.0377125, "fusion_lon": 0.0, "bike_id": "d3b17c20cb5ed489cc2c6632460b7ca6", "type": "electric_scooter", "name": "d3b17c20cb5ed489cc2c6632460b7ca6", "is_reserved": 0, "rental_uris": {"ios": "https://dc.lft.to/lastmile_qr_scan", "android": "https://dc.lft.to/lastmile_qr_scan"}}, {"fusion_lat": 0.0, "is_disabled": 0, "lat": 38.936574, "lon": -77.066116, "fusion_lon": 0.0, "bike_id": "d94f0c89c0edac552aefadcca48cc420", "type": "electric_scooter", "name": "d94f0c89c0edac552aefadcca48cc420", "is_reserved": 0, "rental_uris": {"ios": "https://dc.lft.to/lastmile_qr_scan", "android": "https://dc.lft.to/lastmile_qr_scan"}}, {"fusion_lat": 0.0, "is_disabled": 0, "lat": 38.91678666666667, "lon": -77.0157865, "fusion_lon": 0.0, "bike_id": "f1d5c23f7aa9e65af3a6401dd49742f4", "type": "electric_scooter", "name": "f1d5c23f7aa9e65af3a6401dd49742f4", "is_reserved": 0, "rental_uris": {"ios": "https://dc.lft.to/lastmile_qr_scan", "android": "https://dc.lft.to/lastmile_qr_scan"}}, {"fusion_lat": 0.0, "is_disabled": 0, "lat": 38.93011033333333, "lon": -77.02425033333333, "fusion_lon": 0.0, "bike_id": "e95d9cb0a066181c1068a58a9844319d", "type": "electric_scooter", "name": "e95d9cb0a066181c1068a58a9844319d", "is_reserved": 0, "rental_uris": {"ios": "https://dc.lft.to/lastmile_qr_scan", "android": "https://dc.lft.to/lastmile_qr_scan"}}, {"fusion_lat": 0.0, "is_disabled": 0, "lat": 38.87658716666667, "lon": -77.000712, "fusion_lon": 0.0, "bike_id": "b1ba3480315e7f5169ab220021588027", "type": "electric_scooter", "name": "b1ba3480315e7f5169ab220021588027", "is_reserved": 0, "rental_uris": {"ios": "https://dc.lft.to/lastmile_qr_scan", "android": "https://dc.lft.to/lastmile_qr_scan"}}, {"fusion_lat": 0.0, "is_disabled": 0, "lat": 38.9248655, "lon": -77.0227565, "fusion_lon": 0.0, "bike_id": "eebf8eeffdc2b0172df533b3d83f2565", "type": "electric_scooter", "name": "eebf8eeffdc2b0172df533b3d83f2565", "is_reserved": 0, "rental_uris": {"ios": "https://dc.lft.to/lastmile_qr_scan", "android": "https://dc.lft.to/lastmile_qr_scan"}}, {"fusion_lat": 0.0, "is_disabled": 0, "lat": 38.91385416666667, "lon": -76.984166, "fusion_lon": 0.0, "bike_id": "106e863a3a107bdaab74d908103f78b6", "type": "electric_scooter", "name": "106e863a3a107bdaab74d908103f78b6", "is_reserved": 0, "rental_uris": {"ios": "https://dc.lft.to/lastmile_qr_scan", "android": "https://dc.lft.to/lastmile_qr_scan"}}, {"fusion_lat": 0.0, "is_disabled": 0, "lat": 38.916331666666665, "lon": -77.025527, "fusion_lon": 0.0, "bike_id": "d581122ebc7f0bec8dc5ef5ecbf2ae55", "type": "electric_scooter", "name": "d581122ebc7f0bec8dc5ef5ecbf2ae55", "is_reserved": 0, "rental_uris": {"ios": "https://dc.lft.to/lastmile_qr_scan", "android": "https://dc.lft.to/lastmile_qr_scan"}}, {"fusion_lat": 0.0, "is_disabled": 0, "lat": 38.89625083333333, "lon": -77.02784216666667, "fusion_lon": 0.0, "bike_id": "8eb6bf57269c97e0fb8e72110442655d", "type": "electric_scooter", "name": "8eb6bf57269c97e0fb8e72110442655d", "is_reserved": 0, "rental_uris": {"ios": "https://dc.lft.to/lastmile_qr_scan", "android": "https://dc.lft.to/lastmile_qr_scan"}}, {"fusion_lat": 0.0, "is_disabled": 0, "lat": 38.91401666666667, "lon": -77.048899, "fusion_lon": 0.0, "bike_id": "89b9cb5c788e0e24dbb72a9696aab2e6", "type": "electric_scooter", "name": "89b9cb5c788e0e24dbb72a9696aab2e6", "is_reserved": 0, "rental_uris": {"ios": "https://dc.lft.to/lastmile_qr_scan", "android": "https://dc.lft.to/lastmile_qr_scan"}}, {"fusion_lat": 0.0, "is_disabled": 0, "lat": 38.94182716666667, "lon": -77.02493083333333, "fusion_lon": 0.0, "bike_id": "307a391f1c7529996d9cad17fc003da3", "type": "electric_scooter", "name": "307a391f1c7529996d9cad17fc003da3", "is_reserved": 0, "rental_uris": {"ios": "https://dc.lft.to/lastmile_qr_scan", "android": "https://dc.lft.to/lastmile_qr_scan"}}, {"fusion_lat": 0.0, "is_disabled": 0, "lat": 38.916217, "lon": -77.05064383333334, "fusion_lon": 0.0, "bike_id": "5783e8f5ee581cf7f41ecc8460f70f6b", "type": "electric_scooter", "name": "5783e8f5ee581cf7f41ecc8460f70f6b", "is_reserved": 0, "rental_uris": {"ios": "https://dc.lft.to/lastmile_qr_scan", "android": "https://dc.lft.to/lastmile_qr_scan"}}, {"fusion_lat": 0.0, "is_disabled": 0, "lat": 38.924167833333335, "lon": -77.02128033333334, "fusion_lon": 0.0, "bike_id": "7e9ee8207594eb621b060a515c8dbaac", "type": "electric_scooter", "name": "7e9ee8207594eb621b060a515c8dbaac", "is_reserved": 0, "rental_uris": {"ios": "https://dc.lft.to/lastmile_qr_scan", "android": "https://dc.lft.to/lastmile_qr_scan"}}, {"fusion_lat": 0.0, "is_disabled": 0, "lat": 38.895115, "lon": -76.948877, "fusion_lon": 0.0, "bike_id": "50790812d8c18aba08693548f07a6458", "type": "electric_scooter", "name": "50790812d8c18aba08693548f07a6458", "is_reserved": 0, "rental_uris": {"ios": "https://dc.lft.to/lastmile_qr_scan", "android": "https://dc.lft.to/lastmile_qr_scan"}}, {"fusion_lat": 0.0, "is_disabled": 0, "lat": 38.94259533333334, "lon": -77.041385, "fusion_lon": 0.0, "bike_id": "a775a7bbe5296cb31e6e0f23c9fe7309", "type": "electric_scooter", "name": "a775a7bbe5296cb31e6e0f23c9fe7309", "is_reserved": 0, "rental_uris": {"ios": "https://dc.lft.to/lastmile_qr_scan", "android": "https://dc.lft.to/lastmile_qr_scan"}}, {"fusion_lat": 0.0, "is_disabled": 0, "lat": 38.92486383333333, "lon": -77.052144, "fusion_lon": 0.0, "bike_id": "0d6f64985200dbb63a7f9518cfd2f599", "type": "electric_scooter", "name": "0d6f64985200dbb63a7f9518cfd2f599", "is_reserved": 0, "rental_uris": {"ios": "https://dc.lft.to/lastmile_qr_scan", "android": "https://dc.lft.to/lastmile_qr_scan"}}, {"fusion_lat": 0.0, "is_disabled": 0, "lat": 38.875782666666666, "lon": -77.234135, "fusion_lon": 0.0, "bike_id": "7992b6e1b2b060b117530111b028db2d", "type": "electric_bike", "name": "7992b6e1b2b060b117530111b028db2d", "is_reserved": 0, "rental_uris": {"ios": "https://dc.lft.to/lastmile_qr_scan", "android": "https://dc.lft.to/lastmile_qr_scan"}}, {"fusion_lat": 0.0, "is_disabled": 0, "lat": 38.89543233333333, "lon": -77.01127466666667, "fusion_lon": 0.0, "bike_id": "38151024cf7e952cf04845383c35ab57", "type": "electric_scooter", "name": "38151024cf7e952cf04845383c35ab57", "is_reserved": 0, "rental_uris": {"ios": "https://dc.lft.to/lastmile_qr_scan", "android": "https://dc.lft.to/lastmile_qr_scan"}}, {"fusion_lat": 0.0, "is_disabled": 0, "lat": 38.89825316666666, "lon": -77.02969533333334, "fusion_lon": 0.0, "bike_id": "c3752256a8babc6c07a84c0334787e3b", "type": "electric_scooter", "name": "c3752256a8babc6c07a84c0334787e3b", "is_reserved": 0, "rental_uris": {"ios": "https://dc.lft.to/lastmile_qr_scan", "android": "https://dc.lft.to/lastmile_qr_scan"}}, {"fusion_lat": 0.0, "is_disabled": 0, "lat": 38.90405116666667, "lon": -77.04353216666667, "fusion_lon": 0.0, "bike_id": "cb3a95b5bb88a8e3e9a73f3351fa8218", "type": "electric_scooter", "name": "cb3a95b5bb88a8e3e9a73f3351fa8218", "is_reserved": 0, "rental_uris": {"ios": "https://dc.lft.to/lastmile_qr_scan", "android": "https://dc.lft.to/lastmile_qr_scan"}}, {"fusion_lat": 0.0, "is_disabled": 0, "lat": 38.892342, "lon": -77.03214683333333, "fusion_lon": 0.0, "bike_id": "441c55fc013ee3e3eae81cb3ab69c240", "type": "electric_scooter", "name": "441c55fc013ee3e3eae81cb3ab69c240", "is_reserved": 0, "rental_uris": {"ios": "https://dc.lft.to/lastmile_qr_scan", "android": "https://dc.lft.to/lastmile_qr_scan"}}, {"fusion_lat": 0.0, "is_disabled": 0, "lat": 38.880366, "lon": -76.92727966666666, "fusion_lon": 0.0, "bike_id": "102f6ee44fbf7ffcf0e4f50f95f4ab07", "type": "electric_scooter", "name": "102f6ee44fbf7ffcf0e4f50f95f4ab07", "is_reserved": 0, "rental_uris": {"ios": "https://dc.lft.to/lastmile_qr_scan", "android": "https://dc.lft.to/lastmile_qr_scan"}}, {"fusion_lat": 0.0, "is_disabled": 0, "lat": 38.92229716666667, "lon": -77.0425145, "fusion_lon": 0.0, "bike_id": "97ae870d7195b8d014eb843026157844", "type": "electric_scooter", "name": "97ae870d7195b8d014eb843026157844", "is_reserved": 0, "rental_uris": {"ios": "https://dc.lft.to/lastmile_qr_scan", "android": "https://dc.lft.to/lastmile_qr_scan"}}, {"fusion_lat": 0.0, "is_disabled": 0, "lat": 38.91138333333333, "lon": -77.0653225, "fusion_lon": 0.0, "bike_id": "39ffb479ca14303034487d4e31436641", "type": "electric_scooter", "name": "39ffb479ca14303034487d4e31436641", "is_reserved": 0, "rental_uris": {"ios": "https://dc.lft.to/lastmile_qr_scan", "android": "https://dc.lft.to/lastmile_qr_scan"}}, {"fusion_lat": 0.0, "is_disabled": 0, "lat": 38.92579283333333, "lon": -77.0364615, "fusion_lon": 0.0, "bike_id": "8cceac5f88f118755eae2e3fe1c75974", "type": "electric_scooter", "name": "8cceac5f88f118755eae2e3fe1c75974", "is_reserved": 0, "rental_uris": {"ios": "https://dc.lft.to/lastmile_qr_scan", "android": "https://dc.lft.to/lastmile_qr_scan"}}, {"fusion_lat": 0.0, "is_disabled": 0, "lat": 38.896157, "lon": -77.02308216666667, "fusion_lon": 0.0, "bike_id": "9838e77eb607ec56ceacc3f6ef67553c", "type": "electric_scooter", "name": "9838e77eb607ec56ceacc3f6ef67553c", "is_reserved": 0, "rental_uris": {"ios": "https://dc.lft.to/lastmile_qr_scan", "android": "https://dc.lft.to/lastmile_qr_scan"}}, {"fusion_lat": 0.0, "is_disabled": 0, "lat": 38.90254433333333, "lon": -77.0382365, "fusion_lon": 0.0, "bike_id": "a904b62d2d8d71e993e2a782e1190be3", "type": "electric_scooter", "name": "a904b62d2d8d71e993e2a782e1190be3", "is_reserved": 0, "rental_uris": {"ios": "https://dc.lft.to/lastmile_qr_scan", "android": "https://dc.lft.to/lastmile_qr_scan"}}, {"fusion_lat": 0.0, "is_disabled": 0, "lat": 38.9025755, "lon": -77.03852516666667, "fusion_lon": 0.0, "bike_id": "10a88bb3394a1b6d23f42880c20e81da", "type": "electric_scooter", "name": "10a88bb3394a1b6d23f42880c20e81da", "is_reserved": 0, "rental_uris": {"ios": "https://dc.lft.to/lastmile_qr_scan", "android": "https://dc.lft.to/lastmile_qr_scan"}}, {"fusion_lat": 0.0, "is_disabled": 0, "lat": 39.029203833333334, "lon": -77.01363516666666, "fusion_lon": 0.0, "bike_id": "3bdedfd2098d926f51e2edbf16c1636e", "type": "electric_bike", "name": "3bdedfd2098d926f51e2edbf16c1636e", "is_reserved": 0, "rental_uris": {"ios": "https://dc.lft.to/lastmile_qr_scan", "android": "https://dc.lft.to/lastmile_qr_scan"}}, {"fusion_lat": 0.0, "is_disabled": 0, "lat": 38.923412, "lon": -77.01907866666667, "fusion_lon": 0.0, "bike_id": "6173375c29bfc7f391e536b5a27a147c", "type": "electric_scooter", "name": "6173375c29bfc7f391e536b5a27a147c", "is_reserved": 0, "rental_uris": {"ios": "https://dc.lft.to/lastmile_qr_scan", "android": "https://dc.lft.to/lastmile_qr_scan"}}, {"fusion_lat": 0.0, "is_disabled": 0, "lat": 38.878011666666666, "lon": -76.98829633333334, "fusion_lon": 0.0, "bike_id": "9b11b8e79e4d685b9ad510106b1a21b4", "type": "electric_scooter", "name": "9b11b8e79e4d685b9ad510106b1a21b4", "is_reserved": 0, "rental_uris": {"ios": "https://dc.lft.to/lastmile_qr_scan", "android": "https://dc.lft.to/lastmile_qr_scan"}}, {"fusion_lat": 0.0, "is_disabled": 0, "lat": 38.857997, "lon": -76.98755983333334, "fusion_lon": 0.0, "bike_id": "6534c8240b5e66eb07a7144beae40323", "type": "electric_bike", "name": "6534c8240b5e66eb07a7144beae40323", "is_reserved": 0, "rental_uris": {"ios": "https://dc.lft.to/lastmile_qr_scan", "android": "https://dc.lft.to/lastmile_qr_scan"}}, {"fusion_lat": 0.0, "is_disabled": 0, "lat": 38.930601, "lon": -77.0394435, "fusion_lon": 0.0, "bike_id": "ba6244767e70c8fec88a141108efb228", "type": "electric_scooter", "name": "ba6244767e70c8fec88a141108efb228", "is_reserved": 0, "rental_uris": {"ios": "https://dc.lft.to/lastmile_qr_scan", "android": "https://dc.lft.to/lastmile_qr_scan"}}, {"fusion_lat": 0.0, "is_disabled": 0, "lat": 38.97553383333333, "lon": -77.026638, "fusion_lon": 0.0, "bike_id": "e23bfe283fe7470513cca7c80f16c096", "type": "electric_scooter", "name": "e23bfe283fe7470513cca7c80f16c096", "is_reserved": 0, "rental_uris": {"ios": "https://dc.lft.to/lastmile_qr_scan", "android": "https://dc.lft.to/lastmile_qr_scan"}}, {"fusion_lat": 0.0, "is_disabled": 0, "lat": 38.972589, "lon": -76.992815, "fusion_lon": 0.0, "bike_id": "5d278d68a212fdf42eba65857b9dd360", "type": "electric_bike", "name": "5d278d68a212fdf42eba65857b9dd360", "is_reserved": 0, "rental_uris": {"ios": "https://dc.lft.to/lastmile_qr_scan", "android": "https://dc.lft.to/lastmile_qr_scan"}}, {"fusion_lat": 0.0, "is_disabled": 0, "lat": 38.87701916666666, "lon": -76.9931945, "fusion_lon": 0.0, "bike_id": "e9acb6268ef6dbcff59ebe06abe81e70", "type": "electric_scooter", "name": "e9acb6268ef6dbcff59ebe06abe81e70", "is_reserved": 0, "rental_uris": {"ios": "https://dc.lft.to/lastmile_qr_scan", "android": "https://dc.lft.to/lastmile_qr_scan"}}, {"fusion_lat": 0.0, "is_disabled": 0, "lat": 38.871172666666666, "lon": -77.00910183333333, "fusion_lon": 0.0, "bike_id": "a6dcbfea257b18b0023d3e57890251e3", "type": "electric_scooter", "name": "a6dcbfea257b18b0023d3e57890251e3", "is_reserved": 0, "rental_uris": {"ios": "https://dc.lft.to/lastmile_qr_scan", "android": "https://dc.lft.to/lastmile_qr_scan"}}, {"fusion_lat": 0.0, "is_disabled": 0, "lat": 38.923151, "lon": -77.04623966666666, "fusion_lon": 0.0, "bike_id": "52bd9a7f3d6d11dd826fa5e698fe6841", "type": "electric_scooter", "name": "52bd9a7f3d6d11dd826fa5e698fe6841", "is_reserved": 0, "rental_uris": {"ios": "https://dc.lft.to/lastmile_qr_scan", "android": "https://dc.lft.to/lastmile_qr_scan"}}, {"fusion_lat": 0.0, "is_disabled": 0, "lat": 38.904031, "lon": -77.03253816666667, "fusion_lon": 0.0, "bike_id": "35d39cb78c004c56305654ba1a1dca3a", "type": "electric_scooter", "name": "35d39cb78c004c56305654ba1a1dca3a", "is_reserved": 0, "rental_uris": {"ios": "https://dc.lft.to/lastmile_qr_scan", "android": "https://dc.lft.to/lastmile_qr_scan"}}, {"fusion_lat": 0.0, "is_disabled": 0, "lat": 38.92349316666667, "lon": -77.02103733333334, "fusion_lon": 0.0, "bike_id": "fa32f297e38cc717bb555d10bc59788e", "type": "electric_scooter", "name": "fa32f297e38cc717bb555d10bc59788e", "is_reserved": 0, "rental_uris": {"ios": "https://dc.lft.to/lastmile_qr_scan", "android": "https://dc.lft.to/lastmile_qr_scan"}}, {"fusion_lat": 0.0, "is_disabled": 0, "lat": 38.9085575, "lon": -77.08080616666666, "fusion_lon": 0.0, "bike_id": "ee3598d87739f82f85310146ea138038", "type": "electric_bike", "name": "ee3598d87739f82f85310146ea138038", "is_reserved": 0, "rental_uris": {"ios": "https://dc.lft.to/lastmile_qr_scan", "android": "https://dc.lft.to/lastmile_qr_scan"}}, {"fusion_lat": 0.0, "is_disabled": 0, "lat": 38.85572483333333, "lon": -77.05337416666667, "fusion_lon": 0.0, "bike_id": "fa6ee5518b1a42c15ca7d10e5b389416", "type": "electric_bike", "name": "fa6ee5518b1a42c15ca7d10e5b389416", "is_reserved": 0, "rental_uris": {"ios": "https://dc.lft.to/lastmile_qr_scan", "android": "https://dc.lft.to/lastmile_qr_scan"}}, {"fusion_lat": 0.0, "is_disabled": 0, "lat": 38.93459416666666, "lon": -77.08640383333334, "fusion_lon": 0.0, "bike_id": "20fe360c48295b513b9518e48e5895f6", "type": "electric_scooter", "name": "20fe360c48295b513b9518e48e5895f6", "is_reserved": 0, "rental_uris": {"ios": "https://dc.lft.to/lastmile_qr_scan", "android": "https://dc.lft.to/lastmile_qr_scan"}}, {"fusion_lat": 0.0, "is_disabled": 0, "lat": 38.9080135, "lon": -77.0840275, "fusion_lon": 0.0, "bike_id": "2810a02e1a64587aa113781496ec4ffc", "type": "electric_scooter", "name": "2810a02e1a64587aa113781496ec4ffc", "is_reserved": 0, "rental_uris": {"ios": "https://dc.lft.to/lastmile_qr_scan", "android": "https://dc.lft.to/lastmile_qr_scan"}}, {"fusion_lat": 0.0, "is_disabled": 0, "lat": 38.917044, "lon": -77.03148083333333, "fusion_lon": 0.0, "bike_id": "adc9749334b6f3f8bbed88ba22295d36", "type": "electric_scooter", "name": "adc9749334b6f3f8bbed88ba22295d36", "is_reserved": 0, "rental_uris": {"ios": "https://dc.lft.to/lastmile_qr_scan", "android": "https://dc.lft.to/lastmile_qr_scan"}}, {"fusion_lat": 0.0, "is_disabled": 0, "lat": 38.842927333333336, "lon": -77.06382983333333, "fusion_lon": 0.0, "bike_id": "8b7f1ed8df529f692d9bbf9c62f4b9e3", "type": "electric_bike", "name": "8b7f1ed8df529f692d9bbf9c62f4b9e3", "is_reserved": 0, "rental_uris": {"ios": "https://dc.lft.to/lastmile_qr_scan", "android": "https://dc.lft.to/lastmile_qr_scan"}}, {"fusion_lat": 0.0, "is_disabled": 0, "lat": 38.9268415, "lon": -77.02971883333333, "fusion_lon": 0.0, "bike_id": "bdca57f340c89e182b61380f9cb7eca1", "type": "electric_scooter", "name": "bdca57f340c89e182b61380f9cb7eca1", "is_reserved": 0, "rental_uris": {"ios": "https://dc.lft.to/lastmile_qr_scan", "android": "https://dc.lft.to/lastmile_qr_scan"}}, {"fusion_lat": 0.0, "is_disabled": 0, "lat": 38.9223715, "lon": -77.0299055, "fusion_lon": 0.0, "bike_id": "b4e3a5fccc68eed6f01c35cd03ba37e2", "type": "electric_scooter", "name": "b4e3a5fccc68eed6f01c35cd03ba37e2", "is_reserved": 0, "rental_uris": {"ios": "https://dc.lft.to/lastmile_qr_scan", "android": "https://dc.lft.to/lastmile_qr_scan"}}, {"fusion_lat": 0.0, "is_disabled": 0, "lat": 38.97236566666667, "lon": -77.027162, "fusion_lon": 0.0, "bike_id": "f4d45388807c4bd8e5247c476bc4601a", "type": "electric_scooter", "name": "f4d45388807c4bd8e5247c476bc4601a", "is_reserved": 0, "rental_uris": {"ios": "https://dc.lft.to/lastmile_qr_scan", "android": "https://dc.lft.to/lastmile_qr_scan"}}, {"fusion_lat": 0.0, "is_disabled": 0, "lat": 38.9004995, "lon": -76.99149966666667, "fusion_lon": 0.0, "bike_id": "f6650da0662f0c40514c451b90cc2ce1", "type": "electric_scooter", "name": "f6650da0662f0c40514c451b90cc2ce1", "is_reserved": 0, "rental_uris": {"ios": "https://dc.lft.to/lastmile_qr_scan", "android": "https://dc.lft.to/lastmile_qr_scan"}}, {"fusion_lat": 0.0, "is_disabled": 0, "lat": 38.992313833333334, "lon": -77.0238295, "fusion_lon": 0.0, "bike_id": "2a75d3e5cec030ca2f9f50f07e01bfa0", "type": "electric_bike", "name": "2a75d3e5cec030ca2f9f50f07e01bfa0", "is_reserved": 0, "rental_uris": {"ios": "https://dc.lft.to/lastmile_qr_scan", "android": "https://dc.lft.to/lastmile_qr_scan"}}, {"fusion_lat": 0.0, "is_disabled": 0, "lat": 38.893564833333336, "lon": -77.00337333333333, "fusion_lon": 0.0, "bike_id": "bc0336e765921045d5b9d89f83f808f2", "type": "electric_scooter", "name": "bc0336e765921045d5b9d89f83f808f2", "is_reserved": 0, "rental_uris": {"ios": "https://dc.lft.to/lastmile_qr_scan", "android": "https://dc.lft.to/lastmile_qr_scan"}}, {"fusion_lat": 0.0, "is_disabled": 0, "lat": 38.92336383333333, "lon": -77.01903116666666, "fusion_lon": 0.0, "bike_id": "e2cb4fdd37ed56e956db3f97b4e460d3", "type": "electric_scooter", "name": "e2cb4fdd37ed56e956db3f97b4e460d3", "is_reserved": 0, "rental_uris": {"ios": "https://dc.lft.to/lastmile_qr_scan", "android": "https://dc.lft.to/lastmile_qr_scan"}}, {"fusion_lat": 0.0, "is_disabled": 0, "lat": 38.887016333333335, "lon": -77.01369033333333, "fusion_lon": 0.0, "bike_id": "cece536ae548cd5ebc34dbd0cbefe53f", "type": "electric_scooter", "name": "cece536ae548cd5ebc34dbd0cbefe53f", "is_reserved": 0, "rental_uris": {"ios": "https://dc.lft.to/lastmile_qr_scan", "android": "https://dc.lft.to/lastmile_qr_scan"}}, {"fusion_lat": 0.0, "is_disabled": 0, "lat": 38.8996945, "lon": -77.015927, "fusion_lon": 0.0, "bike_id": "36bc43e18c76ffacdd0cf4a8f49166e3", "type": "electric_scooter", "name": "36bc43e18c76ffacdd0cf4a8f49166e3", "is_reserved": 0, "rental_uris": {"ios": "https://dc.lft.to/lastmile_qr_scan", "android": "https://dc.lft.to/lastmile_qr_scan"}}, {"fusion_lat": 0.0, "is_disabled": 0, "lat": 38.912333, "lon": -77.07750833333333, "fusion_lon": 0.0, "bike_id": "a7e65ace90ec3a1ced95b5aa7a13786b", "type": "electric_scooter", "name": "a7e65ace90ec3a1ced95b5aa7a13786b", "is_reserved": 0, "rental_uris": {"ios": "https://dc.lft.to/lastmile_qr_scan", "android": "https://dc.lft.to/lastmile_qr_scan"}}, {"fusion_lat": 0.0, "is_disabled": 0, "lat": 38.90096333333334, "lon": -77.05787283333333, "fusion_lon": 0.0, "bike_id": "bcbee85d8f6ef610c40fd31a3f6d24ae", "type": "electric_scooter", "name": "bcbee85d8f6ef610c40fd31a3f6d24ae", "is_reserved": 0, "rental_uris": {"ios": "https://dc.lft.to/lastmile_qr_scan", "android": "https://dc.lft.to/lastmile_qr_scan"}}, {"fusion_lat": 0.0, "is_disabled": 0, "lat": 38.92236283333333, "lon": -77.02853316666666, "fusion_lon": 0.0, "bike_id": "d5fa637c7de85587d90c2a2eef7e5fcc", "type": "electric_scooter", "name": "d5fa637c7de85587d90c2a2eef7e5fcc", "is_reserved": 0, "rental_uris": {"ios": "https://dc.lft.to/lastmile_qr_scan", "android": "https://dc.lft.to/lastmile_qr_scan"}}, {"fusion_lat": 0.0, "is_disabled": 0, "lat": 38.9375655, "lon": -77.02536616666667, "fusion_lon": 0.0, "bike_id": "b4a369e92c5b2f6b23080393a0339030", "type": "electric_scooter", "name": "b4a369e92c5b2f6b23080393a0339030", "is_reserved": 0, "rental_uris": {"ios": "https://dc.lft.to/lastmile_qr_scan", "android": "https://dc.lft.to/lastmile_qr_scan"}}, {"fusion_lat": 0.0, "is_disabled": 0, "lat": 38.92968066666667, "lon": -77.04205566666667, "fusion_lon": 0.0, "bike_id": "78285e897979756afe2cd13860eaba0b", "type": "electric_scooter", "name": "78285e897979756afe2cd13860eaba0b", "is_reserved": 0, "rental_uris": {"ios": "https://dc.lft.to/lastmile_qr_scan", "android": "https://dc.lft.to/lastmile_qr_scan"}}, {"fusion_lat": 0.0, "is_disabled": 0, "lat": 38.91313516666666, "lon": -77.04665616666666, "fusion_lon": 0.0, "bike_id": "caeaed11ddb34d32607046f7b93d7a96", "type": "electric_scooter", "name": "caeaed11ddb34d32607046f7b93d7a96", "is_reserved": 0, "rental_uris": {"ios": "https://dc.lft.to/lastmile_qr_scan", "android": "https://dc.lft.to/lastmile_qr_scan"}}, {"fusion_lat": 0.0, "is_disabled": 0, "lat": 38.92828083333333, "lon": -77.05413783333333, "fusion_lon": 0.0, "bike_id": "e6926c978460b5418e5dea9517e65f3d", "type": "electric_scooter", "name": "e6926c978460b5418e5dea9517e65f3d", "is_reserved": 0, "rental_uris": {"ios": "https://dc.lft.to/lastmile_qr_scan", "android": "https://dc.lft.to/lastmile_qr_scan"}}, {"fusion_lat": 0.0, "is_disabled": 0, "lat": 38.91928033333333, "lon": -77.0318045, "fusion_lon": 0.0, "bike_id": "a38b9482761917bb867f92e709bde034", "type": "electric_scooter", "name": "a38b9482761917bb867f92e709bde034", "is_reserved": 0, "rental_uris": {"ios": "https://dc.lft.to/lastmile_qr_scan", "android": "https://dc.lft.to/lastmile_qr_scan"}}, {"fusion_lat": 0.0, "is_disabled": 0, "lat": 38.897386, "lon": -77.031036, "fusion_lon": 0.0, "bike_id": "b2098bf774fb94292c0fc8bd7bf848ca", "type": "electric_scooter", "name": "b2098bf774fb94292c0fc8bd7bf848ca", "is_reserved": 0, "rental_uris": {"ios": "https://dc.lft.to/lastmile_qr_scan", "android": "https://dc.lft.to/lastmile_qr_scan"}}, {"fusion_lat": 0.0, "is_disabled": 0, "lat": 38.910257666666666, "lon": -77.0321045, "fusion_lon": 0.0, "bike_id": "98f9b0e26b0385c06188805099f5bb29", "type": "electric_scooter", "name": "98f9b0e26b0385c06188805099f5bb29", "is_reserved": 0, "rental_uris": {"ios": "https://dc.lft.to/lastmile_qr_scan", "android": "https://dc.lft.to/lastmile_qr_scan"}}, {"fusion_lat": 0.0, "is_disabled": 0, "lat": 38.924492666666666, "lon": -77.022423, "fusion_lon": 0.0, "bike_id": "66152bc81b777b81ee63d06d082862cf", "type": "electric_scooter", "name": "66152bc81b777b81ee63d06d082862cf", "is_reserved": 0, "rental_uris": {"ios": "https://dc.lft.to/lastmile_qr_scan", "android": "https://dc.lft.to/lastmile_qr_scan"}}, {"fusion_lat": 0.0, "is_disabled": 0, "lat": 38.904528166666665, "lon": -76.99459533333334, "fusion_lon": 0.0, "bike_id": "a3f10b7a57240800793a84185ed65f51", "type": "electric_scooter", "name": "a3f10b7a57240800793a84185ed65f51", "is_reserved": 0, "rental_uris": {"ios": "https://dc.lft.to/lastmile_qr_scan", "android": "https://dc.lft.to/lastmile_qr_scan"}}, {"fusion_lat": 0.0, "is_disabled": 0, "lat": 38.922434, "lon": -77.019477, "fusion_lon": 0.0, "bike_id": "50a45a95134352ebe1a505233c8a5737", "type": "electric_scooter", "name": "50a45a95134352ebe1a505233c8a5737", "is_reserved": 0, "rental_uris": {"ios": "https://dc.lft.to/lastmile_qr_scan", "android": "https://dc.lft.to/lastmile_qr_scan"}}, {"fusion_lat": 0.0, "is_disabled": 0, "lat": 38.9256045, "lon": -77.0228855, "fusion_lon": 0.0, "bike_id": "89a37a24d5f2d419752533842f52bce9", "type": "electric_scooter", "name": "89a37a24d5f2d419752533842f52bce9", "is_reserved": 0, "rental_uris": {"ios": "https://dc.lft.to/lastmile_qr_scan", "android": "https://dc.lft.to/lastmile_qr_scan"}}, {"fusion_lat": 0.0, "is_disabled": 0, "lat": 38.901482333333334, "lon": -77.01220666666667, "fusion_lon": 0.0, "bike_id": "e9ac9a5f998bf4f5dffb188b3bf0dbac", "type": "electric_scooter", "name": "e9ac9a5f998bf4f5dffb188b3bf0dbac", "is_reserved": 0, "rental_uris": {"ios": "https://dc.lft.to/lastmile_qr_scan", "android": "https://dc.lft.to/lastmile_qr_scan"}}, {"fusion_lat": 0.0, "is_disabled": 0, "lat": 38.842167333333336, "lon": -76.9489635, "fusion_lon": 0.0, "bike_id": "7a71e8864a3ab76959dd545deb85d299", "type": "electric_bike", "name": "7a71e8864a3ab76959dd545deb85d299", "is_reserved": 0, "rental_uris": {"ios": "https://dc.lft.to/lastmile_qr_scan", "android": "https://dc.lft.to/lastmile_qr_scan"}}, {"fusion_lat": 0.0, "is_disabled": 0, "lat": 38.8982825, "lon": -77.04614516666666, "fusion_lon": 0.0, "bike_id": "9c02aeee47971e4cbb0f740ba219f343", "type": "electric_scooter", "name": "9c02aeee47971e4cbb0f740ba219f343", "is_reserved": 0, "rental_uris": {"ios": "https://dc.lft.to/lastmile_qr_scan", "android": "https://dc.lft.to/lastmile_qr_scan"}}, {"fusion_lat": 0.0, "is_disabled": 0, "lat": 38.925899333333334, "lon": -77.0257005, "fusion_lon": 0.0, "bike_id": "94f2b0bc97b494b9d7e760ac26d4302a", "type": "electric_scooter", "name": "94f2b0bc97b494b9d7e760ac26d4302a", "is_reserved": 0, "rental_uris": {"ios": "https://dc.lft.to/lastmile_qr_scan", "android": "https://dc.lft.to/lastmile_qr_scan"}}, {"fusion_lat": 0.0, "is_disabled": 0, "lat": 38.90615183333333, "lon": -77.04351283333334, "fusion_lon": 0.0, "bike_id": "f033f9f3e91cf2760c4b9ca08aa09d31", "type": "electric_scooter", "name": "f033f9f3e91cf2760c4b9ca08aa09d31", "is_reserved": 0, "rental_uris": {"ios": "https://dc.lft.to/lastmile_qr_scan", "android": "https://dc.lft.to/lastmile_qr_scan"}}, {"fusion_lat": 0.0, "is_disabled": 0, "lat": 38.894742, "lon": -77.041984, "fusion_lon": 0.0, "bike_id": "b87b78d7b494f249d10f698d7ee59695", "type": "electric_scooter", "name": "b87b78d7b494f249d10f698d7ee59695", "is_reserved": 0, "rental_uris": {"ios": "https://dc.lft.to/lastmile_qr_scan", "android": "https://dc.lft.to/lastmile_qr_scan"}}, {"fusion_lat": 0.0, "is_disabled": 0, "lat": 38.85218916666667, "lon": -76.993788, "fusion_lon": 0.0, "bike_id": "1c345448cf4f62c2dd26ce41dea67a8e", "type": "electric_scooter", "name": "1c345448cf4f62c2dd26ce41dea67a8e", "is_reserved": 0, "rental_uris": {"ios": "https://dc.lft.to/lastmile_qr_scan", "android": "https://dc.lft.to/lastmile_qr_scan"}}, {"fusion_lat": 0.0, "is_disabled": 0, "lat": 38.85560866666667, "lon": -77.06333966666666, "fusion_lon": 0.0, "bike_id": "67fe5453a970bc004b517d86cad7c22f", "type": "electric_bike", "name": "67fe5453a970bc004b517d86cad7c22f", "is_reserved": 0, "rental_uris": {"ios": "https://dc.lft.to/lastmile_qr_scan", "android": "https://dc.lft.to/lastmile_qr_scan"}}, {"fusion_lat": 0.0, "is_disabled": 0, "lat": 38.9051715, "lon": -77.03476533333334, "fusion_lon": 0.0, "bike_id": "9fd37f4dc63f5b5be87403a5f0beddd7", "type": "electric_scooter", "name": "9fd37f4dc63f5b5be87403a5f0beddd7", "is_reserved": 0, "rental_uris": {"ios": "https://dc.lft.to/lastmile_qr_scan", "android": "https://dc.lft.to/lastmile_qr_scan"}}, {"fusion_lat": 0.0, "is_disabled": 0, "lat": 38.92336616666667, "lon": -77.056795, "fusion_lon": 0.0, "bike_id": "999d96064cb26363d944c589273076ee", "type": "electric_scooter", "name": "999d96064cb26363d944c589273076ee", "is_reserved": 0, "rental_uris": {"ios": "https://dc.lft.to/lastmile_qr_scan", "android": "https://dc.lft.to/lastmile_qr_scan"}}, {"fusion_lat": 0.0, "is_disabled": 0, "lat": 38.90519183333333, "lon": -77.06236783333334, "fusion_lon": 0.0, "bike_id": "21cc953c2004e9abbc9d152c11ac629a", "type": "electric_scooter", "name": "21cc953c2004e9abbc9d152c11ac629a", "is_reserved": 0, "rental_uris": {"ios": "https://dc.lft.to/lastmile_qr_scan", "android": "https://dc.lft.to/lastmile_qr_scan"}}, {"fusion_lat": 0.0, "is_disabled": 0, "lat": 38.860536333333336, "lon": -76.98428616666666, "fusion_lon": 0.0, "bike_id": "6ed2e25e52600cff4592531c835d0b91", "type": "electric_scooter", "name": "6ed2e25e52600cff4592531c835d0b91", "is_reserved": 0, "rental_uris": {"ios": "https://dc.lft.to/lastmile_qr_scan", "android": "https://dc.lft.to/lastmile_qr_scan"}}, {"fusion_lat": 0.0, "is_disabled": 0, "lat": 38.9357375, "lon": -77.03657916666667, "fusion_lon": 0.0, "bike_id": "3620d27a8f7550c960707369ac4c762e", "type": "electric_bike", "name": "3620d27a8f7550c960707369ac4c762e", "is_reserved": 0, "rental_uris": {"ios": "https://dc.lft.to/lastmile_qr_scan", "android": "https://dc.lft.to/lastmile_qr_scan"}}, {"fusion_lat": 0.0, "is_disabled": 0, "lat": 38.90240633333333, "lon": -77.02806666666666, "fusion_lon": 0.0, "bike_id": "932a8f0344dc1b4341405d86fe4e046a", "type": "electric_scooter", "name": "932a8f0344dc1b4341405d86fe4e046a", "is_reserved": 0, "rental_uris": {"ios": "https://dc.lft.to/lastmile_qr_scan", "android": "https://dc.lft.to/lastmile_qr_scan"}}, {"fusion_lat": 0.0, "is_disabled": 0, "lat": 38.950648666666666, "lon": -76.9708415, "fusion_lon": 0.0, "bike_id": "e7ef22fd53ac3c55051b527291ff95cc", "type": "electric_bike", "name": "e7ef22fd53ac3c55051b527291ff95cc", "is_reserved": 0, "rental_uris": {"ios": "https://dc.lft.to/lastmile_qr_scan", "android": "https://dc.lft.to/lastmile_qr_scan"}}, {"fusion_lat": 0.0, "is_disabled": 0, "lat": 38.85788633333333, "lon": -77.09961233333334, "fusion_lon": 0.0, "bike_id": "69fcadc07b8e603e763a2402311b8a1c", "type": "electric_bike", "name": "69fcadc07b8e603e763a2402311b8a1c", "is_reserved": 0, "rental_uris": {"ios": "https://dc.lft.to/lastmile_qr_scan", "android": "https://dc.lft.to/lastmile_qr_scan"}}, {"fusion_lat": 0.0, "is_disabled": 0, "lat": 38.944049, "lon": -77.02750416666667, "fusion_lon": 0.0, "bike_id": "980952829acd27f302898e0023e62217", "type": "electric_scooter", "name": "980952829acd27f302898e0023e62217", "is_reserved": 0, "rental_uris": {"ios": "https://dc.lft.to/lastmile_qr_scan", "android": "https://dc.lft.to/lastmile_qr_scan"}}, {"fusion_lat": 0.0, "is_disabled": 0, "lat": 38.86477583333333, "lon": -76.97751616666666, "fusion_lon": 0.0, "bike_id": "8704ac6fb1e5e4718a810e74afc0c0fa", "type": "electric_bike", "name": "8704ac6fb1e5e4718a810e74afc0c0fa", "is_reserved": 0, "rental_uris": {"ios": "https://dc.lft.to/lastmile_qr_scan", "android": "https://dc.lft.to/lastmile_qr_scan"}}, {"fusion_lat": 0.0, "is_disabled": 0, "lat": 38.955861166666665, "lon": -77.0280865, "fusion_lon": 0.0, "bike_id": "02a92dbab7f1bdd4fcd057d8cdf43ab7", "type": "electric_scooter", "name": "02a92dbab7f1bdd4fcd057d8cdf43ab7", "is_reserved": 0, "rental_uris": {"ios": "https://dc.lft.to/lastmile_qr_scan", "android": "https://dc.lft.to/lastmile_qr_scan"}}, {"fusion_lat": 0.0, "is_disabled": 0, "lat": 38.915920166666666, "lon": -77.04023466666666, "fusion_lon": 0.0, "bike_id": "c10aa6f1bddddd5cd269cc98574b29d4", "type": "electric_scooter", "name": "c10aa6f1bddddd5cd269cc98574b29d4", "is_reserved": 0, "rental_uris": {"ios": "https://dc.lft.to/lastmile_qr_scan", "android": "https://dc.lft.to/lastmile_qr_scan"}}, {"fusion_lat": 0.0, "is_disabled": 0, "lat": 38.92423, "lon": -77.02126233333334, "fusion_lon": 0.0, "bike_id": "1e56b526c42224d6f31fa6825630d896", "type": "electric_scooter", "name": "1e56b526c42224d6f31fa6825630d896", "is_reserved": 0, "rental_uris": {"ios": "https://dc.lft.to/lastmile_qr_scan", "android": "https://dc.lft.to/lastmile_qr_scan"}}, {"fusion_lat": 0.0, "is_disabled": 0, "lat": 38.924723, "lon": -77.03784616666667, "fusion_lon": 0.0, "bike_id": "48a559f917ff0b18dc9fedf6fa0f90a4", "type": "electric_scooter", "name": "48a559f917ff0b18dc9fedf6fa0f90a4", "is_reserved": 0, "rental_uris": {"ios": "https://dc.lft.to/lastmile_qr_scan", "android": "https://dc.lft.to/lastmile_qr_scan"}}, {"fusion_lat": 0.0, "is_disabled": 0, "lat": 38.9054905, "lon": -77.0039865, "fusion_lon": 0.0, "bike_id": "98a4ce4a4e7aa6510b2d2a177ef6d088", "type": "electric_scooter", "name": "98a4ce4a4e7aa6510b2d2a177ef6d088", "is_reserved": 0, "rental_uris": {"ios": "https://dc.lft.to/lastmile_qr_scan", "android": "https://dc.lft.to/lastmile_qr_scan"}}, {"fusion_lat": 0.0, "is_disabled": 0, "lat": 38.90152783333333, "lon": -77.04891066666667, "fusion_lon": 0.0, "bike_id": "b1f14b005785ad05bdbdecd853b29fad", "type": "electric_scooter", "name": "b1f14b005785ad05bdbdecd853b29fad", "is_reserved": 0, "rental_uris": {"ios": "https://dc.lft.to/lastmile_qr_scan", "android": "https://dc.lft.to/lastmile_qr_scan"}}, {"fusion_lat": 0.0, "is_disabled": 0, "lat": 38.915550333333336, "lon": -77.02453033333333, "fusion_lon": 0.0, "bike_id": "0f57b9fb92263032a5b22ed6b852f43a", "type": "electric_scooter", "name": "0f57b9fb92263032a5b22ed6b852f43a", "is_reserved": 0, "rental_uris": {"ios": "https://dc.lft.to/lastmile_qr_scan", "android": "https://dc.lft.to/lastmile_qr_scan"}}, {"fusion_lat": 0.0, "is_disabled": 0, "lat": 38.904117666666664, "lon": -77.046729, "fusion_lon": 0.0, "bike_id": "f6180b2b71dc365f28c1557711abbed9", "type": "electric_scooter", "name": "f6180b2b71dc365f28c1557711abbed9", "is_reserved": 0, "rental_uris": {"ios": "https://dc.lft.to/lastmile_qr_scan", "android": "https://dc.lft.to/lastmile_qr_scan"}}, {"fusion_lat": 0.0, "is_disabled": 0, "lat": 38.91913666666667, "lon": -77.03400583333334, "fusion_lon": 0.0, "bike_id": "a90febdd5394ecca12736466aa7a089c", "type": "electric_scooter", "name": "a90febdd5394ecca12736466aa7a089c", "is_reserved": 0, "rental_uris": {"ios": "https://dc.lft.to/lastmile_qr_scan", "android": "https://dc.lft.to/lastmile_qr_scan"}}, {"fusion_lat": 0.0, "is_disabled": 0, "lat": 38.911138666666666, "lon": -77.04482116666667, "fusion_lon": 0.0, "bike_id": "9881d919fda993289d7384f8a174a976", "type": "electric_scooter", "name": "9881d919fda993289d7384f8a174a976", "is_reserved": 0, "rental_uris": {"ios": "https://dc.lft.to/lastmile_qr_scan", "android": "https://dc.lft.to/lastmile_qr_scan"}}, {"fusion_lat": 0.0, "is_disabled": 0, "lat": 38.903848333333336, "lon": -77.04506083333334, "fusion_lon": 0.0, "bike_id": "080a5f5f7657f58efc0192dd3d616aee", "type": "electric_scooter", "name": "080a5f5f7657f58efc0192dd3d616aee", "is_reserved": 0, "rental_uris": {"ios": "https://dc.lft.to/lastmile_qr_scan", "android": "https://dc.lft.to/lastmile_qr_scan"}}, {"fusion_lat": 0.0, "is_disabled": 0, "lat": 38.9344485, "lon": -77.02980016666666, "fusion_lon": 0.0, "bike_id": "cf1d2a8957859a6c2f1aaadede705fcb", "type": "electric_scooter", "name": "cf1d2a8957859a6c2f1aaadede705fcb", "is_reserved": 0, "rental_uris": {"ios": "https://dc.lft.to/lastmile_qr_scan", "android": "https://dc.lft.to/lastmile_qr_scan"}}, {"fusion_lat": 0.0, "is_disabled": 0, "lat": 38.930303333333335, "lon": -77.03251133333333, "fusion_lon": 0.0, "bike_id": "8dd9186685586b42fc28d7c1ed2d99ad", "type": "electric_scooter", "name": "8dd9186685586b42fc28d7c1ed2d99ad", "is_reserved": 0, "rental_uris": {"ios": "https://dc.lft.to/lastmile_qr_scan", "android": "https://dc.lft.to/lastmile_qr_scan"}}, {"fusion_lat": 0.0, "is_disabled": 0, "lat": 38.895501, "lon": -77.0091835, "fusion_lon": 0.0, "bike_id": "9361f2d3b6ac080e1867422da8655773", "type": "electric_scooter", "name": "9361f2d3b6ac080e1867422da8655773", "is_reserved": 0, "rental_uris": {"ios": "https://dc.lft.to/lastmile_qr_scan", "android": "https://dc.lft.to/lastmile_qr_scan"}}, {"fusion_lat": 0.0, "is_disabled": 0, "lat": 38.92237633333333, "lon": -77.02122816666666, "fusion_lon": 0.0, "bike_id": "ec5d6d77cf9adf023c31dfad7e837019", "type": "electric_scooter", "name": "ec5d6d77cf9adf023c31dfad7e837019", "is_reserved": 0, "rental_uris": {"ios": "https://dc.lft.to/lastmile_qr_scan", "android": "https://dc.lft.to/lastmile_qr_scan"}}, {"fusion_lat": 0.0, "is_disabled": 0, "lat": 38.9232725, "lon": -77.05686466666667, "fusion_lon": 0.0, "bike_id": "cf1a986e32db3a9614a576abc2710993", "type": "electric_scooter", "name": "cf1a986e32db3a9614a576abc2710993", "is_reserved": 0, "rental_uris": {"ios": "https://dc.lft.to/lastmile_qr_scan", "android": "https://dc.lft.to/lastmile_qr_scan"}}, {"fusion_lat": 0.0, "is_disabled": 0, "lat": 38.9157265, "lon": -77.05038816666666, "fusion_lon": 0.0, "bike_id": "346abadf63c0bd6cc59723238ed7c918", "type": "electric_scooter", "name": "346abadf63c0bd6cc59723238ed7c918", "is_reserved": 0, "rental_uris": {"ios": "https://dc.lft.to/lastmile_qr_scan", "android": "https://dc.lft.to/lastmile_qr_scan"}}, {"fusion_lat": 0.0, "is_disabled": 0, "lat": 38.90359733333333, "lon": -77.00989233333334, "fusion_lon": 0.0, "bike_id": "9a68dcefb1b2eb9bdb4c5e2b6360fac4", "type": "electric_scooter", "name": "9a68dcefb1b2eb9bdb4c5e2b6360fac4", "is_reserved": 0, "rental_uris": {"ios": "https://dc.lft.to/lastmile_qr_scan", "android": "https://dc.lft.to/lastmile_qr_scan"}}, {"fusion_lat": 0.0, "is_disabled": 0, "lat": 38.92126016666667, "lon": -77.03670866666667, "fusion_lon": 0.0, "bike_id": "504f2c70203c117956794363ecb4ca4f", "type": "electric_scooter", "name": "504f2c70203c117956794363ecb4ca4f", "is_reserved": 0, "rental_uris": {"ios": "https://dc.lft.to/lastmile_qr_scan", "android": "https://dc.lft.to/lastmile_qr_scan"}}, {"fusion_lat": 0.0, "is_disabled": 0, "lat": 38.90385, "lon": -77.00680216666667, "fusion_lon": 0.0, "bike_id": "72e6a5981c140d8fe5f91492879bb9c5", "type": "electric_scooter", "name": "72e6a5981c140d8fe5f91492879bb9c5", "is_reserved": 0, "rental_uris": {"ios": "https://dc.lft.to/lastmile_qr_scan", "android": "https://dc.lft.to/lastmile_qr_scan"}}, {"fusion_lat": 0.0, "is_disabled": 0, "lat": 38.901436833333335, "lon": -77.04175016666667, "fusion_lon": 0.0, "bike_id": "945abc86fff73b1695d3cae9162686bc", "type": "electric_scooter", "name": "945abc86fff73b1695d3cae9162686bc", "is_reserved": 0, "rental_uris": {"ios": "https://dc.lft.to/lastmile_qr_scan", "android": "https://dc.lft.to/lastmile_qr_scan"}}, {"fusion_lat": 0.0, "is_disabled": 0, "lat": 38.905482, "lon": -77.04452833333333, "fusion_lon": 0.0, "bike_id": "527dc964fb4e22aba6ebab34368fb894", "type": "electric_scooter", "name": "527dc964fb4e22aba6ebab34368fb894", "is_reserved": 0, "rental_uris": {"ios": "https://dc.lft.to/lastmile_qr_scan", "android": "https://dc.lft.to/lastmile_qr_scan"}}, {"fusion_lat": 0.0, "is_disabled": 0, "lat": 38.925763, "lon": -76.9949455, "fusion_lon": 0.0, "bike_id": "5eb864c9a7d6d02d9b3eae8c1da52375", "type": "electric_scooter", "name": "5eb864c9a7d6d02d9b3eae8c1da52375", "is_reserved": 0, "rental_uris": {"ios": "https://dc.lft.to/lastmile_qr_scan", "android": "https://dc.lft.to/lastmile_qr_scan"}}, {"fusion_lat": 0.0, "is_disabled": 0, "lat": 38.9244, "lon": -77.02156683333334, "fusion_lon": 0.0, "bike_id": "9ffd8e8b6cffe941693138ceb326aeb6", "type": "electric_scooter", "name": "9ffd8e8b6cffe941693138ceb326aeb6", "is_reserved": 0, "rental_uris": {"ios": "https://dc.lft.to/lastmile_qr_scan", "android": "https://dc.lft.to/lastmile_qr_scan"}}, {"fusion_lat": 0.0, "is_disabled": 0, "lat": 38.938614333333334, "lon": -77.02655816666666, "fusion_lon": 0.0, "bike_id": "ef61fe3fb59c5e59b92ff1538caa154f", "type": "electric_scooter", "name": "ef61fe3fb59c5e59b92ff1538caa154f", "is_reserved": 0, "rental_uris": {"ios": "https://dc.lft.to/lastmile_qr_scan", "android": "https://dc.lft.to/lastmile_qr_scan"}}, {"fusion_lat": 0.0, "is_disabled": 0, "lat": 38.917068, "lon": -77.03860833333333, "fusion_lon": 0.0, "bike_id": "b1bc417d42d24b500fd4491a6bc3bd3f", "type": "electric_scooter", "name": "b1bc417d42d24b500fd4491a6bc3bd3f", "is_reserved": 0, "rental_uris": {"ios": "https://dc.lft.to/lastmile_qr_scan", "android": "https://dc.lft.to/lastmile_qr_scan"}}, {"fusion_lat": 0.0, "is_disabled": 0, "lat": 38.926764666666664, "lon": -77.02749716666666, "fusion_lon": 0.0, "bike_id": "535635897275f0b5749c51d297f45017", "type": "electric_scooter", "name": "535635897275f0b5749c51d297f45017", "is_reserved": 0, "rental_uris": {"ios": "https://dc.lft.to/lastmile_qr_scan", "android": "https://dc.lft.to/lastmile_qr_scan"}}, {"fusion_lat": 0.0, "is_disabled": 0, "lat": 38.905085, "lon": -77.068759, "fusion_lon": 0.0, "bike_id": "7402386407fb2239b8cdc15701e7df36", "type": "electric_scooter", "name": "7402386407fb2239b8cdc15701e7df36", "is_reserved": 0, "rental_uris": {"ios": "https://dc.lft.to/lastmile_qr_scan", "android": "https://dc.lft.to/lastmile_qr_scan"}}, {"fusion_lat": 0.0, "is_disabled": 0, "lat": 38.946562166666666, "lon": -77.022551, "fusion_lon": 0.0, "bike_id": "2189155fa13651b9bca006399c2baf68", "type": "electric_scooter", "name": "2189155fa13651b9bca006399c2baf68", "is_reserved": 0, "rental_uris": {"ios": "https://dc.lft.to/lastmile_qr_scan", "android": "https://dc.lft.to/lastmile_qr_scan"}}, {"fusion_lat": 0.0, "is_disabled": 0, "lat": 38.829191, "lon": -77.06883783333333, "fusion_lon": 0.0, "bike_id": "37fce16c6366b87a92181de2f3f731aa", "type": "electric_bike", "name": "37fce16c6366b87a92181de2f3f731aa", "is_reserved": 0, "rental_uris": {"ios": "https://dc.lft.to/lastmile_qr_scan", "android": "https://dc.lft.to/lastmile_qr_scan"}}, {"fusion_lat": 0.0, "is_disabled": 0, "lat": 38.897056166666665, "lon": -77.02291, "fusion_lon": 0.0, "bike_id": "8e9dbf7f56a120c3873083486da0127e", "type": "electric_scooter", "name": "8e9dbf7f56a120c3873083486da0127e", "is_reserved": 0, "rental_uris": {"ios": "https://dc.lft.to/lastmile_qr_scan", "android": "https://dc.lft.to/lastmile_qr_scan"}}, {"fusion_lat": 0.0, "is_disabled": 0, "lat": 38.920475333333336, "lon": -77.0419565, "fusion_lon": 0.0, "bike_id": "bcd3fedbc315ef3cc71fe74060171462", "type": "electric_scooter", "name": "bcd3fedbc315ef3cc71fe74060171462", "is_reserved": 0, "rental_uris": {"ios": "https://dc.lft.to/lastmile_qr_scan", "android": "https://dc.lft.to/lastmile_qr_scan"}}, {"fusion_lat": 0.0, "is_disabled": 0, "lat": 38.90647216666667, "lon": -77.0270605, "fusion_lon": 0.0, "bike_id": "e4f985f69cc5e3c4617fe1a1635cf8cc", "type": "electric_scooter", "name": "e4f985f69cc5e3c4617fe1a1635cf8cc", "is_reserved": 0, "rental_uris": {"ios": "https://dc.lft.to/lastmile_qr_scan", "android": "https://dc.lft.to/lastmile_qr_scan"}}, {"fusion_lat": 0.0, "is_disabled": 0, "lat": 38.9185525, "lon": -76.960857, "fusion_lon": 0.0, "bike_id": "62db3409d506a9bc6a6554be43578886", "type": "electric_bike", "name": "62db3409d506a9bc6a6554be43578886", "is_reserved": 0, "rental_uris": {"ios": "https://dc.lft.to/lastmile_qr_scan", "android": "https://dc.lft.to/lastmile_qr_scan"}}, {"fusion_lat": 0.0, "is_disabled": 0, "lat": 38.923147, "lon": -77.01953033333334, "fusion_lon": 0.0, "bike_id": "224a0afc4a312b81b4214e0c9c3fd8af", "type": "electric_scooter", "name": "224a0afc4a312b81b4214e0c9c3fd8af", "is_reserved": 0, "rental_uris": {"ios": "https://dc.lft.to/lastmile_qr_scan", "android": "https://dc.lft.to/lastmile_qr_scan"}}, {"fusion_lat": 0.0, "is_disabled": 0, "lat": 38.910627166666664, "lon": -77.044834, "fusion_lon": 0.0, "bike_id": "97ff45b6af9ed541daa3c99611271d87", "type": "electric_scooter", "name": "97ff45b6af9ed541daa3c99611271d87", "is_reserved": 0, "rental_uris": {"ios": "https://dc.lft.to/lastmile_qr_scan", "android": "https://dc.lft.to/lastmile_qr_scan"}}, {"fusion_lat": 0.0, "is_disabled": 0, "lat": 38.922365166666665, "lon": -77.03666733333333, "fusion_lon": 0.0, "bike_id": "46759e9a5c4be087f25abbd4a8bd4e8b", "type": "electric_scooter", "name": "46759e9a5c4be087f25abbd4a8bd4e8b", "is_reserved": 0, "rental_uris": {"ios": "https://dc.lft.to/lastmile_qr_scan", "android": "https://dc.lft.to/lastmile_qr_scan"}}, {"fusion_lat": 0.0, "is_disabled": 0, "lat": 38.90307266666667, "lon": -77.02170033333333, "fusion_lon": 0.0, "bike_id": "f9341ae84a7de9452f56f40ccc7a6591", "type": "electric_scooter", "name": "f9341ae84a7de9452f56f40ccc7a6591", "is_reserved": 0, "rental_uris": {"ios": "https://dc.lft.to/lastmile_qr_scan", "android": "https://dc.lft.to/lastmile_qr_scan"}}, {"fusion_lat": 0.0, "is_disabled": 0, "lat": 38.9014665, "lon": -76.97422716666667, "fusion_lon": 0.0, "bike_id": "d44bee840024a082c708b8101bfd5be0", "type": "electric_scooter", "name": "d44bee840024a082c708b8101bfd5be0", "is_reserved": 0, "rental_uris": {"ios": "https://dc.lft.to/lastmile_qr_scan", "android": "https://dc.lft.to/lastmile_qr_scan"}}, {"fusion_lat": 0.0, "is_disabled": 0, "lat": 38.934009, "lon": -77.04144266666667, "fusion_lon": 0.0, "bike_id": "c1f3a899d893fdad772b6a22e4dcbedb", "type": "electric_scooter", "name": "c1f3a899d893fdad772b6a22e4dcbedb", "is_reserved": 0, "rental_uris": {"ios": "https://dc.lft.to/lastmile_qr_scan", "android": "https://dc.lft.to/lastmile_qr_scan"}}, {"fusion_lat": 0.0, "is_disabled": 0, "lat": 38.937610166666666, "lon": -77.02141966666667, "fusion_lon": 0.0, "bike_id": "5886f8e7ded819e41733655529c6fa82", "type": "electric_scooter", "name": "5886f8e7ded819e41733655529c6fa82", "is_reserved": 0, "rental_uris": {"ios": "https://dc.lft.to/lastmile_qr_scan", "android": "https://dc.lft.to/lastmile_qr_scan"}}, {"fusion_lat": 0.0, "is_disabled": 0, "lat": 38.89881483333333, "lon": -77.048798, "fusion_lon": 0.0, "bike_id": "edb52fea95b2100e5568c783f457516c", "type": "electric_scooter", "name": "edb52fea95b2100e5568c783f457516c", "is_reserved": 0, "rental_uris": {"ios": "https://dc.lft.to/lastmile_qr_scan", "android": "https://dc.lft.to/lastmile_qr_scan"}}, {"fusion_lat": 0.0, "is_disabled": 0, "lat": 38.920198666666664, "lon": -77.03168733333334, "fusion_lon": 0.0, "bike_id": "18318dea03c5a55342420a438f894354", "type": "electric_scooter", "name": "18318dea03c5a55342420a438f894354", "is_reserved": 0, "rental_uris": {"ios": "https://dc.lft.to/lastmile_qr_scan", "android": "https://dc.lft.to/lastmile_qr_scan"}}, {"fusion_lat": 0.0, "is_disabled": 0, "lat": 38.884964333333336, "lon": -77.014707, "fusion_lon": 0.0, "bike_id": "9b98066360d900fa0dd3b9fca88c6470", "type": "electric_scooter", "name": "9b98066360d900fa0dd3b9fca88c6470", "is_reserved": 0, "rental_uris": {"ios": "https://dc.lft.to/lastmile_qr_scan", "android": "https://dc.lft.to/lastmile_qr_scan"}}, {"fusion_lat": 0.0, "is_disabled": 0, "lat": 38.921428666666664, "lon": -77.01809333333334, "fusion_lon": 0.0, "bike_id": "f5a658db73a6ccf922f67ec7cdbb7208", "type": "electric_scooter", "name": "f5a658db73a6ccf922f67ec7cdbb7208", "is_reserved": 0, "rental_uris": {"ios": "https://dc.lft.to/lastmile_qr_scan", "android": "https://dc.lft.to/lastmile_qr_scan"}}, {"fusion_lat": 0.0, "is_disabled": 0, "lat": 38.912689, "lon": -77.022178, "fusion_lon": 0.0, "bike_id": "a00f784522e4aa7c3137790e663870cf", "type": "electric_scooter", "name": "a00f784522e4aa7c3137790e663870cf", "is_reserved": 0, "rental_uris": {"ios": "https://dc.lft.to/lastmile_qr_scan", "android": "https://dc.lft.to/lastmile_qr_scan"}}, {"fusion_lat": 0.0, "is_disabled": 0, "lat": 38.903819666666664, "lon": -77.04742433333334, "fusion_lon": 0.0, "bike_id": "4fecb363240c430d1cdcd9d9c48e5ec0", "type": "electric_scooter", "name": "4fecb363240c430d1cdcd9d9c48e5ec0", "is_reserved": 0, "rental_uris": {"ios": "https://dc.lft.to/lastmile_qr_scan", "android": "https://dc.lft.to/lastmile_qr_scan"}}, {"fusion_lat": 0.0, "is_disabled": 0, "lat": 38.91543716666666, "lon": -77.03183616666666, "fusion_lon": 0.0, "bike_id": "aafe32c0d9c900bfaad882e0fd2eefea", "type": "electric_scooter", "name": "aafe32c0d9c900bfaad882e0fd2eefea", "is_reserved": 0, "rental_uris": {"ios": "https://dc.lft.to/lastmile_qr_scan", "android": "https://dc.lft.to/lastmile_qr_scan"}}, {"fusion_lat": 0.0, "is_disabled": 0, "lat": 38.918314333333335, "lon": -77.05321066666667, "fusion_lon": 0.0, "bike_id": "35890d0d6ea653ae8511c50d4c5128ad", "type": "electric_scooter", "name": "35890d0d6ea653ae8511c50d4c5128ad", "is_reserved": 0, "rental_uris": {"ios": "https://dc.lft.to/lastmile_qr_scan", "android": "https://dc.lft.to/lastmile_qr_scan"}}, {"fusion_lat": 0.0, "is_disabled": 0, "lat": 38.877780333333334, "lon": -77.00213433333333, "fusion_lon": 0.0, "bike_id": "000971221f615242617cb20b3a21e4d9", "type": "electric_scooter", "name": "000971221f615242617cb20b3a21e4d9", "is_reserved": 0, "rental_uris": {"ios": "https://dc.lft.to/lastmile_qr_scan", "android": "https://dc.lft.to/lastmile_qr_scan"}}, {"fusion_lat": 0.0, "is_disabled": 0, "lat": 38.89753966666667, "lon": -77.00953166666666, "fusion_lon": 0.0, "bike_id": "3223b0d0b7728eeced438cd7b42e916e", "type": "electric_scooter", "name": "3223b0d0b7728eeced438cd7b42e916e", "is_reserved": 0, "rental_uris": {"ios": "https://dc.lft.to/lastmile_qr_scan", "android": "https://dc.lft.to/lastmile_qr_scan"}}, {"fusion_lat": 0.0, "is_disabled": 0, "lat": 38.838674166666664, "lon": -76.99490966666667, "fusion_lon": 0.0, "bike_id": "cff503319d4ee461d0439bd05af4dc85", "type": "electric_bike", "name": "cff503319d4ee461d0439bd05af4dc85", "is_reserved": 0, "rental_uris": {"ios": "https://dc.lft.to/lastmile_qr_scan", "android": "https://dc.lft.to/lastmile_qr_scan"}}, {"fusion_lat": 0.0, "is_disabled": 0, "lat": 38.903873, "lon": -77.01272966666667, "fusion_lon": 0.0, "bike_id": "68fea75870d22d224e1c5a050de71331", "type": "electric_scooter", "name": "68fea75870d22d224e1c5a050de71331", "is_reserved": 0, "rental_uris": {"ios": "https://dc.lft.to/lastmile_qr_scan", "android": "https://dc.lft.to/lastmile_qr_scan"}}, {"fusion_lat": 0.0, "is_disabled": 0, "lat": 38.8949345, "lon": -77.020103, "fusion_lon": 0.0, "bike_id": "2a3da9298060e3a6063284bfcfe650d2", "type": "electric_scooter", "name": "2a3da9298060e3a6063284bfcfe650d2", "is_reserved": 0, "rental_uris": {"ios": "https://dc.lft.to/lastmile_qr_scan", "android": "https://dc.lft.to/lastmile_qr_scan"}}, {"fusion_lat": 0.0, "is_disabled": 0, "lat": 38.9173465, "lon": -77.025001, "fusion_lon": 0.0, "bike_id": "6bbd780bee1eee17d32fde7abce0735b", "type": "electric_scooter", "name": "6bbd780bee1eee17d32fde7abce0735b", "is_reserved": 0, "rental_uris": {"ios": "https://dc.lft.to/lastmile_qr_scan", "android": "https://dc.lft.to/lastmile_qr_scan"}}, {"fusion_lat": 0.0, "is_disabled": 0, "lat": 38.8949935, "lon": -77.02312016666667, "fusion_lon": 0.0, "bike_id": "b3150041e0d4dbf72160f03ab0fe0a9f", "type": "electric_scooter", "name": "b3150041e0d4dbf72160f03ab0fe0a9f", "is_reserved": 0, "rental_uris": {"ios": "https://dc.lft.to/lastmile_qr_scan", "android": "https://dc.lft.to/lastmile_qr_scan"}}, {"fusion_lat": 0.0, "is_disabled": 0, "lat": 38.9130995, "lon": -77.03322083333333, "fusion_lon": 0.0, "bike_id": "b71f575a7f020d1dcf41cc8b5650e653", "type": "electric_scooter", "name": "b71f575a7f020d1dcf41cc8b5650e653", "is_reserved": 0, "rental_uris": {"ios": "https://dc.lft.to/lastmile_qr_scan", "android": "https://dc.lft.to/lastmile_qr_scan"}}, {"fusion_lat": 0.0, "is_disabled": 0, "lat": 38.90423166666667, "lon": -77.0263815, "fusion_lon": 0.0, "bike_id": "1062609d3a031280f29330b26279cfff", "type": "electric_scooter", "name": "1062609d3a031280f29330b26279cfff", "is_reserved": 0, "rental_uris": {"ios": "https://dc.lft.to/lastmile_qr_scan", "android": "https://dc.lft.to/lastmile_qr_scan"}}, {"fusion_lat": 0.0, "is_disabled": 0, "lat": 38.922371166666665, "lon": -77.02263783333333, "fusion_lon": 0.0, "bike_id": "47440b64ea86a29b21aeb1bf4551a041", "type": "electric_scooter", "name": "47440b64ea86a29b21aeb1bf4551a041", "is_reserved": 0, "rental_uris": {"ios": "https://dc.lft.to/lastmile_qr_scan", "android": "https://dc.lft.to/lastmile_qr_scan"}}, {"fusion_lat": 0.0, "is_disabled": 0, "lat": 38.89224183333333, "lon": -77.0463965, "fusion_lon": 0.0, "bike_id": "26619bed167dce5621b28e94903d26dd", "type": "electric_scooter", "name": "26619bed167dce5621b28e94903d26dd", "is_reserved": 0, "rental_uris": {"ios": "https://dc.lft.to/lastmile_qr_scan", "android": "https://dc.lft.to/lastmile_qr_scan"}}, {"fusion_lat": 0.0, "is_disabled": 0, "lat": 38.94885816666667, "lon": -77.01855816666666, "fusion_lon": 0.0, "bike_id": "908d5e228ca2c61f93ab704699225d32", "type": "electric_scooter", "name": "908d5e228ca2c61f93ab704699225d32", "is_reserved": 0, "rental_uris": {"ios": "https://dc.lft.to/lastmile_qr_scan", "android": "https://dc.lft.to/lastmile_qr_scan"}}, {"fusion_lat": 0.0, "is_disabled": 0, "lat": 38.901843, "lon": -77.05949716666667, "fusion_lon": 0.0, "bike_id": "2cf12c60b7e164ae51784285be5fa712", "type": "electric_scooter", "name": "2cf12c60b7e164ae51784285be5fa712", "is_reserved": 0, "rental_uris": {"ios": "https://dc.lft.to/lastmile_qr_scan", "android": "https://dc.lft.to/lastmile_qr_scan"}}, {"fusion_lat": 0.0, "is_disabled": 0, "lat": 38.90060283333333, "lon": -76.9962845, "fusion_lon": 0.0, "bike_id": "ceea42d5e790da4f47e4cb92a4e58aa8", "type": "electric_scooter", "name": "ceea42d5e790da4f47e4cb92a4e58aa8", "is_reserved": 0, "rental_uris": {"ios": "https://dc.lft.to/lastmile_qr_scan", "android": "https://dc.lft.to/lastmile_qr_scan"}}, {"fusion_lat": 0.0, "is_disabled": 0, "lat": 38.819083, "lon": -77.12666866666666, "fusion_lon": 0.0, "bike_id": "4697025d49cacfeff76cc106954780bf", "type": "electric_bike", "name": "4697025d49cacfeff76cc106954780bf", "is_reserved": 0, "rental_uris": {"ios": "https://dc.lft.to/lastmile_qr_scan", "android": "https://dc.lft.to/lastmile_qr_scan"}}, {"fusion_lat": 0.0, "is_disabled": 0, "lat": 38.9078345, "lon": -77.0726185, "fusion_lon": 0.0, "bike_id": "8efcdc2f278d4da4ae2ac2252957191b", "type": "electric_scooter", "name": "8efcdc2f278d4da4ae2ac2252957191b", "is_reserved": 0, "rental_uris": {"ios": "https://dc.lft.to/lastmile_qr_scan", "android": "https://dc.lft.to/lastmile_qr_scan"}}, {"fusion_lat": 0.0, "is_disabled": 0, "lat": 38.914191333333335, "lon": -77.03177166666667, "fusion_lon": 0.0, "bike_id": "8b6457153461ac11e3027b340d0e23e9", "type": "electric_scooter", "name": "8b6457153461ac11e3027b340d0e23e9", "is_reserved": 0, "rental_uris": {"ios": "https://dc.lft.to/lastmile_qr_scan", "android": "https://dc.lft.to/lastmile_qr_scan"}}, {"fusion_lat": 0.0, "is_disabled": 0, "lat": 38.89908716666667, "lon": -76.933838, "fusion_lon": 0.0, "bike_id": "0e621d355625fd289ff83beb2d5c63f0", "type": "electric_scooter", "name": "0e621d355625fd289ff83beb2d5c63f0", "is_reserved": 0, "rental_uris": {"ios": "https://dc.lft.to/lastmile_qr_scan", "android": "https://dc.lft.to/lastmile_qr_scan"}}, {"fusion_lat": 0.0, "is_disabled": 0, "lat": 38.923707666666665, "lon": -77.02727066666667, "fusion_lon": 0.0, "bike_id": "088aa29f875b024ed5d0d48d8fe0357f", "type": "electric_scooter", "name": "088aa29f875b024ed5d0d48d8fe0357f", "is_reserved": 0, "rental_uris": {"ios": "https://dc.lft.to/lastmile_qr_scan", "android": "https://dc.lft.to/lastmile_qr_scan"}}, {"fusion_lat": 0.0, "is_disabled": 0, "lat": 38.88436216666667, "lon": -76.95770933333333, "fusion_lon": 0.0, "bike_id": "0385ab612aa6a7855040d830b6d4af7e", "type": "electric_scooter", "name": "0385ab612aa6a7855040d830b6d4af7e", "is_reserved": 0, "rental_uris": {"ios": "https://dc.lft.to/lastmile_qr_scan", "android": "https://dc.lft.to/lastmile_qr_scan"}}, {"fusion_lat": 0.0, "is_disabled": 0, "lat": 38.957315, "lon": -77.024078, "fusion_lon": 0.0, "bike_id": "1d9dda734ff28b6ee508abd562d1bb96", "type": "electric_scooter", "name": "1d9dda734ff28b6ee508abd562d1bb96", "is_reserved": 0, "rental_uris": {"ios": "https://dc.lft.to/lastmile_qr_scan", "android": "https://dc.lft.to/lastmile_qr_scan"}}, {"fusion_lat": 0.0, "is_disabled": 0, "lat": 38.900475166666666, "lon": -77.015451, "fusion_lon": 0.0, "bike_id": "3f782937c421fd29531b965dc8dc8d7b", "type": "electric_scooter", "name": "3f782937c421fd29531b965dc8dc8d7b", "is_reserved": 0, "rental_uris": {"ios": "https://dc.lft.to/lastmile_qr_scan", "android": "https://dc.lft.to/lastmile_qr_scan"}}, {"fusion_lat": 0.0, "is_disabled": 0, "lat": 38.884697, "lon": -77.01989733333333, "fusion_lon": 0.0, "bike_id": "11da6fdf809457779f6b0c5cf2d52d46", "type": "electric_scooter", "name": "11da6fdf809457779f6b0c5cf2d52d46", "is_reserved": 0, "rental_uris": {"ios": "https://dc.lft.to/lastmile_qr_scan", "android": "https://dc.lft.to/lastmile_qr_scan"}}, {"fusion_lat": 0.0, "is_disabled": 0, "lat": 38.9275525, "lon": -77.032193, "fusion_lon": 0.0, "bike_id": "de06ba22e6ea69569534a4f18c11d602", "type": "electric_scooter", "name": "de06ba22e6ea69569534a4f18c11d602", "is_reserved": 0, "rental_uris": {"ios": "https://dc.lft.to/lastmile_qr_scan", "android": "https://dc.lft.to/lastmile_qr_scan"}}, {"fusion_lat": 0.0, "is_disabled": 0, "lat": 38.858429666666666, "lon": -76.99049816666667, "fusion_lon": 0.0, "bike_id": "963fa4127d1bd283a44ab79ee3a33688", "type": "electric_scooter", "name": "963fa4127d1bd283a44ab79ee3a33688", "is_reserved": 0, "rental_uris": {"ios": "https://dc.lft.to/lastmile_qr_scan", "android": "https://dc.lft.to/lastmile_qr_scan"}}, {"fusion_lat": 0.0, "is_disabled": 0, "lat": 38.90025966666666, "lon": -76.99865866666667, "fusion_lon": 0.0, "bike_id": "2676a9f2fb749db36f1870be4c249b4b", "type": "electric_scooter", "name": "2676a9f2fb749db36f1870be4c249b4b", "is_reserved": 0, "rental_uris": {"ios": "https://dc.lft.to/lastmile_qr_scan", "android": "https://dc.lft.to/lastmile_qr_scan"}}, {"fusion_lat": 0.0, "is_disabled": 0, "lat": 38.92486433333333, "lon": -77.0227775, "fusion_lon": 0.0, "bike_id": "3b1cd97661da4079baaaa8b20180ed08", "type": "electric_scooter", "name": "3b1cd97661da4079baaaa8b20180ed08", "is_reserved": 0, "rental_uris": {"ios": "https://dc.lft.to/lastmile_qr_scan", "android": "https://dc.lft.to/lastmile_qr_scan"}}, {"fusion_lat": 0.0, "is_disabled": 0, "lat": 38.883865, "lon": -76.98548866666667, "fusion_lon": 0.0, "bike_id": "1e05eee2e489f43f900b14e9408fe449", "type": "electric_scooter", "name": "1e05eee2e489f43f900b14e9408fe449", "is_reserved": 0, "rental_uris": {"ios": "https://dc.lft.to/lastmile_qr_scan", "android": "https://dc.lft.to/lastmile_qr_scan"}}, {"fusion_lat": 0.0, "is_disabled": 0, "lat": 38.904736666666665, "lon": -77.04881933333333, "fusion_lon": 0.0, "bike_id": "7f75f678f826db514c4bd5753b6e0cc4", "type": "electric_scooter", "name": "7f75f678f826db514c4bd5753b6e0cc4", "is_reserved": 0, "rental_uris": {"ios": "https://dc.lft.to/lastmile_qr_scan", "android": "https://dc.lft.to/lastmile_qr_scan"}}, {"fusion_lat": 0.0, "is_disabled": 0, "lat": 38.893578166666664, "lon": -77.00336883333334, "fusion_lon": 0.0, "bike_id": "aaeea8102dd3df8d4421c09490e40968", "type": "electric_scooter", "name": "aaeea8102dd3df8d4421c09490e40968", "is_reserved": 0, "rental_uris": {"ios": "https://dc.lft.to/lastmile_qr_scan", "android": "https://dc.lft.to/lastmile_qr_scan"}}, {"fusion_lat": 0.0, "is_disabled": 0, "lat": 38.89914866666667, "lon": -77.02448666666666, "fusion_lon": 0.0, "bike_id": "b8c7348353faf51bb30c89eabd52cb16", "type": "electric_scooter", "name": "b8c7348353faf51bb30c89eabd52cb16", "is_reserved": 0, "rental_uris": {"ios": "https://dc.lft.to/lastmile_qr_scan", "android": "https://dc.lft.to/lastmile_qr_scan"}}, {"fusion_lat": 0.0, "is_disabled": 0, "lat": 38.9567945, "lon": -77.0224295, "fusion_lon": 0.0, "bike_id": "122038c57d995571bb61197e71e808c9", "type": "electric_scooter", "name": "122038c57d995571bb61197e71e808c9", "is_reserved": 0, "rental_uris": {"ios": "https://dc.lft.to/lastmile_qr_scan", "android": "https://dc.lft.to/lastmile_qr_scan"}}, {"fusion_lat": 0.0, "is_disabled": 0, "lat": 38.931834, "lon": -77.03842833333333, "fusion_lon": 0.0, "bike_id": "f0c4e3bdc648837abe0f8439a98380db", "type": "electric_scooter", "name": "f0c4e3bdc648837abe0f8439a98380db", "is_reserved": 0, "rental_uris": {"ios": "https://dc.lft.to/lastmile_qr_scan", "android": "https://dc.lft.to/lastmile_qr_scan"}}, {"fusion_lat": 0.0, "is_disabled": 0, "lat": 38.832869, "lon": -77.08422316666666, "fusion_lon": 0.0, "bike_id": "0da6ae57fdf73af5de8ae69347b094f5", "type": "electric_bike", "name": "0da6ae57fdf73af5de8ae69347b094f5", "is_reserved": 0, "rental_uris": {"ios": "https://dc.lft.to/lastmile_qr_scan", "android": "https://dc.lft.to/lastmile_qr_scan"}}, {"fusion_lat": 0.0, "is_disabled": 0, "lat": 38.9037215, "lon": -77.04249916666667, "fusion_lon": 0.0, "bike_id": "aaf202665cf09cd17a6d65e45ad71ae4", "type": "electric_scooter", "name": "aaf202665cf09cd17a6d65e45ad71ae4", "is_reserved": 0, "rental_uris": {"ios": "https://dc.lft.to/lastmile_qr_scan", "android": "https://dc.lft.to/lastmile_qr_scan"}}, {"fusion_lat": 0.0, "is_disabled": 0, "lat": 38.87679333333333, "lon": -77.00074883333333, "fusion_lon": 0.0, "bike_id": "d72254127f083168168c9f46be161c88", "type": "electric_scooter", "name": "d72254127f083168168c9f46be161c88", "is_reserved": 0, "rental_uris": {"ios": "https://dc.lft.to/lastmile_qr_scan", "android": "https://dc.lft.to/lastmile_qr_scan"}}, {"fusion_lat": 0.0, "is_disabled": 0, "lat": 38.89221533333333, "lon": -77.04501783333333, "fusion_lon": 0.0, "bike_id": "d1cb527932704d9c811728347426be72", "type": "electric_scooter", "name": "d1cb527932704d9c811728347426be72", "is_reserved": 0, "rental_uris": {"ios": "https://dc.lft.to/lastmile_qr_scan", "android": "https://dc.lft.to/lastmile_qr_scan"}}, {"fusion_lat": 0.0, "is_disabled": 0, "lat": 38.945570333333336, "lon": -77.07958483333333, "fusion_lon": 0.0, "bike_id": "6e4d2b89ff27a1fe545d790ecd637a5b", "type": "electric_scooter", "name": "6e4d2b89ff27a1fe545d790ecd637a5b", "is_reserved": 0, "rental_uris": {"ios": "https://dc.lft.to/lastmile_qr_scan", "android": "https://dc.lft.to/lastmile_qr_scan"}}, {"fusion_lat": 0.0, "is_disabled": 0, "lat": 38.90606016666667, "lon": -77.12889883333334, "fusion_lon": 0.0, "bike_id": "6fd0e5e2f1a7b3a4ee4cd388199d72da", "type": "electric_bike", "name": "6fd0e5e2f1a7b3a4ee4cd388199d72da", "is_reserved": 0, "rental_uris": {"ios": "https://dc.lft.to/lastmile_qr_scan", "android": "https://dc.lft.to/lastmile_qr_scan"}}, {"fusion_lat": 0.0, "is_disabled": 0, "lat": 38.9039775, "lon": -77.06299416666667, "fusion_lon": 0.0, "bike_id": "a3581c2966382a63db722e8a8dfe44ef", "type": "electric_scooter", "name": "a3581c2966382a63db722e8a8dfe44ef", "is_reserved": 0, "rental_uris": {"ios": "https://dc.lft.to/lastmile_qr_scan", "android": "https://dc.lft.to/lastmile_qr_scan"}}, {"fusion_lat": 0.0, "is_disabled": 0, "lat": 38.897455666666666, "lon": -77.03240816666667, "fusion_lon": 0.0, "bike_id": "0851f19bb2c94f6c50bf6b087a23207f", "type": "electric_scooter", "name": "0851f19bb2c94f6c50bf6b087a23207f", "is_reserved": 0, "rental_uris": {"ios": "https://dc.lft.to/lastmile_qr_scan", "android": "https://dc.lft.to/lastmile_qr_scan"}}, {"fusion_lat": 0.0, "is_disabled": 0, "lat": 38.892207, "lon": -77.0242145, "fusion_lon": 0.0, "bike_id": "e9f9f03f165476e6bb73a06e2d4cf1e3", "type": "electric_scooter", "name": "e9f9f03f165476e6bb73a06e2d4cf1e3", "is_reserved": 0, "rental_uris": {"ios": "https://dc.lft.to/lastmile_qr_scan", "android": "https://dc.lft.to/lastmile_qr_scan"}}, {"fusion_lat": 0.0, "is_disabled": 0, "lat": 38.934444166666665, "lon": -77.029778, "fusion_lon": 0.0, "bike_id": "0160c57a5e3298d188d1544decee9a47", "type": "electric_scooter", "name": "0160c57a5e3298d188d1544decee9a47", "is_reserved": 0, "rental_uris": {"ios": "https://dc.lft.to/lastmile_qr_scan", "android": "https://dc.lft.to/lastmile_qr_scan"}}, {"fusion_lat": 0.0, "is_disabled": 0, "lat": 38.92057783333333, "lon": -76.97071466666667, "fusion_lon": 0.0, "bike_id": "2d64aea4e8f729e2e548238a59625f0e", "type": "electric_bike", "name": "2d64aea4e8f729e2e548238a59625f0e", "is_reserved": 0, "rental_uris": {"ios": "https://dc.lft.to/lastmile_qr_scan", "android": "https://dc.lft.to/lastmile_qr_scan"}}, {"fusion_lat": 0.0, "is_disabled": 0, "lat": 38.9240985, "lon": -77.0203035, "fusion_lon": 0.0, "bike_id": "6dd9b3e6aa586a602d2fb4b136d3da26", "type": "electric_scooter", "name": "6dd9b3e6aa586a602d2fb4b136d3da26", "is_reserved": 0, "rental_uris": {"ios": "https://dc.lft.to/lastmile_qr_scan", "android": "https://dc.lft.to/lastmile_qr_scan"}}, {"fusion_lat": 0.0, "is_disabled": 0, "lat": 38.90240133333333, "lon": -77.044936, "fusion_lon": 0.0, "bike_id": "e8ff3904d4e19461f5c40c5ab2392f97", "type": "electric_scooter", "name": "e8ff3904d4e19461f5c40c5ab2392f97", "is_reserved": 0, "rental_uris": {"ios": "https://dc.lft.to/lastmile_qr_scan", "android": "https://dc.lft.to/lastmile_qr_scan"}}, {"fusion_lat": 0.0, "is_disabled": 0, "lat": 38.9125265, "lon": -77.04440533333333, "fusion_lon": 0.0, "bike_id": "f343b545c0b8c107a4dbba1f8956b520", "type": "electric_scooter", "name": "f343b545c0b8c107a4dbba1f8956b520", "is_reserved": 0, "rental_uris": {"ios": "https://dc.lft.to/lastmile_qr_scan", "android": "https://dc.lft.to/lastmile_qr_scan"}}, {"fusion_lat": 0.0, "is_disabled": 0, "lat": 38.895759166666664, "lon": -77.01357933333334, "fusion_lon": 0.0, "bike_id": "5685d35e57c13bce3c9bf900b283fb4e", "type": "electric_scooter", "name": "5685d35e57c13bce3c9bf900b283fb4e", "is_reserved": 0, "rental_uris": {"ios": "https://dc.lft.to/lastmile_qr_scan", "android": "https://dc.lft.to/lastmile_qr_scan"}}, {"fusion_lat": 0.0, "is_disabled": 0, "lat": 38.901413833333336, "lon": -77.04435783333334, "fusion_lon": 0.0, "bike_id": "bd068adff811b3baf67ab808ca07d58f", "type": "electric_scooter", "name": "bd068adff811b3baf67ab808ca07d58f", "is_reserved": 0, "rental_uris": {"ios": "https://dc.lft.to/lastmile_qr_scan", "android": "https://dc.lft.to/lastmile_qr_scan"}}, {"fusion_lat": 0.0, "is_disabled": 0, "lat": 38.90959316666667, "lon": -77.01865216666667, "fusion_lon": 0.0, "bike_id": "8c021b47ea36dc3beb2555a6bcdc8721", "type": "electric_scooter", "name": "8c021b47ea36dc3beb2555a6bcdc8721", "is_reserved": 0, "rental_uris": {"ios": "https://dc.lft.to/lastmile_qr_scan", "android": "https://dc.lft.to/lastmile_qr_scan"}}, {"fusion_lat": 0.0, "is_disabled": 0, "lat": 38.932414, "lon": -77.0413885, "fusion_lon": 0.0, "bike_id": "f6bbbf0b1d18c44d897107bf1d34c92a", "type": "electric_scooter", "name": "f6bbbf0b1d18c44d897107bf1d34c92a", "is_reserved": 0, "rental_uris": {"ios": "https://dc.lft.to/lastmile_qr_scan", "android": "https://dc.lft.to/lastmile_qr_scan"}}, {"fusion_lat": 0.0, "is_disabled": 0, "lat": 38.892201666666665, "lon": -77.02744033333333, "fusion_lon": 0.0, "bike_id": "efcc2991c0aa1e53a755fcc22927a2e5", "type": "electric_scooter", "name": "efcc2991c0aa1e53a755fcc22927a2e5", "is_reserved": 0, "rental_uris": {"ios": "https://dc.lft.to/lastmile_qr_scan", "android": "https://dc.lft.to/lastmile_qr_scan"}}, {"fusion_lat": 0.0, "is_disabled": 0, "lat": 38.895032, "lon": -77.0033835, "fusion_lon": 0.0, "bike_id": "29d1ee824762ccbc7a665e491d3a2021", "type": "electric_scooter", "name": "29d1ee824762ccbc7a665e491d3a2021", "is_reserved": 0, "rental_uris": {"ios": "https://dc.lft.to/lastmile_qr_scan", "android": "https://dc.lft.to/lastmile_qr_scan"}}, {"fusion_lat": 0.0, "is_disabled": 0, "lat": 38.895052666666665, "lon": -77.01980816666666, "fusion_lon": 0.0, "bike_id": "d727c2c99460dbed2a1995cf1dc66bd8", "type": "electric_scooter", "name": "d727c2c99460dbed2a1995cf1dc66bd8", "is_reserved": 0, "rental_uris": {"ios": "https://dc.lft.to/lastmile_qr_scan", "android": "https://dc.lft.to/lastmile_qr_scan"}}, {"fusion_lat": 0.0, "is_disabled": 0, "lat": 38.933539333333336, "lon": -77.0614655, "fusion_lon": 0.0, "bike_id": "649ccbae55a0fd494894f485992bd17e", "type": "electric_scooter", "name": "649ccbae55a0fd494894f485992bd17e", "is_reserved": 0, "rental_uris": {"ios": "https://dc.lft.to/lastmile_qr_scan", "android": "https://dc.lft.to/lastmile_qr_scan"}}, {"fusion_lat": 0.0, "is_disabled": 0, "lat": 38.891865, "lon": -76.99857166666666, "fusion_lon": 0.0, "bike_id": "f95c0b50ec8d1614316147e0cfa92365", "type": "electric_scooter", "name": "f95c0b50ec8d1614316147e0cfa92365", "is_reserved": 0, "rental_uris": {"ios": "https://dc.lft.to/lastmile_qr_scan", "android": "https://dc.lft.to/lastmile_qr_scan"}}, {"fusion_lat": 0.0, "is_disabled": 0, "lat": 38.8959035, "lon": -77.048091, "fusion_lon": 0.0, "bike_id": "90f2af2200149eca622448ce58cdb834", "type": "electric_scooter", "name": "90f2af2200149eca622448ce58cdb834", "is_reserved": 0, "rental_uris": {"ios": "https://dc.lft.to/lastmile_qr_scan", "android": "https://dc.lft.to/lastmile_qr_scan"}}, {"fusion_lat": 0.0, "is_disabled": 0, "lat": 38.90506233333333, "lon": -77.0294975, "fusion_lon": 0.0, "bike_id": "2883e65ff1435431c336809536a87510", "type": "electric_scooter", "name": "2883e65ff1435431c336809536a87510", "is_reserved": 0, "rental_uris": {"ios": "https://dc.lft.to/lastmile_qr_scan", "android": "https://dc.lft.to/lastmile_qr_scan"}}, {"fusion_lat": 0.0, "is_disabled": 0, "lat": 38.90522033333333, "lon": -77.04746416666667, "fusion_lon": 0.0, "bike_id": "2305b1a6c4a5e0d45e181449fbc685ec", "type": "electric_scooter", "name": "2305b1a6c4a5e0d45e181449fbc685ec", "is_reserved": 0, "rental_uris": {"ios": "https://dc.lft.to/lastmile_qr_scan", "android": "https://dc.lft.to/lastmile_qr_scan"}}, {"fusion_lat": 0.0, "is_disabled": 0, "lat": 38.897349166666665, "lon": -77.02437166666667, "fusion_lon": 0.0, "bike_id": "a924e7c49dc98dbdcb4d7121229d43f4", "type": "electric_scooter", "name": "a924e7c49dc98dbdcb4d7121229d43f4", "is_reserved": 0, "rental_uris": {"ios": "https://dc.lft.to/lastmile_qr_scan", "android": "https://dc.lft.to/lastmile_qr_scan"}}, {"fusion_lat": 0.0, "is_disabled": 0, "lat": 38.90265816666667, "lon": -77.03856716666667, "fusion_lon": 0.0, "bike_id": "9568eda62dde1cf164108620120a6170", "type": "electric_scooter", "name": "9568eda62dde1cf164108620120a6170", "is_reserved": 0, "rental_uris": {"ios": "https://dc.lft.to/lastmile_qr_scan", "android": "https://dc.lft.to/lastmile_qr_scan"}}, {"fusion_lat": 0.0, "is_disabled": 0, "lat": 39.0053105, "lon": -77.104037, "fusion_lon": 0.0, "bike_id": "244d7cc1f46082e85b5da186125613cc", "type": "electric_bike", "name": "244d7cc1f46082e85b5da186125613cc", "is_reserved": 0, "rental_uris": {"ios": "https://dc.lft.to/lastmile_qr_scan", "android": "https://dc.lft.to/lastmile_qr_scan"}}, {"fusion_lat": 0.0, "is_disabled": 0, "lat": 38.90357216666666, "lon": -77.03334416666667, "fusion_lon": 0.0, "bike_id": "0c2f1d48f88ed1f744a2039400a1942c", "type": "electric_scooter", "name": "0c2f1d48f88ed1f744a2039400a1942c", "is_reserved": 0, "rental_uris": {"ios": "https://dc.lft.to/lastmile_qr_scan", "android": "https://dc.lft.to/lastmile_qr_scan"}}, {"fusion_lat": 0.0, "is_disabled": 0, "lat": 38.897208666666664, "lon": -77.0435725, "fusion_lon": 0.0, "bike_id": "33d9002e977d82bbf4007dc41a3d6561", "type": "electric_scooter", "name": "33d9002e977d82bbf4007dc41a3d6561", "is_reserved": 0, "rental_uris": {"ios": "https://dc.lft.to/lastmile_qr_scan", "android": "https://dc.lft.to/lastmile_qr_scan"}}, {"fusion_lat": 0.0, "is_disabled": 0, "lat": 38.923518, "lon": -77.0339755, "fusion_lon": 0.0, "bike_id": "c09051051ddf4c0479c4ae2e80a9c9c5", "type": "electric_scooter", "name": "c09051051ddf4c0479c4ae2e80a9c9c5", "is_reserved": 0, "rental_uris": {"ios": "https://dc.lft.to/lastmile_qr_scan", "android": "https://dc.lft.to/lastmile_qr_scan"}}, {"fusion_lat": 0.0, "is_disabled": 0, "lat": 38.916362, "lon": -77.04851583333334, "fusion_lon": 0.0, "bike_id": "ece6b6a04c981ae072c75a4097b53e89", "type": "electric_scooter", "name": "ece6b6a04c981ae072c75a4097b53e89", "is_reserved": 0, "rental_uris": {"ios": "https://dc.lft.to/lastmile_qr_scan", "android": "https://dc.lft.to/lastmile_qr_scan"}}, {"fusion_lat": 0.0, "is_disabled": 0, "lat": 38.9266995, "lon": -77.01513466666667, "fusion_lon": 0.0, "bike_id": "bd6290de3933fbcf03d02bb9f8d398de", "type": "electric_scooter", "name": "bd6290de3933fbcf03d02bb9f8d398de", "is_reserved": 0, "rental_uris": {"ios": "https://dc.lft.to/lastmile_qr_scan", "android": "https://dc.lft.to/lastmile_qr_scan"}}, {"fusion_lat": 0.0, "is_disabled": 0, "lat": 38.903391666666664, "lon": -76.98282033333334, "fusion_lon": 0.0, "bike_id": "e7a6b9e016e71b875359b7e2411a1bb3", "type": "electric_scooter", "name": "e7a6b9e016e71b875359b7e2411a1bb3", "is_reserved": 0, "rental_uris": {"ios": "https://dc.lft.to/lastmile_qr_scan", "android": "https://dc.lft.to/lastmile_qr_scan"}}, {"fusion_lat": 0.0, "is_disabled": 0, "lat": 38.905287, "lon": -77.05334783333333, "fusion_lon": 0.0, "bike_id": "31edfe8904209fe99f21a9e3466c0d49", "type": "electric_scooter", "name": "31edfe8904209fe99f21a9e3466c0d49", "is_reserved": 0, "rental_uris": {"ios": "https://dc.lft.to/lastmile_qr_scan", "android": "https://dc.lft.to/lastmile_qr_scan"}}, {"fusion_lat": 0.0, "is_disabled": 0, "lat": 38.9057415, "lon": -77.02184133333333, "fusion_lon": 0.0, "bike_id": "4f21d343e06b9476c1ebf770d22fa5b4", "type": "electric_scooter", "name": "4f21d343e06b9476c1ebf770d22fa5b4", "is_reserved": 0, "rental_uris": {"ios": "https://dc.lft.to/lastmile_qr_scan", "android": "https://dc.lft.to/lastmile_qr_scan"}}, {"fusion_lat": 0.0, "is_disabled": 0, "lat": 38.909829333333334, "lon": -77.0443895, "fusion_lon": 0.0, "bike_id": "20beed80d50fb239d357b2e129d43c71", "type": "electric_scooter", "name": "20beed80d50fb239d357b2e129d43c71", "is_reserved": 0, "rental_uris": {"ios": "https://dc.lft.to/lastmile_qr_scan", "android": "https://dc.lft.to/lastmile_qr_scan"}}, {"fusion_lat": 0.0, "is_disabled": 0, "lat": 38.89219516666667, "lon": -77.04364266666667, "fusion_lon": 0.0, "bike_id": "9ef88b526f07e68c705d9006c95aaf6b", "type": "electric_scooter", "name": "9ef88b526f07e68c705d9006c95aaf6b", "is_reserved": 0, "rental_uris": {"ios": "https://dc.lft.to/lastmile_qr_scan", "android": "https://dc.lft.to/lastmile_qr_scan"}}, {"fusion_lat": 0.0, "is_disabled": 0, "lat": 38.92380033333333, "lon": -77.02933916666667, "fusion_lon": 0.0, "bike_id": "387b8eb34fcb40088f9427f0bce516d6", "type": "electric_scooter", "name": "387b8eb34fcb40088f9427f0bce516d6", "is_reserved": 0, "rental_uris": {"ios": "https://dc.lft.to/lastmile_qr_scan", "android": "https://dc.lft.to/lastmile_qr_scan"}}, {"fusion_lat": 0.0, "is_disabled": 0, "lat": 38.92758666666667, "lon": -77.03210066666666, "fusion_lon": 0.0, "bike_id": "d70637a2c4df093c994f5ee35d2f8cd0", "type": "electric_scooter", "name": "d70637a2c4df093c994f5ee35d2f8cd0", "is_reserved": 0, "rental_uris": {"ios": "https://dc.lft.to/lastmile_qr_scan", "android": "https://dc.lft.to/lastmile_qr_scan"}}, {"fusion_lat": 0.0, "is_disabled": 0, "lat": 38.9063205, "lon": -77.06298033333333, "fusion_lon": 0.0, "bike_id": "ce89fa8f4faac7b5cb42f8f6558eb1a0", "type": "electric_scooter", "name": "ce89fa8f4faac7b5cb42f8f6558eb1a0", "is_reserved": 0, "rental_uris": {"ios": "https://dc.lft.to/lastmile_qr_scan", "android": "https://dc.lft.to/lastmile_qr_scan"}}, {"fusion_lat": 0.0, "is_disabled": 0, "lat": 38.902154333333336, "lon": -77.02386833333334, "fusion_lon": 0.0, "bike_id": "c949a9599a7d11e6947e4e56529002d7", "type": "electric_scooter", "name": "c949a9599a7d11e6947e4e56529002d7", "is_reserved": 0, "rental_uris": {"ios": "https://dc.lft.to/lastmile_qr_scan", "android": "https://dc.lft.to/lastmile_qr_scan"}}, {"fusion_lat": 0.0, "is_disabled": 0, "lat": 38.905185, "lon": -77.06454383333333, "fusion_lon": 0.0, "bike_id": "bcae2c27f21dc8d72b1bfa17dc265b1e", "type": "electric_scooter", "name": "bcae2c27f21dc8d72b1bfa17dc265b1e", "is_reserved": 0, "rental_uris": {"ios": "https://dc.lft.to/lastmile_qr_scan", "android": "https://dc.lft.to/lastmile_qr_scan"}}, {"fusion_lat": 0.0, "is_disabled": 0, "lat": 38.906930833333334, "lon": -77.06303516666667, "fusion_lon": 0.0, "bike_id": "795de750242b7ea21b19a5f9f9afb6fd", "type": "electric_scooter", "name": "795de750242b7ea21b19a5f9f9afb6fd", "is_reserved": 0, "rental_uris": {"ios": "https://dc.lft.to/lastmile_qr_scan", "android": "https://dc.lft.to/lastmile_qr_scan"}}, {"fusion_lat": 0.0, "is_disabled": 0, "lat": 38.90355666666667, "lon": -77.039975, "fusion_lon": 0.0, "bike_id": "f64bc5bc938a84f39622215747922f14", "type": "electric_scooter", "name": "f64bc5bc938a84f39622215747922f14", "is_reserved": 0, "rental_uris": {"ios": "https://dc.lft.to/lastmile_qr_scan", "android": "https://dc.lft.to/lastmile_qr_scan"}}, {"fusion_lat": 0.0, "is_disabled": 0, "lat": 38.897264166666666, "lon": -76.99516766666666, "fusion_lon": 0.0, "bike_id": "435afeddc2445a63a673ef2e2f337a9e", "type": "electric_scooter", "name": "435afeddc2445a63a673ef2e2f337a9e", "is_reserved": 0, "rental_uris": {"ios": "https://dc.lft.to/lastmile_qr_scan", "android": "https://dc.lft.to/lastmile_qr_scan"}}, {"fusion_lat": 0.0, "is_disabled": 0, "lat": 38.892209, "lon": -77.045065, "fusion_lon": 0.0, "bike_id": "50bdf75f5e55bbe291211ae800ec3a91", "type": "electric_scooter", "name": "50bdf75f5e55bbe291211ae800ec3a91", "is_reserved": 0, "rental_uris": {"ios": "https://dc.lft.to/lastmile_qr_scan", "android": "https://dc.lft.to/lastmile_qr_scan"}}, {"fusion_lat": 0.0, "is_disabled": 0, "lat": 38.923064, "lon": -77.0422025, "fusion_lon": 0.0, "bike_id": "d284e8d01a5b152ae1980e0536081464", "type": "electric_scooter", "name": "d284e8d01a5b152ae1980e0536081464", "is_reserved": 0, "rental_uris": {"ios": "https://dc.lft.to/lastmile_qr_scan", "android": "https://dc.lft.to/lastmile_qr_scan"}}, {"fusion_lat": 0.0, "is_disabled": 0, "lat": 38.934586, "lon": -77.0581325, "fusion_lon": 0.0, "bike_id": "ad1ef941492e6a84dc10aa7a8b8a96d5", "type": "electric_scooter", "name": "ad1ef941492e6a84dc10aa7a8b8a96d5", "is_reserved": 0, "rental_uris": {"ios": "https://dc.lft.to/lastmile_qr_scan", "android": "https://dc.lft.to/lastmile_qr_scan"}}, {"fusion_lat": 0.0, "is_disabled": 0, "lat": 38.957817, "lon": -77.02839766666666, "fusion_lon": 0.0, "bike_id": "62bb236ae80452458425dffc8e6a1168", "type": "electric_scooter", "name": "62bb236ae80452458425dffc8e6a1168", "is_reserved": 0, "rental_uris": {"ios": "https://dc.lft.to/lastmile_qr_scan", "android": "https://dc.lft.to/lastmile_qr_scan"}}, {"fusion_lat": 0.0, "is_disabled": 0, "lat": 38.92927383333333, "lon": -77.00673033333334, "fusion_lon": 0.0, "bike_id": "16e1fa46854c145a456fc61b83effd63", "type": "electric_scooter", "name": "16e1fa46854c145a456fc61b83effd63", "is_reserved": 0, "rental_uris": {"ios": "https://dc.lft.to/lastmile_qr_scan", "android": "https://dc.lft.to/lastmile_qr_scan"}}, {"fusion_lat": 0.0, "is_disabled": 0, "lat": 38.9019615, "lon": -77.03346016666667, "fusion_lon": 0.0, "bike_id": "d1a90a51b28225750c47012687872a81", "type": "electric_scooter", "name": "d1a90a51b28225750c47012687872a81", "is_reserved": 0, "rental_uris": {"ios": "https://dc.lft.to/lastmile_qr_scan", "android": "https://dc.lft.to/lastmile_qr_scan"}}, {"fusion_lat": 0.0, "is_disabled": 0, "lat": 38.91705616666667, "lon": -77.03862916666667, "fusion_lon": 0.0, "bike_id": "7a770932d43641c9c10531f12bdfe197", "type": "electric_scooter", "name": "7a770932d43641c9c10531f12bdfe197", "is_reserved": 0, "rental_uris": {"ios": "https://dc.lft.to/lastmile_qr_scan", "android": "https://dc.lft.to/lastmile_qr_scan"}}, {"fusion_lat": 0.0, "is_disabled": 0, "lat": 38.90575466666667, "lon": -77.0343475, "fusion_lon": 0.0, "bike_id": "45fac7b75f66c83a67a9688d11dad450", "type": "electric_scooter", "name": "45fac7b75f66c83a67a9688d11dad450", "is_reserved": 0, "rental_uris": {"ios": "https://dc.lft.to/lastmile_qr_scan", "android": "https://dc.lft.to/lastmile_qr_scan"}}, {"fusion_lat": 0.0, "is_disabled": 0, "lat": 38.906638666666666, "lon": -77.00209816666667, "fusion_lon": 0.0, "bike_id": "2b840f299961114ad9466a77395a97be", "type": "electric_scooter", "name": "2b840f299961114ad9466a77395a97be", "is_reserved": 0, "rental_uris": {"ios": "https://dc.lft.to/lastmile_qr_scan", "android": "https://dc.lft.to/lastmile_qr_scan"}}, {"fusion_lat": 0.0, "is_disabled": 0, "lat": 38.928235666666666, "lon": -77.02267616666667, "fusion_lon": 0.0, "bike_id": "02644ce2aafdaff00d31cc9edb7fddb5", "type": "electric_scooter", "name": "02644ce2aafdaff00d31cc9edb7fddb5", "is_reserved": 0, "rental_uris": {"ios": "https://dc.lft.to/lastmile_qr_scan", "android": "https://dc.lft.to/lastmile_qr_scan"}}, {"fusion_lat": 0.0, "is_disabled": 0, "lat": 38.922976, "lon": -77.01952716666666, "fusion_lon": 0.0, "bike_id": "4f0525745bed957c18276eba9e6c3730", "type": "electric_scooter", "name": "4f0525745bed957c18276eba9e6c3730", "is_reserved": 0, "rental_uris": {"ios": "https://dc.lft.to/lastmile_qr_scan", "android": "https://dc.lft.to/lastmile_qr_scan"}}, {"fusion_lat": 0.0, "is_disabled": 0, "lat": 38.8969685, "lon": -77.028093, "fusion_lon": 0.0, "bike_id": "38ac4da45233ebcb7281a5fc4e210b12", "type": "electric_scooter", "name": "38ac4da45233ebcb7281a5fc4e210b12", "is_reserved": 0, "rental_uris": {"ios": "https://dc.lft.to/lastmile_qr_scan", "android": "https://dc.lft.to/lastmile_qr_scan"}}, {"fusion_lat": 0.0, "is_disabled": 0, "lat": 38.89222016666667, "lon": -77.04642066666666, "fusion_lon": 0.0, "bike_id": "143b66512a2339dee5803497c6bceb39", "type": "electric_scooter", "name": "143b66512a2339dee5803497c6bceb39", "is_reserved": 0, "rental_uris": {"ios": "https://dc.lft.to/lastmile_qr_scan", "android": "https://dc.lft.to/lastmile_qr_scan"}}, {"fusion_lat": 0.0, "is_disabled": 0, "lat": 38.91026183333334, "lon": -77.04506216666667, "fusion_lon": 0.0, "bike_id": "6d8d60eaccfd388abb30a3df1be6ab4a", "type": "electric_scooter", "name": "6d8d60eaccfd388abb30a3df1be6ab4a", "is_reserved": 0, "rental_uris": {"ios": "https://dc.lft.to/lastmile_qr_scan", "android": "https://dc.lft.to/lastmile_qr_scan"}}, {"fusion_lat": 0.0, "is_disabled": 0, "lat": 38.8997465, "lon": -77.04827883333333, "fusion_lon": 0.0, "bike_id": "4bb9a140a819eaea5403dc132fb648c6", "type": "electric_scooter", "name": "4bb9a140a819eaea5403dc132fb648c6", "is_reserved": 0, "rental_uris": {"ios": "https://dc.lft.to/lastmile_qr_scan", "android": "https://dc.lft.to/lastmile_qr_scan"}}, {"fusion_lat": 0.0, "is_disabled": 0, "lat": 38.9014615, "lon": -77.03201033333333, "fusion_lon": 0.0, "bike_id": "a7d89e8b28a13bd53ff013c4e0fbb05d", "type": "electric_scooter", "name": "a7d89e8b28a13bd53ff013c4e0fbb05d", "is_reserved": 0, "rental_uris": {"ios": "https://dc.lft.to/lastmile_qr_scan", "android": "https://dc.lft.to/lastmile_qr_scan"}}, {"fusion_lat": 0.0, "is_disabled": 0, "lat": 38.953087833333335, "lon": -76.98184116666667, "fusion_lon": 0.0, "bike_id": "85e8e0f4b2633915e1073e487e48e7ba", "type": "electric_bike", "name": "85e8e0f4b2633915e1073e487e48e7ba", "is_reserved": 0, "rental_uris": {"ios": "https://dc.lft.to/lastmile_qr_scan", "android": "https://dc.lft.to/lastmile_qr_scan"}}, {"fusion_lat": 0.0, "is_disabled": 0, "lat": 38.913614833333334, "lon": -77.04493366666667, "fusion_lon": 0.0, "bike_id": "e36e5f999d961aa312fa2b4c8930963a", "type": "electric_scooter", "name": "e36e5f999d961aa312fa2b4c8930963a", "is_reserved": 0, "rental_uris": {"ios": "https://dc.lft.to/lastmile_qr_scan", "android": "https://dc.lft.to/lastmile_qr_scan"}}, {"fusion_lat": 0.0, "is_disabled": 0, "lat": 38.89888833333333, "lon": -77.03273066666667, "fusion_lon": 0.0, "bike_id": "84b6696ab8e25d8dda663c4647461d46", "type": "electric_scooter", "name": "84b6696ab8e25d8dda663c4647461d46", "is_reserved": 0, "rental_uris": {"ios": "https://dc.lft.to/lastmile_qr_scan", "android": "https://dc.lft.to/lastmile_qr_scan"}}, {"fusion_lat": 0.0, "is_disabled": 0, "lat": 38.92464666666667, "lon": -77.02249166666667, "fusion_lon": 0.0, "bike_id": "1500afafc84f4ba6dff3db347fc54e6a", "type": "electric_scooter", "name": "1500afafc84f4ba6dff3db347fc54e6a", "is_reserved": 0, "rental_uris": {"ios": "https://dc.lft.to/lastmile_qr_scan", "android": "https://dc.lft.to/lastmile_qr_scan"}}, {"fusion_lat": 0.0, "is_disabled": 0, "lat": 38.809782, "lon": -77.07660333333334, "fusion_lon": 0.0, "bike_id": "fe1ba8b1b9f2d37f9c81079eeba3fb36", "type": "electric_bike", "name": "fe1ba8b1b9f2d37f9c81079eeba3fb36", "is_reserved": 0, "rental_uris": {"ios": "https://dc.lft.to/lastmile_qr_scan", "android": "https://dc.lft.to/lastmile_qr_scan"}}, {"fusion_lat": 0.0, "is_disabled": 0, "lat": 38.892298333333336, "lon": -77.0251295, "fusion_lon": 0.0, "bike_id": "4a5ca0cb6536ff84ca5b897015510e0a", "type": "electric_scooter", "name": "4a5ca0cb6536ff84ca5b897015510e0a", "is_reserved": 0, "rental_uris": {"ios": "https://dc.lft.to/lastmile_qr_scan", "android": "https://dc.lft.to/lastmile_qr_scan"}}, {"fusion_lat": 0.0, "is_disabled": 0, "lat": 38.8954465, "lon": -76.9889205, "fusion_lon": 0.0, "bike_id": "eec940503838b7a10bd7db0b9ef37589", "type": "electric_scooter", "name": "eec940503838b7a10bd7db0b9ef37589", "is_reserved": 0, "rental_uris": {"ios": "https://dc.lft.to/lastmile_qr_scan", "android": "https://dc.lft.to/lastmile_qr_scan"}}, {"fusion_lat": 0.0, "is_disabled": 0, "lat": 38.90256083333333, "lon": -77.017502, "fusion_lon": 0.0, "bike_id": "adfef2b51f04500a59f252a9d8856caa", "type": "electric_scooter", "name": "adfef2b51f04500a59f252a9d8856caa", "is_reserved": 0, "rental_uris": {"ios": "https://dc.lft.to/lastmile_qr_scan", "android": "https://dc.lft.to/lastmile_qr_scan"}}, {"fusion_lat": 0.0, "is_disabled": 0, "lat": 38.96563616666667, "lon": -77.02298366666666, "fusion_lon": 0.0, "bike_id": "302197def4446667301d8bfddf3f6360", "type": "electric_bike", "name": "302197def4446667301d8bfddf3f6360", "is_reserved": 0, "rental_uris": {"ios": "https://dc.lft.to/lastmile_qr_scan", "android": "https://dc.lft.to/lastmile_qr_scan"}}, {"fusion_lat": 0.0, "is_disabled": 0, "lat": 38.92680216666667, "lon": -77.0148395, "fusion_lon": 0.0, "bike_id": "3f3cdae273556441e270ade50875ae0a", "type": "electric_scooter", "name": "3f3cdae273556441e270ade50875ae0a", "is_reserved": 0, "rental_uris": {"ios": "https://dc.lft.to/lastmile_qr_scan", "android": "https://dc.lft.to/lastmile_qr_scan"}}, {"fusion_lat": 0.0, "is_disabled": 0, "lat": 38.896912, "lon": -77.0271375, "fusion_lon": 0.0, "bike_id": "35ea0b3f660425f01017657aa2490b85", "type": "electric_scooter", "name": "35ea0b3f660425f01017657aa2490b85", "is_reserved": 0, "rental_uris": {"ios": "https://dc.lft.to/lastmile_qr_scan", "android": "https://dc.lft.to/lastmile_qr_scan"}}, {"fusion_lat": 0.0, "is_disabled": 0, "lat": 38.93760233333333, "lon": -77.02360266666666, "fusion_lon": 0.0, "bike_id": "180de65806cafd67d44fff3d66fce079", "type": "electric_scooter", "name": "180de65806cafd67d44fff3d66fce079", "is_reserved": 0, "rental_uris": {"ios": "https://dc.lft.to/lastmile_qr_scan", "android": "https://dc.lft.to/lastmile_qr_scan"}}, {"fusion_lat": 0.0, "is_disabled": 0, "lat": 38.892343333333336, "lon": -77.023844, "fusion_lon": 0.0, "bike_id": "a90500e4cac0989fe44b2fbc85376621", "type": "electric_scooter", "name": "a90500e4cac0989fe44b2fbc85376621", "is_reserved": 0, "rental_uris": {"ios": "https://dc.lft.to/lastmile_qr_scan", "android": "https://dc.lft.to/lastmile_qr_scan"}}, {"fusion_lat": 0.0, "is_disabled": 0, "lat": 38.9101135, "lon": -77.05276533333333, "fusion_lon": 0.0, "bike_id": "32366c48aace3cb6bd6c90b87aa7fe57", "type": "electric_scooter", "name": "32366c48aace3cb6bd6c90b87aa7fe57", "is_reserved": 0, "rental_uris": {"ios": "https://dc.lft.to/lastmile_qr_scan", "android": "https://dc.lft.to/lastmile_qr_scan"}}, {"fusion_lat": 0.0, "is_disabled": 0, "lat": 38.90909216666667, "lon": -77.02712066666666, "fusion_lon": 0.0, "bike_id": "9b8f78408b02f282a9dce79956ebe196", "type": "electric_scooter", "name": "9b8f78408b02f282a9dce79956ebe196", "is_reserved": 0, "rental_uris": {"ios": "https://dc.lft.to/lastmile_qr_scan", "android": "https://dc.lft.to/lastmile_qr_scan"}}, {"fusion_lat": 0.0, "is_disabled": 0, "lat": 38.919184666666666, "lon": -77.048094, "fusion_lon": 0.0, "bike_id": "9ffee00acd71551e225308b558c1cd5a", "type": "electric_scooter", "name": "9ffee00acd71551e225308b558c1cd5a", "is_reserved": 0, "rental_uris": {"ios": "https://dc.lft.to/lastmile_qr_scan", "android": "https://dc.lft.to/lastmile_qr_scan"}}, {"fusion_lat": 0.0, "is_disabled": 0, "lat": 38.892256, "lon": -77.0433685, "fusion_lon": 0.0, "bike_id": "72dd02e6d1fe1da930045da3ac286b3f", "type": "electric_scooter", "name": "72dd02e6d1fe1da930045da3ac286b3f", "is_reserved": 0, "rental_uris": {"ios": "https://dc.lft.to/lastmile_qr_scan", "android": "https://dc.lft.to/lastmile_qr_scan"}}, {"fusion_lat": 0.0, "is_disabled": 0, "lat": 38.88611266666667, "lon": -77.00335833333334, "fusion_lon": 0.0, "bike_id": "361ae8de1382d89c3dbf0b9c7f6808e4", "type": "electric_scooter", "name": "361ae8de1382d89c3dbf0b9c7f6808e4", "is_reserved": 0, "rental_uris": {"ios": "https://dc.lft.to/lastmile_qr_scan", "android": "https://dc.lft.to/lastmile_qr_scan"}}, {"fusion_lat": 0.0, "is_disabled": 0, "lat": 38.90260466666667, "lon": -77.03848316666667, "fusion_lon": 0.0, "bike_id": "f616c3b81a5816a68d1551267595437d", "type": "electric_scooter", "name": "f616c3b81a5816a68d1551267595437d", "is_reserved": 0, "rental_uris": {"ios": "https://dc.lft.to/lastmile_qr_scan", "android": "https://dc.lft.to/lastmile_qr_scan"}}, {"fusion_lat": 0.0, "is_disabled": 0, "lat": 38.897558833333335, "lon": -77.02648316666667, "fusion_lon": 0.0, "bike_id": "d46091cfdd6151c27075e046777a1c71", "type": "electric_scooter", "name": "d46091cfdd6151c27075e046777a1c71", "is_reserved": 0, "rental_uris": {"ios": "https://dc.lft.to/lastmile_qr_scan", "android": "https://dc.lft.to/lastmile_qr_scan"}}, {"fusion_lat": 0.0, "is_disabled": 0, "lat": 38.959339, "lon": -77.03125583333333, "fusion_lon": 0.0, "bike_id": "6befcb9b664e1d8cc6862fc7712c4590", "type": "electric_scooter", "name": "6befcb9b664e1d8cc6862fc7712c4590", "is_reserved": 0, "rental_uris": {"ios": "https://dc.lft.to/lastmile_qr_scan", "android": "https://dc.lft.to/lastmile_qr_scan"}}, {"fusion_lat": 0.0, "is_disabled": 0, "lat": 38.90045516666667, "lon": -77.0482375, "fusion_lon": 0.0, "bike_id": "64b7f8707dbedd566a626835307d52a1", "type": "electric_scooter", "name": "64b7f8707dbedd566a626835307d52a1", "is_reserved": 0, "rental_uris": {"ios": "https://dc.lft.to/lastmile_qr_scan", "android": "https://dc.lft.to/lastmile_qr_scan"}}, {"fusion_lat": 0.0, "is_disabled": 0, "lat": 38.934541333333335, "lon": -77.02734616666666, "fusion_lon": 0.0, "bike_id": "28fc21535925e77d1a28e6d7681f1dd9", "type": "electric_scooter", "name": "28fc21535925e77d1a28e6d7681f1dd9", "is_reserved": 0, "rental_uris": {"ios": "https://dc.lft.to/lastmile_qr_scan", "android": "https://dc.lft.to/lastmile_qr_scan"}}, {"fusion_lat": 0.0, "is_disabled": 0, "lat": 38.90690383333333, "lon": -76.9793635, "fusion_lon": 0.0, "bike_id": "ea0ecc235760c1975493ab254613f949", "type": "electric_scooter", "name": "ea0ecc235760c1975493ab254613f949", "is_reserved": 0, "rental_uris": {"ios": "https://dc.lft.to/lastmile_qr_scan", "android": "https://dc.lft.to/lastmile_qr_scan"}}, {"fusion_lat": 0.0, "is_disabled": 0, "lat": 38.916928166666665, "lon": -77.023136, "fusion_lon": 0.0, "bike_id": "bb194ca6aca296e911731f11938d7f26", "type": "electric_scooter", "name": "bb194ca6aca296e911731f11938d7f26", "is_reserved": 0, "rental_uris": {"ios": "https://dc.lft.to/lastmile_qr_scan", "android": "https://dc.lft.to/lastmile_qr_scan"}}, {"fusion_lat": 0.0, "is_disabled": 0, "lat": 38.90262233333333, "lon": -77.017478, "fusion_lon": 0.0, "bike_id": "d607106d3d0af67c55621c9d3def28dd", "type": "electric_scooter", "name": "d607106d3d0af67c55621c9d3def28dd", "is_reserved": 0, "rental_uris": {"ios": "https://dc.lft.to/lastmile_qr_scan", "android": "https://dc.lft.to/lastmile_qr_scan"}}, {"fusion_lat": 0.0, "is_disabled": 0, "lat": 38.88657533333333, "lon": -76.9985465, "fusion_lon": 0.0, "bike_id": "ab45c5ac1b82f92ef600b3ee786bd5ba", "type": "electric_scooter", "name": "ab45c5ac1b82f92ef600b3ee786bd5ba", "is_reserved": 0, "rental_uris": {"ios": "https://dc.lft.to/lastmile_qr_scan", "android": "https://dc.lft.to/lastmile_qr_scan"}}, {"fusion_lat": 0.0, "is_disabled": 0, "lat": 38.886185833333336, "lon": -77.03195266666667, "fusion_lon": 0.0, "bike_id": "e57472cc56b2ab0fdea5ce39ef5f98ab", "type": "electric_scooter", "name": "e57472cc56b2ab0fdea5ce39ef5f98ab", "is_reserved": 0, "rental_uris": {"ios": "https://dc.lft.to/lastmile_qr_scan", "android": "https://dc.lft.to/lastmile_qr_scan"}}, {"fusion_lat": 0.0, "is_disabled": 0, "lat": 38.92470383333333, "lon": -77.02204866666666, "fusion_lon": 0.0, "bike_id": "e63688c2c6646b29deb0124e15655ec5", "type": "electric_scooter", "name": "e63688c2c6646b29deb0124e15655ec5", "is_reserved": 0, "rental_uris": {"ios": "https://dc.lft.to/lastmile_qr_scan", "android": "https://dc.lft.to/lastmile_qr_scan"}}, {"fusion_lat": 0.0, "is_disabled": 0, "lat": 38.923300833333336, "lon": -77.05677966666667, "fusion_lon": 0.0, "bike_id": "f14cdc27454e5bbec40744cac416582d", "type": "electric_scooter", "name": "f14cdc27454e5bbec40744cac416582d", "is_reserved": 0, "rental_uris": {"ios": "https://dc.lft.to/lastmile_qr_scan", "android": "https://dc.lft.to/lastmile_qr_scan"}}, {"fusion_lat": 0.0, "is_disabled": 0, "lat": 38.85242783333333, "lon": -77.11432233333333, "fusion_lon": 0.0, "bike_id": "439b7f0ce93534280e95f422c63ffa86", "type": "electric_bike", "name": "439b7f0ce93534280e95f422c63ffa86", "is_reserved": 0, "rental_uris": {"ios": "https://dc.lft.to/lastmile_qr_scan", "android": "https://dc.lft.to/lastmile_qr_scan"}}, {"fusion_lat": 0.0, "is_disabled": 0, "lat": 38.91267166666667, "lon": -77.02317633333334, "fusion_lon": 0.0, "bike_id": "8c7db43e0ecf4a44c51184bf96cd1f3e", "type": "electric_scooter", "name": "8c7db43e0ecf4a44c51184bf96cd1f3e", "is_reserved": 0, "rental_uris": {"ios": "https://dc.lft.to/lastmile_qr_scan", "android": "https://dc.lft.to/lastmile_qr_scan"}}, {"fusion_lat": 0.0, "is_disabled": 0, "lat": 38.90886833333333, "lon": -77.06454033333333, "fusion_lon": 0.0, "bike_id": "d5e3b3df25c857714a832dace9b45de7", "type": "electric_scooter", "name": "d5e3b3df25c857714a832dace9b45de7", "is_reserved": 0, "rental_uris": {"ios": "https://dc.lft.to/lastmile_qr_scan", "android": "https://dc.lft.to/lastmile_qr_scan"}}, {"fusion_lat": 0.0, "is_disabled": 0, "lat": 38.90580766666667, "lon": -77.047031, "fusion_lon": 0.0, "bike_id": "a8e91db45cd783f414cf979fb79943d0", "type": "electric_scooter", "name": "a8e91db45cd783f414cf979fb79943d0", "is_reserved": 0, "rental_uris": {"ios": "https://dc.lft.to/lastmile_qr_scan", "android": "https://dc.lft.to/lastmile_qr_scan"}}, {"fusion_lat": 0.0, "is_disabled": 0, "lat": 38.89326633333334, "lon": -76.9393065, "fusion_lon": 0.0, "bike_id": "4a80df0a14ad65daab381c86c74e3d83", "type": "electric_scooter", "name": "4a80df0a14ad65daab381c86c74e3d83", "is_reserved": 0, "rental_uris": {"ios": "https://dc.lft.to/lastmile_qr_scan", "android": "https://dc.lft.to/lastmile_qr_scan"}}, {"fusion_lat": 0.0, "is_disabled": 0, "lat": 38.921556, "lon": -77.0333195, "fusion_lon": 0.0, "bike_id": "121836fc1c12a2490dae315e26bbcc67", "type": "electric_scooter", "name": "121836fc1c12a2490dae315e26bbcc67", "is_reserved": 0, "rental_uris": {"ios": "https://dc.lft.to/lastmile_qr_scan", "android": "https://dc.lft.to/lastmile_qr_scan"}}, {"fusion_lat": 0.0, "is_disabled": 0, "lat": 38.94479666666667, "lon": -77.06382866666667, "fusion_lon": 0.0, "bike_id": "b082f6673d6153d68556d1e48e1c386d", "type": "electric_scooter", "name": "b082f6673d6153d68556d1e48e1c386d", "is_reserved": 0, "rental_uris": {"ios": "https://dc.lft.to/lastmile_qr_scan", "android": "https://dc.lft.to/lastmile_qr_scan"}}, {"fusion_lat": 0.0, "is_disabled": 0, "lat": 38.909198833333335, "lon": -77.04593566666667, "fusion_lon": 0.0, "bike_id": "47635e6bc40084f8b7abd3f05a510da3", "type": "electric_scooter", "name": "47635e6bc40084f8b7abd3f05a510da3", "is_reserved": 0, "rental_uris": {"ios": "https://dc.lft.to/lastmile_qr_scan", "android": "https://dc.lft.to/lastmile_qr_scan"}},