{"data": {"bikes": [{"is_disabled": 0, "rental_uris": {"android": "https://dc.lft.to/lastmile_qr_scan", "ios": "https://dc.lft.to/lastmile_qr_scan"}, "is_reserved": 0, "name": "716e1d19fed3d140e8890c8cacddb830", "lon": -77.01113683333334, "type": "electric_scooter", "bike_id": "716e1d19fed3d140e8890c8cacddb830", "fusion_lon": 0.0, "lat": 38.903554, "fusion_lat": 0.0}, {"is_disabled": 0, "rental_uris": {"android": "https://dc.lft.to/lastmile_qr_scan", "ios": "https://dc.lft.to/lastmile_qr_scan"}, "is_reserved": 0, "name": "5bc150e173aa5eb6488a4dfd7705fcb1", "lon": -76.99958116666667, "type": "electric_scooter", "bike_id": "5bc150e173aa5eb6488a4dfd7705fcb1", "fusion_lon": 0.0, "lat": 38.84283633333333, "fusion_lat": 0.0}, {"is_disabled": 0, "rental_uris": {"android": "https://dc.lft.to/lastmile_qr_scan", "ios": "https://dc.lft.to/lastmile_qr_scan"}, "is_reserved": 0, "name": "21df6b9885f8eac8ded92a20eeb1abbb", "lon": -77.03141566666666, "type": "electric_scooter", "bike_id": "21df6b9885f8eac8ded92a20eeb1abbb", "fusion_lon": 0.0, "lat": 38.916282, "fusion_lat": 0.0}, {"is_disabled": 0, "rental_uris": {"android": "https://dc.lft.to/lastmile_qr_scan", "ios": "https://dc.lft.to/lastmile_qr_scan"}, "is_reserved": 0, "name": "ead1f44b01268acbfc18ca8f6e8377d7", "lon": -77.02692533333334, "type": "electric_scooter", "bike_id": "ead1f44b01268acbfc18ca8f6e8377d7", "fusion_lon": 0.0, "lat": 38.9261105, "fusion_lat": 0.0}, {"is_disabled": 0, "rental_uris": {"android": "https://dc.lft.to/lastmile_qr_scan", "ios": "https://dc.lft.to/lastmile_qr_scan"}, "is_reserved": 0, "name": "0a048a8ef190aa0149cb8c96a1c90e61", "lon": -76.989681, "type": "electric_scooter", "bike_id": "0a048a8ef190aa0149cb8c96a1c90e61", "fusion_lon": 0.0, "lat": 38.90244966666667, "fusion_lat": 0.0}, {"is_disabled": 0, "rental_uris": {"android": "https://dc.lft.to/lastmile_qr_scan", "ios": "https://dc.lft.to/lastmile_qr_scan"}, "is_reserved": 0, "name": "b83b01319c14fbb4ccf9ec9f18df444f", "lon": -77.0161505, "type": "electric_scooter", "bike_id": "b83b01319c14fbb4ccf9ec9f18df444f", "fusion_lon": 0.0, "lat": 38.872316, "fusion_lat": 0.0}, {"is_disabled": 0, "rental_uris": {"android": "https://dc.lft.to/lastmile_qr_scan", "ios": "https://dc.lft.to/lastmile_qr_scan"}, "is_reserved": 0, "name": "7c31fd0701e6c37bca97f1f1113f9a41", "lon": -77.036667, "type": "electric_scooter", "bike_id": "7c31fd0701e6c37bca97f1f1113f9a41", "fusion_lon": 0.0, "lat": 38.90287683333333, "fusion_lat": 0.0}, {"is_disabled": 0, "rental_uris": {"android": "https://dc.lft.to/lastmile_qr_scan", "ios": "https://dc.lft.to/lastmile_qr_scan"}, "is_reserved": 0, "name": "338e58c6567a6402fdf56528f7755566", "lon": -77.0500315, "type": "electric_scooter", "bike_id": "338e58c6567a6402fdf56528f7755566", "fusion_lon": 0.0, "lat": 38.89229616666667, "fusion_lat": 0.0}, {"is_disabled": 0, "rental_uris": {"android": "https://dc.lft.to/lastmile_qr_scan", "ios": "https://dc.lft.to/lastmile_qr_scan"}, "is_reserved": 0, "name": "0d51f988fb73f5fe2ef0e368faa10ef7", "lon": -76.949518, "type": "electric_bike", "bike_id": "0d51f988fb73f5fe2ef0e368faa10ef7", "fusion_lon": 0.0, "lat": 38.934965166666665, "fusion_lat": 0.0}, {"is_disabled": 0, "rental_uris": {"android": "https://dc.lft.to/lastmile_qr_scan", "ios": "https://dc.lft.to/lastmile_qr_scan"}, "is_reserved": 0, "name": "c39ba73227af1d3a099d64c07727c2a3", "lon": -77.04893033333333, "type": "electric_scooter", "bike_id": "c39ba73227af1d3a099d64c07727c2a3", "fusion_lon": 0.0, "lat": 38.892463, "fusion_lat": 0.0}, {"is_disabled": 0, "rental_uris": {"android": "https://dc.lft.to/lastmile_qr_scan", "ios": "https://dc.lft.to/lastmile_qr_scan"}, "is_reserved": 0, "name": "35ce608f7c841abb632e9e867b2a10d5", "lon": -77.002265, "type": "electric_bike", "bike_id": "35ce608f7c841abb632e9e867b2a10d5", "fusion_lon": 0.0, "lat": 38.95747766666667, "fusion_lat": 0.0}, {"is_disabled": 0, "rental_uris": {"android": "https://dc.lft.to/lastmile_qr_scan", "ios": "https://dc.lft.to/lastmile_qr_scan"}, "is_reserved": 0, "name": "89c3e8607f026ef34477e0597c416a07", "lon": -77.04158933333333, "type": "electric_scooter", "bike_id": "89c3e8607f026ef34477e0597c416a07", "fusion_lon": 0.0, "lat": 38.910274, "fusion_lat": 0.0}, {"is_disabled": 0, "rental_uris": {"android": "https://dc.lft.to/lastmile_qr_scan", "ios": "https://dc.lft.to/lastmile_qr_scan"}, "is_reserved": 0, "name": "455593cd4ba3eb7dab3feacc5a71c26d", "lon": -76.984359, "type": "electric_bike", "bike_id": "455593cd4ba3eb7dab3feacc5a71c26d", "fusion_lon": 0.0, "lat": 38.855182666666664, "fusion_lat": 0.0}, {"is_disabled": 0, "rental_uris": {"android": "https://dc.lft.to/lastmile_qr_scan", "ios": "https://dc.lft.to/lastmile_qr_scan"}, "is_reserved": 0, "name": "f04a8c64d2b247aa79cc58227c7ec507", "lon": -77.04394383333333, "type": "electric_scooter", "bike_id": "f04a8c64d2b247aa79cc58227c7ec507", "fusion_lon": 0.0, "lat": 38.922860666666665, "fusion_lat": 0.0}, {"is_disabled": 0, "rental_uris": {"android": "https://dc.lft.to/lastmile_qr_scan", "ios": "https://dc.lft.to/lastmile_qr_scan"}, "is_reserved": 0, "name": "9c82fc9c65203f2de08e27f38a80fcd5", "lon": -77.06177316666667, "type": "electric_scooter", "bike_id": "9c82fc9c65203f2de08e27f38a80fcd5", "fusion_lon": 0.0, "lat": 38.90683466666667, "fusion_lat": 0.0}, {"is_disabled": 0, "rental_uris": {"android": "https://dc.lft.to/lastmile_qr_scan", "ios": "https://dc.lft.to/lastmile_qr_scan"}, "is_reserved": 0, "name": "ddf6adf06ebeabd3785d960b5626c3d4", "lon": -76.987131, "type": "electric_scooter", "bike_id": "ddf6adf06ebeabd3785d960b5626c3d4", "fusion_lon": 0.0, "lat": 38.8669745, "fusion_lat": 0.0}, {"is_disabled": 0, "rental_uris": {"android": "https://dc.lft.to/lastmile_qr_scan", "ios": "https://dc.lft.to/lastmile_qr_scan"}, "is_reserved": 0, "name": "397f738e4cc4c4bcae826d90c50f8851", "lon": -77.003343, "type": "electric_scooter", "bike_id": "397f738e4cc4c4bcae826d90c50f8851", "fusion_lon": 0.0, "lat": 38.8936405, "fusion_lat": 0.0}, {"is_disabled": 0, "rental_uris": {"android": "https://dc.lft.to/lastmile_qr_scan", "ios": "https://dc.lft.to/lastmile_qr_scan"}, "is_reserved": 0, "name": "016639bd309218e0c796e730644797fc", "lon": -77.02263033333334, "type": "electric_scooter", "bike_id": "016639bd309218e0c796e730644797fc", "fusion_lon": 0.0, "lat": 38.927422, "fusion_lat": 0.0}, {"is_disabled": 0, "rental_uris": {"android": "https://dc.lft.to/lastmile_qr_scan", "ios": "https://dc.lft.to/lastmile_qr_scan"}, "is_reserved": 0, "name": "12f2a1485393d6a77bd26395cc639a3a", "lon": -77.06462316666666, "type": "electric_scooter", "bike_id": "12f2a1485393d6a77bd26395cc639a3a", "fusion_lon": 0.0, "lat": 38.90520466666667, "fusion_lat": 0.0}, {"is_disabled": 0, "rental_uris": {"android": "https://dc.lft.to/lastmile_qr_scan", "ios": "https://dc.lft.to/lastmile_qr_scan"}, "is_reserved": 0, "name": "85ca74dbfceeec60a098d3b52a480c94", "lon": -77.0254875, "type": "electric_scooter", "bike_id": "85ca74dbfceeec60a098d3b52a480c94", "fusion_lon": 0.0, "lat": 38.93276066666667, "fusion_lat": 0.0}, {"is_disabled": 0, "rental_uris": {"android": "https://dc.lft.to/lastmile_qr_scan", "ios": "https://dc.lft.to/lastmile_qr_scan"}, "is_reserved": 0, "name": "258a3874df47a8b450448892f6da52d8", "lon": -76.9054055, "type": "electric_bike", "bike_id": "258a3874df47a8b450448892f6da52d8", "fusion_lon": 0.0, "lat": 38.89734466666667, "fusion_lat": 0.0}, {"is_disabled": 0, "rental_uris": {"android": "https://dc.lft.to/lastmile_qr_scan", "ios": "https://dc.lft.to/lastmile_qr_scan"}, "is_reserved": 0, "name": "ec562b69fe4597195705bf1054ecdc83", "lon": -77.0385375, "type": "electric_scooter", "bike_id": "ec562b69fe4597195705bf1054ecdc83", "fusion_lon": 0.0, "lat": 38.916167, "fusion_lat": 0.0}, {"is_disabled": 0, "rental_uris": {"android": "https://dc.lft.to/lastmile_qr_scan", "ios": "https://dc.lft.to/lastmile_qr_scan"}, "is_reserved": 0, "name": "3623ccd965df79132b6ff1236062fb10", "lon": -77.05019, "type": "electric_scooter", "bike_id": "3623ccd965df79132b6ff1236062fb10", "fusion_lon": 0.0, "lat": 38.905127, "fusion_lat": 0.0}, {"is_disabled": 0, "rental_uris": {"android": "https://dc.lft.to/lastmile_qr_scan", "ios": "https://dc.lft.to/lastmile_qr_scan"}, "is_reserved": 0, "name": "87dfd8860d8762cfe9af8d53b984211d", "lon": -77.0634565, "type": "electric_scooter", "bike_id": "87dfd8860d8762cfe9af8d53b984211d", "fusion_lon": 0.0, "lat": 38.9443725, "fusion_lat": 0.0}, {"is_disabled": 0, "rental_uris": {"android": "https://dc.lft.to/lastmile_qr_scan", "ios": "https://dc.lft.to/lastmile_qr_scan"}, "is_reserved": 0, "name": "46b54151e99ddc9acebfee95d84d69c2", "lon": -77.07275666666666, "type": "electric_scooter", "bike_id": "46b54151e99ddc9acebfee95d84d69c2", "fusion_lon": 0.0, "lat": 38.934717666666664, "fusion_lat": 0.0}, {"is_disabled": 0, "rental_uris": {"android": "https://dc.lft.to/lastmile_qr_scan", "ios": "https://dc.lft.to/lastmile_qr_scan"}, "is_reserved": 0, "name": "cf6b717ec60c62533803a626e123b699", "lon": -77.04110716666666, "type": "electric_scooter", "bike_id": "cf6b717ec60c62533803a626e123b699", "fusion_lon": 0.0, "lat": 38.916934499999996, "fusion_lat": 0.0}, {"is_disabled": 0, "rental_uris": {"android": "https://dc.lft.to/lastmile_qr_scan", "ios": "https://dc.lft.to/lastmile_qr_scan"}, "is_reserved": 0, "name": "db9129a055aeec1cf2cc0ab57700b3fe", "lon": -77.0137015, "type": "electric_scooter", "bike_id": "db9129a055aeec1cf2cc0ab57700b3fe", "fusion_lon": 0.0, "lat": 38.886415166666666, "fusion_lat": 0.0}, {"is_disabled": 0, "rental_uris": {"android": "https://dc.lft.to/lastmile_qr_scan", "ios": "https://dc.lft.to/lastmile_qr_scan"}, "is_reserved": 0, "name": "06cd399db6b194d3a7772b50ad42a43f", "lon": -77.01535483333333, "type": "electric_scooter", "bike_id": "06cd399db6b194d3a7772b50ad42a43f", "fusion_lon": 0.0, "lat": 38.88738883333333, "fusion_lat": 0.0}, {"is_disabled": 0, "rental_uris": {"android": "https://dc.lft.to/lastmile_qr_scan", "ios": "https://dc.lft.to/lastmile_qr_scan"}, "is_reserved": 0, "name": "f22eaf50926442873d06115a01357dbc", "lon": -77.041669, "type": "electric_scooter", "bike_id": "f22eaf50926442873d06115a01357dbc", "fusion_lon": 0.0, "lat": 38.900527333333336, "fusion_lat": 0.0}, {"is_disabled": 0, "rental_uris": {"android": "https://dc.lft.to/lastmile_qr_scan", "ios": "https://dc.lft.to/lastmile_qr_scan"}, "is_reserved": 0, "name": "2a7eef97bf1c36bc903d3957dcc0a4e8", "lon": -77.04215116666667, "type": "electric_scooter", "bike_id": "2a7eef97bf1c36bc903d3957dcc0a4e8", "fusion_lon": 0.0, "lat": 38.9141945, "fusion_lat": 0.0}, {"is_disabled": 0, "rental_uris": {"android": "https://dc.lft.to/lastmile_qr_scan", "ios": "https://dc.lft.to/lastmile_qr_scan"}, "is_reserved": 0, "name": "0f69ca1de51957457b981095520017f5", "lon": -77.01358366666666, "type": "electric_scooter", "bike_id": "0f69ca1de51957457b981095520017f5", "fusion_lon": 0.0, "lat": 38.92879633333333, "fusion_lat": 0.0}, {"is_disabled": 0, "rental_uris": {"android": "https://dc.lft.to/lastmile_qr_scan", "ios": "https://dc.lft.to/lastmile_qr_scan"}, "is_reserved": 0, "name": "cad9d35a34f264857f1b95e1c668dfc1", "lon": -77.0442825, "type": "electric_scooter", "bike_id": "cad9d35a34f264857f1b95e1c668dfc1", "fusion_lon": 0.0, "lat": 38.9125375, "fusion_lat": 0.0}, {"is_disabled": 0, "rental_uris": {"android": "https://dc.lft.to/lastmile_qr_scan", "ios": "https://dc.lft.to/lastmile_qr_scan"}, "is_reserved": 0, "name": "d607edd65af51f0f7c429c5cadd257a5", "lon": -77.0343745, "type": "electric_scooter", "bike_id": "d607edd65af51f0f7c429c5cadd257a5", "fusion_lon": 0.0, "lat": 38.90977633333333, "fusion_lat": 0.0}, {"is_disabled": 0, "rental_uris": {"android": "https://dc.lft.to/lastmile_qr_scan", "ios": "https://dc.lft.to/lastmile_qr_scan"}, "is_reserved": 0, "name": "a4a931f4b2210156b66f23c513e79e18", "lon": -77.063781, "type": "electric_scooter", "bike_id": "a4a931f4b2210156b66f23c513e79e18", "fusion_lon": 0.0, "lat": 38.9051975, "fusion_lat": 0.0}, {"is_disabled": 0, "rental_uris": {"android": "https://dc.lft.to/lastmile_qr_scan", "ios": "https://dc.lft.to/lastmile_qr_scan"}, "is_reserved": 0, "name": "5efd41b6839228324e92d1ec0faf0912", "lon": -77.13229666666666, "type": "electric_bike", "bike_id": "5efd41b6839228324e92d1ec0faf0912", "fusion_lon": 0.0, "lat": 38.869751, "fusion_lat": 0.0}, {"is_disabled": 0, "rental_uris": {"android": "https://dc.lft.to/lastmile_qr_scan", "ios": "https://dc.lft.to/lastmile_qr_scan"}, "is_reserved": 0, "name": "8074bf7266b028f2a1c47f9e0225ce51", "lon": -77.02770066666666, "type": "electric_scooter", "bike_id": "8074bf7266b028f2a1c47f9e0225ce51", "fusion_lon": 0.0, "lat": 38.8816155, "fusion_lat": 0.0}, {"is_disabled": 0, "rental_uris": {"android": "https://dc.lft.to/lastmile_qr_scan", "ios": "https://dc.lft.to/lastmile_qr_scan"}, "is_reserved": 0, "name": "2f5249ad822b07fa14dc26f9eb825e61", "lon": -77.02172933333334, "type": "electric_scooter", "bike_id": "2f5249ad822b07fa14dc26f9eb825e61", "fusion_lon": 0.0, "lat": 38.94292016666667, "fusion_lat": 0.0}, {"is_disabled": 0, "rental_uris": {"android": "https://dc.lft.to/lastmile_qr_scan", "ios": "https://dc.lft.to/lastmile_qr_scan"}, "is_reserved": 0, "name": "ef3e6816626542115542ff1d7bf214c2", "lon": -77.0512025, "type": "electric_scooter", "bike_id": "ef3e6816626542115542ff1d7bf214c2", "fusion_lon": 0.0, "lat": 38.923429666666664, "fusion_lat": 0.0}, {"is_disabled": 0, "rental_uris": {"android": "https://dc.lft.to/lastmile_qr_scan", "ios": "https://dc.lft.to/lastmile_qr_scan"}, "is_reserved": 0, "name": "09a1d2a6a706038d19ecb004cb6552fc", "lon": -77.004079, "type": "electric_scooter", "bike_id": "09a1d2a6a706038d19ecb004cb6552fc", "fusion_lon": 0.0, "lat": 38.877097, "fusion_lat": 0.0}, {"is_disabled": 0, "rental_uris": {"android": "https://dc.lft.to/lastmile_qr_scan", "ios": "https://dc.lft.to/lastmile_qr_scan"}, "is_reserved": 0, "name": "805447cdb9ffcb14573fc79a743e5c89", "lon": -77.06601683333334, "type": "electric_scooter", "bike_id": "805447cdb9ffcb14573fc79a743e5c89", "fusion_lon": 0.0, "lat": 38.907416833333336, "fusion_lat": 0.0}, {"is_disabled": 0, "rental_uris": {"android": "https://dc.lft.to/lastmile_qr_scan", "ios": "https://dc.lft.to/lastmile_qr_scan"}, "is_reserved": 0, "name": "48b9fdc2db3d323f8e39205a7996ed31", "lon": -77.0330835, "type": "electric_scooter", "bike_id": "48b9fdc2db3d323f8e39205a7996ed31", "fusion_lon": 0.0, "lat": 38.916327, "fusion_lat": 0.0}, {"is_disabled": 0, "rental_uris": {"android": "https://dc.lft.to/lastmile_qr_scan", "ios": "https://dc.lft.to/lastmile_qr_scan"}, "is_reserved": 0, "name": "30a9d6e29c25911a6263633243218630", "lon": -77.01534583333333, "type": "electric_scooter", "bike_id": "30a9d6e29c25911a6263633243218630", "fusion_lon": 0.0, "lat": 38.88626166666667, "fusion_lat": 0.0}, {"is_disabled": 0, "rental_uris": {"android": "https://dc.lft.to/lastmile_qr_scan", "ios": "https://dc.lft.to/lastmile_qr_scan"}, "is_reserved": 0, "name": "31db82181506503666412566bd362203", "lon": -77.028036, "type": "electric_scooter", "bike_id": "31db82181506503666412566bd362203", "fusion_lon": 0.0, "lat": 38.90738916666667, "fusion_lat": 0.0}, {"is_disabled": 0, "rental_uris": {"android": "https://dc.lft.to/lastmile_qr_scan", "ios": "https://dc.lft.to/lastmile_qr_scan"}, "is_reserved": 0, "name": "d6e5571c4c501ae5877bfdfda82cb74e", "lon": -77.02297266666666, "type": "electric_scooter", "bike_id": "d6e5571c4c501ae5877bfdfda82cb74e", "fusion_lon": 0.0, "lat": 38.917869333333336, "fusion_lat": 0.0}, {"is_disabled": 0, "rental_uris": {"android": "https://dc.lft.to/lastmile_qr_scan", "ios": "https://dc.lft.to/lastmile_qr_scan"}, "is_reserved": 0, "name": "51c73e91eb8cb2060679b19daf367cf5", "lon": -77.0036625, "type": "electric_scooter", "bike_id": "51c73e91eb8cb2060679b19daf367cf5", "fusion_lon": 0.0, "lat": 38.8775285, "fusion_lat": 0.0}, {"is_disabled": 0, "rental_uris": {"android": "https://dc.lft.to/lastmile_qr_scan", "ios": "https://dc.lft.to/lastmile_qr_scan"}, "is_reserved": 0, "name": "13b866ddb6982010794dbb2be00b6563", "lon": -77.00581483333333, "type": "electric_scooter", "bike_id": "13b866ddb6982010794dbb2be00b6563", "fusion_lon": 0.0, "lat": 38.875171, "fusion_lat": 0.0}, {"is_disabled": 0, "rental_uris": {"android": "https://dc.lft.to/lastmile_qr_scan", "ios": "https://dc.lft.to/lastmile_qr_scan"}, "is_reserved": 0, "name": "27ee28af22e7bc17548c6c6c5d69adb2", "lon": -76.9962405, "type": "electric_scooter", "bike_id": "27ee28af22e7bc17548c6c6c5d69adb2", "fusion_lon": 0.0, "lat": 38.90032516666667, "fusion_lat": 0.0}, {"is_disabled": 0, "rental_uris": {"android": "https://dc.lft.to/lastmile_qr_scan", "ios": "https://dc.lft.to/lastmile_qr_scan"}, "is_reserved": 0, "name": "db446a3e5b6695123f4773d461cddc22", "lon": -77.03262033333333, "type": "electric_scooter", "bike_id": "db446a3e5b6695123f4773d461cddc22", "fusion_lon": 0.0, "lat": 38.91332966666667, "fusion_lat": 0.0}, {"is_disabled": 0, "rental_uris": {"android": "https://dc.lft.to/lastmile_qr_scan", "ios": "https://dc.lft.to/lastmile_qr_scan"}, "is_reserved": 0, "name": "d817acfb0f89892ad2918a414c62b363", "lon": -77.01206633333334, "type": "electric_scooter", "bike_id": "d817acfb0f89892ad2918a414c62b363", "fusion_lon": 0.0, "lat": 38.91177916666667, "fusion_lat": 0.0}, {"is_disabled": 0, "rental_uris": {"android": "https://dc.lft.to/lastmile_qr_scan", "ios": "https://dc.lft.to/lastmile_qr_scan"}, "is_reserved": 0, "name": "c4df055e027782c12d32a89c8a23ffe2", "lon": -77.057252, "type": "electric_scooter", "bike_id": "c4df055e027782c12d32a89c8a23ffe2", "fusion_lon": 0.0, "lat": 38.93364566666666, "fusion_lat": 0.0}, {"is_disabled": 0, "rental_uris": {"android": "https://dc.lft.to/lastmile_qr_scan", "ios": "https://dc.lft.to/lastmile_qr_scan"}, "is_reserved": 0, "name": "1bf119ad08ccf8a66941f47901291021", "lon": -77.01517933333334, "type": "electric_scooter", "bike_id": "1bf119ad08ccf8a66941f47901291021", "fusion_lon": 0.0, "lat": 38.90053266666666, "fusion_lat": 0.0}, {"is_disabled": 0, "rental_uris": {"android": "https://dc.lft.to/lastmile_qr_scan", "ios": "https://dc.lft.to/lastmile_qr_scan"}, "is_reserved": 0, "name": "525964ec27a4a0846f0339c7a4b9e2e0", "lon": -77.010253, "type": "electric_scooter", "bike_id": "525964ec27a4a0846f0339c7a4b9e2e0", "fusion_lon": 0.0, "lat": 38.91116666666667, "fusion_lat": 0.0}, {"is_disabled": 0, "rental_uris": {"android": "https://dc.lft.to/lastmile_qr_scan", "ios": "https://dc.lft.to/lastmile_qr_scan"}, "is_reserved": 0, "name": "e057c722494190775b752bb90d0b4866", "lon": -77.06366333333334, "type": "electric_bike", "bike_id": "e057c722494190775b752bb90d0b4866", "fusion_lon": 0.0, "lat": 38.86269266666667, "fusion_lat": 0.0}, {"is_disabled": 0, "rental_uris": {"android": "https://dc.lft.to/lastmile_qr_scan", "ios": "https://dc.lft.to/lastmile_qr_scan"}, "is_reserved": 0, "name": "3e02279bb1d9a12e8118c22704e5aedd", "lon": -77.03207216666667, "type": "electric_scooter", "bike_id": "3e02279bb1d9a12e8118c22704e5aedd", "fusion_lon": 0.0, "lat": 38.91137066666667, "fusion_lat": 0.0}, {"is_disabled": 0, "rental_uris": {"android": "https://dc.lft.to/lastmile_qr_scan", "ios": "https://dc.lft.to/lastmile_qr_scan"}, "is_reserved": 0, "name": "14f2194f1bbc8e5c2fadb2f47b4a97ff", "lon": -77.00619616666667, "type": "electric_scooter", "bike_id": "14f2194f1bbc8e5c2fadb2f47b4a97ff", "fusion_lon": 0.0, "lat": 38.871940333333335, "fusion_lat": 0.0}, {"is_disabled": 0, "rental_uris": {"android": "https://dc.lft.to/lastmile_qr_scan", "ios": "https://dc.lft.to/lastmile_qr_scan"}, "is_reserved": 0, "name": "7d830b9b2e975ebb8e110b896fe5fb6c", "lon": -77.0221275, "type": "electric_scooter", "bike_id": "7d830b9b2e975ebb8e110b896fe5fb6c", "fusion_lon": 0.0, "lat": 38.90356033333333, "fusion_lat": 0.0}, {"is_disabled": 0, "rental_uris": {"android": "https://dc.lft.to/lastmile_qr_scan", "ios": "https://dc.lft.to/lastmile_qr_scan"}, "is_reserved": 0, "name": "3449f1d215ddf59de1b0e5890d8e7cca", "lon": -77.03789283333333, "type": "electric_scooter", "bike_id": "3449f1d215ddf59de1b0e5890d8e7cca", "fusion_lon": 0.0, "lat": 38.92632033333334, "fusion_lat": 0.0}, {"is_disabled": 0, "rental_uris": {"android": "https://dc.lft.to/lastmile_qr_scan", "ios": "https://dc.lft.to/lastmile_qr_scan"}, "is_reserved": 0, "name": "3e954c590436e50ecd3d2eba03c8156b", "lon": -77.060353, "type": "electric_scooter", "bike_id": "3e954c590436e50ecd3d2eba03c8156b", "fusion_lon": 0.0, "lat": 38.93880883333333, "fusion_lat": 0.0}, {"is_disabled": 0, "rental_uris": {"android": "https://dc.lft.to/lastmile_qr_scan", "ios": "https://dc.lft.to/lastmile_qr_scan"}, "is_reserved": 0, "name": "0c1fe74311843236d937b5b8f0afdfba", "lon": -77.03815833333333, "type": "electric_scooter", "bike_id": "0c1fe74311843236d937b5b8f0afdfba", "fusion_lon": 0.0, "lat": 38.91474183333333, "fusion_lat": 0.0}, {"is_disabled": 0, "rental_uris": {"android": "https://dc.lft.to/lastmile_qr_scan", "ios": "https://dc.lft.to/lastmile_qr_scan"}, "is_reserved": 0, "name": "ac2c301b6e61b0096c5332d68989621e", "lon": -77.02309133333333, "type": "electric_scooter", "bike_id": "ac2c301b6e61b0096c5332d68989621e", "fusion_lon": 0.0, "lat": 38.916918833333334, "fusion_lat": 0.0}, {"is_disabled": 0, "rental_uris": {"android": "https://dc.lft.to/lastmile_qr_scan", "ios": "https://dc.lft.to/lastmile_qr_scan"}, "is_reserved": 0, "name": "73f284ac8d1257d39a9b6663734186ef", "lon": -77.02823966666666, "type": "electric_scooter", "bike_id": "73f284ac8d1257d39a9b6663734186ef", "fusion_lon": 0.0, "lat": 38.8858125, "fusion_lat": 0.0}, {"is_disabled": 0, "rental_uris": {"android": "https://dc.lft.to/lastmile_qr_scan", "ios": "https://dc.lft.to/lastmile_qr_scan"}, "is_reserved": 0, "name": "6b9273ef8d3030a833c3868a47bb5b09", "lon": -77.1002175, "type": "electric_bike", "bike_id": "6b9273ef8d3030a833c3868a47bb5b09", "fusion_lon": 0.0, "lat": 38.990609666666664, "fusion_lat": 0.0}, {"is_disabled": 0, "rental_uris": {"android": "https://dc.lft.to/lastmile_qr_scan", "ios": "https://dc.lft.to/lastmile_qr_scan"}, "is_reserved": 0, "name": "40235e10faca59a584e0dbf2dd5ba13e", "lon": -77.03367216666666, "type": "electric_scooter", "bike_id": "40235e10faca59a584e0dbf2dd5ba13e", "fusion_lon": 0.0, "lat": 38.9019765, "fusion_lat": 0.0}, {"is_disabled": 0, "rental_uris": {"android": "https://dc.lft.to/lastmile_qr_scan", "ios": "https://dc.lft.to/lastmile_qr_scan"}, "is_reserved": 0, "name": "6b7f867199eb273556f22c7488717424", "lon": -77.02929433333334, "type": "electric_scooter", "bike_id": "6b7f867199eb273556f22c7488717424", "fusion_lon": 0.0, "lat": 38.9141605, "fusion_lat": 0.0}, {"is_disabled": 0, "rental_uris": {"android": "https://dc.lft.to/lastmile_qr_scan", "ios": "https://dc.lft.to/lastmile_qr_scan"}, "is_reserved": 0, "name": "ac977cf996396676ad81c38123660447", "lon": -77.00320433333333, "type": "electric_scooter", "bike_id": "ac977cf996396676ad81c38123660447", "fusion_lon": 0.0, "lat": 38.90718416666667, "fusion_lat": 0.0}, {"is_disabled": 0, "rental_uris": {"android": "https://dc.lft.to/lastmile_qr_scan", "ios": "https://dc.lft.to/lastmile_qr_scan"}, "is_reserved": 0, "name": "1afa4b3484e201a4a5422aa162895185", "lon": -77.03530633333334, "type": "electric_scooter", "bike_id": "1afa4b3484e201a4a5422aa162895185", "fusion_lon": 0.0, "lat": 38.921526, "fusion_lat": 0.0}, {"is_disabled": 0, "rental_uris": {"android": "https://dc.lft.to/lastmile_qr_scan", "ios": "https://dc.lft.to/lastmile_qr_scan"}, "is_reserved": 0, "name": "3323bcc34dc6266b8b9ed4f38df8f082", "lon": -77.04334783333333, "type": "electric_scooter", "bike_id": "3323bcc34dc6266b8b9ed4f38df8f082", "fusion_lon": 0.0, "lat": 38.89227116666667, "fusion_lat": 0.0}, {"is_disabled": 0, "rental_uris": {"android": "https://dc.lft.to/lastmile_qr_scan", "ios": "https://dc.lft.to/lastmile_qr_scan"}, "is_reserved": 0, "name": "94a9a9f0f4bc04f5ee01fdfa492dd2a7", "lon": -77.02800566666667, "type": "electric_scooter", "bike_id": "94a9a9f0f4bc04f5ee01fdfa492dd2a7", "fusion_lon": 0.0, "lat": 38.96203666666667, "fusion_lat": 0.0}, {"is_disabled": 0, "rental_uris": {"android": "https://dc.lft.to/lastmile_qr_scan", "ios": "https://dc.lft.to/lastmile_qr_scan"}, "is_reserved": 0, "name": "dcba6602597a5b3005c824c79b0935d8", "lon": -77.04233916666666, "type": "electric_scooter", "bike_id": "dcba6602597a5b3005c824c79b0935d8", "fusion_lon": 0.0, "lat": 38.90968, "fusion_lat": 0.0}, {"is_disabled": 0, "rental_uris": {"android": "https://dc.lft.to/lastmile_qr_scan", "ios": "https://dc.lft.to/lastmile_qr_scan"}, "is_reserved": 0, "name": "cb64b11a7c970e04d188fe4a98244c43", "lon": -77.01422066666667, "type": "electric_scooter", "bike_id": "cb64b11a7c970e04d188fe4a98244c43", "fusion_lon": 0.0, "lat": 38.92849616666667, "fusion_lat": 0.0}, {"is_disabled": 0, "rental_uris": {"android": "https://dc.lft.to/lastmile_qr_scan", "ios": "https://dc.lft.to/lastmile_qr_scan"}, "is_reserved": 0, "name": "7715ffc79ba3d22f3f5c1b68101c2dcd", "lon": -76.87497116666667, "type": "electric_bike", "bike_id": "7715ffc79ba3d22f3f5c1b68101c2dcd", "fusion_lon": 0.0, "lat": 38.99091516666667, "fusion_lat": 0.0}, {"is_disabled": 0, "rental_uris": {"android": "https://dc.lft.to/lastmile_qr_scan", "ios": "https://dc.lft.to/lastmile_qr_scan"}, "is_reserved": 0, "name": "64d529b801d37239a58cde7cfb846004", "lon": -77.02153083333333, "type": "electric_scooter", "bike_id": "64d529b801d37239a58cde7cfb846004", "fusion_lon": 0.0, "lat": 38.92604083333333, "fusion_lat": 0.0}, {"is_disabled": 0, "rental_uris": {"android": "https://dc.lft.to/lastmile_qr_scan", "ios": "https://dc.lft.to/lastmile_qr_scan"}, "is_reserved": 0, "name": "feccb21cd2b884317e7d63329f35da09", "lon": -77.00573966666667, "type": "electric_scooter", "bike_id": "feccb21cd2b884317e7d63329f35da09", "fusion_lon": 0.0, "lat": 38.8751105, "fusion_lat": 0.0}, {"is_disabled": 0, "rental_uris": {"android": "https://dc.lft.to/lastmile_qr_scan", "ios": "https://dc.lft.to/lastmile_qr_scan"}, "is_reserved": 0, "name": "f9010362b561e974fb463b5f9414465a", "lon": -77.01787166666666, "type": "electric_scooter", "bike_id": "f9010362b561e974fb463b5f9414465a", "fusion_lon": 0.0, "lat": 38.9411575, "fusion_lat": 0.0}, {"is_disabled": 0, "rental_uris": {"android": "https://dc.lft.to/lastmile_qr_scan", "ios": "https://dc.lft.to/lastmile_qr_scan"}, "is_reserved": 0, "name": "a157f7c8831e7051af066ff7c4596fb1", "lon": -77.04896566666666, "type": "electric_bike", "bike_id": "a157f7c8831e7051af066ff7c4596fb1", "fusion_lon": 0.0, "lat": 38.87492266666667, "fusion_lat": 0.0}, {"is_disabled": 0, "rental_uris": {"android": "https://dc.lft.to/lastmile_qr_scan", "ios": "https://dc.lft.to/lastmile_qr_scan"}, "is_reserved": 0, "name": "32d5209e1765e04cf5b208ed93327044", "lon": -77.0523475, "type": "electric_scooter", "bike_id": "32d5209e1765e04cf5b208ed93327044", "fusion_lon": 0.0, "lat": 38.924542, "fusion_lat": 0.0}, {"is_disabled": 0, "rental_uris": {"android": "https://dc.lft.to/lastmile_qr_scan", "ios": "https://dc.lft.to/lastmile_qr_scan"}, "is_reserved": 0, "name": "25d1c155fb252da693e53dceed0b7da9", "lon": -77.04726283333333, "type": "electric_scooter", "bike_id": "25d1c155fb252da693e53dceed0b7da9", "fusion_lon": 0.0, "lat": 38.89846566666667, "fusion_lat": 0.0}, {"is_disabled": 0, "rental_uris": {"android": "https://dc.lft.to/lastmile_qr_scan", "ios": "https://dc.lft.to/lastmile_qr_scan"}, "is_reserved": 0, "name": "08f6bc4f359c94c5b30fd5ac9ae08b47", "lon": -77.03993883333334, "type": "electric_bike", "bike_id": "08f6bc4f359c94c5b30fd5ac9ae08b47", "fusion_lon": 0.0, "lat": 38.90130083333333, "fusion_lat": 0.0}, {"is_disabled": 0, "rental_uris": {"android": "https://dc.lft.to/lastmile_qr_scan", "ios": "https://dc.lft.to/lastmile_qr_scan"}, "is_reserved": 0, "name": "5abb6f944417e8466ee8fff3a8fb30b5", "lon": -77.0286325, "type": "electric_bike", "bike_id": "5abb6f944417e8466ee8fff3a8fb30b5", "fusion_lon": 0.0, "lat": 38.99876966666667, "fusion_lat": 0.0}, {"is_disabled": 0, "rental_uris": {"android": "https://dc.lft.to/lastmile_qr_scan", "ios": "https://dc.lft.to/lastmile_qr_scan"}, "is_reserved": 0, "name": "33a856307b2fe42b260ec464aa775adf", "lon": -77.02154366666667, "type": "electric_scooter", "bike_id": "33a856307b2fe42b260ec464aa775adf", "fusion_lon": 0.0, "lat": 38.92602016666667, "fusion_lat": 0.0}, {"is_disabled": 0, "rental_uris": {"android": "https://dc.lft.to/lastmile_qr_scan", "ios": "https://dc.lft.to/lastmile_qr_scan"}, "is_reserved": 0, "name": "295c45c61d8b4cdb5ed219461cea690a", "lon": -76.97342966666666, "type": "electric_scooter", "bike_id": "295c45c61d8b4cdb5ed219461cea690a", "fusion_lon": 0.0, "lat": 38.86513933333333, "fusion_lat": 0.0}, {"is_disabled": 0, "rental_uris": {"android": "https://dc.lft.to/lastmile_qr_scan", "ios": "https://dc.lft.to/lastmile_qr_scan"}, "is_reserved": 0, "name": "5814f11d92dae4bc67ff7d87bacd410b", "lon": -77.04160866666666, "type": "electric_scooter", "bike_id": "5814f11d92dae4bc67ff7d87bacd410b", "fusion_lon": 0.0, "lat": 38.913092, "fusion_lat": 0.0}, {"is_disabled": 0, "rental_uris": {"android": "https://dc.lft.to/lastmile_qr_scan", "ios": "https://dc.lft.to/lastmile_qr_scan"}, "is_reserved": 0, "name": "75bce1bab58ddb2cb7026d9637653f4e", "lon": -77.02220383333334, "type": "electric_scooter", "bike_id": "75bce1bab58ddb2cb7026d9637653f4e", "fusion_lon": 0.0, "lat": 38.91568383333333, "fusion_lat": 0.0}, {"is_disabled": 0, "rental_uris": {"android": "https://dc.lft.to/lastmile_qr_scan", "ios": "https://dc.lft.to/lastmile_qr_scan"}, "is_reserved": 0, "name": "4241067ff8d93fd4747c40f143ed94a0", "lon": -77.054528, "type": "electric_scooter", "bike_id": "4241067ff8d93fd4747c40f143ed94a0", "fusion_lon": 0.0, "lat": 38.93526166666667, "fusion_lat": 0.0}, {"is_disabled": 0, "rental_uris": {"android": "https://dc.lft.to/lastmile_qr_scan", "ios": "https://dc.lft.to/lastmile_qr_scan"}, "is_reserved": 0, "name": "d60824089446682f86d4464ffb0dfacb", "lon": -76.97216333333333, "type": "electric_bike", "bike_id": "d60824089446682f86d4464ffb0dfacb", "fusion_lon": 0.0, "lat": 38.844816, "fusion_lat": 0.0}, {"is_disabled": 0, "rental_uris": {"android": "https://dc.lft.to/lastmile_qr_scan", "ios": "https://dc.lft.to/lastmile_qr_scan"}, "is_reserved": 0, "name": "867524ea31505f015848887bd0948a16", "lon": -77.02689966666667, "type": "electric_scooter", "bike_id": "867524ea31505f015848887bd0948a16", "fusion_lon": 0.0, "lat": 38.908702, "fusion_lat": 0.0}, {"is_disabled": 0, "rental_uris": {"android": "https://dc.lft.to/lastmile_qr_scan", "ios": "https://dc.lft.to/lastmile_qr_scan"}, "is_reserved": 0, "name": "e318f38eb90f880f8858a905f08b4feb", "lon": -77.0676695, "type": "electric_scooter", "bike_id": "e318f38eb90f880f8858a905f08b4feb", "fusion_lon": 0.0, "lat": 38.94969583333334, "fusion_lat": 0.0}, {"is_disabled": 0, "rental_uris": {"android": "https://dc.lft.to/lastmile_qr_scan", "ios": "https://dc.lft.to/lastmile_qr_scan"}, "is_reserved": 0, "name": "66d368e48787d52f5cabe67467801053", "lon": -77.00600416666667, "type": "electric_bike", "bike_id": "66d368e48787d52f5cabe67467801053", "fusion_lon": 0.0, "lat": 38.898001, "fusion_lat": 0.0}, {"is_disabled": 0, "rental_uris": {"android": "https://dc.lft.to/lastmile_qr_scan", "ios": "https://dc.lft.to/lastmile_qr_scan"}, "is_reserved": 0, "name": "f40751fbe68b949e0bc1fa78ad7a55cc", "lon": -77.046487, "type": "electric_scooter", "bike_id": "f40751fbe68b949e0bc1fa78ad7a55cc", "fusion_lon": 0.0, "lat": 38.90340116666667, "fusion_lat": 0.0}, {"is_disabled": 0, "rental_uris": {"android": "https://dc.lft.to/lastmile_qr_scan", "ios": "https://dc.lft.to/lastmile_qr_scan"}, "is_reserved": 0, "name": "c94ea473f161bfbd3ea54a0a2c0c71b0", "lon": -76.99397733333333, "type": "electric_scooter", "bike_id": "c94ea473f161bfbd3ea54a0a2c0c71b0", "fusion_lon": 0.0, "lat": 38.9216405, "fusion_lat": 0.0}, {"is_disabled": 0, "rental_uris": {"android": "https://dc.lft.to/lastmile_qr_scan", "ios": "https://dc.lft.to/lastmile_qr_scan"}, "is_reserved": 0, "name": "9e9844e13ed916078be3e95f48a81673", "lon": -77.0370235, "type": "electric_scooter", "bike_id": "9e9844e13ed916078be3e95f48a81673", "fusion_lon": 0.0, "lat": 38.926443, "fusion_lat": 0.0}, {"is_disabled": 0, "rental_uris": {"android": "https://dc.lft.to/lastmile_qr_scan", "ios": "https://dc.lft.to/lastmile_qr_scan"}, "is_reserved": 0, "name": "f9130762ed75cf2325ff264023c5ed0b", "lon": -77.01794933333333, "type": "electric_scooter", "bike_id": "f9130762ed75cf2325ff264023c5ed0b", "fusion_lon": 0.0, "lat": 38.8836665, "fusion_lat": 0.0}, {"is_disabled": 0, "rental_uris": {"android": "https://dc.lft.to/lastmile_qr_scan", "ios": "https://dc.lft.to/lastmile_qr_scan"}, "is_reserved": 0, "name": "a887b1f9ac431380282ed0074732e0ce", "lon": -77.03657433333333, "type": "electric_scooter", "bike_id": "a887b1f9ac431380282ed0074732e0ce", "fusion_lon": 0.0, "lat": 38.92283483333333, "fusion_lat": 0.0}, {"is_disabled": 0, "rental_uris": {"android": "https://dc.lft.to/lastmile_qr_scan", "ios": "https://dc.lft.to/lastmile_qr_scan"}, "is_reserved": 0, "name": "7f2f3ae701989733405c56f01593eae5", "lon": -76.987308, "type": "electric_scooter", "bike_id": "7f2f3ae701989733405c56f01593eae5", "fusion_lon": 0.0, "lat": 38.867111333333334, "fusion_lat": 0.0}, {"is_disabled": 0, "rental_uris": {"android": "https://dc.lft.to/lastmile_qr_scan", "ios": "https://dc.lft.to/lastmile_qr_scan"}, "is_reserved": 0, "name": "2ed2d0c15086057744e1b37736692a71", "lon": -77.04475766666667, "type": "electric_scooter", "bike_id": "2ed2d0c15086057744e1b37736692a71", "fusion_lon": 0.0, "lat": 38.90231933333333, "fusion_lat": 0.0}, {"is_disabled": 0, "rental_uris": {"android": "https://dc.lft.to/lastmile_qr_scan", "ios": "https://dc.lft.to/lastmile_qr_scan"}, "is_reserved": 0, "name": "0758060b733b6543721a8d0e53129221", "lon": -76.97364633333333, "type": "electric_bike", "bike_id": "0758060b733b6543721a8d0e53129221", "fusion_lon": 0.0, "lat": 38.86552233333333, "fusion_lat": 0.0}, {"is_disabled": 0, "rental_uris": {"android": "https://dc.lft.to/lastmile_qr_scan", "ios": "https://dc.lft.to/lastmile_qr_scan"}, "is_reserved": 0, "name": "25d279f7c6fa0d402793abb154b8e047", "lon": -77.05276266666667, "type": "electric_scooter", "bike_id": "25d279f7c6fa0d402793abb154b8e047", "fusion_lon": 0.0, "lat": 38.922542, "fusion_lat": 0.0}, {"is_disabled": 0, "rental_uris": {"android": "https://dc.lft.to/lastmile_qr_scan", "ios": "https://dc.lft.to/lastmile_qr_scan"}, "is_reserved": 0, "name": "e81fdb7f887cc622fb5e654bec5c753d", "lon": -77.0293845, "type": "electric_scooter", "bike_id": "e81fdb7f887cc622fb5e654bec5c753d", "fusion_lon": 0.0, "lat": 38.9040295, "fusion_lat": 0.0}, {"is_disabled": 0, "rental_uris": {"android": "https://dc.lft.to/lastmile_qr_scan", "ios": "https://dc.lft.to/lastmile_qr_scan"}, "is_reserved": 0, "name": "7b494f4fa89b4aad922b38b0e6e12e6f", "lon": -77.03127816666667, "type": "electric_scooter", "bike_id": "7b494f4fa89b4aad922b38b0e6e12e6f", "fusion_lon": 0.0, "lat": 38.92035833333333, "fusion_lat": 0.0}, {"is_disabled": 0, "rental_uris": {"android": "https://dc.lft.to/lastmile_qr_scan", "ios": "https://dc.lft.to/lastmile_qr_scan"}, "is_reserved": 0, "name": "0ac3fca4446f2e8b02220e7cca4ca0c6", "lon": -76.94156533333333, "type": "electric_scooter", "bike_id": "0ac3fca4446f2e8b02220e7cca4ca0c6", "fusion_lon": 0.0, "lat": 38.883643666666664, "fusion_lat": 0.0}, {"is_disabled": 0, "rental_uris": {"android": "https://dc.lft.to/lastmile_qr_scan", "ios": "https://dc.lft.to/lastmile_qr_scan"}, "is_reserved": 0, "name": "2f914ba80f57c00b2ce05f7f65991a7f", "lon": -77.04160433333334, "type": "electric_scooter", "bike_id": "2f914ba80f57c00b2ce05f7f65991a7f", "fusion_lon": 0.0, "lat": 38.89892433333333, "fusion_lat": 0.0}, {"is_disabled": 0, "rental_uris": {"android": "https://dc.lft.to/lastmile_qr_scan", "ios": "https://dc.lft.to/lastmile_qr_scan"}, "is_reserved": 0, "name": "a4aa1e6d905280491e4738b6c63b68c0", "lon": -77.05411683333334, "type": "electric_scooter", "bike_id": "a4aa1e6d905280491e4738b6c63b68c0", "fusion_lon": 0.0, "lat": 38.92836033333333, "fusion_lat": 0.0}, {"is_disabled": 0, "rental_uris": {"android": "https://dc.lft.to/lastmile_qr_scan", "ios": "https://dc.lft.to/lastmile_qr_scan"}, "is_reserved": 0, "name": "d473afb6832fcc59702cd801e8cb2dce", "lon": -77.03758966666666, "type": "electric_scooter", "bike_id": "d473afb6832fcc59702cd801e8cb2dce", "fusion_lon": 0.0, "lat": 38.916877, "fusion_lat": 0.0}, {"is_disabled": 0, "rental_uris": {"android": "https://dc.lft.to/lastmile_qr_scan", "ios": "https://dc.lft.to/lastmile_qr_scan"}, "is_reserved": 0, "name": "1ae463d96f3f5c895cbbdc72313513cd", "lon": -77.0120635, "type": "electric_scooter", "bike_id": "1ae463d96f3f5c895cbbdc72313513cd", "fusion_lon": 0.0, "lat": 38.91103566666666, "fusion_lat": 0.0}, {"is_disabled": 0, "rental_uris": {"android": "https://dc.lft.to/lastmile_qr_scan", "ios": "https://dc.lft.to/lastmile_qr_scan"}, "is_reserved": 0, "name": "04fea385d577be6640117cb99fd789bb", "lon": -77.0331035, "type": "electric_scooter", "bike_id": "04fea385d577be6640117cb99fd789bb", "fusion_lon": 0.0, "lat": 38.9561655, "fusion_lat": 0.0}, {"is_disabled": 0, "rental_uris": {"android": "https://dc.lft.to/lastmile_qr_scan", "ios": "https://dc.lft.to/lastmile_qr_scan"}, "is_reserved": 0, "name": "d2f24eb06f39989f5682ad01ba62bc90", "lon": -77.04419166666666, "type": "electric_scooter", "bike_id": "d2f24eb06f39989f5682ad01ba62bc90", "fusion_lon": 0.0, "lat": 38.91773033333333, "fusion_lat": 0.0}, {"is_disabled": 0, "rental_uris": {"android": "https://dc.lft.to/lastmile_qr_scan", "ios": "https://dc.lft.to/lastmile_qr_scan"}, "is_reserved": 0, "name": "94f3062b93ca1b20eccfd2590f7fcc7e", "lon": -77.00197033333333, "type": "electric_scooter", "bike_id": "94f3062b93ca1b20eccfd2590f7fcc7e", "fusion_lon": 0.0, "lat": 38.90237333333334, "fusion_lat": 0.0}, {"is_disabled": 0, "rental_uris": {"android": "https://dc.lft.to/lastmile_qr_scan", "ios": "https://dc.lft.to/lastmile_qr_scan"}, "is_reserved": 0, "name": "112a94bdf20c6cc7d381b0aa8dc4720d", "lon": -77.03633533333333, "type": "electric_bike", "bike_id": "112a94bdf20c6cc7d381b0aa8dc4720d", "fusion_lon": 0.0, "lat": 38.908022833333334, "fusion_lat": 0.0}, {"is_disabled": 0, "rental_uris": {"android": "https://dc.lft.to/lastmile_qr_scan", "ios": "https://dc.lft.to/lastmile_qr_scan"}, "is_reserved": 0, "name": "696cef4f877a3c31ba3cfe852e75a52c", "lon": -77.04412583333334, "type": "electric_scooter", "bike_id": "696cef4f877a3c31ba3cfe852e75a52c", "fusion_lon": 0.0, "lat": 38.90032133333333, "fusion_lat": 0.0}, {"is_disabled": 0, "rental_uris": {"android": "https://dc.lft.to/lastmile_qr_scan", "ios": "https://dc.lft.to/lastmile_qr_scan"}, "is_reserved": 0, "name": "4522492b59485ac7c3f5f8e62f023d4a", "lon": -77.03702816666667, "type": "electric_scooter", "bike_id": "4522492b59485ac7c3f5f8e62f023d4a", "fusion_lon": 0.0, "lat": 38.92647433333333, "fusion_lat": 0.0}, {"is_disabled": 0, "rental_uris": {"android": "https://dc.lft.to/lastmile_qr_scan", "ios": "https://dc.lft.to/lastmile_qr_scan"}, "is_reserved": 0, "name": "f714401d1f93e440de82aba8ea7fbd0f", "lon": -77.0362865, "type": "electric_scooter", "bike_id": "f714401d1f93e440de82aba8ea7fbd0f", "fusion_lon": 0.0, "lat": 38.936845, "fusion_lat": 0.0}, {"is_disabled": 0, "rental_uris": {"android": "https://dc.lft.to/lastmile_qr_scan", "ios": "https://dc.lft.to/lastmile_qr_scan"}, "is_reserved": 0, "name": "18579fc4421f731965eca0cb11c8e9c1", "lon": -77.04168016666667, "type": "electric_scooter", "bike_id": "18579fc4421f731965eca0cb11c8e9c1", "fusion_lon": 0.0, "lat": 38.90851833333333, "fusion_lat": 0.0}, {"is_disabled": 0, "rental_uris": {"android": "https://dc.lft.to/lastmile_qr_scan", "ios": "https://dc.lft.to/lastmile_qr_scan"}, "is_reserved": 0, "name": "0dcb50767d298c9c5020404eaadc0785", "lon": -77.031533, "type": "electric_scooter", "bike_id": "0dcb50767d298c9c5020404eaadc0785", "fusion_lon": 0.0, "lat": 38.887513166666665, "fusion_lat": 0.0}, {"is_disabled": 0, "rental_uris": {"android": "https://dc.lft.to/lastmile_qr_scan", "ios": "https://dc.lft.to/lastmile_qr_scan"}, "is_reserved": 0, "name": "b0f2f26a803aceb68bf6f8e8127b9396", "lon": -77.0383045, "type": "electric_scooter", "bike_id": "b0f2f26a803aceb68bf6f8e8127b9396", "fusion_lon": 0.0, "lat": 38.911211, "fusion_lat": 0.0}, {"is_disabled": 0, "rental_uris": {"android": "https://dc.lft.to/lastmile_qr_scan", "ios": "https://dc.lft.to/lastmile_qr_scan"}, "is_reserved": 0, "name": "f6555a45ac0fdfbdc0fc94e03736b3d6", "lon": -77.02562266666666, "type": "electric_scooter", "bike_id": "f6555a45ac0fdfbdc0fc94e03736b3d6", "fusion_lon": 0.0, "lat": 38.9035045, "fusion_lat": 0.0}, {"is_disabled": 0, "rental_uris": {"android": "https://dc.lft.to/lastmile_qr_scan", "ios": "https://dc.lft.to/lastmile_qr_scan"}, "is_reserved": 0, "name": "beed39c671c312d9ebfe71d8bf26fac5", "lon": -76.931884, "type": "electric_scooter", "bike_id": "beed39c671c312d9ebfe71d8bf26fac5", "fusion_lon": 0.0, "lat": 38.898772666666666, "fusion_lat": 0.0}, {"is_disabled": 0, "rental_uris": {"android": "https://dc.lft.to/lastmile_qr_scan", "ios": "https://dc.lft.to/lastmile_qr_scan"}, "is_reserved": 0, "name": "4994944fafb19c6d2f2127ae5068080d", "lon": -77.0418915, "type": "electric_scooter", "bike_id": "4994944fafb19c6d2f2127ae5068080d", "fusion_lon": 0.0, "lat": 38.905134333333336, "fusion_lat": 0.0}, {"is_disabled": 0, "rental_uris": {"android": "https://dc.lft.to/lastmile_qr_scan", "ios": "https://dc.lft.to/lastmile_qr_scan"}, "is_reserved": 0, "name": "ec5ed6bebe967e22670a3562e482917c", "lon": -77.03206516666667, "type": "electric_scooter", "bike_id": "ec5ed6bebe967e22670a3562e482917c", "fusion_lon": 0.0, "lat": 38.92068533333333, "fusion_lat": 0.0}, {"is_disabled": 0, "rental_uris": {"android": "https://dc.lft.to/lastmile_qr_scan", "ios": "https://dc.lft.to/lastmile_qr_scan"}, "is_reserved": 0, "name": "23de94cb922357596b76b1da1e7c48b5", "lon": -77.04387, "type": "electric_scooter", "bike_id": "23de94cb922357596b76b1da1e7c48b5", "fusion_lon": 0.0, "lat": 38.910398666666666, "fusion_lat": 0.0}, {"is_disabled": 0, "rental_uris": {"android": "https://dc.lft.to/lastmile_qr_scan", "ios": "https://dc.lft.to/lastmile_qr_scan"}, "is_reserved": 0, "name": "fc83aa68e7e5163d1bdeedc1763027a4", "lon": -77.05723733333333, "type": "electric_scooter", "bike_id": "fc83aa68e7e5163d1bdeedc1763027a4", "fusion_lon": 0.0, "lat": 38.9336455, "fusion_lat": 0.0}, {"is_disabled": 0, "rental_uris": {"android": "https://dc.lft.to/lastmile_qr_scan", "ios": "https://dc.lft.to/lastmile_qr_scan"}, "is_reserved": 0, "name": "3a541c763857b7038216727919e0e4cc", "lon": -77.04615683333333, "type": "electric_scooter", "bike_id": "3a541c763857b7038216727919e0e4cc", "fusion_lon": 0.0, "lat": 38.899712, "fusion_lat": 0.0}, {"is_disabled": 0, "rental_uris": {"android": "https://dc.lft.to/lastmile_qr_scan", "ios": "https://dc.lft.to/lastmile_qr_scan"}, "is_reserved": 0, "name": "fb0a9d13ce7d438e4b70aed3cf22c6ff", "lon": -77.05512316666666, "type": "electric_scooter", "bike_id": "fb0a9d13ce7d438e4b70aed3cf22c6ff", "fusion_lon": 0.0, "lat": 38.94414116666667, "fusion_lat": 0.0}, {"is_disabled": 0, "rental_uris": {"android": "https://dc.lft.to/lastmile_qr_scan", "ios": "https://dc.lft.to/lastmile_qr_scan"}, "is_reserved": 0, "name": "2b282bfd54041e0135f215d78c654038", "lon": -76.98915366666667, "type": "electric_scooter", "bike_id": "2b282bfd54041e0135f215d78c654038", "fusion_lon": 0.0, "lat": 38.902361, "fusion_lat": 0.0}, {"is_disabled": 0, "rental_uris": {"android": "https://dc.lft.to/lastmile_qr_scan", "ios": "https://dc.lft.to/lastmile_qr_scan"}, "is_reserved": 0, "name": "632ab2b1e4331054d52cec443128c5ef", "lon": -77.02890883333333, "type": "electric_scooter", "bike_id": "632ab2b1e4331054d52cec443128c5ef", "fusion_lon": 0.0, "lat": 38.927678, "fusion_lat": 0.0}, {"is_disabled": 0, "rental_uris": {"android": "https://dc.lft.to/lastmile_qr_scan", "ios": "https://dc.lft.to/lastmile_qr_scan"}, "is_reserved": 0, "name": "d4982afcf376ad0e514b30cc5a4722d1", "lon": -77.044528, "type": "electric_scooter", "bike_id": "d4982afcf376ad0e514b30cc5a4722d1", "fusion_lon": 0.0, "lat": 38.90271466666667, "fusion_lat": 0.0}, {"is_disabled": 0, "rental_uris": {"android": "https://dc.lft.to/lastmile_qr_scan", "ios": "https://dc.lft.to/lastmile_qr_scan"}, "is_reserved": 0, "name": "ade45737c8a191d51030b0a9f66bbfe9", "lon": -77.04245016666667, "type": "electric_scooter", "bike_id": "ade45737c8a191d51030b0a9f66bbfe9", "fusion_lon": 0.0, "lat": 38.917867666666666, "fusion_lat": 0.0}, {"is_disabled": 0, "rental_uris": {"android": "https://dc.lft.to/lastmile_qr_scan", "ios": "https://dc.lft.to/lastmile_qr_scan"}, "is_reserved": 0, "name": "5f04881c5d5be2762ee06ea03ec664b6", "lon": -77.03663666666667, "type": "electric_scooter", "bike_id": "5f04881c5d5be2762ee06ea03ec664b6", "fusion_lon": 0.0, "lat": 38.922569833333334, "fusion_lat": 0.0}, {"is_disabled": 0, "rental_uris": {"android": "https://dc.lft.to/lastmile_qr_scan", "ios": "https://dc.lft.to/lastmile_qr_scan"}, "is_reserved": 0, "name": "886ba28a8910515cef63ba93e4e2c64e", "lon": -77.00329383333333, "type": "electric_scooter", "bike_id": "886ba28a8910515cef63ba93e4e2c64e", "fusion_lon": 0.0, "lat": 38.904612, "fusion_lat": 0.0}, {"is_disabled": 0, "rental_uris": {"android": "https://dc.lft.to/lastmile_qr_scan", "ios": "https://dc.lft.to/lastmile_qr_scan"}, "is_reserved": 0, "name": "ad0ca459a0799e3161861eb9f6c480fb", "lon": -77.00334483333333, "type": "electric_scooter", "bike_id": "ad0ca459a0799e3161861eb9f6c480fb", "fusion_lon": 0.0, "lat": 38.8935245, "fusion_lat": 0.0}, {"is_disabled": 0, "rental_uris": {"android": "https://dc.lft.to/lastmile_qr_scan", "ios": "https://dc.lft.to/lastmile_qr_scan"}, "is_reserved": 0, "name": "9ea3020cf27e6df10bdfb53d0b9dec94", "lon": -77.0401515, "type": "electric_scooter", "bike_id": "9ea3020cf27e6df10bdfb53d0b9dec94", "fusion_lon": 0.0, "lat": 38.92082966666667, "fusion_lat": 0.0}, {"is_disabled": 0, "rental_uris": {"android": "https://dc.lft.to/lastmile_qr_scan", "ios": "https://dc.lft.to/lastmile_qr_scan"}, "is_reserved": 0, "name": "314911b5e326684dd49f59750156773b", "lon": -77.03467183333333, "type": "electric_scooter", "bike_id": "314911b5e326684dd49f59750156773b", "fusion_lon": 0.0, "lat": 38.92160233333333, "fusion_lat": 0.0}, {"is_disabled": 0, "rental_uris": {"android": "https://dc.lft.to/lastmile_qr_scan", "ios": "https://dc.lft.to/lastmile_qr_scan"}, "is_reserved": 0, "name": "7dc1b2b8e976a95576af0d237503a619", "lon": -77.051092, "type": "electric_scooter", "bike_id": "7dc1b2b8e976a95576af0d237503a619", "fusion_lon": 0.0, "lat": 38.9236265, "fusion_lat": 0.0}, {"is_disabled": 0, "rental_uris": {"android": "https://dc.lft.to/lastmile_qr_scan", "ios": "https://dc.lft.to/lastmile_qr_scan"}, "is_reserved": 0, "name": "446e49cf5a7a8f3954407cfbef986f9a", "lon": -77.05137233333333, "type": "electric_scooter", "bike_id": "446e49cf5a7a8f3954407cfbef986f9a", "fusion_lon": 0.0, "lat": 38.90596216666667, "fusion_lat": 0.0}, {"is_disabled": 0, "rental_uris": {"android": "https://dc.lft.to/lastmile_qr_scan", "ios": "https://dc.lft.to/lastmile_qr_scan"}, "is_reserved": 0, "name": "56d3ef435bdce5b0061e6bb99354d409", "lon": -76.952113, "type": "electric_scooter", "bike_id": "56d3ef435bdce5b0061e6bb99354d409", "fusion_lon": 0.0, "lat": 38.89249516666667, "fusion_lat": 0.0}, {"is_disabled": 0, "rental_uris": {"android": "https://dc.lft.to/lastmile_qr_scan", "ios": "https://dc.lft.to/lastmile_qr_scan"}, "is_reserved": 0, "name": "7ee7b25589031d29deaac56131ad96d1", "lon": -77.09574466666666, "type": "electric_bike", "bike_id": "7ee7b25589031d29deaac56131ad96d1", "fusion_lon": 0.0, "lat": 38.83784983333334, "fusion_lat": 0.0}, {"is_disabled": 0, "rental_uris": {"android": "https://dc.lft.to/lastmile_qr_scan", "ios": "https://dc.lft.to/lastmile_qr_scan"}, "is_reserved": 0, "name": "2388015a2eefc47f2dcfc4add1856296", "lon": -77.04354716666667, "type": "electric_scooter", "bike_id": "2388015a2eefc47f2dcfc4add1856296", "fusion_lon": 0.0, "lat": 38.898262333333335, "fusion_lat": 0.0}, {"is_disabled": 0, "rental_uris": {"android": "https://dc.lft.to/lastmile_qr_scan", "ios": "https://dc.lft.to/lastmile_qr_scan"}, "is_reserved": 0, "name": "b42787c8476edc589073f18fc32e9505", "lon": -77.01676716666667, "type": "electric_scooter", "bike_id": "b42787c8476edc589073f18fc32e9505", "fusion_lon": 0.0, "lat": 38.9026045, "fusion_lat": 0.0}, {"is_disabled": 0, "rental_uris": {"android": "https://dc.lft.to/lastmile_qr_scan", "ios": "https://dc.lft.to/lastmile_qr_scan"}, "is_reserved": 0, "name": "c53f3960e0d361c1e83326451c822f80", "lon": -77.029524, "type": "electric_scooter", "bike_id": "c53f3960e0d361c1e83326451c822f80", "fusion_lon": 0.0, "lat": 38.904658166666664, "fusion_lat": 0.0}, {"is_disabled": 0, "rental_uris": {"android": "https://dc.lft.to/lastmile_qr_scan", "ios": "https://dc.lft.to/lastmile_qr_scan"}, "is_reserved": 0, "name": "919c88adaf1b22b01f668964b66924ae", "lon": -77.02495383333333, "type": "electric_scooter", "bike_id": "919c88adaf1b22b01f668964b66924ae", "fusion_lon": 0.0, "lat": 38.91805633333333, "fusion_lat": 0.0}, {"is_disabled": 0, "rental_uris": {"android": "https://dc.lft.to/lastmile_qr_scan", "ios": "https://dc.lft.to/lastmile_qr_scan"}, "is_reserved": 0, "name": "3e626e6650da631e058be07dc16d7067", "lon": -77.02157733333334, "type": "electric_scooter", "bike_id": "3e626e6650da631e058be07dc16d7067", "fusion_lon": 0.0, "lat": 38.8938735, "fusion_lat": 0.0}, {"is_disabled": 0, "rental_uris": {"android": "https://dc.lft.to/lastmile_qr_scan", "ios": "https://dc.lft.to/lastmile_qr_scan"}, "is_reserved": 0, "name": "b09ba26188a3c622d592f8a9e81a1cf6", "lon": -77.04865916666667, "type": "electric_scooter", "bike_id": "b09ba26188a3c622d592f8a9e81a1cf6", "fusion_lon": 0.0, "lat": 38.9095835, "fusion_lat": 0.0}, {"is_disabled": 0, "rental_uris": {"android": "https://dc.lft.to/lastmile_qr_scan", "ios": "https://dc.lft.to/lastmile_qr_scan"}, "is_reserved": 0, "name": "6a1d3e3a2e5a840f879d21310ed93a52", "lon": -76.99159383333334, "type": "electric_scooter", "bike_id": "6a1d3e3a2e5a840f879d21310ed93a52", "fusion_lon": 0.0, "lat": 38.8814145, "fusion_lat": 0.0}, {"is_disabled": 0, "rental_uris": {"android": "https://dc.lft.to/lastmile_qr_scan", "ios": "https://dc.lft.to/lastmile_qr_scan"}, "is_reserved": 0, "name": "511b8b2f199d21953438088c2efc2ed3", "lon": -77.00494783333333, "type": "electric_scooter", "bike_id": "511b8b2f199d21953438088c2efc2ed3", "fusion_lon": 0.0, "lat": 38.8969035, "fusion_lat": 0.0}, {"is_disabled": 0, "rental_uris": {"android": "https://dc.lft.to/lastmile_qr_scan", "ios": "https://dc.lft.to/lastmile_qr_scan"}, "is_reserved": 0, "name": "c4f227a2474ff79bd70be9878ff15018", "lon": -77.046569, "type": "electric_scooter", "bike_id": "c4f227a2474ff79bd70be9878ff15018", "fusion_lon": 0.0, "lat": 38.911824, "fusion_lat": 0.0}, {"is_disabled": 0, "rental_uris": {"android": "https://dc.lft.to/lastmile_qr_scan", "ios": "https://dc.lft.to/lastmile_qr_scan"}, "is_reserved": 0, "name": "71f87760d07211ad606ff3c09bd15177", "lon": -77.0319885, "type": "electric_scooter", "bike_id": "71f87760d07211ad606ff3c09bd15177", "fusion_lon": 0.0, "lat": 38.913411333333336, "fusion_lat": 0.0}, {"is_disabled": 0, "rental_uris": {"android": "https://dc.lft.to/lastmile_qr_scan", "ios": "https://dc.lft.to/lastmile_qr_scan"}, "is_reserved": 0, "name": "b0f7ab51d8e23ac98518f3e128a833f0", "lon": -77.04454766666667, "type": "electric_scooter", "bike_id": "b0f7ab51d8e23ac98518f3e128a833f0", "fusion_lon": 0.0, "lat": 38.90842716666667, "fusion_lat": 0.0}, {"is_disabled": 0, "rental_uris": {"android": "https://dc.lft.to/lastmile_qr_scan", "ios": "https://dc.lft.to/lastmile_qr_scan"}, "is_reserved": 0, "name": "669c339a2db360ed2b7fca3b3b249323", "lon": -77.03446433333333, "type": "electric_scooter", "bike_id": "669c339a2db360ed2b7fca3b3b249323", "fusion_lon": 0.0, "lat": 38.910082833333334, "fusion_lat": 0.0}, {"is_disabled": 0, "rental_uris": {"android": "https://dc.lft.to/lastmile_qr_scan", "ios": "https://dc.lft.to/lastmile_qr_scan"}, "is_reserved": 0, "name": "9af7e6a80ac9bf1fc6adcfa18a384a76", "lon": -76.96703166666667, "type": "electric_scooter", "bike_id": "9af7e6a80ac9bf1fc6adcfa18a384a76", "fusion_lon": 0.0, "lat": 38.8706395, "fusion_lat": 0.0}, {"is_disabled": 0, "rental_uris": {"android": "https://dc.lft.to/lastmile_qr_scan", "ios": "https://dc.lft.to/lastmile_qr_scan"}, "is_reserved": 0, "name": "5ee5bbfbb131943d68132caacdffec67", "lon": -76.94884, "type": "electric_scooter", "bike_id": "5ee5bbfbb131943d68132caacdffec67", "fusion_lon": 0.0, "lat": 38.89509966666667, "fusion_lat": 0.0}, {"is_disabled": 0, "rental_uris": {"android": "https://dc.lft.to/lastmile_qr_scan", "ios": "https://dc.lft.to/lastmile_qr_scan"}, "is_reserved": 0, "name": "7b21fef91ecc233857a0da43cdd84ca2", "lon": -77.04598033333333, "type": "electric_scooter", "bike_id": "7b21fef91ecc233857a0da43cdd84ca2", "fusion_lon": 0.0, "lat": 38.917126833333334, "fusion_lat": 0.0}, {"is_disabled": 0, "rental_uris": {"android": "https://dc.lft.to/lastmile_qr_scan", "ios": "https://dc.lft.to/lastmile_qr_scan"}, "is_reserved": 0, "name": "45a9fb9280815b7b5980ec3ebe75586a", "lon": -77.1477645, "type": "electric_bike", "bike_id": "45a9fb9280815b7b5980ec3ebe75586a", "fusion_lon": 0.0, "lat": 39.095899333333335, "fusion_lat": 0.0}, {"is_disabled": 0, "rental_uris": {"android": "https://dc.lft.to/lastmile_qr_scan", "ios": "https://dc.lft.to/lastmile_qr_scan"}, "is_reserved": 0, "name": "fec41fa31462fa0f2a5ebba032cc3a74", "lon": -77.0256705, "type": "electric_scooter", "bike_id": "fec41fa31462fa0f2a5ebba032cc3a74", "fusion_lon": 0.0, "lat": 38.899642666666665, "fusion_lat": 0.0}, {"is_disabled": 0, "rental_uris": {"android": "https://dc.lft.to/lastmile_qr_scan", "ios": "https://dc.lft.to/lastmile_qr_scan"}, "is_reserved": 0, "name": "fcc7af61de57a45acefafb2936c03a35", "lon": -77.09580083333333, "type": "electric_bike", "bike_id": "fcc7af61de57a45acefafb2936c03a35", "fusion_lon": 0.0, "lat": 38.837896, "fusion_lat": 0.0}, {"is_disabled": 0, "rental_uris": {"android": "https://dc.lft.to/lastmile_qr_scan", "ios": "https://dc.lft.to/lastmile_qr_scan"}, "is_reserved": 0, "name": "348e4d96beda50cac42da270e3e0180a", "lon": -77.04125233333333, "type": "electric_scooter", "bike_id": "348e4d96beda50cac42da270e3e0180a", "fusion_lon": 0.0, "lat": 38.91706633333333, "fusion_lat": 0.0}, {"is_disabled": 0, "rental_uris": {"android": "https://dc.lft.to/lastmile_qr_scan", "ios": "https://dc.lft.to/lastmile_qr_scan"}, "is_reserved": 0, "name": "1922adb0d575766f860f277897e30eac", "lon": -76.992271, "type": "electric_scooter", "bike_id": "1922adb0d575766f860f277897e30eac", "fusion_lon": 0.0, "lat": 38.898823666666665, "fusion_lat": 0.0}, {"is_disabled": 0, "rental_uris": {"android": "https://dc.lft.to/lastmile_qr_scan", "ios": "https://dc.lft.to/lastmile_qr_scan"}, "is_reserved": 0, "name": "15bd30d06df5eb18e0789ca1d3d594fb", "lon": -77.04251516666666, "type": "electric_bike", "bike_id": "15bd30d06df5eb18e0789ca1d3d594fb", "fusion_lon": 0.0, "lat": 38.902619666666666, "fusion_lat": 0.0}, {"is_disabled": 0, "rental_uris": {"android": "https://dc.lft.to/lastmile_qr_scan", "ios": "https://dc.lft.to/lastmile_qr_scan"}, "is_reserved": 0, "name": "71e163b7f977e93fbd69a13943b9a0df", "lon": -76.9968575, "type": "electric_scooter", "bike_id": "71e163b7f977e93fbd69a13943b9a0df", "fusion_lon": 0.0, "lat": 38.86032216666667, "fusion_lat": 0.0}, {"is_disabled": 0, "rental_uris": {"android": "https://dc.lft.to/lastmile_qr_scan", "ios": "https://dc.lft.to/lastmile_qr_scan"}, "is_reserved": 0, "name": "66596889bd1fd2df2e1fbd7a1ff52c87", "lon": -77.05006166666666, "type": "electric_scooter", "bike_id": "66596889bd1fd2df2e1fbd7a1ff52c87", "fusion_lon": 0.0, "lat": 38.892307333333335, "fusion_lat": 0.0}, {"is_disabled": 0, "rental_uris": {"android": "https://dc.lft.to/lastmile_qr_scan", "ios": "https://dc.lft.to/lastmile_qr_scan"}, "is_reserved": 0, "name": "964308d8b14a4557e72f98d6a3ea606c", "lon": -76.97909, "type": "electric_scooter", "bike_id": "964308d8b14a4557e72f98d6a3ea606c", "fusion_lon": 0.0, "lat": 38.8943285, "fusion_lat": 0.0}, {"is_disabled": 0, "rental_uris": {"android": "https://dc.lft.to/lastmile_qr_scan", "ios": "https://dc.lft.to/lastmile_qr_scan"}, "is_reserved": 0, "name": "6818d4abe3ff415528d1bfc06d91b1a2", "lon": -77.032743, "type": "electric_scooter", "bike_id": "6818d4abe3ff415528d1bfc06d91b1a2", "fusion_lon": 0.0, "lat": 38.898389333333334, "fusion_lat": 0.0}, {"is_disabled": 0, "rental_uris": {"android": "https://dc.lft.to/lastmile_qr_scan", "ios": "https://dc.lft.to/lastmile_qr_scan"}, "is_reserved": 0, "name": "b4113bad025dfc43e93ddb68f883ef74", "lon": -77.10683166666666, "type": "electric_bike", "bike_id": "b4113bad025dfc43e93ddb68f883ef74", "fusion_lon": 0.0, "lat": 38.93578633333333, "fusion_lat": 0.0}, {"is_disabled": 0, "rental_uris": {"android": "https://dc.lft.to/lastmile_qr_scan", "ios": "https://dc.lft.to/lastmile_qr_scan"}, "is_reserved": 0, "name": "c1184fef833a9d80b17206cdc6348e33", "lon": -77.03103066666667, "type": "electric_scooter", "bike_id": "c1184fef833a9d80b17206cdc6348e33", "fusion_lon": 0.0, "lat": 38.9256855, "fusion_lat": 0.0}, {"is_disabled": 0, "rental_uris": {"android": "https://dc.lft.to/lastmile_qr_scan", "ios": "https://dc.lft.to/lastmile_qr_scan"}, "is_reserved": 0, "name": "14ef09a6dcce011b31c32da6deff341d", "lon": -77.02213083333334, "type": "electric_scooter", "bike_id": "14ef09a6dcce011b31c32da6deff341d", "fusion_lon": 0.0, "lat": 38.895819333333336, "fusion_lat": 0.0}, {"is_disabled": 0, "rental_uris": {"android": "https://dc.lft.to/lastmile_qr_scan", "ios": "https://dc.lft.to/lastmile_qr_scan"}, "is_reserved": 0, "name": "ce77ae913adbb7063df62a4429854e72", "lon": -77.05065316666666, "type": "electric_scooter", "bike_id": "ce77ae913adbb7063df62a4429854e72", "fusion_lon": 0.0, "lat": 38.90082966666667, "fusion_lat": 0.0}, {"is_disabled": 0, "rental_uris": {"android": "https://dc.lft.to/lastmile_qr_scan", "ios": "https://dc.lft.to/lastmile_qr_scan"}, "is_reserved": 0, "name": "1afe236030e6592065685a2f3a9bf845", "lon": -77.03204633333333, "type": "electric_scooter", "bike_id": "1afe236030e6592065685a2f3a9bf845", "fusion_lon": 0.0, "lat": 38.93969633333333, "fusion_lat": 0.0}, {"is_disabled": 0, "rental_uris": {"android": "https://dc.lft.to/lastmile_qr_scan", "ios": "https://dc.lft.to/lastmile_qr_scan"}, "is_reserved": 0, "name": "b307d7b485952e89f7dcc3e985207a8a", "lon": -76.98753066666667, "type": "electric_bike", "bike_id": "b307d7b485952e89f7dcc3e985207a8a", "fusion_lon": 0.0, "lat": 38.8578405, "fusion_lat": 0.0}, {"is_disabled": 0, "rental_uris": {"android": "https://dc.lft.to/lastmile_qr_scan", "ios": "https://dc.lft.to/lastmile_qr_scan"}, "is_reserved": 0, "name": "f6715e8eb68a968e3736c6191f50fa26", "lon": -77.01495383333334, "type": "electric_scooter", "bike_id": "f6715e8eb68a968e3736c6191f50fa26", "fusion_lon": 0.0, "lat": 38.956474, "fusion_lat": 0.0}, {"is_disabled": 0, "rental_uris": {"android": "https://dc.lft.to/lastmile_qr_scan", "ios": "https://dc.lft.to/lastmile_qr_scan"}, "is_reserved": 0, "name": "af03fadf6a18d1be9c49e31264f01ded", "lon": -77.00334783333334, "type": "electric_scooter", "bike_id": "af03fadf6a18d1be9c49e31264f01ded", "fusion_lon": 0.0, "lat": 38.89354683333333, "fusion_lat": 0.0}, {"is_disabled": 0, "rental_uris": {"android": "https://dc.lft.to/lastmile_qr_scan", "ios": "https://dc.lft.to/lastmile_qr_scan"}, "is_reserved": 0, "name": "b2d28e319be68f3c2f3001a51b00ae72", "lon": -77.01953066666667, "type": "electric_scooter", "bike_id": "b2d28e319be68f3c2f3001a51b00ae72", "fusion_lon": 0.0, "lat": 38.92259983333334, "fusion_lat": 0.0}, {"is_disabled": 0, "rental_uris": {"android": "https://dc.lft.to/lastmile_qr_scan", "ios": "https://dc.lft.to/lastmile_qr_scan"}, "is_reserved": 0, "name": "690633772e7b4139f811cee3d33af6ba", "lon": -76.98668383333333, "type": "electric_scooter", "bike_id": "690633772e7b4139f811cee3d33af6ba", "fusion_lon": 0.0, "lat": 38.90146216666667, "fusion_lat": 0.0}, {"is_disabled": 0, "rental_uris": {"android": "https://dc.lft.to/lastmile_qr_scan", "ios": "https://dc.lft.to/lastmile_qr_scan"}, "is_reserved": 0, "name": "4917d627717d1b8471aa71338385660e", "lon": -77.01389866666666, "type": "electric_scooter", "bike_id": "4917d627717d1b8471aa71338385660e", "fusion_lon": 0.0, "lat": 38.88024383333333, "fusion_lat": 0.0}, {"is_disabled": 0, "rental_uris": {"android": "https://dc.lft.to/lastmile_qr_scan", "ios": "https://dc.lft.to/lastmile_qr_scan"}, "is_reserved": 0, "name": "64640badb82e4e09aaa428bc45498834", "lon": -77.033151, "type": "electric_scooter", "bike_id": "64640badb82e4e09aaa428bc45498834", "fusion_lon": 0.0, "lat": 38.9141145, "fusion_lat": 0.0}, {"is_disabled": 0, "rental_uris": {"android": "https://dc.lft.to/lastmile_qr_scan", "ios": "https://dc.lft.to/lastmile_qr_scan"}, "is_reserved": 0, "name": "0061f2efde3ab31424526dccfe782ba1", "lon": -77.00590883333334, "type": "electric_scooter", "bike_id": "0061f2efde3ab31424526dccfe782ba1", "fusion_lon": 0.0, "lat": 38.91179833333333, "fusion_lat": 0.0}, {"is_disabled": 0, "rental_uris": {"android": "https://dc.lft.to/lastmile_qr_scan", "ios": "https://dc.lft.to/lastmile_qr_scan"}, "is_reserved": 0, "name": "885a165cb79d61c0b171d19a06b47715", "lon": -77.04417516666666, "type": "electric_scooter", "bike_id": "885a165cb79d61c0b171d19a06b47715", "fusion_lon": 0.0, "lat": 38.91773583333333, "fusion_lat": 0.0}, {"is_disabled": 0, "rental_uris": {"android": "https://dc.lft.to/lastmile_qr_scan", "ios": "https://dc.lft.to/lastmile_qr_scan"}, "is_reserved": 0, "name": "736dfc9c24760c1e16ac2114242fb2ad", "lon": -77.02967083333333, "type": "electric_scooter", "bike_id": "736dfc9c24760c1e16ac2114242fb2ad", "fusion_lon": 0.0, "lat": 38.8963315, "fusion_lat": 0.0}, {"is_disabled": 0, "rental_uris": {"android": "https://dc.lft.to/lastmile_qr_scan", "ios": "https://dc.lft.to/lastmile_qr_scan"}, "is_reserved": 0, "name": "299a0c7583aadc9f3812d4afd5b2ade0", "lon": -77.01658066666667, "type": "electric_scooter", "bike_id": "299a0c7583aadc9f3812d4afd5b2ade0", "fusion_lon": 0.0, "lat": 38.88122333333333, "fusion_lat": 0.0}, {"is_disabled": 0, "rental_uris": {"android": "https://dc.lft.to/lastmile_qr_scan", "ios": "https://dc.lft.to/lastmile_qr_scan"}, "is_reserved": 0, "name": "b8b91d5fd1541f06b74762b2db6ea8ad", "lon": -76.9895275, "type": "electric_scooter", "bike_id": "b8b91d5fd1541f06b74762b2db6ea8ad", "fusion_lon": 0.0, "lat": 38.8439915, "fusion_lat": 0.0}, {"is_disabled": 0, "rental_uris": {"android": "https://dc.lft.to/lastmile_qr_scan", "ios": "https://dc.lft.to/lastmile_qr_scan"}, "is_reserved": 0, "name": "6616decc6d0b094428d144bd8773ab1e", "lon": -77.03211883333333, "type": "electric_scooter", "bike_id": "6616decc6d0b094428d144bd8773ab1e", "fusion_lon": 0.0, "lat": 38.92582383333333, "fusion_lat": 0.0}, {"is_disabled": 0, "rental_uris": {"android": "https://dc.lft.to/lastmile_qr_scan", "ios": "https://dc.lft.to/lastmile_qr_scan"}, "is_reserved": 0, "name": "853a3ec277c5275dd62f96fecb43f900", "lon": -77.06351633333334, "type": "electric_scooter", "bike_id": "853a3ec277c5275dd62f96fecb43f900", "fusion_lon": 0.0, "lat": 38.94436866666667, "fusion_lat": 0.0}, {"is_disabled": 0, "rental_uris": {"android": "https://dc.lft.to/lastmile_qr_scan", "ios": "https://dc.lft.to/lastmile_qr_scan"}, "is_reserved": 0, "name": "02de356b5a04a7d65de46efc7c0bbc56", "lon": -77.09100916666667, "type": "electric_scooter", "bike_id": "02de356b5a04a7d65de46efc7c0bbc56", "fusion_lon": 0.0, "lat": 38.9563635, "fusion_lat": 0.0}, {"is_disabled": 0, "rental_uris": {"android": "https://dc.lft.to/lastmile_qr_scan", "ios": "https://dc.lft.to/lastmile_qr_scan"}, "is_reserved": 0, "name": "913130c5f101bb3c8c349770d4304e0c", "lon": -77.0221985, "type": "electric_scooter", "bike_id": "913130c5f101bb3c8c349770d4304e0c", "fusion_lon": 0.0, "lat": 38.920948833333334, "fusion_lat": 0.0}, {"is_disabled": 0, "rental_uris": {"android": "https://dc.lft.to/lastmile_qr_scan", "ios": "https://dc.lft.to/lastmile_qr_scan"}, "is_reserved": 0, "name": "db15e8901dd35c2945311066384e8abf", "lon": -77.0342325, "type": "electric_scooter", "bike_id": "db15e8901dd35c2945311066384e8abf", "fusion_lon": 0.0, "lat": 38.91924933333333, "fusion_lat": 0.0}, {"is_disabled": 0, "rental_uris": {"android": "https://dc.lft.to/lastmile_qr_scan", "ios": "https://dc.lft.to/lastmile_qr_scan"}, "is_reserved": 0, "name": "fe8b76e6fdc3fdfef3b7479ea6724d0c", "lon": -76.99460383333333, "type": "electric_scooter", "bike_id": "fe8b76e6fdc3fdfef3b7479ea6724d0c", "fusion_lon": 0.0, "lat": 38.86196866666667, "fusion_lat": 0.0}, {"is_disabled": 0, "rental_uris": {"android": "https://dc.lft.to/lastmile_qr_scan", "ios": "https://dc.lft.to/lastmile_qr_scan"}, "is_reserved": 0, "name": "547ff300676f8e17272d4012fa26ee24", "lon": -77.04372933333333, "type": "electric_scooter", "bike_id": "547ff300676f8e17272d4012fa26ee24", "fusion_lon": 0.0, "lat": 38.92573816666667, "fusion_lat": 0.0}, {"is_disabled": 0, "rental_uris": {"android": "https://dc.lft.to/lastmile_qr_scan", "ios": "https://dc.lft.to/lastmile_qr_scan"}, "is_reserved": 0, "name": "cf072186df52fb1fc8acd6e868b1371b", "lon": -77.04599883333333, "type": "electric_scooter", "bike_id": "cf072186df52fb1fc8acd6e868b1371b", "fusion_lon": 0.0, "lat": 38.905914333333335, "fusion_lat": 0.0}, {"is_disabled": 0, "rental_uris": {"android": "https://dc.lft.to/lastmile_qr_scan", "ios": "https://dc.lft.to/lastmile_qr_scan"}, "is_reserved": 0, "name": "3685385543a96768dfd8998143d94642", "lon": -77.00936633333333, "type": "electric_scooter", "bike_id": "3685385543a96768dfd8998143d94642", "fusion_lon": 0.0, "lat": 38.898244, "fusion_lat": 0.0}, {"is_disabled": 0, "rental_uris": {"android": "https://dc.lft.to/lastmile_qr_scan", "ios": "https://dc.lft.to/lastmile_qr_scan"}, "is_reserved": 0, "name": "1100c593df62e73ed3a867dd93aafb20", "lon": -77.038548, "type": "electric_scooter", "bike_id": "1100c593df62e73ed3a867dd93aafb20", "fusion_lon": 0.0, "lat": 38.918365, "fusion_lat": 0.0}, {"is_disabled": 0, "rental_uris": {"android": "https://dc.lft.to/lastmile_qr_scan", "ios": "https://dc.lft.to/lastmile_qr_scan"}, "is_reserved": 0, "name": "59dab884768270bfbe970b6c3d8ce2c4", "lon": -77.00477883333333, "type": "electric_scooter", "bike_id": "59dab884768270bfbe970b6c3d8ce2c4", "fusion_lon": 0.0, "lat": 38.90570816666666, "fusion_lat": 0.0}, {"is_disabled": 0, "rental_uris": {"android": "https://dc.lft.to/lastmile_qr_scan", "ios": "https://dc.lft.to/lastmile_qr_scan"}, "is_reserved": 0, "name": "30b35675fc7bdf50e87dfa842f820907", "lon": -77.00572883333334, "type": "electric_scooter", "bike_id": "30b35675fc7bdf50e87dfa842f820907", "fusion_lon": 0.0, "lat": 38.885038333333334, "fusion_lat": 0.0}, {"is_disabled": 0, "rental_uris": {"android": "https://dc.lft.to/lastmile_qr_scan", "ios": "https://dc.lft.to/lastmile_qr_scan"}, "is_reserved": 0, "name": "d67b2c7dad7925e55641cdba161682aa", "lon": -77.11425516666667, "type": "electric_bike", "bike_id": "d67b2c7dad7925e55641cdba161682aa", "fusion_lon": 0.0, "lat": 38.8524715, "fusion_lat": 0.0}, {"is_disabled": 0, "rental_uris": {"android": "https://dc.lft.to/lastmile_qr_scan", "ios": "https://dc.lft.to/lastmile_qr_scan"}, "is_reserved": 0, "name": "994b71b206d2f99eb09fcc85a13a0db4", "lon": -77.02737133333333, "type": "electric_scooter", "bike_id": "994b71b206d2f99eb09fcc85a13a0db4", "fusion_lon": 0.0, "lat": 38.904784166666666, "fusion_lat": 0.0}, {"is_disabled": 0, "rental_uris": {"android": "https://dc.lft.to/lastmile_qr_scan", "ios": "https://dc.lft.to/lastmile_qr_scan"}, "is_reserved": 0, "name": "cb800a4beade9784ef19e42b2310ee80", "lon": -77.01139033333334, "type": "electric_scooter", "bike_id": "cb800a4beade9784ef19e42b2310ee80", "fusion_lon": 0.0, "lat": 38.90958116666667, "fusion_lat": 0.0}, {"is_disabled": 0, "rental_uris": {"android": "https://dc.lft.to/lastmile_qr_scan", "ios": "https://dc.lft.to/lastmile_qr_scan"}, "is_reserved": 0, "name": "4b02c5c69a54dcf5156e63c7c95d83ab", "lon": -77.02375333333333, "type": "electric_scooter", "bike_id": "4b02c5c69a54dcf5156e63c7c95d83ab", "fusion_lon": 0.0, "lat": 38.902048666666666, "fusion_lat": 0.0}, {"is_disabled": 0, "rental_uris": {"android": "https://dc.lft.to/lastmile_qr_scan", "ios": "https://dc.lft.to/lastmile_qr_scan"}, "is_reserved": 0, "name": "949da7c392a021f7a2b46bf2cbb0a00b", "lon": -77.03264316666667, "type": "electric_scooter", "bike_id": "949da7c392a021f7a2b46bf2cbb0a00b", "fusion_lon": 0.0, "lat": 38.935191, "fusion_lat": 0.0}, {"is_disabled": 0, "rental_uris": {"android": "https://dc.lft.to/lastmile_qr_scan", "ios": "https://dc.lft.to/lastmile_qr_scan"}, "is_reserved": 0, "name": "8ea3750e7726e35cb0e4100059393c5f", "lon": -76.980458, "type": "electric_bike", "bike_id": "8ea3750e7726e35cb0e4100059393c5f", "fusion_lon": 0.0, "lat": 38.900886666666665, "fusion_lat": 0.0}, {"is_disabled": 0, "rental_uris": {"android": "https://dc.lft.to/lastmile_qr_scan", "ios": "https://dc.lft.to/lastmile_qr_scan"}, "is_reserved": 0, "name": "43fb37d9636a17720f62314ca960fc82", "lon": -77.36091916666666, "type": "electric_bike", "bike_id": "43fb37d9636a17720f62314ca960fc82", "fusion_lon": 0.0, "lat": 38.939639666666665, "fusion_lat": 0.0}, {"is_disabled": 0, "rental_uris": {"android": "https://dc.lft.to/lastmile_qr_scan", "ios": "https://dc.lft.to/lastmile_qr_scan"}, "is_reserved": 0, "name": "4609577487e10fc46bab407c5aa9f6ae", "lon": -76.9799385, "type": "electric_bike", "bike_id": "4609577487e10fc46bab407c5aa9f6ae", "fusion_lon": 0.0, "lat": 38.87756533333334, "fusion_lat": 0.0}, {"is_disabled": 0, "rental_uris": {"android": "https://dc.lft.to/lastmile_qr_scan", "ios": "https://dc.lft.to/lastmile_qr_scan"}, "is_reserved": 0, "name": "dd33015e3c6dc0c9c8feca7586a6cb82", "lon": -77.050025, "type": "electric_scooter", "bike_id": "dd33015e3c6dc0c9c8feca7586a6cb82", "fusion_lon": 0.0, "lat": 38.905263, "fusion_lat": 0.0}, {"is_disabled": 0, "rental_uris": {"android": "https://dc.lft.to/lastmile_qr_scan", "ios": "https://dc.lft.to/lastmile_qr_scan"}, "is_reserved": 0, "name": "35d4043e3b10fc297f2c7e6e7feb603c", "lon": -77.01365616666666, "type": "electric_scooter", "bike_id": "35d4043e3b10fc297f2c7e6e7feb603c", "fusion_lon": 0.0, "lat": 38.87898233333333, "fusion_lat": 0.0}, {"is_disabled": 0, "rental_uris": {"android": "https://dc.lft.to/lastmile_qr_scan", "ios": "https://dc.lft.to/lastmile_qr_scan"}, "is_reserved": 0, "name": "385c650b784a192c55c819e5ca713f4b", "lon": -77.03057783333334, "type": "electric_scooter", "bike_id": "385c650b784a192c55c819e5ca713f4b", "fusion_lon": 0.0, "lat": 38.93978466666667, "fusion_lat": 0.0}, {"is_disabled": 0, "rental_uris": {"android": "https://dc.lft.to/lastmile_qr_scan", "ios": "https://dc.lft.to/lastmile_qr_scan"}, "is_reserved": 0, "name": "eb1a1d3fafda15d618fb07f0a26760d7", "lon": -77.027197, "type": "electric_scooter", "bike_id": "eb1a1d3fafda15d618fb07f0a26760d7", "fusion_lon": 0.0, "lat": 38.908537833333334, "fusion_lat": 0.0}, {"is_disabled": 0, "rental_uris": {"android": "https://dc.lft.to/lastmile_qr_scan", "ios": "https://dc.lft.to/lastmile_qr_scan"}, "is_reserved": 0, "name": "469d957d8a5076aef0bd6bce5619d7c2", "lon": -77.02170966666667, "type": "electric_scooter", "bike_id": "469d957d8a5076aef0bd6bce5619d7c2", "fusion_lon": 0.0, "lat": 38.94294383333333, "fusion_lat": 0.0}, {"is_disabled": 0, "rental_uris": {"android": "https://dc.lft.to/lastmile_qr_scan", "ios": "https://dc.lft.to/lastmile_qr_scan"}, "is_reserved": 0, "name": "803aeed342eb852e73b19d9fddf1a1f1", "lon": -76.98821416666667, "type": "electric_scooter", "bike_id": "803aeed342eb852e73b19d9fddf1a1f1", "fusion_lon": 0.0, "lat": 38.88604433333333, "fusion_lat": 0.0}, {"is_disabled": 0, "rental_uris": {"android": "https://dc.lft.to/lastmile_qr_scan", "ios": "https://dc.lft.to/lastmile_qr_scan"}, "is_reserved": 0, "name": "7987b6fb8c35e87503609574f6e8044e", "lon": -77.06991333333333, "type": "electric_scooter", "bike_id": "7987b6fb8c35e87503609574f6e8044e", "fusion_lon": 0.0, "lat": 38.9469335, "fusion_lat": 0.0}, {"is_disabled": 0, "rental_uris": {"android": "https://dc.lft.to/lastmile_qr_scan", "ios": "https://dc.lft.to/lastmile_qr_scan"}, "is_reserved": 0, "name": "649a235d28ef45c173048c1f217f60b4", "lon": -77.04335016666667, "type": "electric_scooter", "bike_id": "649a235d28ef45c173048c1f217f60b4", "fusion_lon": 0.0, "lat": 38.915360166666666, "fusion_lat": 0.0}, {"is_disabled": 0, "rental_uris": {"android": "https://dc.lft.to/lastmile_qr_scan", "ios": "https://dc.lft.to/lastmile_qr_scan"}, "is_reserved": 0, "name": "f87bc2eaaaba5b6864406f93581eed0d", "lon": -77.030541, "type": "electric_scooter", "bike_id": "f87bc2eaaaba5b6864406f93581eed0d", "fusion_lon": 0.0, "lat": 38.93979733333333, "fusion_lat": 0.0}, {"is_disabled": 0, "rental_uris": {"android": "https://dc.lft.to/lastmile_qr_scan", "ios": "https://dc.lft.to/lastmile_qr_scan"}, "is_reserved": 0, "name": "4ed99294f061bd14ac8708d8cb770f92", "lon": -76.99390866666667, "type": "electric_scooter", "bike_id": "4ed99294f061bd14ac8708d8cb770f92", "fusion_lon": 0.0, "lat": 38.921609333333336, "fusion_lat": 0.0}, {"is_disabled": 0, "rental_uris": {"android": "https://dc.lft.to/lastmile_qr_scan", "ios": "https://dc.lft.to/lastmile_qr_scan"}, "is_reserved": 0, "name": "26ed7cfc49e88ded80178550999ca870", "lon": -77.00201883333334, "type": "electric_scooter", "bike_id": "26ed7cfc49e88ded80178550999ca870", "fusion_lon": 0.0, "lat": 38.891468333333336, "fusion_lat": 0.0}, {"is_disabled": 0, "rental_uris": {"android": "https://dc.lft.to/lastmile_qr_scan", "ios": "https://dc.lft.to/lastmile_qr_scan"}, "is_reserved": 0, "name": "3b5f869a7b8aadaf5d86cb9ec71af6c4", "lon": -77.03787766666666, "type": "electric_scooter", "bike_id": "3b5f869a7b8aadaf5d86cb9ec71af6c4", "fusion_lon": 0.0, "lat": 38.92632116666667, "fusion_lat": 0.0}, {"is_disabled": 0, "rental_uris": {"android": "https://dc.lft.to/lastmile_qr_scan", "ios": "https://dc.lft.to/lastmile_qr_scan"}, "is_reserved": 0, "name": "9fc2b9d85efaf2014ab66640b9a20e9d", "lon": -76.98600133333333, "type": "electric_scooter", "bike_id": "9fc2b9d85efaf2014ab66640b9a20e9d", "fusion_lon": 0.0, "lat": 38.90658416666667, "fusion_lat": 0.0}, {"is_disabled": 0, "rental_uris": {"android": "https://dc.lft.to/lastmile_qr_scan", "ios": "https://dc.lft.to/lastmile_qr_scan"}, "is_reserved": 0, "name": "7fa7b9e9723a3a44f34ab040393a67a5", "lon": -77.0435965, "type": "electric_scooter", "bike_id": "7fa7b9e9723a3a44f34ab040393a67a5", "fusion_lon": 0.0, "lat": 38.902519, "fusion_lat": 0.0}, {"is_disabled": 0, "rental_uris": {"android": "https://dc.lft.to/lastmile_qr_scan", "ios": "https://dc.lft.to/lastmile_qr_scan"}, "is_reserved": 0, "name": "8b1deee841dde418b79afb85038250ac", "lon": -76.93352316666666, "type": "electric_scooter", "bike_id": "8b1deee841dde418b79afb85038250ac", "fusion_lon": 0.0, "lat": 38.899028333333334, "fusion_lat": 0.0}, {"is_disabled": 0, "rental_uris": {"android": "https://dc.lft.to/lastmile_qr_scan", "ios": "https://dc.lft.to/lastmile_qr_scan"}, "is_reserved": 0, "name": "160744e60556ecec8b1fe8ccd333115d", "lon": -77.08529783333333, "type": "electric_bike", "bike_id": "160744e60556ecec8b1fe8ccd333115d", "fusion_lon": 0.0, "lat": 38.856487666666666, "fusion_lat": 0.0}, {"is_disabled": 0, "rental_uris": {"android": "https://dc.lft.to/lastmile_qr_scan", "ios": "https://dc.lft.to/lastmile_qr_scan"}, "is_reserved": 0, "name": "83951819cca6392985154013d4c3cdd5", "lon": -77.05862383333333, "type": "electric_scooter", "bike_id": "83951819cca6392985154013d4c3cdd5", "fusion_lon": 0.0, "lat": 38.93602, "fusion_lat": 0.0}, {"is_disabled": 0, "rental_uris": {"android": "https://dc.lft.to/lastmile_qr_scan", "ios": "https://dc.lft.to/lastmile_qr_scan"}, "is_reserved": 0, "name": "8268b0be44c78ac67987a85a47ba66f0", "lon": -77.01127966666667, "type": "electric_scooter", "bike_id": "8268b0be44c78ac67987a85a47ba66f0", "fusion_lon": 0.0, "lat": 38.903648833333335, "fusion_lat": 0.0}, {"is_disabled": 0, "rental_uris": {"android": "https://dc.lft.to/lastmile_qr_scan", "ios": "https://dc.lft.to/lastmile_qr_scan"}, "is_reserved": 0, "name": "fde64a4db49dbda34520016fa233f967", "lon": -77.02622383333333, "type": "electric_bike", "bike_id": "fde64a4db49dbda34520016fa233f967", "fusion_lon": 0.0, "lat": 38.96226033333333, "fusion_lat": 0.0}, {"is_disabled": 0, "rental_uris": {"android": "https://dc.lft.to/lastmile_qr_scan", "ios": "https://dc.lft.to/lastmile_qr_scan"}, "is_reserved": 0, "name": "99e48375c6f0946e2638985c9b2ca07a", "lon": -77.02188333333334, "type": "electric_scooter", "bike_id": "99e48375c6f0946e2638985c9b2ca07a", "fusion_lon": 0.0, "lat": 38.915060833333335, "fusion_lat": 0.0}, {"is_disabled": 0, "rental_uris": {"android": "https://dc.lft.to/lastmile_qr_scan", "ios": "https://dc.lft.to/lastmile_qr_scan"}, "is_reserved": 0, "name": "1eefc3853867004a0f9f183042c265fa", "lon": -77.03153133333333, "type": "electric_scooter", "bike_id": "1eefc3853867004a0f9f183042c265fa", "fusion_lon": 0.0, "lat": 38.88746533333333, "fusion_lat": 0.0}, {"is_disabled": 0, "rental_uris": {"android": "https://dc.lft.to/lastmile_qr_scan", "ios": "https://dc.lft.to/lastmile_qr_scan"}, "is_reserved": 0, "name": "ff21d4171b4df219c958605184b7f5e4", "lon": -77.04349, "type": "electric_scooter", "bike_id": "ff21d4171b4df219c958605184b7f5e4", "fusion_lon": 0.0, "lat": 38.90473566666667, "fusion_lat": 0.0}, {"is_disabled": 0, "rental_uris": {"android": "https://dc.lft.to/lastmile_qr_scan", "ios": "https://dc.lft.to/lastmile_qr_scan"}, "is_reserved": 0, "name": "d5129154cea4490a20378ef4492ba634", "lon": -77.02723483333334, "type": "electric_scooter", "bike_id": "d5129154cea4490a20378ef4492ba634", "fusion_lon": 0.0, "lat": 38.90848916666667, "fusion_lat": 0.0}, {"is_disabled": 0, "rental_uris": {"android": "https://dc.lft.to/lastmile_qr_scan", "ios": "https://dc.lft.to/lastmile_qr_scan"}, "is_reserved": 0, "name": "9281dc162ff8f48ca3ee4dffcdc59d8a", "lon": -77.00988733333334, "type": "electric_scooter", "bike_id": "9281dc162ff8f48ca3ee4dffcdc59d8a", "fusion_lon": 0.0, "lat": 38.89727216666667, "fusion_lat": 0.0}, {"is_disabled": 0, "rental_uris": {"android": "https://dc.lft.to/lastmile_qr_scan", "ios": "https://dc.lft.to/lastmile_qr_scan"}, "is_reserved": 0, "name": "48727bd9b0794cc3f2d20ffa773e568b", "lon": -76.965261, "type": "electric_scooter", "bike_id": "48727bd9b0794cc3f2d20ffa773e568b", "fusion_lon": 0.0, "lat": 38.876284166666665, "fusion_lat": 0.0}, {"is_disabled": 0, "rental_uris": {"android": "https://dc.lft.to/lastmile_qr_scan", "ios": "https://dc.lft.to/lastmile_qr_scan"}, "is_reserved": 0, "name": "95161181ff181b84d2e7137ee3954b10", "lon": -76.980694, "type": "electric_scooter", "bike_id": "95161181ff181b84d2e7137ee3954b10", "fusion_lon": 0.0, "lat": 38.916718, "fusion_lat": 0.0}, {"is_disabled": 0, "rental_uris": {"android": "https://dc.lft.to/lastmile_qr_scan", "ios": "https://dc.lft.to/lastmile_qr_scan"}, "is_reserved": 0, "name": "c310a6cd96e14c55bf55375774d100d0", "lon": -77.0468935, "type": "electric_scooter", "bike_id": "c310a6cd96e14c55bf55375774d100d0", "fusion_lon": 0.0, "lat": 38.89747066666666, "fusion_lat": 0.0}, {"is_disabled": 0, "rental_uris": {"android": "https://dc.lft.to/lastmile_qr_scan", "ios": "https://dc.lft.to/lastmile_qr_scan"}, "is_reserved": 0, "name": "192aac578a3129ac7204e20312b9740b", "lon": -77.05082683333333, "type": "electric_scooter", "bike_id": "192aac578a3129ac7204e20312b9740b", "fusion_lon": 0.0, "lat": 38.90548416666667, "fusion_lat": 0.0}, {"is_disabled": 0, "rental_uris": {"android": "https://dc.lft.to/lastmile_qr_scan", "ios": "https://dc.lft.to/lastmile_qr_scan"}, "is_reserved": 0, "name": "4ffd97a055adab615fe4dba4fa74a66d", "lon": -77.02741166666667, "type": "electric_scooter", "bike_id": "4ffd97a055adab615fe4dba4fa74a66d", "fusion_lon": 0.0, "lat": 38.94304283333334, "fusion_lat": 0.0}, {"is_disabled": 0, "rental_uris": {"android": "https://dc.lft.to/lastmile_qr_scan", "ios": "https://dc.lft.to/lastmile_qr_scan"}, "is_reserved": 0, "name": "d5f2b21364017e86763981b5a2ac7b25", "lon": -77.02845833333333, "type": "electric_scooter", "bike_id": "d5f2b21364017e86763981b5a2ac7b25", "fusion_lon": 0.0, "lat": 38.932993, "fusion_lat": 0.0}, {"is_disabled": 0, "rental_uris": {"android": "https://dc.lft.to/lastmile_qr_scan", "ios": "https://dc.lft.to/lastmile_qr_scan"}, "is_reserved": 0, "name": "a4118fd3a0bad3888ebc89d493b39fc7", "lon": -77.0401315, "type": "electric_scooter", "bike_id": "a4118fd3a0bad3888ebc89d493b39fc7", "fusion_lon": 0.0, "lat": 38.917958, "fusion_lat": 0.0}, {"is_disabled": 0, "rental_uris": {"android": "https://dc.lft.to/lastmile_qr_scan", "ios": "https://dc.lft.to/lastmile_qr_scan"}, "is_reserved": 0, "name": "dfc2d43aedf44dde3a83c10dd64aa44f", "lon": -76.94119416666666, "type": "electric_scooter", "bike_id": "dfc2d43aedf44dde3a83c10dd64aa44f", "fusion_lon": 0.0, "lat": 38.8844935, "fusion_lat": 0.0}, {"is_disabled": 0, "rental_uris": {"android": "https://dc.lft.to/lastmile_qr_scan", "ios": "https://dc.lft.to/lastmile_qr_scan"}, "is_reserved": 0, "name": "3786d289540eb722c842cc9aec843ef0", "lon": -77.04270266666667, "type": "electric_scooter", "bike_id": "3786d289540eb722c842cc9aec843ef0", "fusion_lon": 0.0, "lat": 38.910400833333334, "fusion_lat": 0.0}, {"is_disabled": 0, "rental_uris": {"android": "https://dc.lft.to/lastmile_qr_scan", "ios": "https://dc.lft.to/lastmile_qr_scan"}, "is_reserved": 0, "name": "23c048840dddfa19bb82a32e8844bdc1", "lon": -77.04619816666667, "type": "electric_scooter", "bike_id": "23c048840dddfa19bb82a32e8844bdc1", "fusion_lon": 0.0, "lat": 38.923151, "fusion_lat": 0.0}, {"is_disabled": 0, "rental_uris": {"android": "https://dc.lft.to/lastmile_qr_scan", "ios": "https://dc.lft.to/lastmile_qr_scan"}, "is_reserved": 0, "name": "479f92b5a3d428079d3aaea5bf41fa54", "lon": -77.03874933333333, "type": "electric_scooter", "bike_id": "479f92b5a3d428079d3aaea5bf41fa54", "fusion_lon": 0.0, "lat": 38.903688, "fusion_lat": 0.0}, {"is_disabled": 0, "rental_uris": {"android": "https://dc.lft.to/lastmile_qr_scan", "ios": "https://dc.lft.to/lastmile_qr_scan"}, "is_reserved": 0, "name": "29788eaec006f689ff6b8804c60aeed2", "lon": -77.026581, "type": "electric_scooter", "bike_id": "29788eaec006f689ff6b8804c60aeed2", "fusion_lon": 0.0, "lat": 38.932787833333336, "fusion_lat": 0.0}, {"is_disabled": 0, "rental_uris": {"android": "https://dc.lft.to/lastmile_qr_scan", "ios": "https://dc.lft.to/lastmile_qr_scan"}, "is_reserved": 0, "name": "6f4dac3b3abbcdaaa1542aa7815b192c", "lon": -77.03486983333333, "type": "electric_scooter", "bike_id": "6f4dac3b3abbcdaaa1542aa7815b192c", "fusion_lon": 0.0, "lat": 38.9041025, "fusion_lat": 0.0}, {"is_disabled": 0, "rental_uris": {"android": "https://dc.lft.to/lastmile_qr_scan", "ios": "https://dc.lft.to/lastmile_qr_scan"}, "is_reserved": 0, "name": "66a2a591082e2667d2311d43b47cbdb0", "lon": -76.9878145, "type": "electric_scooter", "bike_id": "66a2a591082e2667d2311d43b47cbdb0", "fusion_lon": 0.0, "lat": 38.844660833333336, "fusion_lat": 0.0}, {"is_disabled": 0, "rental_uris": {"android": "https://dc.lft.to/lastmile_qr_scan", "ios": "https://dc.lft.to/lastmile_qr_scan"}, "is_reserved": 0, "name": "2127b41b7b72abf24baadd57c3383a4c", "lon": -77.0389375, "type": "electric_scooter", "bike_id": "2127b41b7b72abf24baadd57c3383a4c", "fusion_lon": 0.0, "lat": 38.9249585, "fusion_lat": 0.0}, {"is_disabled": 0, "rental_uris": {"android": "https://dc.lft.to/lastmile_qr_scan", "ios": "https://dc.lft.to/lastmile_qr_scan"}, "is_reserved": 0, "name": "d6c0b7051d39ef74244452491bd95340", "lon": -77.029855, "type": "electric_scooter", "bike_id": "d6c0b7051d39ef74244452491bd95340", "fusion_lon": 0.0, "lat": 38.93235466666667, "fusion_lat": 0.0}, {"is_disabled": 0, "rental_uris": {"android": "https://dc.lft.to/lastmile_qr_scan", "ios": "https://dc.lft.to/lastmile_qr_scan"}, "is_reserved": 0, "name": "e6ca5c3935ffcca129c3197bd4298e31", "lon": -76.9882995, "type": "electric_bike", "bike_id": "e6ca5c3935ffcca129c3197bd4298e31", "fusion_lon": 0.0, "lat": 38.98560533333333, "fusion_lat": 0.0}, {"is_disabled": 0, "rental_uris": {"android": "https://dc.lft.to/lastmile_qr_scan", "ios": "https://dc.lft.to/lastmile_qr_scan"}, "is_reserved": 0, "name": "9140b76b0a23f5bd4f46dd6f4ceffb93", "lon": -77.01702566666667, "type": "electric_scooter", "bike_id": "9140b76b0a23f5bd4f46dd6f4ceffb93", "fusion_lon": 0.0, "lat": 38.975068666666665, "fusion_lat": 0.0}, {"is_disabled": 0, "rental_uris": {"android": "https://dc.lft.to/lastmile_qr_scan", "ios": "https://dc.lft.to/lastmile_qr_scan"}, "is_reserved": 0, "name": "7dccdb038ceca90f05922be59e6a69da", "lon": -77.01409116666666, "type": "electric_scooter", "bike_id": "7dccdb038ceca90f05922be59e6a69da", "fusion_lon": 0.0, "lat": 38.92819983333333, "fusion_lat": 0.0}, {"is_disabled": 0, "rental_uris": {"android": "https://dc.lft.to/lastmile_qr_scan", "ios": "https://dc.lft.to/lastmile_qr_scan"}, "is_reserved": 0, "name": "565775609c0993d4e8105d99a848b97a", "lon": -77.00332883333333, "type": "electric_scooter", "bike_id": "565775609c0993d4e8105d99a848b97a", "fusion_lon": 0.0, "lat": 38.8935205, "fusion_lat": 0.0}, {"is_disabled": 0, "rental_uris": {"android": "https://dc.lft.to/lastmile_qr_scan", "ios": "https://dc.lft.to/lastmile_qr_scan"}, "is_reserved": 0, "name": "060f72ac7898356b5f85402f6423307c", "lon": -77.005807, "type": "electric_scooter", "bike_id": "060f72ac7898356b5f85402f6423307c", "fusion_lon": 0.0, "lat": 38.9057295, "fusion_lat": 0.0}, {"is_disabled": 0, "rental_uris": {"android": "https://dc.lft.to/lastmile_qr_scan", "ios": "https://dc.lft.to/lastmile_qr_scan"}, "is_reserved": 0, "name": "1404165136774229b78d9987de7937d4", "lon": -77.00826916666666, "type": "electric_scooter", "bike_id": "1404165136774229b78d9987de7937d4", "fusion_lon": 0.0, "lat": 38.91261383333333, "fusion_lat": 0.0}, {"is_disabled": 0, "rental_uris": {"android": "https://dc.lft.to/lastmile_qr_scan", "ios": "https://dc.lft.to/lastmile_qr_scan"}, "is_reserved": 0, "name": "6fe011455075ec92308be3f59a19de5c", "lon": -77.03815633333333, "type": "electric_scooter", "bike_id": "6fe011455075ec92308be3f59a19de5c", "fusion_lon": 0.0, "lat": 38.90331833333333, "fusion_lat": 0.0}, {"is_disabled": 0, "rental_uris": {"android": "https://dc.lft.to/lastmile_qr_scan", "ios": "https://dc.lft.to/lastmile_qr_scan"}, "is_reserved": 0, "name": "2678f6c3c7e725f8eb6f9e4138b10aa0", "lon": -76.88906933333334, "type": "electric_bike", "bike_id": "2678f6c3c7e725f8eb6f9e4138b10aa0", "fusion_lon": 0.0, "lat": 38.92590333333333, "fusion_lat": 0.0}, {"is_disabled": 0, "rental_uris": {"android": "https://dc.lft.to/lastmile_qr_scan", "ios": "https://dc.lft.to/lastmile_qr_scan"}, "is_reserved": 0, "name": "0427e537c902c929e8270e595e7354ca", "lon": -76.98505483333334, "type": "electric_bike", "bike_id": "0427e537c902c929e8270e595e7354ca", "fusion_lon": 0.0, "lat": 38.98519916666667, "fusion_lat": 0.0}, {"is_disabled": 0, "rental_uris": {"android": "https://dc.lft.to/lastmile_qr_scan", "ios": "https://dc.lft.to/lastmile_qr_scan"}, "is_reserved": 0, "name": "3ae211823bb17d6f627841995d20cd47", "lon": -77.0542095, "type": "electric_scooter", "bike_id": "3ae211823bb17d6f627841995d20cd47", "fusion_lon": 0.0, "lat": 38.8991635, "fusion_lat": 0.0}, {"is_disabled": 0, "rental_uris": {"android": "https://dc.lft.to/lastmile_qr_scan", "ios": "https://dc.lft.to/lastmile_qr_scan"}, "is_reserved": 0, "name": "511e152fa30b52d9ea74d8ef1bb5840d", "lon": -77.02086966666667, "type": "electric_scooter", "bike_id": "511e152fa30b52d9ea74d8ef1bb5840d", "fusion_lon": 0.0, "lat": 38.9301335, "fusion_lat": 0.0}, {"is_disabled": 0, "rental_uris": {"android": "https://dc.lft.to/lastmile_qr_scan", "ios": "https://dc.lft.to/lastmile_qr_scan"}, "is_reserved": 0, "name": "26b49cd630529bedad6f3ac9852624c5", "lon": -76.95220483333334, "type": "electric_bike", "bike_id": "26b49cd630529bedad6f3ac9852624c5", "fusion_lon": 0.0, "lat": 38.89234016666666, "fusion_lat": 0.0}, {"is_disabled": 0, "rental_uris": {"android": "https://dc.lft.to/lastmile_qr_scan", "ios": "https://dc.lft.to/lastmile_qr_scan"}, "is_reserved": 0, "name": "f33c4dc58e14172d0b9aa919a6e37e52", "lon": -77.051678, "type": "electric_scooter", "bike_id": "f33c4dc58e14172d0b9aa919a6e37e52", "fusion_lon": 0.0, "lat": 38.90576816666667, "fusion_lat": 0.0}, {"is_disabled": 0, "rental_uris": {"android": "https://dc.lft.to/lastmile_qr_scan", "ios": "https://dc.lft.to/lastmile_qr_scan"}, "is_reserved": 0, "name": "f4f5a80c2ab147f5a05ec8b58886d549", "lon": -77.07618883333333, "type": "electric_scooter", "bike_id": "f4f5a80c2ab147f5a05ec8b58886d549", "fusion_lon": 0.0, "lat": 38.91269416666667, "fusion_lat": 0.0}, {"is_disabled": 0, "rental_uris": {"android": "https://dc.lft.to/lastmile_qr_scan", "ios": "https://dc.lft.to/lastmile_qr_scan"}, "is_reserved": 0, "name": "5c9598a1385000dd0ac4d456ef4f4ee5", "lon": -77.039878, "type": "electric_bike", "bike_id": "5c9598a1385000dd0ac4d456ef4f4ee5", "fusion_lon": 0.0, "lat": 38.802934666666665, "fusion_lat": 0.0}, {"is_disabled": 0, "rental_uris": {"android": "https://dc.lft.to/lastmile_qr_scan", "ios": "https://dc.lft.to/lastmile_qr_scan"}, "is_reserved": 0, "name": "8cc604ff86bd5383cef8c443fb4aa655", "lon": -77.03932683333333, "type": "electric_scooter", "bike_id": "8cc604ff86bd5383cef8c443fb4aa655", "fusion_lon": 0.0, "lat": 38.8997755, "fusion_lat": 0.0}, {"is_disabled": 0, "rental_uris": {"android": "https://dc.lft.to/lastmile_qr_scan", "ios": "https://dc.lft.to/lastmile_qr_scan"}, "is_reserved": 0, "name": "1d144ec311b1b463efb74aaffe21433f", "lon": -77.03141366666667, "type": "electric_scooter", "bike_id": "1d144ec311b1b463efb74aaffe21433f", "fusion_lon": 0.0, "lat": 38.9248195, "fusion_lat": 0.0}, {"is_disabled": 0, "rental_uris": {"android": "https://dc.lft.to/lastmile_qr_scan", "ios": "https://dc.lft.to/lastmile_qr_scan"}, "is_reserved": 0, "name": "e1fe09e523201a35bdd510781bd7bae9", "lon": -77.04373833333334, "type": "electric_scooter", "bike_id": "e1fe09e523201a35bdd510781bd7bae9", "fusion_lon": 0.0, "lat": 38.9027085, "fusion_lat": 0.0}, {"is_disabled": 0, "rental_uris": {"android": "https://dc.lft.to/lastmile_qr_scan", "ios": "https://dc.lft.to/lastmile_qr_scan"}, "is_reserved": 0, "name": "49784ecd7061f232d2a5964a12abff1e", "lon": -77.00711733333333, "type": "electric_scooter", "bike_id": "49784ecd7061f232d2a5964a12abff1e", "fusion_lon": 0.0, "lat": 38.884889, "fusion_lat": 0.0}, {"is_disabled": 0, "rental_uris": {"android": "https://dc.lft.to/lastmile_qr_scan", "ios": "https://dc.lft.to/lastmile_qr_scan"}, "is_reserved": 0, "name": "c6e7e42c6f81a0c1cd91c8bab1d16e56", "lon": -77.03244533333333, "type": "electric_bike", "bike_id": "c6e7e42c6f81a0c1cd91c8bab1d16e56", "fusion_lon": 0.0, "lat": 38.902831, "fusion_lat": 0.0}, {"is_disabled": 0, "rental_uris": {"android": "https://dc.lft.to/lastmile_qr_scan", "ios": "https://dc.lft.to/lastmile_qr_scan"}, "is_reserved": 0, "name": "ac7a05578b292b74e57b7e61f33de970", "lon": -77.01758516666666, "type": "electric_scooter", "bike_id": "ac7a05578b292b74e57b7e61f33de970", "fusion_lon": 0.0, "lat": 38.88326716666667, "fusion_lat": 0.0}, {"is_disabled": 0, "rental_uris": {"android": "https://dc.lft.to/lastmile_qr_scan", "ios": "https://dc.lft.to/lastmile_qr_scan"}, "is_reserved": 0, "name": "2c038b87d01548d86d1733705450cfa1", "lon": -77.01571966666667, "type": "electric_scooter", "bike_id": "2c038b87d01548d86d1733705450cfa1", "fusion_lon": 0.0, "lat": 38.87261133333333, "fusion_lat": 0.0}, {"is_disabled": 0, "rental_uris": {"android": "https://dc.lft.to/lastmile_qr_scan", "ios": "https://dc.lft.to/lastmile_qr_scan"}, "is_reserved": 0, "name": "18c34a77e4e09ed696fb7932170972a8", "lon": -77.035539, "type": "electric_scooter", "bike_id": "18c34a77e4e09ed696fb7932170972a8", "fusion_lon": 0.0, "lat": 38.922835166666665, "fusion_lat": 0.0}, {"is_disabled": 0, "rental_uris": {"android": "https://dc.lft.to/lastmile_qr_scan", "ios": "https://dc.lft.to/lastmile_qr_scan"}, "is_reserved": 0, "name": "fec3fdf58e2784a981c6ddb514a3b78d", "lon": -77.01104383333333, "type": "electric_scooter", "bike_id": "fec3fdf58e2784a981c6ddb514a3b78d", "fusion_lon": 0.0, "lat": 38.909705333333335, "fusion_lat": 0.0}, {"is_disabled": 0, "rental_uris": {"android": "https://dc.lft.to/lastmile_qr_scan", "ios": "https://dc.lft.to/lastmile_qr_scan"}, "is_reserved": 0, "name": "29276f9d1dd7a42df0e39de2d2c4603d", "lon": -77.02411166666667, "type": "electric_scooter", "bike_id": "29276f9d1dd7a42df0e39de2d2c4603d", "fusion_lon": 0.0, "lat": 38.92660716666666, "fusion_lat": 0.0}, {"is_disabled": 0, "rental_uris": {"android": "https://dc.lft.to/lastmile_qr_scan", "ios": "https://dc.lft.to/lastmile_qr_scan"}, "is_reserved": 0, "name": "ea8782b5bc98399eb9c2f798dfcc2d98", "lon": -77.095774, "type": "electric_bike", "bike_id": "ea8782b5bc98399eb9c2f798dfcc2d98", "fusion_lon": 0.0, "lat": 38.91677683333333, "fusion_lat": 0.0}, {"is_disabled": 0, "rental_uris": {"android": "https://dc.lft.to/lastmile_qr_scan", "ios": "https://dc.lft.to/lastmile_qr_scan"}, "is_reserved": 0, "name": "72b7a8a78ec1ebb7e3755bd291f88487", "lon": -76.99721833333334, "type": "electric_scooter", "bike_id": "72b7a8a78ec1ebb7e3755bd291f88487", "fusion_lon": 0.0, "lat": 38.91028333333333, "fusion_lat": 0.0}, {"is_disabled": 0, "rental_uris": {"android": "https://dc.lft.to/lastmile_qr_scan", "ios": "https://dc.lft.to/lastmile_qr_scan"}, "is_reserved": 0, "name": "2ffa4419104d206c7f519004904f2e34", "lon": -76.9953555, "type": "electric_scooter", "bike_id": "2ffa4419104d206c7f519004904f2e34", "fusion_lon": 0.0, "lat": 38.86253683333333, "fusion_lat": 0.0}, {"is_disabled": 0, "rental_uris": {"android": "https://dc.lft.to/lastmile_qr_scan", "ios": "https://dc.lft.to/lastmile_qr_scan"}, "is_reserved": 0, "name": "49aa931d727aa89b8cf8af9d051f31aa", "lon": -77.03225316666666, "type": "electric_scooter", "bike_id": "49aa931d727aa89b8cf8af9d051f31aa", "fusion_lon": 0.0, "lat": 38.901326166666664, "fusion_lat": 0.0}, {"is_disabled": 0, "rental_uris": {"android": "https://dc.lft.to/lastmile_qr_scan", "ios": "https://dc.lft.to/lastmile_qr_scan"}, "is_reserved": 0, "name": "cdc28d69c826eeb5173688657cc2d4bd", "lon": -77.026003, "type": "electric_scooter", "bike_id": "cdc28d69c826eeb5173688657cc2d4bd", "fusion_lon": 0.0, "lat": 38.904983, "fusion_lat": 0.0}, {"is_disabled": 0, "rental_uris": {"android": "https://dc.lft.to/lastmile_qr_scan", "ios": "https://dc.lft.to/lastmile_qr_scan"}, "is_reserved": 0, "name": "9c458fa875fa0d1f4dad073a5fc3f23c", "lon": -77.04878183333334, "type": "electric_scooter", "bike_id": "9c458fa875fa0d1f4dad073a5fc3f23c", "fusion_lon": 0.0, "lat": 38.907409666666666, "fusion_lat": 0.0}, {"is_disabled": 0, "rental_uris": {"android": "https://dc.lft.to/lastmile_qr_scan", "ios": "https://dc.lft.to/lastmile_qr_scan"}, "is_reserved": 0, "name": "c87dedb4475285ff29b6388759b7d763", "lon": -77.0440635, "type": "electric_scooter", "bike_id": "c87dedb4475285ff29b6388759b7d763", "fusion_lon": 0.0, "lat": 38.89396433333334, "fusion_lat": 0.0}, {"is_disabled": 0, "rental_uris": {"android": "https://dc.lft.to/lastmile_qr_scan", "ios": "https://dc.lft.to/lastmile_qr_scan"}, "is_reserved": 0, "name": "3d4ebe3a3a6046063c1325e726ca6ed8", "lon": -77.04278933333333, "type": "electric_scooter", "bike_id": "3d4ebe3a3a6046063c1325e726ca6ed8", "fusion_lon": 0.0, "lat": 38.934113833333335, "fusion_lat": 0.0}, {"is_disabled": 0, "rental_uris": {"android": "https://dc.lft.to/lastmile_qr_scan", "ios": "https://dc.lft.to/lastmile_qr_scan"}, "is_reserved": 0, "name": "a2babfd85da7e8692e278b62cc136dd0", "lon": -77.00562816666667, "type": "electric_scooter", "bike_id": "a2babfd85da7e8692e278b62cc136dd0", "fusion_lon": 0.0, "lat": 38.88503383333333, "fusion_lat": 0.0}, {"is_disabled": 0, "rental_uris": {"android": "https://dc.lft.to/lastmile_qr_scan", "ios": "https://dc.lft.to/lastmile_qr_scan"}, "is_reserved": 0, "name": "3a086ed613339b21f09abfdd147910fe", "lon": -77.06137916666667, "type": "electric_scooter", "bike_id": "3a086ed613339b21f09abfdd147910fe", "fusion_lon": 0.0, "lat": 38.9052675, "fusion_lat": 0.0}, {"is_disabled": 0, "rental_uris": {"android": "https://dc.lft.to/lastmile_qr_scan", "ios": "https://dc.lft.to/lastmile_qr_scan"}, "is_reserved": 0, "name": "a5857f223aa0a0e589fb3c8bb8e16796", "lon": -77.03483266666667, "type": "electric_scooter", "bike_id": "a5857f223aa0a0e589fb3c8bb8e16796", "fusion_lon": 0.0, "lat": 38.924765, "fusion_lat": 0.0}, {"is_disabled": 0, "rental_uris": {"android": "https://dc.lft.to/lastmile_qr_scan", "ios": "https://dc.lft.to/lastmile_qr_scan"}, "is_reserved": 0, "name": "0f68c3620663d03f6b7f5577ef6e2fa3", "lon": -77.02065983333334, "type": "electric_scooter", "bike_id": "0f68c3620663d03f6b7f5577ef6e2fa3", "fusion_lon": 0.0, "lat": 38.881188333333334, "fusion_lat": 0.0}, {"is_disabled": 0, "rental_uris": {"android": "https://dc.lft.to/lastmile_qr_scan", "ios": "https://dc.lft.to/lastmile_qr_scan"}, "is_reserved": 0, "name": "c633afe8e56154f0d091e200f20ef983", "lon": -77.026991, "type": "electric_scooter", "bike_id": "c633afe8e56154f0d091e200f20ef983", "fusion_lon": 0.0, "lat": 38.89654683333333, "fusion_lat": 0.0}, {"is_disabled": 0, "rental_uris": {"android": "https://dc.lft.to/lastmile_qr_scan", "ios": "https://dc.lft.to/lastmile_qr_scan"}, "is_reserved": 0, "name": "4fa94f0be24db445f9bee4863a1f8f58", "lon": -76.9888585, "type": "electric_scooter", "bike_id": "4fa94f0be24db445f9bee4863a1f8f58", "fusion_lon": 0.0, "lat": 38.86658416666667, "fusion_lat": 0.0}, {"is_disabled": 0, "rental_uris": {"android": "https://dc.lft.to/lastmile_qr_scan", "ios": "https://dc.lft.to/lastmile_qr_scan"}, "is_reserved": 0, "name": "dda4917b82228e1ec83516bfc835e9c8", "lon": -76.9779585, "type": "electric_bike", "bike_id": "dda4917b82228e1ec83516bfc835e9c8", "fusion_lon": 0.0, "lat": 38.89610033333334, "fusion_lat": 0.0}, {"is_disabled": 0, "rental_uris": {"android": "https://dc.lft.to/lastmile_qr_scan", "ios": "https://dc.lft.to/lastmile_qr_scan"}, "is_reserved": 0, "name": "5e09dfef08666c5afe4b86614ad89c70", "lon": -77.0196545, "type": "electric_scooter", "bike_id": "5e09dfef08666c5afe4b86614ad89c70", "fusion_lon": 0.0, "lat": 38.89376766666667, "fusion_lat": 0.0}, {"is_disabled": 0, "rental_uris": {"android": "https://dc.lft.to/lastmile_qr_scan", "ios": "https://dc.lft.to/lastmile_qr_scan"}, "is_reserved": 0, "name": "c33917ff169b96662de80cca72dbf8ca", "lon": -76.99646133333333, "type": "electric_scooter", "bike_id": "c33917ff169b96662de80cca72dbf8ca", "fusion_lon": 0.0, "lat": 38.887189, "fusion_lat": 0.0}, {"is_disabled": 0, "rental_uris": {"android": "https://dc.lft.to/lastmile_qr_scan", "ios": "https://dc.lft.to/lastmile_qr_scan"}, "is_reserved": 0, "name": "ceae70b4d4f52ffc3ad81fd470fafc44", "lon": -77.01602933333334, "type": "electric_scooter", "bike_id": "ceae70b4d4f52ffc3ad81fd470fafc44", "fusion_lon": 0.0, "lat": 38.88744916666667, "fusion_lat": 0.0}, {"is_disabled": 0, "rental_uris": {"android": "https://dc.lft.to/lastmile_qr_scan", "ios": "https://dc.lft.to/lastmile_qr_scan"}, "is_reserved": 0, "name": "10dc50a937716118d4dec64dedfc6ca7", "lon": -77.08575633333334, "type": "electric_scooter", "bike_id": "10dc50a937716118d4dec64dedfc6ca7", "fusion_lon": 0.0, "lat": 38.933555166666665, "fusion_lat": 0.0}, {"is_disabled": 0, "rental_uris": {"android": "https://dc.lft.to/lastmile_qr_scan", "ios": "https://dc.lft.to/lastmile_qr_scan"}, "is_reserved": 0, "name": "b0e331a87a44b65d0d46515806125bf1", "lon": -77.03393233333334, "type": "electric_scooter", "bike_id": "b0e331a87a44b65d0d46515806125bf1", "fusion_lon": 0.0, "lat": 38.907021, "fusion_lat": 0.0}, {"is_disabled": 0, "rental_uris": {"android": "https://dc.lft.to/lastmile_qr_scan", "ios": "https://dc.lft.to/lastmile_qr_scan"},