{"data": {"bikes": [{"bike_id": "23feb908c94d2f354300796ddaafafdf", "fusion_lon": 0.0, "lon": -77.05269966666667, "name": "23feb908c94d2f354300796ddaafafdf", "is_disabled": 0, "rental_uris": {"android": "https://dc.lft.to/lastmile_qr_scan", "ios": "https://dc.lft.to/lastmile_qr_scan"}, "type": "electric_scooter", "lat": 38.92547316666667, "is_reserved": 0, "fusion_lat": 0.0}, {"bike_id": "1255c1a212383fe7950aabd095015d13", "fusion_lon": 0.0, "lon": -77.01137483333333, "name": "1255c1a212383fe7950aabd095015d13", "is_disabled": 0, "rental_uris": {"android": "https://dc.lft.to/lastmile_qr_scan", "ios": "https://dc.lft.to/lastmile_qr_scan"}, "type": "electric_scooter", "lat": 38.90733133333333, "is_reserved": 0, "fusion_lat": 0.0}, {"bike_id": "af8c450075aee083071c1fc2cd372909", "fusion_lon": 0.0, "lon": -76.98888233333334, "name": "af8c450075aee083071c1fc2cd372909", "is_disabled": 0, "rental_uris": {"android": "https://dc.lft.to/lastmile_qr_scan", "ios": "https://dc.lft.to/lastmile_qr_scan"}, "type": "electric_scooter", "lat": 38.866520666666666, "is_reserved": 0, "fusion_lat": 0.0}, {"bike_id": "2b0da13aac96b88817acb085ef1e50c7", "fusion_lon": 0.0, "lon": -77.022018, "name": "2b0da13aac96b88817acb085ef1e50c7", "is_disabled": 0, "rental_uris": {"android": "https://dc.lft.to/lastmile_qr_scan", "ios": "https://dc.lft.to/lastmile_qr_scan"}, "type": "electric_scooter", "lat": 38.8789225, "is_reserved": 0, "fusion_lat": 0.0}, {"bike_id": "44203b55c18e895f82f93ff5de2d10e1", "fusion_lon": 0.0, "lon": -77.02185483333334, "name": "44203b55c18e895f82f93ff5de2d10e1", "is_disabled": 0, "rental_uris": {"android": "https://dc.lft.to/lastmile_qr_scan", "ios": "https://dc.lft.to/lastmile_qr_scan"}, "type": "electric_scooter", "lat": 38.914792, "is_reserved": 0, "fusion_lat": 0.0}, {"bike_id": "116b470600e49e80eab682afab7d5970", "fusion_lon": 0.0, "lon": -77.039356, "name": "116b470600e49e80eab682afab7d5970", "is_disabled": 0, "rental_uris": {"android": "https://dc.lft.to/lastmile_qr_scan", "ios": "https://dc.lft.to/lastmile_qr_scan"}, "type": "electric_scooter", "lat": 38.91565, "is_reserved": 0, "fusion_lat": 0.0}, {"bike_id": "28a1d1f7c57d507d35fd8049ac7d488e", "fusion_lon": 0.0, "lon": -77.02694866666667, "name": "28a1d1f7c57d507d35fd8049ac7d488e", "is_disabled": 0, "rental_uris": {"android": "https://dc.lft.to/lastmile_qr_scan", "ios": "https://dc.lft.to/lastmile_qr_scan"}, "type": "electric_scooter", "lat": 38.911236333333335, "is_reserved": 0, "fusion_lat": 0.0}, {"bike_id": "e06eade719db9f2a3dc2fa6a89f5cdf6", "fusion_lon": 0.0, "lon": -77.02597583333333, "name": "e06eade719db9f2a3dc2fa6a89f5cdf6", "is_disabled": 0, "rental_uris": {"android": "https://dc.lft.to/lastmile_qr_scan", "ios": "https://dc.lft.to/lastmile_qr_scan"}, "type": "electric_scooter", "lat": 38.90514733333333, "is_reserved": 0, "fusion_lat": 0.0}, {"bike_id": "2bdfffcd366b9368df19dce57b4a62e0", "fusion_lon": 0.0, "lon": -77.03292583333334, "name": "2bdfffcd366b9368df19dce57b4a62e0", "is_disabled": 0, "rental_uris": {"android": "https://dc.lft.to/lastmile_qr_scan", "ios": "https://dc.lft.to/lastmile_qr_scan"}, "type": "electric_scooter", "lat": 38.9563795, "is_reserved": 0, "fusion_lat": 0.0}, {"bike_id": "37f7caa87d80ccb76bf127fdd705920d", "fusion_lon": 0.0, "lon": -77.16230116666667, "name": "37f7caa87d80ccb76bf127fdd705920d", "is_disabled": 0, "rental_uris": {"android": "https://dc.lft.to/lastmile_qr_scan", "ios": "https://dc.lft.to/lastmile_qr_scan"}, "type": "electric_bike", "lat": 38.886605833333334, "is_reserved": 0, "fusion_lat": 0.0}, {"bike_id": "b4dcb54b29abcd582a4784bc150c51a5", "fusion_lon": 0.0, "lon": -77.0253215, "name": "b4dcb54b29abcd582a4784bc150c51a5", "is_disabled": 0, "rental_uris": {"android": "https://dc.lft.to/lastmile_qr_scan", "ios": "https://dc.lft.to/lastmile_qr_scan"}, "type": "electric_scooter", "lat": 38.92082, "is_reserved": 0, "fusion_lat": 0.0}, {"bike_id": "d5cd69b791aa19066e3af7b7a08317ef", "fusion_lon": 0.0, "lon": -77.02382666666666, "name": "d5cd69b791aa19066e3af7b7a08317ef", "is_disabled": 0, "rental_uris": {"android": "https://dc.lft.to/lastmile_qr_scan", "ios": "https://dc.lft.to/lastmile_qr_scan"}, "type": "electric_scooter", "lat": 38.919812666666665, "is_reserved": 0, "fusion_lat": 0.0}, {"bike_id": "a79ce918844a23b07ab76f3688817855", "fusion_lon": 0.0, "lon": -77.04185483333333, "name": "a79ce918844a23b07ab76f3688817855", "is_disabled": 0, "rental_uris": {"android": "https://dc.lft.to/lastmile_qr_scan", "ios": "https://dc.lft.to/lastmile_qr_scan"}, "type": "electric_scooter", "lat": 38.893013333333336, "is_reserved": 0, "fusion_lat": 0.0}, {"bike_id": "0b2c52d27064aaceef107775aebbfa4f", "fusion_lon": 0.0, "lon": -76.98375083333333, "name": "0b2c52d27064aaceef107775aebbfa4f", "is_disabled": 0, "rental_uris": {"android": "https://dc.lft.to/lastmile_qr_scan", "ios": "https://dc.lft.to/lastmile_qr_scan"}, "type": "electric_scooter", "lat": 38.86104866666667, "is_reserved": 0, "fusion_lat": 0.0}, {"bike_id": "1988a85288fefd71153529e270ecd0da", "fusion_lon": 0.0, "lon": -77.03179716666666, "name": "1988a85288fefd71153529e270ecd0da", "is_disabled": 0, "rental_uris": {"android": "https://dc.lft.to/lastmile_qr_scan", "ios": "https://dc.lft.to/lastmile_qr_scan"}, "type": "electric_scooter", "lat": 38.909891, "is_reserved": 0, "fusion_lat": 0.0}, {"bike_id": "b5d3de658677a2c0bf4928f5e973a732", "fusion_lon": 0.0, "lon": -77.00208816666667, "name": "b5d3de658677a2c0bf4928f5e973a732", "is_disabled": 0, "rental_uris": {"android": "https://dc.lft.to/lastmile_qr_scan", "ios": "https://dc.lft.to/lastmile_qr_scan"}, "type": "electric_scooter", "lat": 38.900801333333334, "is_reserved": 0, "fusion_lat": 0.0}, {"bike_id": "e0f5650b986fd2380e2b851f0489cf07", "fusion_lon": 0.0, "lon": -77.01217, "name": "e0f5650b986fd2380e2b851f0489cf07", "is_disabled": 0, "rental_uris": {"android": "https://dc.lft.to/lastmile_qr_scan", "ios": "https://dc.lft.to/lastmile_qr_scan"}, "type": "electric_scooter", "lat": 38.913436833333336, "is_reserved": 0, "fusion_lat": 0.0}, {"bike_id": "1e3f74ecc98f4c7c643135ca3269399f", "fusion_lon": 0.0, "lon": -77.0219455, "name": "1e3f74ecc98f4c7c643135ca3269399f", "is_disabled": 0, "rental_uris": {"android": "https://dc.lft.to/lastmile_qr_scan", "ios": "https://dc.lft.to/lastmile_qr_scan"}, "type": "electric_scooter", "lat": 38.916633, "is_reserved": 0, "fusion_lat": 0.0}, {"bike_id": "17c27529c1d816a9965b7502d00e0b10", "fusion_lon": 0.0, "lon": -77.03182116666666, "name": "17c27529c1d816a9965b7502d00e0b10", "is_disabled": 0, "rental_uris": {"android": "https://dc.lft.to/lastmile_qr_scan", "ios": "https://dc.lft.to/lastmile_qr_scan"}, "type": "electric_scooter", "lat": 38.923855833333334, "is_reserved": 0, "fusion_lat": 0.0}, {"bike_id": "0cef081d40afed4fe6f882039d738aaf", "fusion_lon": 0.0, "lon": -77.03283866666666, "name": "0cef081d40afed4fe6f882039d738aaf", "is_disabled": 0, "rental_uris": {"android": "https://dc.lft.to/lastmile_qr_scan", "ios": "https://dc.lft.to/lastmile_qr_scan"}, "type": "electric_scooter", "lat": 38.93444566666667, "is_reserved": 0, "fusion_lat": 0.0}, {"bike_id": "ec49f5877962db84827fd207bf7159dd", "fusion_lon": 0.0, "lon": -77.03259016666667, "name": "ec49f5877962db84827fd207bf7159dd", "is_disabled": 0, "rental_uris": {"android": "https://dc.lft.to/lastmile_qr_scan", "ios": "https://dc.lft.to/lastmile_qr_scan"}, "type": "electric_scooter", "lat": 38.93973283333333, "is_reserved": 0, "fusion_lat": 0.0}, {"bike_id": "886cb7b74f2d11ebc7d2f6776d430231", "fusion_lon": 0.0, "lon": -77.018015, "name": "886cb7b74f2d11ebc7d2f6776d430231", "is_disabled": 0, "rental_uris": {"android": "https://dc.lft.to/lastmile_qr_scan", "ios": "https://dc.lft.to/lastmile_qr_scan"}, "type": "electric_scooter", "lat": 38.87675383333333, "is_reserved": 0, "fusion_lat": 0.0}, {"bike_id": "8a642cd1b4fe49d4c46b543212d0a78e", "fusion_lon": 0.0, "lon": -77.040392, "name": "8a642cd1b4fe49d4c46b543212d0a78e", "is_disabled": 0, "rental_uris": {"android": "https://dc.lft.to/lastmile_qr_scan", "ios": "https://dc.lft.to/lastmile_qr_scan"}, "type": "electric_scooter", "lat": 38.9185385, "is_reserved": 0, "fusion_lat": 0.0}, {"bike_id": "a680ebdaa650ae7d6e9b2f32e457c64e", "fusion_lon": 0.0, "lon": -77.02751133333334, "name": "a680ebdaa650ae7d6e9b2f32e457c64e", "is_disabled": 0, "rental_uris": {"android": "https://dc.lft.to/lastmile_qr_scan", "ios": "https://dc.lft.to/lastmile_qr_scan"}, "type": "electric_scooter", "lat": 38.95168783333333, "is_reserved": 0, "fusion_lat": 0.0}, {"bike_id": "4ce746033c1e9792954e35dda6a9c586", "fusion_lon": 0.0, "lon": -77.13103816666667, "name": "4ce746033c1e9792954e35dda6a9c586", "is_disabled": 0, "rental_uris": {"android": "https://dc.lft.to/lastmile_qr_scan", "ios": "https://dc.lft.to/lastmile_qr_scan"}, "type": "electric_bike", "lat": 39.02430416666667, "is_reserved": 0, "fusion_lat": 0.0}, {"bike_id": "d133b0c8df14ddce729603abb93f30ec", "fusion_lon": 0.0, "lon": -76.98999066666667, "name": "d133b0c8df14ddce729603abb93f30ec", "is_disabled": 0, "rental_uris": {"android": "https://dc.lft.to/lastmile_qr_scan", "ios": "https://dc.lft.to/lastmile_qr_scan"}, "type": "electric_scooter", "lat": 38.924512166666666, "is_reserved": 0, "fusion_lat": 0.0}, {"bike_id": "37b7af467c75cc1d3044c9a6cc704aef", "fusion_lon": 0.0, "lon": -77.000228, "name": "37b7af467c75cc1d3044c9a6cc704aef", "is_disabled": 0, "rental_uris": {"android": "https://dc.lft.to/lastmile_qr_scan", "ios": "https://dc.lft.to/lastmile_qr_scan"}, "type": "electric_scooter", "lat": 38.90020166666667, "is_reserved": 0, "fusion_lat": 0.0}, {"bike_id": "8fac5f0858b6af5a545aa8d6161effa8", "fusion_lon": 0.0, "lon": -76.94753016666667, "name": "8fac5f0858b6af5a545aa8d6161effa8", "is_disabled": 0, "rental_uris": {"android": "https://dc.lft.to/lastmile_qr_scan", "ios": "https://dc.lft.to/lastmile_qr_scan"}, "type": "electric_scooter", "lat": 38.89671333333333, "is_reserved": 0, "fusion_lat": 0.0}, {"bike_id": "da339fe6526134bfeebfdd600a058b61", "fusion_lon": 0.0, "lon": -77.027085, "name": "da339fe6526134bfeebfdd600a058b61", "is_disabled": 0, "rental_uris": {"android": "https://dc.lft.to/lastmile_qr_scan", "ios": "https://dc.lft.to/lastmile_qr_scan"}, "type": "electric_scooter", "lat": 38.906717666666665, "is_reserved": 0, "fusion_lat": 0.0}, {"bike_id": "bf740b17fe8f508eccfd5fe2b7ecc81b", "fusion_lon": 0.0, "lon": -77.03209216666667, "name": "bf740b17fe8f508eccfd5fe2b7ecc81b", "is_disabled": 0, "rental_uris": {"android": "https://dc.lft.to/lastmile_qr_scan", "ios": "https://dc.lft.to/lastmile_qr_scan"}, "type": "electric_scooter", "lat": 38.91474083333333, "is_reserved": 0, "fusion_lat": 0.0}, {"bike_id": "2d5fd21bc956118a11e282c2997ec917", "fusion_lon": 0.0, "lon": -77.0147915, "name": "2d5fd21bc956118a11e282c2997ec917", "is_disabled": 0, "rental_uris": {"android": "https://dc.lft.to/lastmile_qr_scan", "ios": "https://dc.lft.to/lastmile_qr_scan"}, "type": "electric_scooter", "lat": 38.87631183333333, "is_reserved": 0, "fusion_lat": 0.0}, {"bike_id": "c45955a03c67b2a21b5ed473256c9d68", "fusion_lon": 0.0, "lon": -77.027889, "name": "c45955a03c67b2a21b5ed473256c9d68", "is_disabled": 0, "rental_uris": {"android": "https://dc.lft.to/lastmile_qr_scan", "ios": "https://dc.lft.to/lastmile_qr_scan"}, "type": "electric_scooter", "lat": 38.930615333333336, "is_reserved": 0, "fusion_lat": 0.0}, {"bike_id": "d8b80b3c1acf947d0bfb15504d8e1902", "fusion_lon": 0.0, "lon": -77.03237, "name": "d8b80b3c1acf947d0bfb15504d8e1902", "is_disabled": 0, "rental_uris": {"android": "https://dc.lft.to/lastmile_qr_scan", "ios": "https://dc.lft.to/lastmile_qr_scan"}, "type": "electric_scooter", "lat": 38.9302275, "is_reserved": 0, "fusion_lat": 0.0}, {"bike_id": "a0b69c1f72b39073a60814ba48656c21", "fusion_lon": 0.0, "lon": -77.03367483333334, "name": "a0b69c1f72b39073a60814ba48656c21", "is_disabled": 0, "rental_uris": {"android": "https://dc.lft.to/lastmile_qr_scan", "ios": "https://dc.lft.to/lastmile_qr_scan"}, "type": "electric_scooter", "lat": 38.932247833333335, "is_reserved": 0, "fusion_lat": 0.0}, {"bike_id": "c38669f0e5cd8feb77d3a679ab0e4df4", "fusion_lon": 0.0, "lon": -77.09487266666666, "name": "c38669f0e5cd8feb77d3a679ab0e4df4", "is_disabled": 0, "rental_uris": {"android": "https://dc.lft.to/lastmile_qr_scan", "ios": "https://dc.lft.to/lastmile_qr_scan"}, "type": "electric_bike", "lat": 39.030452, "is_reserved": 0, "fusion_lat": 0.0}, {"bike_id": "77462903f01914092bce680a3840af42", "fusion_lon": 0.0, "lon": -77.02650516666667, "name": "77462903f01914092bce680a3840af42", "is_disabled": 0, "rental_uris": {"android": "https://dc.lft.to/lastmile_qr_scan", "ios": "https://dc.lft.to/lastmile_qr_scan"}, "type": "electric_scooter", "lat": 38.89224433333333, "is_reserved": 0, "fusion_lat": 0.0}, {"bike_id": "20e4e683f646e4dd34bcc55b6a2e8de3", "fusion_lon": 0.0, "lon": -77.0607715, "name": "20e4e683f646e4dd34bcc55b6a2e8de3", "is_disabled": 0, "rental_uris": {"android": "https://dc.lft.to/lastmile_qr_scan", "ios": "https://dc.lft.to/lastmile_qr_scan"}, "type": "electric_bike", "lat": 38.88579716666667, "is_reserved": 0, "fusion_lat": 0.0}, {"bike_id": "7e4d69d964eeb2314b74bbb0b75e6c2e", "fusion_lon": 0.0, "lon": -76.99499183333333, "name": "7e4d69d964eeb2314b74bbb0b75e6c2e", "is_disabled": 0, "rental_uris": {"android": "https://dc.lft.to/lastmile_qr_scan", "ios": "https://dc.lft.to/lastmile_qr_scan"}, "type": "electric_scooter", "lat": 38.86246116666667, "is_reserved": 0, "fusion_lat": 0.0}, {"bike_id": "6e1dc4b66892dc0fff1c1c09e755d91a", "fusion_lon": 0.0, "lon": -77.03252433333333, "name": "6e1dc4b66892dc0fff1c1c09e755d91a", "is_disabled": 0, "rental_uris": {"android": "https://dc.lft.to/lastmile_qr_scan", "ios": "https://dc.lft.to/lastmile_qr_scan"}, "type": "electric_scooter", "lat": 38.91557016666667, "is_reserved": 0, "fusion_lat": 0.0}, {"bike_id": "ca10bd62eca06d956a56b8a41cb210b5", "fusion_lon": 0.0, "lon": -77.02576633333334, "name": "ca10bd62eca06d956a56b8a41cb210b5", "is_disabled": 0, "rental_uris": {"android": "https://dc.lft.to/lastmile_qr_scan", "ios": "https://dc.lft.to/lastmile_qr_scan"}, "type": "electric_scooter", "lat": 38.899960666666665, "is_reserved": 0, "fusion_lat": 0.0}, {"bike_id": "94c059296d75adb157ee5edb9e8a10f4", "fusion_lon": 0.0, "lon": -77.0234205, "name": "94c059296d75adb157ee5edb9e8a10f4", "is_disabled": 0, "rental_uris": {"android": "https://dc.lft.to/lastmile_qr_scan", "ios": "https://dc.lft.to/lastmile_qr_scan"}, "type": "electric_scooter", "lat": 38.9446735, "is_reserved": 0, "fusion_lat": 0.0}, {"bike_id": "f0ef7586035702a933f1ba4af762f0e3", "fusion_lon": 0.0, "lon": -76.9951145, "name": "f0ef7586035702a933f1ba4af762f0e3", "is_disabled": 0, "rental_uris": {"android": "https://dc.lft.to/lastmile_qr_scan", "ios": "https://dc.lft.to/lastmile_qr_scan"}, "type": "electric_scooter", "lat": 38.883740333333336, "is_reserved": 0, "fusion_lat": 0.0}, {"bike_id": "abfa016a6465d4c71cddab1e12d06c2d", "fusion_lon": 0.0, "lon": -77.12485033333333, "name": "abfa016a6465d4c71cddab1e12d06c2d", "is_disabled": 0, "rental_uris": {"android": "https://dc.lft.to/lastmile_qr_scan", "ios": "https://dc.lft.to/lastmile_qr_scan"}, "type": "electric_bike", "lat": 38.85396816666667, "is_reserved": 0, "fusion_lat": 0.0}, {"bike_id": "2d9eb22960710937f5be9757138739db", "fusion_lon": 0.0, "lon": -77.02712616666666, "name": "2d9eb22960710937f5be9757138739db", "is_disabled": 0, "rental_uris": {"android": "https://dc.lft.to/lastmile_qr_scan", "ios": "https://dc.lft.to/lastmile_qr_scan"}, "type": "electric_scooter", "lat": 38.906714666666666, "is_reserved": 0, "fusion_lat": 0.0}, {"bike_id": "0f21b623cba9498ab219072477f1a362", "fusion_lon": 0.0, "lon": -77.03595, "name": "0f21b623cba9498ab219072477f1a362", "is_disabled": 0, "rental_uris": {"android": "https://dc.lft.to/lastmile_qr_scan", "ios": "https://dc.lft.to/lastmile_qr_scan"}, "type": "electric_scooter", "lat": 38.916948, "is_reserved": 0, "fusion_lat": 0.0}, {"bike_id": "9f0ec89928e7c2b58f339d81dec6b3aa", "fusion_lon": 0.0, "lon": -76.975343, "name": "9f0ec89928e7c2b58f339d81dec6b3aa", "is_disabled": 0, "rental_uris": {"android": "https://dc.lft.to/lastmile_qr_scan", "ios": "https://dc.lft.to/lastmile_qr_scan"}, "type": "electric_bike", "lat": 38.8401395, "is_reserved": 0, "fusion_lat": 0.0}, {"bike_id": "e8f90172a4401b38803ad5b4b18eb178", "fusion_lon": 0.0, "lon": -77.04192083333334, "name": "e8f90172a4401b38803ad5b4b18eb178", "is_disabled": 0, "rental_uris": {"android": "https://dc.lft.to/lastmile_qr_scan", "ios": "https://dc.lft.to/lastmile_qr_scan"}, "type": "electric_scooter", "lat": 38.92047316666667, "is_reserved": 0, "fusion_lat": 0.0}, {"bike_id": "64e52a7e91a126ad93151c00759a4cd2", "fusion_lon": 0.0, "lon": -77.0279525, "name": "64e52a7e91a126ad93151c00759a4cd2", "is_disabled": 0, "rental_uris": {"android": "https://dc.lft.to/lastmile_qr_scan", "ios": "https://dc.lft.to/lastmile_qr_scan"}, "type": "electric_scooter", "lat": 38.930817166666664, "is_reserved": 0, "fusion_lat": 0.0}, {"bike_id": "cc4bb7f6c3ebe21cd9ef3ab7ef25bfc0", "fusion_lon": 0.0, "lon": -77.0663355, "name": "cc4bb7f6c3ebe21cd9ef3ab7ef25bfc0", "is_disabled": 0, "rental_uris": {"android": "https://dc.lft.to/lastmile_qr_scan", "ios": "https://dc.lft.to/lastmile_qr_scan"}, "type": "electric_bike", "lat": 38.9495065, "is_reserved": 0, "fusion_lat": 0.0}, {"bike_id": "4e24a17a867be375b6fcd41ee66a9ab7", "fusion_lon": 0.0, "lon": -77.0447225, "name": "4e24a17a867be375b6fcd41ee66a9ab7", "is_disabled": 0, "rental_uris": {"android": "https://dc.lft.to/lastmile_qr_scan", "ios": "https://dc.lft.to/lastmile_qr_scan"}, "type": "electric_scooter", "lat": 38.915365666666666, "is_reserved": 0, "fusion_lat": 0.0}, {"bike_id": "10732241776adf76249ba50eda87ebbd", "fusion_lon": 0.0, "lon": -77.01815616666667, "name": "10732241776adf76249ba50eda87ebbd", "is_disabled": 0, "rental_uris": {"android": "https://dc.lft.to/lastmile_qr_scan", "ios": "https://dc.lft.to/lastmile_qr_scan"}, "type": "electric_scooter", "lat": 38.904337166666664, "is_reserved": 0, "fusion_lat": 0.0}, {"bike_id": "60f6f95f915ad7289fe094cc717be857", "fusion_lon": 0.0, "lon": -77.05060616666667, "name": "60f6f95f915ad7289fe094cc717be857", "is_disabled": 0, "rental_uris": {"android": "https://dc.lft.to/lastmile_qr_scan", "ios": "https://dc.lft.to/lastmile_qr_scan"}, "type": "electric_scooter", "lat": 38.924199333333334, "is_reserved": 0, "fusion_lat": 0.0}, {"bike_id": "d84dd02c8a89c7dc3c4ea27ce5917279", "fusion_lon": 0.0, "lon": -77.04181, "name": "d84dd02c8a89c7dc3c4ea27ce5917279", "is_disabled": 0, "rental_uris": {"android": "https://dc.lft.to/lastmile_qr_scan", "ios": "https://dc.lft.to/lastmile_qr_scan"}, "type": "electric_scooter", "lat": 38.89907133333333, "is_reserved": 0, "fusion_lat": 0.0}, {"bike_id": "8f9b004a65a454bdaf0253f4a3719e58", "fusion_lon": 0.0, "lon": -77.05230483333334, "name": "8f9b004a65a454bdaf0253f4a3719e58", "is_disabled": 0, "rental_uris": {"android": "https://dc.lft.to/lastmile_qr_scan", "ios": "https://dc.lft.to/lastmile_qr_scan"}, "type": "electric_scooter", "lat": 38.924663333333335, "is_reserved": 0, "fusion_lat": 0.0}, {"bike_id": "ba3f43d7eba7e44450a7a0e15c9f09d8", "fusion_lon": 0.0, "lon": -77.03342466666666, "name": "ba3f43d7eba7e44450a7a0e15c9f09d8", "is_disabled": 0, "rental_uris": {"android": "https://dc.lft.to/lastmile_qr_scan", "ios": "https://dc.lft.to/lastmile_qr_scan"}, "type": "electric_scooter", "lat": 38.91570333333333, "is_reserved": 0, "fusion_lat": 0.0}, {"bike_id": "4ed60541dd9dcf014d010a51b05ff618", "fusion_lon": 0.0, "lon": -76.957533, "name": "4ed60541dd9dcf014d010a51b05ff618", "is_disabled": 0, "rental_uris": {"android": "https://dc.lft.to/lastmile_qr_scan", "ios": "https://dc.lft.to/lastmile_qr_scan"}, "type": "electric_scooter", "lat": 38.884286, "is_reserved": 0, "fusion_lat": 0.0}, {"bike_id": "8114cc6f477f9e7f1bab005a3daea9ac", "fusion_lon": 0.0, "lon": -77.0363515, "name": "8114cc6f477f9e7f1bab005a3daea9ac", "is_disabled": 0, "rental_uris": {"android": "https://dc.lft.to/lastmile_qr_scan", "ios": "https://dc.lft.to/lastmile_qr_scan"}, "type": "electric_scooter", "lat": 38.917677, "is_reserved": 0, "fusion_lat": 0.0}, {"bike_id": "0db34cbedd55a7c8bf1f41119dd6b2e3", "fusion_lon": 0.0, "lon": -76.9358305, "name": "0db34cbedd55a7c8bf1f41119dd6b2e3", "is_disabled": 0, "rental_uris": {"android": "https://dc.lft.to/lastmile_qr_scan", "ios": "https://dc.lft.to/lastmile_qr_scan"}, "type": "electric_scooter", "lat": 38.88548816666667, "is_reserved": 0, "fusion_lat": 0.0}, {"bike_id": "95577a5336f68d0fa9a690a1838b5665", "fusion_lon": 0.0, "lon": -77.03129883333334, "name": "95577a5336f68d0fa9a690a1838b5665", "is_disabled": 0, "rental_uris": {"android": "https://dc.lft.to/lastmile_qr_scan", "ios": "https://dc.lft.to/lastmile_qr_scan"}, "type": "electric_scooter", "lat": 38.914932, "is_reserved": 0, "fusion_lat": 0.0}, {"bike_id": "b6089aeacc30c6bc7a8f281403fc2858", "fusion_lon": 0.0, "lon": -77.04662966666666, "name": "b6089aeacc30c6bc7a8f281403fc2858", "is_disabled": 0, "rental_uris": {"android": "https://dc.lft.to/lastmile_qr_scan", "ios": "https://dc.lft.to/lastmile_qr_scan"}, "type": "electric_scooter", "lat": 38.9012855, "is_reserved": 0, "fusion_lat": 0.0}, {"bike_id": "9c56b9f0d9ec79b401a5573e2941b7d7", "fusion_lon": 0.0, "lon": -77.02027166666667, "name": "9c56b9f0d9ec79b401a5573e2941b7d7", "is_disabled": 0, "rental_uris": {"android": "https://dc.lft.to/lastmile_qr_scan", "ios": "https://dc.lft.to/lastmile_qr_scan"}, "type": "electric_scooter", "lat": 38.924173333333336, "is_reserved": 0, "fusion_lat": 0.0}, {"bike_id": "46e1b73a7a50066d989bc52ff709a821", "fusion_lon": 0.0, "lon": -76.937028, "name": "46e1b73a7a50066d989bc52ff709a821", "is_disabled": 0, "rental_uris": {"android": "https://dc.lft.to/lastmile_qr_scan", "ios": "https://dc.lft.to/lastmile_qr_scan"}, "type": "electric_bike", "lat": 38.871492833333335, "is_reserved": 0, "fusion_lat": 0.0}, {"bike_id": "1b917f6b2aef10e8fa8aea319e92c668", "fusion_lon": 0.0, "lon": -76.99775133333333, "name": "1b917f6b2aef10e8fa8aea319e92c668", "is_disabled": 0, "rental_uris": {"android": "https://dc.lft.to/lastmile_qr_scan", "ios": "https://dc.lft.to/lastmile_qr_scan"}, "type": "electric_scooter", "lat": 38.84429816666667, "is_reserved": 0, "fusion_lat": 0.0}, {"bike_id": "710c5637a0bff41507525b681edee731", "fusion_lon": 0.0, "lon": -76.970929, "name": "710c5637a0bff41507525b681edee731", "is_disabled": 0, "rental_uris": {"android": "https://dc.lft.to/lastmile_qr_scan", "ios": "https://dc.lft.to/lastmile_qr_scan"}, "type": "electric_bike", "lat": 38.8571745, "is_reserved": 0, "fusion_lat": 0.0}, {"bike_id": "a25b9c2e92de4343378fca2af3435c4d", "fusion_lon": 0.0, "lon": -77.02397533333334, "name": "a25b9c2e92de4343378fca2af3435c4d", "is_disabled": 0, "rental_uris": {"android": "https://dc.lft.to/lastmile_qr_scan", "ios": "https://dc.lft.to/lastmile_qr_scan"}, "type": "electric_scooter", "lat": 38.91081166666667, "is_reserved": 0, "fusion_lat": 0.0}, {"bike_id": "ac29d42f1c89f999a5be738610bb116f", "fusion_lon": 0.0, "lon": -77.02811466666667, "name": "ac29d42f1c89f999a5be738610bb116f", "is_disabled": 0, "rental_uris": {"android": "https://dc.lft.to/lastmile_qr_scan", "ios": "https://dc.lft.to/lastmile_qr_scan"}, "type": "electric_scooter", "lat": 38.92875266666667, "is_reserved": 0, "fusion_lat": 0.0}, {"bike_id": "3e9bbca222eaf7198915c8bbd4d00166", "fusion_lon": 0.0, "lon": -76.926907, "name": "3e9bbca222eaf7198915c8bbd4d00166", "is_disabled": 0, "rental_uris": {"android": "https://dc.lft.to/lastmile_qr_scan", "ios": "https://dc.lft.to/lastmile_qr_scan"}, "type": "electric_scooter", "lat": 38.8937055, "is_reserved": 0, "fusion_lat": 0.0}, {"bike_id": "72549fd7655c9674bc4bbcd4bd1b8dcb", "fusion_lon": 0.0, "lon": -77.02235133333333, "name": "72549fd7655c9674bc4bbcd4bd1b8dcb", "is_disabled": 0, "rental_uris": {"android": "https://dc.lft.to/lastmile_qr_scan", "ios": "https://dc.lft.to/lastmile_qr_scan"}, "type": "electric_scooter", "lat": 38.96133433333333, "is_reserved": 0, "fusion_lat": 0.0}, {"bike_id": "c31a12609b68adf56efdae363d5b2eef", "fusion_lon": 0.0, "lon": -76.997805, "name": "c31a12609b68adf56efdae363d5b2eef", "is_disabled": 0, "rental_uris": {"android": "https://dc.lft.to/lastmile_qr_scan", "ios": "https://dc.lft.to/lastmile_qr_scan"}, "type": "electric_scooter", "lat": 38.844240666666664, "is_reserved": 0, "fusion_lat": 0.0}, {"bike_id": "8aae1232d32f178dea1dc0aa11992c85", "fusion_lon": 0.0, "lon": -77.051244, "name": "8aae1232d32f178dea1dc0aa11992c85", "is_disabled": 0, "rental_uris": {"android": "https://dc.lft.to/lastmile_qr_scan", "ios": "https://dc.lft.to/lastmile_qr_scan"}, "type": "electric_scooter", "lat": 38.902227333333336, "is_reserved": 0, "fusion_lat": 0.0}, {"bike_id": "3d3a344693d9ee6219340412347a9090", "fusion_lon": 0.0, "lon": -76.94633966666666, "name": "3d3a344693d9ee6219340412347a9090", "is_disabled": 0, "rental_uris": {"android": "https://dc.lft.to/lastmile_qr_scan", "ios": "https://dc.lft.to/lastmile_qr_scan"}, "type": "electric_scooter", "lat": 38.89847966666667, "is_reserved": 0, "fusion_lat": 0.0}, {"bike_id": "f8059d282ab66077f6a316b4e5d68218", "fusion_lon": 0.0, "lon": -76.95759033333333, "name": "f8059d282ab66077f6a316b4e5d68218", "is_disabled": 0, "rental_uris": {"android": "https://dc.lft.to/lastmile_qr_scan", "ios": "https://dc.lft.to/lastmile_qr_scan"}, "type": "electric_scooter", "lat": 38.88432566666667, "is_reserved": 0, "fusion_lat": 0.0}, {"bike_id": "b6f1704297856f26bbbde23093380899", "fusion_lon": 0.0, "lon": -77.02028533333333, "name": "b6f1704297856f26bbbde23093380899", "is_disabled": 0, "rental_uris": {"android": "https://dc.lft.to/lastmile_qr_scan", "ios": "https://dc.lft.to/lastmile_qr_scan"}, "type": "electric_scooter", "lat": 38.8995815, "is_reserved": 0, "fusion_lat": 0.0}, {"bike_id": "da5e4cebcb88cc090e342336f20fb4e0", "fusion_lon": 0.0, "lon": -77.10090483333333, "name": "da5e4cebcb88cc090e342336f20fb4e0", "is_disabled": 0, "rental_uris": {"android": "https://dc.lft.to/lastmile_qr_scan", "ios": "https://dc.lft.to/lastmile_qr_scan"}, "type": "electric_bike", "lat": 38.9595505, "is_reserved": 0, "fusion_lat": 0.0}, {"bike_id": "80e9d71d710412fb6c75041e64caa368", "fusion_lon": 0.0, "lon": -77.03295216666666, "name": "80e9d71d710412fb6c75041e64caa368", "is_disabled": 0, "rental_uris": {"android": "https://dc.lft.to/lastmile_qr_scan", "ios": "https://dc.lft.to/lastmile_qr_scan"}, "type": "electric_scooter", "lat": 38.916049, "is_reserved": 0, "fusion_lat": 0.0}, {"bike_id": "e9886ed486f39f0f6f85fa5b57aea97b", "fusion_lon": 0.0, "lon": -77.024844, "name": "e9886ed486f39f0f6f85fa5b57aea97b", "is_disabled": 0, "rental_uris": {"android": "https://dc.lft.to/lastmile_qr_scan", "ios": "https://dc.lft.to/lastmile_qr_scan"}, "type": "electric_scooter", "lat": 38.9188445, "is_reserved": 0, "fusion_lat": 0.0}, {"bike_id": "9b9d67f19e9ad0dff2393deaf2c0aa41", "fusion_lon": 0.0, "lon": -77.02721933333333, "name": "9b9d67f19e9ad0dff2393deaf2c0aa41", "is_disabled": 0, "rental_uris": {"android": "https://dc.lft.to/lastmile_qr_scan", "ios": "https://dc.lft.to/lastmile_qr_scan"}, "type": "electric_scooter", "lat": 38.9408475, "is_reserved": 0, "fusion_lat": 0.0}, {"bike_id": "2d17387352b081a41b594b3ca213b731", "fusion_lon": 0.0, "lon": -77.03502516666667, "name": "2d17387352b081a41b594b3ca213b731", "is_disabled": 0, "rental_uris": {"android": "https://dc.lft.to/lastmile_qr_scan", "ios": "https://dc.lft.to/lastmile_qr_scan"}, "type": "electric_bike", "lat": 38.935168166666664, "is_reserved": 0, "fusion_lat": 0.0}, {"bike_id": "5e8725588f9e22a0c5b029941a950ac5", "fusion_lon": 0.0, "lon": -77.02431883333334, "name": "5e8725588f9e22a0c5b029941a950ac5", "is_disabled": 0, "rental_uris": {"android": "https://dc.lft.to/lastmile_qr_scan", "ios": "https://dc.lft.to/lastmile_qr_scan"}, "type": "electric_scooter", "lat": 38.9180415, "is_reserved": 0, "fusion_lat": 0.0}, {"bike_id": "1baef41957aff6301dc2e373671862e6", "fusion_lon": 0.0, "lon": -76.99430516666666, "name": "1baef41957aff6301dc2e373671862e6", "is_disabled": 0, "rental_uris": {"android": "https://dc.lft.to/lastmile_qr_scan", "ios": "https://dc.lft.to/lastmile_qr_scan"}, "type": "electric_scooter", "lat": 38.90318583333333, "is_reserved": 0, "fusion_lat": 0.0}, {"bike_id": "84c06f569e2c0d17eef1c4a46267bd78", "fusion_lon": 0.0, "lon": -77.02957033333334, "name": "84c06f569e2c0d17eef1c4a46267bd78", "is_disabled": 0, "rental_uris": {"android": "https://dc.lft.to/lastmile_qr_scan", "ios": "https://dc.lft.to/lastmile_qr_scan"}, "type": "electric_scooter", "lat": 38.884066, "is_reserved": 0, "fusion_lat": 0.0}, {"bike_id": "3ef5ee264abd9cb986ae01dbf1563de2", "fusion_lon": 0.0, "lon": -77.01656416666667, "name": "3ef5ee264abd9cb986ae01dbf1563de2", "is_disabled": 0, "rental_uris": {"android": "https://dc.lft.to/lastmile_qr_scan", "ios": "https://dc.lft.to/lastmile_qr_scan"}, "type": "electric_scooter", "lat": 38.88107, "is_reserved": 0, "fusion_lat": 0.0}, {"bike_id": "a5f100c8f2f1acb1fb317181bcba978d", "fusion_lon": 0.0, "lon": -77.03890916666667, "name": "a5f100c8f2f1acb1fb317181bcba978d", "is_disabled": 0, "rental_uris": {"android": "https://dc.lft.to/lastmile_qr_scan", "ios": "https://dc.lft.to/lastmile_qr_scan"}, "type": "electric_scooter", "lat": 38.91707366666667, "is_reserved": 0, "fusion_lat": 0.0}, {"bike_id": "56fb2b24048721b239afcb84b79058e6", "fusion_lon": 0.0, "lon": -77.002455, "name": "56fb2b24048721b239afcb84b79058e6", "is_disabled": 0, "rental_uris": {"android": "https://dc.lft.to/lastmile_qr_scan", "ios": "https://dc.lft.to/lastmile_qr_scan"}, "type": "electric_scooter", "lat": 38.90140016666667, "is_reserved": 0, "fusion_lat": 0.0}, {"bike_id": "deaaa3e9c5dc2134ff6cd3a5a71f9ae9", "fusion_lon": 0.0, "lon": -77.02399533333333, "name": "deaaa3e9c5dc2134ff6cd3a5a71f9ae9", "is_disabled": 0, "rental_uris": {"android": "https://dc.lft.to/lastmile_qr_scan", "ios": "https://dc.lft.to/lastmile_qr_scan"}, "type": "electric_scooter", "lat": 38.91746716666667, "is_reserved": 0, "fusion_lat": 0.0}, {"bike_id": "c2445116e996a58c3c29409e268f59e9", "fusion_lon": 0.0, "lon": -77.01779483333334, "name": "c2445116e996a58c3c29409e268f59e9", "is_disabled": 0, "rental_uris": {"android": "https://dc.lft.to/lastmile_qr_scan", "ios": "https://dc.lft.to/lastmile_qr_scan"}, "type": "electric_scooter", "lat": 38.88716516666667, "is_reserved": 0, "fusion_lat": 0.0}, {"bike_id": "2112c90bfceaa8d3777d7d833b6a3ec1", "fusion_lon": 0.0, "lon": -77.021538, "name": "2112c90bfceaa8d3777d7d833b6a3ec1", "is_disabled": 0, "rental_uris": {"android": "https://dc.lft.to/lastmile_qr_scan", "ios": "https://dc.lft.to/lastmile_qr_scan"}, "type": "electric_scooter", "lat": 38.909628, "is_reserved": 0, "fusion_lat": 0.0}, {"bike_id": "70ca963e36583391e1996cf76fc2276e", "fusion_lon": 0.0, "lon": -77.02351516666667, "name": "70ca963e36583391e1996cf76fc2276e", "is_disabled": 0, "rental_uris": {"android": "https://dc.lft.to/lastmile_qr_scan", "ios": "https://dc.lft.to/lastmile_qr_scan"}, "type": "electric_scooter", "lat": 38.9072545, "is_reserved": 0, "fusion_lat": 0.0}, {"bike_id": "17cfe0b730cb2ae3f1a9086230767a50", "fusion_lon": 0.0, "lon": -77.0449815, "name": "17cfe0b730cb2ae3f1a9086230767a50", "is_disabled": 0, "rental_uris": {"android": "https://dc.lft.to/lastmile_qr_scan", "ios": "https://dc.lft.to/lastmile_qr_scan"}, "type": "electric_bike", "lat": 38.914162833333336, "is_reserved": 0, "fusion_lat": 0.0}, {"bike_id": "fc70469ae2441e6125f9edfe6317a1f9", "fusion_lon": 0.0, "lon": -77.11601116666667, "name": "fc70469ae2441e6125f9edfe6317a1f9", "is_disabled": 0, "rental_uris": {"android": "https://dc.lft.to/lastmile_qr_scan", "ios": "https://dc.lft.to/lastmile_qr_scan"}, "type": "electric_bike", "lat": 39.0749185, "is_reserved": 0, "fusion_lat": 0.0}, {"bike_id": "33a96592a3a830a9f8fe7bd405d7d5f7", "fusion_lon": 0.0, "lon": -77.02709766666666, "name": "33a96592a3a830a9f8fe7bd405d7d5f7", "is_disabled": 0, "rental_uris": {"android": "https://dc.lft.to/lastmile_qr_scan", "ios": "https://dc.lft.to/lastmile_qr_scan"}, "type": "electric_scooter", "lat": 38.88133833333333, "is_reserved": 0, "fusion_lat": 0.0}, {"bike_id": "ebb70f85a2b88e3144185df92dc28874", "fusion_lon": 0.0, "lon": -77.03657866666667, "name": "ebb70f85a2b88e3144185df92dc28874", "is_disabled": 0, "rental_uris": {"android": "https://dc.lft.to/lastmile_qr_scan", "ios": "https://dc.lft.to/lastmile_qr_scan"}, "type": "electric_scooter", "lat": 38.9238355, "is_reserved": 0, "fusion_lat": 0.0}, {"bike_id": "6e6d12739be81a1e2471b90d6b73431b", "fusion_lon": 0.0, "lon": -77.0433895, "name": "6e6d12739be81a1e2471b90d6b73431b", "is_disabled": 0, "rental_uris": {"android": "https://dc.lft.to/lastmile_qr_scan", "ios": "https://dc.lft.to/lastmile_qr_scan"}, "type": "electric_scooter", "lat": 38.909363666666664, "is_reserved": 0, "fusion_lat": 0.0}, {"bike_id": "6344daafb5cfe812fac06a15d8f31916", "fusion_lon": 0.0, "lon": -76.99777683333333, "name": "6344daafb5cfe812fac06a15d8f31916", "is_disabled": 0, "rental_uris": {"android": "https://dc.lft.to/lastmile_qr_scan", "ios": "https://dc.lft.to/lastmile_qr_scan"}, "type": "electric_scooter", "lat": 38.90904533333333, "is_reserved": 0, "fusion_lat": 0.0}, {"bike_id": "bbeecf9b67a621bb2935b6d6c7537f3f", "fusion_lon": 0.0, "lon": -77.0508905, "name": "bbeecf9b67a621bb2935b6d6c7537f3f", "is_disabled": 0, "rental_uris": {"android": "https://dc.lft.to/lastmile_qr_scan", "ios": "https://dc.lft.to/lastmile_qr_scan"}, "type": "electric_bike", "lat": 38.81337083333333, "is_reserved": 0, "fusion_lat": 0.0}, {"bike_id": "b6858c2ab99b00be5a58cc40bdfe362c", "fusion_lon": 0.0, "lon": -77.04191316666666, "name": "b6858c2ab99b00be5a58cc40bdfe362c", "is_disabled": 0, "rental_uris": {"android": "https://dc.lft.to/lastmile_qr_scan", "ios": "https://dc.lft.to/lastmile_qr_scan"}, "type": "electric_scooter", "lat": 38.920534333333336, "is_reserved": 0, "fusion_lat": 0.0}, {"bike_id": "1fab5ab260ad2bf5a01ed3f677854e33", "fusion_lon": 0.0, "lon": -77.00438416666667, "name": "1fab5ab260ad2bf5a01ed3f677854e33", "is_disabled": 0, "rental_uris": {"android": "https://dc.lft.to/lastmile_qr_scan", "ios": "https://dc.lft.to/lastmile_qr_scan"}, "type": "electric_scooter", "lat": 38.877118333333335, "is_reserved": 0, "fusion_lat": 0.0}, {"bike_id": "ef25ce03beed9e96ca595b9777f92cd4", "fusion_lon": 0.0, "lon": -76.9846015, "name": "ef25ce03beed9e96ca595b9777f92cd4", "is_disabled": 0, "rental_uris": {"android": "https://dc.lft.to/lastmile_qr_scan", "ios": "https://dc.lft.to/lastmile_qr_scan"}, "type": "electric_scooter", "lat": 38.880102666666666, "is_reserved": 0, "fusion_lat": 0.0}, {"bike_id": "5d253d28f6e005533c1f4244d9e4c1da", "fusion_lon": 0.0, "lon": -77.0406095, "name": "5d253d28f6e005533c1f4244d9e4c1da", "is_disabled": 0, "rental_uris": {"android": "https://dc.lft.to/lastmile_qr_scan", "ios": "https://dc.lft.to/lastmile_qr_scan"}, "type": "electric_scooter", "lat": 38.898939666666664, "is_reserved": 0, "fusion_lat": 0.0}, {"bike_id": "04c1dbde9685cf06b39916b63ac4e1ce", "fusion_lon": 0.0, "lon": -77.0416355, "name": "04c1dbde9685cf06b39916b63ac4e1ce", "is_disabled": 0, "rental_uris": {"android": "https://dc.lft.to/lastmile_qr_scan", "ios": "https://dc.lft.to/lastmile_qr_scan"}, "type": "electric_scooter", "lat": 38.916424666666664, "is_reserved": 0, "fusion_lat": 0.0}, {"bike_id": "31fd4a3c5b2cc5c43a312c17c9dc0e4a", "fusion_lon": 0.0, "lon": -77.0149305, "name": "31fd4a3c5b2cc5c43a312c17c9dc0e4a", "is_disabled": 0, "rental_uris": {"android": "https://dc.lft.to/lastmile_qr_scan", "ios": "https://dc.lft.to/lastmile_qr_scan"}, "type": "electric_scooter", "lat": 38.88818533333333, "is_reserved": 0, "fusion_lat": 0.0}, {"bike_id": "ba627f02cdd7e0473fca2556e34f9840", "fusion_lon": 0.0, "lon": -77.02711116666667, "name": "ba627f02cdd7e0473fca2556e34f9840", "is_disabled": 0, "rental_uris": {"android": "https://dc.lft.to/lastmile_qr_scan", "ios": "https://dc.lft.to/lastmile_qr_scan"}, "type": "electric_scooter", "lat": 38.906711666666666, "is_reserved": 0, "fusion_lat": 0.0}, {"bike_id": "827fb34faf022e3f40ce5a57bccf2653", "fusion_lon": 0.0, "lon": -77.02278783333334, "name": "827fb34faf022e3f40ce5a57bccf2653", "is_disabled": 0, "rental_uris": {"android": "https://dc.lft.to/lastmile_qr_scan", "ios": "https://dc.lft.to/lastmile_qr_scan"}, "type": "electric_scooter", "lat": 38.91565083333333, "is_reserved": 0, "fusion_lat": 0.0}, {"bike_id": "a721273674d09a57b7599b56c1241460", "fusion_lon": 0.0, "lon": -77.02975216666667, "name": "a721273674d09a57b7599b56c1241460", "is_disabled": 0, "rental_uris": {"android": "https://dc.lft.to/lastmile_qr_scan", "ios": "https://dc.lft.to/lastmile_qr_scan"}, "type": "electric_scooter", "lat": 38.934491333333334, "is_reserved": 0, "fusion_lat": 0.0}, {"bike_id": "9b8470a6f31d8c2b799792dc42a30231", "fusion_lon": 0.0, "lon": -76.9883855, "name": "9b8470a6f31d8c2b799792dc42a30231", "is_disabled": 0, "rental_uris": {"android": "https://dc.lft.to/lastmile_qr_scan", "ios": "https://dc.lft.to/lastmile_qr_scan"}, "type": "electric_scooter", "lat": 38.89258483333333, "is_reserved": 0, "fusion_lat": 0.0}, {"bike_id": "4a68cc254a3b2a722c68901ceefd1a46", "fusion_lon": 0.0, "lon": -77.03183583333333, "name": "4a68cc254a3b2a722c68901ceefd1a46", "is_disabled": 0, "rental_uris": {"android": "https://dc.lft.to/lastmile_qr_scan", "ios": "https://dc.lft.to/lastmile_qr_scan"}, "type": "electric_scooter", "lat": 38.91335633333333, "is_reserved": 0, "fusion_lat": 0.0}, {"bike_id": "0b0a22844e557292a262abd4f075eadd", "fusion_lon": 0.0, "lon": -77.03269366666666, "name": "0b0a22844e557292a262abd4f075eadd", "is_disabled": 0, "rental_uris": {"android": "https://dc.lft.to/lastmile_qr_scan", "ios": "https://dc.lft.to/lastmile_qr_scan"}, "type": "electric_scooter", "lat": 38.91405433333333, "is_reserved": 0, "fusion_lat": 0.0}, {"bike_id": "b858ec6bdf62a68c739d88d097319bf6", "fusion_lon": 0.0, "lon": -77.077273, "name": "b858ec6bdf62a68c739d88d097319bf6", "is_disabled": 0, "rental_uris": {"android": "https://dc.lft.to/lastmile_qr_scan", "ios": "https://dc.lft.to/lastmile_qr_scan"}, "type": "electric_scooter", "lat": 38.957673, "is_reserved": 0, "fusion_lat": 0.0}, {"bike_id": "8d03054312bbc71d39a66a78cc021634", "fusion_lon": 0.0, "lon": -77.06241233333333, "name": "8d03054312bbc71d39a66a78cc021634", "is_disabled": 0, "rental_uris": {"android": "https://dc.lft.to/lastmile_qr_scan", "ios": "https://dc.lft.to/lastmile_qr_scan"}, "type": "electric_scooter", "lat": 38.90522633333333, "is_reserved": 0, "fusion_lat": 0.0}, {"bike_id": "dfd0b4511a56b8dd857914d88e102134", "fusion_lon": 0.0, "lon": -76.9871375, "name": "dfd0b4511a56b8dd857914d88e102134", "is_disabled": 0, "rental_uris": {"android": "https://dc.lft.to/lastmile_qr_scan", "ios": "https://dc.lft.to/lastmile_qr_scan"}, "type": "electric_scooter", "lat": 38.866991, "is_reserved": 0, "fusion_lat": 0.0}, {"bike_id": "7ef542966804e415ae02440f7ee4ecf6", "fusion_lon": 0.0, "lon": -77.020485, "name": "7ef542966804e415ae02440f7ee4ecf6", "is_disabled": 0, "rental_uris": {"android": "https://dc.lft.to/lastmile_qr_scan", "ios": "https://dc.lft.to/lastmile_qr_scan"}, "type": "electric_scooter", "lat": 38.91412716666667, "is_reserved": 0, "fusion_lat": 0.0}, {"bike_id": "88a3c0e6406e69393db64c47d6aafabb", "fusion_lon": 0.0, "lon": -77.03513533333333, "name": "88a3c0e6406e69393db64c47d6aafabb", "is_disabled": 0, "rental_uris": {"android": "https://dc.lft.to/lastmile_qr_scan", "ios": "https://dc.lft.to/lastmile_qr_scan"}, "type": "electric_bike", "lat": 38.96203333333333, "is_reserved": 0, "fusion_lat": 0.0}, {"bike_id": "da20ef7bae6ab570b66cd2f5b00d26af", "fusion_lon": 0.0, "lon": -77.05859983333333, "name": "da20ef7bae6ab570b66cd2f5b00d26af", "is_disabled": 0, "rental_uris": {"android": "https://dc.lft.to/lastmile_qr_scan", "ios": "https://dc.lft.to/lastmile_qr_scan"}, "type": "electric_scooter", "lat": 38.93608183333333, "is_reserved": 0, "fusion_lat": 0.0}, {"bike_id": "7e6efd13690e1ce51c814127a36ae645", "fusion_lon": 0.0, "lon": -77.0249805, "name": "7e6efd13690e1ce51c814127a36ae645", "is_disabled": 0, "rental_uris": {"android": "https://dc.lft.to/lastmile_qr_scan", "ios": "https://dc.lft.to/lastmile_qr_scan"}, "type": "electric_scooter", "lat": 38.9039845, "is_reserved": 0, "fusion_lat": 0.0}, {"bike_id": "b05627a3ea84c9eb792d69cff3818065", "fusion_lon": 0.0, "lon": -77.0280785, "name": "b05627a3ea84c9eb792d69cff3818065", "is_disabled": 0, "rental_uris": {"android": "https://dc.lft.to/lastmile_qr_scan", "ios": "https://dc.lft.to/lastmile_qr_scan"}, "type": "electric_scooter", "lat": 38.93081033333333, "is_reserved": 0, "fusion_lat": 0.0}, {"bike_id": "3bf5901208c69654847648ae08440846", "fusion_lon": 0.0, "lon": -77.02798333333334, "name": "3bf5901208c69654847648ae08440846", "is_disabled": 0, "rental_uris": {"android": "https://dc.lft.to/lastmile_qr_scan", "ios": "https://dc.lft.to/lastmile_qr_scan"}, "type": "electric_scooter", "lat": 38.912239666666665, "is_reserved": 0, "fusion_lat": 0.0}, {"bike_id": "b7d372ef9d48495e5a56f7622fb05794", "fusion_lon": 0.0, "lon": -77.02371466666666, "name": "b7d372ef9d48495e5a56f7622fb05794", "is_disabled": 0, "rental_uris": {"android": "https://dc.lft.to/lastmile_qr_scan", "ios": "https://dc.lft.to/lastmile_qr_scan"}, "type": "electric_scooter", "lat": 38.9175905, "is_reserved": 0, "fusion_lat": 0.0}, {"bike_id": "da62b203ee024d4fb716edb2fd5f916b", "fusion_lon": 0.0, "lon": -77.04922366666666, "name": "da62b203ee024d4fb716edb2fd5f916b", "is_disabled": 0, "rental_uris": {"android": "https://dc.lft.to/lastmile_qr_scan", "ios": "https://dc.lft.to/lastmile_qr_scan"}, "type": "electric_bike", "lat": 38.81350916666667, "is_reserved": 0, "fusion_lat": 0.0}, {"bike_id": "d4db3e2302ae60ec8cc9004c23df90f1", "fusion_lon": 0.0, "lon": -77.02604533333333, "name": "d4db3e2302ae60ec8cc9004c23df90f1", "is_disabled": 0, "rental_uris": {"android": "https://dc.lft.to/lastmile_qr_scan", "ios": "https://dc.lft.to/lastmile_qr_scan"}, "type": "electric_scooter", "lat": 38.90159033333333, "is_reserved": 0, "fusion_lat": 0.0}, {"bike_id": "5a7580f31649dc8fa39c6c2e203814a8", "fusion_lon": 0.0, "lon": -77.02125766666667, "name": "5a7580f31649dc8fa39c6c2e203814a8", "is_disabled": 0, "rental_uris": {"android": "https://dc.lft.to/lastmile_qr_scan", "ios": "https://dc.lft.to/lastmile_qr_scan"}, "type": "electric_scooter", "lat": 38.93579316666667, "is_reserved": 0, "fusion_lat": 0.0}, {"bike_id": "048015cbf57ae326058e116cbd175087", "fusion_lon": 0.0, "lon": -77.02970816666667, "name": "048015cbf57ae326058e116cbd175087", "is_disabled": 0, "rental_uris": {"android": "https://dc.lft.to/lastmile_qr_scan", "ios": "https://dc.lft.to/lastmile_qr_scan"}, "type": "electric_scooter", "lat": 38.916841, "is_reserved": 0, "fusion_lat": 0.0}, {"bike_id": "8d7b2e7e7908f8a2a490091e465a3d50", "fusion_lon": 0.0, "lon": -77.050767, "name": "8d7b2e7e7908f8a2a490091e465a3d50", "is_disabled": 0, "rental_uris": {"android": "https://dc.lft.to/lastmile_qr_scan", "ios": "https://dc.lft.to/lastmile_qr_scan"}, "type": "electric_scooter", "lat": 38.92346166666667, "is_reserved": 0, "fusion_lat": 0.0}, {"bike_id": "c84a210179b1de1c713ef1b680229406", "fusion_lon": 0.0, "lon": -77.02814166666667, "name": "c84a210179b1de1c713ef1b680229406", "is_disabled": 0, "rental_uris": {"android": "https://dc.lft.to/lastmile_qr_scan", "ios": "https://dc.lft.to/lastmile_qr_scan"}, "type": "electric_scooter", "lat": 38.91691316666667, "is_reserved": 0, "fusion_lat": 0.0}, {"bike_id": "f7d1084d5d6b22f22f0349e5785293b8", "fusion_lon": 0.0, "lon": -77.0068315, "name": "f7d1084d5d6b22f22f0349e5785293b8", "is_disabled": 0, "rental_uris": {"android": "https://dc.lft.to/lastmile_qr_scan", "ios": "https://dc.lft.to/lastmile_qr_scan"}, "type": "electric_scooter", "lat": 38.900199, "is_reserved": 0, "fusion_lat": 0.0}, {"bike_id": "d65392269f0962ec2423da1d076e54be", "fusion_lon": 0.0, "lon": -77.02543383333334, "name": "d65392269f0962ec2423da1d076e54be", "is_disabled": 0, "rental_uris": {"android": "https://dc.lft.to/lastmile_qr_scan", "ios": "https://dc.lft.to/lastmile_qr_scan"}, "type": "electric_scooter", "lat": 38.941166333333335, "is_reserved": 0, "fusion_lat": 0.0}, {"bike_id": "99039af9f0578148d3ddd10ab868a3c6", "fusion_lon": 0.0, "lon": -77.04548583333333, "name": "99039af9f0578148d3ddd10ab868a3c6", "is_disabled": 0, "rental_uris": {"android": "https://dc.lft.to/lastmile_qr_scan", "ios": "https://dc.lft.to/lastmile_qr_scan"}, "type": "electric_scooter", "lat": 38.934056, "is_reserved": 0, "fusion_lat": 0.0}, {"bike_id": "6603fc292f97122dd3aaf7f3c7946cd6", "fusion_lon": 0.0, "lon": -77.03865016666667, "name": "6603fc292f97122dd3aaf7f3c7946cd6", "is_disabled": 0, "rental_uris": {"android": "https://dc.lft.to/lastmile_qr_scan", "ios": "https://dc.lft.to/lastmile_qr_scan"}, "type": "electric_scooter", "lat": 38.91820233333333, "is_reserved": 0, "fusion_lat": 0.0}, {"bike_id": "7dbd2342a538df7799e1488db1ff7ba2", "fusion_lon": 0.0, "lon": -77.04549283333333, "name": "7dbd2342a538df7799e1488db1ff7ba2", "is_disabled": 0, "rental_uris": {"android": "https://dc.lft.to/lastmile_qr_scan", "ios": "https://dc.lft.to/lastmile_qr_scan"}, "type": "electric_scooter", "lat": 38.91406716666667, "is_reserved": 0, "fusion_lat": 0.0}, {"bike_id": "e846e1e21b4e15a9a54bbfa13a23d6f8", "fusion_lon": 0.0, "lon": -76.990923, "name": "e846e1e21b4e15a9a54bbfa13a23d6f8", "is_disabled": 0, "rental_uris": {"android": "https://dc.lft.to/lastmile_qr_scan", "ios": "https://dc.lft.to/lastmile_qr_scan"}, "type": "electric_scooter", "lat": 38.8823325, "is_reserved": 0, "fusion_lat": 0.0}, {"bike_id": "e95d523c2ddfd0833fc1941af8175853", "fusion_lon": 0.0, "lon": -77.02809266666667, "name": "e95d523c2ddfd0833fc1941af8175853", "is_disabled": 0, "rental_uris": {"android": "https://dc.lft.to/lastmile_qr_scan", "ios": "https://dc.lft.to/lastmile_qr_scan"}, "type": "electric_scooter", "lat": 38.9308185, "is_reserved": 0, "fusion_lat": 0.0}, {"bike_id": "e58b95fa28441c3aa4a76a4603ba8b39", "fusion_lon": 0.0, "lon": -77.05217666666667, "name": "e58b95fa28441c3aa4a76a4603ba8b39", "is_disabled": 0, "rental_uris": {"android": "https://dc.lft.to/lastmile_qr_scan", "ios": "https://dc.lft.to/lastmile_qr_scan"}, "type": "electric_scooter", "lat": 38.92436716666667, "is_reserved": 0, "fusion_lat": 0.0}, {"bike_id": "fe899fb8a6a4d6c84ee09e9c80e72dea", "fusion_lon": 0.0, "lon": -76.98027016666667, "name": "fe899fb8a6a4d6c84ee09e9c80e72dea", "is_disabled": 0, "rental_uris": {"android": "https://dc.lft.to/lastmile_qr_scan", "ios": "https://dc.lft.to/lastmile_qr_scan"}, "type": "electric_scooter", "lat": 38.90380916666667, "is_reserved": 0, "fusion_lat": 0.0}, {"bike_id": "d9bb81f41accbcb3c8fad67d374c7f81", "fusion_lon": 0.0, "lon": -77.02440066666666, "name": "d9bb81f41accbcb3c8fad67d374c7f81", "is_disabled": 0, "rental_uris": {"android": "https://dc.lft.to/lastmile_qr_scan", "ios": "https://dc.lft.to/lastmile_qr_scan"}, "type": "electric_scooter", "lat": 38.9188435, "is_reserved": 0, "fusion_lat": 0.0}, {"bike_id": "5d522b5d399aab59ca21d1a2a94c24f3", "fusion_lon": 0.0, "lon": -77.02194883333334, "name": "5d522b5d399aab59ca21d1a2a94c24f3", "is_disabled": 0, "rental_uris": {"android": "https://dc.lft.to/lastmile_qr_scan", "ios": "https://dc.lft.to/lastmile_qr_scan"}, "type": "electric_scooter", "lat": 38.9150825, "is_reserved": 0, "fusion_lat": 0.0}, {"bike_id": "7b872293da5cbd912a5ccd14b8fb24e1", "fusion_lon": 0.0, "lon": -77.025394, "name": "7b872293da5cbd912a5ccd14b8fb24e1", "is_disabled": 0, "rental_uris": {"android": "https://dc.lft.to/lastmile_qr_scan", "ios": "https://dc.lft.to/lastmile_qr_scan"}, "type": "electric_scooter", "lat": 38.91919466666667, "is_reserved": 0, "fusion_lat": 0.0}, {"bike_id": "3d84de8e359b46d54c3557248152d048", "fusion_lon": 0.0, "lon": -77.05583416666667, "name": "3d84de8e359b46d54c3557248152d048", "is_disabled": 0, "rental_uris": {"android": "https://dc.lft.to/lastmile_qr_scan", "ios": "https://dc.lft.to/lastmile_qr_scan"}, "type": "electric_scooter", "lat": 38.893289833333334, "is_reserved": 0, "fusion_lat": 0.0}, {"bike_id": "5ef38f1a7aeeceda9093f807abd5de6f", "fusion_lon": 0.0, "lon": -77.0418555, "name": "5ef38f1a7aeeceda9093f807abd5de6f", "is_disabled": 0, "rental_uris": {"android": "https://dc.lft.to/lastmile_qr_scan", "ios": "https://dc.lft.to/lastmile_qr_scan"}, "type": "electric_scooter", "lat": 38.905345833333335, "is_reserved": 0, "fusion_lat": 0.0}, {"bike_id": "e71544d45f767a26007eff18f28dd8fa", "fusion_lon": 0.0, "lon": -76.99617316666667, "name": "e71544d45f767a26007eff18f28dd8fa", "is_disabled": 0, "rental_uris": {"android": "https://dc.lft.to/lastmile_qr_scan", "ios": "https://dc.lft.to/lastmile_qr_scan"}, "type": "electric_scooter", "lat": 38.90064666666667, "is_reserved": 0, "fusion_lat": 0.0}, {"bike_id": "25d9df4019713e5189a712a242514dc9", "fusion_lon": 0.0, "lon": -77.00575316666666, "name": "25d9df4019713e5189a712a242514dc9", "is_disabled": 0, "rental_uris": {"android": "https://dc.lft.to/lastmile_qr_scan", "ios": "https://dc.lft.to/lastmile_qr_scan"}, "type": "electric_scooter", "lat": 38.8759235, "is_reserved": 0, "fusion_lat": 0.0}, {"bike_id": "52194daee2ac3464fd08118958671093", "fusion_lon": 0.0, "lon": -77.01655383333333, "name": "52194daee2ac3464fd08118958671093", "is_disabled": 0, "rental_uris": {"android": "https://dc.lft.to/lastmile_qr_scan", "ios": "https://dc.lft.to/lastmile_qr_scan"}, "type": "electric_scooter", "lat": 38.88110866666667, "is_reserved": 0, "fusion_lat": 0.0}, {"bike_id": "f629d21b2ea78415b73e8e48c70d065b", "fusion_lon": 0.0, "lon": -77.0121665, "name": "f629d21b2ea78415b73e8e48c70d065b", "is_disabled": 0, "rental_uris": {"android": "https://dc.lft.to/lastmile_qr_scan", "ios": "https://dc.lft.to/lastmile_qr_scan"}, "type": "electric_scooter", "lat": 38.87082683333333, "is_reserved": 0, "fusion_lat": 0.0}, {"bike_id": "3254770f58e50a63aff8137133216006", "fusion_lon": 0.0, "lon": -77.03243566666667, "name": "3254770f58e50a63aff8137133216006", "is_disabled": 0, "rental_uris": {"android": "https://dc.lft.to/lastmile_qr_scan", "ios": "https://dc.lft.to/lastmile_qr_scan"}, "type": "electric_bike", "lat": 38.9023155, "is_reserved": 0, "fusion_lat": 0.0}, {"bike_id": "99dc0e6c9e06187313d33e33a758d430", "fusion_lon": 0.0, "lon": -77.03259266666667, "name": "99dc0e6c9e06187313d33e33a758d430", "is_disabled": 0, "rental_uris": {"android": "https://dc.lft.to/lastmile_qr_scan", "ios": "https://dc.lft.to/lastmile_qr_scan"}, "type": "electric_bike", "lat": 38.9293015, "is_reserved": 0, "fusion_lat": 0.0}, {"bike_id": "7aa75df06792608f2136da524ade25b3", "fusion_lon": 0.0, "lon": -76.99392766666666, "name": "7aa75df06792608f2136da524ade25b3", "is_disabled": 0, "rental_uris": {"android": "https://dc.lft.to/lastmile_qr_scan", "ios": "https://dc.lft.to/lastmile_qr_scan"}, "type": "electric_scooter", "lat": 38.92166433333333, "is_reserved": 0, "fusion_lat": 0.0}, {"bike_id": "6c703ebde34233324c90381375d11dc7", "fusion_lon": 0.0, "lon": -77.0389405, "name": "6c703ebde34233324c90381375d11dc7", "is_disabled": 0, "rental_uris": {"android": "https://dc.lft.to/lastmile_qr_scan", "ios": "https://dc.lft.to/lastmile_qr_scan"}, "type": "electric_scooter", "lat": 38.9186005, "is_reserved": 0, "fusion_lat": 0.0}, {"bike_id": "5bca8b0db31f9d1a7766c425f3a3deab", "fusion_lon": 0.0, "lon": -77.01008583333333, "name": "5bca8b0db31f9d1a7766c425f3a3deab", "is_disabled": 0, "rental_uris": {"android": "https://dc.lft.to/lastmile_qr_scan", "ios": "https://dc.lft.to/lastmile_qr_scan"}, "type": "electric_bike", "lat": 38.956033833333336, "is_reserved": 0, "fusion_lat": 0.0}, {"bike_id": "b86825873cc1d007a22356e69c2b6d97", "fusion_lon": 0.0, "lon": -77.03660816666667, "name": "b86825873cc1d007a22356e69c2b6d97", "is_disabled": 0, "rental_uris": {"android": "https://dc.lft.to/lastmile_qr_scan", "ios": "https://dc.lft.to/lastmile_qr_scan"}, "type": "electric_scooter", "lat": 38.92284883333333, "is_reserved": 0, "fusion_lat": 0.0}, {"bike_id": "f5908813516e0ebd580dbb1e2c4f14c0", "fusion_lon": 0.0, "lon": -77.03604083333333, "name": "f5908813516e0ebd580dbb1e2c4f14c0", "is_disabled": 0, "rental_uris": {"android": "https://dc.lft.to/lastmile_qr_scan", "ios": "https://dc.lft.to/lastmile_qr_scan"}, "type": "electric_scooter", "lat": 38.907516666666666, "is_reserved": 0, "fusion_lat": 0.0}, {"bike_id": "77ce8324c9ebf41f40514bbd31fe6d62", "fusion_lon": 0.0, "lon": -77.10772533333333, "name": "77ce8324c9ebf41f40514bbd31fe6d62", "is_disabled": 0, "rental_uris": {"android": "https://dc.lft.to/lastmile_qr_scan", "ios": "https://dc.lft.to/lastmile_qr_scan"}, "type": "electric_bike", "lat": 38.8415105, "is_reserved": 0, "fusion_lat": 0.0}, {"bike_id": "fc31bc38e1d5fec7ca18e8feb110dc4a", "fusion_lon": 0.0, "lon": -77.0113515, "name": "fc31bc38e1d5fec7ca18e8feb110dc4a", "is_disabled": 0, "rental_uris": {"android": "https://dc.lft.to/lastmile_qr_scan", "ios": "https://dc.lft.to/lastmile_qr_scan"}, "type": "electric_scooter", "lat": 38.8852665, "is_reserved": 0, "fusion_lat": 0.0}, {"bike_id": "363a1e908d89742c12289319c18f9863", "fusion_lon": 0.0, "lon": -77.00855583333333, "name": "363a1e908d89742c12289319c18f9863", "is_disabled": 0, "rental_uris": {"android": "https://dc.lft.to/lastmile_qr_scan", "ios": "https://dc.lft.to/lastmile_qr_scan"}, "type": "electric_scooter", "lat": 38.959675833333336, "is_reserved": 0, "fusion_lat": 0.0}, {"bike_id": "cc827a1414216c7d151ec7ca6c7c50e2", "fusion_lon": 0.0, "lon": -77.04665283333334, "name": "cc827a1414216c7d151ec7ca6c7c50e2", "is_disabled": 0, "rental_uris": {"android": "https://dc.lft.to/lastmile_qr_scan", "ios": "https://dc.lft.to/lastmile_qr_scan"}, "type": "electric_scooter", "lat": 38.90069833333333, "is_reserved": 0, "fusion_lat": 0.0}, {"bike_id": "db5c2737b9f3ba77bd1af8e0081e939f", "fusion_lon": 0.0, "lon": -77.03424916666667, "name": "db5c2737b9f3ba77bd1af8e0081e939f", "is_disabled": 0, "rental_uris": {"android": "https://dc.lft.to/lastmile_qr_scan", "ios": "https://dc.lft.to/lastmile_qr_scan"}, "type": "electric_scooter", "lat": 38.930864, "is_reserved": 0, "fusion_lat": 0.0}, {"bike_id": "1df21227e45d1bbf05c297619494882e", "fusion_lon": 0.0, "lon": -76.97702516666666, "name": "1df21227e45d1bbf05c297619494882e", "is_disabled": 0, "rental_uris": {"android": "https://dc.lft.to/lastmile_qr_scan", "ios": "https://dc.lft.to/lastmile_qr_scan"}, "type": "electric_scooter", "lat": 38.90251516666667, "is_reserved": 0, "fusion_lat": 0.0}, {"bike_id": "02fe385232eec8e26f158eb81d6c64bf", "fusion_lon": 0.0, "lon": -77.0448605, "name": "02fe385232eec8e26f158eb81d6c64bf", "is_disabled": 0, "rental_uris": {"android": "https://dc.lft.to/lastmile_qr_scan", "ios": "https://dc.lft.to/lastmile_qr_scan"}, "type": "electric_scooter", "lat": 38.911648166666666, "is_reserved": 0, "fusion_lat": 0.0}, {"bike_id": "930ded68f72e9fb4885ce4020808dd39", "fusion_lon": 0.0, "lon": -77.02814416666666, "name": "930ded68f72e9fb4885ce4020808dd39", "is_disabled": 0, "rental_uris": {"android": "https://dc.lft.to/lastmile_qr_scan", "ios": "https://dc.lft.to/lastmile_qr_scan"}, "type": "electric_scooter", "lat": 38.904714166666665, "is_reserved": 0, "fusion_lat": 0.0}, {"bike_id": "3034ca7e70bf62e9254a43c09e54710b", "fusion_lon": 0.0, "lon": -77.045897, "name": "3034ca7e70bf62e9254a43c09e54710b", "is_disabled": 0, "rental_uris": {"android": "https://dc.lft.to/lastmile_qr_scan", "ios": "https://dc.lft.to/lastmile_qr_scan"}, "type": "electric_scooter", "lat": 38.918615333333335, "is_reserved": 0, "fusion_lat": 0.0}, {"bike_id": "4d6f6b87f46c6d3ddb0320e8d18810ca", "fusion_lon": 0.0, "lon": -77.00356533333333, "name": "4d6f6b87f46c6d3ddb0320e8d18810ca", "is_disabled": 0, "rental_uris": {"android": "https://dc.lft.to/lastmile_qr_scan", "ios": "https://dc.lft.to/lastmile_qr_scan"}, "type": "electric_scooter", "lat": 38.89938183333334, "is_reserved": 0, "fusion_lat": 0.0}, {"bike_id": "82a9d494ec3d6d3e05badbf25ea41292", "fusion_lon": 0.0, "lon": -76.94966583333333, "name": "82a9d494ec3d6d3e05badbf25ea41292", "is_disabled": 0, "rental_uris": {"android": "https://dc.lft.to/lastmile_qr_scan", "ios": "https://dc.lft.to/lastmile_qr_scan"}, "type": "electric_scooter", "lat": 38.893586666666664, "is_reserved": 0, "fusion_lat": 0.0}, {"bike_id": "6d403fd88bc3bb6de737efa43d9ea25e", "fusion_lon": 0.0, "lon": -77.10599716666667, "name": "6d403fd88bc3bb6de737efa43d9ea25e", "is_disabled": 0, "rental_uris": {"android": "https://dc.lft.to/lastmile_qr_scan", "ios": "https://dc.lft.to/lastmile_qr_scan"}, "type": "electric_bike", "lat": 38.9289815, "is_reserved": 0, "fusion_lat": 0.0}, {"bike_id": "8093c78f6155a594adbbb1b4149739be", "fusion_lon": 0.0, "lon": -77.04031033333334, "name": "8093c78f6155a594adbbb1b4149739be", "is_disabled": 0, "rental_uris": {"android": "https://dc.lft.to/lastmile_qr_scan", "ios": "https://dc.lft.to/lastmile_qr_scan"}, "type": "electric_scooter", "lat": 38.924438, "is_reserved": 0, "fusion_lat": 0.0}, {"bike_id": "b94684da729fa3150f6b78e883e8cd38", "fusion_lon": 0.0, "lon": -76.95756066666667, "name": "b94684da729fa3150f6b78e883e8cd38", "is_disabled": 0, "rental_uris": {"android": "https://dc.lft.to/lastmile_qr_scan", "ios": "https://dc.lft.to/lastmile_qr_scan"}, "type": "electric_scooter", "lat": 38.8843115, "is_reserved": 0, "fusion_lat": 0.0}, {"bike_id": "31924b9b3772af3e1156b74b05dfffe6", "fusion_lon": 0.0, "lon": -77.026068, "name": "31924b9b3772af3e1156b74b05dfffe6", "is_disabled": 0, "rental_uris": {"android": "https://dc.lft.to/lastmile_qr_scan", "ios": "https://dc.lft.to/lastmile_qr_scan"}, "type": "electric_scooter", "lat": 38.897329666666664, "is_reserved": 0, "fusion_lat": 0.0}, {"bike_id": "cf24e844a501b349e2abbe16fea1e12d", "fusion_lon": 0.0, "lon": -76.99779683333334, "name": "cf24e844a501b349e2abbe16fea1e12d", "is_disabled": 0, "rental_uris": {"android": "https://dc.lft.to/lastmile_qr_scan", "ios": "https://dc.lft.to/lastmile_qr_scan"}, "type": "electric_scooter", "lat": 38.844241333333336, "is_reserved": 0, "fusion_lat": 0.0}, {"bike_id": "b48a5056f14bda0c411994a8c81dfe93", "fusion_lon": 0.0, "lon": -77.02126683333333, "name": "b48a5056f14bda0c411994a8c81dfe93", "is_disabled": 0, "rental_uris": {"android": "https://dc.lft.to/lastmile_qr_scan", "ios": "https://dc.lft.to/lastmile_qr_scan"}, "type": "electric_scooter", "lat": 38.8874765, "is_reserved": 0, "fusion_lat": 0.0}, {"bike_id": "1072e8ce1e2f2048480ae9f82129ace8", "fusion_lon": 0.0, "lon": -77.01138733333333, "name": "1072e8ce1e2f2048480ae9f82129ace8", "is_disabled": 0, "rental_uris": {"android": "https://dc.lft.to/lastmile_qr_scan", "ios": "https://dc.lft.to/lastmile_qr_scan"}, "type": "electric_scooter", "lat": 38.91701416666667, "is_reserved": 0, "fusion_lat": 0.0}, {"bike_id": "a533aa592fa40d8994adfa73d79f6333", "fusion_lon": 0.0, "lon": -77.04984416666667, "name": "a533aa592fa40d8994adfa73d79f6333", "is_disabled": 0, "rental_uris": {"android": "https://dc.lft.to/lastmile_qr_scan", "ios": "https://dc.lft.to/lastmile_qr_scan"}, "type": "electric_bike", "lat": 38.8322005, "is_reserved": 0, "fusion_lat": 0.0}, {"bike_id": "e7d403dc968a1bcfff65183528e7ad71", "fusion_lon": 0.0, "lon": -77.03816366666666, "name": "e7d403dc968a1bcfff65183528e7ad71", "is_disabled": 0, "rental_uris": {"android": "https://dc.lft.to/lastmile_qr_scan", "ios": "https://dc.lft.to/lastmile_qr_scan"}, "type": "electric_scooter", "lat": 38.93065583333333, "is_reserved": 0, "fusion_lat": 0.0}, {"bike_id": "a2669c1e14e689fb851ed38d7ffe6dfe", "fusion_lon": 0.0, "lon": -76.98983, "name": "a2669c1e14e689fb851ed38d7ffe6dfe", "is_disabled": 0, "rental_uris": {"android": "https://dc.lft.to/lastmile_qr_scan", "ios": "https://dc.lft.to/lastmile_qr_scan"}, "type": "electric_scooter", "lat": 38.86497983333334, "is_reserved": 0, "fusion_lat": 0.0}, {"bike_id": "0bee890e5584ab3b38bc03e2bf03e82e", "fusion_lon": 0.0, "lon": -77.05232333333333, "name": "0bee890e5584ab3b38bc03e2bf03e82e", "is_disabled": 0, "rental_uris": {"android": "https://dc.lft.to/lastmile_qr_scan", "ios": "https://dc.lft.to/lastmile_qr_scan"}, "type": "electric_scooter", "lat": 38.92466433333333, "is_reserved": 0, "fusion_lat": 0.0}, {"bike_id": "b4877734b9256b68edc0c0c883955997", "fusion_lon": 0.0, "lon": -77.007514, "name": "b4877734b9256b68edc0c0c883955997", "is_disabled": 0, "rental_uris": {"android": "https://dc.lft.to/lastmile_qr_scan", "ios": "https://dc.lft.to/lastmile_qr_scan"}, "type": "electric_scooter", "lat": 38.876985833333336, "is_reserved": 0, "fusion_lat": 0.0}, {"bike_id": "a9199dc308fc6e568ad3301a5cce3820", "fusion_lon": 0.0, "lon": -76.99513766666666, "name": "a9199dc308fc6e568ad3301a5cce3820", "is_disabled": 0, "rental_uris": {"android": "https://dc.lft.to/lastmile_qr_scan", "ios": "https://dc.lft.to/lastmile_qr_scan"}, "type": "electric_scooter", "lat": 38.862576, "is_reserved": 0, "fusion_lat": 0.0}, {"bike_id": "f51b51318ac96e1579624356229965c9", "fusion_lon": 0.0, "lon": -77.00213266666667, "name": "f51b51318ac96e1579624356229965c9", "is_disabled": 0, "rental_uris": {"android": "https://dc.lft.to/lastmile_qr_scan", "ios": "https://dc.lft.to/lastmile_qr_scan"}, "type": "electric_scooter", "lat": 38.92050016666666, "is_reserved": 0, "fusion_lat": 0.0}, {"bike_id": "c431f70331f1ece575d1414cd120e53a", "fusion_lon": 0.0, "lon": -77.05475833333334, "name": "c431f70331f1ece575d1414cd120e53a", "is_disabled": 0, "rental_uris": {"android": "https://dc.lft.to/lastmile_qr_scan", "ios": "https://dc.lft.to/lastmile_qr_scan"}, "type": "electric_scooter", "lat": 38.897316333333336, "is_reserved": 0, "fusion_lat": 0.0}, {"bike_id": "45bda2289d7ea22f7050c09c35237d2d", "fusion_lon": 0.0, "lon": -77.021856, "name": "45bda2289d7ea22f7050c09c35237d2d", "is_disabled": 0, "rental_uris": {"android": "https://dc.lft.to/lastmile_qr_scan", "ios": "https://dc.lft.to/lastmile_qr_scan"}, "type": "electric_scooter", "lat": 38.89420483333333, "is_reserved": 0, "fusion_lat": 0.0}, {"bike_id": "a049dc997a9ebce4536a4862d6192fa5", "fusion_lon": 0.0, "lon": -77.03669416666666, "name": "a049dc997a9ebce4536a4862d6192fa5", "is_disabled": 0, "rental_uris": {"android": "https://dc.lft.to/lastmile_qr_scan", "ios": "https://dc.lft.to/lastmile_qr_scan"}, "type": "electric_scooter", "lat": 38.930891, "is_reserved": 0, "fusion_lat": 0.0}, {"bike_id": "6b3e20539d9ec6f8596edfa62d83703b", "fusion_lon": 0.0, "lon": -77.03579166666667, "name": "6b3e20539d9ec6f8596edfa62d83703b", "is_disabled": 0, "rental_uris": {"android": "https://dc.lft.to/lastmile_qr_scan", "ios": "https://dc.lft.to/lastmile_qr_scan"}, "type": "electric_scooter", "lat": 38.93477, "is_reserved": 0, "fusion_lat": 0.0}, {"bike_id": "6ec3b2dac4ca45091145decb29f55c70", "fusion_lon": 0.0, "lon": -77.01096183333334, "name": "6ec3b2dac4ca45091145decb29f55c70", "is_disabled": 0, "rental_uris": {"android": "https://dc.lft.to/lastmile_qr_scan", "ios": "https://dc.lft.to/lastmile_qr_scan"}, "type": "electric_scooter", "lat": 38.894982166666665, "is_reserved": 0, "fusion_lat": 0.0}, {"bike_id": "566d5ea6e6b1240b63afe2a0e58a889f", "fusion_lon": 0.0, "lon": -77.04369033333333, "name": "566d5ea6e6b1240b63afe2a0e58a889f", "is_disabled": 0, "rental_uris": {"android": "https://dc.lft.to/lastmile_qr_scan", "ios": "https://dc.lft.to/lastmile_qr_scan"}, "type": "electric_scooter", "lat": 38.921171, "is_reserved": 0, "fusion_lat": 0.0}, {"bike_id": "a85a07fac78698ebda9edc3ff5008bb0", "fusion_lon": 0.0, "lon": -77.02659683333333, "name": "a85a07fac78698ebda9edc3ff5008bb0", "is_disabled": 0, "rental_uris": {"android": "https://dc.lft.to/lastmile_qr_scan", "ios": "https://dc.lft.to/lastmile_qr_scan"}, "type": "electric_scooter", "lat": 38.892171166666664, "is_reserved": 0, "fusion_lat": 0.0}, {"bike_id": "5e4ac500f63a2074f2ba9f853abff01b", "fusion_lon": 0.0, "lon": -77.04200616666667, "name": "5e4ac500f63a2074f2ba9f853abff01b", "is_disabled": 0, "rental_uris": {"android": "https://dc.lft.to/lastmile_qr_scan", "ios": "https://dc.lft.to/lastmile_qr_scan"}, "type": "electric_scooter", "lat": 38.92082533333333, "is_reserved": 0, "fusion_lat": 0.0}, {"bike_id": "25d601a1b6c3e5e6b82d4143b3f2a65b", "fusion_lon": 0.0, "lon": -77.02195383333333, "name": "25d601a1b6c3e5e6b82d4143b3f2a65b", "is_disabled": 0, "rental_uris": {"android": "https://dc.lft.to/lastmile_qr_scan", "ios": "https://dc.lft.to/lastmile_qr_scan"}, "type": "electric_scooter", "lat": 38.905514333333336, "is_reserved": 0, "fusion_lat": 0.0}, {"bike_id": "ab8b9003f38f40de22e5055450960958", "fusion_lon": 0.0, "lon": -77.02675583333334, "name": "ab8b9003f38f40de22e5055450960958", "is_disabled": 0, "rental_uris": {"android": "https://dc.lft.to/lastmile_qr_scan", "ios": "https://dc.lft.to/lastmile_qr_scan"}, "type": "electric_scooter", "lat": 38.89623433333333, "is_reserved": 0, "fusion_lat": 0.0}, {"bike_id": "a5afd61e33ab52bde2bc26d95b98b7ca", "fusion_lon": 0.0, "lon": -76.96604416666666, "name": "a5afd61e33ab52bde2bc26d95b98b7ca", "is_disabled": 0, "rental_uris": {"android": "https://dc.lft.to/lastmile_qr_scan", "ios": "https://dc.lft.to/lastmile_qr_scan"}, "type": "electric_scooter", "lat": 38.87388383333333, "is_reserved": 0, "fusion_lat": 0.0}, {"bike_id": "1039284848c0a806e99fce45e52bc130", "fusion_lon": 0.0, "lon": -77.00225983333333, "name": "1039284848c0a806e99fce45e52bc130", "is_disabled": 0, "rental_uris": {"android": "https://dc.lft.to/lastmile_qr_scan", "ios": "https://dc.lft.to/lastmile_qr_scan"}, "type": "electric_scooter", "lat": 38.925073, "is_reserved": 0, "fusion_lat": 0.0}, {"bike_id": "ea727cb16393ef370c3c1ccac6e5673b", "fusion_lon": 0.0, "lon": -77.02703333333334, "name": "ea727cb16393ef370c3c1ccac6e5673b", "is_disabled": 0, "rental_uris": {"android": "https://dc.lft.to/lastmile_qr_scan", "ios": "https://dc.lft.to/lastmile_qr_scan"}, "type": "electric_scooter", "lat": 38.90674166666667, "is_reserved": 0, "fusion_lat": 0.0}, {"bike_id": "7e3ca6f0176c5b90c6f51813ec4d4d36", "fusion_lon": 0.0, "lon": -77.034501, "name": "7e3ca6f0176c5b90c6f51813ec4d4d36", "is_disabled": 0, "rental_uris": {"android": "https://dc.lft.to/lastmile_qr_scan", "ios": "https://dc.lft.to/lastmile_qr_scan"}, "type": "electric_scooter", "lat": 38.904188, "is_reserved": 0, "fusion_lat": 0.0}, {"bike_id": "d6392495f8ad3dc0d67dd96e51a1fed6", "fusion_lon": 0.0, "lon": -77.03253783333334, "name": "d6392495f8ad3dc0d67dd96e51a1fed6", "is_disabled": 0, "rental_uris": {"android": "https://dc.lft.to/lastmile_qr_scan", "ios": "https://dc.lft.to/lastmile_qr_scan"}, "type": "electric_scooter", "lat": 38.93132966666667, "is_reserved": 0, "fusion_lat": 0.0}, {"bike_id": "2eb8119abf44889b602a2a9be1dda014", "fusion_lon": 0.0, "lon": -76.93648616666667, "name": "2eb8119abf44889b602a2a9be1dda014", "is_disabled": 0, "rental_uris": {"android": "https://dc.lft.to/lastmile_qr_scan", "ios": "https://dc.lft.to/lastmile_qr_scan"}, "type": "electric_bike", "lat": 38.871503833333335, "is_reserved": 0, "fusion_lat": 0.0}, {"bike_id": "51aea824b22e8fe69c737da0548843e5", "fusion_lon": 0.0, "lon": -77.03765033333333, "name": "51aea824b22e8fe69c737da0548843e5", "is_disabled": 0, "rental_uris": {"android": "https://dc.lft.to/lastmile_qr_scan", "ios": "https://dc.lft.to/lastmile_qr_scan"}, "type": "electric_scooter", "lat": 38.925843666666665, "is_reserved": 0, "fusion_lat": 0.0}, {"bike_id": "3b1a37e5b77aa72b0d236724c64be6a6", "fusion_lon": 0.0, "lon": -77.0320765, "name": "3b1a37e5b77aa72b0d236724c64be6a6", "is_disabled": 0, "rental_uris": {"android": "https://dc.lft.to/lastmile_qr_scan", "ios": "https://dc.lft.to/lastmile_qr_scan"}, "type": "electric_scooter", "lat": 38.89943433333333, "is_reserved": 0, "fusion_lat": 0.0}, {"bike_id": "ddb16a3ed208db5bba51da24fac99872", "fusion_lon": 0.0, "lon": -77.04663583333334, "name": "ddb16a3ed208db5bba51da24fac99872", "is_disabled": 0, "rental_uris": {"android": "https://dc.lft.to/lastmile_qr_scan", "ios": "https://dc.lft.to/lastmile_qr_scan"}, "type": "electric_scooter", "lat": 38.89244766666667, "is_reserved": 0, "fusion_lat": 0.0}, {"bike_id": "a4fda0fdcb8d4d5151247fcb94e3b1b0", "fusion_lon": 0.0, "lon": -76.968666, "name": "a4fda0fdcb8d4d5151247fcb94e3b1b0", "is_disabled": 0, "rental_uris": {"android": "https://dc.lft.to/lastmile_qr_scan", "ios": "https://dc.lft.to/lastmile_qr_scan"}, "type": "electric_scooter", "lat": 38.87095716666666, "is_reserved": 0, "fusion_lat": 0.0}, {"bike_id": "53aa052ac411af7dfa2c3c92f6d93862", "fusion_lon": 0.0, "lon": -77.03847983333333, "name": "53aa052ac411af7dfa2c3c92f6d93862", "is_disabled": 0, "rental_uris": {"android": "https://dc.lft.to/lastmile_qr_scan", "ios": "https://dc.lft.to/lastmile_qr_scan"}, "type": "electric_scooter", "lat": 38.932483500000004, "is_reserved": 0, "fusion_lat": 0.0}, {"bike_id": "76bdd2f138a8dcb05233c4e02f10844c", "fusion_lon": 0.0, "lon": -77.00636816666666, "name": "76bdd2f138a8dcb05233c4e02f10844c", "is_disabled": 0, "rental_uris": {"android": "https://dc.lft.to/lastmile_qr_scan", "ios": "https://dc.lft.to/lastmile_qr_scan"}, "type": "electric_bike", "lat": 38.9483735, "is_reserved": 0, "fusion_lat": 0.0}, {"bike_id": "1d0fba1d09c699e9bb3e8a9148febbc3", "fusion_lon": 0.0, "lon": -77.02341066666666, "name": "1d0fba1d09c699e9bb3e8a9148febbc3", "is_disabled": 0, "rental_uris": {"android": "https://dc.lft.to/lastmile_qr_scan", "ios": "https://dc.lft.to/lastmile_qr_scan"}, "type": "electric_scooter", "lat": 38.91663916666667, "is_reserved": 0, "fusion_lat": 0.0}, {"bike_id": "13c500c31b2581e79005802f5e74c0a2", "fusion_lon": 0.0, "lon": -77.02781216666666, "name": "13c500c31b2581e79005802f5e74c0a2", "is_disabled": 0, "rental_uris": {"android": "https://dc.lft.to/lastmile_qr_scan", "ios": "https://dc.lft.to/lastmile_qr_scan"}, "type": "electric_scooter", "lat": 38.892218666666665, "is_reserved": 0, "fusion_lat": 0.0}, {"bike_id": "956b54748c0f38776fe560e31d8bded5", "fusion_lon": 0.0, "lon": -77.13481616666667, "name": "956b54748c0f38776fe560e31d8bded5", "is_disabled": 0, "rental_uris": {"android": "https://dc.lft.to/lastmile_qr_scan", "ios": "https://dc.lft.to/lastmile_qr_scan"}, "type": "electric_bike", "lat": 38.853565, "is_reserved": 0, "fusion_lat": 0.0}, {"bike_id": "a224f6df27814fada01c50191afa88c7", "fusion_lon": 0.0, "lon": -77.009363, "name": "a224f6df27814fada01c50191afa88c7", "is_disabled": 0, "rental_uris": {"android": "https://dc.lft.to/lastmile_qr_scan", "ios": "https://dc.lft.to/lastmile_qr_scan"}, "type": "electric_scooter", "lat": 38.90829683333333, "is_reserved": 0, "fusion_lat": 0.0}, {"bike_id": "146a687a5100fc395dd49077ab585e2c", "fusion_lon": 0.0, "lon": -77.03405, "name": "146a687a5100fc395dd49077ab585e2c", "is_disabled": 0, "rental_uris": {"android": "https://dc.lft.to/lastmile_qr_scan", "ios": "https://dc.lft.to/lastmile_qr_scan"}, "type": "electric_scooter", "lat": 38.93123583333333, "is_reserved": 0, "fusion_lat": 0.0}, {"bike_id": "6c8213656fbfc532eb6d1dc7287a2839", "fusion_lon": 0.0, "lon": -77.03174416666667, "name": "6c8213656fbfc532eb6d1dc7287a2839", "is_disabled": 0, "rental_uris": {"android": "https://dc.lft.to/lastmile_qr_scan", "ios": "https://dc.lft.to/lastmile_qr_scan"}, "type": "electric_scooter", "lat": 38.919204, "is_reserved": 0, "fusion_lat": 0.0}, {"bike_id": "6396e9cbaf76a9edff29cb1cbbfedd3a", "fusion_lon": 0.0, "lon": -77.0337385, "name": "6396e9cbaf76a9edff29cb1cbbfedd3a", "is_disabled": 0, "rental_uris": {"android": "https://dc.lft.to/lastmile_qr_scan", "ios": "https://dc.lft.to/lastmile_qr_scan"}, "type": "electric_scooter", "lat": 38.88756983333333, "is_reserved": 0, "fusion_lat": 0.0}, {"bike_id": "690afe604dda7be1f1c7b7b3ecd97138", "fusion_lon": 0.0, "lon": -76.92481983333333, "name": "690afe604dda7be1f1c7b7b3ecd97138", "is_disabled": 0, "rental_uris": {"android": "https://dc.lft.to/lastmile_qr_scan", "ios": "https://dc.lft.to/lastmile_qr_scan"}, "type": "electric_bike", "lat": 38.958868, "is_reserved": 0, "fusion_lat": 0.0}, {"bike_id": "592eee619e1d61910a70bac76570fbe3", "fusion_lon": 0.0, "lon": -77.01618266666667, "name": "592eee619e1d61910a70bac76570fbe3", "is_disabled": 0, "rental_uris": {"android": "https://dc.lft.to/lastmile_qr_scan", "ios": "https://dc.lft.to/lastmile_qr_scan"}, "type": "electric_scooter", "lat": 38.905887666666665, "is_reserved": 0, "fusion_lat": 0.0}, {"bike_id": "7095715d42dfd6932dba09343a347353", "fusion_lon": 0.0, "lon": -77.0307325, "name": "7095715d42dfd6932dba09343a347353", "is_disabled": 0, "rental_uris": {"android": "https://dc.lft.to/lastmile_qr_scan", "ios": "https://dc.lft.to/lastmile_qr_scan"}, "type": "electric_scooter", "lat": 38.89757983333333, "is_reserved": 0, "fusion_lat": 0.0}, {"bike_id": "01b45c92b9e9013af737ca5cf9d965f9", "fusion_lon": 0.0, "lon": -77.03506833333333, "name": "01b45c92b9e9013af737ca5cf9d965f9", "is_disabled": 0, "rental_uris": {"android": "https://dc.lft.to/lastmile_qr_scan", "ios": "https://dc.lft.to/lastmile_qr_scan"}, "type": "electric_scooter", "lat": 38.9187655, "is_reserved": 0, "fusion_lat": 0.0}, {"bike_id": "94932f3fb374d673e960ae0d3cf50c48", "fusion_lon": 0.0, "lon": -77.02857916666666, "name": "94932f3fb374d673e960ae0d3cf50c48", "is_disabled": 0, "rental_uris": {"android": "https://dc.lft.to/lastmile_qr_scan", "ios": "https://dc.lft.to/lastmile_qr_scan"}, "type": "electric_bike", "lat": 38.91280583333333, "is_reserved": 0, "fusion_lat": 0.0}, {"bike_id": "68c866cac17a258bad3b352896569a05", "fusion_lon": 0.0, "lon": -77.0347435, "name": "68c866cac17a258bad3b352896569a05", "is_disabled": 0, "rental_uris": {"android": "https://dc.lft.to/lastmile_qr_scan", "ios": "https://dc.lft.to/lastmile_qr_scan"}, "type": "electric_scooter", "lat": 38.9096295, "is_reserved": 0, "fusion_lat": 0.0}, {"bike_id": "d3249c6ce41d2e2e3954e91d6d777342", "fusion_lon": 0.0, "lon": -77.08521866666666, "name": "d3249c6ce41d2e2e3954e91d6d777342", "is_disabled": 0, "rental_uris": {"android": "https://dc.lft.to/lastmile_qr_scan", "ios": "https://dc.lft.to/lastmile_qr_scan"}, "type": "electric_bike", "lat": 38.885759, "is_reserved": 0, "fusion_lat": 0.0}, {"bike_id": "1ea0e2f315370bd92ab0f72fe6c59e3a", "fusion_lon": 0.0, "lon": -77.03447716666666, "name": "1ea0e2f315370bd92ab0f72fe6c59e3a", "is_disabled": 0, "rental_uris": {"android": "https://dc.lft.to/lastmile_qr_scan", "ios": "https://dc.lft.to/lastmile_qr_scan"}, "type": "electric_scooter", "lat": 38.918203, "is_reserved": 0, "fusion_lat": 0.0}, {"bike_id": "b6669dc89294a7b6a82f32a5fb3f0d50", "fusion_lon": 0.0, "lon": -77.034105, "name": "b6669dc89294a7b6a82f32a5fb3f0d50", "is_disabled": 0, "rental_uris": {"android": "https://dc.lft.to/lastmile_qr_scan", "ios": "https://dc.lft.to/lastmile_qr_scan"}, "type": "electric_scooter", "lat": 38.91920283333333, "is_reserved": 0, "fusion_lat": 0.0}, {"bike_id": "6c88866368606293a1752a31fa3ebb49", "fusion_lon": 0.0, "lon": -77.024125, "name": "6c88866368606293a1752a31fa3ebb49", "is_disabled": 0, "rental_uris": {"android": "https://dc.lft.to/lastmile_qr_scan", "ios": "https://dc.lft.to/lastmile_qr_scan"}, "type": "electric_scooter", "lat": 38.917062666666666, "is_reserved": 0, "fusion_lat": 0.0}, {"bike_id": "32ba6773098bdbcbc15f86c19a9ec2c6", "fusion_lon": 0.0, "lon": -77.027188, "name": "32ba6773098bdbcbc15f86c19a9ec2c6", "is_disabled": 0, "rental_uris": {"android": "https://dc.lft.to/lastmile_qr_scan", "ios": "https://dc.lft.to/lastmile_qr_scan"}, "type": "electric_scooter", "lat": 38.916731166666665, "is_reserved": 0, "fusion_lat": 0.0}, {"bike_id": "fbefb3d5378664d3dfdf5f3780a70d38", "fusion_lon": 0.0, "lon": -77.0078405, "name": "fbefb3d5378664d3dfdf5f3780a70d38", "is_disabled": 0, "rental_uris": {"android": "https://dc.lft.to/lastmile_qr_scan", "ios": "https://dc.lft.to/lastmile_qr_scan"}, "type": "electric_scooter", "lat": 38.905739, "is_reserved": 0, "fusion_lat": 0.0}, {"bike_id": "c7a27056601533bf7ddc5fdb90cb8d8a", "fusion_lon": 0.0, "lon": -77.02266933333334, "name": "c7a27056601533bf7ddc5fdb90cb8d8a", "is_disabled": 0, "rental_uris": {"android": "https://dc.lft.to/lastmile_qr_scan", "ios": "https://dc.lft.to/lastmile_qr_scan"}, "type": "electric_bike", "lat": 38.93741466666667, "is_reserved": 0, "fusion_lat": 0.0}, {"bike_id": "4c2850d6193f3fcbe7fbc2e0e28950f1", "fusion_lon": 0.0, "lon": -77.02601133333333, "name": "4c2850d6193f3fcbe7fbc2e0e28950f1", "is_disabled": 0, "rental_uris": {"android": "https://dc.lft.to/lastmile_qr_scan", "ios": "https://dc.lft.to/lastmile_qr_scan"}, "type": "electric_scooter", "lat": 38.91692333333334, "is_reserved": 0, "fusion_lat": 0.0}, {"bike_id": "7b65bc79041dcf230f810253428f91de", "fusion_lon": 0.0, "lon": -76.99492366666666, "name": "7b65bc79041dcf230f810253428f91de", "is_disabled": 0, "rental_uris": {"android": "https://dc.lft.to/lastmile_qr_scan", "ios": "https://dc.lft.to/lastmile_qr_scan"}, "type": "electric_scooter", "lat": 38.86242033333333, "is_reserved": 0, "fusion_lat": 0.0}, {"bike_id": "9d645a26871c5cd8f032865cef6d66cf", "fusion_lon": 0.0, "lon": -77.016466, "name": "9d645a26871c5cd8f032865cef6d66cf", "is_disabled": 0, "rental_uris": {"android": "https://dc.lft.to/lastmile_qr_scan", "ios": "https://dc.lft.to/lastmile_qr_scan"}, "type": "electric_scooter", "lat": 38.8811665, "is_reserved": 0, "fusion_lat": 0.0}, {"bike_id": "b324a3f2a55059a4352798d51fc2e17f", "fusion_lon": 0.0, "lon": -77.0523385, "name": "b324a3f2a55059a4352798d51fc2e17f", "is_disabled": 0, "rental_uris": {"android": "https://dc.lft.to/lastmile_qr_scan", "ios": "https://dc.lft.to/lastmile_qr_scan"}, "type": "electric_scooter", "lat": 38.92696433333333, "is_reserved": 0, "fusion_lat": 0.0}, {"bike_id": "7748db842c0780435a8ec694dc777238", "fusion_lon": 0.0, "lon": -77.02570283333333, "name": "7748db842c0780435a8ec694dc777238", "is_disabled": 0, "rental_uris": {"android": "https://dc.lft.to/lastmile_qr_scan", "ios": "https://dc.lft.to/lastmile_qr_scan"}, "type": "electric_scooter", "lat": 38.925766833333334, "is_reserved": 0, "fusion_lat": 0.0}, {"bike_id": "4183691a1332033d3bce23fb2c69c2f1", "fusion_lon": 0.0, "lon": -76.99814866666667, "name": "4183691a1332033d3bce23fb2c69c2f1", "is_disabled": 0, "rental_uris": {"android": "https://dc.lft.to/lastmile_qr_scan", "ios": "https://dc.lft.to/lastmile_qr_scan"}, "type": "electric_scooter", "lat": 38.8443155, "is_reserved": 0, "fusion_lat": 0.0}, {"bike_id": "4a8b7dd493aa72d3a2c9d806ab7ae19f", "fusion_lon": 0.0, "lon": -76.990588, "name": "4a8b7dd493aa72d3a2c9d806ab7ae19f", "is_disabled": 0, "rental_uris": {"android": "https://dc.lft.to/lastmile_qr_scan", "ios": "https://dc.lft.to/lastmile_qr_scan"}, "type": "electric_scooter", "lat": 38.863679166666664, "is_reserved": 0, "fusion_lat": 0.0}, {"bike_id": "ead44a50a88bd2c51dc78f7c6938e93f", "fusion_lon": 0.0, "lon": -77.04620433333334, "name": "ead44a50a88bd2c51dc78f7c6938e93f", "is_disabled": 0, "rental_uris": {"android": "https://dc.lft.to/lastmile_qr_scan", "ios": "https://dc.lft.to/lastmile_qr_scan"}, "type": "electric_scooter", "lat": 38.90858716666666, "is_reserved": 0, "fusion_lat": 0.0}, {"bike_id": "db36ddc3424205908da62f83933b2233", "fusion_lon": 0.0, "lon": -77.02972316666667, "name": "db36ddc3424205908da62f83933b2233", "is_disabled": 0, "rental_uris": {"android": "https://dc.lft.to/lastmile_qr_scan", "ios": "https://dc.lft.to/lastmile_qr_scan"}, "type": "electric_scooter", "lat": 38.916812, "is_reserved": 0, "fusion_lat": 0.0}, {"bike_id": "11e546289f4888d83a44728ff8e7112e", "fusion_lon": 0.0, "lon": -77.02814516666666, "name": "11e546289f4888d83a44728ff8e7112e", "is_disabled": 0, "rental_uris": {"android": "https://dc.lft.to/lastmile_qr_scan", "ios": "https://dc.lft.to/lastmile_qr_scan"}, "type": "electric_scooter", "lat": 38.91430916666667, "is_reserved": 0, "fusion_lat": 0.0}, {"bike_id": "1386d11b7121f496ec55f5c487100827", "fusion_lon": 0.0, "lon": -77.0252365, "name": "1386d11b7121f496ec55f5c487100827", "is_disabled": 0, "rental_uris": {"android": "https://dc.lft.to/lastmile_qr_scan", "ios": "https://dc.lft.to/lastmile_qr_scan"}, "type": "electric_scooter", "lat": 38.898382833333336, "is_reserved": 0, "fusion_lat": 0.0}, {"bike_id": "d0e42ff2418d7b7e83f421a15f1b29b2", "fusion_lon": 0.0, "lon": -77.00608, "name": "d0e42ff2418d7b7e83f421a15f1b29b2", "is_disabled": 0, "rental_uris": {"android": "https://dc.lft.to/lastmile_qr_scan", "ios": "https://dc.lft.to/lastmile_qr_scan"}, "type": "electric_scooter", "lat": 38.90603766666667, "is_reserved": 0, "fusion_lat": 0.0}, {"bike_id": "f9a5617e8f8a460cfa43e37031755ddc", "fusion_lon": 0.0, "lon": -77.013716, "name": "f9a5617e8f8a460cfa43e37031755ddc", "is_disabled": 0, "rental_uris": {"android": "https://dc.lft.to/lastmile_qr_scan", "ios": "https://dc.lft.to/lastmile_qr_scan"}, "type": "electric_scooter", "lat": 38.88710016666667, "is_reserved": 0, "fusion_lat": 0.0}, {"bike_id": "2a106029162f0a0786dab2d60ca33e34", "fusion_lon": 0.0, "lon": -77.0467775, "name": "2a106029162f0a0786dab2d60ca33e34", "is_disabled": 0, "rental_uris": {"android": "https://dc.lft.to/lastmile_qr_scan", "ios": "https://dc.lft.to/lastmile_qr_scan"}, "type": "electric_scooter", "lat": 38.9023985, "is_reserved": 0, "fusion_lat": 0.0}, {"bike_id": "4b7e41e66ebf6feb94497b6be4dfb6fa", "fusion_lon": 0.0, "lon": -77.03988966666667, "name": "4b7e41e66ebf6feb94497b6be4dfb6fa", "is_disabled": 0, "rental_uris": {"android": "https://dc.lft.to/lastmile_qr_scan", "ios": "https://dc.lft.to/lastmile_qr_scan"}, "type": "electric_scooter", "lat": 38.925903, "is_reserved": 0, "fusion_lat": 0.0}, {"bike_id": "dac71b53a6fb9e4a8cb850685e549853", "fusion_lon": 0.0, "lon": -77.04616233333333, "name": "dac71b53a6fb9e4a8cb850685e549853", "is_disabled": 0, "rental_uris": {"android": "https://dc.lft.to/lastmile_qr_scan", "ios": "https://dc.lft.to/lastmile_qr_scan"}, "type": "electric_scooter", "lat": 38.9145565, "is_reserved": 0, "fusion_lat": 0.0}, {"bike_id": "ca21fcb4eae8f72a64b2707635d9d836", "fusion_lon": 0.0, "lon": -77.02967316666667, "name": "ca21fcb4eae8f72a64b2707635d9d836", "is_disabled": 0, "rental_uris": {"android": "https://dc.lft.to/lastmile_qr_scan", "ios": "https://dc.lft.to/lastmile_qr_scan"}, "type": "electric_scooter", "lat": 38.915982166666666, "is_reserved": 0, "fusion_lat": 0.0}, {"bike_id": "8dd7e58c99ee0ee8d78e70cf2cd81e2e", "fusion_lon": 0.0, "lon": -77.03654516666667, "name": "8dd7e58c99ee0ee8d78e70cf2cd81e2e", "is_disabled": 0, "rental_uris": {"android": "https://dc.lft.to/lastmile_qr_scan", "ios": "https://dc.lft.to/lastmile_qr_scan"}, "type": "electric_scooter", "lat": 38.92343983333333, "is_reserved": 0, "fusion_lat": 0.0}, {"bike_id": "00549a50cf545f55bc446d617075c57e", "fusion_lon": 0.0, "lon": -77.025324, "name": "00549a50cf545f55bc446d617075c57e", "is_disabled": 0, "rental_uris": {"android": "https://dc.lft.to/lastmile_qr_scan", "ios": "https://dc.lft.to/lastmile_qr_scan"}, "type": "electric_scooter", "lat": 38.909637333333336, "is_reserved": 0, "fusion_lat": 0.0}, {"bike_id": "a64248fc477cd23c4f64c98153fc4ee2", "fusion_lon": 0.0, "lon": -77.01533783333333, "name": "a64248fc477cd23c4f64c98153fc4ee2", "is_disabled": 0, "rental_uris": {"android": "https://dc.lft.to/lastmile_qr_scan", "ios": "https://dc.lft.to/lastmile_qr_scan"}, "type": "electric_scooter", "lat": 38.884156, "is_reserved": 0, "fusion_lat": 0.0}, {"bike_id": "1ebffbb5524e35e91b3b6fe05de1be9f", "fusion_lon": 0.0, "lon": -76.946516, "name": "1ebffbb5524e35e91b3b6fe05de1be9f", "is_disabled": 0, "rental_uris": {"android": "https://dc.lft.to/lastmile_qr_scan", "ios": "https://dc.lft.to/lastmile_qr_scan"}, "type": "electric_scooter", "lat": 38.89825783333333, "is_reserved": 0, "fusion_lat": 0.0}, {"bike_id": "1ed31c6827f63a7e29056483c81ea49c", "fusion_lon": 0.0, "lon": -76.98492133333333, "name": "1ed31c6827f63a7e29056483c81ea49c", "is_disabled": 0, "rental_uris": {"android": "https://dc.lft.to/lastmile_qr_scan", "ios": "https://dc.lft.to/lastmile_qr_scan"}, "type": "electric_scooter", "lat": 38.866759333333334, "is_reserved": 0, "fusion_lat": 0.0}, {"bike_id": "073d1e81986ba15a5df6bc17c9650d77", "fusion_lon": 0.0, "lon": -77.02995316666667, "name": "073d1e81986ba15a5df6bc17c9650d77", "is_disabled": 0, "rental_uris": {"android": "https://dc.lft.to/lastmile_qr_scan", "ios": "https://dc.lft.to/lastmile_qr_scan"}, "type": "electric_scooter", "lat": 38.938645666666666, "is_reserved": 0, "fusion_lat": 0.0}, {"bike_id": "fb17de7806fec899a105aed6f0cbfa6b", "fusion_lon": 0.0, "lon": -77.01530616666666, "name": "fb17de7806fec899a105aed6f0cbfa6b", "is_disabled": 0, "rental_uris": {"android": "https://dc.lft.to/lastmile_qr_scan", "ios": "https://dc.lft.to/lastmile_qr_scan"}, "type": "electric_scooter", "lat": 38.887428, "is_reserved": 0, "fusion_lat": 0.0}, {"bike_id": "fb49b38322a146c89b731d76d605521c", "fusion_lon": 0.0, "lon": -77.03226183333334, "name": "fb49b38322a146c89b731d76d605521c", "is_disabled": 0, "rental_uris": {"android": "https://dc.lft.to/lastmile_qr_scan", "ios": "https://dc.lft.to/lastmile_qr_scan"}, "type": "electric_scooter", "lat": 38.916985833333335, "is_reserved": 0, "fusion_lat": 0.0}, {"bike_id": "3348f9bbfc5ab838faaaa6e39b273127", "fusion_lon": 0.0, "lon": -77.01315216666667, "name": "3348f9bbfc5ab838faaaa6e39b273127", "is_disabled": 0, "rental_uris": {"android": "https://dc.lft.to/lastmile_qr_scan", "ios": "https://dc.lft.to/lastmile_qr_scan"}, "type": "electric_scooter", "lat": 38.90741216666667, "is_reserved": 0, "fusion_lat": 0.0}, {"bike_id": "dfb669edd3a7106a88832825cac06041", "fusion_lon": 0.0, "lon": -77.1252725, "name": "dfb669edd3a7106a88832825cac06041", "is_disabled": 0, "rental_uris": {"android": "https://dc.lft.to/lastmile_qr_scan", "ios": "https://dc.lft.to/lastmile_qr_scan"}, "type": "electric_bike", "lat": 39.056319333333334, "is_reserved": 0, "fusion_lat": 0.0}, {"bike_id": "a5e1841d1072dd4595981e72695c5164", "fusion_lon": 0.0, "lon": -77.04687683333333, "name": "a5e1841d1072dd4595981e72695c5164", "is_disabled": 0, "rental_uris": {"android": "https://dc.lft.to/lastmile_qr_scan", "ios": "https://dc.lft.to/lastmile_qr_scan"}, "type": "electric_scooter", "lat": 38.8922405, "is_reserved": 0, "fusion_lat": 0.0}, {"bike_id": "9bbc018c79ee70c226e62b4dd5c36206", "fusion_lon": 0.0, "lon": -77.03843316666666, "name": "9bbc018c79ee70c226e62b4dd5c36206", "is_disabled": 0, "rental_uris": {"android": "https://dc.lft.to/lastmile_qr_scan", "ios": "https://dc.lft.to/lastmile_qr_scan"}, "type": "electric_scooter", "lat": 38.92163466666667, "is_reserved": 0, "fusion_lat": 0.0}, {"bike_id": "ccc4e5c85d07b96823f89e4cf137ac98", "fusion_lon": 0.0, "lon": -77.0437785, "name": "ccc4e5c85d07b96823f89e4cf137ac98", "is_disabled": 0, "rental_uris": {"android": "https://dc.lft.to/lastmile_qr_scan", "ios": "https://dc.lft.to/lastmile_qr_scan"}, "type": "electric_scooter", "lat": 38.90290316666667, "is_reserved": 0, "fusion_lat": 0.0}, {"bike_id": "d5f99499c3830398aa08bc3013e9133a", "fusion_lon": 0.0, "lon": -77.0279535, "name": "d5f99499c3830398aa08bc3013e9133a", "is_disabled": 0, "rental_uris": {"android": "https://dc.lft.to/lastmile_qr_scan", "ios": "https://dc.lft.to/lastmile_qr_scan"}, "type": "electric_scooter", "lat": 38.9634105, "is_reserved": 0, "fusion_lat": 0.0}, {"bike_id": "9a239c52b37735a844c03d0de30ea73d", "fusion_lon": 0.0, "lon": -76.99505216666667, "name": "9a239c52b37735a844c03d0de30ea73d", "is_disabled": 0, "rental_uris": {"android": "https://dc.lft.to/lastmile_qr_scan", "ios": "https://dc.lft.to/lastmile_qr_scan"}, "type": "electric_scooter", "lat": 38.89907316666667, "is_reserved": 0, "fusion_lat": 0.0}, {"bike_id": "f75a5a8579eaf0c15f22be3c3cc6679f", "fusion_lon": 0.0, "lon": -77.02302683333333, "name": "f75a5a8579eaf0c15f22be3c3cc6679f", "is_disabled": 0, "rental_uris": {"android": "https://dc.lft.to/lastmile_qr_scan", "ios": "https://dc.lft.to/lastmile_qr_scan"}, "type": "electric_scooter", "lat": 38.89611283333333, "is_reserved": 0, "fusion_lat": 0.0}, {"bike_id": "5dd0b505dc3cbe2a7262799902262bbd", "fusion_lon": 0.0, "lon": -76.94638583333334, "name": "5dd0b505dc3cbe2a7262799902262bbd", "is_disabled": 0, "rental_uris": {"android": "https://dc.lft.to/lastmile_qr_scan", "ios": "https://dc.lft.to/lastmile_qr_scan"}, "type": "electric_scooter", "lat": 38.89843, "is_reserved": 0, "fusion_lat": 0.0}, {"bike_id": "387093e1fb3448f6859de909577bcfef", "fusion_lon": 0.0, "lon": -76.99731116666666, "name": "387093e1fb3448f6859de909577bcfef", "is_disabled": 0, "rental_uris": {"android": "https://dc.lft.to/lastmile_qr_scan", "ios": "https://dc.lft.to/lastmile_qr_scan"}, "type": "electric_scooter", "lat": 38.907943333333336, "is_reserved": 0, "fusion_lat": 0.0}, {"bike_id": "8aad896793ad3ff2a86fc6ce69b28f12", "fusion_lon": 0.0, "lon": -77.02100966666667, "name": "8aad896793ad3ff2a86fc6ce69b28f12", "is_disabled": 0, "rental_uris": {"android": "https://dc.lft.to/lastmile_qr_scan", "ios": "https://dc.lft.to/lastmile_qr_scan"}, "type": "electric_scooter", "lat": 38.927119833333336, "is_reserved": 0, "fusion_lat": 0.0}, {"bike_id": "2d30bb0f8694f0c5a75299f7fb50849a", "fusion_lon": 0.0, "lon": -77.045569, "name": "2d30bb0f8694f0c5a75299f7fb50849a", "is_disabled": 0, "rental_uris": {"android": "https://dc.lft.to/lastmile_qr_scan", "ios": "https://dc.lft.to/lastmile_qr_scan"}, "type": "electric_scooter", "lat": 38.9193565, "is_reserved": 0, "fusion_lat": 0.0}, {"bike_id": "549c3fad044fe21bb1a4f14acb00cbf2", "fusion_lon": 0.0, "lon": -77.02287516666667, "name": "549c3fad044fe21bb1a4f14acb00cbf2", "is_disabled": 0, "rental_uris": {"android": "https://dc.lft.to/lastmile_qr_scan", "ios": "https://dc.lft.to/lastmile_qr_scan"}, "type": "electric_scooter", "lat": 38.890585333333334, "is_reserved": 0, "fusion_lat": 0.0}, {"bike_id": "cebf76c5a42010ee23d5bcc3fb1a1794", "fusion_lon": 0.0, "lon": -76.89536333333334, "name": "cebf76c5a42010ee23d5bcc3fb1a1794", "is_disabled": 0, "rental_uris": {"android": "https://dc.lft.to/lastmile_qr_scan", "ios": "https://dc.lft.to/lastmile_qr_scan"}, "type": "electric_bike", "lat": 38.945500333333335, "is_reserved": 0, "fusion_lat": 0.0}, {"bike_id": "f80fd7b54789bacfa4357c16965bea5a", "fusion_lon": 0.0, "lon": -77.0344835, "name": "f80fd7b54789bacfa4357c16965bea5a", "is_disabled": 0, "rental_uris": {"android": "https://dc.lft.to/lastmile_qr_scan", "ios": "https://dc.lft.to/lastmile_qr_scan"}, "type": "electric_scooter", "lat": 38.93753366666667, "is_reserved": 0, "fusion_lat": 0.0}, {"bike_id": "bea1edc772085bd2b6d5d9389a3fc325", "fusion_lon": 0.0, "lon": -77.04465116666667, "name": "bea1edc772085bd2b6d5d9389a3fc325", "is_disabled": 0, "rental_uris": {"android": "https://dc.lft.to/lastmile_qr_scan", "ios": "https://dc.lft.to/lastmile_qr_scan"}, "type": "electric_scooter", "lat": 38.911179, "is_reserved": 0, "fusion_lat": 0.0}, {"bike_id": "40e8d285ce3297de1429f73800eb2bac", "fusion_lon": 0.0, "lon": -77.03220116666667, "name": "40e8d285ce3297de1429f73800eb2bac", "is_disabled": 0, "rental_uris": {"android": "https://dc.lft.to/lastmile_qr_scan", "ios": "https://dc.lft.to/lastmile_qr_scan"}, "type": "electric_scooter", "lat": 38.903783833333335, "is_reserved": 0, "fusion_lat": 0.0}, {"bike_id": "055fb77536d83edcdea4177a935e9c7c", "fusion_lon": 0.0, "lon": -77.03784, "name": "055fb77536d83edcdea4177a935e9c7c", "is_disabled": 0, "rental_uris": {"android": "https://dc.lft.to/lastmile_qr_scan", "ios": "https://dc.lft.to/lastmile_qr_scan"}, "type": "electric_scooter", "lat": 38.90960616666667, "is_reserved": 0, "fusion_lat": 0.0}, {"bike_id": "cf6c66aea7e0d0cc51f1795214de7a33", "fusion_lon": 0.0, "lon": -77.02600633333333, "name": "cf6c66aea7e0d0cc51f1795214de7a33", "is_disabled": 0, "rental_uris": {"android": "https://dc.lft.to/lastmile_qr_scan", "ios": "https://dc.lft.to/lastmile_qr_scan"}, "type": "electric_scooter", "lat": 38.90340533333333, "is_reserved": 0, "fusion_lat": 0.0}, {"bike_id": "7d887f9137068f259df81c14f4940242", "fusion_lon": 0.0, "lon": -77.01639433333334, "name": "7d887f9137068f259df81c14f4940242", "is_disabled": 0, "rental_uris": {"android": "https://dc.lft.to/lastmile_qr_scan", "ios": "https://dc.lft.to/lastmile_qr_scan"}, "type": "electric_scooter", "lat": 38.8811125, "is_reserved": 0, "fusion_lat": 0.0}, {"bike_id": "65ef88bcd080329ea3e10e975244e510", "fusion_lon": 0.0, "lon": -77.04541116666667, "name": "65ef88bcd080329ea3e10e975244e510", "is_disabled": 0, "rental_uris": {"android": "https://dc.lft.to/lastmile_qr_scan", "ios": "https://dc.lft.to/lastmile_qr_scan"}, "type": "electric_scooter", "lat": 38.89605183333333, "is_reserved": 0, "fusion_lat": 0.0}, {"bike_id": "540b6b022f30146f7fa9cf485c8007f5", "fusion_lon": 0.0, "lon": -76.9905795, "name": "540b6b022f30146f7fa9cf485c8007f5", "is_disabled": 0, "rental_uris": {"android": "https://dc.lft.to/lastmile_qr_scan", "ios": "https://dc.lft.to/lastmile_qr_scan"}, "type": "electric_scooter", "lat": 38.863629833333334, "is_reserved": 0, "fusion_lat": 0.0}, {"bike_id": "92b5fcfa1a6fb73f25d2bbb9eded5e80", "fusion_lon": 0.0, "lon": -77.066461, "name": "92b5fcfa1a6fb73f25d2bbb9eded5e80", "is_disabled": 0, "rental_uris": {"android": "https://dc.lft.to/lastmile_qr_scan", "ios": "https://dc.lft.to/lastmile_qr_scan"}, "type": "electric_scooter", "lat": 38.9268695, "is_reserved": 0, "fusion_lat": 0.0}, {"bike_id": "59589fbd8d270f7fec52565adfa85a01", "fusion_lon": 0.0, "lon": -76.98582999999999, "name": "59589fbd8d270f7fec52565adfa85a01", "is_disabled": 0, "rental_uris": {"android": "https://dc.lft.to/lastmile_qr_scan", "ios": "https://dc.lft.to/lastmile_qr_scan"}, "type": "electric_bike", "lat": 38.9128065, "is_reserved": 0, "fusion_lat": 0.0}, {"bike_id": "b905f5e12b9a6b6cdf7a28c09c2be366", "fusion_lon": 0.0, "lon": -77.0331895, "name": "b905f5e12b9a6b6cdf7a28c09c2be366", "is_disabled": 0, "rental_uris": {"android": "https://dc.lft.to/lastmile_qr_scan", "ios": "https://dc.lft.to/lastmile_qr_scan"}, "type": "electric_scooter", "lat": 38.91806166666667, "is_reserved": 0, "fusion_lat": 0.0}, {"bike_id": "0e2027cdb62c42151aa1159cf2e0d912", "fusion_lon": 0.0, "lon": -77.02977383333334, "name": "0e2027cdb62c42151aa1159cf2e0d912", "is_disabled": 0, "rental_uris": {"android": "https://dc.lft.to/lastmile_qr_scan", "ios": "https://dc.lft.to/lastmile_qr_scan"}, "type": "electric_scooter", "lat": 38.907754, "is_reserved": 0, "fusion_lat": 0.0}, {"bike_id": "82a674bb868d2d206af58786c37f4cf6", "fusion_lon": 0.0, "lon": -77.03375933333334, "name": "82a674bb868d2d206af58786c37f4cf6", "is_disabled": 0, "rental_uris": {"android": "https://dc.lft.to/lastmile_qr_scan", "ios": "https://dc.lft.to/lastmile_qr_scan"}, "type": "electric_scooter", "lat": 38.90017183333333, "is_reserved": 0, "fusion_lat": 0.0}, {"bike_id": "4bf60691e9a433bbc68ff8085e3943bd", "fusion_lon": 0.0, "lon": -77.0414355, "name": "4bf60691e9a433bbc68ff8085e3943bd", "is_disabled": 0, "rental_uris": {"android": "https://dc.lft.to/lastmile_qr_scan", "ios": "https://dc.lft.to/lastmile_qr_scan"}, "type": "electric_scooter", "lat": 38.8934905, "is_reserved": 0, "fusion_lat": 0.0}, {"bike_id": "9cc1226f04991ca4a3a4a76b29cdcebe", "fusion_lon": 0.0, "lon": -77.03065416666666, "name": "9cc1226f04991ca4a3a4a76b29cdcebe", "is_disabled": 0, "rental_uris": {"android": "https://dc.lft.to/lastmile_qr_scan", "ios": "https://dc.lft.to/lastmile_qr_scan"}, "type": "electric_scooter", "lat": 38.885941, "is_reserved": 0, "fusion_lat": 0.0}, {"bike_id": "bbbe99b4de67d7552d74329c6be55cc0", "fusion_lon": 0.0, "lon": -77.025028, "name": "bbbe99b4de67d7552d74329c6be55cc0", "is_disabled": 0, "rental_uris": {"android": "https://dc.lft.to/lastmile_qr_scan", "ios": "https://dc.lft.to/lastmile_qr_scan"}, "type": "electric_scooter", "lat": 38.906528333333334, "is_reserved": 0, "fusion_lat": 0.0}, {"bike_id": "95d5d6cd5c6fbd505b9a2156908f9860", "fusion_lon": 0.0, "lon": -77.01746316666667, "name": "95d5d6cd5c6fbd505b9a2156908f9860", "is_disabled": 0, "rental_uris": {"android": "https://dc.lft.to/lastmile_qr_scan", "ios": "https://dc.lft.to/lastmile_qr_scan"}, "type": "electric_scooter", "lat": 38.877754, "is_reserved": 0, "fusion_lat": 0.0}, {"bike_id": "37d44d1a2715ec194bd9b694d7933910", "fusion_lon": 0.0, "lon": -77.04462566666666, "name": "37d44d1a2715ec194bd9b694d7933910", "is_disabled": 0, "rental_uris": {"android": "https://dc.lft.to/lastmile_qr_scan", "ios": "https://dc.lft.to/lastmile_qr_scan"}, "type": "electric_scooter", "lat": 38.911872833333334, "is_reserved": 0, "fusion_lat": 0.0}, {"bike_id": "e67a0fbfa44ea3999f7e56f49af535bd", "fusion_lon": 0.0, "lon": -77.0433585, "name": "e67a0fbfa44ea3999f7e56f49af535bd", "is_disabled": 0, "rental_uris": {"android": "https://dc.lft.to/lastmile_qr_scan", "ios": "https://dc.lft.to/lastmile_qr_scan"}, "type": "electric_scooter", "lat": 38.895269666666664, "is_reserved": 0, "fusion_lat": 0.0}, {"bike_id": "df16ca33b1ba4f9bf78f10c708470856", "fusion_lon": 0.0, "lon": -77.032003, "name": "df16ca33b1ba4f9bf78f10c708470856", "is_disabled": 0, "rental_uris": {"android": "https://dc.lft.to/lastmile_qr_scan", "ios": "https://dc.lft.to/lastmile_qr_scan"}, "type": "electric_scooter", "lat": 38.917387, "is_reserved": 0, "fusion_lat": 0.0}, {"bike_id": "920b7f307dce23fa11327b9f3673b46c", "fusion_lon": 0.0, "lon": -76.99527833333333, "name": "920b7f307dce23fa11327b9f3673b46c", "is_disabled": 0, "rental_uris": {"android": "https://dc.lft.to/lastmile_qr_scan", "ios": "https://dc.lft.to/lastmile_qr_scan"}, "type": "electric_scooter", "lat": 38.920662166666666, "is_reserved": 0, "fusion_lat": 0.0}, {"bike_id": "4663edf74abc58c07d7b37e50d9ee470", "fusion_lon": 0.0, "lon": -77.07305683333334, "name": "4663edf74abc58c07d7b37e50d9ee470", "is_disabled": 0, "rental_uris": {"android": "https://dc.lft.to/lastmile_qr_scan", "ios": "https://dc.lft.to/lastmile_qr_scan"}, "type": "electric_scooter", "lat": 38.92879466666667, "is_reserved": 0, "fusion_lat": 0.0}, {"bike_id": "32161c8b6061dfff31a54cb80567bb48", "fusion_lon": 0.0, "lon": -76.999472, "name": "32161c8b6061dfff31a54cb80567bb48", "is_disabled": 0, "rental_uris": {"android": "https://dc.lft.to/lastmile_qr_scan", "ios": "https://dc.lft.to/lastmile_qr_scan"}, "type": "electric_scooter", "lat": 38.8429505, "is_reserved": 0, "fusion_lat": 0.0}, {"bike_id": "f9ca453d02d5895b821f8a13d7a76dee", "fusion_lon": 0.0, "lon": -77.02811133333333, "name": "f9ca453d02d5895b821f8a13d7a76dee", "is_disabled": 0, "rental_uris": {"android": "https://dc.lft.to/lastmile_qr_scan", "ios": "https://dc.lft.to/lastmile_qr_scan"}, "type": "electric_scooter", "lat": 38.9168275, "is_reserved": 0, "fusion_lat": 0.0}, {"bike_id": "0eda38cbaf8017441c728eb38c0adca9", "fusion_lon": 0.0, "lon": -76.99798066666666, "name": "0eda38cbaf8017441c728eb38c0adca9", "is_disabled": 0, "rental_uris": {"android": "https://dc.lft.to/lastmile_qr_scan", "ios": "https://dc.lft.to/lastmile_qr_scan"}, "type": "electric_bike", "lat": 38.9564265, "is_reserved": 0, "fusion_lat": 0.0}, {"bike_id": "0ca3c2ef4bf51fe893dcff1d93727208", "fusion_lon": 0.0, "lon": -77.00742683333333, "name": "0ca3c2ef4bf51fe893dcff1d93727208", "is_disabled": 0, "rental_uris": {"android": "https://dc.lft.to/lastmile_qr_scan", "ios": "https://dc.lft.to/lastmile_qr_scan"}, "type": "electric_scooter", "lat": 38.8774255, "is_reserved": 0, "fusion_lat": 0.0}, {"bike_id": "505346ea2bd129662f338c71dacabf20", "fusion_lon": 0.0, "lon": -77.043909, "name": "505346ea2bd129662f338c71dacabf20", "is_disabled": 0, "rental_uris": {"android": "https://dc.lft.to/lastmile_qr_scan", "ios": "https://dc.lft.to/lastmile_qr_scan"}, "type": "electric_scooter", "lat": 38.910864333333336, "is_reserved": 0, "fusion_lat": 0.0}, {"bike_id": "ada95ca3b5dfbc1902a916da490e2802", "fusion_lon": 0.0, "lon": -77.06754216666667, "name": "ada95ca3b5dfbc1902a916da490e2802", "is_disabled": 0, "rental_uris": {"android": "https://dc.lft.to/lastmile_qr_scan", "ios": "https://dc.lft.to/lastmile_qr_scan"}, "type": "electric_scooter", "lat": 38.906791166666665, "is_reserved": 0, "fusion_lat": 0.0},