{"data": {"bikes": [{"name": "471c78b3e33303692d113898990b5f7c", "fusion_lat": 0.0, "type": "electric_scooter", "lat": 38.92779733333333, "is_reserved": 0, "is_disabled": 0, "fusion_lon": 0.0, "bike_id": "471c78b3e33303692d113898990b5f7c", "lon": -77.02658316666667, "rental_uris": {"ios": "https://dc.lft.to/lastmile_qr_scan", "android": "https://dc.lft.to/lastmile_qr_scan"}}, {"name": "08794522f359e915563242d99d7a1f15", "fusion_lat": 0.0, "type": "electric_scooter", "lat": 38.92014233333333, "is_reserved": 0, "is_disabled": 0, "fusion_lon": 0.0, "bike_id": "08794522f359e915563242d99d7a1f15", "lon": -77.03971483333333, "rental_uris": {"ios": "https://dc.lft.to/lastmile_qr_scan", "android": "https://dc.lft.to/lastmile_qr_scan"}}, {"name": "861a6fb6deb51ae95796ea75b88951bd", "fusion_lat": 0.0, "type": "electric_scooter", "lat": 38.87241433333333, "is_reserved": 0, "is_disabled": 0, "fusion_lon": 0.0, "bike_id": "861a6fb6deb51ae95796ea75b88951bd", "lon": -77.01168083333333, "rental_uris": {"ios": "https://dc.lft.to/lastmile_qr_scan", "android": "https://dc.lft.to/lastmile_qr_scan"}}, {"name": "e4d8a6bb7a923fc86d9f53d19c179e38", "fusion_lat": 0.0, "type": "electric_scooter", "lat": 38.92235983333333, "is_reserved": 0, "is_disabled": 0, "fusion_lon": 0.0, "bike_id": "e4d8a6bb7a923fc86d9f53d19c179e38", "lon": -77.0449125, "rental_uris": {"ios": "https://dc.lft.to/lastmile_qr_scan", "android": "https://dc.lft.to/lastmile_qr_scan"}}, {"name": "affd0810385c43c31f37fc51e00e3237", "fusion_lat": 0.0, "type": "electric_scooter", "lat": 38.90026, "is_reserved": 0, "is_disabled": 0, "fusion_lon": 0.0, "bike_id": "affd0810385c43c31f37fc51e00e3237", "lon": -76.98850983333334, "rental_uris": {"ios": "https://dc.lft.to/lastmile_qr_scan", "android": "https://dc.lft.to/lastmile_qr_scan"}}, {"name": "25eef2bb3a6444157273107ab1391ca5", "fusion_lat": 0.0, "type": "electric_scooter", "lat": 38.87082, "is_reserved": 0, "is_disabled": 0, "fusion_lon": 0.0, "bike_id": "25eef2bb3a6444157273107ab1391ca5", "lon": -76.96862816666666, "rental_uris": {"ios": "https://dc.lft.to/lastmile_qr_scan", "android": "https://dc.lft.to/lastmile_qr_scan"}}, {"name": "c2011eac8da8dcb0f94779bec205b028", "fusion_lat": 0.0, "type": "electric_scooter", "lat": 38.8843475, "is_reserved": 0, "is_disabled": 0, "fusion_lon": 0.0, "bike_id": "c2011eac8da8dcb0f94779bec205b028", "lon": -76.99594366666666, "rental_uris": {"ios": "https://dc.lft.to/lastmile_qr_scan", "android": "https://dc.lft.to/lastmile_qr_scan"}}, {"name": "e0d2c7e665526d19568dec21d68db4cc", "fusion_lat": 0.0, "type": "electric_bike", "lat": 39.03055716666667, "is_reserved": 0, "is_disabled": 0, "fusion_lon": 0.0, "bike_id": "e0d2c7e665526d19568dec21d68db4cc", "lon": -77.09486583333333, "rental_uris": {"ios": "https://dc.lft.to/lastmile_qr_scan", "android": "https://dc.lft.to/lastmile_qr_scan"}}, {"name": "11704d4cc000f1eec691386586a17e43", "fusion_lat": 0.0, "type": "electric_scooter", "lat": 38.900202666666665, "is_reserved": 0, "is_disabled": 0, "fusion_lon": 0.0, "bike_id": "11704d4cc000f1eec691386586a17e43", "lon": -76.998326, "rental_uris": {"ios": "https://dc.lft.to/lastmile_qr_scan", "android": "https://dc.lft.to/lastmile_qr_scan"}}, {"name": "7a9fe2af2ab4c3b7e2100a1215fcfe72", "fusion_lat": 0.0, "type": "electric_scooter", "lat": 38.90648683333333, "is_reserved": 0, "is_disabled": 0, "fusion_lon": 0.0, "bike_id": "7a9fe2af2ab4c3b7e2100a1215fcfe72", "lon": -77.014162, "rental_uris": {"ios": "https://dc.lft.to/lastmile_qr_scan", "android": "https://dc.lft.to/lastmile_qr_scan"}}, {"name": "a639f9b318b396b410d9a0d9552b06ea", "fusion_lat": 0.0, "type": "electric_scooter", "lat": 38.895961, "is_reserved": 0, "is_disabled": 0, "fusion_lon": 0.0, "bike_id": "a639f9b318b396b410d9a0d9552b06ea", "lon": -77.04132816666667, "rental_uris": {"ios": "https://dc.lft.to/lastmile_qr_scan", "android": "https://dc.lft.to/lastmile_qr_scan"}}, {"name": "8915e1f4d1c3a16a8bd8f04c015e651e", "fusion_lat": 0.0, "type": "electric_scooter", "lat": 38.92628916666666, "is_reserved": 0, "is_disabled": 0, "fusion_lon": 0.0, "bike_id": "8915e1f4d1c3a16a8bd8f04c015e651e", "lon": -77.0371025, "rental_uris": {"ios": "https://dc.lft.to/lastmile_qr_scan", "android": "https://dc.lft.to/lastmile_qr_scan"}}, {"name": "f9b60caae0c700986fe5a5ccfd9b84e0", "fusion_lat": 0.0, "type": "electric_scooter", "lat": 38.90564533333333, "is_reserved": 0, "is_disabled": 0, "fusion_lon": 0.0, "bike_id": "f9b60caae0c700986fe5a5ccfd9b84e0", "lon": -77.034462, "rental_uris": {"ios": "https://dc.lft.to/lastmile_qr_scan", "android": "https://dc.lft.to/lastmile_qr_scan"}}, {"name": "2bf305a8bc97fcfe09829b7e08bd21ea", "fusion_lat": 0.0, "type": "electric_scooter", "lat": 38.956482, "is_reserved": 0, "is_disabled": 0, "fusion_lon": 0.0, "bike_id": "2bf305a8bc97fcfe09829b7e08bd21ea", "lon": -77.0328935, "rental_uris": {"ios": "https://dc.lft.to/lastmile_qr_scan", "android": "https://dc.lft.to/lastmile_qr_scan"}}, {"name": "86bca36936efcba55f25ae612adeeb20", "fusion_lat": 0.0, "type": "electric_scooter", "lat": 38.9018865, "is_reserved": 0, "is_disabled": 0, "fusion_lon": 0.0, "bike_id": "86bca36936efcba55f25ae612adeeb20", "lon": -77.02531383333333, "rental_uris": {"ios": "https://dc.lft.to/lastmile_qr_scan", "android": "https://dc.lft.to/lastmile_qr_scan"}}, {"name": "6b7540d2d3abf61eec2fb52be476f80f", "fusion_lat": 0.0, "type": "electric_scooter", "lat": 38.92208733333333, "is_reserved": 0, "is_disabled": 0, "fusion_lon": 0.0, "bike_id": "6b7540d2d3abf61eec2fb52be476f80f", "lon": -76.98747266666666, "rental_uris": {"ios": "https://dc.lft.to/lastmile_qr_scan", "android": "https://dc.lft.to/lastmile_qr_scan"}}, {"name": "95e7c63dfd9f113f646af695f0e7a875", "fusion_lat": 0.0, "type": "electric_scooter", "lat": 38.93198366666667, "is_reserved": 0, "is_disabled": 0, "fusion_lon": 0.0, "bike_id": "95e7c63dfd9f113f646af695f0e7a875", "lon": -77.036665, "rental_uris": {"ios": "https://dc.lft.to/lastmile_qr_scan", "android": "https://dc.lft.to/lastmile_qr_scan"}}, {"name": "527cb96a1a6f9b518efba699ce9ea344", "fusion_lat": 0.0, "type": "electric_scooter", "lat": 38.95907966666667, "is_reserved": 0, "is_disabled": 0, "fusion_lon": 0.0, "bike_id": "527cb96a1a6f9b518efba699ce9ea344", "lon": -77.08082283333333, "rental_uris": {"ios": "https://dc.lft.to/lastmile_qr_scan", "android": "https://dc.lft.to/lastmile_qr_scan"}}, {"name": "4eefa44cc99cccfcca678bae8f03f762", "fusion_lat": 0.0, "type": "electric_scooter", "lat": 38.92482583333334, "is_reserved": 0, "is_disabled": 0, "fusion_lon": 0.0, "bike_id": "4eefa44cc99cccfcca678bae8f03f762", "lon": -77.05213266666667, "rental_uris": {"ios": "https://dc.lft.to/lastmile_qr_scan", "android": "https://dc.lft.to/lastmile_qr_scan"}}, {"name": "4e6dbaeccde72aadfa21155c01ac104d", "fusion_lat": 0.0, "type": "electric_scooter", "lat": 38.912697666666666, "is_reserved": 0, "is_disabled": 0, "fusion_lon": 0.0, "bike_id": "4e6dbaeccde72aadfa21155c01ac104d", "lon": -77.0318055, "rental_uris": {"ios": "https://dc.lft.to/lastmile_qr_scan", "android": "https://dc.lft.to/lastmile_qr_scan"}}, {"name": "4e8ff31192044625ca738fb7759e304b", "fusion_lat": 0.0, "type": "electric_bike", "lat": 39.003795, "is_reserved": 0, "is_disabled": 0, "fusion_lon": 0.0, "bike_id": "4e8ff31192044625ca738fb7759e304b", "lon": -77.01296716666667, "rental_uris": {"ios": "https://dc.lft.to/lastmile_qr_scan", "android": "https://dc.lft.to/lastmile_qr_scan"}}, {"name": "b3d8e71a6474ce5bdeec5b514bc0c026", "fusion_lat": 0.0, "type": "electric_bike", "lat": 38.80794183333333, "is_reserved": 0, "is_disabled": 0, "fusion_lon": 0.0, "bike_id": "b3d8e71a6474ce5bdeec5b514bc0c026", "lon": -77.12968433333333, "rental_uris": {"ios": "https://dc.lft.to/lastmile_qr_scan", "android": "https://dc.lft.to/lastmile_qr_scan"}}, {"name": "a3683a16fac9e453dbe51d07c834e231", "fusion_lat": 0.0, "type": "electric_scooter", "lat": 38.857900666666666, "is_reserved": 0, "is_disabled": 0, "fusion_lon": 0.0, "bike_id": "a3683a16fac9e453dbe51d07c834e231", "lon": -76.99093966666666, "rental_uris": {"ios": "https://dc.lft.to/lastmile_qr_scan", "android": "https://dc.lft.to/lastmile_qr_scan"}}, {"name": "eb7f35fe66b637b3add033a640aec2b2", "fusion_lat": 0.0, "type": "electric_scooter", "lat": 38.90003216666667, "is_reserved": 0, "is_disabled": 0, "fusion_lon": 0.0, "bike_id": "eb7f35fe66b637b3add033a640aec2b2", "lon": -77.027241, "rental_uris": {"ios": "https://dc.lft.to/lastmile_qr_scan", "android": "https://dc.lft.to/lastmile_qr_scan"}}, {"name": "2024e40c8e38762a20b41480bf18a510", "fusion_lat": 0.0, "type": "electric_scooter", "lat": 38.921185333333334, "is_reserved": 0, "is_disabled": 0, "fusion_lon": 0.0, "bike_id": "2024e40c8e38762a20b41480bf18a510", "lon": -77.03657616666666, "rental_uris": {"ios": "https://dc.lft.to/lastmile_qr_scan", "android": "https://dc.lft.to/lastmile_qr_scan"}}, {"name": "2d5de6743598623de66d42890e240d70", "fusion_lat": 0.0, "type": "electric_bike", "lat": 38.905307, "is_reserved": 0, "is_disabled": 0, "fusion_lon": 0.0, "bike_id": "2d5de6743598623de66d42890e240d70", "lon": -76.9980715, "rental_uris": {"ios": "https://dc.lft.to/lastmile_qr_scan", "android": "https://dc.lft.to/lastmile_qr_scan"}}, {"name": "915c56518b832c50f85efe89f702ae13", "fusion_lat": 0.0, "type": "electric_bike", "lat": 38.99088883333334, "is_reserved": 0, "is_disabled": 0, "fusion_lon": 0.0, "bike_id": "915c56518b832c50f85efe89f702ae13", "lon": -76.874957, "rental_uris": {"ios": "https://dc.lft.to/lastmile_qr_scan", "android": "https://dc.lft.to/lastmile_qr_scan"}}, {"name": "d4ebfe005b2aa4ad91441a100d56ace3", "fusion_lat": 0.0, "type": "electric_scooter", "lat": 38.909233666666665, "is_reserved": 0, "is_disabled": 0, "fusion_lon": 0.0, "bike_id": "d4ebfe005b2aa4ad91441a100d56ace3", "lon": -77.04162416666667, "rental_uris": {"ios": "https://dc.lft.to/lastmile_qr_scan", "android": "https://dc.lft.to/lastmile_qr_scan"}}, {"name": "316625b318f796b927d9a664b1708b64", "fusion_lat": 0.0, "type": "electric_scooter", "lat": 38.908617, "is_reserved": 0, "is_disabled": 0, "fusion_lon": 0.0, "bike_id": "316625b318f796b927d9a664b1708b64", "lon": -77.02710166666667, "rental_uris": {"ios": "https://dc.lft.to/lastmile_qr_scan", "android": "https://dc.lft.to/lastmile_qr_scan"}}, {"name": "7aa36dc81083c084591af67fc9e3e990", "fusion_lat": 0.0, "type": "electric_scooter", "lat": 38.917046166666665, "is_reserved": 0, "is_disabled": 0, "fusion_lon": 0.0, "bike_id": "7aa36dc81083c084591af67fc9e3e990", "lon": -77.03888333333333, "rental_uris": {"ios": "https://dc.lft.to/lastmile_qr_scan", "android": "https://dc.lft.to/lastmile_qr_scan"}}, {"name": "168b12f49c728cdbd843e51b5fc428d1", "fusion_lat": 0.0, "type": "electric_scooter", "lat": 38.902712, "is_reserved": 0, "is_disabled": 0, "fusion_lon": 0.0, "bike_id": "168b12f49c728cdbd843e51b5fc428d1", "lon": -77.03843433333333, "rental_uris": {"ios": "https://dc.lft.to/lastmile_qr_scan", "android": "https://dc.lft.to/lastmile_qr_scan"}}, {"name": "018e04225efada8fd8d0a8f08410c049", "fusion_lat": 0.0, "type": "electric_scooter", "lat": 38.907490333333335, "is_reserved": 0, "is_disabled": 0, "fusion_lon": 0.0, "bike_id": "018e04225efada8fd8d0a8f08410c049", "lon": -77.03096566666666, "rental_uris": {"ios": "https://dc.lft.to/lastmile_qr_scan", "android": "https://dc.lft.to/lastmile_qr_scan"}}, {"name": "7160bf0a3379a9abce6098ae8d36e63a", "fusion_lat": 0.0, "type": "electric_bike", "lat": 38.89288783333333, "is_reserved": 0, "is_disabled": 0, "fusion_lon": 0.0, "bike_id": "7160bf0a3379a9abce6098ae8d36e63a", "lon": -76.98555183333333, "rental_uris": {"ios": "https://dc.lft.to/lastmile_qr_scan", "android": "https://dc.lft.to/lastmile_qr_scan"}}, {"name": "7acc6e31e6e30bb7fdb31831e45c5ce6", "fusion_lat": 0.0, "type": "electric_scooter", "lat": 38.91338366666667, "is_reserved": 0, "is_disabled": 0, "fusion_lon": 0.0, "bike_id": "7acc6e31e6e30bb7fdb31831e45c5ce6", "lon": -77.03446766666667, "rental_uris": {"ios": "https://dc.lft.to/lastmile_qr_scan", "android": "https://dc.lft.to/lastmile_qr_scan"}}, {"name": "c1a9c1e10a37a1825a669e36648aa3e9", "fusion_lat": 0.0, "type": "electric_scooter", "lat": 38.90729966666667, "is_reserved": 0, "is_disabled": 0, "fusion_lon": 0.0, "bike_id": "c1a9c1e10a37a1825a669e36648aa3e9", "lon": -77.02975183333334, "rental_uris": {"ios": "https://dc.lft.to/lastmile_qr_scan", "android": "https://dc.lft.to/lastmile_qr_scan"}}, {"name": "c4d06252cd0130454b2c516943dc8635", "fusion_lat": 0.0, "type": "electric_bike", "lat": 38.8804265, "is_reserved": 0, "is_disabled": 0, "fusion_lon": 0.0, "bike_id": "c4d06252cd0130454b2c516943dc8635", "lon": -77.01324466666667, "rental_uris": {"ios": "https://dc.lft.to/lastmile_qr_scan", "android": "https://dc.lft.to/lastmile_qr_scan"}}, {"name": "1c2f97e941ab0c8775557ae3cf390442", "fusion_lat": 0.0, "type": "electric_scooter", "lat": 38.924332166666666, "is_reserved": 0, "is_disabled": 0, "fusion_lon": 0.0, "bike_id": "1c2f97e941ab0c8775557ae3cf390442", "lon": -77.0298265, "rental_uris": {"ios": "https://dc.lft.to/lastmile_qr_scan", "android": "https://dc.lft.to/lastmile_qr_scan"}}, {"name": "4f55fd7ee73f33703f706b5509b26379", "fusion_lat": 0.0, "type": "electric_bike", "lat": 38.852293833333334, "is_reserved": 0, "is_disabled": 0, "fusion_lon": 0.0, "bike_id": "4f55fd7ee73f33703f706b5509b26379", "lon": -77.10336716666667, "rental_uris": {"ios": "https://dc.lft.to/lastmile_qr_scan", "android": "https://dc.lft.to/lastmile_qr_scan"}}, {"name": "3507e006847d06fc847ad700110e7087", "fusion_lat": 0.0, "type": "electric_scooter", "lat": 38.949565666666665, "is_reserved": 0, "is_disabled": 0, "fusion_lon": 0.0, "bike_id": "3507e006847d06fc847ad700110e7087", "lon": -77.02724416666666, "rental_uris": {"ios": "https://dc.lft.to/lastmile_qr_scan", "android": "https://dc.lft.to/lastmile_qr_scan"}}, {"name": "db190b374ea176e0d0e814d251bb7381", "fusion_lat": 0.0, "type": "electric_scooter", "lat": 38.91559983333333, "is_reserved": 0, "is_disabled": 0, "fusion_lon": 0.0, "bike_id": "db190b374ea176e0d0e814d251bb7381", "lon": -77.039123, "rental_uris": {"ios": "https://dc.lft.to/lastmile_qr_scan", "android": "https://dc.lft.to/lastmile_qr_scan"}}, {"name": "a84a648aff286af28f6767445d975c49", "fusion_lat": 0.0, "type": "electric_scooter", "lat": 38.929288, "is_reserved": 0, "is_disabled": 0, "fusion_lon": 0.0, "bike_id": "a84a648aff286af28f6767445d975c49", "lon": -77.01966116666667, "rental_uris": {"ios": "https://dc.lft.to/lastmile_qr_scan", "android": "https://dc.lft.to/lastmile_qr_scan"}}, {"name": "6b3a254c3b9e06943f98cf6d24153dc7", "fusion_lat": 0.0, "type": "electric_scooter", "lat": 38.939521666666664, "is_reserved": 0, "is_disabled": 0, "fusion_lon": 0.0, "bike_id": "6b3a254c3b9e06943f98cf6d24153dc7", "lon": -77.03265566666667, "rental_uris": {"ios": "https://dc.lft.to/lastmile_qr_scan", "android": "https://dc.lft.to/lastmile_qr_scan"}}, {"name": "d3cc90bc80c746cb245b14dad4080e6d", "fusion_lat": 0.0, "type": "electric_scooter", "lat": 38.921260333333336, "is_reserved": 0, "is_disabled": 0, "fusion_lon": 0.0, "bike_id": "d3cc90bc80c746cb245b14dad4080e6d", "lon": -77.03664783333333, "rental_uris": {"ios": "https://dc.lft.to/lastmile_qr_scan", "android": "https://dc.lft.to/lastmile_qr_scan"}}, {"name": "32979e10487369baf9d4398d19a740f6", "fusion_lat": 0.0, "type": "electric_scooter", "lat": 38.929445333333334, "is_reserved": 0, "is_disabled": 0, "fusion_lon": 0.0, "bike_id": "32979e10487369baf9d4398d19a740f6", "lon": -77.03472416666666, "rental_uris": {"ios": "https://dc.lft.to/lastmile_qr_scan", "android": "https://dc.lft.to/lastmile_qr_scan"}}, {"name": "126e738690c926064e68c5497aa8c49b", "fusion_lat": 0.0, "type": "electric_scooter", "lat": 38.852002666666664, "is_reserved": 0, "is_disabled": 0, "fusion_lon": 0.0, "bike_id": "126e738690c926064e68c5497aa8c49b", "lon": -76.985604, "rental_uris": {"ios": "https://dc.lft.to/lastmile_qr_scan", "android": "https://dc.lft.to/lastmile_qr_scan"}}, {"name": "a346f45b68286b7d27b062ed57b66115", "fusion_lat": 0.0, "type": "electric_scooter", "lat": 38.90267083333333, "is_reserved": 0, "is_disabled": 0, "fusion_lon": 0.0, "bike_id": "a346f45b68286b7d27b062ed57b66115", "lon": -77.04371816666666, "rental_uris": {"ios": "https://dc.lft.to/lastmile_qr_scan", "android": "https://dc.lft.to/lastmile_qr_scan"}}, {"name": "14495e721584147d423509fded632539", "fusion_lat": 0.0, "type": "electric_scooter", "lat": 38.91113466666667, "is_reserved": 0, "is_disabled": 0, "fusion_lon": 0.0, "bike_id": "14495e721584147d423509fded632539", "lon": -77.03716666666666, "rental_uris": {"ios": "https://dc.lft.to/lastmile_qr_scan", "android": "https://dc.lft.to/lastmile_qr_scan"}}, {"name": "2203337ec4a05014b90ff0c5944266c3", "fusion_lat": 0.0, "type": "electric_scooter", "lat": 38.905866, "is_reserved": 0, "is_disabled": 0, "fusion_lon": 0.0, "bike_id": "2203337ec4a05014b90ff0c5944266c3", "lon": -77.07011033333333, "rental_uris": {"ios": "https://dc.lft.to/lastmile_qr_scan", "android": "https://dc.lft.to/lastmile_qr_scan"}}, {"name": "a6859844879fd2f3b0ec805f3f743709", "fusion_lat": 0.0, "type": "electric_scooter", "lat": 38.90366183333333, "is_reserved": 0, "is_disabled": 0, "fusion_lon": 0.0, "bike_id": "a6859844879fd2f3b0ec805f3f743709", "lon": -77.03991833333333, "rental_uris": {"ios": "https://dc.lft.to/lastmile_qr_scan", "android": "https://dc.lft.to/lastmile_qr_scan"}}, {"name": "92e056244792547667d15fc70bc8b0e4", "fusion_lat": 0.0, "type": "electric_scooter", "lat": 38.937797, "is_reserved": 0, "is_disabled": 0, "fusion_lon": 0.0, "bike_id": "92e056244792547667d15fc70bc8b0e4", "lon": -77.059944, "rental_uris": {"ios": "https://dc.lft.to/lastmile_qr_scan", "android": "https://dc.lft.to/lastmile_qr_scan"}}, {"name": "859154baf6e7c684d8bb3b5bd16e7003", "fusion_lat": 0.0, "type": "electric_scooter", "lat": 38.92206066666667, "is_reserved": 0, "is_disabled": 0, "fusion_lon": 0.0, "bike_id": "859154baf6e7c684d8bb3b5bd16e7003", "lon": -77.04238783333334, "rental_uris": {"ios": "https://dc.lft.to/lastmile_qr_scan", "android": "https://dc.lft.to/lastmile_qr_scan"}}, {"name": "9d97bd972bee49eef4aff4bc807a6c1d", "fusion_lat": 0.0, "type": "electric_bike", "lat": 38.990573166666664, "is_reserved": 0, "is_disabled": 0, "fusion_lon": 0.0, "bike_id": "9d97bd972bee49eef4aff4bc807a6c1d", "lon": -77.1002945, "rental_uris": {"ios": "https://dc.lft.to/lastmile_qr_scan", "android": "https://dc.lft.to/lastmile_qr_scan"}}, {"name": "0f4666d35508aa98037156e0f09b2f1c", "fusion_lat": 0.0, "type": "electric_scooter", "lat": 38.938343, "is_reserved": 0, "is_disabled": 0, "fusion_lon": 0.0, "bike_id": "0f4666d35508aa98037156e0f09b2f1c", "lon": -77.024741, "rental_uris": {"ios": "https://dc.lft.to/lastmile_qr_scan", "android": "https://dc.lft.to/lastmile_qr_scan"}}, {"name": "3574fcd06a0ce5ad6143d66a5a9df173", "fusion_lat": 0.0, "type": "electric_scooter", "lat": 38.876475666666664, "is_reserved": 0, "is_disabled": 0, "fusion_lon": 0.0, "bike_id": "3574fcd06a0ce5ad6143d66a5a9df173", "lon": -76.96506966666666, "rental_uris": {"ios": "https://dc.lft.to/lastmile_qr_scan", "android": "https://dc.lft.to/lastmile_qr_scan"}}, {"name": "1c01aa07bfb58f909710de1fe3b19dbb", "fusion_lat": 0.0, "type": "electric_scooter", "lat": 38.857973333333334, "is_reserved": 0, "is_disabled": 0, "fusion_lon": 0.0, "bike_id": "1c01aa07bfb58f909710de1fe3b19dbb", "lon": -76.98648916666667, "rental_uris": {"ios": "https://dc.lft.to/lastmile_qr_scan", "android": "https://dc.lft.to/lastmile_qr_scan"}}, {"name": "0298abd8b9db815cac2f4692590841a5", "fusion_lat": 0.0, "type": "electric_scooter", "lat": 38.899990833333334, "is_reserved": 0, "is_disabled": 0, "fusion_lon": 0.0, "bike_id": "0298abd8b9db815cac2f4692590841a5", "lon": -77.02721383333333, "rental_uris": {"ios": "https://dc.lft.to/lastmile_qr_scan", "android": "https://dc.lft.to/lastmile_qr_scan"}}, {"name": "2d4de203ec88239f9cdb38c447a75a64", "fusion_lat": 0.0, "type": "electric_bike", "lat": 38.99819516666667, "is_reserved": 0, "is_disabled": 0, "fusion_lon": 0.0, "bike_id": "2d4de203ec88239f9cdb38c447a75a64", "lon": -76.883755, "rental_uris": {"ios": "https://dc.lft.to/lastmile_qr_scan", "android": "https://dc.lft.to/lastmile_qr_scan"}}, {"name": "a31a08ce891e473cf5c1a9baa8dbf6d9", "fusion_lat": 0.0, "type": "electric_bike", "lat": 38.94902533333333, "is_reserved": 0, "is_disabled": 0, "fusion_lon": 0.0, "bike_id": "a31a08ce891e473cf5c1a9baa8dbf6d9", "lon": -76.96375283333333, "rental_uris": {"ios": "https://dc.lft.to/lastmile_qr_scan", "android": "https://dc.lft.to/lastmile_qr_scan"}}, {"name": "2c30723b00436234354b8d17d31a210a", "fusion_lat": 0.0, "type": "electric_scooter", "lat": 38.874225, "is_reserved": 0, "is_disabled": 0, "fusion_lon": 0.0, "bike_id": "2c30723b00436234354b8d17d31a210a", "lon": -76.97182833333333, "rental_uris": {"ios": "https://dc.lft.to/lastmile_qr_scan", "android": "https://dc.lft.to/lastmile_qr_scan"}}, {"name": "36ffdea798851612a931d490b9e042d3", "fusion_lat": 0.0, "type": "electric_scooter", "lat": 38.836005, "is_reserved": 0, "is_disabled": 0, "fusion_lon": 0.0, "bike_id": "36ffdea798851612a931d490b9e042d3", "lon": -76.99364516666667, "rental_uris": {"ios": "https://dc.lft.to/lastmile_qr_scan", "android": "https://dc.lft.to/lastmile_qr_scan"}}, {"name": "371269e1edc6c644385ab20979ec32cb", "fusion_lat": 0.0, "type": "electric_bike", "lat": 38.863892, "is_reserved": 0, "is_disabled": 0, "fusion_lon": 0.0, "bike_id": "371269e1edc6c644385ab20979ec32cb", "lon": -76.98991383333333, "rental_uris": {"ios": "https://dc.lft.to/lastmile_qr_scan", "android": "https://dc.lft.to/lastmile_qr_scan"}}, {"name": "8b6b3075fa554b8f3a67c97b308918ab", "fusion_lat": 0.0, "type": "electric_scooter", "lat": 38.9184485, "is_reserved": 0, "is_disabled": 0, "fusion_lon": 0.0, "bike_id": "8b6b3075fa554b8f3a67c97b308918ab", "lon": -77.0260625, "rental_uris": {"ios": "https://dc.lft.to/lastmile_qr_scan", "android": "https://dc.lft.to/lastmile_qr_scan"}}, {"name": "3b61105783c95df8165b0f05e97c9eb2", "fusion_lat": 0.0, "type": "electric_scooter", "lat": 38.898773166666665, "is_reserved": 0, "is_disabled": 0, "fusion_lon": 0.0, "bike_id": "3b61105783c95df8165b0f05e97c9eb2", "lon": -76.93160483333334, "rental_uris": {"ios": "https://dc.lft.to/lastmile_qr_scan", "android": "https://dc.lft.to/lastmile_qr_scan"}}, {"name": "372a67b1d439bbf04a5206a8aee525c6", "fusion_lat": 0.0, "type": "electric_scooter", "lat": 38.90355783333333, "is_reserved": 0, "is_disabled": 0, "fusion_lon": 0.0, "bike_id": "372a67b1d439bbf04a5206a8aee525c6", "lon": -77.01107383333333, "rental_uris": {"ios": "https://dc.lft.to/lastmile_qr_scan", "android": "https://dc.lft.to/lastmile_qr_scan"}}, {"name": "e8c56a6d0c8730db95b2a7a5844102c6", "fusion_lat": 0.0, "type": "electric_scooter", "lat": 38.91190016666667, "is_reserved": 0, "is_disabled": 0, "fusion_lon": 0.0, "bike_id": "e8c56a6d0c8730db95b2a7a5844102c6", "lon": -77.0364005, "rental_uris": {"ios": "https://dc.lft.to/lastmile_qr_scan", "android": "https://dc.lft.to/lastmile_qr_scan"}}, {"name": "f739ed0d791be9c2748780f0007ac179", "fusion_lat": 0.0, "type": "electric_scooter", "lat": 38.906665, "is_reserved": 0, "is_disabled": 0, "fusion_lon": 0.0, "bike_id": "f739ed0d791be9c2748780f0007ac179", "lon": -77.04179, "rental_uris": {"ios": "https://dc.lft.to/lastmile_qr_scan", "android": "https://dc.lft.to/lastmile_qr_scan"}}, {"name": "c0bf9f8d599c7967e44c54b16f6f341e", "fusion_lat": 0.0, "type": "electric_scooter", "lat": 38.90345533333333, "is_reserved": 0, "is_disabled": 0, "fusion_lon": 0.0, "bike_id": "c0bf9f8d599c7967e44c54b16f6f341e", "lon": -77.0664855, "rental_uris": {"ios": "https://dc.lft.to/lastmile_qr_scan", "android": "https://dc.lft.to/lastmile_qr_scan"}}, {"name": "c92b3e985b49534e0ff44d251a7f9eb4", "fusion_lat": 0.0, "type": "electric_scooter", "lat": 38.916168166666665, "is_reserved": 0, "is_disabled": 0, "fusion_lon": 0.0, "bike_id": "c92b3e985b49534e0ff44d251a7f9eb4", "lon": -77.02163216666666, "rental_uris": {"ios": "https://dc.lft.to/lastmile_qr_scan", "android": "https://dc.lft.to/lastmile_qr_scan"}}, {"name": "f2011ff9e3f9c5de645b3a3e7cc15e21", "fusion_lat": 0.0, "type": "electric_scooter", "lat": 38.941714, "is_reserved": 0, "is_disabled": 0, "fusion_lon": 0.0, "bike_id": "f2011ff9e3f9c5de645b3a3e7cc15e21", "lon": -77.0413375, "rental_uris": {"ios": "https://dc.lft.to/lastmile_qr_scan", "android": "https://dc.lft.to/lastmile_qr_scan"}}, {"name": "977ccab1f72d219f55e83dc1a14d722d", "fusion_lat": 0.0, "type": "electric_scooter", "lat": 38.914894, "is_reserved": 0, "is_disabled": 0, "fusion_lon": 0.0, "bike_id": "977ccab1f72d219f55e83dc1a14d722d", "lon": -77.03259866666667, "rental_uris": {"ios": "https://dc.lft.to/lastmile_qr_scan", "android": "https://dc.lft.to/lastmile_qr_scan"}}, {"name": "92105b9aeb9090bb5e8ed11af6866253", "fusion_lat": 0.0, "type": "electric_bike", "lat": 38.929902, "is_reserved": 0, "is_disabled": 0, "fusion_lon": 0.0, "bike_id": "92105b9aeb9090bb5e8ed11af6866253", "lon": -77.0196715, "rental_uris": {"ios": "https://dc.lft.to/lastmile_qr_scan", "android": "https://dc.lft.to/lastmile_qr_scan"}}, {"name": "2dff998423aeb0bc77e6c6e82a083b6f", "fusion_lat": 0.0, "type": "electric_scooter", "lat": 38.91124083333333, "is_reserved": 0, "is_disabled": 0, "fusion_lon": 0.0, "bike_id": "2dff998423aeb0bc77e6c6e82a083b6f", "lon": -77.02384566666667, "rental_uris": {"ios": "https://dc.lft.to/lastmile_qr_scan", "android": "https://dc.lft.to/lastmile_qr_scan"}}, {"name": "f1dbe3359e5cf8cef05f3181d283ef43", "fusion_lat": 0.0, "type": "electric_scooter", "lat": 38.92129216666667, "is_reserved": 0, "is_disabled": 0, "fusion_lon": 0.0, "bike_id": "f1dbe3359e5cf8cef05f3181d283ef43", "lon": -77.04207883333333, "rental_uris": {"ios": "https://dc.lft.to/lastmile_qr_scan", "android": "https://dc.lft.to/lastmile_qr_scan"}}, {"name": "65724fb3761d8a44d55988efbe3fc9e9", "fusion_lat": 0.0, "type": "electric_scooter", "lat": 38.90720133333333, "is_reserved": 0, "is_disabled": 0, "fusion_lon": 0.0, "bike_id": "65724fb3761d8a44d55988efbe3fc9e9", "lon": -77.00536533333333, "rental_uris": {"ios": "https://dc.lft.to/lastmile_qr_scan", "android": "https://dc.lft.to/lastmile_qr_scan"}}, {"name": "8018af402b805e21b3e62d28b8531f60", "fusion_lat": 0.0, "type": "electric_bike", "lat": 38.92984883333333, "is_reserved": 0, "is_disabled": 0, "fusion_lon": 0.0, "bike_id": "8018af402b805e21b3e62d28b8531f60", "lon": -77.019772, "rental_uris": {"ios": "https://dc.lft.to/lastmile_qr_scan", "android": "https://dc.lft.to/lastmile_qr_scan"}}, {"name": "bc281f8715da8213922af314dc519bc6", "fusion_lat": 0.0, "type": "electric_scooter", "lat": 38.90460733333333, "is_reserved": 0, "is_disabled": 0, "fusion_lon": 0.0, "bike_id": "bc281f8715da8213922af314dc519bc6", "lon": -77.01426716666667, "rental_uris": {"ios": "https://dc.lft.to/lastmile_qr_scan", "android": "https://dc.lft.to/lastmile_qr_scan"}}, {"name": "1b4f60aa5fba9f0e8fc90c337c69bb9e", "fusion_lat": 0.0, "type": "electric_scooter", "lat": 38.935455833333336, "is_reserved": 0, "is_disabled": 0, "fusion_lon": 0.0, "bike_id": "1b4f60aa5fba9f0e8fc90c337c69bb9e", "lon": -77.034143, "rental_uris": {"ios": "https://dc.lft.to/lastmile_qr_scan", "android": "https://dc.lft.to/lastmile_qr_scan"}}, {"name": "a94574713dbe7580f14e272a7dc3ff31", "fusion_lat": 0.0, "type": "electric_scooter", "lat": 38.918892666666665, "is_reserved": 0, "is_disabled": 0, "fusion_lon": 0.0, "bike_id": "a94574713dbe7580f14e272a7dc3ff31", "lon": -77.037576, "rental_uris": {"ios": "https://dc.lft.to/lastmile_qr_scan", "android": "https://dc.lft.to/lastmile_qr_scan"}}, {"name": "d7a3cbf1792c61a4615bf5daf96be800", "fusion_lat": 0.0, "type": "electric_bike", "lat": 38.85790516666667, "is_reserved": 0, "is_disabled": 0, "fusion_lon": 0.0, "bike_id": "d7a3cbf1792c61a4615bf5daf96be800", "lon": -76.98743683333333, "rental_uris": {"ios": "https://dc.lft.to/lastmile_qr_scan", "android": "https://dc.lft.to/lastmile_qr_scan"}}, {"name": "dbf70ec8ae39aed565ba3515bc4f422a", "fusion_lat": 0.0, "type": "electric_scooter", "lat": 38.91845083333333, "is_reserved": 0, "is_disabled": 0, "fusion_lon": 0.0, "bike_id": "dbf70ec8ae39aed565ba3515bc4f422a", "lon": -77.02599266666667, "rental_uris": {"ios": "https://dc.lft.to/lastmile_qr_scan", "android": "https://dc.lft.to/lastmile_qr_scan"}}, {"name": "0488415c9db6881570cd722b73e0b1d9", "fusion_lat": 0.0, "type": "electric_bike", "lat": 38.95958683333333, "is_reserved": 0, "is_disabled": 0, "fusion_lon": 0.0, "bike_id": "0488415c9db6881570cd722b73e0b1d9", "lon": -77.1008965, "rental_uris": {"ios": "https://dc.lft.to/lastmile_qr_scan", "android": "https://dc.lft.to/lastmile_qr_scan"}}, {"name": "fab43dfd12646451f0d89c10b4571efc", "fusion_lat": 0.0, "type": "electric_scooter", "lat": 38.9169265, "is_reserved": 0, "is_disabled": 0, "fusion_lon": 0.0, "bike_id": "fab43dfd12646451f0d89c10b4571efc", "lon": -77.0316965, "rental_uris": {"ios": "https://dc.lft.to/lastmile_qr_scan", "android": "https://dc.lft.to/lastmile_qr_scan"}}, {"name": "4a18ecd93145ee9ee06718e51f6af373", "fusion_lat": 0.0, "type": "electric_scooter", "lat": 38.906096, "is_reserved": 0, "is_disabled": 0, "fusion_lon": 0.0, "bike_id": "4a18ecd93145ee9ee06718e51f6af373", "lon": -77.0412815, "rental_uris": {"ios": "https://dc.lft.to/lastmile_qr_scan", "android": "https://dc.lft.to/lastmile_qr_scan"}}, {"name": "6e817772bb367ce37b112bc122076853", "fusion_lat": 0.0, "type": "electric_scooter", "lat": 38.9002365, "is_reserved": 0, "is_disabled": 0, "fusion_lon": 0.0, "bike_id": "6e817772bb367ce37b112bc122076853", "lon": -76.99831516666667, "rental_uris": {"ios": "https://dc.lft.to/lastmile_qr_scan", "android": "https://dc.lft.to/lastmile_qr_scan"}}, {"name": "378a832598f3a2f14f578353757403f4", "fusion_lat": 0.0, "type": "electric_scooter", "lat": 38.91488483333333, "is_reserved": 0, "is_disabled": 0, "fusion_lon": 0.0, "bike_id": "378a832598f3a2f14f578353757403f4", "lon": -77.04061583333333, "rental_uris": {"ios": "https://dc.lft.to/lastmile_qr_scan", "android": "https://dc.lft.to/lastmile_qr_scan"}}, {"name": "a3372458670cc1734cb8f01fc854da77", "fusion_lat": 0.0, "type": "electric_scooter", "lat": 38.90415016666667, "is_reserved": 0, "is_disabled": 0, "fusion_lon": 0.0, "bike_id": "a3372458670cc1734cb8f01fc854da77", "lon": -76.97892983333334, "rental_uris": {"ios": "https://dc.lft.to/lastmile_qr_scan", "android": "https://dc.lft.to/lastmile_qr_scan"}}, {"name": "7bf1fcbe23c3f4817d7ee3d6acac717e", "fusion_lat": 0.0, "type": "electric_scooter", "lat": 38.921480833333334, "is_reserved": 0, "is_disabled": 0, "fusion_lon": 0.0, "bike_id": "7bf1fcbe23c3f4817d7ee3d6acac717e", "lon": -77.04018466666666, "rental_uris": {"ios": "https://dc.lft.to/lastmile_qr_scan", "android": "https://dc.lft.to/lastmile_qr_scan"}}, {"name": "7e391fce24d4df758b125ad1f46b324d", "fusion_lat": 0.0, "type": "electric_scooter", "lat": 38.90882216666667, "is_reserved": 0, "is_disabled": 0, "fusion_lon": 0.0, "bike_id": "7e391fce24d4df758b125ad1f46b324d", "lon": -77.0189925, "rental_uris": {"ios": "https://dc.lft.to/lastmile_qr_scan", "android": "https://dc.lft.to/lastmile_qr_scan"}}, {"name": "6798879987d5efa054f09f872120a93c", "fusion_lat": 0.0, "type": "electric_scooter", "lat": 38.90735883333333, "is_reserved": 0, "is_disabled": 0, "fusion_lon": 0.0, "bike_id": "6798879987d5efa054f09f872120a93c", "lon": -77.03206616666667, "rental_uris": {"ios": "https://dc.lft.to/lastmile_qr_scan", "android": "https://dc.lft.to/lastmile_qr_scan"}}, {"name": "b524d0b2f9f0abee730eec0c008602ff", "fusion_lat": 0.0, "type": "electric_scooter", "lat": 38.927081, "is_reserved": 0, "is_disabled": 0, "fusion_lon": 0.0, "bike_id": "b524d0b2f9f0abee730eec0c008602ff", "lon": -77.03727133333334, "rental_uris": {"ios": "https://dc.lft.to/lastmile_qr_scan", "android": "https://dc.lft.to/lastmile_qr_scan"}}, {"name": "81087ed0971a22c29eeb780618aff23e", "fusion_lat": 0.0, "type": "electric_bike", "lat": 38.81510433333333, "is_reserved": 0, "is_disabled": 0, "fusion_lon": 0.0, "bike_id": "81087ed0971a22c29eeb780618aff23e", "lon": -77.1265425, "rental_uris": {"ios": "https://dc.lft.to/lastmile_qr_scan", "android": "https://dc.lft.to/lastmile_qr_scan"}}, {"name": "379f82f1b19f344d93cfa5f2116f6608", "fusion_lat": 0.0, "type": "electric_scooter", "lat": 38.898886, "is_reserved": 0, "is_disabled": 0, "fusion_lon": 0.0, "bike_id": "379f82f1b19f344d93cfa5f2116f6608", "lon": -77.01489366666667, "rental_uris": {"ios": "https://dc.lft.to/lastmile_qr_scan", "android": "https://dc.lft.to/lastmile_qr_scan"}}, {"name": "0562f53d4fa7c60850cbe78f40f5eec1", "fusion_lat": 0.0, "type": "electric_scooter", "lat": 38.862102, "is_reserved": 0, "is_disabled": 0, "fusion_lon": 0.0, "bike_id": "0562f53d4fa7c60850cbe78f40f5eec1", "lon": -76.99466516666666, "rental_uris": {"ios": "https://dc.lft.to/lastmile_qr_scan", "android": "https://dc.lft.to/lastmile_qr_scan"}}, {"name": "0250bce71d30f1deaa76abe47cff4963", "fusion_lat": 0.0, "type": "electric_scooter", "lat": 38.902331833333335, "is_reserved": 0, "is_disabled": 0, "fusion_lon": 0.0, "bike_id": "0250bce71d30f1deaa76abe47cff4963", "lon": -77.05344316666667, "rental_uris": {"ios": "https://dc.lft.to/lastmile_qr_scan", "android": "https://dc.lft.to/lastmile_qr_scan"}}, {"name": "5a5a1555dfcf780212a60afa2c4ad7a1", "fusion_lat": 0.0, "type": "electric_scooter", "lat": 38.91183766666666, "is_reserved": 0, "is_disabled": 0, "fusion_lon": 0.0, "bike_id": "5a5a1555dfcf780212a60afa2c4ad7a1", "lon": -77.0325155, "rental_uris": {"ios": "https://dc.lft.to/lastmile_qr_scan", "android": "https://dc.lft.to/lastmile_qr_scan"}}, {"name": "4d9133659625a22e7cab66c427cf6c3a", "fusion_lat": 0.0, "type": "electric_scooter", "lat": 38.9096495, "is_reserved": 0, "is_disabled": 0, "fusion_lon": 0.0, "bike_id": "4d9133659625a22e7cab66c427cf6c3a", "lon": -77.02684016666667, "rental_uris": {"ios": "https://dc.lft.to/lastmile_qr_scan", "android": "https://dc.lft.to/lastmile_qr_scan"}}, {"name": "e15c37ecacfba66fbf5774730f515828", "fusion_lat": 0.0, "type": "electric_scooter", "lat": 38.919116833333334, "is_reserved": 0, "is_disabled": 0, "fusion_lon": 0.0, "bike_id": "e15c37ecacfba66fbf5774730f515828", "lon": -77.03111516666667, "rental_uris": {"ios": "https://dc.lft.to/lastmile_qr_scan", "android": "https://dc.lft.to/lastmile_qr_scan"}}, {"name": "1c6f9f0cfab514bb347cd2e7f0707c80", "fusion_lat": 0.0, "type": "electric_scooter", "lat": 38.913331, "is_reserved": 0, "is_disabled": 0, "fusion_lon": 0.0, "bike_id": "1c6f9f0cfab514bb347cd2e7f0707c80", "lon": -77.04229066666667, "rental_uris": {"ios": "https://dc.lft.to/lastmile_qr_scan", "android": "https://dc.lft.to/lastmile_qr_scan"}}, {"name": "2dda9a19985e37055b78251d0ce6fbea", "fusion_lat": 0.0, "type": "electric_scooter", "lat": 38.89551183333333, "is_reserved": 0, "is_disabled": 0, "fusion_lon": 0.0, "bike_id": "2dda9a19985e37055b78251d0ce6fbea", "lon": -76.94881533333333, "rental_uris": {"ios": "https://dc.lft.to/lastmile_qr_scan", "android": "https://dc.lft.to/lastmile_qr_scan"}}, {"name": "38335bd63172a91373c54480ad81ddba", "fusion_lat": 0.0, "type": "electric_bike", "lat": 39.02683616666667, "is_reserved": 0, "is_disabled": 0, "fusion_lon": 0.0, "bike_id": "38335bd63172a91373c54480ad81ddba", "lon": -77.12598533333333, "rental_uris": {"ios": "https://dc.lft.to/lastmile_qr_scan", "android": "https://dc.lft.to/lastmile_qr_scan"}}, {"name": "f0d4184cab129d04908efcaf32db250e", "fusion_lat": 0.0, "type": "electric_scooter", "lat": 38.900338833333336, "is_reserved": 0, "is_disabled": 0, "fusion_lon": 0.0, "bike_id": "f0d4184cab129d04908efcaf32db250e", "lon": -77.00187833333334, "rental_uris": {"ios": "https://dc.lft.to/lastmile_qr_scan", "android": "https://dc.lft.to/lastmile_qr_scan"}}, {"name": "8d07faa80d81e127742b1b14b59f5f5e", "fusion_lat": 0.0, "type": "electric_bike", "lat": 38.854408166666666, "is_reserved": 0, "is_disabled": 0, "fusion_lon": 0.0, "bike_id": "8d07faa80d81e127742b1b14b59f5f5e", "lon": -76.90981433333333, "rental_uris": {"ios": "https://dc.lft.to/lastmile_qr_scan", "android": "https://dc.lft.to/lastmile_qr_scan"}}, {"name": "0d497a726576b7e44a32eb3ae0ecf951", "fusion_lat": 0.0, "type": "electric_scooter", "lat": 38.935407833333336, "is_reserved": 0, "is_disabled": 0, "fusion_lon": 0.0, "bike_id": "0d497a726576b7e44a32eb3ae0ecf951", "lon": -77.03400433333333, "rental_uris": {"ios": "https://dc.lft.to/lastmile_qr_scan", "android": "https://dc.lft.to/lastmile_qr_scan"}}, {"name": "0df5b15e89b9fb7fd58a619aa638052a", "fusion_lat": 0.0, "type": "electric_bike", "lat": 38.81046166666667, "is_reserved": 0, "is_disabled": 0, "fusion_lon": 0.0, "bike_id": "0df5b15e89b9fb7fd58a619aa638052a", "lon": -77.08515633333333, "rental_uris": {"ios": "https://dc.lft.to/lastmile_qr_scan", "android": "https://dc.lft.to/lastmile_qr_scan"}}, {"name": "c55bb134bc76959ffe9855fe1b640ce1", "fusion_lat": 0.0, "type": "electric_scooter", "lat": 38.90670433333333, "is_reserved": 0, "is_disabled": 0, "fusion_lon": 0.0, "bike_id": "c55bb134bc76959ffe9855fe1b640ce1", "lon": -77.02722433333334, "rental_uris": {"ios": "https://dc.lft.to/lastmile_qr_scan", "android": "https://dc.lft.to/lastmile_qr_scan"}}, {"name": "457d1c2e0e0c97a1fb19c856e525f78f", "fusion_lat": 0.0, "type": "electric_scooter", "lat": 38.9363585, "is_reserved": 0, "is_disabled": 0, "fusion_lon": 0.0, "bike_id": "457d1c2e0e0c97a1fb19c856e525f78f", "lon": -77.02057183333334, "rental_uris": {"ios": "https://dc.lft.to/lastmile_qr_scan", "android": "https://dc.lft.to/lastmile_qr_scan"}}, {"name": "0b37f341404dfbe231a917a532eabb88", "fusion_lat": 0.0, "type": "electric_scooter", "lat": 38.91598833333333, "is_reserved": 0, "is_disabled": 0, "fusion_lon": 0.0, "bike_id": "0b37f341404dfbe231a917a532eabb88", "lon": -77.03853866666667, "rental_uris": {"ios": "https://dc.lft.to/lastmile_qr_scan", "android": "https://dc.lft.to/lastmile_qr_scan"}}, {"name": "4ff7b6d78c6f9e0941d04b02a18a8ad1", "fusion_lat": 0.0, "type": "electric_scooter", "lat": 38.9003355, "is_reserved": 0, "is_disabled": 0, "fusion_lon": 0.0, "bike_id": "4ff7b6d78c6f9e0941d04b02a18a8ad1", "lon": -77.00201366666667, "rental_uris": {"ios": "https://dc.lft.to/lastmile_qr_scan", "android": "https://dc.lft.to/lastmile_qr_scan"}}, {"name": "b36ef9d7a7c351e215d521de2440654b", "fusion_lat": 0.0, "type": "electric_scooter", "lat": 38.8952465, "is_reserved": 0, "is_disabled": 0, "fusion_lon": 0.0, "bike_id": "b36ef9d7a7c351e215d521de2440654b", "lon": -76.9489105, "rental_uris": {"ios": "https://dc.lft.to/lastmile_qr_scan", "android": "https://dc.lft.to/lastmile_qr_scan"}}, {"name": "f9ebb440948df027847718e7bb965602", "fusion_lat": 0.0, "type": "electric_scooter", "lat": 38.910030666666664, "is_reserved": 0, "is_disabled": 0, "fusion_lon": 0.0, "bike_id": "f9ebb440948df027847718e7bb965602", "lon": -77.03841166666666, "rental_uris": {"ios": "https://dc.lft.to/lastmile_qr_scan", "android": "https://dc.lft.to/lastmile_qr_scan"}}, {"name": "515b5ff650d9ce39cae2023342dca91d", "fusion_lat": 0.0, "type": "electric_scooter", "lat": 38.92130266666667, "is_reserved": 0, "is_disabled": 0, "fusion_lon": 0.0, "bike_id": "515b5ff650d9ce39cae2023342dca91d", "lon": -76.9938765, "rental_uris": {"ios": "https://dc.lft.to/lastmile_qr_scan", "android": "https://dc.lft.to/lastmile_qr_scan"}}, {"name": "2ad9d0fd43f5de7f0c99dd5df5072478", "fusion_lat": 0.0, "type": "electric_scooter", "lat": 38.916737499999996, "is_reserved": 0, "is_disabled": 0, "fusion_lon": 0.0, "bike_id": "2ad9d0fd43f5de7f0c99dd5df5072478", "lon": -77.014577, "rental_uris": {"ios": "https://dc.lft.to/lastmile_qr_scan", "android": "https://dc.lft.to/lastmile_qr_scan"}}, {"name": "8b20d097a41fda94d29fe1db17a3e4e0", "fusion_lat": 0.0, "type": "electric_scooter", "lat": 38.949252, "is_reserved": 0, "is_disabled": 0, "fusion_lon": 0.0, "bike_id": "8b20d097a41fda94d29fe1db17a3e4e0", "lon": -77.01938, "rental_uris": {"ios": "https://dc.lft.to/lastmile_qr_scan", "android": "https://dc.lft.to/lastmile_qr_scan"}}, {"name": "9f3bf596b49b06c6587c9ec47d291073", "fusion_lat": 0.0, "type": "electric_bike", "lat": 38.914029666666664, "is_reserved": 0, "is_disabled": 0, "fusion_lon": 0.0, "bike_id": "9f3bf596b49b06c6587c9ec47d291073", "lon": -77.020173, "rental_uris": {"ios": "https://dc.lft.to/lastmile_qr_scan", "android": "https://dc.lft.to/lastmile_qr_scan"}}, {"name": "f103486ae72dee72162f0c70ac6efc38", "fusion_lat": 0.0, "type": "electric_scooter", "lat": 38.9122545, "is_reserved": 0, "is_disabled": 0, "fusion_lon": 0.0, "bike_id": "f103486ae72dee72162f0c70ac6efc38", "lon": -77.03843, "rental_uris": {"ios": "https://dc.lft.to/lastmile_qr_scan", "android": "https://dc.lft.to/lastmile_qr_scan"}}, {"name": "602f7dc33e4c6cc4e123e19a01318612", "fusion_lat": 0.0, "type": "electric_scooter", "lat": 38.934090166666664, "is_reserved": 0, "is_disabled": 0, "fusion_lon": 0.0, "bike_id": "602f7dc33e4c6cc4e123e19a01318612", "lon": -77.02608333333333, "rental_uris": {"ios": "https://dc.lft.to/lastmile_qr_scan", "android": "https://dc.lft.to/lastmile_qr_scan"}}, {"name": "83bc111effe2f8bcf6169de1145af0ee", "fusion_lat": 0.0, "type": "electric_scooter", "lat": 38.9291585, "is_reserved": 0, "is_disabled": 0, "fusion_lon": 0.0, "bike_id": "83bc111effe2f8bcf6169de1145af0ee", "lon": -77.03762733333333, "rental_uris": {"ios": "https://dc.lft.to/lastmile_qr_scan", "android": "https://dc.lft.to/lastmile_qr_scan"}}, {"name": "a16779a6f095b69fc93e74baec793692", "fusion_lat": 0.0, "type": "electric_scooter", "lat": 38.89237033333333, "is_reserved": 0, "is_disabled": 0, "fusion_lon": 0.0, "bike_id": "a16779a6f095b69fc93e74baec793692", "lon": -77.03189966666666, "rental_uris": {"ios": "https://dc.lft.to/lastmile_qr_scan", "android": "https://dc.lft.to/lastmile_qr_scan"}}, {"name": "37f5df8877d6603525c1ded87a93e364", "fusion_lat": 0.0, "type": "electric_scooter", "lat": 38.931242, "is_reserved": 0, "is_disabled": 0, "fusion_lon": 0.0, "bike_id": "37f5df8877d6603525c1ded87a93e364", "lon": -77.0360455, "rental_uris": {"ios": "https://dc.lft.to/lastmile_qr_scan", "android": "https://dc.lft.to/lastmile_qr_scan"}}, {"name": "44cc9258da32f2418b55bdb15040fb42", "fusion_lat": 0.0, "type": "electric_scooter", "lat": 38.90010083333333, "is_reserved": 0, "is_disabled": 0, "fusion_lon": 0.0, "bike_id": "44cc9258da32f2418b55bdb15040fb42", "lon": -77.02612733333333, "rental_uris": {"ios": "https://dc.lft.to/lastmile_qr_scan", "android": "https://dc.lft.to/lastmile_qr_scan"}}, {"name": "aa19b45b7b0f21a807e567f8463661c3", "fusion_lat": 0.0, "type": "electric_scooter", "lat": 38.925971, "is_reserved": 0, "is_disabled": 0, "fusion_lon": 0.0, "bike_id": "aa19b45b7b0f21a807e567f8463661c3", "lon": -77.02606016666667, "rental_uris": {"ios": "https://dc.lft.to/lastmile_qr_scan", "android": "https://dc.lft.to/lastmile_qr_scan"}}, {"name": "4a340927d9c6874693755555376967d6", "fusion_lat": 0.0, "type": "electric_scooter", "lat": 38.91254033333333, "is_reserved": 0, "is_disabled": 0, "fusion_lon": 0.0, "bike_id": "4a340927d9c6874693755555376967d6", "lon": -77.03867566666666, "rental_uris": {"ios": "https://dc.lft.to/lastmile_qr_scan", "android": "https://dc.lft.to/lastmile_qr_scan"}}, {"name": "54607ea18859699098c97fde0e2ba029", "fusion_lat": 0.0, "type": "electric_scooter", "lat": 38.907258666666664, "is_reserved": 0, "is_disabled": 0, "fusion_lon": 0.0, "bike_id": "54607ea18859699098c97fde0e2ba029", "lon": -77.04488116666667, "rental_uris": {"ios": "https://dc.lft.to/lastmile_qr_scan", "android": "https://dc.lft.to/lastmile_qr_scan"}}, {"name": "a313bdf8077060eec18ba10a9e6ac6ee", "fusion_lat": 0.0, "type": "electric_scooter", "lat": 38.910032, "is_reserved": 0, "is_disabled": 0, "fusion_lon": 0.0, "bike_id": "a313bdf8077060eec18ba10a9e6ac6ee", "lon": -77.0150805, "rental_uris": {"ios": "https://dc.lft.to/lastmile_qr_scan", "android": "https://dc.lft.to/lastmile_qr_scan"}}, {"name": "96bef76dc735953c08cbf1bd1e281c99", "fusion_lat": 0.0, "type": "electric_scooter", "lat": 38.86658416666667, "is_reserved": 0, "is_disabled": 0, "fusion_lon": 0.0, "bike_id": "96bef76dc735953c08cbf1bd1e281c99", "lon": -76.98887083333334, "rental_uris": {"ios": "https://dc.lft.to/lastmile_qr_scan", "android": "https://dc.lft.to/lastmile_qr_scan"}}, {"name": "197d4d1bf05ad030431304c7ee5d530e", "fusion_lat": 0.0, "type": "electric_bike", "lat": 38.8585005, "is_reserved": 0, "is_disabled": 0, "fusion_lon": 0.0, "bike_id": "197d4d1bf05ad030431304c7ee5d530e", "lon": -77.09748983333333, "rental_uris": {"ios": "https://dc.lft.to/lastmile_qr_scan", "android": "https://dc.lft.to/lastmile_qr_scan"}}, {"name": "1d6329a08686c207aaee1f8c26d73f51", "fusion_lat": 0.0, "type": "electric_scooter", "lat": 38.90270366666667, "is_reserved": 0, "is_disabled": 0, "fusion_lon": 0.0, "bike_id": "1d6329a08686c207aaee1f8c26d73f51", "lon": -77.00580366666667, "rental_uris": {"ios": "https://dc.lft.to/lastmile_qr_scan", "android": "https://dc.lft.to/lastmile_qr_scan"}}, {"name": "809e858f5eb40cbe37019cc2d4a7e010", "fusion_lat": 0.0, "type": "electric_scooter", "lat": 38.904767166666666, "is_reserved": 0, "is_disabled": 0, "fusion_lon": 0.0, "bike_id": "809e858f5eb40cbe37019cc2d4a7e010", "lon": -76.98890283333333, "rental_uris": {"ios": "https://dc.lft.to/lastmile_qr_scan", "android": "https://dc.lft.to/lastmile_qr_scan"}}, {"name": "0753d0dd196af4c6900bc5350d120d14", "fusion_lat": 0.0, "type": "electric_scooter", "lat": 38.901636333333336, "is_reserved": 0, "is_disabled": 0, "fusion_lon": 0.0, "bike_id": "0753d0dd196af4c6900bc5350d120d14", "lon": -77.02186066666667, "rental_uris": {"ios": "https://dc.lft.to/lastmile_qr_scan", "android": "https://dc.lft.to/lastmile_qr_scan"}}, {"name": "5d1979f43307f8e83df3f992cfa000ce", "fusion_lat": 0.0, "type": "electric_scooter", "lat": 38.92101816666667, "is_reserved": 0, "is_disabled": 0, "fusion_lon": 0.0, "bike_id": "5d1979f43307f8e83df3f992cfa000ce", "lon": -77.031834, "rental_uris": {"ios": "https://dc.lft.to/lastmile_qr_scan", "android": "https://dc.lft.to/lastmile_qr_scan"}}, {"name": "b881e9c51b08776a08beae0bf5e3486f", "fusion_lat": 0.0, "type": "electric_scooter", "lat": 38.902563666666666, "is_reserved": 0, "is_disabled": 0, "fusion_lon": 0.0, "bike_id": "b881e9c51b08776a08beae0bf5e3486f", "lon": -77.0177505, "rental_uris": {"ios": "https://dc.lft.to/lastmile_qr_scan", "android": "https://dc.lft.to/lastmile_qr_scan"}}, {"name": "773271195a180da98fe4f9840f48a9eb", "fusion_lat": 0.0, "type": "electric_scooter", "lat": 38.911878333333334, "is_reserved": 0, "is_disabled": 0, "fusion_lon": 0.0, "bike_id": "773271195a180da98fe4f9840f48a9eb", "lon": -76.99623066666666, "rental_uris": {"ios": "https://dc.lft.to/lastmile_qr_scan", "android": "https://dc.lft.to/lastmile_qr_scan"}}, {"name": "1d25a444c0852950cbd6174458df1110", "fusion_lat": 0.0, "type": "electric_scooter", "lat": 38.89831683333333, "is_reserved": 0, "is_disabled": 0, "fusion_lon": 0.0, "bike_id": "1d25a444c0852950cbd6174458df1110", "lon": -76.94642616666667, "rental_uris": {"ios": "https://dc.lft.to/lastmile_qr_scan", "android": "https://dc.lft.to/lastmile_qr_scan"}}, {"name": "4a5f9eb77d8c86d4b8469c442e8616ad", "fusion_lat": 0.0, "type": "electric_scooter", "lat": 38.916038, "is_reserved": 0, "is_disabled": 0, "fusion_lon": 0.0, "bike_id": "4a5f9eb77d8c86d4b8469c442e8616ad", "lon": -77.023025, "rental_uris": {"ios": "https://dc.lft.to/lastmile_qr_scan", "android": "https://dc.lft.to/lastmile_qr_scan"}}, {"name": "b8cae188506baa51fc5fc3ffa28de8a0", "fusion_lat": 0.0, "type": "electric_scooter", "lat": 38.917027, "is_reserved": 0, "is_disabled": 0, "fusion_lon": 0.0, "bike_id": "b8cae188506baa51fc5fc3ffa28de8a0", "lon": -77.04271916666667, "rental_uris": {"ios": "https://dc.lft.to/lastmile_qr_scan", "android": "https://dc.lft.to/lastmile_qr_scan"}}, {"name": "8c69516c3a685082276c23119f500442", "fusion_lat": 0.0, "type": "electric_scooter", "lat": 38.92324983333334, "is_reserved": 0, "is_disabled": 0, "fusion_lon": 0.0, "bike_id": "8c69516c3a685082276c23119f500442", "lon": -77.04521233333334, "rental_uris": {"ios": "https://dc.lft.to/lastmile_qr_scan", "android": "https://dc.lft.to/lastmile_qr_scan"}}, {"name": "3532dc7f534558a91336be59a57831a5", "fusion_lat": 0.0, "type": "electric_scooter", "lat": 38.961081, "is_reserved": 0, "is_disabled": 0, "fusion_lon": 0.0, "bike_id": "3532dc7f534558a91336be59a57831a5", "lon": -77.02815316666667, "rental_uris": {"ios": "https://dc.lft.to/lastmile_qr_scan", "android": "https://dc.lft.to/lastmile_qr_scan"}}, {"name": "6fbb0f2799f8d2ae1adb4efc0b1ef08b", "fusion_lat": 0.0, "type": "electric_scooter", "lat": 38.9354715, "is_reserved": 0, "is_disabled": 0, "fusion_lon": 0.0, "bike_id": "6fbb0f2799f8d2ae1adb4efc0b1ef08b", "lon": -77.03461766666666, "rental_uris": {"ios": "https://dc.lft.to/lastmile_qr_scan", "android": "https://dc.lft.to/lastmile_qr_scan"}}, {"name": "a81c1096b16838891b6b3cca8956666a", "fusion_lat": 0.0, "type": "electric_scooter", "lat": 38.906170333333336, "is_reserved": 0, "is_disabled": 0, "fusion_lon": 0.0, "bike_id": "a81c1096b16838891b6b3cca8956666a", "lon": -77.0512935, "rental_uris": {"ios": "https://dc.lft.to/lastmile_qr_scan", "android": "https://dc.lft.to/lastmile_qr_scan"}}, {"name": "3ae05f53776418f011621657fea1f796", "fusion_lat": 0.0, "type": "electric_scooter", "lat": 38.91567716666667, "is_reserved": 0, "is_disabled": 0, "fusion_lon": 0.0, "bike_id": "3ae05f53776418f011621657fea1f796", "lon": -77.04674333333334, "rental_uris": {"ios": "https://dc.lft.to/lastmile_qr_scan", "android": "https://dc.lft.to/lastmile_qr_scan"}}, {"name": "ec7e1282b99b716c22765735760d9bb7", "fusion_lat": 0.0, "type": "electric_scooter", "lat": 38.923767, "is_reserved": 0, "is_disabled": 0, "fusion_lon": 0.0, "bike_id": "ec7e1282b99b716c22765735760d9bb7", "lon": -77.01913133333333, "rental_uris": {"ios": "https://dc.lft.to/lastmile_qr_scan", "android": "https://dc.lft.to/lastmile_qr_scan"}}, {"name": "5994ecbaeac7cc282d6581d5e7257169", "fusion_lat": 0.0, "type": "electric_scooter", "lat": 38.933042666666665, "is_reserved": 0, "is_disabled": 0, "fusion_lon": 0.0, "bike_id": "5994ecbaeac7cc282d6581d5e7257169", "lon": -77.0377285, "rental_uris": {"ios": "https://dc.lft.to/lastmile_qr_scan", "android": "https://dc.lft.to/lastmile_qr_scan"}}, {"name": "86c3b5d8390732443d08d2fe0467e013", "fusion_lat": 0.0, "type": "electric_scooter", "lat": 38.93607516666667, "is_reserved": 0, "is_disabled": 0, "fusion_lon": 0.0, "bike_id": "86c3b5d8390732443d08d2fe0467e013", "lon": -77.05868133333334, "rental_uris": {"ios": "https://dc.lft.to/lastmile_qr_scan", "android": "https://dc.lft.to/lastmile_qr_scan"}}, {"name": "c9b9b5e6143f595021872711df31321c", "fusion_lat": 0.0, "type": "electric_scooter", "lat": 38.91012083333333, "is_reserved": 0, "is_disabled": 0, "fusion_lon": 0.0, "bike_id": "c9b9b5e6143f595021872711df31321c", "lon": -77.04426616666667, "rental_uris": {"ios": "https://dc.lft.to/lastmile_qr_scan", "android": "https://dc.lft.to/lastmile_qr_scan"}}, {"name": "4b92fb8eb961516438f2c8a31094a1d8", "fusion_lat": 0.0, "type": "electric_scooter", "lat": 38.900306666666665, "is_reserved": 0, "is_disabled": 0, "fusion_lon": 0.0, "bike_id": "4b92fb8eb961516438f2c8a31094a1d8", "lon": -77.00216366666666, "rental_uris": {"ios": "https://dc.lft.to/lastmile_qr_scan", "android": "https://dc.lft.to/lastmile_qr_scan"}}, {"name": "393900abce23452b08bce9bfc1a83c53", "fusion_lat": 0.0, "type": "electric_bike", "lat": 39.033442, "is_reserved": 0, "is_disabled": 0, "fusion_lon": 0.0, "bike_id": "393900abce23452b08bce9bfc1a83c53", "lon": -77.04909066666667, "rental_uris": {"ios": "https://dc.lft.to/lastmile_qr_scan", "android": "https://dc.lft.to/lastmile_qr_scan"}}, {"name": "3e83162b12a914aeb60b164fd2f9ab43", "fusion_lat": 0.0, "type": "electric_scooter", "lat": 38.974977833333334, "is_reserved": 0, "is_disabled": 0, "fusion_lon": 0.0, "bike_id": "3e83162b12a914aeb60b164fd2f9ab43", "lon": -77.01689283333333, "rental_uris": {"ios": "https://dc.lft.to/lastmile_qr_scan", "android": "https://dc.lft.to/lastmile_qr_scan"}}, {"name": "524a0f275b430aff25f4f1abeca1b4a3", "fusion_lat": 0.0, "type": "electric_scooter", "lat": 38.94362183333333, "is_reserved": 0, "is_disabled": 0, "fusion_lon": 0.0, "bike_id": "524a0f275b430aff25f4f1abeca1b4a3", "lon": -77.06117266666666, "rental_uris": {"ios": "https://dc.lft.to/lastmile_qr_scan", "android": "https://dc.lft.to/lastmile_qr_scan"}}, {"name": "2c7f25e21d89889d4a2747edd590bbf4", "fusion_lat": 0.0, "type": "electric_scooter", "lat": 38.89734716666667, "is_reserved": 0, "is_disabled": 0, "fusion_lon": 0.0, "bike_id": "2c7f25e21d89889d4a2747edd590bbf4", "lon": -76.94251366666667, "rental_uris": {"ios": "https://dc.lft.to/lastmile_qr_scan", "android": "https://dc.lft.to/lastmile_qr_scan"}}, {"name": "5147108ee8157709632b5ffed688295b", "fusion_lat": 0.0, "type": "electric_scooter", "lat": 38.914141, "is_reserved": 0, "is_disabled": 0, "fusion_lon": 0.0, "bike_id": "5147108ee8157709632b5ffed688295b", "lon": -77.03170716666666, "rental_uris": {"ios": "https://dc.lft.to/lastmile_qr_scan", "android": "https://dc.lft.to/lastmile_qr_scan"}}, {"name": "bba4e99009909dbbb2089613b40e23de", "fusion_lat": 0.0, "type": "electric_scooter", "lat": 38.900350833333334, "is_reserved": 0, "is_disabled": 0, "fusion_lon": 0.0, "bike_id": "bba4e99009909dbbb2089613b40e23de", "lon": -77.0332295, "rental_uris": {"ios": "https://dc.lft.to/lastmile_qr_scan", "android": "https://dc.lft.to/lastmile_qr_scan"}}, {"name": "1ccfbb2c3f0ba28f3bd7612ceec4dcda", "fusion_lat": 0.0, "type": "electric_scooter", "lat": 38.9079535, "is_reserved": 0, "is_disabled": 0, "fusion_lon": 0.0, "bike_id": "1ccfbb2c3f0ba28f3bd7612ceec4dcda", "lon": -77.04821916666667, "rental_uris": {"ios": "https://dc.lft.to/lastmile_qr_scan", "android": "https://dc.lft.to/lastmile_qr_scan"}}, {"name": "32b836e9d70a0066596c9c7be83728c4", "fusion_lat": 0.0, "type": "electric_scooter", "lat": 38.908629833333336, "is_reserved": 0, "is_disabled": 0, "fusion_lon": 0.0, "bike_id": "32b836e9d70a0066596c9c7be83728c4", "lon": -77.0271385, "rental_uris": {"ios": "https://dc.lft.to/lastmile_qr_scan", "android": "https://dc.lft.to/lastmile_qr_scan"}}, {"name": "e7ee2649f833b47f918050da2980c7f9", "fusion_lat": 0.0, "type": "electric_bike", "lat": 38.936008333333334, "is_reserved": 0, "is_disabled": 0, "fusion_lon": 0.0, "bike_id": "e7ee2649f833b47f918050da2980c7f9", "lon": -77.021189, "rental_uris": {"ios": "https://dc.lft.to/lastmile_qr_scan", "android": "https://dc.lft.to/lastmile_qr_scan"}}, {"name": "5bfce4af039b788672b93c24d9fbd951", "fusion_lat": 0.0, "type": "electric_scooter", "lat": 38.93384016666667, "is_reserved": 0, "is_disabled": 0, "fusion_lon": 0.0, "bike_id": "5bfce4af039b788672b93c24d9fbd951", "lon": -77.0576585, "rental_uris": {"ios": "https://dc.lft.to/lastmile_qr_scan", "android": "https://dc.lft.to/lastmile_qr_scan"}}, {"name": "9d134ec74a25e204bd3a3538780b36bf", "fusion_lat": 0.0, "type": "electric_scooter", "lat": 38.908507666666665, "is_reserved": 0, "is_disabled": 0, "fusion_lon": 0.0, "bike_id": "9d134ec74a25e204bd3a3538780b36bf", "lon": -77.02046666666666, "rental_uris": {"ios": "https://dc.lft.to/lastmile_qr_scan", "android": "https://dc.lft.to/lastmile_qr_scan"}}, {"name": "f42967625c57561bbab972ae0e3c3d65", "fusion_lat": 0.0, "type": "electric_scooter", "lat": 38.901563, "is_reserved": 0, "is_disabled": 0, "fusion_lon": 0.0, "bike_id": "f42967625c57561bbab972ae0e3c3d65", "lon": -77.02178766666667, "rental_uris": {"ios": "https://dc.lft.to/lastmile_qr_scan", "android": "https://dc.lft.to/lastmile_qr_scan"}}, {"name": "68381efb32332d918f782bfadbf7a70b", "fusion_lat": 0.0, "type": "electric_scooter", "lat": 38.9124595, "is_reserved": 0, "is_disabled": 0, "fusion_lon": 0.0, "bike_id": "68381efb32332d918f782bfadbf7a70b", "lon": -77.022266, "rental_uris": {"ios": "https://dc.lft.to/lastmile_qr_scan", "android": "https://dc.lft.to/lastmile_qr_scan"}}, {"name": "ed42002807a12fa5ff3e6563f488d4b3", "fusion_lat": 0.0, "type": "electric_scooter", "lat": 38.9428985, "is_reserved": 0, "is_disabled": 0, "fusion_lon": 0.0, "bike_id": "ed42002807a12fa5ff3e6563f488d4b3", "lon": -77.02174916666667, "rental_uris": {"ios": "https://dc.lft.to/lastmile_qr_scan", "android": "https://dc.lft.to/lastmile_qr_scan"}}, {"name": "4f85c373a99a4ae8eda84c3b638fc092", "fusion_lat": 0.0, "type": "electric_scooter", "lat": 38.93001816666667, "is_reserved": 0, "is_disabled": 0, "fusion_lon": 0.0, "bike_id": "4f85c373a99a4ae8eda84c3b638fc092", "lon": -77.02309533333333, "rental_uris": {"ios": "https://dc.lft.to/lastmile_qr_scan", "android": "https://dc.lft.to/lastmile_qr_scan"}}, {"name": "bdab9c3b9f4829418a7fb033ba54dac6", "fusion_lat": 0.0, "type": "electric_scooter", "lat": 38.901099333333335, "is_reserved": 0, "is_disabled": 0, "fusion_lon": 0.0, "bike_id": "bdab9c3b9f4829418a7fb033ba54dac6", "lon": -77.0499545, "rental_uris": {"ios": "https://dc.lft.to/lastmile_qr_scan", "android": "https://dc.lft.to/lastmile_qr_scan"}}, {"name": "0eac2cb88a74adcffa1e269c2084d3a3", "fusion_lat": 0.0, "type": "electric_scooter", "lat": 38.898805833333334, "is_reserved": 0, "is_disabled": 0, "fusion_lon": 0.0, "bike_id": "0eac2cb88a74adcffa1e269c2084d3a3", "lon": -77.03905416666667, "rental_uris": {"ios": "https://dc.lft.to/lastmile_qr_scan", "android": "https://dc.lft.to/lastmile_qr_scan"}}, {"name": "b76223f93cc4ea3b3ac518afeaf1ce01", "fusion_lat": 0.0, "type": "electric_scooter", "lat": 38.9065105, "is_reserved": 0, "is_disabled": 0, "fusion_lon": 0.0, "bike_id": "b76223f93cc4ea3b3ac518afeaf1ce01", "lon": -77.05318216666667, "rental_uris": {"ios": "https://dc.lft.to/lastmile_qr_scan", "android": "https://dc.lft.to/lastmile_qr_scan"}}, {"name": "a2a7219a279e1d9a753d933a4aae40a5", "fusion_lat": 0.0, "type": "electric_scooter", "lat": 38.903740666666664, "is_reserved": 0, "is_disabled": 0, "fusion_lon": 0.0, "bike_id": "a2a7219a279e1d9a753d933a4aae40a5", "lon": -77.03553616666666, "rental_uris": {"ios": "https://dc.lft.to/lastmile_qr_scan", "android": "https://dc.lft.to/lastmile_qr_scan"}}, {"name": "ed7d90c8f957611a599e834b5accadc1", "fusion_lat": 0.0, "type": "electric_scooter", "lat": 38.910272166666665, "is_reserved": 0, "is_disabled": 0, "fusion_lon": 0.0, "bike_id": "ed7d90c8f957611a599e834b5accadc1", "lon": -77.027859, "rental_uris": {"ios": "https://dc.lft.to/lastmile_qr_scan", "android": "https://dc.lft.to/lastmile_qr_scan"}}, {"name": "9a0de58ac43e14db934f4f19f69a6ea5", "fusion_lat": 0.0, "type": "electric_scooter", "lat": 38.911343333333335, "is_reserved": 0, "is_disabled": 0, "fusion_lon": 0.0, "bike_id": "9a0de58ac43e14db934f4f19f69a6ea5", "lon": -77.03661366666667, "rental_uris": {"ios": "https://dc.lft.to/lastmile_qr_scan", "android": "https://dc.lft.to/lastmile_qr_scan"}}, {"name": "b3f7c1f7d89efc0e50b52299d2dc39bb", "fusion_lat": 0.0, "type": "electric_scooter", "lat": 38.918355166666665, "is_reserved": 0, "is_disabled": 0, "fusion_lon": 0.0, "bike_id": "b3f7c1f7d89efc0e50b52299d2dc39bb", "lon": -77.02306966666667, "rental_uris": {"ios": "https://dc.lft.to/lastmile_qr_scan", "android": "https://dc.lft.to/lastmile_qr_scan"}}, {"name": "09b56689c1ac428cfb265b30a593b0a5", "fusion_lat": 0.0, "type": "electric_scooter", "lat": 38.911794, "is_reserved": 0, "is_disabled": 0, "fusion_lon": 0.0, "bike_id": "09b56689c1ac428cfb265b30a593b0a5", "lon": -77.03143416666667, "rental_uris": {"ios": "https://dc.lft.to/lastmile_qr_scan", "android": "https://dc.lft.to/lastmile_qr_scan"}}, {"name": "076fb6340d71416c409f4c394eb32f96", "fusion_lat": 0.0, "type": "electric_scooter", "lat": 38.89853466666667, "is_reserved": 0, "is_disabled": 0, "fusion_lon": 0.0, "bike_id": "076fb6340d71416c409f4c394eb32f96", "lon": -77.01613566666667, "rental_uris": {"ios": "https://dc.lft.to/lastmile_qr_scan", "android": "https://dc.lft.to/lastmile_qr_scan"}}, {"name": "10d0d0d6ae04b47b733bb075bdd0136f", "fusion_lat": 0.0, "type": "electric_scooter", "lat": 38.863506, "is_reserved": 0, "is_disabled": 0, "fusion_lon": 0.0, "bike_id": "10d0d0d6ae04b47b733bb075bdd0136f", "lon": -76.990626, "rental_uris": {"ios": "https://dc.lft.to/lastmile_qr_scan", "android": "https://dc.lft.to/lastmile_qr_scan"}}, {"name": "41643b7e3f7e336144572c6d4bf7f3db", "fusion_lat": 0.0, "type": "electric_scooter", "lat": 38.8805295, "is_reserved": 0, "is_disabled": 0, "fusion_lon": 0.0, "bike_id": "41643b7e3f7e336144572c6d4bf7f3db", "lon": -77.0133385, "rental_uris": {"ios": "https://dc.lft.to/lastmile_qr_scan", "android": "https://dc.lft.to/lastmile_qr_scan"}}, {"name": "0d6659c5052e211eefc1359d8fbea032", "fusion_lat": 0.0, "type": "electric_scooter", "lat": 38.920697833333335, "is_reserved": 0, "is_disabled": 0, "fusion_lon": 0.0, "bike_id": "0d6659c5052e211eefc1359d8fbea032", "lon": -76.99855933333333, "rental_uris": {"ios": "https://dc.lft.to/lastmile_qr_scan", "android": "https://dc.lft.to/lastmile_qr_scan"}}, {"name": "9250a6404357e155737035c90911cee9", "fusion_lat": 0.0, "type": "electric_scooter", "lat": 38.8999685, "is_reserved": 0, "is_disabled": 0, "fusion_lon": 0.0, "bike_id": "9250a6404357e155737035c90911cee9", "lon": -77.05503133333333, "rental_uris": {"ios": "https://dc.lft.to/lastmile_qr_scan", "android": "https://dc.lft.to/lastmile_qr_scan"}}, {"name": "0e1c22bde607a506208129fe9bf443b2", "fusion_lat": 0.0, "type": "electric_scooter", "lat": 38.922972333333334, "is_reserved": 0, "is_disabled": 0, "fusion_lon": 0.0, "bike_id": "0e1c22bde607a506208129fe9bf443b2", "lon": -77.042106, "rental_uris": {"ios": "https://dc.lft.to/lastmile_qr_scan", "android": "https://dc.lft.to/lastmile_qr_scan"}}, {"name": "677910c960cc8a21d3c7eb6a2cb9dc82", "fusion_lat": 0.0, "type": "electric_scooter", "lat": 38.90733433333333, "is_reserved": 0, "is_disabled": 0, "fusion_lon": 0.0, "bike_id": "677910c960cc8a21d3c7eb6a2cb9dc82", "lon": -77.00610833333333, "rental_uris": {"ios": "https://dc.lft.to/lastmile_qr_scan", "android": "https://dc.lft.to/lastmile_qr_scan"}}, {"name": "8edd09b4a5a21feac94469037d434df6", "fusion_lat": 0.0, "type": "electric_scooter", "lat": 38.912546, "is_reserved": 0, "is_disabled": 0, "fusion_lon": 0.0, "bike_id": "8edd09b4a5a21feac94469037d434df6", "lon": -77.03866666666667, "rental_uris": {"ios": "https://dc.lft.to/lastmile_qr_scan", "android": "https://dc.lft.to/lastmile_qr_scan"}}, {"name": "823c0c93c3410e2eb706d114af8a6f24", "fusion_lat": 0.0, "type": "electric_scooter", "lat": 38.942085666666664, "is_reserved": 0, "is_disabled": 0, "fusion_lon": 0.0, "bike_id": "823c0c93c3410e2eb706d114af8a6f24", "lon": -77.03589883333333, "rental_uris": {"ios": "https://dc.lft.to/lastmile_qr_scan", "android": "https://dc.lft.to/lastmile_qr_scan"}}, {"name": "fade997a70b7834d5992eab271721395", "fusion_lat": 0.0, "type": "electric_scooter", "lat": 38.89825416666667, "is_reserved": 0, "is_disabled": 0, "fusion_lon": 0.0, "bike_id": "fade997a70b7834d5992eab271721395", "lon": -76.98781816666667, "rental_uris": {"ios": "https://dc.lft.to/lastmile_qr_scan", "android": "https://dc.lft.to/lastmile_qr_scan"}}, {"name": "76b4d18c9ea545b14a8d14a0b3e917b5", "fusion_lat": 0.0, "type": "electric_scooter", "lat": 38.898033, "is_reserved": 0, "is_disabled": 0, "fusion_lon": 0.0, "bike_id": "76b4d18c9ea545b14a8d14a0b3e917b5", "lon": -76.9916455, "rental_uris": {"ios": "https://dc.lft.to/lastmile_qr_scan", "android": "https://dc.lft.to/lastmile_qr_scan"}}, {"name": "66a1566cf506eedfdceca9a1a0ea5f8d", "fusion_lat": 0.0, "type": "electric_scooter", "lat": 38.89605683333333, "is_reserved": 0, "is_disabled": 0, "fusion_lon": 0.0, "bike_id": "66a1566cf506eedfdceca9a1a0ea5f8d", "lon": -77.02686066666666, "rental_uris": {"ios": "https://dc.lft.to/lastmile_qr_scan", "android": "https://dc.lft.to/lastmile_qr_scan"}}, {"name": "1ef77a3740c266db288e4a66234b86fd", "fusion_lat": 0.0, "type": "electric_bike", "lat": 38.8323335, "is_reserved": 0, "is_disabled": 0, "fusion_lon": 0.0, "bike_id": "1ef77a3740c266db288e4a66234b86fd", "lon": -76.94616616666667, "rental_uris": {"ios": "https://dc.lft.to/lastmile_qr_scan", "android": "https://dc.lft.to/lastmile_qr_scan"}}, {"name": "8db7618b9c9d3d1210a6e5eb15f330f7", "fusion_lat": 0.0, "type": "electric_scooter", "lat": 38.9091355, "is_reserved": 0, "is_disabled": 0, "fusion_lon": 0.0, "bike_id": "8db7618b9c9d3d1210a6e5eb15f330f7", "lon": -77.031774, "rental_uris": {"ios": "https://dc.lft.to/lastmile_qr_scan", "android": "https://dc.lft.to/lastmile_qr_scan"}}, {"name": "886fe5fb7e8d37b2034ae23710fd7312", "fusion_lat": 0.0, "type": "electric_scooter", "lat": 38.890838333333335, "is_reserved": 0, "is_disabled": 0, "fusion_lon": 0.0, "bike_id": "886fe5fb7e8d37b2034ae23710fd7312", "lon": -76.99144516666667, "rental_uris": {"ios": "https://dc.lft.to/lastmile_qr_scan", "android": "https://dc.lft.to/lastmile_qr_scan"}}, {"name": "5d28e7f19adc70cd7af5a805450bdf96", "fusion_lat": 0.0, "type": "electric_scooter", "lat": 38.901216833333336, "is_reserved": 0, "is_disabled": 0, "fusion_lon": 0.0, "bike_id": "5d28e7f19adc70cd7af5a805450bdf96", "lon": -77.02377583333333, "rental_uris": {"ios": "https://dc.lft.to/lastmile_qr_scan", "android": "https://dc.lft.to/lastmile_qr_scan"}}, {"name": "89ac4e486e6288b49a18272ecb9647b6", "fusion_lat": 0.0, "type": "electric_scooter", "lat": 38.909828166666664, "is_reserved": 0, "is_disabled": 0, "fusion_lon": 0.0, "bike_id": "89ac4e486e6288b49a18272ecb9647b6", "lon": -77.04876366666667, "rental_uris": {"ios": "https://dc.lft.to/lastmile_qr_scan", "android": "https://dc.lft.to/lastmile_qr_scan"}}, {"name": "76536c2f1a13d85cc68180d457a614bf", "fusion_lat": 0.0, "type": "electric_scooter", "lat": 38.93964233333333, "is_reserved": 0, "is_disabled": 0, "fusion_lon": 0.0, "bike_id": "76536c2f1a13d85cc68180d457a614bf", "lon": -77.0275135, "rental_uris": {"ios": "https://dc.lft.to/lastmile_qr_scan", "android": "https://dc.lft.to/lastmile_qr_scan"}}, {"name": "da07cdf66fe6e5e60bbc782af3f97a29", "fusion_lat": 0.0, "type": "electric_scooter", "lat": 38.907840666666665, "is_reserved": 0, "is_disabled": 0, "fusion_lon": 0.0, "bike_id": "da07cdf66fe6e5e60bbc782af3f97a29", "lon": -77.03861166666667, "rental_uris": {"ios": "https://dc.lft.to/lastmile_qr_scan", "android": "https://dc.lft.to/lastmile_qr_scan"}}, {"name": "2373e4c1eb0ef60c5ce2def8760cb676", "fusion_lat": 0.0, "type": "electric_scooter", "lat": 38.89294816666666, "is_reserved": 0, "is_disabled": 0, "fusion_lon": 0.0, "bike_id": "2373e4c1eb0ef60c5ce2def8760cb676", "lon": -76.93927566666666, "rental_uris": {"ios": "https://dc.lft.to/lastmile_qr_scan", "android": "https://dc.lft.to/lastmile_qr_scan"}}, {"name": "8d11ded41cc5b73fecca0dd22c8ba309", "fusion_lat": 0.0, "type": "electric_scooter", "lat": 38.92073516666667, "is_reserved": 0, "is_disabled": 0, "fusion_lon": 0.0, "bike_id": "8d11ded41cc5b73fecca0dd22c8ba309", "lon": -77.023934, "rental_uris": {"ios": "https://dc.lft.to/lastmile_qr_scan", "android": "https://dc.lft.to/lastmile_qr_scan"}}, {"name": "48ae1249e6aec32320a8d839c0e6c617", "fusion_lat": 0.0, "type": "electric_scooter", "lat": 38.919083666666666, "is_reserved": 0, "is_disabled": 0, "fusion_lon": 0.0, "bike_id": "48ae1249e6aec32320a8d839c0e6c617", "lon": -77.02618016666666, "rental_uris": {"ios": "https://dc.lft.to/lastmile_qr_scan", "android": "https://dc.lft.to/lastmile_qr_scan"}}, {"name": "2b1bded5f137d6d2a850b74905190712", "fusion_lat": 0.0, "type": "electric_bike", "lat": 39.088988, "is_reserved": 0, "is_disabled": 0, "fusion_lon": 0.0, "bike_id": "2b1bded5f137d6d2a850b74905190712", "lon": -77.17846983333334, "rental_uris": {"ios": "https://dc.lft.to/lastmile_qr_scan", "android": "https://dc.lft.to/lastmile_qr_scan"}}, {"name": "275bf56bcf4da6252e28c6978985ee24", "fusion_lat": 0.0, "type": "electric_scooter", "lat": 38.897292166666666, "is_reserved": 0, "is_disabled": 0, "fusion_lon": 0.0, "bike_id": "275bf56bcf4da6252e28c6978985ee24", "lon": -77.00925416666666, "rental_uris": {"ios": "https://dc.lft.to/lastmile_qr_scan", "android": "https://dc.lft.to/lastmile_qr_scan"}}, {"name": "f7b52a01791712c9c638b59da5ac5566", "fusion_lat": 0.0, "type": "electric_bike", "lat": 38.949599, "is_reserved": 0, "is_disabled": 0, "fusion_lon": 0.0, "bike_id": "f7b52a01791712c9c638b59da5ac5566", "lon": -76.961053, "rental_uris": {"ios": "https://dc.lft.to/lastmile_qr_scan", "android": "https://dc.lft.to/lastmile_qr_scan"}}, {"name": "a03d89938dce13c5e4fdc46c52f80c72", "fusion_lat": 0.0, "type": "electric_scooter", "lat": 38.92149416666667, "is_reserved": 0, "is_disabled": 0, "fusion_lon": 0.0, "bike_id": "a03d89938dce13c5e4fdc46c52f80c72", "lon": -77.03385366666667, "rental_uris": {"ios": "https://dc.lft.to/lastmile_qr_scan", "android": "https://dc.lft.to/lastmile_qr_scan"}}, {"name": "e68f7e9414707519b059003f7c886d73", "fusion_lat": 0.0, "type": "electric_scooter", "lat": 38.9066975, "is_reserved": 0, "is_disabled": 0, "fusion_lon": 0.0, "bike_id": "e68f7e9414707519b059003f7c886d73", "lon": -77.02718416666667, "rental_uris": {"ios": "https://dc.lft.to/lastmile_qr_scan", "android": "https://dc.lft.to/lastmile_qr_scan"}}, {"name": "e838de92d49cddb254a24e997f8227b7", "fusion_lat": 0.0, "type": "electric_scooter", "lat": 38.908447333333335, "is_reserved": 0, "is_disabled": 0, "fusion_lon": 0.0, "bike_id": "e838de92d49cddb254a24e997f8227b7", "lon": -77.00120466666667, "rental_uris": {"ios": "https://dc.lft.to/lastmile_qr_scan", "android": "https://dc.lft.to/lastmile_qr_scan"}}, {"name": "e601de26cad49880ed6f9ed4c702e3d4", "fusion_lat": 0.0, "type": "electric_bike", "lat": 38.8461015, "is_reserved": 0, "is_disabled": 0, "fusion_lon": 0.0, "bike_id": "e601de26cad49880ed6f9ed4c702e3d4", "lon": -76.97836366666667, "rental_uris": {"ios": "https://dc.lft.to/lastmile_qr_scan", "android": "https://dc.lft.to/lastmile_qr_scan"}}, {"name": "4b65619476e9dca2ece8bd8398da7068", "fusion_lat": 0.0, "type": "electric_scooter", "lat": 38.90904066666667, "is_reserved": 0, "is_disabled": 0, "fusion_lon": 0.0, "bike_id": "4b65619476e9dca2ece8bd8398da7068", "lon": -77.02818283333333, "rental_uris": {"ios": "https://dc.lft.to/lastmile_qr_scan", "android": "https://dc.lft.to/lastmile_qr_scan"}}, {"name": "d61e4fbe4cf57dcdc985ea55bba5d399", "fusion_lat": 0.0, "type": "electric_scooter", "lat": 38.90337616666667, "is_reserved": 0, "is_disabled": 0, "fusion_lon": 0.0, "bike_id": "d61e4fbe4cf57dcdc985ea55bba5d399", "lon": -77.05291783333334, "rental_uris": {"ios": "https://dc.lft.to/lastmile_qr_scan", "android": "https://dc.lft.to/lastmile_qr_scan"}}, {"name": "cbca88780470cdd24ab941f3ddafd934", "fusion_lat": 0.0, "type": "electric_scooter", "lat": 38.91965783333333, "is_reserved": 0, "is_disabled": 0, "fusion_lon": 0.0, "bike_id": "cbca88780470cdd24ab941f3ddafd934", "lon": -77.03859666666666, "rental_uris": {"ios": "https://dc.lft.to/lastmile_qr_scan", "android": "https://dc.lft.to/lastmile_qr_scan"}}, {"name": "1799471c6e2546c14f2dedd9d48f4ad5", "fusion_lat": 0.0, "type": "electric_bike", "lat": 39.05813216666667, "is_reserved": 0, "is_disabled": 0, "fusion_lon": 0.0, "bike_id": "1799471c6e2546c14f2dedd9d48f4ad5", "lon": -77.12627, "rental_uris": {"ios": "https://dc.lft.to/lastmile_qr_scan", "android": "https://dc.lft.to/lastmile_qr_scan"}}, {"name": "5a5e53608b14873da80ebb6e40832197", "fusion_lat": 0.0, "type": "electric_scooter", "lat": 38.913323, "is_reserved": 0, "is_disabled": 0, "fusion_lon": 0.0, "bike_id": "5a5e53608b14873da80ebb6e40832197", "lon": -77.04583016666666, "rental_uris": {"ios": "https://dc.lft.to/lastmile_qr_scan", "android": "https://dc.lft.to/lastmile_qr_scan"}}, {"name": "ad62bee538c7d86b398fb2d421eaf495", "fusion_lat": 0.0, "type": "electric_scooter", "lat": 38.941818833333336, "is_reserved": 0, "is_disabled": 0, "fusion_lon": 0.0, "bike_id": "ad62bee538c7d86b398fb2d421eaf495", "lon": -77.03029766666667, "rental_uris": {"ios": "https://dc.lft.to/lastmile_qr_scan", "android": "https://dc.lft.to/lastmile_qr_scan"}}, {"name": "1defb3bf08843612f754bdfb2c204da6", "fusion_lat": 0.0, "type": "electric_scooter", "lat": 38.91108283333333, "is_reserved": 0, "is_disabled": 0, "fusion_lon": 0.0, "bike_id": "1defb3bf08843612f754bdfb2c204da6", "lon": -77.03149833333333, "rental_uris": {"ios": "https://dc.lft.to/lastmile_qr_scan", "android": "https://dc.lft.to/lastmile_qr_scan"}}, {"name": "613dad0f12f46a98b57659c9361b93d8", "fusion_lat": 0.0, "type": "electric_scooter", "lat": 38.88573266666667, "is_reserved": 0, "is_disabled": 0, "fusion_lon": 0.0, "bike_id": "613dad0f12f46a98b57659c9361b93d8", "lon": -76.99633133333333, "rental_uris": {"ios": "https://dc.lft.to/lastmile_qr_scan", "android": "https://dc.lft.to/lastmile_qr_scan"}}, {"name": "d4be2f4e26ddbcb66721cdf4c653929c", "fusion_lat": 0.0, "type": "electric_bike", "lat": 38.8964915, "is_reserved": 0, "is_disabled": 0, "fusion_lon": 0.0, "bike_id": "d4be2f4e26ddbcb66721cdf4c653929c", "lon": -77.08637183333333, "rental_uris": {"ios": "https://dc.lft.to/lastmile_qr_scan", "android": "https://dc.lft.to/lastmile_qr_scan"}}, {"name": "c60c6d579879a2465bee70f43b37f635", "fusion_lat": 0.0, "type": "electric_scooter", "lat": 38.921639, "is_reserved": 0, "is_disabled": 0, "fusion_lon": 0.0, "bike_id": "c60c6d579879a2465bee70f43b37f635", "lon": -77.0422245, "rental_uris": {"ios": "https://dc.lft.to/lastmile_qr_scan", "android": "https://dc.lft.to/lastmile_qr_scan"}}, {"name": "f9e9d4c327a6ec406d797b5ccba3a5a1", "fusion_lat": 0.0, "type": "electric_scooter", "lat": 38.85848766666667, "is_reserved": 0, "is_disabled": 0, "fusion_lon": 0.0, "bike_id": "f9e9d4c327a6ec406d797b5ccba3a5a1", "lon": -76.95885666666666, "rental_uris": {"ios": "https://dc.lft.to/lastmile_qr_scan", "android": "https://dc.lft.to/lastmile_qr_scan"}}, {"name": "3dfd0e2b7cf7a010f9616acbcea9be92", "fusion_lat": 0.0, "type": "electric_scooter", "lat": 38.89454516666667, "is_reserved": 0, "is_disabled": 0, "fusion_lon": 0.0, "bike_id": "3dfd0e2b7cf7a010f9616acbcea9be92", "lon": -77.019214, "rental_uris": {"ios": "https://dc.lft.to/lastmile_qr_scan", "android": "https://dc.lft.to/lastmile_qr_scan"}}, {"name": "77c0eea81ad329a0358e2bfb158d6fb9", "fusion_lat": 0.0, "type": "electric_scooter", "lat": 38.932898, "is_reserved": 0, "is_disabled": 0, "fusion_lon": 0.0, "bike_id": "77c0eea81ad329a0358e2bfb158d6fb9", "lon": -77.039821, "rental_uris": {"ios": "https://dc.lft.to/lastmile_qr_scan", "android": "https://dc.lft.to/lastmile_qr_scan"}}, {"name": "efdcfb0ea4650990fae2bd47591383bb", "fusion_lat": 0.0, "type": "electric_scooter", "lat": 38.886880833333336, "is_reserved": 0, "is_disabled": 0, "fusion_lon": 0.0, "bike_id": "efdcfb0ea4650990fae2bd47591383bb", "lon": -76.95757833333333, "rental_uris": {"ios": "https://dc.lft.to/lastmile_qr_scan", "android": "https://dc.lft.to/lastmile_qr_scan"}}, {"name": "7aca2dec974da93a6dc335ecf2200b30", "fusion_lat": 0.0, "type": "electric_bike", "lat": 38.838274166666665, "is_reserved": 0, "is_disabled": 0, "fusion_lon": 0.0, "bike_id": "7aca2dec974da93a6dc335ecf2200b30", "lon": -76.99684, "rental_uris": {"ios": "https://dc.lft.to/lastmile_qr_scan", "android": "https://dc.lft.to/lastmile_qr_scan"}}, {"name": "d3925ce426a7134ff7632f1573aa168b", "fusion_lat": 0.0, "type": "electric_scooter", "lat": 38.90773983333333, "is_reserved": 0, "is_disabled": 0, "fusion_lon": 0.0, "bike_id": "d3925ce426a7134ff7632f1573aa168b", "lon": -77.07174266666667, "rental_uris": {"ios": "https://dc.lft.to/lastmile_qr_scan", "android": "https://dc.lft.to/lastmile_qr_scan"}}, {"name": "93df2007f7c9e5f6f3b77c0a7b8f5589", "fusion_lat": 0.0, "type": "electric_bike", "lat": 38.94229216666667, "is_reserved": 0, "is_disabled": 0, "fusion_lon": 0.0, "bike_id": "93df2007f7c9e5f6f3b77c0a7b8f5589", "lon": -77.01387583333333, "rental_uris": {"ios": "https://dc.lft.to/lastmile_qr_scan", "android": "https://dc.lft.to/lastmile_qr_scan"}}, {"name": "a2c04cb3b760c5199f70e5b088b7ea7f", "fusion_lat": 0.0, "type": "electric_scooter", "lat": 38.89736216666667, "is_reserved": 0, "is_disabled": 0, "fusion_lon": 0.0, "bike_id": "a2c04cb3b760c5199f70e5b088b7ea7f", "lon": -76.93845316666666, "rental_uris": {"ios": "https://dc.lft.to/lastmile_qr_scan", "android": "https://dc.lft.to/lastmile_qr_scan"}}, {"name": "601fbf39b2fb2421f6063b0360a830b5", "fusion_lat": 0.0, "type": "electric_scooter", "lat": 38.937797833333335, "is_reserved": 0, "is_disabled": 0, "fusion_lon": 0.0, "bike_id": "601fbf39b2fb2421f6063b0360a830b5", "lon": -77.059954, "rental_uris": {"ios": "https://dc.lft.to/lastmile_qr_scan", "android": "https://dc.lft.to/lastmile_qr_scan"}}, {"name": "c2892f5844e59a1a4ccaad6e12e71bdc", "fusion_lat": 0.0, "type": "electric_scooter", "lat": 38.900358, "is_reserved": 0, "is_disabled": 0, "fusion_lon": 0.0, "bike_id": "c2892f5844e59a1a4ccaad6e12e71bdc", "lon": -77.0018765, "rental_uris": {"ios": "https://dc.lft.to/lastmile_qr_scan", "android": "https://dc.lft.to/lastmile_qr_scan"}}, {"name": "75bd99cd2f8dd92138981225046ad0f0", "fusion_lat": 0.0, "type": "electric_scooter", "lat": 38.9068015, "is_reserved": 0, "is_disabled": 0, "fusion_lon": 0.0, "bike_id": "75bd99cd2f8dd92138981225046ad0f0", "lon": -77.0109875, "rental_uris": {"ios": "https://dc.lft.to/lastmile_qr_scan", "android": "https://dc.lft.to/lastmile_qr_scan"}}, {"name": "c94bd5b9523c014886d0117e764d061a", "fusion_lat": 0.0, "type": "electric_scooter", "lat": 38.9037345, "is_reserved": 0, "is_disabled": 0, "fusion_lon": 0.0, "bike_id": "c94bd5b9523c014886d0117e764d061a", "lon": -77.01090066666667, "rental_uris": {"ios": "https://dc.lft.to/lastmile_qr_scan", "android": "https://dc.lft.to/lastmile_qr_scan"}}, {"name": "2c03e4d0ef066c086ba7df5def38a470", "fusion_lat": 0.0, "type": "electric_scooter", "lat": 38.9124645, "is_reserved": 0, "is_disabled": 0, "fusion_lon": 0.0, "bike_id": "2c03e4d0ef066c086ba7df5def38a470", "lon": -77.0383435, "rental_uris": {"ios": "https://dc.lft.to/lastmile_qr_scan", "android": "https://dc.lft.to/lastmile_qr_scan"}}, {"name": "ef57aed55e2b1ab5bc9ed9ea72a57988", "fusion_lat": 0.0, "type": "electric_scooter", "lat": 38.911565, "is_reserved": 0, "is_disabled": 0, "fusion_lon": 0.0, "bike_id": "ef57aed55e2b1ab5bc9ed9ea72a57988", "lon": -77.0219945, "rental_uris": {"ios": "https://dc.lft.to/lastmile_qr_scan", "android": "https://dc.lft.to/lastmile_qr_scan"}}, {"name": "c5ee5e3c6b54b4a0e8e185628b438e37", "fusion_lat": 0.0, "type": "electric_scooter", "lat": 38.898508666666665, "is_reserved": 0, "is_disabled": 0, "fusion_lon": 0.0, "bike_id": "c5ee5e3c6b54b4a0e8e185628b438e37", "lon": -76.99035683333334, "rental_uris": {"ios": "https://dc.lft.to/lastmile_qr_scan", "android": "https://dc.lft.to/lastmile_qr_scan"}}, {"name": "b82ff54f5afbf13088e1cd8739665b8b", "fusion_lat": 0.0, "type": "electric_scooter", "lat": 38.903336333333336, "is_reserved": 0, "is_disabled": 0, "fusion_lon": 0.0, "bike_id": "b82ff54f5afbf13088e1cd8739665b8b", "lon": -76.99856, "rental_uris": {"ios": "https://dc.lft.to/lastmile_qr_scan", "android": "https://dc.lft.to/lastmile_qr_scan"}}, {"name": "493b7e5ede6b5dc929a767ee27d35cb0", "fusion_lat": 0.0, "type": "electric_scooter", "lat": 38.90090216666667, "is_reserved": 0, "is_disabled": 0, "fusion_lon": 0.0, "bike_id": "493b7e5ede6b5dc929a767ee27d35cb0", "lon": -77.05032116666666, "rental_uris": {"ios": "https://dc.lft.to/lastmile_qr_scan", "android": "https://dc.lft.to/lastmile_qr_scan"}}, {"name": "3195e92a0e36df88caefcc168112bc47", "fusion_lat": 0.0, "type": "electric_scooter", "lat": 38.93885683333333, "is_reserved": 0, "is_disabled": 0, "fusion_lon": 0.0, "bike_id": "3195e92a0e36df88caefcc168112bc47", "lon": -77.02466083333333, "rental_uris": {"ios": "https://dc.lft.to/lastmile_qr_scan", "android": "https://dc.lft.to/lastmile_qr_scan"}}, {"name": "9055671010bf2fd7b2cd2ce800a6de15", "fusion_lat": 0.0, "type": "electric_scooter", "lat": 38.90049416666667, "is_reserved": 0, "is_disabled": 0, "fusion_lon": 0.0, "bike_id": "9055671010bf2fd7b2cd2ce800a6de15", "lon": -77.01668666666667, "rental_uris": {"ios": "https://dc.lft.to/lastmile_qr_scan", "android": "https://dc.lft.to/lastmile_qr_scan"}}, {"name": "cf070d64af5daf7879261205a3d8e329", "fusion_lat": 0.0, "type": "electric_bike", "lat": 38.906870166666664, "is_reserved": 0, "is_disabled": 0, "fusion_lon": 0.0, "bike_id": "cf070d64af5daf7879261205a3d8e329", "lon": -76.9518975, "rental_uris": {"ios": "https://dc.lft.to/lastmile_qr_scan", "android": "https://dc.lft.to/lastmile_qr_scan"}}, {"name": "3def300bd75a1f0271df0e1cae4bd89f", "fusion_lat": 0.0, "type": "electric_scooter", "lat": 38.89524566666667, "is_reserved": 0, "is_disabled": 0, "fusion_lon": 0.0, "bike_id": "3def300bd75a1f0271df0e1cae4bd89f", "lon": -77.042899, "rental_uris": {"ios": "https://dc.lft.to/lastmile_qr_scan", "android": "https://dc.lft.to/lastmile_qr_scan"}}, {"name": "33f79c91883c38e42f3f73719d41c628", "fusion_lat": 0.0, "type": "electric_scooter", "lat": 38.907511166666666, "is_reserved": 0, "is_disabled": 0, "fusion_lon": 0.0, "bike_id": "33f79c91883c38e42f3f73719d41c628", "lon": -77.03219816666666, "rental_uris": {"ios": "https://dc.lft.to/lastmile_qr_scan", "android": "https://dc.lft.to/lastmile_qr_scan"}}, {"name": "76031ee7fc3447a20f58d174f17b071c", "fusion_lat": 0.0, "type": "electric_scooter", "lat": 38.897284666666664, "is_reserved": 0, "is_disabled": 0, "fusion_lon": 0.0, "bike_id": "76031ee7fc3447a20f58d174f17b071c", "lon": -77.03106716666667, "rental_uris": {"ios": "https://dc.lft.to/lastmile_qr_scan", "android": "https://dc.lft.to/lastmile_qr_scan"}}, {"name": "6676ee7c7a9170d7258a0e229294d8f0", "fusion_lat": 0.0, "type": "electric_bike", "lat": 38.802252833333334, "is_reserved": 0, "is_disabled": 0, "fusion_lon": 0.0, "bike_id": "6676ee7c7a9170d7258a0e229294d8f0", "lon": -77.0791735, "rental_uris": {"ios": "https://dc.lft.to/lastmile_qr_scan", "android": "https://dc.lft.to/lastmile_qr_scan"}}, {"name": "23cdefbd823cb329cd2aad4866ef37e6", "fusion_lat": 0.0, "type": "electric_scooter", "lat": 38.90025933333333, "is_reserved": 0, "is_disabled": 0, "fusion_lon": 0.0, "bike_id": "23cdefbd823cb329cd2aad4866ef37e6", "lon": -76.99864933333333, "rental_uris": {"ios": "https://dc.lft.to/lastmile_qr_scan", "android": "https://dc.lft.to/lastmile_qr_scan"}}, {"name": "7612998a5e4303cc9cf21e1fe89560cb", "fusion_lat": 0.0, "type": "electric_scooter", "lat": 38.91045116666667, "is_reserved": 0, "is_disabled": 0, "fusion_lon": 0.0, "bike_id": "7612998a5e4303cc9cf21e1fe89560cb", "lon": -77.0437255, "rental_uris": {"ios": "https://dc.lft.to/lastmile_qr_scan", "android": "https://dc.lft.to/lastmile_qr_scan"}}, {"name": "05bc4b3c3edc84f78cf3396658b02aee", "fusion_lat": 0.0, "type": "electric_scooter", "lat": 38.8985185, "is_reserved": 0, "is_disabled": 0, "fusion_lon": 0.0, "bike_id": "05bc4b3c3edc84f78cf3396658b02aee", "lon": -77.01614966666666, "rental_uris": {"ios": "https://dc.lft.to/lastmile_qr_scan", "android": "https://dc.lft.to/lastmile_qr_scan"}}, {"name": "f5f75d64bc5a209b053e55f7bbb25f3c", "fusion_lat": 0.0, "type": "electric_scooter", "lat": 38.893719833333336, "is_reserved": 0, "is_disabled": 0, "fusion_lon": 0.0, "bike_id": "f5f75d64bc5a209b053e55f7bbb25f3c", "lon": -76.94998666666666, "rental_uris": {"ios": "https://dc.lft.to/lastmile_qr_scan", "android": "https://dc.lft.to/lastmile_qr_scan"}}, {"name": "fa1f304f2f6b825f8e9a2d812b952fd4", "fusion_lat": 0.0, "type": "electric_scooter", "lat": 38.942824333333334, "is_reserved": 0, "is_disabled": 0, "fusion_lon": 0.0, "bike_id": "fa1f304f2f6b825f8e9a2d812b952fd4", "lon": -77.0250835, "rental_uris": {"ios": "https://dc.lft.to/lastmile_qr_scan", "android": "https://dc.lft.to/lastmile_qr_scan"}}, {"name": "448846b570676669ab0e491368ec9fb7", "fusion_lat": 0.0, "type": "electric_scooter", "lat": 38.927268833333336, "is_reserved": 0, "is_disabled": 0, "fusion_lon": 0.0, "bike_id": "448846b570676669ab0e491368ec9fb7", "lon": -77.07143666666667, "rental_uris": {"ios": "https://dc.lft.to/lastmile_qr_scan", "android": "https://dc.lft.to/lastmile_qr_scan"}}, {"name": "359ec0389baf64d1811d64a308861452", "fusion_lat": 0.0, "type": "electric_scooter", "lat": 38.90033566666666, "is_reserved": 0, "is_disabled": 0, "fusion_lon": 0.0, "bike_id": "359ec0389baf64d1811d64a308861452", "lon": -76.99828166666667, "rental_uris": {"ios": "https://dc.lft.to/lastmile_qr_scan", "android": "https://dc.lft.to/lastmile_qr_scan"}}, {"name": "0f26f2bac7ce9786b4e2c437ab837fd7", "fusion_lat": 0.0, "type": "electric_scooter", "lat": 38.88591366666667, "is_reserved": 0, "is_disabled": 0, "fusion_lon": 0.0, "bike_id": "0f26f2bac7ce9786b4e2c437ab837fd7", "lon": -77.02203666666666, "rental_uris": {"ios": "https://dc.lft.to/lastmile_qr_scan", "android": "https://dc.lft.to/lastmile_qr_scan"}}, {"name": "e75b3df3077f47436e30a3c7e12192ac", "fusion_lat": 0.0, "type": "electric_scooter", "lat": 38.934166833333336, "is_reserved": 0, "is_disabled": 0, "fusion_lon": 0.0, "bike_id": "e75b3df3077f47436e30a3c7e12192ac", "lon": -77.04190366666667, "rental_uris": {"ios": "https://dc.lft.to/lastmile_qr_scan", "android": "https://dc.lft.to/lastmile_qr_scan"}}, {"name": "1e31d3cc7e36951c6089201ca1e2cf7e", "fusion_lat": 0.0, "type": "electric_bike", "lat": 38.883474666666665, "is_reserved": 0, "is_disabled": 0, "fusion_lon": 0.0, "bike_id": "1e31d3cc7e36951c6089201ca1e2cf7e", "lon": -77.18300183333334, "rental_uris": {"ios": "https://dc.lft.to/lastmile_qr_scan", "android": "https://dc.lft.to/lastmile_qr_scan"}}, {"name": "8393447dd24352b55bd011d1ea3dadcf", "fusion_lat": 0.0, "type": "electric_scooter", "lat": 38.90541566666667, "is_reserved": 0, "is_disabled": 0, "fusion_lon": 0.0, "bike_id": "8393447dd24352b55bd011d1ea3dadcf", "lon": -77.06283183333333, "rental_uris": {"ios": "https://dc.lft.to/lastmile_qr_scan", "android": "https://dc.lft.to/lastmile_qr_scan"}}, {"name": "15a6906748b28f90656169352dfba4b3", "fusion_lat": 0.0, "type": "electric_scooter", "lat": 38.878657, "is_reserved": 0, "is_disabled": 0, "fusion_lon": 0.0, "bike_id": "15a6906748b28f90656169352dfba4b3", "lon": -76.96527683333333, "rental_uris": {"ios": "https://dc.lft.to/lastmile_qr_scan", "android": "https://dc.lft.to/lastmile_qr_scan"}}, {"name": "b7d16c378db3ee5e821097b56439e78c", "fusion_lat": 0.0, "type": "electric_scooter", "lat": 38.895179166666665, "is_reserved": 0, "is_disabled": 0, "fusion_lon": 0.0, "bike_id": "b7d16c378db3ee5e821097b56439e78c", "lon": -76.992172, "rental_uris": {"ios": "https://dc.lft.to/lastmile_qr_scan", "android": "https://dc.lft.to/lastmile_qr_scan"}}, {"name": "ff8a276c522a2e16533aa9522f230cdb", "fusion_lat": 0.0, "type": "electric_scooter", "lat": 38.90337433333333, "is_reserved": 0, "is_disabled": 0, "fusion_lon": 0.0, "bike_id": "ff8a276c522a2e16533aa9522f230cdb", "lon": -77.05433283333333, "rental_uris": {"ios": "https://dc.lft.to/lastmile_qr_scan", "android": "https://dc.lft.to/lastmile_qr_scan"}}, {"name": "1a5daf857d18a4cc6f2f9d54a9818ab2", "fusion_lat": 0.0, "type": "electric_scooter", "lat": 38.900809833333334, "is_reserved": 0, "is_disabled": 0, "fusion_lon": 0.0, "bike_id": "1a5daf857d18a4cc6f2f9d54a9818ab2", "lon": -77.0500775, "rental_uris": {"ios": "https://dc.lft.to/lastmile_qr_scan", "android": "https://dc.lft.to/lastmile_qr_scan"}}, {"name": "47eca649069129ae89e32534b7b6be8a", "fusion_lat": 0.0, "type": "electric_scooter", "lat": 38.91877133333333, "is_reserved": 0, "is_disabled": 0, "fusion_lon": 0.0, "bike_id": "47eca649069129ae89e32534b7b6be8a", "lon": -77.0431425, "rental_uris": {"ios": "https://dc.lft.to/lastmile_qr_scan", "android": "https://dc.lft.to/lastmile_qr_scan"}}, {"name": "a942878eaa43bef9ab1f59e71c653110", "fusion_lat": 0.0, "type": "electric_scooter", "lat": 38.9208885, "is_reserved": 0, "is_disabled": 0, "fusion_lon": 0.0, "bike_id": "a942878eaa43bef9ab1f59e71c653110", "lon": -77.04693216666666, "rental_uris": {"ios": "https://dc.lft.to/lastmile_qr_scan", "android": "https://dc.lft.to/lastmile_qr_scan"}}, {"name": "b5bb20bc910e78b79f7720ea427370f4", "fusion_lat": 0.0, "type": "electric_scooter", "lat": 38.912099833333336, "is_reserved": 0, "is_disabled": 0, "fusion_lon": 0.0, "bike_id": "b5bb20bc910e78b79f7720ea427370f4", "lon": -77.03645066666667, "rental_uris": {"ios": "https://dc.lft.to/lastmile_qr_scan", "android": "https://dc.lft.to/lastmile_qr_scan"}}, {"name": "aec3f865c8a1d5a6c4b67e8d2cc918a6", "fusion_lat": 0.0, "type": "electric_scooter", "lat": 38.902353166666664, "is_reserved": 0, "is_disabled": 0, "fusion_lon": 0.0, "bike_id": "aec3f865c8a1d5a6c4b67e8d2cc918a6", "lon": -77.02689083333334, "rental_uris": {"ios": "https://dc.lft.to/lastmile_qr_scan", "android": "https://dc.lft.to/lastmile_qr_scan"}}, {"name": "f6e22145bdad50eaf20cce192041be79", "fusion_lat": 0.0, "type": "electric_scooter", "lat": 38.904082, "is_reserved": 0, "is_disabled": 0, "fusion_lon": 0.0, "bike_id": "f6e22145bdad50eaf20cce192041be79", "lon": -77.03422416666666, "rental_uris": {"ios": "https://dc.lft.to/lastmile_qr_scan", "android": "https://dc.lft.to/lastmile_qr_scan"}}, {"name": "f9c0f5c5377ea2d6dc7ddab568229ea5", "fusion_lat": 0.0, "type": "electric_scooter", "lat": 38.9231585, "is_reserved": 0, "is_disabled": 0, "fusion_lon": 0.0, "bike_id": "f9c0f5c5377ea2d6dc7ddab568229ea5", "lon": -77.03973683333334, "rental_uris": {"ios": "https://dc.lft.to/lastmile_qr_scan", "android": "https://dc.lft.to/lastmile_qr_scan"}}, {"name": "d87225fd13c27469f66ad89620c06cda", "fusion_lat": 0.0, "type": "electric_scooter", "lat": 38.906195333333336, "is_reserved": 0, "is_disabled": 0, "fusion_lon": 0.0, "bike_id": "d87225fd13c27469f66ad89620c06cda", "lon": -77.029556, "rental_uris": {"ios": "https://dc.lft.to/lastmile_qr_scan", "android": "https://dc.lft.to/lastmile_qr_scan"}}, {"name": "8c8fdb5194cd6ab723f946e1cf9349df", "fusion_lat": 0.0, "type": "electric_scooter", "lat": 38.924605, "is_reserved": 0, "is_disabled": 0, "fusion_lon": 0.0, "bike_id": "8c8fdb5194cd6ab723f946e1cf9349df", "lon": -77.03636816666666, "rental_uris": {"ios": "https://dc.lft.to/lastmile_qr_scan", "android": "https://dc.lft.to/lastmile_qr_scan"}}, {"name": "49a69d37ec36e8366b149fe1b91f2a9c", "fusion_lat": 0.0, "type": "electric_scooter", "lat": 38.9280515, "is_reserved": 0, "is_disabled": 0, "fusion_lon": 0.0, "bike_id": "49a69d37ec36e8366b149fe1b91f2a9c", "lon": -77.03627616666667, "rental_uris": {"ios": "https://dc.lft.to/lastmile_qr_scan", "android": "https://dc.lft.to/lastmile_qr_scan"}}, {"name": "416310efddb66f98f85e2df254788b6e", "fusion_lat": 0.0, "type": "electric_scooter", "lat": 38.929337833333335, "is_reserved": 0, "is_disabled": 0, "fusion_lon": 0.0, "bike_id": "416310efddb66f98f85e2df254788b6e", "lon": -77.03665433333333, "rental_uris": {"ios": "https://dc.lft.to/lastmile_qr_scan", "android": "https://dc.lft.to/lastmile_qr_scan"}}, {"name": "33a2e2cf5eae8c5c69362d384bc9848e", "fusion_lat": 0.0, "type": "electric_scooter", "lat": 38.90150383333334, "is_reserved": 0, "is_disabled": 0, "fusion_lon": 0.0, "bike_id": "33a2e2cf5eae8c5c69362d384bc9848e", "lon": -77.04233333333333, "rental_uris": {"ios": "https://dc.lft.to/lastmile_qr_scan", "android": "https://dc.lft.to/lastmile_qr_scan"}}, {"name": "77e2de3c4400d261ddb7f5d0dfc37dcd", "fusion_lat": 0.0, "type": "electric_scooter", "lat": 38.945972166666664, "is_reserved": 0, "is_disabled": 0, "fusion_lon": 0.0, "bike_id": "77e2de3c4400d261ddb7f5d0dfc37dcd", "lon": -77.02977416666667, "rental_uris": {"ios": "https://dc.lft.to/lastmile_qr_scan", "android": "https://dc.lft.to/lastmile_qr_scan"}}, {"name": "62779ba593bbb640413fc8db26ac89ae", "fusion_lat": 0.0, "type": "electric_scooter", "lat": 38.91933083333333, "is_reserved": 0, "is_disabled": 0, "fusion_lon": 0.0, "bike_id": "62779ba593bbb640413fc8db26ac89ae", "lon": -77.03228216666666, "rental_uris": {"ios": "https://dc.lft.to/lastmile_qr_scan", "android": "https://dc.lft.to/lastmile_qr_scan"}}, {"name": "468a780b68c3543e3397ced798c0866a", "fusion_lat": 0.0, "type": "electric_scooter", "lat": 38.900482333333336, "is_reserved": 0, "is_disabled": 0, "fusion_lon": 0.0, "bike_id": "468a780b68c3543e3397ced798c0866a", "lon": -77.00070083333334, "rental_uris": {"ios": "https://dc.lft.to/lastmile_qr_scan", "android": "https://dc.lft.to/lastmile_qr_scan"}}, {"name": "b07b43d8b0ba607b2137fdaf0b93e695", "fusion_lat": 0.0, "type": "electric_scooter", "lat": 38.915965166666666, "is_reserved": 0, "is_disabled": 0, "fusion_lon": 0.0, "bike_id": "b07b43d8b0ba607b2137fdaf0b93e695", "lon": -77.0416245, "rental_uris": {"ios": "https://dc.lft.to/lastmile_qr_scan", "android": "https://dc.lft.to/lastmile_qr_scan"}}, {"name": "4b66c914ed3550016cea2249b6322aca", "fusion_lat": 0.0, "type": "electric_bike", "lat": 38.925779166666665, "is_reserved": 0, "is_disabled": 0, "fusion_lon": 0.0, "bike_id": "4b66c914ed3550016cea2249b6322aca", "lon": -76.99491133333333, "rental_uris": {"ios": "https://dc.lft.to/lastmile_qr_scan", "android": "https://dc.lft.to/lastmile_qr_scan"}}, {"name": "76456e2b15b6bffdb2eea2d90a394de0", "fusion_lat": 0.0, "type": "electric_scooter", "lat": 38.93607566666667, "is_reserved": 0, "is_disabled": 0, "fusion_lon": 0.0, "bike_id": "76456e2b15b6bffdb2eea2d90a394de0", "lon": -77.05865133333333, "rental_uris": {"ios": "https://dc.lft.to/lastmile_qr_scan", "android": "https://dc.lft.to/lastmile_qr_scan"}}, {"name": "45d3fdbdc516d9a0507079f1b772ba8b", "fusion_lat": 0.0, "type": "electric_scooter", "lat": 38.911319, "is_reserved": 0, "is_disabled": 0, "fusion_lon": 0.0, "bike_id": "45d3fdbdc516d9a0507079f1b772ba8b", "lon": -77.03744566666667, "rental_uris": {"ios": "https://dc.lft.to/lastmile_qr_scan", "android": "https://dc.lft.to/lastmile_qr_scan"}}, {"name": "ac848b50e6a6bf44d5df36a77a6dfdfd", "fusion_lat": 0.0, "type": "electric_scooter", "lat": 38.8835615, "is_reserved": 0, "is_disabled": 0, "fusion_lon": 0.0, "bike_id": "ac848b50e6a6bf44d5df36a77a6dfdfd", "lon": -76.99611416666667, "rental_uris": {"ios": "https://dc.lft.to/lastmile_qr_scan", "android": "https://dc.lft.to/lastmile_qr_scan"}}, {"name": "eef1647317600e49f2c9ed6e24dbd262", "fusion_lat": 0.0, "type": "electric_scooter", "lat": 38.92338916666667, "is_reserved": 0, "is_disabled": 0, "fusion_lon": 0.0, "bike_id": "eef1647317600e49f2c9ed6e24dbd262", "lon": -77.04193033333334, "rental_uris": {"ios": "https://dc.lft.to/lastmile_qr_scan", "android": "https://dc.lft.to/lastmile_qr_scan"}}, {"name": "15f922c1f6a547e22c662c99b3a0cb60", "fusion_lat": 0.0, "type": "electric_scooter", "lat": 38.909481, "is_reserved": 0, "is_disabled": 0, "fusion_lon": 0.0, "bike_id": "15f922c1f6a547e22c662c99b3a0cb60", "lon": -77.04942616666666, "rental_uris": {"ios": "https://dc.lft.to/lastmile_qr_scan", "android": "https://dc.lft.to/lastmile_qr_scan"}}, {"name": "2ec5f79beea3d0b7c4f9be38021f6c14", "fusion_lat": 0.0, "type": "electric_scooter", "lat": 38.925683166666666, "is_reserved": 0, "is_disabled": 0, "fusion_lon": 0.0, "bike_id": "2ec5f79beea3d0b7c4f9be38021f6c14", "lon": -77.04379366666667, "rental_uris": {"ios": "https://dc.lft.to/lastmile_qr_scan", "android": "https://dc.lft.to/lastmile_qr_scan"}}, {"name": "6440e29d5b7eaee30ca1fb87f62fc6c5", "fusion_lat": 0.0, "type": "electric_scooter", "lat": 38.917843, "is_reserved": 0, "is_disabled": 0, "fusion_lon": 0.0, "bike_id": "6440e29d5b7eaee30ca1fb87f62fc6c5", "lon": -77.022978, "rental_uris": {"ios": "https://dc.lft.to/lastmile_qr_scan", "android": "https://dc.lft.to/lastmile_qr_scan"}}, {"name": "13f67d76ca047592a402ee3ca186fdaf", "fusion_lat": 0.0, "type": "electric_scooter", "lat": 38.920377, "is_reserved": 0, "is_disabled": 0, "fusion_lon": 0.0, "bike_id": "13f67d76ca047592a402ee3ca186fdaf", "lon": -77.07149633333333, "rental_uris": {"ios": "https://dc.lft.to/lastmile_qr_scan", "android": "https://dc.lft.to/lastmile_qr_scan"}}, {"name": "be6c7b9e5b898bf3916d046cebf218c3", "fusion_lat": 0.0, "type": "electric_scooter", "lat": 38.88735366666667, "is_reserved": 0, "is_disabled": 0, "fusion_lon": 0.0, "bike_id": "be6c7b9e5b898bf3916d046cebf218c3", "lon": -77.032094, "rental_uris": {"ios": "https://dc.lft.to/lastmile_qr_scan", "android": "https://dc.lft.to/lastmile_qr_scan"}}, {"name": "e55d5eb515767ffccdc324b88b0809ec", "fusion_lat": 0.0, "type": "electric_scooter", "lat": 38.905612166666664, "is_reserved": 0, "is_disabled": 0, "fusion_lon": 0.0, "bike_id": "e55d5eb515767ffccdc324b88b0809ec", "lon": -77.02232083333334, "rental_uris": {"ios": "https://dc.lft.to/lastmile_qr_scan", "android": "https://dc.lft.to/lastmile_qr_scan"}}, {"name": "2528be91a0edf8b34d11fa461da1b6c6", "fusion_lat": 0.0, "type": "electric_bike", "lat": 39.08859616666667, "is_reserved": 0, "is_disabled": 0, "fusion_lon": 0.0, "bike_id": "2528be91a0edf8b34d11fa461da1b6c6", "lon": -77.1784175, "rental_uris": {"ios": "https://dc.lft.to/lastmile_qr_scan", "android": "https://dc.lft.to/lastmile_qr_scan"}}, {"name": "69d047a4bced98c2a8c4d6aa2ec07b01", "fusion_lat": 0.0, "type": "electric_scooter", "lat": 38.90720433333333, "is_reserved": 0, "is_disabled": 0, "fusion_lon": 0.0, "bike_id": "69d047a4bced98c2a8c4d6aa2ec07b01", "lon": -77.03264183333333, "rental_uris": {"ios": "https://dc.lft.to/lastmile_qr_scan", "android": "https://dc.lft.to/lastmile_qr_scan"}}, {"name": "b90e22adc2ff754a976e01e5ea9e8226", "fusion_lat": 0.0, "type": "electric_scooter", "lat": 38.901458166666664, "is_reserved": 0, "is_disabled": 0, "fusion_lon": 0.0, "bike_id": "b90e22adc2ff754a976e01e5ea9e8226", "lon": -77.042468, "rental_uris": {"ios": "https://dc.lft.to/lastmile_qr_scan", "android": "https://dc.lft.to/lastmile_qr_scan"}}, {"name": "297e68fb9d30b1d2278d9696a7f79e2b", "fusion_lat": 0.0, "type": "electric_bike", "lat": 39.053591, "is_reserved": 0, "is_disabled": 0, "fusion_lon": 0.0, "bike_id": "297e68fb9d30b1d2278d9696a7f79e2b", "lon": -77.0472815, "rental_uris": {"ios": "https://dc.lft.to/lastmile_qr_scan", "android": "https://dc.lft.to/lastmile_qr_scan"}}, {"name": "63db92a6ca4578ceef326452636e3a86", "fusion_lat": 0.0, "type": "electric_bike", "lat": 38.92850583333333, "is_reserved": 0, "is_disabled": 0, "fusion_lon": 0.0, "bike_id": "63db92a6ca4578ceef326452636e3a86", "lon": -77.222045, "rental_uris": {"ios": "https://dc.lft.to/lastmile_qr_scan", "android": "https://dc.lft.to/lastmile_qr_scan"}}, {"name": "cc7d624ce821debe4c7697ade895a8d9", "fusion_lat": 0.0, "type": "electric_scooter", "lat": 38.95646716666667, "is_reserved": 0, "is_disabled": 0, "fusion_lon": 0.0, "bike_id": "cc7d624ce821debe4c7697ade895a8d9", "lon": -77.03287216666666, "rental_uris": {"ios": "https://dc.lft.to/lastmile_qr_scan", "android": "https://dc.lft.to/lastmile_qr_scan"}}, {"name": "483dd6892eec815a08e2a8e854749899", "fusion_lat": 0.0, "type": "electric_scooter", "lat": 38.922567666666666, "is_reserved": 0, "is_disabled": 0, "fusion_lon": 0.0, "bike_id": "483dd6892eec815a08e2a8e854749899", "lon": -76.9940835, "rental_uris": {"ios": "https://dc.lft.to/lastmile_qr_scan", "android": "https://dc.lft.to/lastmile_qr_scan"}}, {"name": "35c1f4123ff014734fa35309f55fdade", "fusion_lat": 0.0, "type": "electric_scooter", "lat": 38.91271183333333, "is_reserved": 0, "is_disabled": 0, "fusion_lon": 0.0, "bike_id": "35c1f4123ff014734fa35309f55fdade", "lon": -77.032575, "rental_uris": {"ios": "https://dc.lft.to/lastmile_qr_scan", "android": "https://dc.lft.to/lastmile_qr_scan"}}, {"name": "f384637e284116c0baa691dc5e670546", "fusion_lat": 0.0, "type": "electric_scooter", "lat": 38.90281983333333, "is_reserved": 0, "is_disabled": 0, "fusion_lon": 0.0, "bike_id": "f384637e284116c0baa691dc5e670546", "lon": -77.036589, "rental_uris": {"ios": "https://dc.lft.to/lastmile_qr_scan", "android": "https://dc.lft.to/lastmile_qr_scan"}}, {"name": "4066a5fab593076d539a5c6261548176", "fusion_lat": 0.0, "type": "electric_scooter", "lat": 38.865344666666665, "is_reserved": 0, "is_disabled": 0, "fusion_lon": 0.0, "bike_id": "4066a5fab593076d539a5c6261548176", "lon": -76.98706616666666, "rental_uris": {"ios": "https://dc.lft.to/lastmile_qr_scan", "android": "https://dc.lft.to/lastmile_qr_scan"}},