{"data": {"bikes": [{"lat": 38.887490166666666, "fusion_lat": 0.0, "type": "electric_scooter", "bike_id": "fb120c97ab7bca291bed16aa48136b72", "rental_uris": {"ios": "https://dc.lft.to/lastmile_qr_scan", "android": "https://dc.lft.to/lastmile_qr_scan"}, "fusion_lon": 0.0, "lon": -77.02772033333333, "name": "fb120c97ab7bca291bed16aa48136b72", "is_reserved": 0, "is_disabled": 0}, {"lat": 38.91559766666666, "fusion_lat": 0.0, "type": "electric_bike", "bike_id": "c84f33c735543ecd618c159a153b9860", "rental_uris": {"ios": "https://dc.lft.to/lastmile_qr_scan", "android": "https://dc.lft.to/lastmile_qr_scan"}, "fusion_lon": 0.0, "lon": -77.04035016666667, "name": "c84f33c735543ecd618c159a153b9860", "is_reserved": 0, "is_disabled": 0}, {"lat": 38.8843035, "fusion_lat": 0.0, "type": "electric_scooter", "bike_id": "0c576779945bb5d5e696b75a4e95c87e", "rental_uris": {"ios": "https://dc.lft.to/lastmile_qr_scan", "android": "https://dc.lft.to/lastmile_qr_scan"}, "fusion_lon": 0.0, "lon": -76.95756333333334, "name": "0c576779945bb5d5e696b75a4e95c87e", "is_reserved": 0, "is_disabled": 0}, {"lat": 38.9163245, "fusion_lat": 0.0, "type": "electric_scooter", "bike_id": "bbf343f6c57cdcf0a7c1ca26b1b7c98e", "rental_uris": {"ios": "https://dc.lft.to/lastmile_qr_scan", "android": "https://dc.lft.to/lastmile_qr_scan"}, "fusion_lon": 0.0, "lon": -77.0507155, "name": "bbf343f6c57cdcf0a7c1ca26b1b7c98e", "is_reserved": 0, "is_disabled": 0}, {"lat": 38.9078775, "fusion_lat": 0.0, "type": "electric_scooter", "bike_id": "cbe7caec626c865fa8c2f8c8813d09ed", "rental_uris": {"ios": "https://dc.lft.to/lastmile_qr_scan", "android": "https://dc.lft.to/lastmile_qr_scan"}, "fusion_lon": 0.0, "lon": -77.04339016666667, "name": "cbe7caec626c865fa8c2f8c8813d09ed", "is_reserved": 0, "is_disabled": 0}, {"lat": 38.91078483333333, "fusion_lat": 0.0, "type": "electric_scooter", "bike_id": "9dd164b9e50c258989ca726b2380da9d", "rental_uris": {"ios": "https://dc.lft.to/lastmile_qr_scan", "android": "https://dc.lft.to/lastmile_qr_scan"}, "fusion_lon": 0.0, "lon": -77.0014895, "name": "9dd164b9e50c258989ca726b2380da9d", "is_reserved": 0, "is_disabled": 0}, {"lat": 38.89975866666666, "fusion_lat": 0.0, "type": "electric_scooter", "bike_id": "810dce141b1d77b957b23ec55a11889b", "rental_uris": {"ios": "https://dc.lft.to/lastmile_qr_scan", "android": "https://dc.lft.to/lastmile_qr_scan"}, "fusion_lon": 0.0, "lon": -77.02430566666666, "name": "810dce141b1d77b957b23ec55a11889b", "is_reserved": 0, "is_disabled": 0}, {"lat": 38.9086005, "fusion_lat": 0.0, "type": "electric_scooter", "bike_id": "decd53f121a3dcb96f991358a45c405d", "rental_uris": {"ios": "https://dc.lft.to/lastmile_qr_scan", "android": "https://dc.lft.to/lastmile_qr_scan"}, "fusion_lon": 0.0, "lon": -77.038217, "name": "decd53f121a3dcb96f991358a45c405d", "is_reserved": 0, "is_disabled": 0}, {"lat": 38.9054485, "fusion_lat": 0.0, "type": "electric_scooter", "bike_id": "118fc28717ba52e1ffd59555798582b7", "rental_uris": {"ios": "https://dc.lft.to/lastmile_qr_scan", "android": "https://dc.lft.to/lastmile_qr_scan"}, "fusion_lon": 0.0, "lon": -77.05047883333333, "name": "118fc28717ba52e1ffd59555798582b7", "is_reserved": 0, "is_disabled": 0}, {"lat": 38.899204, "fusion_lat": 0.0, "type": "electric_scooter", "bike_id": "c1f2fcb77635994c37c0b59ca0d3e545", "rental_uris": {"ios": "https://dc.lft.to/lastmile_qr_scan", "android": "https://dc.lft.to/lastmile_qr_scan"}, "fusion_lon": 0.0, "lon": -77.04509733333333, "name": "c1f2fcb77635994c37c0b59ca0d3e545", "is_reserved": 0, "is_disabled": 0}, {"lat": 38.940843666666666, "fusion_lat": 0.0, "type": "electric_scooter", "bike_id": "b15ca4a4a4c402464bddaae90d73a099", "rental_uris": {"ios": "https://dc.lft.to/lastmile_qr_scan", "android": "https://dc.lft.to/lastmile_qr_scan"}, "fusion_lon": 0.0, "lon": -77.02720616666667, "name": "b15ca4a4a4c402464bddaae90d73a099", "is_reserved": 0, "is_disabled": 0}, {"lat": 38.914563, "fusion_lat": 0.0, "type": "electric_scooter", "bike_id": "82a6b5f18a37b4cb070c36ca0cb91b4f", "rental_uris": {"ios": "https://dc.lft.to/lastmile_qr_scan", "android": "https://dc.lft.to/lastmile_qr_scan"}, "fusion_lon": 0.0, "lon": -77.00214816666667, "name": "82a6b5f18a37b4cb070c36ca0cb91b4f", "is_reserved": 0, "is_disabled": 0}, {"lat": 38.910240333333334, "fusion_lat": 0.0, "type": "electric_scooter", "bike_id": "df21c675eb75e3f62c21adae24d20b81", "rental_uris": {"ios": "https://dc.lft.to/lastmile_qr_scan", "android": "https://dc.lft.to/lastmile_qr_scan"}, "fusion_lon": 0.0, "lon": -77.02932716666666, "name": "df21c675eb75e3f62c21adae24d20b81", "is_reserved": 0, "is_disabled": 0}, {"lat": 38.92084283333333, "fusion_lat": 0.0, "type": "electric_scooter", "bike_id": "6e07513003868162121febaf9921c5b5", "rental_uris": {"ios": "https://dc.lft.to/lastmile_qr_scan", "android": "https://dc.lft.to/lastmile_qr_scan"}, "fusion_lon": 0.0, "lon": -77.08204816666667, "name": "6e07513003868162121febaf9921c5b5", "is_reserved": 0, "is_disabled": 0}, {"lat": 38.86505966666667, "fusion_lat": 0.0, "type": "electric_bike", "bike_id": "5511985405db8037a75d5e16ff72aa15", "rental_uris": {"ios": "https://dc.lft.to/lastmile_qr_scan", "android": "https://dc.lft.to/lastmile_qr_scan"}, "fusion_lon": 0.0, "lon": -76.97736766666667, "name": "5511985405db8037a75d5e16ff72aa15", "is_reserved": 0, "is_disabled": 0}, {"lat": 38.9539935, "fusion_lat": 0.0, "type": "electric_scooter", "bike_id": "163e1db926de5d74fbb49494d80e2bb2", "rental_uris": {"ios": "https://dc.lft.to/lastmile_qr_scan", "android": "https://dc.lft.to/lastmile_qr_scan"}, "fusion_lon": 0.0, "lon": -77.02799033333334, "name": "163e1db926de5d74fbb49494d80e2bb2", "is_reserved": 0, "is_disabled": 0}, {"lat": 38.90420066666667, "fusion_lat": 0.0, "type": "electric_scooter", "bike_id": "436db6d0687fd8497b1100583866e4c2", "rental_uris": {"ios": "https://dc.lft.to/lastmile_qr_scan", "android": "https://dc.lft.to/lastmile_qr_scan"}, "fusion_lon": 0.0, "lon": -77.05302183333333, "name": "436db6d0687fd8497b1100583866e4c2", "is_reserved": 0, "is_disabled": 0}, {"lat": 38.936317833333334, "fusion_lat": 0.0, "type": "electric_scooter", "bike_id": "432849cb180e3a935644211355df2dcd", "rental_uris": {"ios": "https://dc.lft.to/lastmile_qr_scan", "android": "https://dc.lft.to/lastmile_qr_scan"}, "fusion_lon": 0.0, "lon": -77.05878416666667, "name": "432849cb180e3a935644211355df2dcd", "is_reserved": 0, "is_disabled": 0}, {"lat": 38.91912, "fusion_lat": 0.0, "type": "electric_scooter", "bike_id": "6aeb68b17c9ed82a97e8fb5cdec5f561", "rental_uris": {"ios": "https://dc.lft.to/lastmile_qr_scan", "android": "https://dc.lft.to/lastmile_qr_scan"}, "fusion_lon": 0.0, "lon": -77.0239005, "name": "6aeb68b17c9ed82a97e8fb5cdec5f561", "is_reserved": 0, "is_disabled": 0}, {"lat": 38.89501766666667, "fusion_lat": 0.0, "type": "electric_scooter", "bike_id": "3364f2b0d21a3c42d28b26a7fe583d3b", "rental_uris": {"ios": "https://dc.lft.to/lastmile_qr_scan", "android": "https://dc.lft.to/lastmile_qr_scan"}, "fusion_lon": 0.0, "lon": -77.01071816666666, "name": "3364f2b0d21a3c42d28b26a7fe583d3b", "is_reserved": 0, "is_disabled": 0}, {"lat": 38.90108933333333, "fusion_lat": 0.0, "type": "electric_scooter", "bike_id": "0668b8af1976517a17b5c4180abf95f1", "rental_uris": {"ios": "https://dc.lft.to/lastmile_qr_scan", "android": "https://dc.lft.to/lastmile_qr_scan"}, "fusion_lon": 0.0, "lon": -77.03152383333334, "name": "0668b8af1976517a17b5c4180abf95f1", "is_reserved": 0, "is_disabled": 0}, {"lat": 38.915450166666666, "fusion_lat": 0.0, "type": "electric_scooter", "bike_id": "ce03f1dc2d9f00c0cff5372fe4d20093", "rental_uris": {"ios": "https://dc.lft.to/lastmile_qr_scan", "android": "https://dc.lft.to/lastmile_qr_scan"}, "fusion_lon": 0.0, "lon": -77.02060183333333, "name": "ce03f1dc2d9f00c0cff5372fe4d20093", "is_reserved": 0, "is_disabled": 0}, {"lat": 38.903687166666664, "fusion_lat": 0.0, "type": "electric_scooter", "bike_id": "395016b3452857951a2c40466b3159d7", "rental_uris": {"ios": "https://dc.lft.to/lastmile_qr_scan", "android": "https://dc.lft.to/lastmile_qr_scan"}, "fusion_lon": 0.0, "lon": -77.017402, "name": "395016b3452857951a2c40466b3159d7", "is_reserved": 0, "is_disabled": 0}, {"lat": 38.90246116666667, "fusion_lat": 0.0, "type": "electric_scooter", "bike_id": "7cfc493cde7daed343a0332905f34901", "rental_uris": {"ios": "https://dc.lft.to/lastmile_qr_scan", "android": "https://dc.lft.to/lastmile_qr_scan"}, "fusion_lon": 0.0, "lon": -77.02106133333334, "name": "7cfc493cde7daed343a0332905f34901", "is_reserved": 0, "is_disabled": 0}, {"lat": 38.92364633333333, "fusion_lat": 0.0, "type": "electric_scooter", "bike_id": "720131596c08882d6407b5331ccf8c70", "rental_uris": {"ios": "https://dc.lft.to/lastmile_qr_scan", "android": "https://dc.lft.to/lastmile_qr_scan"}, "fusion_lon": 0.0, "lon": -77.0504435, "name": "720131596c08882d6407b5331ccf8c70", "is_reserved": 0, "is_disabled": 0}, {"lat": 38.91847933333333, "fusion_lat": 0.0, "type": "electric_scooter", "bike_id": "ba575bd3b2ed27f8d7b9276c1333bf64", "rental_uris": {"ios": "https://dc.lft.to/lastmile_qr_scan", "android": "https://dc.lft.to/lastmile_qr_scan"}, "fusion_lon": 0.0, "lon": -76.9654115, "name": "ba575bd3b2ed27f8d7b9276c1333bf64", "is_reserved": 0, "is_disabled": 0}, {"lat": 38.8601535, "fusion_lat": 0.0, "type": "electric_scooter", "bike_id": "adb7d650269969d8a4067d30f9ec971b", "rental_uris": {"ios": "https://dc.lft.to/lastmile_qr_scan", "android": "https://dc.lft.to/lastmile_qr_scan"}, "fusion_lon": 0.0, "lon": -76.9670445, "name": "adb7d650269969d8a4067d30f9ec971b", "is_reserved": 0, "is_disabled": 0}, {"lat": 38.90838016666667, "fusion_lat": 0.0, "type": "electric_scooter", "bike_id": "d4ba32331f08408fd3bd3666fe827923", "rental_uris": {"ios": "https://dc.lft.to/lastmile_qr_scan", "android": "https://dc.lft.to/lastmile_qr_scan"}, "fusion_lon": 0.0, "lon": -77.03195716666667, "name": "d4ba32331f08408fd3bd3666fe827923", "is_reserved": 0, "is_disabled": 0}, {"lat": 38.911160333333335, "fusion_lat": 0.0, "type": "electric_scooter", "bike_id": "aeac425eb5ee6fe6a7652410064d93f1", "rental_uris": {"ios": "https://dc.lft.to/lastmile_qr_scan", "android": "https://dc.lft.to/lastmile_qr_scan"}, "fusion_lon": 0.0, "lon": -77.04532683333333, "name": "aeac425eb5ee6fe6a7652410064d93f1", "is_reserved": 0, "is_disabled": 0}, {"lat": 38.8973895, "fusion_lat": 0.0, "type": "electric_scooter", "bike_id": "4988e92e227ce00a867be739db5066fd", "rental_uris": {"ios": "https://dc.lft.to/lastmile_qr_scan", "android": "https://dc.lft.to/lastmile_qr_scan"}, "fusion_lon": 0.0, "lon": -77.0238495, "name": "4988e92e227ce00a867be739db5066fd", "is_reserved": 0, "is_disabled": 0}, {"lat": 38.905320333333336, "fusion_lat": 0.0, "type": "electric_scooter", "bike_id": "6de18823191546e2b959c3eb49ae0e33", "rental_uris": {"ios": "https://dc.lft.to/lastmile_qr_scan", "android": "https://dc.lft.to/lastmile_qr_scan"}, "fusion_lon": 0.0, "lon": -77.049875, "name": "6de18823191546e2b959c3eb49ae0e33", "is_reserved": 0, "is_disabled": 0}, {"lat": 38.92564983333333, "fusion_lat": 0.0, "type": "electric_scooter", "bike_id": "ead36f7149d376bcec24383da0acc1bd", "rental_uris": {"ios": "https://dc.lft.to/lastmile_qr_scan", "android": "https://dc.lft.to/lastmile_qr_scan"}, "fusion_lon": 0.0, "lon": -77.07785666666666, "name": "ead36f7149d376bcec24383da0acc1bd", "is_reserved": 0, "is_disabled": 0}, {"lat": 38.890467666666666, "fusion_lat": 0.0, "type": "electric_scooter", "bike_id": "57dcfd999f08419a97558571ae95d393", "rental_uris": {"ios": "https://dc.lft.to/lastmile_qr_scan", "android": "https://dc.lft.to/lastmile_qr_scan"}, "fusion_lon": 0.0, "lon": -76.937579, "name": "57dcfd999f08419a97558571ae95d393", "is_reserved": 0, "is_disabled": 0}, {"lat": 38.912999, "fusion_lat": 0.0, "type": "electric_scooter", "bike_id": "6bab1bbdc425453144b12c88fc32ac06", "rental_uris": {"ios": "https://dc.lft.to/lastmile_qr_scan", "android": "https://dc.lft.to/lastmile_qr_scan"}, "fusion_lon": 0.0, "lon": -77.02692266666666, "name": "6bab1bbdc425453144b12c88fc32ac06", "is_reserved": 0, "is_disabled": 0}, {"lat": 38.966694, "fusion_lat": 0.0, "type": "electric_bike", "bike_id": "ac3e7c92d9437435b87b380b6f530ed0", "rental_uris": {"ios": "https://dc.lft.to/lastmile_qr_scan", "android": "https://dc.lft.to/lastmile_qr_scan"}, "fusion_lon": 0.0, "lon": -76.9744645, "name": "ac3e7c92d9437435b87b380b6f530ed0", "is_reserved": 0, "is_disabled": 0}, {"lat": 38.91663633333334, "fusion_lat": 0.0, "type": "electric_scooter", "bike_id": "7be25cdb746205834a2514b26539a930", "rental_uris": {"ios": "https://dc.lft.to/lastmile_qr_scan", "android": "https://dc.lft.to/lastmile_qr_scan"}, "fusion_lon": 0.0, "lon": -77.03851533333334, "name": "7be25cdb746205834a2514b26539a930", "is_reserved": 0, "is_disabled": 0}, {"lat": 38.91795366666667, "fusion_lat": 0.0, "type": "electric_scooter", "bike_id": "574ee780a4ce312002418a3fa1f95879", "rental_uris": {"ios": "https://dc.lft.to/lastmile_qr_scan", "android": "https://dc.lft.to/lastmile_qr_scan"}, "fusion_lon": 0.0, "lon": -77.03440533333334, "name": "574ee780a4ce312002418a3fa1f95879", "is_reserved": 0, "is_disabled": 0}, {"lat": 38.920301, "fusion_lat": 0.0, "type": "electric_scooter", "bike_id": "daa3ab34767d5c8926cb18fffd7d55de", "rental_uris": {"ios": "https://dc.lft.to/lastmile_qr_scan", "android": "https://dc.lft.to/lastmile_qr_scan"}, "fusion_lon": 0.0, "lon": -77.03057383333334, "name": "daa3ab34767d5c8926cb18fffd7d55de", "is_reserved": 0, "is_disabled": 0}, {"lat": 38.89359833333334, "fusion_lat": 0.0, "type": "electric_scooter", "bike_id": "48c26560b3f9057eb8719cebcb713988", "rental_uris": {"ios": "https://dc.lft.to/lastmile_qr_scan", "android": "https://dc.lft.to/lastmile_qr_scan"}, "fusion_lon": 0.0, "lon": -77.00342116666667, "name": "48c26560b3f9057eb8719cebcb713988", "is_reserved": 0, "is_disabled": 0}, {"lat": 38.887194666666666, "fusion_lat": 0.0, "type": "electric_scooter", "bike_id": "40f06f94e80aa467eb694c0f6ff11c88", "rental_uris": {"ios": "https://dc.lft.to/lastmile_qr_scan", "android": "https://dc.lft.to/lastmile_qr_scan"}, "fusion_lon": 0.0, "lon": -77.02204933333333, "name": "40f06f94e80aa467eb694c0f6ff11c88", "is_reserved": 0, "is_disabled": 0}, {"lat": 38.894531666666666, "fusion_lat": 0.0, "type": "electric_bike", "bike_id": "ce01b9455e802d1dfff82f72e073cd88", "rental_uris": {"ios": "https://dc.lft.to/lastmile_qr_scan", "android": "https://dc.lft.to/lastmile_qr_scan"}, "fusion_lon": 0.0, "lon": -77.0316455, "name": "ce01b9455e802d1dfff82f72e073cd88", "is_reserved": 0, "is_disabled": 0}, {"lat": 38.8874425, "fusion_lat": 0.0, "type": "electric_scooter", "bike_id": "b9a709af4e90045ac8820d992e711c8f", "rental_uris": {"ios": "https://dc.lft.to/lastmile_qr_scan", "android": "https://dc.lft.to/lastmile_qr_scan"}, "fusion_lon": 0.0, "lon": -77.02126916666667, "name": "b9a709af4e90045ac8820d992e711c8f", "is_reserved": 0, "is_disabled": 0}, {"lat": 38.93989116666667, "fusion_lat": 0.0, "type": "electric_scooter", "bike_id": "ce3a71c89b179049dd2bc88e577a3143", "rental_uris": {"ios": "https://dc.lft.to/lastmile_qr_scan", "android": "https://dc.lft.to/lastmile_qr_scan"}, "fusion_lon": 0.0, "lon": -77.02545466666666, "name": "ce3a71c89b179049dd2bc88e577a3143", "is_reserved": 0, "is_disabled": 0}, {"lat": 38.9420985, "fusion_lat": 0.0, "type": "electric_scooter", "bike_id": "10029dcfb8ee490cb858a733cff243ee", "rental_uris": {"ios": "https://dc.lft.to/lastmile_qr_scan", "android": "https://dc.lft.to/lastmile_qr_scan"}, "fusion_lon": 0.0, "lon": -77.020226, "name": "10029dcfb8ee490cb858a733cff243ee", "is_reserved": 0, "is_disabled": 0}, {"lat": 38.897430666666665, "fusion_lat": 0.0, "type": "electric_scooter", "bike_id": "919d0e7ecd53c7777e5f69f2bbe75a4d", "rental_uris": {"ios": "https://dc.lft.to/lastmile_qr_scan", "android": "https://dc.lft.to/lastmile_qr_scan"}, "fusion_lon": 0.0, "lon": -77.027241, "name": "919d0e7ecd53c7777e5f69f2bbe75a4d", "is_reserved": 0, "is_disabled": 0}, {"lat": 38.8697835, "fusion_lat": 0.0, "type": "electric_scooter", "bike_id": "aa95ca1fe1f2b82633a347d71f791b00", "rental_uris": {"ios": "https://dc.lft.to/lastmile_qr_scan", "android": "https://dc.lft.to/lastmile_qr_scan"}, "fusion_lon": 0.0, "lon": -77.01234516666666, "name": "aa95ca1fe1f2b82633a347d71f791b00", "is_reserved": 0, "is_disabled": 0}, {"lat": 38.9560065, "fusion_lat": 0.0, "type": "electric_bike", "bike_id": "a47768ef465781578da6dda2e1377115", "rental_uris": {"ios": "https://dc.lft.to/lastmile_qr_scan", "android": "https://dc.lft.to/lastmile_qr_scan"}, "fusion_lon": 0.0, "lon": -77.01017416666667, "name": "a47768ef465781578da6dda2e1377115", "is_reserved": 0, "is_disabled": 0}, {"lat": 38.8926855, "fusion_lat": 0.0, "type": "electric_scooter", "bike_id": "10111255601901030199c998ad07fb2d", "rental_uris": {"ios": "https://dc.lft.to/lastmile_qr_scan", "android": "https://dc.lft.to/lastmile_qr_scan"}, "fusion_lon": 0.0, "lon": -77.046752, "name": "10111255601901030199c998ad07fb2d", "is_reserved": 0, "is_disabled": 0}, {"lat": 38.9215315, "fusion_lat": 0.0, "type": "electric_scooter", "bike_id": "b5f661856c37b562b3e65f02174046cf", "rental_uris": {"ios": "https://dc.lft.to/lastmile_qr_scan", "android": "https://dc.lft.to/lastmile_qr_scan"}, "fusion_lon": 0.0, "lon": -77.024104, "name": "b5f661856c37b562b3e65f02174046cf", "is_reserved": 0, "is_disabled": 0}, {"lat": 38.91809666666666, "fusion_lat": 0.0, "type": "electric_scooter", "bike_id": "c17398dd9859ff61e50ec6aa440553c6", "rental_uris": {"ios": "https://dc.lft.to/lastmile_qr_scan", "android": "https://dc.lft.to/lastmile_qr_scan"}, "fusion_lon": 0.0, "lon": -77.034325, "name": "c17398dd9859ff61e50ec6aa440553c6", "is_reserved": 0, "is_disabled": 0}, {"lat": 38.87139616666666, "fusion_lat": 0.0, "type": "electric_scooter", "bike_id": "ffa1f1a2daff7aa62a8245bc34309517", "rental_uris": {"ios": "https://dc.lft.to/lastmile_qr_scan", "android": "https://dc.lft.to/lastmile_qr_scan"}, "fusion_lon": 0.0, "lon": -77.007035, "name": "ffa1f1a2daff7aa62a8245bc34309517", "is_reserved": 0, "is_disabled": 0}, {"lat": 38.922904, "fusion_lat": 0.0, "type": "electric_bike", "bike_id": "ff3dd48e97ab6a779f9abbdead2ec3cb", "rental_uris": {"ios": "https://dc.lft.to/lastmile_qr_scan", "android": "https://dc.lft.to/lastmile_qr_scan"}, "fusion_lon": 0.0, "lon": -76.99779183333334, "name": "ff3dd48e97ab6a779f9abbdead2ec3cb", "is_reserved": 0, "is_disabled": 0}, {"lat": 38.91419766666667, "fusion_lat": 0.0, "type": "electric_scooter", "bike_id": "e992008f672c8790d88a2abaa3b3faf9", "rental_uris": {"ios": "https://dc.lft.to/lastmile_qr_scan", "android": "https://dc.lft.to/lastmile_qr_scan"}, "fusion_lon": 0.0, "lon": -77.03176683333334, "name": "e992008f672c8790d88a2abaa3b3faf9", "is_reserved": 0, "is_disabled": 0}, {"lat": 38.878683333333335, "fusion_lat": 0.0, "type": "electric_scooter", "bike_id": "239fcbd2fa08aca95d93ec5ff7a9825f", "rental_uris": {"ios": "https://dc.lft.to/lastmile_qr_scan", "android": "https://dc.lft.to/lastmile_qr_scan"}, "fusion_lon": 0.0, "lon": -76.99678233333333, "name": "239fcbd2fa08aca95d93ec5ff7a9825f", "is_reserved": 0, "is_disabled": 0}, {"lat": 38.86936733333334, "fusion_lat": 0.0, "type": "electric_scooter", "bike_id": "244c4e2817012733a2f425f2f31e34b6", "rental_uris": {"ios": "https://dc.lft.to/lastmile_qr_scan", "android": "https://dc.lft.to/lastmile_qr_scan"}, "fusion_lon": 0.0, "lon": -77.01375783333333, "name": "244c4e2817012733a2f425f2f31e34b6", "is_reserved": 0, "is_disabled": 0}, {"lat": 38.87571416666667, "fusion_lat": 0.0, "type": "electric_scooter", "bike_id": "2346531fcf377ad46e7312f705276788", "rental_uris": {"ios": "https://dc.lft.to/lastmile_qr_scan", "android": "https://dc.lft.to/lastmile_qr_scan"}, "fusion_lon": 0.0, "lon": -77.00590666666666, "name": "2346531fcf377ad46e7312f705276788", "is_reserved": 0, "is_disabled": 0}, {"lat": 38.89235716666666, "fusion_lat": 0.0, "type": "electric_scooter", "bike_id": "ff8e01644d303f7534220a1b2143710c", "rental_uris": {"ios": "https://dc.lft.to/lastmile_qr_scan", "android": "https://dc.lft.to/lastmile_qr_scan"}, "fusion_lon": 0.0, "lon": -77.02179516666666, "name": "ff8e01644d303f7534220a1b2143710c", "is_reserved": 0, "is_disabled": 0}, {"lat": 38.86421833333333, "fusion_lat": 0.0, "type": "electric_scooter", "bike_id": "1f310bd4fbd6bab0e158d13e795f37a2", "rental_uris": {"ios": "https://dc.lft.to/lastmile_qr_scan", "android": "https://dc.lft.to/lastmile_qr_scan"}, "fusion_lon": 0.0, "lon": -76.97428683333334, "name": "1f310bd4fbd6bab0e158d13e795f37a2", "is_reserved": 0, "is_disabled": 0}, {"lat": 38.896052833333336, "fusion_lat": 0.0, "type": "electric_scooter", "bike_id": "044109d2d777cf4cc68264e9dfd7e47a", "rental_uris": {"ios": "https://dc.lft.to/lastmile_qr_scan", "android": "https://dc.lft.to/lastmile_qr_scan"}, "fusion_lon": 0.0, "lon": -77.04273016666667, "name": "044109d2d777cf4cc68264e9dfd7e47a", "is_reserved": 0, "is_disabled": 0}, {"lat": 38.91799916666667, "fusion_lat": 0.0, "type": "electric_scooter", "bike_id": "8b1bde25de9c29ef2cfac54b062f8c22", "rental_uris": {"ios": "https://dc.lft.to/lastmile_qr_scan", "android": "https://dc.lft.to/lastmile_qr_scan"}, "fusion_lon": 0.0, "lon": -77.02270516666667, "name": "8b1bde25de9c29ef2cfac54b062f8c22", "is_reserved": 0, "is_disabled": 0}, {"lat": 38.901354, "fusion_lat": 0.0, "type": "electric_scooter", "bike_id": "0673fd400b434e038f1a87425c442520", "rental_uris": {"ios": "https://dc.lft.to/lastmile_qr_scan", "android": "https://dc.lft.to/lastmile_qr_scan"}, "fusion_lon": 0.0, "lon": -77.0217355, "name": "0673fd400b434e038f1a87425c442520", "is_reserved": 0, "is_disabled": 0}, {"lat": 38.912692166666666, "fusion_lat": 0.0, "type": "electric_scooter", "bike_id": "e726f4b42396fb4f99a4bf8d27e4584d", "rental_uris": {"ios": "https://dc.lft.to/lastmile_qr_scan", "android": "https://dc.lft.to/lastmile_qr_scan"}, "fusion_lon": 0.0, "lon": -77.03738433333334, "name": "e726f4b42396fb4f99a4bf8d27e4584d", "is_reserved": 0, "is_disabled": 0}, {"lat": 38.913903, "fusion_lat": 0.0, "type": "electric_scooter", "bike_id": "cfc949d5b5396fc77547cd29d1ab1614", "rental_uris": {"ios": "https://dc.lft.to/lastmile_qr_scan", "android": "https://dc.lft.to/lastmile_qr_scan"}, "fusion_lon": 0.0, "lon": -77.01657183333333, "name": "cfc949d5b5396fc77547cd29d1ab1614", "is_reserved": 0, "is_disabled": 0}, {"lat": 39.01488466666667, "fusion_lat": 0.0, "type": "electric_bike", "bike_id": "2457b1e54b6e0348039d1d2a96a9680a", "rental_uris": {"ios": "https://dc.lft.to/lastmile_qr_scan", "android": "https://dc.lft.to/lastmile_qr_scan"}, "fusion_lon": 0.0, "lon": -77.09946866666667, "name": "2457b1e54b6e0348039d1d2a96a9680a", "is_reserved": 0, "is_disabled": 0}, {"lat": 38.90661466666667, "fusion_lat": 0.0, "type": "electric_scooter", "bike_id": "bbc855c964b73724a3c921e7f8317a91", "rental_uris": {"ios": "https://dc.lft.to/lastmile_qr_scan", "android": "https://dc.lft.to/lastmile_qr_scan"}, "fusion_lon": 0.0, "lon": -77.038643, "name": "bbc855c964b73724a3c921e7f8317a91", "is_reserved": 0, "is_disabled": 0}, {"lat": 38.899194333333334, "fusion_lat": 0.0, "type": "electric_scooter", "bike_id": "63c6a59a22fa65c8d3b8348561f869c8", "rental_uris": {"ios": "https://dc.lft.to/lastmile_qr_scan", "android": "https://dc.lft.to/lastmile_qr_scan"}, "fusion_lon": 0.0, "lon": -76.93380233333333, "name": "63c6a59a22fa65c8d3b8348561f869c8", "is_reserved": 0, "is_disabled": 0}, {"lat": 38.919317166666666, "fusion_lat": 0.0, "type": "electric_scooter", "bike_id": "6a26ea86ff4af08cb79c9e48ced21aac", "rental_uris": {"ios": "https://dc.lft.to/lastmile_qr_scan", "android": "https://dc.lft.to/lastmile_qr_scan"}, "fusion_lon": 0.0, "lon": -77.0253075, "name": "6a26ea86ff4af08cb79c9e48ced21aac", "is_reserved": 0, "is_disabled": 0}, {"lat": 38.93820733333333, "fusion_lat": 0.0, "type": "electric_scooter", "bike_id": "a9e85c0253592e9d29fe69e86895fedb", "rental_uris": {"ios": "https://dc.lft.to/lastmile_qr_scan", "android": "https://dc.lft.to/lastmile_qr_scan"}, "fusion_lon": 0.0, "lon": -76.98926116666667, "name": "a9e85c0253592e9d29fe69e86895fedb", "is_reserved": 0, "is_disabled": 0}, {"lat": 38.917462, "fusion_lat": 0.0, "type": "electric_scooter", "bike_id": "ec88a2a5dd0b725d153236db9eaf1509", "rental_uris": {"ios": "https://dc.lft.to/lastmile_qr_scan", "android": "https://dc.lft.to/lastmile_qr_scan"}, "fusion_lon": 0.0, "lon": -77.0281975, "name": "ec88a2a5dd0b725d153236db9eaf1509", "is_reserved": 0, "is_disabled": 0}, {"lat": 38.921315, "fusion_lat": 0.0, "type": "electric_scooter", "bike_id": "145fbda31bff2433ef94e5ed61992c7f", "rental_uris": {"ios": "https://dc.lft.to/lastmile_qr_scan", "android": "https://dc.lft.to/lastmile_qr_scan"}, "fusion_lon": 0.0, "lon": -77.0413815, "name": "145fbda31bff2433ef94e5ed61992c7f", "is_reserved": 0, "is_disabled": 0}, {"lat": 38.91018716666667, "fusion_lat": 0.0, "type": "electric_scooter", "bike_id": "4703e4b3831699b11cbb87740635bdd7", "rental_uris": {"ios": "https://dc.lft.to/lastmile_qr_scan", "android": "https://dc.lft.to/lastmile_qr_scan"}, "fusion_lon": 0.0, "lon": -76.99728133333333, "name": "4703e4b3831699b11cbb87740635bdd7", "is_reserved": 0, "is_disabled": 0}, {"lat": 38.8794355, "fusion_lat": 0.0, "type": "electric_scooter", "bike_id": "88dc5b6e02c44e178c0a3396acc18ac1", "rental_uris": {"ios": "https://dc.lft.to/lastmile_qr_scan", "android": "https://dc.lft.to/lastmile_qr_scan"}, "fusion_lon": 0.0, "lon": -77.00562683333334, "name": "88dc5b6e02c44e178c0a3396acc18ac1", "is_reserved": 0, "is_disabled": 0}, {"lat": 38.90961, "fusion_lat": 0.0, "type": "electric_scooter", "bike_id": "27670eefa689d365aa0b7c304b531f2c", "rental_uris": {"ios": "https://dc.lft.to/lastmile_qr_scan", "android": "https://dc.lft.to/lastmile_qr_scan"}, "fusion_lon": 0.0, "lon": -77.03982716666667, "name": "27670eefa689d365aa0b7c304b531f2c", "is_reserved": 0, "is_disabled": 0}, {"lat": 38.92108066666667, "fusion_lat": 0.0, "type": "electric_scooter", "bike_id": "e3c3ca810abd063569acf14c3d258f46", "rental_uris": {"ios": "https://dc.lft.to/lastmile_qr_scan", "android": "https://dc.lft.to/lastmile_qr_scan"}, "fusion_lon": 0.0, "lon": -77.046817, "name": "e3c3ca810abd063569acf14c3d258f46", "is_reserved": 0, "is_disabled": 0}, {"lat": 38.908660833333336, "fusion_lat": 0.0, "type": "electric_scooter", "bike_id": "d9783924691b7709d8064b28dd469b7b", "rental_uris": {"ios": "https://dc.lft.to/lastmile_qr_scan", "android": "https://dc.lft.to/lastmile_qr_scan"}, "fusion_lon": 0.0, "lon": -77.02385433333333, "name": "d9783924691b7709d8064b28dd469b7b", "is_reserved": 0, "is_disabled": 0}, {"lat": 38.917055, "fusion_lat": 0.0, "type": "electric_scooter", "bike_id": "fce32ce175b31b0227ac4edd35d2dd93", "rental_uris": {"ios": "https://dc.lft.to/lastmile_qr_scan", "android": "https://dc.lft.to/lastmile_qr_scan"}, "fusion_lon": 0.0, "lon": -77.03864233333333, "name": "fce32ce175b31b0227ac4edd35d2dd93", "is_reserved": 0, "is_disabled": 0}, {"lat": 38.90895233333333, "fusion_lat": 0.0, "type": "electric_scooter", "bike_id": "cce37955850d0e29cd00f16a542a9165", "rental_uris": {"ios": "https://dc.lft.to/lastmile_qr_scan", "android": "https://dc.lft.to/lastmile_qr_scan"}, "fusion_lon": 0.0, "lon": -76.99158716666666, "name": "cce37955850d0e29cd00f16a542a9165", "is_reserved": 0, "is_disabled": 0}, {"lat": 38.9169225, "fusion_lat": 0.0, "type": "electric_scooter", "bike_id": "bb62ba81baff92034d6fbaeac03d3e21", "rental_uris": {"ios": "https://dc.lft.to/lastmile_qr_scan", "android": "https://dc.lft.to/lastmile_qr_scan"}, "fusion_lon": 0.0, "lon": -77.0335855, "name": "bb62ba81baff92034d6fbaeac03d3e21", "is_reserved": 0, "is_disabled": 0}, {"lat": 38.91706466666667, "fusion_lat": 0.0, "type": "electric_scooter", "bike_id": "90c683dc1a9cbea5d6f3a896fd520993", "rental_uris": {"ios": "https://dc.lft.to/lastmile_qr_scan", "android": "https://dc.lft.to/lastmile_qr_scan"}, "fusion_lon": 0.0, "lon": -77.03864983333334, "name": "90c683dc1a9cbea5d6f3a896fd520993", "is_reserved": 0, "is_disabled": 0}, {"lat": 38.892483, "fusion_lat": 0.0, "type": "electric_bike", "bike_id": "edc0bdce788a0bc1c6873511125033e4", "rental_uris": {"ios": "https://dc.lft.to/lastmile_qr_scan", "android": "https://dc.lft.to/lastmile_qr_scan"}, "fusion_lon": 0.0, "lon": -76.985454, "name": "edc0bdce788a0bc1c6873511125033e4", "is_reserved": 0, "is_disabled": 0}, {"lat": 38.98784333333333, "fusion_lat": 0.0, "type": "electric_bike", "bike_id": "7f9eb164adf96b69b9c09740a348c5af", "rental_uris": {"ios": "https://dc.lft.to/lastmile_qr_scan", "android": "https://dc.lft.to/lastmile_qr_scan"}, "fusion_lon": 0.0, "lon": -77.14102966666667, "name": "7f9eb164adf96b69b9c09740a348c5af", "is_reserved": 0, "is_disabled": 0}, {"lat": 38.89547483333333, "fusion_lat": 0.0, "type": "electric_scooter", "bike_id": "72d9b8a4b356e28130eeab54904b41e2", "rental_uris": {"ios": "https://dc.lft.to/lastmile_qr_scan", "android": "https://dc.lft.to/lastmile_qr_scan"}, "fusion_lon": 0.0, "lon": -76.98339883333334, "name": "72d9b8a4b356e28130eeab54904b41e2", "is_reserved": 0, "is_disabled": 0}, {"lat": 38.838742333333336, "fusion_lat": 0.0, "type": "electric_bike", "bike_id": "fe73a3322c3c926409d761f8cd1cbece", "rental_uris": {"ios": "https://dc.lft.to/lastmile_qr_scan", "android": "https://dc.lft.to/lastmile_qr_scan"}, "fusion_lon": 0.0, "lon": -76.99712166666667, "name": "fe73a3322c3c926409d761f8cd1cbece", "is_reserved": 0, "is_disabled": 0}, {"lat": 38.87568366666667, "fusion_lat": 0.0, "type": "electric_scooter", "bike_id": "18d9d9385f3584b5f17c8b2b366c8775", "rental_uris": {"ios": "https://dc.lft.to/lastmile_qr_scan", "android": "https://dc.lft.to/lastmile_qr_scan"}, "fusion_lon": 0.0, "lon": -77.0059245, "name": "18d9d9385f3584b5f17c8b2b366c8775", "is_reserved": 0, "is_disabled": 0}, {"lat": 38.91340366666667, "fusion_lat": 0.0, "type": "electric_scooter", "bike_id": "85fa7737894a923fe6a76bfde3e5b355", "rental_uris": {"ios": "https://dc.lft.to/lastmile_qr_scan", "android": "https://dc.lft.to/lastmile_qr_scan"}, "fusion_lon": 0.0, "lon": -77.00331933333334, "name": "85fa7737894a923fe6a76bfde3e5b355", "is_reserved": 0, "is_disabled": 0}, {"lat": 38.904678833333335, "fusion_lat": 0.0, "type": "electric_scooter", "bike_id": "e03417a62373c4fc6ea164b8f16cfef9", "rental_uris": {"ios": "https://dc.lft.to/lastmile_qr_scan", "android": "https://dc.lft.to/lastmile_qr_scan"}, "fusion_lon": 0.0, "lon": -77.0660265, "name": "e03417a62373c4fc6ea164b8f16cfef9", "is_reserved": 0, "is_disabled": 0}, {"lat": 38.899249, "fusion_lat": 0.0, "type": "electric_scooter", "bike_id": "93bbf1a256cecbfa40dd4a35015c6f1d", "rental_uris": {"ios": "https://dc.lft.to/lastmile_qr_scan", "android": "https://dc.lft.to/lastmile_qr_scan"}, "fusion_lon": 0.0, "lon": -77.01948033333333, "name": "93bbf1a256cecbfa40dd4a35015c6f1d", "is_reserved": 0, "is_disabled": 0}, {"lat": 38.905715666666666, "fusion_lat": 0.0, "type": "electric_scooter", "bike_id": "e4cbf391155c6c47eeaaf0aa574bb0e1", "rental_uris": {"ios": "https://dc.lft.to/lastmile_qr_scan", "android": "https://dc.lft.to/lastmile_qr_scan"}, "fusion_lon": 0.0, "lon": -76.97634866666667, "name": "e4cbf391155c6c47eeaaf0aa574bb0e1", "is_reserved": 0, "is_disabled": 0}, {"lat": 38.9030125, "fusion_lat": 0.0, "type": "electric_scooter", "bike_id": "0361f68f224c9a9553df3b0ada9e3fd0", "rental_uris": {"ios": "https://dc.lft.to/lastmile_qr_scan", "android": "https://dc.lft.to/lastmile_qr_scan"}, "fusion_lon": 0.0, "lon": -76.99261133333333, "name": "0361f68f224c9a9553df3b0ada9e3fd0", "is_reserved": 0, "is_disabled": 0}, {"lat": 38.91128116666667, "fusion_lat": 0.0, "type": "electric_scooter", "bike_id": "f9237722293880a028b8174cdec06e88", "rental_uris": {"ios": "https://dc.lft.to/lastmile_qr_scan", "android": "https://dc.lft.to/lastmile_qr_scan"}, "fusion_lon": 0.0, "lon": -77.02178933333333, "name": "f9237722293880a028b8174cdec06e88", "is_reserved": 0, "is_disabled": 0}, {"lat": 38.9029885, "fusion_lat": 0.0, "type": "electric_scooter", "bike_id": "f565b4911ba970aac615fabf2f931635", "rental_uris": {"ios": "https://dc.lft.to/lastmile_qr_scan", "android": "https://dc.lft.to/lastmile_qr_scan"}, "fusion_lon": 0.0, "lon": -77.0546805, "name": "f565b4911ba970aac615fabf2f931635", "is_reserved": 0, "is_disabled": 0}, {"lat": 38.871865166666666, "fusion_lat": 0.0, "type": "electric_scooter", "bike_id": "626a1dc00a76ecc9d7110c16ebf623a3", "rental_uris": {"ios": "https://dc.lft.to/lastmile_qr_scan", "android": "https://dc.lft.to/lastmile_qr_scan"}, "fusion_lon": 0.0, "lon": -77.00644033333333, "name": "626a1dc00a76ecc9d7110c16ebf623a3", "is_reserved": 0, "is_disabled": 0}, {"lat": 38.918175166666664, "fusion_lat": 0.0, "type": "electric_scooter", "bike_id": "f385a48ea71b9cc6d114169b4bc2d6e5", "rental_uris": {"ios": "https://dc.lft.to/lastmile_qr_scan", "android": "https://dc.lft.to/lastmile_qr_scan"}, "fusion_lon": 0.0, "lon": -77.03784866666666, "name": "f385a48ea71b9cc6d114169b4bc2d6e5", "is_reserved": 0, "is_disabled": 0}, {"lat": 38.92228883333333, "fusion_lat": 0.0, "type": "electric_scooter", "bike_id": "397949c8dc1f93303f3920219256fe2b", "rental_uris": {"ios": "https://dc.lft.to/lastmile_qr_scan", "android": "https://dc.lft.to/lastmile_qr_scan"}, "fusion_lon": 0.0, "lon": -77.072845, "name": "397949c8dc1f93303f3920219256fe2b", "is_reserved": 0, "is_disabled": 0}, {"lat": 38.89356316666667, "fusion_lat": 0.0, "type": "electric_scooter", "bike_id": "558d6bfebfd750b1d21ecf575218a21c", "rental_uris": {"ios": "https://dc.lft.to/lastmile_qr_scan", "android": "https://dc.lft.to/lastmile_qr_scan"}, "fusion_lon": 0.0, "lon": -77.0033905, "name": "558d6bfebfd750b1d21ecf575218a21c", "is_reserved": 0, "is_disabled": 0}, {"lat": 38.91458566666667, "fusion_lat": 0.0, "type": "electric_scooter", "bike_id": "6a541fdbe68161b931bc0b43e81a8a43", "rental_uris": {"ios": "https://dc.lft.to/lastmile_qr_scan", "android": "https://dc.lft.to/lastmile_qr_scan"}, "fusion_lon": 0.0, "lon": -77.022702, "name": "6a541fdbe68161b931bc0b43e81a8a43", "is_reserved": 0, "is_disabled": 0}, {"lat": 38.893488166666664, "fusion_lat": 0.0, "type": "electric_scooter", "bike_id": "baff39305bfd30a83a7d546de443ecef", "rental_uris": {"ios": "https://dc.lft.to/lastmile_qr_scan", "android": "https://dc.lft.to/lastmile_qr_scan"}, "fusion_lon": 0.0, "lon": -76.9523215, "name": "baff39305bfd30a83a7d546de443ecef", "is_reserved": 0, "is_disabled": 0}, {"lat": 38.9721585, "fusion_lat": 0.0, "type": "electric_scooter", "bike_id": "5141d58d122af12d4ef33ad8d7e39b8f", "rental_uris": {"ios": "https://dc.lft.to/lastmile_qr_scan", "android": "https://dc.lft.to/lastmile_qr_scan"}, "fusion_lon": 0.0, "lon": -77.03334883333333, "name": "5141d58d122af12d4ef33ad8d7e39b8f", "is_reserved": 0, "is_disabled": 0}, {"lat": 38.9093045, "fusion_lat": 0.0, "type": "electric_scooter", "bike_id": "2fb9e217c7ba1c98e2cb56369fe32d13", "rental_uris": {"ios": "https://dc.lft.to/lastmile_qr_scan", "android": "https://dc.lft.to/lastmile_qr_scan"}, "fusion_lon": 0.0, "lon": -76.99971366666666, "name": "2fb9e217c7ba1c98e2cb56369fe32d13", "is_reserved": 0, "is_disabled": 0}, {"lat": 38.9011905, "fusion_lat": 0.0, "type": "electric_scooter", "bike_id": "b69456af9e5edb7a33fbb7c89f84b120", "rental_uris": {"ios": "https://dc.lft.to/lastmile_qr_scan", "android": "https://dc.lft.to/lastmile_qr_scan"}, "fusion_lon": 0.0, "lon": -77.0499875, "name": "b69456af9e5edb7a33fbb7c89f84b120", "is_reserved": 0, "is_disabled": 0}, {"lat": 38.9223925, "fusion_lat": 0.0, "type": "electric_scooter", "bike_id": "3d0b4825cc6119f55552ad059bcf62a8", "rental_uris": {"ios": "https://dc.lft.to/lastmile_qr_scan", "android": "https://dc.lft.to/lastmile_qr_scan"}, "fusion_lon": 0.0, "lon": -77.01829166666667, "name": "3d0b4825cc6119f55552ad059bcf62a8", "is_reserved": 0, "is_disabled": 0}, {"lat": 38.90197783333333, "fusion_lat": 0.0, "type": "electric_scooter", "bike_id": "4892562965f12b3aff27ac6539662457", "rental_uris": {"ios": "https://dc.lft.to/lastmile_qr_scan", "android": "https://dc.lft.to/lastmile_qr_scan"}, "fusion_lon": 0.0, "lon": -76.98214483333334, "name": "4892562965f12b3aff27ac6539662457", "is_reserved": 0, "is_disabled": 0}, {"lat": 38.92204366666667, "fusion_lat": 0.0, "type": "electric_scooter", "bike_id": "a4031bbeb2b261ada44ed01e06f58c9a", "rental_uris": {"ios": "https://dc.lft.to/lastmile_qr_scan", "android": "https://dc.lft.to/lastmile_qr_scan"}, "fusion_lon": 0.0, "lon": -77.03654683333333, "name": "a4031bbeb2b261ada44ed01e06f58c9a", "is_reserved": 0, "is_disabled": 0}, {"lat": 38.8923385, "fusion_lat": 0.0, "type": "electric_scooter", "bike_id": "1d640def61e0977bda9fda3a3d3ff6ec", "rental_uris": {"ios": "https://dc.lft.to/lastmile_qr_scan", "android": "https://dc.lft.to/lastmile_qr_scan"}, "fusion_lon": 0.0, "lon": -77.0466015, "name": "1d640def61e0977bda9fda3a3d3ff6ec", "is_reserved": 0, "is_disabled": 0}, {"lat": 38.90123616666666, "fusion_lat": 0.0, "type": "electric_scooter", "bike_id": "9e259a354234297deaeccd9f073a64af", "rental_uris": {"ios": "https://dc.lft.to/lastmile_qr_scan", "android": "https://dc.lft.to/lastmile_qr_scan"}, "fusion_lon": 0.0, "lon": -77.0167005, "name": "9e259a354234297deaeccd9f073a64af", "is_reserved": 0, "is_disabled": 0}, {"lat": 38.9213435, "fusion_lat": 0.0, "type": "electric_scooter", "bike_id": "d9e54b2506662d928e3a7f8e8f11920a", "rental_uris": {"ios": "https://dc.lft.to/lastmile_qr_scan", "android": "https://dc.lft.to/lastmile_qr_scan"}, "fusion_lon": 0.0, "lon": -77.04124316666666, "name": "d9e54b2506662d928e3a7f8e8f11920a", "is_reserved": 0, "is_disabled": 0}, {"lat": 38.908690666666665, "fusion_lat": 0.0, "type": "electric_scooter", "bike_id": "670e8c710ad4dfd357b017a76fab55ec", "rental_uris": {"ios": "https://dc.lft.to/lastmile_qr_scan", "android": "https://dc.lft.to/lastmile_qr_scan"}, "fusion_lon": 0.0, "lon": -77.03223633333333, "name": "670e8c710ad4dfd357b017a76fab55ec", "is_reserved": 0, "is_disabled": 0}, {"lat": 38.9039375, "fusion_lat": 0.0, "type": "electric_scooter", "bike_id": "0ad1eefeab46ef7354804bd6acc9b985", "rental_uris": {"ios": "https://dc.lft.to/lastmile_qr_scan", "android": "https://dc.lft.to/lastmile_qr_scan"}, "fusion_lon": 0.0, "lon": -77.0629665, "name": "0ad1eefeab46ef7354804bd6acc9b985", "is_reserved": 0, "is_disabled": 0}, {"lat": 38.93559366666667, "fusion_lat": 0.0, "type": "electric_scooter", "bike_id": "e73f577e0d568e94f1b68bfb9beebb8c", "rental_uris": {"ios": "https://dc.lft.to/lastmile_qr_scan", "android": "https://dc.lft.to/lastmile_qr_scan"}, "fusion_lon": 0.0, "lon": -77.07459833333333, "name": "e73f577e0d568e94f1b68bfb9beebb8c", "is_reserved": 0, "is_disabled": 0}, {"lat": 38.890038833333335, "fusion_lat": 0.0, "type": "electric_scooter", "bike_id": "0f6b378511a91809783188e164bd7744", "rental_uris": {"ios": "https://dc.lft.to/lastmile_qr_scan", "android": "https://dc.lft.to/lastmile_qr_scan"}, "fusion_lon": 0.0, "lon": -76.97734133333333, "name": "0f6b378511a91809783188e164bd7744", "is_reserved": 0, "is_disabled": 0}, {"lat": 38.9054635, "fusion_lat": 0.0, "type": "electric_scooter", "bike_id": "fb4a722fb03e2761216c9b735e56684a", "rental_uris": {"ios": "https://dc.lft.to/lastmile_qr_scan", "android": "https://dc.lft.to/lastmile_qr_scan"}, "fusion_lon": 0.0, "lon": -77.0500735, "name": "fb4a722fb03e2761216c9b735e56684a", "is_reserved": 0, "is_disabled": 0}, {"lat": 38.899538, "fusion_lat": 0.0, "type": "electric_scooter", "bike_id": "6ff5c5821a2dc4834bbd6aff2152ab5d", "rental_uris": {"ios": "https://dc.lft.to/lastmile_qr_scan", "android": "https://dc.lft.to/lastmile_qr_scan"}, "fusion_lon": 0.0, "lon": -77.046507, "name": "6ff5c5821a2dc4834bbd6aff2152ab5d", "is_reserved": 0, "is_disabled": 0}, {"lat": 38.910942666666664, "fusion_lat": 0.0, "type": "electric_scooter", "bike_id": "01828b32cb051f081cb09232751c8476", "rental_uris": {"ios": "https://dc.lft.to/lastmile_qr_scan", "android": "https://dc.lft.to/lastmile_qr_scan"}, "fusion_lon": 0.0, "lon": -77.01159983333334, "name": "01828b32cb051f081cb09232751c8476", "is_reserved": 0, "is_disabled": 0}, {"lat": 38.909493, "fusion_lat": 0.0, "type": "electric_scooter", "bike_id": "ce40d823b571349b26fa8a797078af63", "rental_uris": {"ios": "https://dc.lft.to/lastmile_qr_scan", "android": "https://dc.lft.to/lastmile_qr_scan"}, "fusion_lon": 0.0, "lon": -77.0343345, "name": "ce40d823b571349b26fa8a797078af63", "is_reserved": 0, "is_disabled": 0}, {"lat": 38.917444833333334, "fusion_lat": 0.0, "type": "electric_scooter", "bike_id": "20d21c01ef9a70be858d4f7a094cb340", "rental_uris": {"ios": "https://dc.lft.to/lastmile_qr_scan", "android": "https://dc.lft.to/lastmile_qr_scan"}, "fusion_lon": 0.0, "lon": -77.0694325, "name": "20d21c01ef9a70be858d4f7a094cb340", "is_reserved": 0, "is_disabled": 0}, {"lat": 38.906650666666664, "fusion_lat": 0.0, "type": "electric_scooter", "bike_id": "813dd45bb0e3945c7e94a503fdb10c73", "rental_uris": {"ios": "https://dc.lft.to/lastmile_qr_scan", "android": "https://dc.lft.to/lastmile_qr_scan"}, "fusion_lon": 0.0, "lon": -77.02714333333333, "name": "813dd45bb0e3945c7e94a503fdb10c73", "is_reserved": 0, "is_disabled": 0}, {"lat": 38.90254733333333, "fusion_lat": 0.0, "type": "electric_scooter", "bike_id": "9096b29ee82abbdc56b56e540e8ad8e6", "rental_uris": {"ios": "https://dc.lft.to/lastmile_qr_scan", "android": "https://dc.lft.to/lastmile_qr_scan"}, "fusion_lon": 0.0, "lon": -77.03407883333334, "name": "9096b29ee82abbdc56b56e540e8ad8e6", "is_reserved": 0, "is_disabled": 0}, {"lat": 38.95771116666667, "fusion_lat": 0.0, "type": "electric_scooter", "bike_id": "31503f4e6831513fd1dfd4f5c9da59ee", "rental_uris": {"ios": "https://dc.lft.to/lastmile_qr_scan", "android": "https://dc.lft.to/lastmile_qr_scan"}, "fusion_lon": 0.0, "lon": -77.01496433333334, "name": "31503f4e6831513fd1dfd4f5c9da59ee", "is_reserved": 0, "is_disabled": 0}, {"lat": 38.94976166666667, "fusion_lat": 0.0, "type": "electric_scooter", "bike_id": "291b1c5c477a9cfc7d5e0aad6460742d", "rental_uris": {"ios": "https://dc.lft.to/lastmile_qr_scan", "android": "https://dc.lft.to/lastmile_qr_scan"}, "fusion_lon": 0.0, "lon": -77.02449033333333, "name": "291b1c5c477a9cfc7d5e0aad6460742d", "is_reserved": 0, "is_disabled": 0}, {"lat": 38.92448983333333, "fusion_lat": 0.0, "type": "electric_scooter", "bike_id": "a72bf0f2f2072a625446819fb2010ea7", "rental_uris": {"ios": "https://dc.lft.to/lastmile_qr_scan", "android": "https://dc.lft.to/lastmile_qr_scan"}, "fusion_lon": 0.0, "lon": -77.0385825, "name": "a72bf0f2f2072a625446819fb2010ea7", "is_reserved": 0, "is_disabled": 0}, {"lat": 38.91770016666667, "fusion_lat": 0.0, "type": "electric_scooter", "bike_id": "6327992e55b17ca000a8c9d31887517a", "rental_uris": {"ios": "https://dc.lft.to/lastmile_qr_scan", "android": "https://dc.lft.to/lastmile_qr_scan"}, "fusion_lon": 0.0, "lon": -77.03229383333333, "name": "6327992e55b17ca000a8c9d31887517a", "is_reserved": 0, "is_disabled": 0}, {"lat": 38.8977205, "fusion_lat": 0.0, "type": "electric_scooter", "bike_id": "6126c5731cdf5a21741a17cd965e45cd", "rental_uris": {"ios": "https://dc.lft.to/lastmile_qr_scan", "android": "https://dc.lft.to/lastmile_qr_scan"}, "fusion_lon": 0.0, "lon": -77.03335733333333, "name": "6126c5731cdf5a21741a17cd965e45cd", "is_reserved": 0, "is_disabled": 0}, {"lat": 38.879250166666665, "fusion_lat": 0.0, "type": "electric_scooter", "bike_id": "d4c2e1beaa82e8ea8019cde460144bd8", "rental_uris": {"ios": "https://dc.lft.to/lastmile_qr_scan", "android": "https://dc.lft.to/lastmile_qr_scan"}, "fusion_lon": 0.0, "lon": -76.99885983333333, "name": "d4c2e1beaa82e8ea8019cde460144bd8", "is_reserved": 0, "is_disabled": 0}, {"lat": 38.893229833333336, "fusion_lat": 0.0, "type": "electric_bike", "bike_id": "821c7b264182cbd292b7b50ee24e57c5", "rental_uris": {"ios": "https://dc.lft.to/lastmile_qr_scan", "android": "https://dc.lft.to/lastmile_qr_scan"}, "fusion_lon": 0.0, "lon": -77.07730266666667, "name": "821c7b264182cbd292b7b50ee24e57c5", "is_reserved": 0, "is_disabled": 0}, {"lat": 38.873993, "fusion_lat": 0.0, "type": "electric_scooter", "bike_id": "a7962a0fb552114d24aa2e2a4b13754b", "rental_uris": {"ios": "https://dc.lft.to/lastmile_qr_scan", "android": "https://dc.lft.to/lastmile_qr_scan"}, "fusion_lon": 0.0, "lon": -77.00029833333333, "name": "a7962a0fb552114d24aa2e2a4b13754b", "is_reserved": 0, "is_disabled": 0}, {"lat": 38.91621133333334, "fusion_lat": 0.0, "type": "electric_scooter", "bike_id": "2a1f299466b9b99f93cb91e713ad5ce5", "rental_uris": {"ios": "https://dc.lft.to/lastmile_qr_scan", "android": "https://dc.lft.to/lastmile_qr_scan"}, "fusion_lon": 0.0, "lon": -77.04876733333333, "name": "2a1f299466b9b99f93cb91e713ad5ce5", "is_reserved": 0, "is_disabled": 0}, {"lat": 38.944511, "fusion_lat": 0.0, "type": "electric_scooter", "bike_id": "11055a23686e9398d9399f49377c0e19", "rental_uris": {"ios": "https://dc.lft.to/lastmile_qr_scan", "android": "https://dc.lft.to/lastmile_qr_scan"}, "fusion_lon": 0.0, "lon": -77.0635575, "name": "11055a23686e9398d9399f49377c0e19", "is_reserved": 0, "is_disabled": 0}, {"lat": 38.924981, "fusion_lat": 0.0, "type": "electric_scooter", "bike_id": "d27d0764281c819d2e78e47a2823516f", "rental_uris": {"ios": "https://dc.lft.to/lastmile_qr_scan", "android": "https://dc.lft.to/lastmile_qr_scan"}, "fusion_lon": 0.0, "lon": -77.02452516666666, "name": "d27d0764281c819d2e78e47a2823516f", "is_reserved": 0, "is_disabled": 0}, {"lat": 38.9184495, "fusion_lat": 0.0, "type": "electric_scooter", "bike_id": "dee17006472d824f79cf98183501df11", "rental_uris": {"ios": "https://dc.lft.to/lastmile_qr_scan", "android": "https://dc.lft.to/lastmile_qr_scan"}, "fusion_lon": 0.0, "lon": -77.0401855, "name": "dee17006472d824f79cf98183501df11", "is_reserved": 0, "is_disabled": 0}, {"lat": 38.915000166666665, "fusion_lat": 0.0, "type": "electric_scooter", "bike_id": "79a35d0ae0d40c1e1da5992cbcf21e14", "rental_uris": {"ios": "https://dc.lft.to/lastmile_qr_scan", "android": "https://dc.lft.to/lastmile_qr_scan"}, "fusion_lon": 0.0, "lon": -77.032648, "name": "79a35d0ae0d40c1e1da5992cbcf21e14", "is_reserved": 0, "is_disabled": 0}, {"lat": 38.9028315, "fusion_lat": 0.0, "type": "electric_scooter", "bike_id": "1e0db35f19dce0c564ab7f2761db3b56", "rental_uris": {"ios": "https://dc.lft.to/lastmile_qr_scan", "android": "https://dc.lft.to/lastmile_qr_scan"}, "fusion_lon": 0.0, "lon": -77.04634216666666, "name": "1e0db35f19dce0c564ab7f2761db3b56", "is_reserved": 0, "is_disabled": 0}, {"lat": 38.907403, "fusion_lat": 0.0, "type": "electric_scooter", "bike_id": "12269a1d489ff2e9972008759269518c", "rental_uris": {"ios": "https://dc.lft.to/lastmile_qr_scan", "android": "https://dc.lft.to/lastmile_qr_scan"}, "fusion_lon": 0.0, "lon": -77.0353075, "name": "12269a1d489ff2e9972008759269518c", "is_reserved": 0, "is_disabled": 0}, {"lat": 38.880190999999996, "fusion_lat": 0.0, "type": "electric_scooter", "bike_id": "42bdc6ec5eb673b632f25993315818a3", "rental_uris": {"ios": "https://dc.lft.to/lastmile_qr_scan", "android": "https://dc.lft.to/lastmile_qr_scan"}, "fusion_lon": 0.0, "lon": -76.98073366666667, "name": "42bdc6ec5eb673b632f25993315818a3", "is_reserved": 0, "is_disabled": 0}, {"lat": 38.887456, "fusion_lat": 0.0, "type": "electric_scooter", "bike_id": "9c81bd65dce5532d294ee08553221865", "rental_uris": {"ios": "https://dc.lft.to/lastmile_qr_scan", "android": "https://dc.lft.to/lastmile_qr_scan"}, "fusion_lon": 0.0, "lon": -77.01405283333334, "name": "9c81bd65dce5532d294ee08553221865", "is_reserved": 0, "is_disabled": 0}, {"lat": 38.906733833333334, "fusion_lat": 0.0, "type": "electric_scooter", "bike_id": "db897a1b2da055660542f242e93a31bd", "rental_uris": {"ios": "https://dc.lft.to/lastmile_qr_scan", "android": "https://dc.lft.to/lastmile_qr_scan"}, "fusion_lon": 0.0, "lon": -77.0382625, "name": "db897a1b2da055660542f242e93a31bd", "is_reserved": 0, "is_disabled": 0}, {"lat": 38.92620733333333, "fusion_lat": 0.0, "type": "electric_scooter", "bike_id": "30e872e0ce9668b4397f721d371287e3", "rental_uris": {"ios": "https://dc.lft.to/lastmile_qr_scan", "android": "https://dc.lft.to/lastmile_qr_scan"}, "fusion_lon": 0.0, "lon": -77.03634616666666, "name": "30e872e0ce9668b4397f721d371287e3", "is_reserved": 0, "is_disabled": 0}, {"lat": 38.905763, "fusion_lat": 0.0, "type": "electric_scooter", "bike_id": "654d03d7779c0ae6fcc76e889f052192", "rental_uris": {"ios": "https://dc.lft.to/lastmile_qr_scan", "android": "https://dc.lft.to/lastmile_qr_scan"}, "fusion_lon": 0.0, "lon": -77.02204983333333, "name": "654d03d7779c0ae6fcc76e889f052192", "is_reserved": 0, "is_disabled": 0}, {"lat": 38.8874315, "fusion_lat": 0.0, "type": "electric_scooter", "bike_id": "2ab0546e8d4e06de9e00d22c372bfaa8", "rental_uris": {"ios": "https://dc.lft.to/lastmile_qr_scan", "android": "https://dc.lft.to/lastmile_qr_scan"}, "fusion_lon": 0.0, "lon": -76.932627, "name": "2ab0546e8d4e06de9e00d22c372bfaa8", "is_reserved": 0, "is_disabled": 0}, {"lat": 38.968429, "fusion_lat": 0.0, "type": "electric_bike", "bike_id": "9aa7c2cf5eeaf3b2725de0414efe8f31", "rental_uris": {"ios": "https://dc.lft.to/lastmile_qr_scan", "android": "https://dc.lft.to/lastmile_qr_scan"}, "fusion_lon": 0.0, "lon": -77.00600833333333, "name": "9aa7c2cf5eeaf3b2725de0414efe8f31", "is_reserved": 0, "is_disabled": 0}, {"lat": 38.927266, "fusion_lat": 0.0, "type": "electric_scooter", "bike_id": "03956c20c1f0e701190401790f6abe0f", "rental_uris": {"ios": "https://dc.lft.to/lastmile_qr_scan", "android": "https://dc.lft.to/lastmile_qr_scan"}, "fusion_lon": 0.0, "lon": -77.02784916666667, "name": "03956c20c1f0e701190401790f6abe0f", "is_reserved": 0, "is_disabled": 0}, {"lat": 38.92863783333333, "fusion_lat": 0.0, "type": "electric_scooter", "bike_id": "8c2bb084ba90d035a4a8fc3ff6d43906", "rental_uris": {"ios": "https://dc.lft.to/lastmile_qr_scan", "android": "https://dc.lft.to/lastmile_qr_scan"}, "fusion_lon": 0.0, "lon": -77.03482466666667, "name": "8c2bb084ba90d035a4a8fc3ff6d43906", "is_reserved": 0, "is_disabled": 0}, {"lat": 38.89042333333333, "fusion_lat": 0.0, "type": "electric_scooter", "bike_id": "3448054b2fcc5323e9275f5fb864315a", "rental_uris": {"ios": "https://dc.lft.to/lastmile_qr_scan", "android": "https://dc.lft.to/lastmile_qr_scan"}, "fusion_lon": 0.0, "lon": -76.93752783333333, "name": "3448054b2fcc5323e9275f5fb864315a", "is_reserved": 0, "is_disabled": 0}, {"lat": 38.922923833333336, "fusion_lat": 0.0, "type": "electric_scooter", "bike_id": "1129e353ab3e806ae4f527b052c65ea3", "rental_uris": {"ios": "https://dc.lft.to/lastmile_qr_scan", "android": "https://dc.lft.to/lastmile_qr_scan"}, "fusion_lon": 0.0, "lon": -77.02957983333333, "name": "1129e353ab3e806ae4f527b052c65ea3", "is_reserved": 0, "is_disabled": 0}, {"lat": 38.92461183333333, "fusion_lat": 0.0, "type": "electric_scooter", "bike_id": "93fcfdae8680ed83b756cf5aa67a1525", "rental_uris": {"ios": "https://dc.lft.to/lastmile_qr_scan", "android": "https://dc.lft.to/lastmile_qr_scan"}, "fusion_lon": 0.0, "lon": -77.0391095, "name": "93fcfdae8680ed83b756cf5aa67a1525", "is_reserved": 0, "is_disabled": 0}, {"lat": 38.89223966666667, "fusion_lat": 0.0, "type": "electric_scooter", "bike_id": "ab24c7a06d46355379458b9faecdb21d", "rental_uris": {"ios": "https://dc.lft.to/lastmile_qr_scan", "android": "https://dc.lft.to/lastmile_qr_scan"}, "fusion_lon": 0.0, "lon": -77.04335516666667, "name": "ab24c7a06d46355379458b9faecdb21d", "is_reserved": 0, "is_disabled": 0}, {"lat": 38.9462685, "fusion_lat": 0.0, "type": "electric_scooter", "bike_id": "9fc39742c357f820de35b409eee73a61", "rental_uris": {"ios": "https://dc.lft.to/lastmile_qr_scan", "android": "https://dc.lft.to/lastmile_qr_scan"}, "fusion_lon": 0.0, "lon": -77.03949166666666, "name": "9fc39742c357f820de35b409eee73a61", "is_reserved": 0, "is_disabled": 0}, {"lat": 38.91683583333333, "fusion_lat": 0.0, "type": "electric_scooter", "bike_id": "7f6ee7d1bf8ce86e5b90ad48e3e40cb0", "rental_uris": {"ios": "https://dc.lft.to/lastmile_qr_scan", "android": "https://dc.lft.to/lastmile_qr_scan"}, "fusion_lon": 0.0, "lon": -77.02385216666667, "name": "7f6ee7d1bf8ce86e5b90ad48e3e40cb0", "is_reserved": 0, "is_disabled": 0}, {"lat": 38.927664166666666, "fusion_lat": 0.0, "type": "electric_scooter", "bike_id": "533213d1115a72b5a58fc56a9140a964", "rental_uris": {"ios": "https://dc.lft.to/lastmile_qr_scan", "android": "https://dc.lft.to/lastmile_qr_scan"}, "fusion_lon": 0.0, "lon": -76.973488, "name": "533213d1115a72b5a58fc56a9140a964", "is_reserved": 0, "is_disabled": 0}, {"lat": 38.949714666666665, "fusion_lat": 0.0, "type": "electric_scooter", "bike_id": "14a6f61a9810b54a668281f29f88d425", "rental_uris": {"ios": "https://dc.lft.to/lastmile_qr_scan", "android": "https://dc.lft.to/lastmile_qr_scan"}, "fusion_lon": 0.0, "lon": -77.06659, "name": "14a6f61a9810b54a668281f29f88d425", "is_reserved": 0, "is_disabled": 0}, {"lat": 38.892196166666665, "fusion_lat": 0.0, "type": "electric_scooter", "bike_id": "9c79f5f5929297c87d65122da305e217", "rental_uris": {"ios": "https://dc.lft.to/lastmile_qr_scan", "android": "https://dc.lft.to/lastmile_qr_scan"}, "fusion_lon": 0.0, "lon": -77.04370183333333, "name": "9c79f5f5929297c87d65122da305e217", "is_reserved": 0, "is_disabled": 0}, {"lat": 38.92446183333333, "fusion_lat": 0.0, "type": "electric_scooter", "bike_id": "5c9502a9a506e15d2a268884eaff4240", "rental_uris": {"ios": "https://dc.lft.to/lastmile_qr_scan", "android": "https://dc.lft.to/lastmile_qr_scan"}, "fusion_lon": 0.0, "lon": -77.03332666666667, "name": "5c9502a9a506e15d2a268884eaff4240", "is_reserved": 0, "is_disabled": 0}, {"lat": 38.872445166666665, "fusion_lat": 0.0, "type": "electric_bike", "bike_id": "7434dd6bbfff153961962a5abafea054", "rental_uris": {"ios": "https://dc.lft.to/lastmile_qr_scan", "android": "https://dc.lft.to/lastmile_qr_scan"}, "fusion_lon": 0.0, "lon": -77.008679, "name": "7434dd6bbfff153961962a5abafea054", "is_reserved": 0, "is_disabled": 0}, {"lat": 38.90668433333333, "fusion_lat": 0.0, "type": "electric_scooter", "bike_id": "b21ab96b24cd8b824888343b64188cb7", "rental_uris": {"ios": "https://dc.lft.to/lastmile_qr_scan", "android": "https://dc.lft.to/lastmile_qr_scan"}, "fusion_lon": 0.0, "lon": -77.02716266666667, "name": "b21ab96b24cd8b824888343b64188cb7", "is_reserved": 0, "is_disabled": 0}, {"lat": 38.90217783333333, "fusion_lat": 0.0, "type": "electric_scooter", "bike_id": "7289c3acedcead29dabf8543abbc0bb4", "rental_uris": {"ios": "https://dc.lft.to/lastmile_qr_scan", "android": "https://dc.lft.to/lastmile_qr_scan"}, "fusion_lon": 0.0, "lon": -77.05125983333333, "name": "7289c3acedcead29dabf8543abbc0bb4", "is_reserved": 0, "is_disabled": 0}, {"lat": 38.92511833333333, "fusion_lat": 0.0, "type": "electric_bike", "bike_id": "81a4c38974cf1fb5e3841f715cbae983", "rental_uris": {"ios": "https://dc.lft.to/lastmile_qr_scan", "android": "https://dc.lft.to/lastmile_qr_scan"}, "fusion_lon": 0.0, "lon": -77.23364033333333, "name": "81a4c38974cf1fb5e3841f715cbae983", "is_reserved": 0, "is_disabled": 0}, {"lat": 38.912026166666664, "fusion_lat": 0.0, "type": "electric_scooter", "bike_id": "37c4732a4531673c84180dda9f2adf8c", "rental_uris": {"ios": "https://dc.lft.to/lastmile_qr_scan", "android": "https://dc.lft.to/lastmile_qr_scan"}, "fusion_lon": 0.0, "lon": -77.045373, "name": "37c4732a4531673c84180dda9f2adf8c", "is_reserved": 0, "is_disabled": 0}, {"lat": 38.872939, "fusion_lat": 0.0, "type": "electric_scooter", "bike_id": "82d6db236113f1e7e5f12bf21d22cd68", "rental_uris": {"ios": "https://dc.lft.to/lastmile_qr_scan", "android": "https://dc.lft.to/lastmile_qr_scan"}, "fusion_lon": 0.0, "lon": -77.0098825, "name": "82d6db236113f1e7e5f12bf21d22cd68", "is_reserved": 0, "is_disabled": 0}, {"lat": 38.90598283333333, "fusion_lat": 0.0, "type": "electric_scooter", "bike_id": "550dee504a7ab7d94e1ebd7642981473", "rental_uris": {"ios": "https://dc.lft.to/lastmile_qr_scan", "android": "https://dc.lft.to/lastmile_qr_scan"}, "fusion_lon": 0.0, "lon": -77.02604916666667, "name": "550dee504a7ab7d94e1ebd7642981473", "is_reserved": 0, "is_disabled": 0}, {"lat": 38.897170833333334, "fusion_lat": 0.0, "type": "electric_scooter", "bike_id": "65126dadc165b5e9e14c71284fc396eb", "rental_uris": {"ios": "https://dc.lft.to/lastmile_qr_scan", "android": "https://dc.lft.to/lastmile_qr_scan"}, "fusion_lon": 0.0, "lon": -77.00798116666667, "name": "65126dadc165b5e9e14c71284fc396eb", "is_reserved": 0, "is_disabled": 0}, {"lat": 38.916419833333336, "fusion_lat": 0.0, "type": "electric_scooter", "bike_id": "6abfd489ffad536f8dd4c6d5cf69740b", "rental_uris": {"ios": "https://dc.lft.to/lastmile_qr_scan", "android": "https://dc.lft.to/lastmile_qr_scan"}, "fusion_lon": 0.0, "lon": -77.01584183333334, "name": "6abfd489ffad536f8dd4c6d5cf69740b", "is_reserved": 0, "is_disabled": 0}, {"lat": 38.908405, "fusion_lat": 0.0, "type": "electric_scooter", "bike_id": "78b753e31b0999f871a26f70ee92f778", "rental_uris": {"ios": "https://dc.lft.to/lastmile_qr_scan", "android": "https://dc.lft.to/lastmile_qr_scan"}, "fusion_lon": 0.0, "lon": -77.0238735, "name": "78b753e31b0999f871a26f70ee92f778", "is_reserved": 0, "is_disabled": 0}, {"lat": 38.920167666666664, "fusion_lat": 0.0, "type": "electric_scooter", "bike_id": "e9a657557fcff65672660e785a759aaa", "rental_uris": {"ios": "https://dc.lft.to/lastmile_qr_scan", "android": "https://dc.lft.to/lastmile_qr_scan"}, "fusion_lon": 0.0, "lon": -77.02182916666666, "name": "e9a657557fcff65672660e785a759aaa", "is_reserved": 0, "is_disabled": 0}, {"lat": 38.92243416666667, "fusion_lat": 0.0, "type": "electric_scooter", "bike_id": "eca5313bc3f5d3e40516d959b5cae6d4", "rental_uris": {"ios": "https://dc.lft.to/lastmile_qr_scan", "android": "https://dc.lft.to/lastmile_qr_scan"}, "fusion_lon": 0.0, "lon": -77.030859, "name": "eca5313bc3f5d3e40516d959b5cae6d4", "is_reserved": 0, "is_disabled": 0}, {"lat": 38.90121216666667, "fusion_lat": 0.0, "type": "electric_scooter", "bike_id": "4a89ba8a791ee61c1d8e10385a4f464c", "rental_uris": {"ios": "https://dc.lft.to/lastmile_qr_scan", "android": "https://dc.lft.to/lastmile_qr_scan"}, "fusion_lon": 0.0, "lon": -77.02555966666667, "name": "4a89ba8a791ee61c1d8e10385a4f464c", "is_reserved": 0, "is_disabled": 0}, {"lat": 38.9377175, "fusion_lat": 0.0, "type": "electric_scooter", "bike_id": "2b668c1ae8079eb6b779e22bcb2b9d64", "rental_uris": {"ios": "https://dc.lft.to/lastmile_qr_scan", "android": "https://dc.lft.to/lastmile_qr_scan"}, "fusion_lon": 0.0, "lon": -77.03284883333333, "name": "2b668c1ae8079eb6b779e22bcb2b9d64", "is_reserved": 0, "is_disabled": 0}, {"lat": 38.9191485, "fusion_lat": 0.0, "type": "electric_scooter", "bike_id": "5281475e7381b95472dff880fc5a5ad1", "rental_uris": {"ios": "https://dc.lft.to/lastmile_qr_scan", "android": "https://dc.lft.to/lastmile_qr_scan"}, "fusion_lon": 0.0, "lon": -77.02615083333333, "name": "5281475e7381b95472dff880fc5a5ad1", "is_reserved": 0, "is_disabled": 0}, {"lat": 38.94191883333333, "fusion_lat": 0.0, "type": "electric_scooter", "bike_id": "61326703476b556a4f867daba5b66204", "rental_uris": {"ios": "https://dc.lft.to/lastmile_qr_scan", "android": "https://dc.lft.to/lastmile_qr_scan"}, "fusion_lon": 0.0, "lon": -77.02490816666666, "name": "61326703476b556a4f867daba5b66204", "is_reserved": 0, "is_disabled": 0}, {"lat": 38.8976195, "fusion_lat": 0.0, "type": "electric_scooter", "bike_id": "74c13f64a6666d8a1d364037458dace6", "rental_uris": {"ios": "https://dc.lft.to/lastmile_qr_scan", "android": "https://dc.lft.to/lastmile_qr_scan"}, "fusion_lon": 0.0, "lon": -76.9865615, "name": "74c13f64a6666d8a1d364037458dace6", "is_reserved": 0, "is_disabled": 0}, {"lat": 38.8996415, "fusion_lat": 0.0, "type": "electric_scooter", "bike_id": "00056e0527365bfc5fe1a8596756a758", "rental_uris": {"ios": "https://dc.lft.to/lastmile_qr_scan", "android": "https://dc.lft.to/lastmile_qr_scan"}, "fusion_lon": 0.0, "lon": -77.01609233333333, "name": "00056e0527365bfc5fe1a8596756a758", "is_reserved": 0, "is_disabled": 0}, {"lat": 38.905012, "fusion_lat": 0.0, "type": "electric_scooter", "bike_id": "beae77c3f761fabb99d707560162eb37", "rental_uris": {"ios": "https://dc.lft.to/lastmile_qr_scan", "android": "https://dc.lft.to/lastmile_qr_scan"}, "fusion_lon": 0.0, "lon": -77.0301595, "name": "beae77c3f761fabb99d707560162eb37", "is_reserved": 0, "is_disabled": 0}, {"lat": 38.8874765, "fusion_lat": 0.0, "type": "electric_scooter", "bike_id": "6bd855e7cfcb7141f53e322ce32f949f", "rental_uris": {"ios": "https://dc.lft.to/lastmile_qr_scan", "android": "https://dc.lft.to/lastmile_qr_scan"}, "fusion_lon": 0.0, "lon": -76.98688066666666, "name": "6bd855e7cfcb7141f53e322ce32f949f", "is_reserved": 0, "is_disabled": 0}, {"lat": 38.906658166666666, "fusion_lat": 0.0, "type": "electric_scooter", "bike_id": "56a7ed3b3b04fda2a5108a304893e0a2", "rental_uris": {"ios": "https://dc.lft.to/lastmile_qr_scan", "android": "https://dc.lft.to/lastmile_qr_scan"}, "fusion_lon": 0.0, "lon": -77.02707433333333, "name": "56a7ed3b3b04fda2a5108a304893e0a2", "is_reserved": 0, "is_disabled": 0}, {"lat": 38.908577, "fusion_lat": 0.0, "type": "electric_scooter", "bike_id": "24b13e0170551d641c90592c4fa40fed", "rental_uris": {"ios": "https://dc.lft.to/lastmile_qr_scan", "android": "https://dc.lft.to/lastmile_qr_scan"}, "fusion_lon": 0.0, "lon": -77.0194255, "name": "24b13e0170551d641c90592c4fa40fed", "is_reserved": 0, "is_disabled": 0}, {"lat": 39.099650833333335, "fusion_lat": 0.0, "type": "electric_bike", "bike_id": "6bc9b54f7bd74cd3fedf554b5ca794a7", "rental_uris": {"ios": "https://dc.lft.to/lastmile_qr_scan", "android": "https://dc.lft.to/lastmile_qr_scan"}, "fusion_lon": 0.0, "lon": -77.18303216666666, "name": "6bc9b54f7bd74cd3fedf554b5ca794a7", "is_reserved": 0, "is_disabled": 0}, {"lat": 38.89009, "fusion_lat": 0.0, "type": "electric_scooter", "bike_id": "b0c7c804bb5e2214e02029bfc664089b", "rental_uris": {"ios": "https://dc.lft.to/lastmile_qr_scan", "android": "https://dc.lft.to/lastmile_qr_scan"}, "fusion_lon": 0.0, "lon": -76.93742216666666, "name": "b0c7c804bb5e2214e02029bfc664089b", "is_reserved": 0, "is_disabled": 0}, {"lat": 38.9336635, "fusion_lat": 0.0, "type": "electric_scooter", "bike_id": "0d9ded9e7a00e93fd25e4418a464506f", "rental_uris": {"ios": "https://dc.lft.to/lastmile_qr_scan", "android": "https://dc.lft.to/lastmile_qr_scan"}, "fusion_lon": 0.0, "lon": -77.03719633333333, "name": "0d9ded9e7a00e93fd25e4418a464506f", "is_reserved": 0, "is_disabled": 0}, {"lat": 38.9154635, "fusion_lat": 0.0, "type": "electric_scooter", "bike_id": "034d9a02e07deb1dc1c2f5f98a213305", "rental_uris": {"ios": "https://dc.lft.to/lastmile_qr_scan", "android": "https://dc.lft.to/lastmile_qr_scan"}, "fusion_lon": 0.0, "lon": -77.01182583333333, "name": "034d9a02e07deb1dc1c2f5f98a213305", "is_reserved": 0, "is_disabled": 0}, {"lat": 38.9000195, "fusion_lat": 0.0, "type": "electric_scooter", "bike_id": "461163c5a6b0aa23031778e34a70d8be", "rental_uris": {"ios": "https://dc.lft.to/lastmile_qr_scan", "android": "https://dc.lft.to/lastmile_qr_scan"}, "fusion_lon": 0.0, "lon": -77.028817, "name": "461163c5a6b0aa23031778e34a70d8be", "is_reserved": 0, "is_disabled": 0}, {"lat": 38.927324, "fusion_lat": 0.0, "type": "electric_scooter", "bike_id": "e2fa8a90c17e0051d2ac6decc44e0312", "rental_uris": {"ios": "https://dc.lft.to/lastmile_qr_scan", "android": "https://dc.lft.to/lastmile_qr_scan"}, "fusion_lon": 0.0, "lon": -77.035038, "name": "e2fa8a90c17e0051d2ac6decc44e0312", "is_reserved": 0, "is_disabled": 0}, {"lat": 38.9022325, "fusion_lat": 0.0, "type": "electric_scooter", "bike_id": "e6814d7b7afec399e3cd865613302d0e", "rental_uris": {"ios": "https://dc.lft.to/lastmile_qr_scan", "android": "https://dc.lft.to/lastmile_qr_scan"}, "fusion_lon": 0.0, "lon": -76.98185466666666, "name": "e6814d7b7afec399e3cd865613302d0e", "is_reserved": 0, "is_disabled": 0}, {"lat": 38.93099333333333, "fusion_lat": 0.0, "type": "electric_scooter", "bike_id": "126eaf6983ce8c1add685aaf12a0f9f2", "rental_uris": {"ios": "https://dc.lft.to/lastmile_qr_scan", "android": "https://dc.lft.to/lastmile_qr_scan"}, "fusion_lon": 0.0, "lon": -77.02475383333334, "name": "126eaf6983ce8c1add685aaf12a0f9f2", "is_reserved": 0, "is_disabled": 0}, {"lat": 38.86398, "fusion_lat": 0.0, "type": "electric_bike", "bike_id": "e816a8ab8d3d50d027556f0b69cae786", "rental_uris": {"ios": "https://dc.lft.to/lastmile_qr_scan", "android": "https://dc.lft.to/lastmile_qr_scan"}, "fusion_lon": 0.0, "lon": -77.201094, "name": "e816a8ab8d3d50d027556f0b69cae786", "is_reserved": 0, "is_disabled": 0}, {"lat": 38.901930166666666, "fusion_lat": 0.0, "type": "electric_scooter", "bike_id": "c97ec094bfafeaa0c385bb400c432039", "rental_uris": {"ios": "https://dc.lft.to/lastmile_qr_scan", "android": "https://dc.lft.to/lastmile_qr_scan"}, "fusion_lon": 0.0, "lon": -77.02187216666667, "name": "c97ec094bfafeaa0c385bb400c432039", "is_reserved": 0, "is_disabled": 0}, {"lat": 38.841970333333336, "fusion_lat": 0.0, "type": "electric_bike", "bike_id": "89ce3cffd4bae075984445e7cdd781ed", "rental_uris": {"ios": "https://dc.lft.to/lastmile_qr_scan", "android": "https://dc.lft.to/lastmile_qr_scan"}, "fusion_lon": 0.0, "lon": -77.0675465, "name": "89ce3cffd4bae075984445e7cdd781ed", "is_reserved": 0, "is_disabled": 0}, {"lat": 38.90973983333333, "fusion_lat": 0.0, "type": "electric_scooter", "bike_id": "8e369d9dd11bd4ea7203f67a28d4a405", "rental_uris": {"ios": "https://dc.lft.to/lastmile_qr_scan", "android": "https://dc.lft.to/lastmile_qr_scan"}, "fusion_lon": 0.0, "lon": -77.05195283333333, "name": "8e369d9dd11bd4ea7203f67a28d4a405", "is_reserved": 0, "is_disabled": 0}, {"lat": 38.8852665, "fusion_lat": 0.0, "type": "electric_scooter", "bike_id": "69f99f7f46adbb86edc63781cfe99784", "rental_uris": {"ios": "https://dc.lft.to/lastmile_qr_scan", "android": "https://dc.lft.to/lastmile_qr_scan"}, "fusion_lon": 0.0, "lon": -77.021727, "name": "69f99f7f46adbb86edc63781cfe99784", "is_reserved": 0, "is_disabled": 0}, {"lat": 38.973523, "fusion_lat": 0.0, "type": "electric_scooter", "bike_id": "8b0643591c9bd6b74a408101631ef871", "rental_uris": {"ios": "https://dc.lft.to/lastmile_qr_scan", "android": "https://dc.lft.to/lastmile_qr_scan"}, "fusion_lon": 0.0, "lon": -77.027866, "name": "8b0643591c9bd6b74a408101631ef871", "is_reserved": 0, "is_disabled": 0}, {"lat": 38.898269, "fusion_lat": 0.0, "type": "electric_scooter", "bike_id": "846c7a8fdd3f68e7737eb387baa1d0ca", "rental_uris": {"ios": "https://dc.lft.to/lastmile_qr_scan", "android": "https://dc.lft.to/lastmile_qr_scan"}, "fusion_lon": 0.0, "lon": -76.94653433333333, "name": "846c7a8fdd3f68e7737eb387baa1d0ca", "is_reserved": 0, "is_disabled": 0}, {"lat": 38.879223, "fusion_lat": 0.0, "type": "electric_scooter", "bike_id": "d04f7b090d139e314930395bc45e57c3", "rental_uris": {"ios": "https://dc.lft.to/lastmile_qr_scan", "android": "https://dc.lft.to/lastmile_qr_scan"}, "fusion_lon": 0.0, "lon": -77.02388483333333, "name": "d04f7b090d139e314930395bc45e57c3", "is_reserved": 0, "is_disabled": 0}, {"lat": 38.9188975, "fusion_lat": 0.0, "type": "electric_scooter", "bike_id": "fc59ce44bea9989eade85df89d3850ab", "rental_uris": {"ios": "https://dc.lft.to/lastmile_qr_scan", "android": "https://dc.lft.to/lastmile_qr_scan"}, "fusion_lon": 0.0, "lon": -77.0382485, "name": "fc59ce44bea9989eade85df89d3850ab", "is_reserved": 0, "is_disabled": 0}, {"lat": 38.93103283333333, "fusion_lat": 0.0, "type": "electric_scooter", "bike_id": "3e4d11aadcdb8c15ffbe680d5bd210b7", "rental_uris": {"ios": "https://dc.lft.to/lastmile_qr_scan", "android": "https://dc.lft.to/lastmile_qr_scan"}, "fusion_lon": 0.0, "lon": -77.02360033333333, "name": "3e4d11aadcdb8c15ffbe680d5bd210b7", "is_reserved": 0, "is_disabled": 0}, {"lat": 38.904946833333334, "fusion_lat": 0.0, "type": "electric_scooter", "bike_id": "0594854f9aff69d66deb6c7d67e6c000", "rental_uris": {"ios": "https://dc.lft.to/lastmile_qr_scan", "android": "https://dc.lft.to/lastmile_qr_scan"}, "fusion_lon": 0.0, "lon": -77.0302305, "name": "0594854f9aff69d66deb6c7d67e6c000", "is_reserved": 0, "is_disabled": 0}, {"lat": 38.909655, "fusion_lat": 0.0, "type": "electric_scooter", "bike_id": "d9629b473b42955c535fde8b7f088f4c", "rental_uris": {"ios": "https://dc.lft.to/lastmile_qr_scan", "android": "https://dc.lft.to/lastmile_qr_scan"}, "fusion_lon": 0.0, "lon": -77.03980183333333, "name": "d9629b473b42955c535fde8b7f088f4c", "is_reserved": 0, "is_disabled": 0}, {"lat": 38.832489333333335, "fusion_lat": 0.0, "type": "electric_bike", "bike_id": "485f045d810ec42ee6899fc88cde42bc", "rental_uris": {"ios": "https://dc.lft.to/lastmile_qr_scan", "android": "https://dc.lft.to/lastmile_qr_scan"}, "fusion_lon": 0.0, "lon": -77.00728783333334, "name": "485f045d810ec42ee6899fc88cde42bc", "is_reserved": 0, "is_disabled": 0}, {"lat": 38.907116333333335, "fusion_lat": 0.0, "type": "electric_scooter", "bike_id": "ce1ecad18bdb7a17b92cb2cfd5bf5d75", "rental_uris": {"ios": "https://dc.lft.to/lastmile_qr_scan", "android": "https://dc.lft.to/lastmile_qr_scan"}, "fusion_lon": 0.0, "lon": -77.02516533333333, "name": "ce1ecad18bdb7a17b92cb2cfd5bf5d75", "is_reserved": 0, "is_disabled": 0}, {"lat": 38.91495616666667, "fusion_lat": 0.0, "type": "electric_scooter", "bike_id": "839323942df00dd9e94ee6ec5dd4e5a6", "rental_uris": {"ios": "https://dc.lft.to/lastmile_qr_scan", "android": "https://dc.lft.to/lastmile_qr_scan"}, "fusion_lon": 0.0, "lon": -77.03843533333334, "name": "839323942df00dd9e94ee6ec5dd4e5a6", "is_reserved": 0, "is_disabled": 0}, {"lat": 38.916338833333334, "fusion_lat": 0.0, "type": "electric_scooter", "bike_id": "dcf351535b127efb02aa498ba6718097", "rental_uris": {"ios": "https://dc.lft.to/lastmile_qr_scan", "android": "https://dc.lft.to/lastmile_qr_scan"}, "fusion_lon": 0.0, "lon": -77.04812866666667, "name": "dcf351535b127efb02aa498ba6718097", "is_reserved": 0, "is_disabled": 0}, {"lat": 38.93523283333333, "fusion_lat": 0.0, "type": "electric_scooter", "bike_id": "037050b692eb2c72f4fe492d6643cf9b", "rental_uris": {"ios": "https://dc.lft.to/lastmile_qr_scan", "android": "https://dc.lft.to/lastmile_qr_scan"}, "fusion_lon": 0.0, "lon": -77.0325605, "name": "037050b692eb2c72f4fe492d6643cf9b", "is_reserved": 0, "is_disabled": 0}, {"lat": 38.952177, "fusion_lat": 0.0, "type": "electric_scooter", "bike_id": "d00b3a45facef0f800c07bbf417ccbd2", "rental_uris": {"ios": "https://dc.lft.to/lastmile_qr_scan", "android": "https://dc.lft.to/lastmile_qr_scan"}, "fusion_lon": 0.0, "lon": -77.01752266666666, "name": "d00b3a45facef0f800c07bbf417ccbd2", "is_reserved": 0, "is_disabled": 0}, {"lat": 38.947370166666666, "fusion_lat": 0.0, "type": "electric_scooter", "bike_id": "27749c77e380a37d5ffe27c2335ad07c", "rental_uris": {"ios": "https://dc.lft.to/lastmile_qr_scan", "android": "https://dc.lft.to/lastmile_qr_scan"}, "fusion_lon": 0.0, "lon": -77.01615633333333, "name": "27749c77e380a37d5ffe27c2335ad07c", "is_reserved": 0, "is_disabled": 0}, {"lat": 38.9071525, "fusion_lat": 0.0, "type": "electric_scooter", "bike_id": "d0c9711b3bd99882de14c0cffbc6e119", "rental_uris": {"ios": "https://dc.lft.to/lastmile_qr_scan", "android": "https://dc.lft.to/lastmile_qr_scan"}, "fusion_lon": 0.0, "lon": -77.04666016666667, "name": "d0c9711b3bd99882de14c0cffbc6e119", "is_reserved": 0, "is_disabled": 0}, {"lat": 38.93189133333333, "fusion_lat": 0.0, "type": "electric_scooter", "bike_id": "c53c812771a655945aae8c6e20232d24", "rental_uris": {"ios": "https://dc.lft.to/lastmile_qr_scan", "android": "https://dc.lft.to/lastmile_qr_scan"}, "fusion_lon": 0.0, "lon": -77.02979, "name": "c53c812771a655945aae8c6e20232d24", "is_reserved": 0, "is_disabled": 0}, {"lat": 38.8990795, "fusion_lat": 0.0, "type": "electric_scooter", "bike_id": "691101ddb2a70e250d165eff12f02611", "rental_uris": {"ios": "https://dc.lft.to/lastmile_qr_scan", "android": "https://dc.lft.to/lastmile_qr_scan"}, "fusion_lon": 0.0, "lon": -76.94547433333334, "name": "691101ddb2a70e250d165eff12f02611", "is_reserved": 0, "is_disabled": 0}, {"lat": 38.895029666666666, "fusion_lat": 0.0, "type": "electric_scooter", "bike_id": "b973bf067b77bb2f7ab7034ec93fe565", "rental_uris": {"ios": "https://dc.lft.to/lastmile_qr_scan", "android": "https://dc.lft.to/lastmile_qr_scan"}, "fusion_lon": 0.0, "lon": -77.02165533333333, "name": "b973bf067b77bb2f7ab7034ec93fe565", "is_reserved": 0, "is_disabled": 0}, {"lat": 38.90194183333333, "fusion_lat": 0.0, "type": "electric_scooter", "bike_id": "c4ea912f79aeb2937cbb2528197f454f", "rental_uris": {"ios": "https://dc.lft.to/lastmile_qr_scan", "android": "https://dc.lft.to/lastmile_qr_scan"}, "fusion_lon": 0.0, "lon": -77.02193333333334, "name": "c4ea912f79aeb2937cbb2528197f454f", "is_reserved": 0, "is_disabled": 0}, {"lat": 38.86821583333333, "fusion_lat": 0.0, "type": "electric_scooter", "bike_id": "f2534a77c23791f46d6a04269d398c69", "rental_uris": {"ios": "https://dc.lft.to/lastmile_qr_scan", "android": "https://dc.lft.to/lastmile_qr_scan"}, "fusion_lon": 0.0, "lon": -77.009806, "name": "f2534a77c23791f46d6a04269d398c69", "is_reserved": 0, "is_disabled": 0}, {"lat": 38.914609666666664, "fusion_lat": 0.0, "type": "electric_scooter", "bike_id": "a4d265a0eea3ba25e7b2164534d646d8", "rental_uris": {"ios": "https://dc.lft.to/lastmile_qr_scan", "android": "https://dc.lft.to/lastmile_qr_scan"}, "fusion_lon": 0.0, "lon": -77.02158033333333, "name": "a4d265a0eea3ba25e7b2164534d646d8", "is_reserved": 0, "is_disabled": 0}, {"lat": 38.914182833333335, "fusion_lat": 0.0, "type": "electric_scooter", "bike_id": "6dc8b4460a27323a5ba15766612faf3d", "rental_uris": {"ios": "https://dc.lft.to/lastmile_qr_scan", "android": "https://dc.lft.to/lastmile_qr_scan"}, "fusion_lon": 0.0, "lon": -77.03171883333333, "name": "6dc8b4460a27323a5ba15766612faf3d", "is_reserved": 0, "is_disabled": 0}, {"lat": 38.91521016666667, "fusion_lat": 0.0, "type": "electric_scooter", "bike_id": "c8ad43a0f4f58f06149eceba689730f4", "rental_uris": {"ios": "https://dc.lft.to/lastmile_qr_scan", "android": "https://dc.lft.to/lastmile_qr_scan"}, "fusion_lon": 0.0, "lon": -77.012227, "name": "c8ad43a0f4f58f06149eceba689730f4", "is_reserved": 0, "is_disabled": 0}, {"lat": 38.942824333333334, "fusion_lat": 0.0, "type": "electric_scooter", "bike_id": "72e3675b101d8744505fb3c910cd352e", "rental_uris": {"ios": "https://dc.lft.to/lastmile_qr_scan", "android": "https://dc.lft.to/lastmile_qr_scan"}, "fusion_lon": 0.0, "lon": -77.07702316666666, "name": "72e3675b101d8744505fb3c910cd352e", "is_reserved": 0, "is_disabled": 0}, {"lat": 38.935246666666664, "fusion_lat": 0.0, "type": "electric_scooter", "bike_id": "c94e845679e0f72c1203644273c0737b", "rental_uris": {"ios": "https://dc.lft.to/lastmile_qr_scan", "android": "https://dc.lft.to/lastmile_qr_scan"}, "fusion_lon": 0.0, "lon": -77.03256533333334, "name": "c94e845679e0f72c1203644273c0737b", "is_reserved": 0, "is_disabled": 0}, {"lat": 38.90783583333333, "fusion_lat": 0.0, "type": "electric_scooter", "bike_id": "1191648ecb867cd5426e08042a31751e", "rental_uris": {"ios": "https://dc.lft.to/lastmile_qr_scan", "android": "https://dc.lft.to/lastmile_qr_scan"}, "fusion_lon": 0.0, "lon": -77.03827866666667, "name": "1191648ecb867cd5426e08042a31751e", "is_reserved": 0, "is_disabled": 0}, {"lat": 38.90996766666667, "fusion_lat": 0.0, "type": "electric_scooter", "bike_id": "6f8649a9556e97d47e42862f5af14e81", "rental_uris": {"ios": "https://dc.lft.to/lastmile_qr_scan", "android": "https://dc.lft.to/lastmile_qr_scan"}, "fusion_lon": 0.0, "lon": -77.03178516666667, "name": "6f8649a9556e97d47e42862f5af14e81", "is_reserved": 0, "is_disabled": 0}, {"lat": 38.96451183333333, "fusion_lat": 0.0, "type": "electric_bike", "bike_id": "1aaf479bfb93f9fc34aefb19bc7f6765", "rental_uris": {"ios": "https://dc.lft.to/lastmile_qr_scan", "android": "https://dc.lft.to/lastmile_qr_scan"}, "fusion_lon": 0.0, "lon": -77.0223565, "name": "1aaf479bfb93f9fc34aefb19bc7f6765", "is_reserved": 0, "is_disabled": 0}, {"lat": 38.924175, "fusion_lat": 0.0, "type": "electric_scooter", "bike_id": "bc3da42e10fa4df9dfdd1cadb4390d73", "rental_uris": {"ios": "https://dc.lft.to/lastmile_qr_scan", "android": "https://dc.lft.to/lastmile_qr_scan"}, "fusion_lon": 0.0, "lon": -77.06525716666667, "name": "bc3da42e10fa4df9dfdd1cadb4390d73", "is_reserved": 0, "is_disabled": 0}, {"lat": 38.87846116666667, "fusion_lat": 0.0, "type": "electric_scooter", "bike_id": "6d83d132ed5d363f35d01e329f4972d1", "rental_uris": {"ios": "https://dc.lft.to/lastmile_qr_scan", "android": "https://dc.lft.to/lastmile_qr_scan"}, "fusion_lon": 0.0, "lon": -77.0074695, "name": "6d83d132ed5d363f35d01e329f4972d1", "is_reserved": 0, "is_disabled": 0}, {"lat": 38.911661, "fusion_lat": 0.0, "type": "electric_scooter", "bike_id": "1d344f86a055fd5ea0bacceb46dffe46", "rental_uris": {"ios": "https://dc.lft.to/lastmile_qr_scan", "android": "https://dc.lft.to/lastmile_qr_scan"}, "fusion_lon": 0.0, "lon": -77.00203266666666, "name": "1d344f86a055fd5ea0bacceb46dffe46", "is_reserved": 0, "is_disabled": 0}, {"lat": 38.90506666666667, "fusion_lat": 0.0, "type": "electric_scooter", "bike_id": "d82eebfc411dacb1c867688c07a094f5", "rental_uris": {"ios": "https://dc.lft.to/lastmile_qr_scan", "android": "https://dc.lft.to/lastmile_qr_scan"}, "fusion_lon": 0.0, "lon": -77.06743683333333, "name": "d82eebfc411dacb1c867688c07a094f5", "is_reserved": 0, "is_disabled": 0}, {"lat": 38.892328, "fusion_lat": 0.0, "type": "electric_scooter", "bike_id": "7f239d14bd8dac4ef9d20e8a88b2ffa1", "rental_uris": {"ios": "https://dc.lft.to/lastmile_qr_scan", "android": "https://dc.lft.to/lastmile_qr_scan"}, "fusion_lon": 0.0, "lon": -77.021794, "name": "7f239d14bd8dac4ef9d20e8a88b2ffa1", "is_reserved": 0, "is_disabled": 0}, {"lat": 38.92362633333333, "fusion_lat": 0.0, "type": "electric_scooter", "bike_id": "df04f74d6cc9f7b7a9520a4e060526e7", "rental_uris": {"ios": "https://dc.lft.to/lastmile_qr_scan", "android": "https://dc.lft.to/lastmile_qr_scan"}, "fusion_lon": 0.0, "lon": -77.05048133333334, "name": "df04f74d6cc9f7b7a9520a4e060526e7", "is_reserved": 0, "is_disabled": 0}, {"lat": 38.90474733333333, "fusion_lat": 0.0, "type": "electric_scooter", "bike_id": "e314794ac8491674e7bc2199f5a955d4", "rental_uris": {"ios": "https://dc.lft.to/lastmile_qr_scan", "android": "https://dc.lft.to/lastmile_qr_scan"}, "fusion_lon": 0.0, "lon": -77.05296183333333, "name": "e314794ac8491674e7bc2199f5a955d4", "is_reserved": 0, "is_disabled": 0}, {"lat": 38.88728916666667, "fusion_lat": 0.0, "type": "electric_scooter", "bike_id": "3d888fffedbe68edd40810e9b2f7d56d", "rental_uris": {"ios": "https://dc.lft.to/lastmile_qr_scan", "android": "https://dc.lft.to/lastmile_qr_scan"}, "fusion_lon": 0.0, "lon": -76.98357883333334, "name": "3d888fffedbe68edd40810e9b2f7d56d", "is_reserved": 0, "is_disabled": 0}, {"lat": 38.925818, "fusion_lat": 0.0, "type": "electric_scooter", "bike_id": "9a0af9994314ff35fe68a30cc4dcd853", "rental_uris": {"ios": "https://dc.lft.to/lastmile_qr_scan", "android": "https://dc.lft.to/lastmile_qr_scan"}, "fusion_lon": 0.0, "lon": -77.03204133333334, "name": "9a0af9994314ff35fe68a30cc4dcd853", "is_reserved": 0, "is_disabled": 0}, {"lat": 38.9127165, "fusion_lat": 0.0, "type": "electric_scooter", "bike_id": "a1119fafb5a9c5ae4efcc3431e1976a3", "rental_uris": {"ios": "https://dc.lft.to/lastmile_qr_scan", "android": "https://dc.lft.to/lastmile_qr_scan"}, "fusion_lon": 0.0, "lon": -77.02213733333333, "name": "a1119fafb5a9c5ae4efcc3431e1976a3", "is_reserved": 0, "is_disabled": 0}, {"lat": 38.974712833333335, "fusion_lat": 0.0, "type": "electric_scooter", "bike_id": "8b025af1dc8728e083a247801bace542", "rental_uris": {"ios": "https://dc.lft.to/lastmile_qr_scan", "android": "https://dc.lft.to/lastmile_qr_scan"}, "fusion_lon": 0.0, "lon": -77.013986, "name": "8b025af1dc8728e083a247801bace542", "is_reserved": 0, "is_disabled": 0}, {"lat": 38.946003833333336, "fusion_lat": 0.0, "type": "electric_scooter", "bike_id": "0c4c49f004694f02c1785748fc50f6a7", "rental_uris": {"ios": "https://dc.lft.to/lastmile_qr_scan", "android": "https://dc.lft.to/lastmile_qr_scan"}, "fusion_lon": 0.0, "lon": -77.02668666666666, "name": "0c4c49f004694f02c1785748fc50f6a7", "is_reserved": 0, "is_disabled": 0}, {"lat": 38.938067333333336, "fusion_lat": 0.0, "type": "electric_scooter", "bike_id": "b968d1eda1715f6ff6e0e3092be39877", "rental_uris": {"ios": "https://dc.lft.to/lastmile_qr_scan", "android": "https://dc.lft.to/lastmile_qr_scan"}, "fusion_lon": 0.0, "lon": -77.02421583333333, "name": "b968d1eda1715f6ff6e0e3092be39877", "is_reserved": 0, "is_disabled": 0}, {"lat": 38.89231383333333, "fusion_lat": 0.0, "type": "electric_scooter", "bike_id": "b737fbeee75db52a9d47132f009a2574", "rental_uris": {"ios": "https://dc.lft.to/lastmile_qr_scan", "android": "https://dc.lft.to/lastmile_qr_scan"}, "fusion_lon": 0.0, "lon": -77.05005266666667, "name": "b737fbeee75db52a9d47132f009a2574", "is_reserved": 0, "is_disabled": 0}, {"lat": 38.897774, "fusion_lat": 0.0, "type": "electric_scooter", "bike_id": "072fb410d7135954f1212726cc93d3d9", "rental_uris": {"ios": "https://dc.lft.to/lastmile_qr_scan", "android": "https://dc.lft.to/lastmile_qr_scan"}, "fusion_lon": 0.0, "lon": -76.9916115, "name": "072fb410d7135954f1212726cc93d3d9", "is_reserved": 0, "is_disabled": 0}, {"lat": 38.935781166666665, "fusion_lat": 0.0, "type": "electric_scooter", "bike_id": "0d06c35057050088a2479774246f4046", "rental_uris": {"ios": "https://dc.lft.to/lastmile_qr_scan", "android": "https://dc.lft.to/lastmile_qr_scan"}, "fusion_lon": 0.0, "lon": -77.03362916666667, "name": "0d06c35057050088a2479774246f4046", "is_reserved": 0, "is_disabled": 0}, {"lat": 38.88520833333333, "fusion_lat": 0.0, "type": "electric_scooter", "bike_id": "ac57d1e46c6167e451d02127f079a565", "rental_uris": {"ios": "https://dc.lft.to/lastmile_qr_scan", "android": "https://dc.lft.to/lastmile_qr_scan"}, "fusion_lon": 0.0, "lon": -77.0112855, "name": "ac57d1e46c6167e451d02127f079a565", "is_reserved": 0, "is_disabled": 0}, {"lat": 38.8766655, "fusion_lat": 0.0, "type": "electric_scooter", "bike_id": "bf6c7a42f04790c2160bc0d9a8bb5a45", "rental_uris": {"ios": "https://dc.lft.to/lastmile_qr_scan", "android": "https://dc.lft.to/lastmile_qr_scan"}, "fusion_lon": 0.0, "lon": -77.0028245, "name": "bf6c7a42f04790c2160bc0d9a8bb5a45", "is_reserved": 0, "is_disabled": 0}, {"lat": 38.89241366666667, "fusion_lat": 0.0, "type": "electric_scooter", "bike_id": "f2d028f608a8c71145004be9105c7430", "rental_uris": {"ios": "https://dc.lft.to/lastmile_qr_scan", "android": "https://dc.lft.to/lastmile_qr_scan"}, "fusion_lon": 0.0, "lon": -77.02794133333333, "name": "f2d028f608a8c71145004be9105c7430", "is_reserved": 0, "is_disabled": 0}, {"lat": 38.904391333333336, "fusion_lat": 0.0, "type": "electric_scooter", "bike_id": "9e8791ba818e33f1510661f43b0c05fb", "rental_uris": {"ios": "https://dc.lft.to/lastmile_qr_scan", "android": "https://dc.lft.to/lastmile_qr_scan"}, "fusion_lon": 0.0, "lon": -77.06016933333333, "name": "9e8791ba818e33f1510661f43b0c05fb", "is_reserved": 0, "is_disabled": 0}, {"lat": 38.89734166666667, "fusion_lat": 0.0, "type": "electric_scooter", "bike_id": "444b217ff569e73d6114a48b6dce01a5", "rental_uris": {"ios": "https://dc.lft.to/lastmile_qr_scan", "android": "https://dc.lft.to/lastmile_qr_scan"}, "fusion_lon": 0.0, "lon": -77.0276175, "name": "444b217ff569e73d6114a48b6dce01a5", "is_reserved": 0, "is_disabled": 0}, {"lat": 38.914155666666666, "fusion_lat": 0.0, "type": "electric_scooter", "bike_id": "93b70fc535b659b068b8f406d70774c5", "rental_uris": {"ios": "https://dc.lft.to/lastmile_qr_scan", "android": "https://dc.lft.to/lastmile_qr_scan"}, "fusion_lon": 0.0, "lon": -77.01076183333333, "name": "93b70fc535b659b068b8f406d70774c5", "is_reserved": 0, "is_disabled": 0}, {"lat": 38.908951333333334, "fusion_lat": 0.0, "type": "electric_scooter", "bike_id": "bb4f396cf692fb33d1a82d0bf4318033", "rental_uris": {"ios": "https://dc.lft.to/lastmile_qr_scan", "android": "https://dc.lft.to/lastmile_qr_scan"}, "fusion_lon": 0.0, "lon": -77.044914, "name": "bb4f396cf692fb33d1a82d0bf4318033", "is_reserved": 0, "is_disabled": 0}, {"lat": 38.90472583333333, "fusion_lat": 0.0, "type": "electric_scooter", "bike_id": "4198c0faac6ad6c053cb03173ca9a94d", "rental_uris": {"ios": "https://dc.lft.to/lastmile_qr_scan", "android": "https://dc.lft.to/lastmile_qr_scan"}, "fusion_lon": 0.0, "lon": -77.03119533333333, "name": "4198c0faac6ad6c053cb03173ca9a94d", "is_reserved": 0, "is_disabled": 0}, {"lat": 38.94400816666667, "fusion_lat": 0.0, "type": "electric_scooter", "bike_id": "86fdc3fa0abdf4f21c46577376cab238", "rental_uris": {"ios": "https://dc.lft.to/lastmile_qr_scan", "android": "https://dc.lft.to/lastmile_qr_scan"}, "fusion_lon": 0.0, "lon": -77.03904766666666, "name": "86fdc3fa0abdf4f21c46577376cab238", "is_reserved": 0, "is_disabled": 0}, {"lat": 38.90273216666667, "fusion_lat": 0.0, "type": "electric_scooter", "bike_id": "9ff2403aa8a18626a2cc2e324b9470de", "rental_uris": {"ios": "https://dc.lft.to/lastmile_qr_scan", "android": "https://dc.lft.to/lastmile_qr_scan"}, "fusion_lon": 0.0, "lon": -77.02829233333334, "name": "9ff2403aa8a18626a2cc2e324b9470de", "is_reserved": 0, "is_disabled": 0}, {"lat": 38.907683666666664, "fusion_lat": 0.0, "type": "electric_scooter", "bike_id": "bb1139ca54ae80097298ab0c7fb5882b", "rental_uris": {"ios": "https://dc.lft.to/lastmile_qr_scan", "android": "https://dc.lft.to/lastmile_qr_scan"}, "fusion_lon": 0.0, "lon": -77.01699066666667, "name": "bb1139ca54ae80097298ab0c7fb5882b", "is_reserved": 0, "is_disabled": 0}, {"lat": 38.83580533333333, "fusion_lat": 0.0, "type": "electric_bike", "bike_id": "c60a06bd57409208208f6aedc8121520", "rental_uris": {"ios": "https://dc.lft.to/lastmile_qr_scan", "android": "https://dc.lft.to/lastmile_qr_scan"}, "fusion_lon": 0.0, "lon": -77.00122366666666, "name": "c60a06bd57409208208f6aedc8121520", "is_reserved": 0, "is_disabled": 0}, {"lat": 38.9247065, "fusion_lat": 0.0, "type": "electric_scooter", "bike_id": "85eec3abb459574bdf8998ba694318c1", "rental_uris": {"ios": "https://dc.lft.to/lastmile_qr_scan", "android": "https://dc.lft.to/lastmile_qr_scan"}, "fusion_lon": 0.0, "lon": -77.0299155, "name": "85eec3abb459574bdf8998ba694318c1", "is_reserved": 0, "is_disabled": 0}, {"lat": 38.931308666666666, "fusion_lat": 0.0, "type": "electric_bike", "bike_id": "4c170640994b1024ae8f5bf1814009b2", "rental_uris": {"ios": "https://dc.lft.to/lastmile_qr_scan", "android": "https://dc.lft.to/lastmile_qr_scan"}, "fusion_lon": 0.0, "lon": -77.01972933333333, "name": "4c170640994b1024ae8f5bf1814009b2", "is_reserved": 0, "is_disabled": 0}, {"lat": 38.88637766666667, "fusion_lat": 0.0, "type": "electric_scooter", "bike_id": "4819775dcb0badf8b8cdf16126a5396e", "rental_uris": {"ios": "https://dc.lft.to/lastmile_qr_scan", "android": "https://dc.lft.to/lastmile_qr_scan"}, "fusion_lon": 0.0, "lon": -77.02170516666666, "name": "4819775dcb0badf8b8cdf16126a5396e", "is_reserved": 0, "is_disabled": 0}, {"lat": 38.875601333333336, "fusion_lat": 0.0, "type": "electric_scooter", "bike_id": "b9096e60a3a93d35c5fec00c3ee1d49d", "rental_uris": {"ios": "https://dc.lft.to/lastmile_qr_scan", "android": "https://dc.lft.to/lastmile_qr_scan"}, "fusion_lon": 0.0, "lon": -77.00558083333334, "name": "b9096e60a3a93d35c5fec00c3ee1d49d", "is_reserved": 0, "is_disabled": 0}, {"lat": 38.934701, "fusion_lat": 0.0, "type": "electric_scooter", "bike_id": "f3a7436fdb4527ff59509c4ec1f13008", "rental_uris": {"ios": "https://dc.lft.to/lastmile_qr_scan", "android": "https://dc.lft.to/lastmile_qr_scan"}, "fusion_lon": 0.0, "lon": -77.07268866666666, "name": "f3a7436fdb4527ff59509c4ec1f13008", "is_reserved": 0, "is_disabled": 0}, {"lat": 38.934784, "fusion_lat": 0.0, "type": "electric_scooter", "bike_id": "fc88e6feec96776c4f39459879632143", "rental_uris": {"ios": "https://dc.lft.to/lastmile_qr_scan", "android": "https://dc.lft.to/lastmile_qr_scan"}, "fusion_lon": 0.0, "lon": -77.03613516666667, "name": "fc88e6feec96776c4f39459879632143", "is_reserved": 0, "is_disabled": 0}, {"lat": 38.92282733333333, "fusion_lat": 0.0, "type": "electric_scooter", "bike_id": "bb3be3fed7127618460d14fe2d402511", "rental_uris": {"ios": "https://dc.lft.to/lastmile_qr_scan", "android": "https://dc.lft.to/lastmile_qr_scan"}, "fusion_lon": 0.0, "lon": -77.03655366666666, "name": "bb3be3fed7127618460d14fe2d402511", "is_reserved": 0, "is_disabled": 0}, {"lat": 38.9085345, "fusion_lat": 0.0, "type": "electric_scooter", "bike_id": "4594bfce4c2082a66dab4b2dcf49b20d", "rental_uris": {"ios": "https://dc.lft.to/lastmile_qr_scan", "android": "https://dc.lft.to/lastmile_qr_scan"}, "fusion_lon": 0.0, "lon": -77.02690683333333, "name": "4594bfce4c2082a66dab4b2dcf49b20d", "is_reserved": 0, "is_disabled": 0}, {"lat": 38.839656166666664, "fusion_lat": 0.0, "type": "electric_scooter", "bike_id": "5ab2b743c761bb60a4f295a2d6e0c418", "rental_uris": {"ios": "https://dc.lft.to/lastmile_qr_scan", "android": "https://dc.lft.to/lastmile_qr_scan"}, "fusion_lon": 0.0, "lon": -76.9983475, "name": "5ab2b743c761bb60a4f295a2d6e0c418", "is_reserved": 0, "is_disabled": 0}, {"lat": 38.90812783333333, "fusion_lat": 0.0, "type": "electric_scooter", "bike_id": "c70623e88795c4733d3d08b042c49f52", "rental_uris": {"ios": "https://dc.lft.to/lastmile_qr_scan", "android": "https://dc.lft.to/lastmile_qr_scan"}, "fusion_lon": 0.0, "lon": -77.04488116666667, "name": "c70623e88795c4733d3d08b042c49f52", "is_reserved": 0, "is_disabled": 0}, {"lat": 38.91105966666667, "fusion_lat": 0.0, "type": "electric_scooter", "bike_id": "69fd549a2a8c59bab7a40c860fc75fe4", "rental_uris": {"ios": "https://dc.lft.to/lastmile_qr_scan", "android": "https://dc.lft.to/lastmile_qr_scan"}, "fusion_lon": 0.0, "lon": -77.045401, "name": "69fd549a2a8c59bab7a40c860fc75fe4", "is_reserved": 0, "is_disabled": 0}, {"lat": 38.90407883333334, "fusion_lat": 0.0, "type": "electric_scooter", "bike_id": "dbba585e3c9a1402bd07c4e525bd0423", "rental_uris": {"ios": "https://dc.lft.to/lastmile_qr_scan", "android": "https://dc.lft.to/lastmile_qr_scan"}, "fusion_lon": 0.0, "lon": -76.97333366666666, "name": "dbba585e3c9a1402bd07c4e525bd0423", "is_reserved": 0, "is_disabled": 0}, {"lat": 38.9002215, "fusion_lat": 0.0, "type": "electric_scooter", "bike_id": "6a2ec01901db4bf3d31811ed82ac6566", "rental_uris": {"ios": "https://dc.lft.to/lastmile_qr_scan", "android": "https://dc.lft.to/lastmile_qr_scan"}, "fusion_lon": 0.0, "lon": -77.011127, "name": "6a2ec01901db4bf3d31811ed82ac6566", "is_reserved": 0, "is_disabled": 0}, {"lat": 38.9050565, "fusion_lat": 0.0, "type": "electric_scooter", "bike_id": "8341fbdbeac056f943297283b31a7905", "rental_uris": {"ios": "https://dc.lft.to/lastmile_qr_scan", "android": "https://dc.lft.to/lastmile_qr_scan"}, "fusion_lon": 0.0, "lon": -77.03025266666667, "name": "8341fbdbeac056f943297283b31a7905", "is_reserved": 0, "is_disabled": 0}, {"lat": 39.01419383333333, "fusion_lat": 0.0, "type": "electric_bike", "bike_id": "df2f27d8c39d43fcc9e4ef616a8c885d", "rental_uris": {"ios": "https://dc.lft.to/lastmile_qr_scan", "android": "https://dc.lft.to/lastmile_qr_scan"}, "fusion_lon": 0.0, "lon": -77.04498766666667, "name": "df2f27d8c39d43fcc9e4ef616a8c885d", "is_reserved": 0, "is_disabled": 0}, {"lat": 38.88335766666667, "fusion_lat": 0.0, "type": "electric_scooter", "bike_id": "2502ae1b594f72e7a6da1375cc5d0998", "rental_uris": {"ios": "https://dc.lft.to/lastmile_qr_scan", "android": "https://dc.lft.to/lastmile_qr_scan"}, "fusion_lon": 0.0, "lon": -77.0114655, "name": "2502ae1b594f72e7a6da1375cc5d0998", "is_reserved": 0, "is_disabled": 0}, {"lat": 38.876595333333334, "fusion_lat": 0.0, "type": "electric_scooter", "bike_id": "32d7412418619fa92373cbeda91f4da0", "rental_uris": {"ios": "https://dc.lft.to/lastmile_qr_scan", "android": "https://dc.lft.to/lastmile_qr_scan"}, "fusion_lon": 0.0, "lon": -77.015779, "name": "32d7412418619fa92373cbeda91f4da0", "is_reserved": 0, "is_disabled": 0}, {"lat": 38.909452, "fusion_lat": 0.0, "type": "electric_scooter", "bike_id": "2073273abc53885ce08cc73c44a2f892", "rental_uris": {"ios": "https://dc.lft.to/lastmile_qr_scan", "android": "https://dc.lft.to/lastmile_qr_scan"}, "fusion_lon": 0.0, "lon": -77.02288066666667, "name": "2073273abc53885ce08cc73c44a2f892", "is_reserved": 0, "is_disabled": 0}, {"lat": 38.91692116666667, "fusion_lat": 0.0, "type": "electric_scooter", "bike_id": "91a85323bfc8be18cb4e03eaea72b851", "rental_uris": {"ios": "https://dc.lft.to/lastmile_qr_scan", "android": "https://dc.lft.to/lastmile_qr_scan"}, "fusion_lon": 0.0, "lon": -77.039068, "name": "91a85323bfc8be18cb4e03eaea72b851", "is_reserved": 0, "is_disabled": 0}, {"lat": 38.9231995, "fusion_lat": 0.0, "type": "electric_scooter", "bike_id": "29160d14f1f6b4484852df50ed4e33d9", "rental_uris": {"ios": "https://dc.lft.to/lastmile_qr_scan", "android": "https://dc.lft.to/lastmile_qr_scan"}, "fusion_lon": 0.0, "lon": -77.03863033333333, "name": "29160d14f1f6b4484852df50ed4e33d9", "is_reserved": 0, "is_disabled": 0}, {"lat": 38.9250505, "fusion_lat": 0.0, "type": "electric_scooter", "bike_id": "400f793c8b2bb0f9fa749d590e3f048c", "rental_uris": {"ios": "https://dc.lft.to/lastmile_qr_scan", "android": "https://dc.lft.to/lastmile_qr_scan"}, "fusion_lon": 0.0, "lon": -77.0391585, "name": "400f793c8b2bb0f9fa749d590e3f048c", "is_reserved": 0, "is_disabled": 0}, {"lat": 38.90128933333333, "fusion_lat": 0.0, "type": "electric_scooter", "bike_id": "9854c1e3fff4a9b51b2bbdce78c4eefc", "rental_uris": {"ios": "https://dc.lft.to/lastmile_qr_scan", "android": "https://dc.lft.to/lastmile_qr_scan"}, "fusion_lon": 0.0, "lon": -77.03979333333334, "name": "9854c1e3fff4a9b51b2bbdce78c4eefc", "is_reserved": 0, "is_disabled": 0}, {"lat": 38.8738835, "fusion_lat": 0.0, "type": "electric_scooter", "bike_id": "858051508793780f4305675931396033", "rental_uris": {"ios": "https://dc.lft.to/lastmile_qr_scan", "android": "https://dc.lft.to/lastmile_qr_scan"}, "fusion_lon": 0.0, "lon": -77.00160266666667, "name": "858051508793780f4305675931396033", "is_reserved": 0, "is_disabled": 0}, {"lat": 38.862347166666666, "fusion_lat": 0.0, "type": "electric_scooter", "bike_id": "d1393a5db00f2a7588d52ec152a85722", "rental_uris": {"ios": "https://dc.lft.to/lastmile_qr_scan", "android": "https://dc.lft.to/lastmile_qr_scan"}, "fusion_lon": 0.0, "lon": -76.9955075, "name": "d1393a5db00f2a7588d52ec152a85722", "is_reserved": 0, "is_disabled": 0}, {"lat": 38.912393333333334, "fusion_lat": 0.0, "type": "electric_scooter", "bike_id": "4e499505213bd93eba8e6f843ffc78d9", "rental_uris": {"ios": "https://dc.lft.to/lastmile_qr_scan", "android": "https://dc.lft.to/lastmile_qr_scan"}, "fusion_lon": 0.0, "lon": -77.0486665, "name": "4e499505213bd93eba8e6f843ffc78d9", "is_reserved": 0, "is_disabled": 0}, {"lat": 38.89903483333333, "fusion_lat": 0.0, "type": "electric_scooter", "bike_id": "d776a6d5da17df7310c3426c68f02795", "rental_uris": {"ios": "https://dc.lft.to/lastmile_qr_scan", "android": "https://dc.lft.to/lastmile_qr_scan"}, "fusion_lon": 0.0, "lon": -77.04874016666666, "name": "d776a6d5da17df7310c3426c68f02795", "is_reserved": 0, "is_disabled": 0}, {"lat": 38.9570775, "fusion_lat": 0.0, "type": "electric_scooter", "bike_id": "bb8b00272f24abb99d7e90bb034e8ed6", "rental_uris": {"ios": "https://dc.lft.to/lastmile_qr_scan", "android": "https://dc.lft.to/lastmile_qr_scan"}, "fusion_lon": 0.0, "lon": -77.02407366666667, "name": "bb8b00272f24abb99d7e90bb034e8ed6", "is_reserved": 0, "is_disabled": 0}, {"lat": 38.90638716666667, "fusion_lat": 0.0, "type": "electric_scooter", "bike_id": "5e69da9c9a0414237ec2766b8040a012", "rental_uris": {"ios": "https://dc.lft.to/lastmile_qr_scan", "android": "https://dc.lft.to/lastmile_qr_scan"}, "fusion_lon": 0.0, "lon": -77.01426216666667, "name": "5e69da9c9a0414237ec2766b8040a012", "is_reserved": 0, "is_disabled": 0}, {"lat": 38.82045433333333, "fusion_lat": 0.0, "type": "electric_bike", "bike_id": "53995bb0c3aacadb595a7a1b3376c2b0", "rental_uris": {"ios": "https://dc.lft.to/lastmile_qr_scan", "android": "https://dc.lft.to/lastmile_qr_scan"}, "fusion_lon": 0.0, "lon": -77.05357716666667, "name": "53995bb0c3aacadb595a7a1b3376c2b0", "is_reserved": 0, "is_disabled": 0}, {"lat": 38.90408733333334, "fusion_lat": 0.0, "type": "electric_scooter", "bike_id": "7d471f6600abed892afb7e490060053b", "rental_uris": {"ios": "https://dc.lft.to/lastmile_qr_scan", "android": "https://dc.lft.to/lastmile_qr_scan"}, "fusion_lon": 0.0, "lon": -76.9733555, "name": "7d471f6600abed892afb7e490060053b", "is_reserved": 0, "is_disabled": 0}, {"lat": 38.9125865, "fusion_lat": 0.0, "type": "electric_scooter", "bike_id": "5ed215ba9064bfe924244efbabf6a592", "rental_uris": {"ios": "https://dc.lft.to/lastmile_qr_scan", "android": "https://dc.lft.to/lastmile_qr_scan"}, "fusion_lon": 0.0, "lon": -77.03258116666667, "name": "5ed215ba9064bfe924244efbabf6a592", "is_reserved": 0, "is_disabled": 0}, {"lat": 38.918960166666665, "fusion_lat": 0.0, "type": "electric_scooter", "bike_id": "f4ad507974ec0af57a7eb69048c14474", "rental_uris": {"ios": "https://dc.lft.to/lastmile_qr_scan", "android": "https://dc.lft.to/lastmile_qr_scan"}, "fusion_lon": 0.0, "lon": -77.0470645, "name": "f4ad507974ec0af57a7eb69048c14474", "is_reserved": 0, "is_disabled": 0}, {"lat": 39.07047266666667, "fusion_lat": 0.0, "type": "electric_bike", "bike_id": "243b634e1bba528c729d5b0b6f374f84", "rental_uris": {"ios": "https://dc.lft.to/lastmile_qr_scan", "android": "https://dc.lft.to/lastmile_qr_scan"}, "fusion_lon": 0.0, "lon": -77.11526716666667, "name": "243b634e1bba528c729d5b0b6f374f84", "is_reserved": 0, "is_disabled": 0}, {"lat": 38.938961166666665, "fusion_lat": 0.0, "type": "electric_scooter", "bike_id": "52c82aad409157153247b2082b1b057b", "rental_uris": {"ios": "https://dc.lft.to/lastmile_qr_scan", "android": "https://dc.lft.to/lastmile_qr_scan"}, "fusion_lon": 0.0, "lon": -77.01765416666667, "name": "52c82aad409157153247b2082b1b057b", "is_reserved": 0, "is_disabled": 0}, {"lat": 38.89221366666666, "fusion_lat": 0.0, "type": "electric_scooter", "bike_id": "0c4249eedcc08b7a940dade1f429ed62", "rental_uris": {"ios": "https://dc.lft.to/lastmile_qr_scan", "android": "https://dc.lft.to/lastmile_qr_scan"}, "fusion_lon": 0.0, "lon": -77.0433165, "name": "0c4249eedcc08b7a940dade1f429ed62", "is_reserved": 0, "is_disabled": 0}, {"lat": 38.9002255, "fusion_lat": 0.0, "type": "electric_scooter", "bike_id": "dfdeb7221b4518a1ba139f2f69b86a03", "rental_uris": {"ios": "https://dc.lft.to/lastmile_qr_scan", "android": "https://dc.lft.to/lastmile_qr_scan"}, "fusion_lon": 0.0, "lon": -76.98963483333333, "name": "dfdeb7221b4518a1ba139f2f69b86a03", "is_reserved": 0, "is_disabled": 0}, {"lat": 38.929681333333335, "fusion_lat": 0.0, "type": "electric_scooter", "bike_id": "e4ebaa860039ccec84fdc02dd00a3dce", "rental_uris": {"ios": "https://dc.lft.to/lastmile_qr_scan", "android": "https://dc.lft.to/lastmile_qr_scan"}, "fusion_lon": 0.0, "lon": -76.99164383333333, "name": "e4ebaa860039ccec84fdc02dd00a3dce", "is_reserved": 0, "is_disabled": 0}, {"lat": 38.80982383333333, "fusion_lat": 0.0, "type": "electric_bike", "bike_id": "9cccd30ee5207d3064c295b9286622fe", "rental_uris": {"ios": "https://dc.lft.to/lastmile_qr_scan", "android": "https://dc.lft.to/lastmile_qr_scan"}, "fusion_lon": 0.0, "lon": -77.07665516666667, "name": "9cccd30ee5207d3064c295b9286622fe", "is_reserved": 0, "is_disabled": 0}, {"lat": 38.91653433333333, "fusion_lat": 0.0, "type": "electric_scooter", "bike_id": "91f829c1c6903829869637b51d40db33", "rental_uris": {"ios": "https://dc.lft.to/lastmile_qr_scan", "android": "https://dc.lft.to/lastmile_qr_scan"}, "fusion_lon": 0.0, "lon": -77.02476366666667, "name": "91f829c1c6903829869637b51d40db33", "is_reserved": 0, "is_disabled": 0}, {"lat": 38.920088166666666, "fusion_lat": 0.0, "type": "electric_scooter", "bike_id": "8c62981f5a5337a1fceb3e918e85f601", "rental_uris": {"ios": "https://dc.lft.to/lastmile_qr_scan", "android": "https://dc.lft.to/lastmile_qr_scan"}, "fusion_lon": 0.0, "lon": -77.03224583333333, "name": "8c62981f5a5337a1fceb3e918e85f601", "is_reserved": 0, "is_disabled": 0},