{"data": {"bikes": [{"bike_id": "9155f551d6db2df28e469be3e0ce6132", "name": "9155f551d6db2df28e469be3e0ce6132", "is_disabled": 0, "fusion_lon": 0.0, "rental_uris": {"android": "https://dc.lft.to/lastmile_qr_scan", "ios": "https://dc.lft.to/lastmile_qr_scan"}, "type": "electric_scooter", "fusion_lat": 0.0, "lat": 38.908483833333335, "lon": -77.06389233333333, "is_reserved": 0}, {"bike_id": "8fbc04ecc27245557802acad3789e848", "name": "8fbc04ecc27245557802acad3789e848", "is_disabled": 0, "fusion_lon": 0.0, "rental_uris": {"android": "https://dc.lft.to/lastmile_qr_scan", "ios": "https://dc.lft.to/lastmile_qr_scan"}, "type": "electric_scooter", "fusion_lat": 0.0, "lat": 38.923277, "lon": -77.03661366666667, "is_reserved": 0}, {"bike_id": "1122a075577dc468e13afd6f09c0b5ec", "name": "1122a075577dc468e13afd6f09c0b5ec", "is_disabled": 0, "fusion_lon": 0.0, "rental_uris": {"android": "https://dc.lft.to/lastmile_qr_scan", "ios": "https://dc.lft.to/lastmile_qr_scan"}, "type": "electric_scooter", "fusion_lat": 0.0, "lat": 38.9212735, "lon": -77.04113483333333, "is_reserved": 0}, {"bike_id": "27ff22099f2ef14614c63cd6f629f545", "name": "27ff22099f2ef14614c63cd6f629f545", "is_disabled": 0, "fusion_lon": 0.0, "rental_uris": {"android": "https://dc.lft.to/lastmile_qr_scan", "ios": "https://dc.lft.to/lastmile_qr_scan"}, "type": "electric_scooter", "fusion_lat": 0.0, "lat": 38.885146, "lon": -77.02490366666666, "is_reserved": 0}, {"bike_id": "4193f3bc8af5fef30893f21b45e1e493", "name": "4193f3bc8af5fef30893f21b45e1e493", "is_disabled": 0, "fusion_lon": 0.0, "rental_uris": {"android": "https://dc.lft.to/lastmile_qr_scan", "ios": "https://dc.lft.to/lastmile_qr_scan"}, "type": "electric_scooter", "fusion_lat": 0.0, "lat": 38.928013166666666, "lon": -77.01544116666666, "is_reserved": 0}, {"bike_id": "3938dbe828a2a34f70ec3491b0feec51", "name": "3938dbe828a2a34f70ec3491b0feec51", "is_disabled": 0, "fusion_lon": 0.0, "rental_uris": {"android": "https://dc.lft.to/lastmile_qr_scan", "ios": "https://dc.lft.to/lastmile_qr_scan"}, "type": "electric_scooter", "fusion_lat": 0.0, "lat": 38.9002755, "lon": -77.0110225, "is_reserved": 0}, {"bike_id": "76b44a4d2eea7bd1a1079cd2bb437d61", "name": "76b44a4d2eea7bd1a1079cd2bb437d61", "is_disabled": 0, "fusion_lon": 0.0, "rental_uris": {"android": "https://dc.lft.to/lastmile_qr_scan", "ios": "https://dc.lft.to/lastmile_qr_scan"}, "type": "electric_scooter", "fusion_lat": 0.0, "lat": 38.9161825, "lon": -77.046206, "is_reserved": 0}, {"bike_id": "0f93e7a5bacdbfc6c22a37de17acd4d6", "name": "0f93e7a5bacdbfc6c22a37de17acd4d6", "is_disabled": 0, "fusion_lon": 0.0, "rental_uris": {"android": "https://dc.lft.to/lastmile_qr_scan", "ios": "https://dc.lft.to/lastmile_qr_scan"}, "type": "electric_scooter", "fusion_lat": 0.0, "lat": 38.923397333333334, "lon": -77.05427583333334, "is_reserved": 0}, {"bike_id": "a6b71ab80795f4274f95f009887620c1", "name": "a6b71ab80795f4274f95f009887620c1", "is_disabled": 0, "fusion_lon": 0.0, "rental_uris": {"android": "https://dc.lft.to/lastmile_qr_scan", "ios": "https://dc.lft.to/lastmile_qr_scan"}, "type": "electric_scooter", "fusion_lat": 0.0, "lat": 38.929414666666666, "lon": -77.01910266666667, "is_reserved": 0}, {"bike_id": "e437f6d00feca990898f824226e18a27", "name": "e437f6d00feca990898f824226e18a27", "is_disabled": 0, "fusion_lon": 0.0, "rental_uris": {"android": "https://dc.lft.to/lastmile_qr_scan", "ios": "https://dc.lft.to/lastmile_qr_scan"}, "type": "electric_scooter", "fusion_lat": 0.0, "lat": 38.923579333333336, "lon": -77.022349, "is_reserved": 0}, {"bike_id": "f951f30895b8e5e7397581763848de29", "name": "f951f30895b8e5e7397581763848de29", "is_disabled": 0, "fusion_lon": 0.0, "rental_uris": {"android": "https://dc.lft.to/lastmile_qr_scan", "ios": "https://dc.lft.to/lastmile_qr_scan"}, "type": "electric_scooter", "fusion_lat": 0.0, "lat": 38.879705333333334, "lon": -76.98541516666667, "is_reserved": 0}, {"bike_id": "25427349fa03918ceb95800b6b571548", "name": "25427349fa03918ceb95800b6b571548", "is_disabled": 0, "fusion_lon": 0.0, "rental_uris": {"android": "https://dc.lft.to/lastmile_qr_scan", "ios": "https://dc.lft.to/lastmile_qr_scan"}, "type": "electric_bike", "fusion_lat": 0.0, "lat": 38.90361566666667, "lon": -77.0507135, "is_reserved": 0}, {"bike_id": "c401b522bd533795cf8b0f93f32f418f", "name": "c401b522bd533795cf8b0f93f32f418f", "is_disabled": 0, "fusion_lon": 0.0, "rental_uris": {"android": "https://dc.lft.to/lastmile_qr_scan", "ios": "https://dc.lft.to/lastmile_qr_scan"}, "type": "electric_scooter", "fusion_lat": 0.0, "lat": 38.92061233333333, "lon": -77.03160933333334, "is_reserved": 0}, {"bike_id": "407e180fb64010f8536f1643c8649e42", "name": "407e180fb64010f8536f1643c8649e42", "is_disabled": 0, "fusion_lon": 0.0, "rental_uris": {"android": "https://dc.lft.to/lastmile_qr_scan", "ios": "https://dc.lft.to/lastmile_qr_scan"}, "type": "electric_scooter", "fusion_lat": 0.0, "lat": 38.901031333333336, "lon": -77.0339435, "is_reserved": 0}, {"bike_id": "fbd9b7cdefcd5b4a731c0bdac0325c7a", "name": "fbd9b7cdefcd5b4a731c0bdac0325c7a", "is_disabled": 0, "fusion_lon": 0.0, "rental_uris": {"android": "https://dc.lft.to/lastmile_qr_scan", "ios": "https://dc.lft.to/lastmile_qr_scan"}, "type": "electric_scooter", "fusion_lat": 0.0, "lat": 38.9007045, "lon": -77.013158, "is_reserved": 0}, {"bike_id": "686e3ccc0ed9894d1c9ee1abac728464", "name": "686e3ccc0ed9894d1c9ee1abac728464", "is_disabled": 0, "fusion_lon": 0.0, "rental_uris": {"android": "https://dc.lft.to/lastmile_qr_scan", "ios": "https://dc.lft.to/lastmile_qr_scan"}, "type": "electric_scooter", "fusion_lat": 0.0, "lat": 38.89928533333333, "lon": -76.94580483333333, "is_reserved": 0}, {"bike_id": "4871cb11ad0a2c1fa8f0b787a45bac17", "name": "4871cb11ad0a2c1fa8f0b787a45bac17", "is_disabled": 0, "fusion_lon": 0.0, "rental_uris": {"android": "https://dc.lft.to/lastmile_qr_scan", "ios": "https://dc.lft.to/lastmile_qr_scan"}, "type": "electric_scooter", "fusion_lat": 0.0, "lat": 38.903602166666666, "lon": -77.0377795, "is_reserved": 0}, {"bike_id": "83cf357ffd74cf4dfbce88aa6b849282", "name": "83cf357ffd74cf4dfbce88aa6b849282", "is_disabled": 0, "fusion_lon": 0.0, "rental_uris": {"android": "https://dc.lft.to/lastmile_qr_scan", "ios": "https://dc.lft.to/lastmile_qr_scan"}, "type": "electric_scooter", "fusion_lat": 0.0, "lat": 38.90554233333334, "lon": -77.0435055, "is_reserved": 0}, {"bike_id": "2af6549de7acbcad4a7eed20d3e1cda8", "name": "2af6549de7acbcad4a7eed20d3e1cda8", "is_disabled": 0, "fusion_lon": 0.0, "rental_uris": {"android": "https://dc.lft.to/lastmile_qr_scan", "ios": "https://dc.lft.to/lastmile_qr_scan"}, "type": "electric_bike", "fusion_lat": 0.0, "lat": 38.85997666666667, "lon": -76.98984316666667, "is_reserved": 0}, {"bike_id": "67462891b0dc08167a8743f7a31dbf7a", "name": "67462891b0dc08167a8743f7a31dbf7a", "is_disabled": 0, "fusion_lon": 0.0, "rental_uris": {"android": "https://dc.lft.to/lastmile_qr_scan", "ios": "https://dc.lft.to/lastmile_qr_scan"}, "type": "electric_bike", "fusion_lat": 0.0, "lat": 39.026207166666666, "lon": -77.03874433333333, "is_reserved": 0}, {"bike_id": "cfafc3dc28f7e066800e138abf672e1e", "name": "cfafc3dc28f7e066800e138abf672e1e", "is_disabled": 0, "fusion_lon": 0.0, "rental_uris": {"android": "https://dc.lft.to/lastmile_qr_scan", "ios": "https://dc.lft.to/lastmile_qr_scan"}, "type": "electric_scooter", "fusion_lat": 0.0, "lat": 38.917547, "lon": -77.023806, "is_reserved": 0}, {"bike_id": "398adedfcca60141b2853a464b8d21b8", "name": "398adedfcca60141b2853a464b8d21b8", "is_disabled": 0, "fusion_lon": 0.0, "rental_uris": {"android": "https://dc.lft.to/lastmile_qr_scan", "ios": "https://dc.lft.to/lastmile_qr_scan"}, "type": "electric_bike", "fusion_lat": 0.0, "lat": 38.89566416666667, "lon": -77.127374, "is_reserved": 0}, {"bike_id": "1012a712511b370af61d6e0794a10c3a", "name": "1012a712511b370af61d6e0794a10c3a", "is_disabled": 0, "fusion_lon": 0.0, "rental_uris": {"android": "https://dc.lft.to/lastmile_qr_scan", "ios": "https://dc.lft.to/lastmile_qr_scan"}, "type": "electric_scooter", "fusion_lat": 0.0, "lat": 38.897290166666664, "lon": -77.0190935, "is_reserved": 0}, {"bike_id": "8195812b20c9dc8a643580bf2d84302f", "name": "8195812b20c9dc8a643580bf2d84302f", "is_disabled": 0, "fusion_lon": 0.0, "rental_uris": {"android": "https://dc.lft.to/lastmile_qr_scan", "ios": "https://dc.lft.to/lastmile_qr_scan"}, "type": "electric_bike", "fusion_lat": 0.0, "lat": 38.99680133333333, "lon": -77.02538283333334, "is_reserved": 0}, {"bike_id": "00d48dc62ee357da6ed00f73330b5d63", "name": "00d48dc62ee357da6ed00f73330b5d63", "is_disabled": 0, "fusion_lon": 0.0, "rental_uris": {"android": "https://dc.lft.to/lastmile_qr_scan", "ios": "https://dc.lft.to/lastmile_qr_scan"}, "type": "electric_bike", "fusion_lat": 0.0, "lat": 38.9562605, "lon": -76.9386965, "is_reserved": 0}, {"bike_id": "8eb3810ac2725e2a7ca8c663ac9c6da3", "name": "8eb3810ac2725e2a7ca8c663ac9c6da3", "is_disabled": 0, "fusion_lon": 0.0, "rental_uris": {"android": "https://dc.lft.to/lastmile_qr_scan", "ios": "https://dc.lft.to/lastmile_qr_scan"}, "type": "electric_scooter", "fusion_lat": 0.0, "lat": 38.91546133333333, "lon": -77.01267216666666, "is_reserved": 0}, {"bike_id": "370aad0ef6f0a7bf3718be71298d8c6a", "name": "370aad0ef6f0a7bf3718be71298d8c6a", "is_disabled": 0, "fusion_lon": 0.0, "rental_uris": {"android": "https://dc.lft.to/lastmile_qr_scan", "ios": "https://dc.lft.to/lastmile_qr_scan"}, "type": "electric_scooter", "fusion_lat": 0.0, "lat": 38.922698, "lon": -77.01940666666667, "is_reserved": 0}, {"bike_id": "ee217a6d2d76a0abf6a1dd63322cc527", "name": "ee217a6d2d76a0abf6a1dd63322cc527", "is_disabled": 0, "fusion_lon": 0.0, "rental_uris": {"android": "https://dc.lft.to/lastmile_qr_scan", "ios": "https://dc.lft.to/lastmile_qr_scan"}, "type": "electric_scooter", "fusion_lat": 0.0, "lat": 38.904048333333336, "lon": -77.06514166666666, "is_reserved": 0}, {"bike_id": "ba74557ccd4c392b166f723a81556f55", "name": "ba74557ccd4c392b166f723a81556f55", "is_disabled": 0, "fusion_lon": 0.0, "rental_uris": {"android": "https://dc.lft.to/lastmile_qr_scan", "ios": "https://dc.lft.to/lastmile_qr_scan"}, "type": "electric_scooter", "fusion_lat": 0.0, "lat": 38.89527483333333, "lon": -77.00206983333334, "is_reserved": 0}, {"bike_id": "33bf3e524b2c94d7cc77315660e6a47d", "name": "33bf3e524b2c94d7cc77315660e6a47d", "is_disabled": 0, "fusion_lon": 0.0, "rental_uris": {"android": "https://dc.lft.to/lastmile_qr_scan", "ios": "https://dc.lft.to/lastmile_qr_scan"}, "type": "electric_scooter", "fusion_lat": 0.0, "lat": 38.884843833333335, "lon": -77.03349416666667, "is_reserved": 0}, {"bike_id": "55fb581daea3229a78db170d22cd7004", "name": "55fb581daea3229a78db170d22cd7004", "is_disabled": 0, "fusion_lon": 0.0, "rental_uris": {"android": "https://dc.lft.to/lastmile_qr_scan", "ios": "https://dc.lft.to/lastmile_qr_scan"}, "type": "electric_scooter", "fusion_lat": 0.0, "lat": 38.90014633333333, "lon": -76.99352466666667, "is_reserved": 0}, {"bike_id": "c3658968dce98170cd77ae8d31cd1f98", "name": "c3658968dce98170cd77ae8d31cd1f98", "is_disabled": 0, "fusion_lon": 0.0, "rental_uris": {"android": "https://dc.lft.to/lastmile_qr_scan", "ios": "https://dc.lft.to/lastmile_qr_scan"}, "type": "electric_scooter", "fusion_lat": 0.0, "lat": 38.914170166666665, "lon": -77.04607483333334, "is_reserved": 0}, {"bike_id": "b73557c7b02689841750361872a5e5bc", "name": "b73557c7b02689841750361872a5e5bc", "is_disabled": 0, "fusion_lon": 0.0, "rental_uris": {"android": "https://dc.lft.to/lastmile_qr_scan", "ios": "https://dc.lft.to/lastmile_qr_scan"}, "type": "electric_scooter", "fusion_lat": 0.0, "lat": 38.9006325, "lon": -77.047479, "is_reserved": 0}, {"bike_id": "dfbdd1a28366e3e2c9a85584f0b21603", "name": "dfbdd1a28366e3e2c9a85584f0b21603", "is_disabled": 0, "fusion_lon": 0.0, "rental_uris": {"android": "https://dc.lft.to/lastmile_qr_scan", "ios": "https://dc.lft.to/lastmile_qr_scan"}, "type": "electric_scooter", "fusion_lat": 0.0, "lat": 38.90414333333333, "lon": -76.9928195, "is_reserved": 0}, {"bike_id": "911887823013e45b19098af98c4fbeea", "name": "911887823013e45b19098af98c4fbeea", "is_disabled": 0, "fusion_lon": 0.0, "rental_uris": {"android": "https://dc.lft.to/lastmile_qr_scan", "ios": "https://dc.lft.to/lastmile_qr_scan"}, "type": "electric_scooter", "fusion_lat": 0.0, "lat": 38.94491133333333, "lon": -77.02340416666667, "is_reserved": 0}, {"bike_id": "ed99ccdaec5623c3fa733dc4aae25a3f", "name": "ed99ccdaec5623c3fa733dc4aae25a3f", "is_disabled": 0, "fusion_lon": 0.0, "rental_uris": {"android": "https://dc.lft.to/lastmile_qr_scan", "ios": "https://dc.lft.to/lastmile_qr_scan"}, "type": "electric_scooter", "fusion_lat": 0.0, "lat": 38.921642166666665, "lon": -77.0338065, "is_reserved": 0}, {"bike_id": "eb8f71d788cba4def04be8e81a440785", "name": "eb8f71d788cba4def04be8e81a440785", "is_disabled": 0, "fusion_lon": 0.0, "rental_uris": {"android": "https://dc.lft.to/lastmile_qr_scan", "ios": "https://dc.lft.to/lastmile_qr_scan"}, "type": "electric_scooter", "fusion_lat": 0.0, "lat": 38.904249166666666, "lon": -77.038334, "is_reserved": 0}, {"bike_id": "60de6011303374ea4ef563bc8fe8288a", "name": "60de6011303374ea4ef563bc8fe8288a", "is_disabled": 0, "fusion_lon": 0.0, "rental_uris": {"android": "https://dc.lft.to/lastmile_qr_scan", "ios": "https://dc.lft.to/lastmile_qr_scan"}, "type": "electric_scooter", "fusion_lat": 0.0, "lat": 38.90118666666667, "lon": -77.04997066666667, "is_reserved": 0}, {"bike_id": "c9030710cd1181ad8c4c2ba77926c693", "name": "c9030710cd1181ad8c4c2ba77926c693", "is_disabled": 0, "fusion_lon": 0.0, "rental_uris": {"android": "https://dc.lft.to/lastmile_qr_scan", "ios": "https://dc.lft.to/lastmile_qr_scan"}, "type": "electric_scooter", "fusion_lat": 0.0, "lat": 38.90022466666667, "lon": -77.00194483333334, "is_reserved": 0}, {"bike_id": "65095323a6edeebad2d9a6eeb39aeadd", "name": "65095323a6edeebad2d9a6eeb39aeadd", "is_disabled": 0, "fusion_lon": 0.0, "rental_uris": {"android": "https://dc.lft.to/lastmile_qr_scan", "ios": "https://dc.lft.to/lastmile_qr_scan"}, "type": "electric_scooter", "fusion_lat": 0.0, "lat": 38.919201666666666, "lon": -77.03093466666667, "is_reserved": 0}, {"bike_id": "eecb5e3418846e08fbae28a9837c2443", "name": "eecb5e3418846e08fbae28a9837c2443", "is_disabled": 0, "fusion_lon": 0.0, "rental_uris": {"android": "https://dc.lft.to/lastmile_qr_scan", "ios": "https://dc.lft.to/lastmile_qr_scan"}, "type": "electric_scooter", "fusion_lat": 0.0, "lat": 38.892241, "lon": -77.025356, "is_reserved": 0}, {"bike_id": "771c1dfd64a366c86d6b07cb2d28759c", "name": "771c1dfd64a366c86d6b07cb2d28759c", "is_disabled": 0, "fusion_lon": 0.0, "rental_uris": {"android": "https://dc.lft.to/lastmile_qr_scan", "ios": "https://dc.lft.to/lastmile_qr_scan"}, "type": "electric_scooter", "fusion_lat": 0.0, "lat": 38.9249955, "lon": -77.02570933333334, "is_reserved": 0}, {"bike_id": "f4d9d9f9ac3bab9631dbab5245ab7a9c", "name": "f4d9d9f9ac3bab9631dbab5245ab7a9c", "is_disabled": 0, "fusion_lon": 0.0, "rental_uris": {"android": "https://dc.lft.to/lastmile_qr_scan", "ios": "https://dc.lft.to/lastmile_qr_scan"}, "type": "electric_scooter", "fusion_lat": 0.0, "lat": 38.904224166666665, "lon": -77.0403405, "is_reserved": 0}, {"bike_id": "40dde0de5288bc6b5dd5ff32edb429c5", "name": "40dde0de5288bc6b5dd5ff32edb429c5", "is_disabled": 0, "fusion_lon": 0.0, "rental_uris": {"android": "https://dc.lft.to/lastmile_qr_scan", "ios": "https://dc.lft.to/lastmile_qr_scan"}, "type": "electric_scooter", "fusion_lat": 0.0, "lat": 38.92173916666667, "lon": -77.0267055, "is_reserved": 0}, {"bike_id": "e75b6129c4ccef3b3f321c56c98d412d", "name": "e75b6129c4ccef3b3f321c56c98d412d", "is_disabled": 0, "fusion_lon": 0.0, "rental_uris": {"android": "https://dc.lft.to/lastmile_qr_scan", "ios": "https://dc.lft.to/lastmile_qr_scan"}, "type": "electric_scooter", "fusion_lat": 0.0, "lat": 38.924953, "lon": -77.0433615, "is_reserved": 0}, {"bike_id": "e8483f058aeae04552ad6bac67e5d620", "name": "e8483f058aeae04552ad6bac67e5d620", "is_disabled": 0, "fusion_lon": 0.0, "rental_uris": {"android": "https://dc.lft.to/lastmile_qr_scan", "ios": "https://dc.lft.to/lastmile_qr_scan"}, "type": "electric_scooter", "fusion_lat": 0.0, "lat": 38.906355, "lon": -77.0313795, "is_reserved": 0}, {"bike_id": "3eced6328cbae592f45b93108c71ed8b", "name": "3eced6328cbae592f45b93108c71ed8b", "is_disabled": 0, "fusion_lon": 0.0, "rental_uris": {"android": "https://dc.lft.to/lastmile_qr_scan", "ios": "https://dc.lft.to/lastmile_qr_scan"}, "type": "electric_scooter", "fusion_lat": 0.0, "lat": 38.89468266666667, "lon": -77.04656616666666, "is_reserved": 0}, {"bike_id": "a34b5c21069f382cc91ae7503a014b0e", "name": "a34b5c21069f382cc91ae7503a014b0e", "is_disabled": 0, "fusion_lon": 0.0, "rental_uris": {"android": "https://dc.lft.to/lastmile_qr_scan", "ios": "https://dc.lft.to/lastmile_qr_scan"}, "type": "electric_scooter", "fusion_lat": 0.0, "lat": 38.923672, "lon": -77.01953833333333, "is_reserved": 0}, {"bike_id": "d200fd3a4d5f6e056c4583435ff37a3d", "name": "d200fd3a4d5f6e056c4583435ff37a3d", "is_disabled": 0, "fusion_lon": 0.0, "rental_uris": {"android": "https://dc.lft.to/lastmile_qr_scan", "ios": "https://dc.lft.to/lastmile_qr_scan"}, "type": "electric_scooter", "fusion_lat": 0.0, "lat": 38.9213905, "lon": -77.0184055, "is_reserved": 0}, {"bike_id": "3012949605906eb6f29892dc139672c6", "name": "3012949605906eb6f29892dc139672c6", "is_disabled": 0, "fusion_lon": 0.0, "rental_uris": {"android": "https://dc.lft.to/lastmile_qr_scan", "ios": "https://dc.lft.to/lastmile_qr_scan"}, "type": "electric_scooter", "fusion_lat": 0.0, "lat": 38.905786166666665, "lon": -77.04999883333333, "is_reserved": 0}, {"bike_id": "f16853a463f1d7d5ef1b688d4a7d10a5", "name": "f16853a463f1d7d5ef1b688d4a7d10a5", "is_disabled": 0, "fusion_lon": 0.0, "rental_uris": {"android": "https://dc.lft.to/lastmile_qr_scan", "ios": "https://dc.lft.to/lastmile_qr_scan"}, "type": "electric_scooter", "fusion_lat": 0.0, "lat": 38.923714333333336, "lon": -77.02133783333333, "is_reserved": 0}, {"bike_id": "3012023150b8f51b97415a3e489ce25d", "name": "3012023150b8f51b97415a3e489ce25d", "is_disabled": 0, "fusion_lon": 0.0, "rental_uris": {"android": "https://dc.lft.to/lastmile_qr_scan", "ios": "https://dc.lft.to/lastmile_qr_scan"}, "type": "electric_bike", "fusion_lat": 0.0, "lat": 39.034236666666665, "lon": -77.04323483333333, "is_reserved": 0}, {"bike_id": "5f8c5337365dc219f5012c36f526e697", "name": "5f8c5337365dc219f5012c36f526e697", "is_disabled": 0, "fusion_lon": 0.0, "rental_uris": {"android": "https://dc.lft.to/lastmile_qr_scan", "ios": "https://dc.lft.to/lastmile_qr_scan"}, "type": "electric_scooter", "fusion_lat": 0.0, "lat": 38.919267833333336, "lon": -77.03947733333334, "is_reserved": 0}, {"bike_id": "0daa85549eaf37488a6249c8c52d6d7d", "name": "0daa85549eaf37488a6249c8c52d6d7d", "is_disabled": 0, "fusion_lon": 0.0, "rental_uris": {"android": "https://dc.lft.to/lastmile_qr_scan", "ios": "https://dc.lft.to/lastmile_qr_scan"}, "type": "electric_scooter", "fusion_lat": 0.0, "lat": 38.8986235, "lon": -77.03953633333333, "is_reserved": 0}, {"bike_id": "ee64758d8117ba9bccc9af7eb9371bb6", "name": "ee64758d8117ba9bccc9af7eb9371bb6", "is_disabled": 0, "fusion_lon": 0.0, "rental_uris": {"android": "https://dc.lft.to/lastmile_qr_scan", "ios": "https://dc.lft.to/lastmile_qr_scan"}, "type": "electric_scooter", "fusion_lat": 0.0, "lat": 38.8731615, "lon": -77.01070016666667, "is_reserved": 0}, {"bike_id": "4cbfc88d7080ea7bc54a5689dce4e702", "name": "4cbfc88d7080ea7bc54a5689dce4e702", "is_disabled": 0, "fusion_lon": 0.0, "rental_uris": {"android": "https://dc.lft.to/lastmile_qr_scan", "ios": "https://dc.lft.to/lastmile_qr_scan"}, "type": "electric_scooter", "fusion_lat": 0.0, "lat": 38.907062833333335, "lon": -77.02814966666666, "is_reserved": 0}, {"bike_id": "28f192a2fdc19ac56e0a1e924e56b9bb", "name": "28f192a2fdc19ac56e0a1e924e56b9bb", "is_disabled": 0, "fusion_lon": 0.0, "rental_uris": {"android": "https://dc.lft.to/lastmile_qr_scan", "ios": "https://dc.lft.to/lastmile_qr_scan"}, "type": "electric_scooter", "fusion_lat": 0.0, "lat": 38.89985166666666, "lon": -76.9407425, "is_reserved": 0}, {"bike_id": "722ef4a52f89396737e36d643be2b58e", "name": "722ef4a52f89396737e36d643be2b58e", "is_disabled": 0, "fusion_lon": 0.0, "rental_uris": {"android": "https://dc.lft.to/lastmile_qr_scan", "ios": "https://dc.lft.to/lastmile_qr_scan"}, "type": "electric_scooter", "fusion_lat": 0.0, "lat": 38.932114166666665, "lon": -77.02665983333333, "is_reserved": 0}, {"bike_id": "921480f1918ca431432c2b0f7967787c", "name": "921480f1918ca431432c2b0f7967787c", "is_disabled": 0, "fusion_lon": 0.0, "rental_uris": {"android": "https://dc.lft.to/lastmile_qr_scan", "ios": "https://dc.lft.to/lastmile_qr_scan"}, "type": "electric_scooter", "fusion_lat": 0.0, "lat": 38.92064633333333, "lon": -77.04188533333334, "is_reserved": 0}, {"bike_id": "579ab4a1aa15f66c8fc6180873ed2114", "name": "579ab4a1aa15f66c8fc6180873ed2114", "is_disabled": 0, "fusion_lon": 0.0, "rental_uris": {"android": "https://dc.lft.to/lastmile_qr_scan", "ios": "https://dc.lft.to/lastmile_qr_scan"}, "type": "electric_scooter", "fusion_lat": 0.0, "lat": 38.92409216666667, "lon": -77.02029483333334, "is_reserved": 0}, {"bike_id": "fd0eb66e6f328b7b7c5cd97dafa78e51", "name": "fd0eb66e6f328b7b7c5cd97dafa78e51", "is_disabled": 0, "fusion_lon": 0.0, "rental_uris": {"android": "https://dc.lft.to/lastmile_qr_scan", "ios": "https://dc.lft.to/lastmile_qr_scan"}, "type": "electric_scooter", "fusion_lat": 0.0, "lat": 38.873841166666665, "lon": -77.00139783333333, "is_reserved": 0}, {"bike_id": "083dc18709f78e097af8f3aa7d99210b", "name": "083dc18709f78e097af8f3aa7d99210b", "is_disabled": 0, "fusion_lon": 0.0, "rental_uris": {"android": "https://dc.lft.to/lastmile_qr_scan", "ios": "https://dc.lft.to/lastmile_qr_scan"}, "type": "electric_scooter", "fusion_lat": 0.0, "lat": 38.88433, "lon": -76.99596916666667, "is_reserved": 0}, {"bike_id": "60221b72f1a5d3936c8ea6b014d105a2", "name": "60221b72f1a5d3936c8ea6b014d105a2", "is_disabled": 0, "fusion_lon": 0.0, "rental_uris": {"android": "https://dc.lft.to/lastmile_qr_scan", "ios": "https://dc.lft.to/lastmile_qr_scan"}, "type": "electric_scooter", "fusion_lat": 0.0, "lat": 38.9163855, "lon": -77.032112, "is_reserved": 0}, {"bike_id": "e0d087579ab02504cbf9e6a67c666304", "name": "e0d087579ab02504cbf9e6a67c666304", "is_disabled": 0, "fusion_lon": 0.0, "rental_uris": {"android": "https://dc.lft.to/lastmile_qr_scan", "ios": "https://dc.lft.to/lastmile_qr_scan"}, "type": "electric_scooter", "fusion_lat": 0.0, "lat": 38.905211666666666, "lon": -77.0630535, "is_reserved": 0}, {"bike_id": "01c88cc1eb493485f2e6e43e82d7306c", "name": "01c88cc1eb493485f2e6e43e82d7306c", "is_disabled": 0, "fusion_lon": 0.0, "rental_uris": {"android": "https://dc.lft.to/lastmile_qr_scan", "ios": "https://dc.lft.to/lastmile_qr_scan"}, "type": "electric_bike", "fusion_lat": 0.0, "lat": 38.89934733333333, "lon": -77.001514, "is_reserved": 0}, {"bike_id": "189c75be9f87da1f2c1ad5e1cdb43577", "name": "189c75be9f87da1f2c1ad5e1cdb43577", "is_disabled": 0, "fusion_lon": 0.0, "rental_uris": {"android": "https://dc.lft.to/lastmile_qr_scan", "ios": "https://dc.lft.to/lastmile_qr_scan"}, "type": "electric_scooter", "fusion_lat": 0.0, "lat": 38.910768, "lon": -77.01624566666666, "is_reserved": 0}, {"bike_id": "56665d350a6559d6c9322799a7441f35", "name": "56665d350a6559d6c9322799a7441f35", "is_disabled": 0, "fusion_lon": 0.0, "rental_uris": {"android": "https://dc.lft.to/lastmile_qr_scan", "ios": "https://dc.lft.to/lastmile_qr_scan"}, "type": "electric_bike", "fusion_lat": 0.0, "lat": 38.907806666666666, "lon": -77.08170966666667, "is_reserved": 0}, {"bike_id": "87df66b8677e8404c5e9726d404261b9", "name": "87df66b8677e8404c5e9726d404261b9", "is_disabled": 0, "fusion_lon": 0.0, "rental_uris": {"android": "https://dc.lft.to/lastmile_qr_scan", "ios": "https://dc.lft.to/lastmile_qr_scan"}, "type": "electric_scooter", "fusion_lat": 0.0, "lat": 38.927033, "lon": -77.0238315, "is_reserved": 0}, {"bike_id": "348cae429f8b61bed1f7529d3b18b2a1", "name": "348cae429f8b61bed1f7529d3b18b2a1", "is_disabled": 0, "fusion_lon": 0.0, "rental_uris": {"android": "https://dc.lft.to/lastmile_qr_scan", "ios": "https://dc.lft.to/lastmile_qr_scan"}, "type": "electric_scooter", "fusion_lat": 0.0, "lat": 38.89191266666667, "lon": -77.00335316666667, "is_reserved": 0}, {"bike_id": "9c2f43dc8b8bf96ec231aeddf5d0bd1b", "name": "9c2f43dc8b8bf96ec231aeddf5d0bd1b", "is_disabled": 0, "fusion_lon": 0.0, "rental_uris": {"android": "https://dc.lft.to/lastmile_qr_scan", "ios": "https://dc.lft.to/lastmile_qr_scan"}, "type": "electric_scooter", "fusion_lat": 0.0, "lat": 38.906504, "lon": -77.05137716666667, "is_reserved": 0}, {"bike_id": "2d85f009d2bb09e4f739174b5433aa90", "name": "2d85f009d2bb09e4f739174b5433aa90", "is_disabled": 0, "fusion_lon": 0.0, "rental_uris": {"android": "https://dc.lft.to/lastmile_qr_scan", "ios": "https://dc.lft.to/lastmile_qr_scan"}, "type": "electric_scooter", "fusion_lat": 0.0, "lat": 38.92490566666667, "lon": -77.02268333333333, "is_reserved": 0}, {"bike_id": "b0a3dfde9ee1edf81c25c0880cd95f57", "name": "b0a3dfde9ee1edf81c25c0880cd95f57", "is_disabled": 0, "fusion_lon": 0.0, "rental_uris": {"android": "https://dc.lft.to/lastmile_qr_scan", "ios": "https://dc.lft.to/lastmile_qr_scan"}, "type": "electric_scooter", "fusion_lat": 0.0, "lat": 38.905730166666665, "lon": -77.01852433333333, "is_reserved": 0}, {"bike_id": "b45595ca1f82c04ac354832267ea7ca2", "name": "b45595ca1f82c04ac354832267ea7ca2", "is_disabled": 0, "fusion_lon": 0.0, "rental_uris": {"android": "https://dc.lft.to/lastmile_qr_scan", "ios": "https://dc.lft.to/lastmile_qr_scan"}, "type": "electric_scooter", "fusion_lat": 0.0, "lat": 38.924767833333334, "lon": -77.02213966666666, "is_reserved": 0}, {"bike_id": "cce25c2b715a2e4da05fddcaf3095650", "name": "cce25c2b715a2e4da05fddcaf3095650", "is_disabled": 0, "fusion_lon": 0.0, "rental_uris": {"android": "https://dc.lft.to/lastmile_qr_scan", "ios": "https://dc.lft.to/lastmile_qr_scan"}, "type": "electric_scooter", "fusion_lat": 0.0, "lat": 38.887502, "lon": -77.01703866666666, "is_reserved": 0}, {"bike_id": "32d77cd05afbde7cff0a34cf67eb39ed", "name": "32d77cd05afbde7cff0a34cf67eb39ed", "is_disabled": 0, "fusion_lon": 0.0, "rental_uris": {"android": "https://dc.lft.to/lastmile_qr_scan", "ios": "https://dc.lft.to/lastmile_qr_scan"}, "type": "electric_scooter", "fusion_lat": 0.0, "lat": 38.921537, "lon": -77.07238066666666, "is_reserved": 0}, {"bike_id": "2cdb2fff3f627838b8ecb7aa65d5ffe7", "name": "2cdb2fff3f627838b8ecb7aa65d5ffe7", "is_disabled": 0, "fusion_lon": 0.0, "rental_uris": {"android": "https://dc.lft.to/lastmile_qr_scan", "ios": "https://dc.lft.to/lastmile_qr_scan"}, "type": "electric_scooter", "fusion_lat": 0.0, "lat": 38.917576333333336, "lon": -77.04762733333334, "is_reserved": 0}, {"bike_id": "5de8f7c465e58d1e7c9b5e2f22b41ce5", "name": "5de8f7c465e58d1e7c9b5e2f22b41ce5", "is_disabled": 0, "fusion_lon": 0.0, "rental_uris": {"android": "https://dc.lft.to/lastmile_qr_scan", "ios": "https://dc.lft.to/lastmile_qr_scan"}, "type": "electric_bike", "fusion_lat": 0.0, "lat": 38.8369575, "lon": -77.10343166666667, "is_reserved": 0}, {"bike_id": "35ac9a61083b7597d991fe95e0fc4889", "name": "35ac9a61083b7597d991fe95e0fc4889", "is_disabled": 0, "fusion_lon": 0.0, "rental_uris": {"android": "https://dc.lft.to/lastmile_qr_scan", "ios": "https://dc.lft.to/lastmile_qr_scan"}, "type": "electric_scooter", "fusion_lat": 0.0, "lat": 38.89992566666667, "lon": -77.022109, "is_reserved": 0}, {"bike_id": "57a245ca1c54ad04bc334be22e4b90ac", "name": "57a245ca1c54ad04bc334be22e4b90ac", "is_disabled": 0, "fusion_lon": 0.0, "rental_uris": {"android": "https://dc.lft.to/lastmile_qr_scan", "ios": "https://dc.lft.to/lastmile_qr_scan"}, "type": "electric_scooter", "fusion_lat": 0.0, "lat": 38.86124016666667, "lon": -77.00321933333333, "is_reserved": 0}, {"bike_id": "79f5d89c9e35c868334301b7f70a3026", "name": "79f5d89c9e35c868334301b7f70a3026", "is_disabled": 0, "fusion_lon": 0.0, "rental_uris": {"android": "https://dc.lft.to/lastmile_qr_scan", "ios": "https://dc.lft.to/lastmile_qr_scan"}, "type": "electric_scooter", "fusion_lat": 0.0, "lat": 38.886092, "lon": -76.98542116666667, "is_reserved": 0}, {"bike_id": "1728f059b22c7039c1aaa61d647b3593", "name": "1728f059b22c7039c1aaa61d647b3593", "is_disabled": 0, "fusion_lon": 0.0, "rental_uris": {"android": "https://dc.lft.to/lastmile_qr_scan", "ios": "https://dc.lft.to/lastmile_qr_scan"}, "type": "electric_scooter", "fusion_lat": 0.0, "lat": 38.87658533333333, "lon": -77.00064666666667, "is_reserved": 0}, {"bike_id": "3faf85fc9823e9e0b0d836b953080b28", "name": "3faf85fc9823e9e0b0d836b953080b28", "is_disabled": 0, "fusion_lon": 0.0, "rental_uris": {"android": "https://dc.lft.to/lastmile_qr_scan", "ios": "https://dc.lft.to/lastmile_qr_scan"}, "type": "electric_scooter", "fusion_lat": 0.0, "lat": 38.90365766666667, "lon": -76.98488183333333, "is_reserved": 0}, {"bike_id": "cd7d9927d9738f2c2e4e4fa7d28e183a", "name": "cd7d9927d9738f2c2e4e4fa7d28e183a", "is_disabled": 0, "fusion_lon": 0.0, "rental_uris": {"android": "https://dc.lft.to/lastmile_qr_scan", "ios": "https://dc.lft.to/lastmile_qr_scan"}, "type": "electric_scooter", "fusion_lat": 0.0, "lat": 38.8965425, "lon": -77.04871483333334, "is_reserved": 0}, {"bike_id": "2d02f7b35b4c7b3dc381c11226643bfa", "name": "2d02f7b35b4c7b3dc381c11226643bfa", "is_disabled": 0, "fusion_lon": 0.0, "rental_uris": {"android": "https://dc.lft.to/lastmile_qr_scan", "ios": "https://dc.lft.to/lastmile_qr_scan"}, "type": "electric_scooter", "fusion_lat": 0.0, "lat": 38.91601466666667, "lon": -77.04897466666667, "is_reserved": 0}, {"bike_id": "9a7a2b17ac84d6b6ebcb96b2e66db958", "name": "9a7a2b17ac84d6b6ebcb96b2e66db958", "is_disabled": 0, "fusion_lon": 0.0, "rental_uris": {"android": "https://dc.lft.to/lastmile_qr_scan", "ios": "https://dc.lft.to/lastmile_qr_scan"}, "type": "electric_bike", "fusion_lat": 0.0, "lat": 38.868244, "lon": -76.98021283333334, "is_reserved": 0}, {"bike_id": "d8aada865f414fb825d0efc3b9458e68", "name": "d8aada865f414fb825d0efc3b9458e68", "is_disabled": 0, "fusion_lon": 0.0, "rental_uris": {"android": "https://dc.lft.to/lastmile_qr_scan", "ios": "https://dc.lft.to/lastmile_qr_scan"}, "type": "electric_scooter", "fusion_lat": 0.0, "lat": 38.905485, "lon": -77.04355683333333, "is_reserved": 0}, {"bike_id": "f1781855fde870e162210adf17535f0b", "name": "f1781855fde870e162210adf17535f0b", "is_disabled": 0, "fusion_lon": 0.0, "rental_uris": {"android": "https://dc.lft.to/lastmile_qr_scan", "ios": "https://dc.lft.to/lastmile_qr_scan"}, "type": "electric_scooter", "fusion_lat": 0.0, "lat": 38.919438666666665, "lon": -77.0179335, "is_reserved": 0}, {"bike_id": "355b7553d371c9d109d711dbbf5f8226", "name": "355b7553d371c9d109d711dbbf5f8226", "is_disabled": 0, "fusion_lon": 0.0, "rental_uris": {"android": "https://dc.lft.to/lastmile_qr_scan", "ios": "https://dc.lft.to/lastmile_qr_scan"}, "type": "electric_scooter", "fusion_lat": 0.0, "lat": 38.89988616666667, "lon": -77.0221495, "is_reserved": 0}, {"bike_id": "1572c3147bc545bd956e54de3fab3177", "name": "1572c3147bc545bd956e54de3fab3177", "is_disabled": 0, "fusion_lon": 0.0, "rental_uris": {"android": "https://dc.lft.to/lastmile_qr_scan", "ios": "https://dc.lft.to/lastmile_qr_scan"}, "type": "electric_scooter", "fusion_lat": 0.0, "lat": 38.923412166666665, "lon": -77.03486216666667, "is_reserved": 0}, {"bike_id": "6fa2fffde5e7c656a613fc6cac7cf21b", "name": "6fa2fffde5e7c656a613fc6cac7cf21b", "is_disabled": 0, "fusion_lon": 0.0, "rental_uris": {"android": "https://dc.lft.to/lastmile_qr_scan", "ios": "https://dc.lft.to/lastmile_qr_scan"}, "type": "electric_scooter", "fusion_lat": 0.0, "lat": 38.92058433333333, "lon": -77.04203, "is_reserved": 0}, {"bike_id": "e7dcffd60fd01c598b08698448547037", "name": "e7dcffd60fd01c598b08698448547037", "is_disabled": 0, "fusion_lon": 0.0, "rental_uris": {"android": "https://dc.lft.to/lastmile_qr_scan", "ios": "https://dc.lft.to/lastmile_qr_scan"}, "type": "electric_scooter", "fusion_lat": 0.0, "lat": 38.89667383333333, "lon": -76.93210233333333, "is_reserved": 0}, {"bike_id": "b4c679130b89bdb468562e790e5b2ad8", "name": "b4c679130b89bdb468562e790e5b2ad8", "is_disabled": 0, "fusion_lon": 0.0, "rental_uris": {"android": "https://dc.lft.to/lastmile_qr_scan", "ios": "https://dc.lft.to/lastmile_qr_scan"}, "type": "electric_scooter", "fusion_lat": 0.0, "lat": 38.921629333333335, "lon": -77.02079683333334, "is_reserved": 0}, {"bike_id": "635e378f5d9c75bd4ef506357194113f", "name": "635e378f5d9c75bd4ef506357194113f", "is_disabled": 0, "fusion_lon": 0.0, "rental_uris": {"android": "https://dc.lft.to/lastmile_qr_scan", "ios": "https://dc.lft.to/lastmile_qr_scan"}, "type": "electric_bike", "fusion_lat": 0.0, "lat": 38.98526283333333, "lon": -77.00407016666666, "is_reserved": 0}, {"bike_id": "98365bad409601b9a28ffa8bb45ae152", "name": "98365bad409601b9a28ffa8bb45ae152", "is_disabled": 0, "fusion_lon": 0.0, "rental_uris": {"android": "https://dc.lft.to/lastmile_qr_scan", "ios": "https://dc.lft.to/lastmile_qr_scan"}, "type": "electric_scooter", "fusion_lat": 0.0, "lat": 38.91818283333333, "lon": -77.034471, "is_reserved": 0}, {"bike_id": "97cf4768dfe191f1ff2d8a5cc743a906", "name": "97cf4768dfe191f1ff2d8a5cc743a906", "is_disabled": 0, "fusion_lon": 0.0, "rental_uris": {"android": "https://dc.lft.to/lastmile_qr_scan", "ios": "https://dc.lft.to/lastmile_qr_scan"}, "type": "electric_scooter", "fusion_lat": 0.0, "lat": 38.899717333333335, "lon": -77.04508883333334, "is_reserved": 0}, {"bike_id": "c2e84355945095eadbc32de5e7f3ee5c", "name": "c2e84355945095eadbc32de5e7f3ee5c", "is_disabled": 0, "fusion_lon": 0.0, "rental_uris": {"android": "https://dc.lft.to/lastmile_qr_scan", "ios": "https://dc.lft.to/lastmile_qr_scan"}, "type": "electric_scooter", "fusion_lat": 0.0, "lat": 38.920144666666666, "lon": -77.03208583333333, "is_reserved": 0}, {"bike_id": "4c3ddbef1d1a9dd5e4fb3240c89a1c8d", "name": "4c3ddbef1d1a9dd5e4fb3240c89a1c8d", "is_disabled": 0, "fusion_lon": 0.0, "rental_uris": {"android": "https://dc.lft.to/lastmile_qr_scan", "ios": "https://dc.lft.to/lastmile_qr_scan"}, "type": "electric_scooter", "fusion_lat": 0.0, "lat": 38.9037155, "lon": -77.0175675, "is_reserved": 0}, {"bike_id": "f7c0f167ecfcf87b41597b41924eb38f", "name": "f7c0f167ecfcf87b41597b41924eb38f", "is_disabled": 0, "fusion_lon": 0.0, "rental_uris": {"android": "https://dc.lft.to/lastmile_qr_scan", "ios": "https://dc.lft.to/lastmile_qr_scan"}, "type": "electric_scooter", "fusion_lat": 0.0, "lat": 38.93576616666667, "lon": -77.0328085, "is_reserved": 0}, {"bike_id": "19b4038b4c4a5e32793289b512dd40ce", "name": "19b4038b4c4a5e32793289b512dd40ce", "is_disabled": 0, "fusion_lon": 0.0, "rental_uris": {"android": "https://dc.lft.to/lastmile_qr_scan", "ios": "https://dc.lft.to/lastmile_qr_scan"}, "type": "electric_scooter", "fusion_lat": 0.0, "lat": 38.95738166666667, "lon": -77.00216066666667, "is_reserved": 0}, {"bike_id": "3e7dd2b6fa876dca2c434b6262c9d575", "name": "3e7dd2b6fa876dca2c434b6262c9d575", "is_disabled": 0, "fusion_lon": 0.0, "rental_uris": {"android": "https://dc.lft.to/lastmile_qr_scan", "ios": "https://dc.lft.to/lastmile_qr_scan"}, "type": "electric_scooter", "fusion_lat": 0.0, "lat": 38.92514416666667, "lon": -77.01220716666667, "is_reserved": 0}, {"bike_id": "c115589685da03409fefdeea6332e9a8", "name": "c115589685da03409fefdeea6332e9a8", "is_disabled": 0, "fusion_lon": 0.0, "rental_uris": {"android": "https://dc.lft.to/lastmile_qr_scan", "ios": "https://dc.lft.to/lastmile_qr_scan"}, "type": "electric_scooter", "fusion_lat": 0.0, "lat": 38.943064166666666, "lon": -77.05926783333334, "is_reserved": 0}, {"bike_id": "a26d41857c872c476991a7a92d208e4f", "name": "a26d41857c872c476991a7a92d208e4f", "is_disabled": 0, "fusion_lon": 0.0, "rental_uris": {"android": "https://dc.lft.to/lastmile_qr_scan", "ios": "https://dc.lft.to/lastmile_qr_scan"}, "type": "electric_scooter", "fusion_lat": 0.0, "lat": 38.87884066666667, "lon": -76.96540766666666, "is_reserved": 0}, {"bike_id": "b539359d62db150430fc8754125e14f0", "name": "b539359d62db150430fc8754125e14f0", "is_disabled": 0, "fusion_lon": 0.0, "rental_uris": {"android": "https://dc.lft.to/lastmile_qr_scan", "ios": "https://dc.lft.to/lastmile_qr_scan"}, "type": "electric_scooter", "fusion_lat": 0.0, "lat": 38.922427, "lon": -77.02812566666667, "is_reserved": 0}, {"bike_id": "c9c62680217ef1c39b3d3f24d68c4ea2", "name": "c9c62680217ef1c39b3d3f24d68c4ea2", "is_disabled": 0, "fusion_lon": 0.0, "rental_uris": {"android": "https://dc.lft.to/lastmile_qr_scan", "ios": "https://dc.lft.to/lastmile_qr_scan"}, "type": "electric_scooter", "fusion_lat": 0.0, "lat": 38.87546616666667, "lon": -77.00535933333333, "is_reserved": 0}, {"bike_id": "6f777fc5566efc2476d2d384236be853", "name": "6f777fc5566efc2476d2d384236be853", "is_disabled": 0, "fusion_lon": 0.0, "rental_uris": {"android": "https://dc.lft.to/lastmile_qr_scan", "ios": "https://dc.lft.to/lastmile_qr_scan"}, "type": "electric_scooter", "fusion_lat": 0.0, "lat": 38.9210995, "lon": -77.02045116666666, "is_reserved": 0}, {"bike_id": "636ed9b6e158db4967b9e056f1edf04c", "name": "636ed9b6e158db4967b9e056f1edf04c", "is_disabled": 0, "fusion_lon": 0.0, "rental_uris": {"android": "https://dc.lft.to/lastmile_qr_scan", "ios": "https://dc.lft.to/lastmile_qr_scan"}, "type": "electric_scooter", "fusion_lat": 0.0, "lat": 38.92346033333333, "lon": -77.03481533333333, "is_reserved": 0}, {"bike_id": "be98fd855c441f5983d32b6cf31f68bd", "name": "be98fd855c441f5983d32b6cf31f68bd", "is_disabled": 0, "fusion_lon": 0.0, "rental_uris": {"android": "https://dc.lft.to/lastmile_qr_scan", "ios": "https://dc.lft.to/lastmile_qr_scan"}, "type": "electric_scooter", "fusion_lat": 0.0, "lat": 38.897402166666666, "lon": -77.020919, "is_reserved": 0}, {"bike_id": "2ec73f35ead0367794db8050cdee015c", "name": "2ec73f35ead0367794db8050cdee015c", "is_disabled": 0, "fusion_lon": 0.0, "rental_uris": {"android": "https://dc.lft.to/lastmile_qr_scan", "ios": "https://dc.lft.to/lastmile_qr_scan"}, "type": "electric_scooter", "fusion_lat": 0.0, "lat": 38.900740666666664, "lon": -77.027727, "is_reserved": 0}, {"bike_id": "1e5b817d253809c7bffde05561e24d94", "name": "1e5b817d253809c7bffde05561e24d94", "is_disabled": 0, "fusion_lon": 0.0, "rental_uris": {"android": "https://dc.lft.to/lastmile_qr_scan", "ios": "https://dc.lft.to/lastmile_qr_scan"}, "type": "electric_scooter", "fusion_lat": 0.0, "lat": 38.9251575, "lon": -77.02358433333333, "is_reserved": 0}, {"bike_id": "768eb6f513469e19b873c87fcb1dc6c3", "name": "768eb6f513469e19b873c87fcb1dc6c3", "is_disabled": 0, "fusion_lon": 0.0, "rental_uris": {"android": "https://dc.lft.to/lastmile_qr_scan", "ios": "https://dc.lft.to/lastmile_qr_scan"}, "type": "electric_scooter", "fusion_lat": 0.0, "lat": 38.898294666666665, "lon": -77.04804816666666, "is_reserved": 0}, {"bike_id": "505d188a67aa589ec0ef634c49670b99", "name": "505d188a67aa589ec0ef634c49670b99", "is_disabled": 0, "fusion_lon": 0.0, "rental_uris": {"android": "https://dc.lft.to/lastmile_qr_scan", "ios": "https://dc.lft.to/lastmile_qr_scan"}, "type": "electric_scooter", "fusion_lat": 0.0, "lat": 38.903654, "lon": -77.01104066666667, "is_reserved": 0}, {"bike_id": "dda2976031443c0ee8577d8b324518ce", "name": "dda2976031443c0ee8577d8b324518ce", "is_disabled": 0, "fusion_lon": 0.0, "rental_uris": {"android": "https://dc.lft.to/lastmile_qr_scan", "ios": "https://dc.lft.to/lastmile_qr_scan"}, "type": "electric_bike", "fusion_lat": 0.0, "lat": 38.83025816666667, "lon": -77.00827633333333, "is_reserved": 0}, {"bike_id": "051d4b957e3dcf2a31889f963ee0a65b", "name": "051d4b957e3dcf2a31889f963ee0a65b", "is_disabled": 0, "fusion_lon": 0.0, "rental_uris": {"android": "https://dc.lft.to/lastmile_qr_scan", "ios": "https://dc.lft.to/lastmile_qr_scan"}, "type": "electric_scooter", "fusion_lat": 0.0, "lat": 38.889643166666666, "lon": -76.92735316666666, "is_reserved": 0}, {"bike_id": "540d1924ecd1eced3969223238564db4", "name": "540d1924ecd1eced3969223238564db4", "is_disabled": 0, "fusion_lon": 0.0, "rental_uris": {"android": "https://dc.lft.to/lastmile_qr_scan", "ios": "https://dc.lft.to/lastmile_qr_scan"}, "type": "electric_scooter", "fusion_lat": 0.0, "lat": 38.902643, "lon": -76.99518016666667, "is_reserved": 0}, {"bike_id": "13e2dc1fdcbe8cf25e4eddd1c6bb2e29", "name": "13e2dc1fdcbe8cf25e4eddd1c6bb2e29", "is_disabled": 0, "fusion_lon": 0.0, "rental_uris": {"android": "https://dc.lft.to/lastmile_qr_scan", "ios": "https://dc.lft.to/lastmile_qr_scan"}, "type": "electric_scooter", "fusion_lat": 0.0, "lat": 38.9156445, "lon": -77.03213516666666, "is_reserved": 0}, {"bike_id": "5eb49f4afe09b34ff68d4f7b96bb05d0", "name": "5eb49f4afe09b34ff68d4f7b96bb05d0", "is_disabled": 0, "fusion_lon": 0.0, "rental_uris": {"android": "https://dc.lft.to/lastmile_qr_scan", "ios": "https://dc.lft.to/lastmile_qr_scan"}, "type": "electric_scooter", "fusion_lat": 0.0, "lat": 38.92161616666667, "lon": -77.02516666666666, "is_reserved": 0}, {"bike_id": "61321ef58df6c9435fcdcb0b2581ce20", "name": "61321ef58df6c9435fcdcb0b2581ce20", "is_disabled": 0, "fusion_lon": 0.0, "rental_uris": {"android": "https://dc.lft.to/lastmile_qr_scan", "ios": "https://dc.lft.to/lastmile_qr_scan"}, "type": "electric_scooter", "fusion_lat": 0.0, "lat": 38.91926216666667, "lon": -77.025055, "is_reserved": 0}, {"bike_id": "e9f0e1592214ded8489b5b104861b10b", "name": "e9f0e1592214ded8489b5b104861b10b", "is_disabled": 0, "fusion_lon": 0.0, "rental_uris": {"android": "https://dc.lft.to/lastmile_qr_scan", "ios": "https://dc.lft.to/lastmile_qr_scan"}, "type": "electric_scooter", "fusion_lat": 0.0, "lat": 38.918384333333336, "lon": -77.04167916666667, "is_reserved": 0}, {"bike_id": "60ade9692f17b3e03f2426dae4899529", "name": "60ade9692f17b3e03f2426dae4899529", "is_disabled": 0, "fusion_lon": 0.0, "rental_uris": {"android": "https://dc.lft.to/lastmile_qr_scan", "ios": "https://dc.lft.to/lastmile_qr_scan"}, "type": "electric_bike", "fusion_lat": 0.0, "lat": 38.8764105, "lon": -77.00365766666667, "is_reserved": 0}, {"bike_id": "7ffaf7157b35ec2ae480963673af0b49", "name": "7ffaf7157b35ec2ae480963673af0b49", "is_disabled": 0, "fusion_lon": 0.0, "rental_uris": {"android": "https://dc.lft.to/lastmile_qr_scan", "ios": "https://dc.lft.to/lastmile_qr_scan"}, "type": "electric_scooter", "fusion_lat": 0.0, "lat": 38.897828833333335, "lon": -77.02704533333333, "is_reserved": 0}, {"bike_id": "479546f19d2bb786497defb54fa2141b", "name": "479546f19d2bb786497defb54fa2141b", "is_disabled": 0, "fusion_lon": 0.0, "rental_uris": {"android": "https://dc.lft.to/lastmile_qr_scan", "ios": "https://dc.lft.to/lastmile_qr_scan"}, "type": "electric_scooter", "fusion_lat": 0.0, "lat": 38.89724833333333, "lon": -76.92585916666667, "is_reserved": 0}, {"bike_id": "5bacee820f65e2f2b65e75f55d62591e", "name": "5bacee820f65e2f2b65e75f55d62591e", "is_disabled": 0, "fusion_lon": 0.0, "rental_uris": {"android": "https://dc.lft.to/lastmile_qr_scan", "ios": "https://dc.lft.to/lastmile_qr_scan"}, "type": "electric_scooter", "fusion_lat": 0.0, "lat": 38.898329, "lon": -77.04808866666667, "is_reserved": 0}, {"bike_id": "9d0e29c4d543dce90dbc2ea5d1789ff5", "name": "9d0e29c4d543dce90dbc2ea5d1789ff5", "is_disabled": 0, "fusion_lon": 0.0, "rental_uris": {"android": "https://dc.lft.to/lastmile_qr_scan", "ios": "https://dc.lft.to/lastmile_qr_scan"}, "type": "electric_scooter", "fusion_lat": 0.0, "lat": 38.923365, "lon": -77.05270316666666, "is_reserved": 0}, {"bike_id": "56d769acbb8c763ab939b8cef45c2a30", "name": "56d769acbb8c763ab939b8cef45c2a30", "is_disabled": 0, "fusion_lon": 0.0, "rental_uris": {"android": "https://dc.lft.to/lastmile_qr_scan", "ios": "https://dc.lft.to/lastmile_qr_scan"}, "type": "electric_bike", "fusion_lat": 0.0, "lat": 38.96751316666667, "lon": -77.02790833333333, "is_reserved": 0}, {"bike_id": "a018893c9791b8a5c11bdb158e4e042a", "name": "a018893c9791b8a5c11bdb158e4e042a", "is_disabled": 0, "fusion_lon": 0.0, "rental_uris": {"android": "https://dc.lft.to/lastmile_qr_scan", "ios": "https://dc.lft.to/lastmile_qr_scan"}, "type": "electric_scooter", "fusion_lat": 0.0, "lat": 38.9279345, "lon": -77.03777316666667, "is_reserved": 0}, {"bike_id": "e8c49e80094b95614acb11a73e43de58", "name": "e8c49e80094b95614acb11a73e43de58", "is_disabled": 0, "fusion_lon": 0.0, "rental_uris": {"android": "https://dc.lft.to/lastmile_qr_scan", "ios": "https://dc.lft.to/lastmile_qr_scan"}, "type": "electric_scooter", "fusion_lat": 0.0, "lat": 38.89779883333333, "lon": -77.04970616666667, "is_reserved": 0}, {"bike_id": "53b25d6f61ddbb8b15c75587501b8b6b", "name": "53b25d6f61ddbb8b15c75587501b8b6b", "is_disabled": 0, "fusion_lon": 0.0, "rental_uris": {"android": "https://dc.lft.to/lastmile_qr_scan", "ios": "https://dc.lft.to/lastmile_qr_scan"}, "type": "electric_scooter", "fusion_lat": 0.0, "lat": 38.9241935, "lon": -77.01942166666667, "is_reserved": 0}, {"bike_id": "5db5f4e719ccd926de5c533d7d3e7820", "name": "5db5f4e719ccd926de5c533d7d3e7820", "is_disabled": 0, "fusion_lon": 0.0, "rental_uris": {"android": "https://dc.lft.to/lastmile_qr_scan", "ios": "https://dc.lft.to/lastmile_qr_scan"}, "type": "electric_scooter", "fusion_lat": 0.0, "lat": 38.89504066666667, "lon": -77.011298, "is_reserved": 0}, {"bike_id": "490ad1099b8279b361e5b692211a2e7b", "name": "490ad1099b8279b361e5b692211a2e7b", "is_disabled": 0, "fusion_lon": 0.0, "rental_uris": {"android": "https://dc.lft.to/lastmile_qr_scan", "ios": "https://dc.lft.to/lastmile_qr_scan"}, "type": "electric_scooter", "fusion_lat": 0.0, "lat": 38.918789, "lon": -77.02597066666667, "is_reserved": 0}, {"bike_id": "456ce99c0b9e945c6447e7a1be575d6a", "name": "456ce99c0b9e945c6447e7a1be575d6a", "is_disabled": 0, "fusion_lon": 0.0, "rental_uris": {"android": "https://dc.lft.to/lastmile_qr_scan", "ios": "https://dc.lft.to/lastmile_qr_scan"}, "type": "electric_scooter", "fusion_lat": 0.0, "lat": 38.9737395, "lon": -77.01846166666667, "is_reserved": 0}, {"bike_id": "320d77fbf8f7b2b8562d29ffaf55c4db", "name": "320d77fbf8f7b2b8562d29ffaf55c4db", "is_disabled": 0, "fusion_lon": 0.0, "rental_uris": {"android": "https://dc.lft.to/lastmile_qr_scan", "ios": "https://dc.lft.to/lastmile_qr_scan"}, "type": "electric_scooter", "fusion_lat": 0.0, "lat": 38.927179, "lon": -77.059968, "is_reserved": 0}, {"bike_id": "fdfa87d90ab80b77225fe90031607fa4", "name": "fdfa87d90ab80b77225fe90031607fa4", "is_disabled": 0, "fusion_lon": 0.0, "rental_uris": {"android": "https://dc.lft.to/lastmile_qr_scan", "ios": "https://dc.lft.to/lastmile_qr_scan"}, "type": "electric_scooter", "fusion_lat": 0.0, "lat": 38.9087765, "lon": -77.03761433333334, "is_reserved": 0}, {"bike_id": "5ba6d1d9f5ab023e4889cc91764fd2f2", "name": "5ba6d1d9f5ab023e4889cc91764fd2f2", "is_disabled": 0, "fusion_lon": 0.0, "rental_uris": {"android": "https://dc.lft.to/lastmile_qr_scan", "ios": "https://dc.lft.to/lastmile_qr_scan"}, "type": "electric_scooter", "fusion_lat": 0.0, "lat": 38.900829333333334, "lon": -77.02161666666667, "is_reserved": 0}, {"bike_id": "5f0a199eefd0d167adf3ad9b6639309f", "name": "5f0a199eefd0d167adf3ad9b6639309f", "is_disabled": 0, "fusion_lon": 0.0, "rental_uris": {"android": "https://dc.lft.to/lastmile_qr_scan", "ios": "https://dc.lft.to/lastmile_qr_scan"}, "type": "electric_scooter", "fusion_lat": 0.0, "lat": 38.924672666666666, "lon": -77.022067, "is_reserved": 0}, {"bike_id": "c69edf9d09b084507321d287cf4c6f15", "name": "c69edf9d09b084507321d287cf4c6f15", "is_disabled": 0, "fusion_lon": 0.0, "rental_uris": {"android": "https://dc.lft.to/lastmile_qr_scan", "ios": "https://dc.lft.to/lastmile_qr_scan"}, "type": "electric_scooter", "fusion_lat": 0.0, "lat": 38.88551966666667, "lon": -77.020025, "is_reserved": 0}, {"bike_id": "b8eb9def29aba67e05b968fafaa68f9e", "name": "b8eb9def29aba67e05b968fafaa68f9e", "is_disabled": 0, "fusion_lon": 0.0, "rental_uris": {"android": "https://dc.lft.to/lastmile_qr_scan", "ios": "https://dc.lft.to/lastmile_qr_scan"}, "type": "electric_scooter", "fusion_lat": 0.0, "lat": 38.90020716666667, "lon": -76.99117633333333, "is_reserved": 0}, {"bike_id": "2bde11b1a78db6734d5506ebf88c8263", "name": "2bde11b1a78db6734d5506ebf88c8263", "is_disabled": 0, "fusion_lon": 0.0, "rental_uris": {"android": "https://dc.lft.to/lastmile_qr_scan", "ios": "https://dc.lft.to/lastmile_qr_scan"}, "type": "electric_scooter", "fusion_lat": 0.0, "lat": 38.91223016666667, "lon": -77.06597233333333, "is_reserved": 0}, {"bike_id": "24084cbf1fdba2998d40cd75d7595405", "name": "24084cbf1fdba2998d40cd75d7595405", "is_disabled": 0, "fusion_lon": 0.0, "rental_uris": {"android": "https://dc.lft.to/lastmile_qr_scan", "ios": "https://dc.lft.to/lastmile_qr_scan"}, "type": "electric_bike", "fusion_lat": 0.0, "lat": 39.00003666666667, "lon": -76.9180185, "is_reserved": 0}, {"bike_id": "3e262669a6d5f9711c2634e337d41f71", "name": "3e262669a6d5f9711c2634e337d41f71", "is_disabled": 0, "fusion_lon": 0.0, "rental_uris": {"android": "https://dc.lft.to/lastmile_qr_scan", "ios": "https://dc.lft.to/lastmile_qr_scan"}, "type": "electric_scooter", "fusion_lat": 0.0, "lat": 38.9153655, "lon": -77.07540233333333, "is_reserved": 0}, {"bike_id": "7340c647582f8e5b9b658112db30bb0c", "name": "7340c647582f8e5b9b658112db30bb0c", "is_disabled": 0, "fusion_lon": 0.0, "rental_uris": {"android": "https://dc.lft.to/lastmile_qr_scan", "ios": "https://dc.lft.to/lastmile_qr_scan"}, "type": "electric_scooter", "fusion_lat": 0.0, "lat": 38.914224833333336, "lon": -77.06692783333334, "is_reserved": 0}, {"bike_id": "0d5dc16752967a0d11d66cea1bb131f3", "name": "0d5dc16752967a0d11d66cea1bb131f3", "is_disabled": 0, "fusion_lon": 0.0, "rental_uris": {"android": "https://dc.lft.to/lastmile_qr_scan", "ios": "https://dc.lft.to/lastmile_qr_scan"}, "type": "electric_scooter", "fusion_lat": 0.0, "lat": 38.924703, "lon": -77.03372333333333, "is_reserved": 0}, {"bike_id": "8f710ffb53a9a50a0987510d4a368788", "name": "8f710ffb53a9a50a0987510d4a368788", "is_disabled": 0, "fusion_lon": 0.0, "rental_uris": {"android": "https://dc.lft.to/lastmile_qr_scan", "ios": "https://dc.lft.to/lastmile_qr_scan"}, "type": "electric_scooter", "fusion_lat": 0.0, "lat": 38.91358616666667, "lon": -77.06394266666666, "is_reserved": 0}, {"bike_id": "74879222a1ffd2234ca39d6a1ba85cdd", "name": "74879222a1ffd2234ca39d6a1ba85cdd", "is_disabled": 0, "fusion_lon": 0.0, "rental_uris": {"android": "https://dc.lft.to/lastmile_qr_scan", "ios": "https://dc.lft.to/lastmile_qr_scan"}, "type": "electric_scooter", "fusion_lat": 0.0, "lat": 38.893521666666665, "lon": -77.03181683333334, "is_reserved": 0}, {"bike_id": "f4da633f2571abf4873fb9d8d5e2df56", "name": "f4da633f2571abf4873fb9d8d5e2df56", "is_disabled": 0, "fusion_lon": 0.0, "rental_uris": {"android": "https://dc.lft.to/lastmile_qr_scan", "ios": "https://dc.lft.to/lastmile_qr_scan"}, "type": "electric_scooter", "fusion_lat": 0.0, "lat": 38.92328583333333, "lon": -77.0366025, "is_reserved": 0}, {"bike_id": "b32d98c5778d5da96e7cfce1ce460e0d", "name": "b32d98c5778d5da96e7cfce1ce460e0d", "is_disabled": 0, "fusion_lon": 0.0, "rental_uris": {"android": "https://dc.lft.to/lastmile_qr_scan", "ios": "https://dc.lft.to/lastmile_qr_scan"}, "type": "electric_scooter", "fusion_lat": 0.0, "lat": 38.89366366666667, "lon": -77.02817816666666, "is_reserved": 0}, {"bike_id": "34af7faccc0d1e112b075b17924c4107", "name": "34af7faccc0d1e112b075b17924c4107", "is_disabled": 0, "fusion_lon": 0.0, "rental_uris": {"android": "https://dc.lft.to/lastmile_qr_scan", "ios": "https://dc.lft.to/lastmile_qr_scan"}, "type": "electric_scooter", "fusion_lat": 0.0, "lat": 38.92676983333333, "lon": -77.03107733333333, "is_reserved": 0}, {"bike_id": "9eeaee81426726b5c0ce39daec58e4a7", "name": "9eeaee81426726b5c0ce39daec58e4a7", "is_disabled": 0, "fusion_lon": 0.0, "rental_uris": {"android": "https://dc.lft.to/lastmile_qr_scan", "ios": "https://dc.lft.to/lastmile_qr_scan"}, "type": "electric_scooter", "fusion_lat": 0.0, "lat": 38.895610166666664, "lon": -77.04669716666666, "is_reserved": 0}, {"bike_id": "571a05eb22359625373c83a20877b521", "name": "571a05eb22359625373c83a20877b521", "is_disabled": 0, "fusion_lon": 0.0, "rental_uris": {"android": "https://dc.lft.to/lastmile_qr_scan", "ios": "https://dc.lft.to/lastmile_qr_scan"}, "type": "electric_scooter", "fusion_lat": 0.0, "lat": 38.91829216666667, "lon": -77.03692516666666, "is_reserved": 0}, {"bike_id": "4b6d760e6dd57ac75f066067ffe48d24", "name": "4b6d760e6dd57ac75f066067ffe48d24", "is_disabled": 0, "fusion_lon": 0.0, "rental_uris": {"android": "https://dc.lft.to/lastmile_qr_scan", "ios": "https://dc.lft.to/lastmile_qr_scan"}, "type": "electric_scooter", "fusion_lat": 0.0, "lat": 38.90511333333333, "lon": -77.06431666666667, "is_reserved": 0}, {"bike_id": "40b4c3f5fee46b1c0a35c2dd1f06d341", "name": "40b4c3f5fee46b1c0a35c2dd1f06d341", "is_disabled": 0, "fusion_lon": 0.0, "rental_uris": {"android": "https://dc.lft.to/lastmile_qr_scan", "ios": "https://dc.lft.to/lastmile_qr_scan"}, "type": "electric_scooter", "fusion_lat": 0.0, "lat": 38.924173, "lon": -77.02128183333333, "is_reserved": 0}, {"bike_id": "a4c9b8b090c168f816f240615dd2af9f", "name": "a4c9b8b090c168f816f240615dd2af9f", "is_disabled": 0, "fusion_lon": 0.0, "rental_uris": {"android": "https://dc.lft.to/lastmile_qr_scan", "ios": "https://dc.lft.to/lastmile_qr_scan"}, "type": "electric_scooter", "fusion_lat": 0.0, "lat": 38.9015035, "lon": -77.02993766666667, "is_reserved": 0}, {"bike_id": "201fcdc7bc04abec5ace56f61c8b2f84", "name": "201fcdc7bc04abec5ace56f61c8b2f84", "is_disabled": 0, "fusion_lon": 0.0, "rental_uris": {"android": "https://dc.lft.to/lastmile_qr_scan", "ios": "https://dc.lft.to/lastmile_qr_scan"}, "type": "electric_scooter", "fusion_lat": 0.0, "lat": 38.917863833333335, "lon": -77.023712, "is_reserved": 0}, {"bike_id": "be6055f6e21b4a5e247db257c4789f47", "name": "be6055f6e21b4a5e247db257c4789f47", "is_disabled": 0, "fusion_lon": 0.0, "rental_uris": {"android": "https://dc.lft.to/lastmile_qr_scan", "ios": "https://dc.lft.to/lastmile_qr_scan"}, "type": "electric_scooter", "fusion_lat": 0.0, "lat": 38.90739133333334, "lon": -77.00213316666667, "is_reserved": 0}, {"bike_id": "72bf50c8d343ce2cff5ee6c59e677489", "name": "72bf50c8d343ce2cff5ee6c59e677489", "is_disabled": 0, "fusion_lon": 0.0, "rental_uris": {"android": "https://dc.lft.to/lastmile_qr_scan", "ios": "https://dc.lft.to/lastmile_qr_scan"}, "type": "electric_scooter", "fusion_lat": 0.0, "lat": 38.8984725, "lon": -77.03206366666667, "is_reserved": 0}, {"bike_id": "fa398b476d285c2e452b4eb8507a88bc", "name": "fa398b476d285c2e452b4eb8507a88bc", "is_disabled": 0, "fusion_lon": 0.0, "rental_uris": {"android": "https://dc.lft.to/lastmile_qr_scan", "ios": "https://dc.lft.to/lastmile_qr_scan"}, "type": "electric_scooter", "fusion_lat": 0.0, "lat": 38.92503416666667, "lon": -77.02129366666666, "is_reserved": 0}, {"bike_id": "7870eeeaf5512aa387a1c5cfb495637a", "name": "7870eeeaf5512aa387a1c5cfb495637a", "is_disabled": 0, "fusion_lon": 0.0, "rental_uris": {"android": "https://dc.lft.to/lastmile_qr_scan", "ios": "https://dc.lft.to/lastmile_qr_scan"}, "type": "electric_scooter", "fusion_lat": 0.0, "lat": 38.9206505, "lon": -77.022036, "is_reserved": 0}, {"bike_id": "8bc727380b077ffa4095d0180a2be394", "name": "8bc727380b077ffa4095d0180a2be394", "is_disabled": 0, "fusion_lon": 0.0, "rental_uris": {"android": "https://dc.lft.to/lastmile_qr_scan", "ios": "https://dc.lft.to/lastmile_qr_scan"}, "type": "electric_scooter", "fusion_lat": 0.0, "lat": 38.9209135, "lon": -77.02528883333333, "is_reserved": 0}, {"bike_id": "ceaa3ab6c4e901e128c5dd03977537da", "name": "ceaa3ab6c4e901e128c5dd03977537da", "is_disabled": 0, "fusion_lon": 0.0, "rental_uris": {"android": "https://dc.lft.to/lastmile_qr_scan", "ios": "https://dc.lft.to/lastmile_qr_scan"}, "type": "electric_scooter", "fusion_lat": 0.0, "lat": 38.89712383333333, "lon": -77.02670816666667, "is_reserved": 0}, {"bike_id": "e802cbc6ac057f9deab8a4db64cb5891", "name": "e802cbc6ac057f9deab8a4db64cb5891", "is_disabled": 0, "fusion_lon": 0.0, "rental_uris": {"android": "https://dc.lft.to/lastmile_qr_scan", "ios": "https://dc.lft.to/lastmile_qr_scan"}, "type": "electric_scooter", "fusion_lat": 0.0, "lat": 38.929896166666666, "lon": -77.055088, "is_reserved": 0}, {"bike_id": "ed4224d6c1ee726a33ec520fe106fc6f", "name": "ed4224d6c1ee726a33ec520fe106fc6f", "is_disabled": 0, "fusion_lon": 0.0, "rental_uris": {"android": "https://dc.lft.to/lastmile_qr_scan", "ios": "https://dc.lft.to/lastmile_qr_scan"}, "type": "electric_scooter", "fusion_lat": 0.0, "lat": 38.906536, "lon": -77.025066, "is_reserved": 0}, {"bike_id": "184d699ed2feb0bf5043b728e0223d85", "name": "184d699ed2feb0bf5043b728e0223d85", "is_disabled": 0, "fusion_lon": 0.0, "rental_uris": {"android": "https://dc.lft.to/lastmile_qr_scan", "ios": "https://dc.lft.to/lastmile_qr_scan"}, "type": "electric_bike", "fusion_lat": 0.0, "lat": 38.866253, "lon": -76.94573633333333, "is_reserved": 0}, {"bike_id": "bb2dba43cd7d139abbbb894378cb99ce", "name": "bb2dba43cd7d139abbbb894378cb99ce", "is_disabled": 0, "fusion_lon": 0.0, "rental_uris": {"android": "https://dc.lft.to/lastmile_qr_scan", "ios": "https://dc.lft.to/lastmile_qr_scan"}, "type": "electric_scooter", "fusion_lat": 0.0, "lat": 38.92243116666667, "lon": -77.03660566666667, "is_reserved": 0}, {"bike_id": "9a17a70cd4136564fbbc5a119c9b87fb", "name": "9a17a70cd4136564fbbc5a119c9b87fb", "is_disabled": 0, "fusion_lon": 0.0, "rental_uris": {"android": "https://dc.lft.to/lastmile_qr_scan", "ios": "https://dc.lft.to/lastmile_qr_scan"}, "type": "electric_bike", "fusion_lat": 0.0, "lat": 38.961265166666664, "lon": -77.03263566666666, "is_reserved": 0}, {"bike_id": "64f36155b347e968f4c8b1d09eda5b46", "name": "64f36155b347e968f4c8b1d09eda5b46", "is_disabled": 0, "fusion_lon": 0.0, "rental_uris": {"android": "https://dc.lft.to/lastmile_qr_scan", "ios": "https://dc.lft.to/lastmile_qr_scan"}, "type": "electric_bike", "fusion_lat": 0.0, "lat": 38.952497, "lon": -77.096211, "is_reserved": 0}, {"bike_id": "b58983a39b1d587ff92c2b132fb9d0f1", "name": "b58983a39b1d587ff92c2b132fb9d0f1", "is_disabled": 0, "fusion_lon": 0.0, "rental_uris": {"android": "https://dc.lft.to/lastmile_qr_scan", "ios": "https://dc.lft.to/lastmile_qr_scan"}, "type": "electric_bike", "fusion_lat": 0.0, "lat": 38.8919815, "lon": -77.03390083333333, "is_reserved": 0}, {"bike_id": "080122f7bdd6e1ea31569187d83f9faa", "name": "080122f7bdd6e1ea31569187d83f9faa", "is_disabled": 0, "fusion_lon": 0.0, "rental_uris": {"android": "https://dc.lft.to/lastmile_qr_scan", "ios": "https://dc.lft.to/lastmile_qr_scan"}, "type": "electric_scooter", "fusion_lat": 0.0, "lat": 38.923648666666665, "lon": -77.05128316666666, "is_reserved": 0}, {"bike_id": "ee501fd2c8818320912b807998324503", "name": "ee501fd2c8818320912b807998324503", "is_disabled": 0, "fusion_lon": 0.0, "rental_uris": {"android": "https://dc.lft.to/lastmile_qr_scan", "ios": "https://dc.lft.to/lastmile_qr_scan"}, "type": "electric_scooter", "fusion_lat": 0.0, "lat": 38.902365333333336, "lon": -77.027376, "is_reserved": 0}, {"bike_id": "32c460444b2b67995d763c1713d53bc6", "name": "32c460444b2b67995d763c1713d53bc6", "is_disabled": 0, "fusion_lon": 0.0, "rental_uris": {"android": "https://dc.lft.to/lastmile_qr_scan", "ios": "https://dc.lft.to/lastmile_qr_scan"}, "type": "electric_bike", "fusion_lat": 0.0, "lat": 38.96474166666667, "lon": -77.0356435, "is_reserved": 0}, {"bike_id": "8243f8551dd6469295b35eb03b17ea6b", "name": "8243f8551dd6469295b35eb03b17ea6b", "is_disabled": 0, "fusion_lon": 0.0, "rental_uris": {"android": "https://dc.lft.to/lastmile_qr_scan", "ios": "https://dc.lft.to/lastmile_qr_scan"}, "type": "electric_scooter", "fusion_lat": 0.0, "lat": 38.898256833333335, "lon": -77.01262416666667, "is_reserved": 0}, {"bike_id": "dcc0b04d1e6aa92c119cc44bfeb89a25", "name": "dcc0b04d1e6aa92c119cc44bfeb89a25", "is_disabled": 0, "fusion_lon": 0.0, "rental_uris": {"android": "https://dc.lft.to/lastmile_qr_scan", "ios": "https://dc.lft.to/lastmile_qr_scan"}, "type": "electric_scooter", "fusion_lat": 0.0, "lat": 38.89861766666667, "lon": -77.03936883333333, "is_reserved": 0}, {"bike_id": "d6984e5e76ff47c981a50ada239f24c5", "name": "d6984e5e76ff47c981a50ada239f24c5", "is_disabled": 0, "fusion_lon": 0.0, "rental_uris": {"android": "https://dc.lft.to/lastmile_qr_scan", "ios": "https://dc.lft.to/lastmile_qr_scan"}, "type": "electric_bike", "fusion_lat": 0.0, "lat": 38.809842833333335, "lon": -77.07653466666666, "is_reserved": 0}, {"bike_id": "dda3350aa0fa7c83d7e755d2c3d79499", "name": "dda3350aa0fa7c83d7e755d2c3d79499", "is_disabled": 0, "fusion_lon": 0.0, "rental_uris": {"android": "https://dc.lft.to/lastmile_qr_scan", "ios": "https://dc.lft.to/lastmile_qr_scan"}, "type": "electric_scooter", "fusion_lat": 0.0, "lat": 38.89884383333333, "lon": -77.05276533333333, "is_reserved": 0}, {"bike_id": "eb20edf4492203ae3e4e5a66d00064fe", "name": "eb20edf4492203ae3e4e5a66d00064fe", "is_disabled": 0, "fusion_lon": 0.0, "rental_uris": {"android": "https://dc.lft.to/lastmile_qr_scan", "ios": "https://dc.lft.to/lastmile_qr_scan"}, "type": "electric_scooter", "fusion_lat": 0.0, "lat": 38.926433833333334, "lon": -77.0384065, "is_reserved": 0}, {"bike_id": "635890c0c8bfe9933b899cc0bd8a103d", "name": "635890c0c8bfe9933b899cc0bd8a103d", "is_disabled": 0, "fusion_lon": 0.0, "rental_uris": {"android": "https://dc.lft.to/lastmile_qr_scan", "ios": "https://dc.lft.to/lastmile_qr_scan"}, "type": "electric_scooter", "fusion_lat": 0.0, "lat": 38.9039, "lon": -77.00596466666667, "is_reserved": 0}, {"bike_id": "8f13e8d6b71d8c88f4b652e9d8d105cd", "name": "8f13e8d6b71d8c88f4b652e9d8d105cd", "is_disabled": 0, "fusion_lon": 0.0, "rental_uris": {"android": "https://dc.lft.to/lastmile_qr_scan", "ios": "https://dc.lft.to/lastmile_qr_scan"}, "type": "electric_scooter", "fusion_lat": 0.0, "lat": 38.924169166666665, "lon": -77.02135683333333, "is_reserved": 0}, {"bike_id": "992183195c50bf6960180360541b8d80", "name": "992183195c50bf6960180360541b8d80", "is_disabled": 0, "fusion_lon": 0.0, "rental_uris": {"android": "https://dc.lft.to/lastmile_qr_scan", "ios": "https://dc.lft.to/lastmile_qr_scan"}, "type": "electric_scooter", "fusion_lat": 0.0, "lat": 38.89631633333333, "lon": -77.02859283333333, "is_reserved": 0}, {"bike_id": "62ced472671f6fd5890693335b2d248e", "name": "62ced472671f6fd5890693335b2d248e", "is_disabled": 0, "fusion_lon": 0.0, "rental_uris": {"android": "https://dc.lft.to/lastmile_qr_scan", "ios": "https://dc.lft.to/lastmile_qr_scan"}, "type": "electric_scooter", "fusion_lat": 0.0, "lat": 38.9087555, "lon": -77.0404755, "is_reserved": 0}, {"bike_id": "8fbd19f9b845ff4b4b6ba225e7faeb75", "name": "8fbd19f9b845ff4b4b6ba225e7faeb75", "is_disabled": 0, "fusion_lon": 0.0, "rental_uris": {"android": "https://dc.lft.to/lastmile_qr_scan", "ios": "https://dc.lft.to/lastmile_qr_scan"}, "type": "electric_scooter", "fusion_lat": 0.0, "lat": 38.899181666666664, "lon": -77.0478225, "is_reserved": 0}, {"bike_id": "057c8cf5572c7418b32daa670e3b2dbf", "name": "057c8cf5572c7418b32daa670e3b2dbf", "is_disabled": 0, "fusion_lon": 0.0, "rental_uris": {"android": "https://dc.lft.to/lastmile_qr_scan", "ios": "https://dc.lft.to/lastmile_qr_scan"}, "type": "electric_scooter", "fusion_lat": 0.0, "lat": 38.91266816666667, "lon": -77.03866366666666, "is_reserved": 0}, {"bike_id": "b547bf8bea39d3539c08e64e6207df17", "name": "b547bf8bea39d3539c08e64e6207df17", "is_disabled": 0, "fusion_lon": 0.0, "rental_uris": {"android": "https://dc.lft.to/lastmile_qr_scan", "ios": "https://dc.lft.to/lastmile_qr_scan"}, "type": "electric_scooter", "fusion_lat": 0.0, "lat": 38.90144183333334, "lon": -77.02992066666667, "is_reserved": 0}, {"bike_id": "ea51b1133c1318d752e149c6b79c0a2b", "name": "ea51b1133c1318d752e149c6b79c0a2b", "is_disabled": 0, "fusion_lon": 0.0, "rental_uris": {"android": "https://dc.lft.to/lastmile_qr_scan", "ios": "https://dc.lft.to/lastmile_qr_scan"}, "type": "electric_scooter", "fusion_lat": 0.0, "lat": 38.89242683333333, "lon": -77.0317675, "is_reserved": 0}, {"bike_id": "d8d4b2437b672e418bb7b649d631905e", "name": "d8d4b2437b672e418bb7b649d631905e", "is_disabled": 0, "fusion_lon": 0.0, "rental_uris": {"android": "https://dc.lft.to/lastmile_qr_scan", "ios": "https://dc.lft.to/lastmile_qr_scan"}, "type": "electric_scooter", "fusion_lat": 0.0, "lat": 38.887423166666665, "lon": -77.02824316666667, "is_reserved": 0}, {"bike_id": "491d31c8d304ef5974ffdde4150ec043", "name": "491d31c8d304ef5974ffdde4150ec043", "is_disabled": 0, "fusion_lon": 0.0, "rental_uris": {"android": "https://dc.lft.to/lastmile_qr_scan", "ios": "https://dc.lft.to/lastmile_qr_scan"}, "type": "electric_scooter", "fusion_lat": 0.0, "lat": 38.92453833333333, "lon": -77.021516, "is_reserved": 0}, {"bike_id": "03dc8adc8bb191d3de18c19954a62f5a", "name": "03dc8adc8bb191d3de18c19954a62f5a", "is_disabled": 0, "fusion_lon": 0.0, "rental_uris": {"android": "https://dc.lft.to/lastmile_qr_scan", "ios": "https://dc.lft.to/lastmile_qr_scan"}, "type": "electric_scooter", "fusion_lat": 0.0, "lat": 38.886519, "lon": -77.00110983333333, "is_reserved": 0}, {"bike_id": "85e47b909f44a84797e2db1edb11f895", "name": "85e47b909f44a84797e2db1edb11f895", "is_disabled": 0, "fusion_lon": 0.0, "rental_uris": {"android": "https://dc.lft.to/lastmile_qr_scan", "ios": "https://dc.lft.to/lastmile_qr_scan"}, "type": "electric_scooter", "fusion_lat": 0.0, "lat": 38.923245333333334, "lon": -77.0194675, "is_reserved": 0}, {"bike_id": "7e8a7b5321ad3c3622c76f032bb8c356", "name": "7e8a7b5321ad3c3622c76f032bb8c356", "is_disabled": 0, "fusion_lon": 0.0, "rental_uris": {"android": "https://dc.lft.to/lastmile_qr_scan", "ios": "https://dc.lft.to/lastmile_qr_scan"}, "type": "electric_scooter", "fusion_lat": 0.0, "lat": 38.90800383333333, "lon": -77.0318035, "is_reserved": 0}, {"bike_id": "07c65d6eaeae9e24b67753398a1f1b09", "name": "07c65d6eaeae9e24b67753398a1f1b09", "is_disabled": 0, "fusion_lon": 0.0, "rental_uris": {"android": "https://dc.lft.to/lastmile_qr_scan", "ios": "https://dc.lft.to/lastmile_qr_scan"}, "type": "electric_scooter", "fusion_lat": 0.0, "lat": 38.91991016666667, "lon": -76.973015, "is_reserved": 0}, {"bike_id": "18ba526693dc9321864602fe4f8d5dd0", "name": "18ba526693dc9321864602fe4f8d5dd0", "is_disabled": 0, "fusion_lon": 0.0, "rental_uris": {"android": "https://dc.lft.to/lastmile_qr_scan", "ios": "https://dc.lft.to/lastmile_qr_scan"}, "type": "electric_scooter", "fusion_lat": 0.0, "lat": 38.9014095, "lon": -77.04029633333333, "is_reserved": 0}, {"bike_id": "dad78503b2da8ef3ccdaf7449194944f", "name": "dad78503b2da8ef3ccdaf7449194944f", "is_disabled": 0, "fusion_lon": 0.0, "rental_uris": {"android": "https://dc.lft.to/lastmile_qr_scan", "ios": "https://dc.lft.to/lastmile_qr_scan"}, "type": "electric_scooter", "fusion_lat": 0.0, "lat": 38.900384, "lon": -76.9973505, "is_reserved": 0}, {"bike_id": "b4359f2ccaa22ab24d879884bff5b189", "name": "b4359f2ccaa22ab24d879884bff5b189", "is_disabled": 0, "fusion_lon": 0.0, "rental_uris": {"android": "https://dc.lft.to/lastmile_qr_scan", "ios": "https://dc.lft.to/lastmile_qr_scan"}, "type": "electric_scooter", "fusion_lat": 0.0, "lat": 38.91456866666667, "lon": -77.02178216666667, "is_reserved": 0}, {"bike_id": "1d70d7912a4a09cd3d49dcef5ad846be", "name": "1d70d7912a4a09cd3d49dcef5ad846be", "is_disabled": 0, "fusion_lon": 0.0, "rental_uris": {"android": "https://dc.lft.to/lastmile_qr_scan", "ios": "https://dc.lft.to/lastmile_qr_scan"}, "type": "electric_scooter", "fusion_lat": 0.0, "lat": 38.903861, "lon": -77.05336, "is_reserved": 0}, {"bike_id": "9ad29de465ff65c7b2e72d5444632963", "name": "9ad29de465ff65c7b2e72d5444632963", "is_disabled": 0, "fusion_lon": 0.0, "rental_uris": {"android": "https://dc.lft.to/lastmile_qr_scan", "ios": "https://dc.lft.to/lastmile_qr_scan"}, "type": "electric_scooter", "fusion_lat": 0.0, "lat": 38.910020333333335, "lon": -77.03181766666667, "is_reserved": 0}, {"bike_id": "b3453480f7de6dbca6d48ec0f95abdbc", "name": "b3453480f7de6dbca6d48ec0f95abdbc", "is_disabled": 0, "fusion_lon": 0.0, "rental_uris": {"android": "https://dc.lft.to/lastmile_qr_scan", "ios": "https://dc.lft.to/lastmile_qr_scan"}, "type": "electric_scooter", "fusion_lat": 0.0, "lat": 38.90322366666667, "lon": -77.03655, "is_reserved": 0}, {"bike_id": "55fae3ef930be2b3888c21f391e4ac7b", "name": "55fae3ef930be2b3888c21f391e4ac7b", "is_disabled": 0, "fusion_lon": 0.0, "rental_uris": {"android": "https://dc.lft.to/lastmile_qr_scan", "ios": "https://dc.lft.to/lastmile_qr_scan"}, "type": "electric_scooter", "fusion_lat": 0.0, "lat": 38.939515666666665, "lon": -77.072341, "is_reserved": 0}, {"bike_id": "31b2e437c82ed9b8004af9b8db5315ca", "name": "31b2e437c82ed9b8004af9b8db5315ca", "is_disabled": 0, "fusion_lon": 0.0, "rental_uris": {"android": "https://dc.lft.to/lastmile_qr_scan", "ios": "https://dc.lft.to/lastmile_qr_scan"}, "type": "electric_scooter", "fusion_lat": 0.0, "lat": 38.89356083333333, "lon": -77.0028795, "is_reserved": 0}, {"bike_id": "fa472fd59c50dcfdc29781b0d9b8240b", "name": "fa472fd59c50dcfdc29781b0d9b8240b", "is_disabled": 0, "fusion_lon": 0.0, "rental_uris": {"android": "https://dc.lft.to/lastmile_qr_scan", "ios": "https://dc.lft.to/lastmile_qr_scan"}, "type": "electric_scooter", "fusion_lat": 0.0, "lat": 38.90130583333333, "lon": -76.99159233333333, "is_reserved": 0}, {"bike_id": "68169d3a90e139519efa847f9170fd5a", "name": "68169d3a90e139519efa847f9170fd5a", "is_disabled": 0, "fusion_lon": 0.0, "rental_uris": {"android": "https://dc.lft.to/lastmile_qr_scan", "ios": "https://dc.lft.to/lastmile_qr_scan"}, "type": "electric_scooter", "fusion_lat": 0.0, "lat": 38.89977016666667, "lon": -77.02570633333333, "is_reserved": 0}, {"bike_id": "fb747bb6a61e69e175a70a5187c7779f", "name": "fb747bb6a61e69e175a70a5187c7779f", "is_disabled": 0, "fusion_lon": 0.0, "rental_uris": {"android": "https://dc.lft.to/lastmile_qr_scan", "ios": "https://dc.lft.to/lastmile_qr_scan"}, "type": "electric_scooter", "fusion_lat": 0.0, "lat": 38.88020733333333, "lon": -77.02480116666666, "is_reserved": 0}, {"bike_id": "7a09659388ac5a6bdc1bc5147067b8f8", "name": "7a09659388ac5a6bdc1bc5147067b8f8", "is_disabled": 0, "fusion_lon": 0.0, "rental_uris": {"android": "https://dc.lft.to/lastmile_qr_scan", "ios": "https://dc.lft.to/lastmile_qr_scan"}, "type": "electric_scooter", "fusion_lat": 0.0, "lat": 38.917018166666665, "lon": -77.03352116666667, "is_reserved": 0}, {"bike_id": "3d68ff508c58e5f62fbfa437b434e435", "name": "3d68ff508c58e5f62fbfa437b434e435", "is_disabled": 0, "fusion_lon": 0.0, "rental_uris": {"android": "https://dc.lft.to/lastmile_qr_scan", "ios": "https://dc.lft.to/lastmile_qr_scan"}, "type": "electric_scooter", "fusion_lat": 0.0, "lat": 38.91550066666667, "lon": -77.0366, "is_reserved": 0}, {"bike_id": "830fdca8732b0ab1430219a9703159db", "name": "830fdca8732b0ab1430219a9703159db", "is_disabled": 0, "fusion_lon": 0.0, "rental_uris": {"android": "https://dc.lft.to/lastmile_qr_scan", "ios": "https://dc.lft.to/lastmile_qr_scan"}, "type": "electric_scooter", "fusion_lat": 0.0, "lat": 38.904758, "lon": -77.03570083333334, "is_reserved": 0}, {"bike_id": "777dcc962ae94e7f00f29073d14bbd5b", "name": "777dcc962ae94e7f00f29073d14bbd5b", "is_disabled": 0, "fusion_lon": 0.0, "rental_uris": {"android": "https://dc.lft.to/lastmile_qr_scan", "ios": "https://dc.lft.to/lastmile_qr_scan"}, "type": "electric_scooter", "fusion_lat": 0.0, "lat": 38.92090866666667, "lon": -77.06271866666667, "is_reserved": 0}, {"bike_id": "60d9298c97f5066958d33384684760c1", "name": "60d9298c97f5066958d33384684760c1", "is_disabled": 0, "fusion_lon": 0.0, "rental_uris": {"android": "https://dc.lft.to/lastmile_qr_scan", "ios": "https://dc.lft.to/lastmile_qr_scan"}, "type": "electric_scooter", "fusion_lat": 0.0, "lat": 38.8801085, "lon": -77.02481883333333, "is_reserved": 0}, {"bike_id": "3e69e9ee66bfe732b96493a254725b33", "name": "3e69e9ee66bfe732b96493a254725b33", "is_disabled": 0, "fusion_lon": 0.0, "rental_uris": {"android": "https://dc.lft.to/lastmile_qr_scan", "ios": "https://dc.lft.to/lastmile_qr_scan"}, "type": "electric_scooter", "fusion_lat": 0.0, "lat": 38.897393666666666, "lon": -76.99221766666666, "is_reserved": 0}, {"bike_id": "12930f9145c98175b60624af0f8abb61", "name": "12930f9145c98175b60624af0f8abb61", "is_disabled": 0, "fusion_lon": 0.0, "rental_uris": {"android": "https://dc.lft.to/lastmile_qr_scan", "ios": "https://dc.lft.to/lastmile_qr_scan"}, "type": "electric_scooter", "fusion_lat": 0.0, "lat": 38.90582783333333, "lon": -77.021845, "is_reserved": 0}, {"bike_id": "ce19b50c8ab56d418429e96956f90a46", "name": "ce19b50c8ab56d418429e96956f90a46", "is_disabled": 0, "fusion_lon": 0.0, "rental_uris": {"android": "https://dc.lft.to/lastmile_qr_scan", "ios": "https://dc.lft.to/lastmile_qr_scan"}, "type": "electric_scooter", "fusion_lat": 0.0, "lat": 38.917329, "lon": -77.0416855, "is_reserved": 0}, {"bike_id": "bcd8cda95cfcab4f944e1b34086335b4", "name": "bcd8cda95cfcab4f944e1b34086335b4", "is_disabled": 0, "fusion_lon": 0.0, "rental_uris": {"android": "https://dc.lft.to/lastmile_qr_scan", "ios": "https://dc.lft.to/lastmile_qr_scan"}, "type": "electric_scooter", "fusion_lat": 0.0, "lat": 38.916311, "lon": -77.025422, "is_reserved": 0}, {"bike_id": "69c1b3ea6d2c845cf00bc57ec61e076b", "name": "69c1b3ea6d2c845cf00bc57ec61e076b", "is_disabled": 0, "fusion_lon": 0.0, "rental_uris": {"android": "https://dc.lft.to/lastmile_qr_scan", "ios": "https://dc.lft.to/lastmile_qr_scan"}, "type": "electric_scooter", "fusion_lat": 0.0, "lat": 38.89473366666667, "lon": -77.00146416666666, "is_reserved": 0}, {"bike_id": "86317ff6b8a6ced175dd678ee6bf6e44", "name": "86317ff6b8a6ced175dd678ee6bf6e44", "is_disabled": 0, "fusion_lon": 0.0, "rental_uris": {"android": "https://dc.lft.to/lastmile_qr_scan", "ios": "https://dc.lft.to/lastmile_qr_scan"}, "type": "electric_scooter", "fusion_lat": 0.0, "lat": 38.899778833333336, "lon": -77.02630516666666, "is_reserved": 0}, {"bike_id": "b47ea734418e19bccc24784a84e8f5fc", "name": "b47ea734418e19bccc24784a84e8f5fc", "is_disabled": 0, "fusion_lon": 0.0, "rental_uris": {"android": "https://dc.lft.to/lastmile_qr_scan", "ios": "https://dc.lft.to/lastmile_qr_scan"}, "type": "electric_scooter", "fusion_lat": 0.0, "lat": 38.900851333333335, "lon": -77.0268875, "is_reserved": 0}, {"bike_id": "43f474f770db89473b0e4f484e34cbc0", "name": "43f474f770db89473b0e4f484e34cbc0", "is_disabled": 0, "fusion_lon": 0.0, "rental_uris": {"android": "https://dc.lft.to/lastmile_qr_scan", "ios": "https://dc.lft.to/lastmile_qr_scan"}, "type": "electric_scooter", "fusion_lat": 0.0, "lat": 38.904552, "lon": -77.03452116666666, "is_reserved": 0}, {"bike_id": "5b66bb33dc6781f3f11e723129cdb5d6", "name": "5b66bb33dc6781f3f11e723129cdb5d6", "is_disabled": 0, "fusion_lon": 0.0, "rental_uris": {"android": "https://dc.lft.to/lastmile_qr_scan", "ios": "https://dc.lft.to/lastmile_qr_scan"}, "type": "electric_scooter", "fusion_lat": 0.0, "lat": 38.927419666666665, "lon": -77.0120385, "is_reserved": 0}, {"bike_id": "1dbc1f4c7d373b79fed52fe042a56535", "name": "1dbc1f4c7d373b79fed52fe042a56535", "is_disabled": 0, "fusion_lon": 0.0, "rental_uris": {"android": "https://dc.lft.to/lastmile_qr_scan", "ios": "https://dc.lft.to/lastmile_qr_scan"}, "type": "electric_scooter", "fusion_lat": 0.0, "lat": 38.883671166666666, "lon": -76.941545, "is_reserved": 0}, {"bike_id": "f64a9efeb373f6cc3cff486f1831aa01", "name": "f64a9efeb373f6cc3cff486f1831aa01", "is_disabled": 0, "fusion_lon": 0.0, "rental_uris": {"android": "https://dc.lft.to/lastmile_qr_scan", "ios": "https://dc.lft.to/lastmile_qr_scan"}, "type": "electric_scooter", "fusion_lat": 0.0, "lat": 38.898347333333334, "lon": -77.0393435, "is_reserved": 0}, {"bike_id": "b36f3c8e04c5c4ee1ea22811537d9496", "name": "b36f3c8e04c5c4ee1ea22811537d9496", "is_disabled": 0, "fusion_lon": 0.0, "rental_uris": {"android": "https://dc.lft.to/lastmile_qr_scan", "ios": "https://dc.lft.to/lastmile_qr_scan"}, "type": "electric_scooter", "fusion_lat": 0.0, "lat": 38.93737566666667, "lon": -77.03279366666666, "is_reserved": 0}, {"bike_id": "d83d5a33aba060e2357161904fdddc0e", "name": "d83d5a33aba060e2357161904fdddc0e", "is_disabled": 0, "fusion_lon": 0.0, "rental_uris": {"android": "https://dc.lft.to/lastmile_qr_scan", "ios": "https://dc.lft.to/lastmile_qr_scan"}, "type": "electric_bike", "fusion_lat": 0.0, "lat": 38.87170666666667, "lon": -77.23387083333333, "is_reserved": 0}, {"bike_id": "9c250cd8e1c33d4c51d2c59d0eff996b", "name": "9c250cd8e1c33d4c51d2c59d0eff996b", "is_disabled": 0, "fusion_lon": 0.0, "rental_uris": {"android": "https://dc.lft.to/lastmile_qr_scan", "ios": "https://dc.lft.to/lastmile_qr_scan"}, "type": "electric_scooter", "fusion_lat": 0.0, "lat": 38.9232035, "lon": -77.01952066666666, "is_reserved": 0}, {"bike_id": "c8be9eae3e40f12e56d0c7bfb736266f", "name": "c8be9eae3e40f12e56d0c7bfb736266f", "is_disabled": 0, "fusion_lon": 0.0, "rental_uris": {"android": "https://dc.lft.to/lastmile_qr_scan", "ios": "https://dc.lft.to/lastmile_qr_scan"}, "type": "electric_bike", "fusion_lat": 0.0, "lat": 38.9781285, "lon": -77.094042, "is_reserved": 0}, {"bike_id": "79f197d4ea6cede8bec555c1283aea4b", "name": "79f197d4ea6cede8bec555c1283aea4b", "is_disabled": 0, "fusion_lon": 0.0, "rental_uris": {"android": "https://dc.lft.to/lastmile_qr_scan", "ios": "https://dc.lft.to/lastmile_qr_scan"}, "type": "electric_scooter", "fusion_lat": 0.0, "lat": 38.9022015, "lon": -77.02296816666667, "is_reserved": 0}, {"bike_id": "06b7e71eec4e035cd0767012450ee84a", "name": "06b7e71eec4e035cd0767012450ee84a", "is_disabled": 0, "fusion_lon": 0.0, "rental_uris": {"android": "https://dc.lft.to/lastmile_qr_scan", "ios": "https://dc.lft.to/lastmile_qr_scan"}, "type": "electric_scooter", "fusion_lat": 0.0, "lat": 38.8728475, "lon": -77.01516216666667, "is_reserved": 0}, {"bike_id": "b020e30403aabbef37a2c8a65ef629f3", "name": "b020e30403aabbef37a2c8a65ef629f3", "is_disabled": 0, "fusion_lon": 0.0, "rental_uris": {"android": "https://dc.lft.to/lastmile_qr_scan", "ios": "https://dc.lft.to/lastmile_qr_scan"}, "type": "electric_bike", "fusion_lat": 0.0, "lat": 38.8073705, "lon": -77.096852, "is_reserved": 0}, {"bike_id": "49214e18b4db1f4c84f212dbb8c6b2b9", "name": "49214e18b4db1f4c84f212dbb8c6b2b9", "is_disabled": 0, "fusion_lon": 0.0, "rental_uris": {"android": "https://dc.lft.to/lastmile_qr_scan", "ios": "https://dc.lft.to/lastmile_qr_scan"}, "type": "electric_scooter", "fusion_lat": 0.0, "lat": 38.938994666666666, "lon": -77.02483083333334, "is_reserved": 0}, {"bike_id": "1e10a3419f0444e0d2ea9686a3b3e6e3", "name": "1e10a3419f0444e0d2ea9686a3b3e6e3", "is_disabled": 0, "fusion_lon": 0.0, "rental_uris": {"android": "https://dc.lft.to/lastmile_qr_scan", "ios": "https://dc.lft.to/lastmile_qr_scan"}, "type": "electric_scooter", "fusion_lat": 0.0, "lat": 38.8910145, "lon": -76.999002, "is_reserved": 0}, {"bike_id": "69f0c503aad347af14743d7d9e5fda9b", "name": "69f0c503aad347af14743d7d9e5fda9b", "is_disabled": 0, "fusion_lon": 0.0, "rental_uris": {"android": "https://dc.lft.to/lastmile_qr_scan", "ios": "https://dc.lft.to/lastmile_qr_scan"}, "type": "electric_bike", "fusion_lat": 0.0, "lat": 39.022982, "lon": -77.02102416666666, "is_reserved": 0}, {"bike_id": "df6937b108460f744109a596c8697e8b", "name": "df6937b108460f744109a596c8697e8b", "is_disabled": 0, "fusion_lon": 0.0, "rental_uris": {"android": "https://dc.lft.to/lastmile_qr_scan", "ios": "https://dc.lft.to/lastmile_qr_scan"}, "type": "electric_scooter", "fusion_lat": 0.0, "lat": 38.90269416666667, "lon": -77.01758916666667, "is_reserved": 0}, {"bike_id": "529be3c51f754a991c7a758dec96cc45", "name": "529be3c51f754a991c7a758dec96cc45", "is_disabled": 0, "fusion_lon": 0.0, "rental_uris": {"android": "https://dc.lft.to/lastmile_qr_scan", "ios": "https://dc.lft.to/lastmile_qr_scan"}, "type": "electric_scooter", "fusion_lat": 0.0, "lat": 38.8996565, "lon": -77.0263045, "is_reserved": 0}, {"bike_id": "cddc76f49b8869b194ae3dfe4ac0c512", "name": "cddc76f49b8869b194ae3dfe4ac0c512", "is_disabled": 0, "fusion_lon": 0.0, "rental_uris": {"android": "https://dc.lft.to/lastmile_qr_scan", "ios": "https://dc.lft.to/lastmile_qr_scan"}, "type": "electric_bike", "fusion_lat": 0.0, "lat": 38.97477033333333, "lon": -76.98660616666666, "is_reserved": 0}, {"bike_id": "8406c3654ac27f5730cfbb3c8350fd2b", "name": "8406c3654ac27f5730cfbb3c8350fd2b", "is_disabled": 0, "fusion_lon": 0.0, "rental_uris": {"android": "https://dc.lft.to/lastmile_qr_scan", "ios": "https://dc.lft.to/lastmile_qr_scan"}, "type": "electric_scooter", "fusion_lat": 0.0, "lat": 38.89394, "lon": -77.02440783333333, "is_reserved": 0}, {"bike_id": "fee9bdb57a80abd235abb3b8a37fbbb0", "name": "fee9bdb57a80abd235abb3b8a37fbbb0", "is_disabled": 0, "fusion_lon": 0.0, "rental_uris": {"android": "https://dc.lft.to/lastmile_qr_scan", "ios": "https://dc.lft.to/lastmile_qr_scan"}, "type": "electric_bike", "fusion_lat": 0.0, "lat": 38.89424066666667, "lon": -77.09445383333333, "is_reserved": 0}, {"bike_id": "6c4ec08388476412f4209fd5a134d406", "name": "6c4ec08388476412f4209fd5a134d406", "is_disabled": 0, "fusion_lon": 0.0, "rental_uris": {"android": "https://dc.lft.to/lastmile_qr_scan", "ios": "https://dc.lft.to/lastmile_qr_scan"}, "type": "electric_scooter", "fusion_lat": 0.0, "lat": 38.92148483333333, "lon": -77.020572, "is_reserved": 0}, {"bike_id": "e17a9d22a36917855936cf4eab13dc01", "name": "e17a9d22a36917855936cf4eab13dc01", "is_disabled": 0, "fusion_lon": 0.0, "rental_uris": {"android": "https://dc.lft.to/lastmile_qr_scan", "ios": "https://dc.lft.to/lastmile_qr_scan"}, "type": "electric_scooter", "fusion_lat": 0.0, "lat": 38.92948416666667, "lon": -77.055087, "is_reserved": 0}, {"bike_id": "037c88e443d7c7d5b53a6f0d0d3c5d3d", "name": "037c88e443d7c7d5b53a6f0d0d3c5d3d", "is_disabled": 0, "fusion_lon": 0.0, "rental_uris": {"android": "https://dc.lft.to/lastmile_qr_scan", "ios": "https://dc.lft.to/lastmile_qr_scan"}, "type": "electric_scooter", "fusion_lat": 0.0, "lat": 38.90052333333333, "lon": -77.02958183333334, "is_reserved": 0}, {"bike_id": "f321a89fb40910df7a668a1b268fd064", "name": "f321a89fb40910df7a668a1b268fd064", "is_disabled": 0, "fusion_lon": 0.0, "rental_uris": {"android": "https://dc.lft.to/lastmile_qr_scan", "ios": "https://dc.lft.to/lastmile_qr_scan"}, "type": "electric_scooter", "fusion_lat": 0.0, "lat": 38.92330416666667, "lon": -77.04305766666667, "is_reserved": 0}, {"bike_id": "e0f75159718b0b0130b870e7bbcda162", "name": "e0f75159718b0b0130b870e7bbcda162", "is_disabled": 0, "fusion_lon": 0.0, "rental_uris": {"android": "https://dc.lft.to/lastmile_qr_scan", "ios": "https://dc.lft.to/lastmile_qr_scan"}, "type": "electric_scooter", "fusion_lat": 0.0, "lat": 38.89972483333333, "lon": -77.023728, "is_reserved": 0}, {"bike_id": "7fe532b80e6265acec92b4fab9a73c28", "name": "7fe532b80e6265acec92b4fab9a73c28", "is_disabled": 0, "fusion_lon": 0.0, "rental_uris": {"android": "https://dc.lft.to/lastmile_qr_scan", "ios": "https://dc.lft.to/lastmile_qr_scan"}, "type": "electric_scooter", "fusion_lat": 0.0, "lat": 38.92053416666667, "lon": -77.041878, "is_reserved": 0}, {"bike_id": "d68ce080ee90791d2d2e940ab5edd9d2", "name": "d68ce080ee90791d2d2e940ab5edd9d2", "is_disabled": 0, "fusion_lon": 0.0, "rental_uris": {"android": "https://dc.lft.to/lastmile_qr_scan", "ios": "https://dc.lft.to/lastmile_qr_scan"}, "type": "electric_scooter", "fusion_lat": 0.0, "lat": 38.919181, "lon": -77.03392366666667, "is_reserved": 0}, {"bike_id": "ad4a1b6911c33bc5a9272e671af7c294", "name": "ad4a1b6911c33bc5a9272e671af7c294", "is_disabled": 0, "fusion_lon": 0.0, "rental_uris": {"android": "https://dc.lft.to/lastmile_qr_scan", "ios": "https://dc.lft.to/lastmile_qr_scan"}, "type": "electric_scooter", "fusion_lat": 0.0, "lat": 38.93071716666667, "lon": -77.03729883333334, "is_reserved": 0}, {"bike_id": "b0ce08af9f454e2744c3dd2b476d3d40", "name": "b0ce08af9f454e2744c3dd2b476d3d40", "is_disabled": 0, "fusion_lon": 0.0, "rental_uris": {"android": "https://dc.lft.to/lastmile_qr_scan", "ios": "https://dc.lft.to/lastmile_qr_scan"}, "type": "electric_scooter", "fusion_lat": 0.0, "lat": 38.892314, "lon": -77.0499695, "is_reserved": 0}, {"bike_id": "1f9f384aae5217f4a1be55c1aa886917", "name": "1f9f384aae5217f4a1be55c1aa886917", "is_disabled": 0, "fusion_lon": 0.0, "rental_uris": {"android": "https://dc.lft.to/lastmile_qr_scan", "ios": "https://dc.lft.to/lastmile_qr_scan"}, "type": "electric_scooter", "fusion_lat": 0.0, "lat": 38.90269516666667, "lon": -77.043248, "is_reserved": 0}, {"bike_id": "89aaebe4f5e6fd65b6956136a771e9a9", "name": "89aaebe4f5e6fd65b6956136a771e9a9", "is_disabled": 0, "fusion_lon": 0.0, "rental_uris": {"android": "https://dc.lft.to/lastmile_qr_scan", "ios": "https://dc.lft.to/lastmile_qr_scan"}, "type": "electric_scooter", "fusion_lat": 0.0, "lat": 38.9515155, "lon": -77.01866666666666, "is_reserved": 0}, {"bike_id": "bec28507adb4ce07ef893444d14351e3", "name": "bec28507adb4ce07ef893444d14351e3", "is_disabled": 0, "fusion_lon": 0.0, "rental_uris": {"android": "https://dc.lft.to/lastmile_qr_scan", "ios": "https://dc.lft.to/lastmile_qr_scan"}, "type": "electric_scooter", "fusion_lat": 0.0, "lat": 38.90656666666667, "lon": -77.02358683333334, "is_reserved": 0}, {"bike_id": "1bb8217ef2e763afaf773b807b923918", "name": "1bb8217ef2e763afaf773b807b923918", "is_disabled": 0, "fusion_lon": 0.0, "rental_uris": {"android": "https://dc.lft.to/lastmile_qr_scan", "ios": "https://dc.lft.to/lastmile_qr_scan"}, "type": "electric_scooter", "fusion_lat": 0.0, "lat": 38.92875383333333, "lon": -77.01367966666666, "is_reserved": 0}, {"bike_id": "fda7dd44f5b0f157e9b302b14bf08225", "name": "fda7dd44f5b0f157e9b302b14bf08225", "is_disabled": 0, "fusion_lon": 0.0, "rental_uris": {"android": "https://dc.lft.to/lastmile_qr_scan", "ios": "https://dc.lft.to/lastmile_qr_scan"}, "type": "electric_scooter", "fusion_lat": 0.0, "lat": 38.905387, "lon": -77.043173, "is_reserved": 0}, {"bike_id": "21a79b2bfdbb2ed3346b4aaa4460f16e", "name": "21a79b2bfdbb2ed3346b4aaa4460f16e", "is_disabled": 0, "fusion_lon": 0.0, "rental_uris": {"android": "https://dc.lft.to/lastmile_qr_scan", "ios": "https://dc.lft.to/lastmile_qr_scan"}, "type": "electric_scooter", "fusion_lat": 0.0, "lat": 38.92419966666667, "lon": -77.0193995, "is_reserved": 0}, {"bike_id": "7c27b9062ff5a525f1e4b4f61187b1c3", "name": "7c27b9062ff5a525f1e4b4f61187b1c3", "is_disabled": 0, "fusion_lon": 0.0, "rental_uris": {"android": "https://dc.lft.to/lastmile_qr_scan", "ios": "https://dc.lft.to/lastmile_qr_scan"}, "type": "electric_scooter", "fusion_lat": 0.0, "lat": 38.9260595, "lon": -77.05710033333334, "is_reserved": 0}, {"bike_id": "4090963722facb2fc5fad4cbdb9b16c5", "name": "4090963722facb2fc5fad4cbdb9b16c5", "is_disabled": 0, "fusion_lon": 0.0, "rental_uris": {"android": "https://dc.lft.to/lastmile_qr_scan", "ios": "https://dc.lft.to/lastmile_qr_scan"}, "type": "electric_scooter", "fusion_lat": 0.0, "lat": 38.915384333333336, "lon": -77.04475083333334, "is_reserved": 0}, {"bike_id": "4489233790694299463af4cfd14f3ea7", "name": "4489233790694299463af4cfd14f3ea7", "is_disabled": 0, "fusion_lon": 0.0, "rental_uris": {"android": "https://dc.lft.to/lastmile_qr_scan", "ios": "https://dc.lft.to/lastmile_qr_scan"}, "type": "electric_scooter", "fusion_lat": 0.0, "lat": 38.92603716666667, "lon": -77.02152566666666, "is_reserved": 0}, {"bike_id": "c07fc0c9bce475d29ad681a07f3e2439", "name": "c07fc0c9bce475d29ad681a07f3e2439", "is_disabled": 0, "fusion_lon": 0.0, "rental_uris": {"android": "https://dc.lft.to/lastmile_qr_scan", "ios": "https://dc.lft.to/lastmile_qr_scan"}, "type": "electric_scooter", "fusion_lat": 0.0, "lat": 38.89466616666667, "lon": -77.0225495, "is_reserved": 0}, {"bike_id": "5c14a6698a7d6a550d8e974cf544c0ac", "name": "5c14a6698a7d6a550d8e974cf544c0ac", "is_disabled": 0, "fusion_lon": 0.0, "rental_uris": {"android": "https://dc.lft.to/lastmile_qr_scan", "ios": "https://dc.lft.to/lastmile_qr_scan"}, "type": "electric_scooter", "fusion_lat": 0.0, "lat": 38.8977475, "lon": -77.01228566666667, "is_reserved": 0}, {"bike_id": "6abb564a99e66cdba8a7bff3822cf12c", "name": "6abb564a99e66cdba8a7bff3822cf12c", "is_disabled": 0, "fusion_lon": 0.0, "rental_uris": {"android": "https://dc.lft.to/lastmile_qr_scan", "ios": "https://dc.lft.to/lastmile_qr_scan"}, "type": "electric_scooter", "fusion_lat": 0.0, "lat": 38.92487216666667, "lon": -77.0575105, "is_reserved": 0}, {"bike_id": "3997cf9c8dd7b3895b06c845550fcde9", "name": "3997cf9c8dd7b3895b06c845550fcde9", "is_disabled": 0, "fusion_lon": 0.0, "rental_uris": {"android": "https://dc.lft.to/lastmile_qr_scan", "ios": "https://dc.lft.to/lastmile_qr_scan"}, "type": "electric_scooter", "fusion_lat": 0.0, "lat": 38.90578583333333, "lon": -77.02178616666667, "is_reserved": 0}, {"bike_id": "d45cfbeefee700afc115ad55bd81a044", "name": "d45cfbeefee700afc115ad55bd81a044", "is_disabled": 0, "fusion_lon": 0.0, "rental_uris": {"android": "https://dc.lft.to/lastmile_qr_scan", "ios": "https://dc.lft.to/lastmile_qr_scan"}, "type": "electric_scooter", "fusion_lat": 0.0, "lat": 38.905911, "lon": -76.9854145, "is_reserved": 0}, {"bike_id": "344221e3bb8099ac8dbfd8ceea09176b", "name": "344221e3bb8099ac8dbfd8ceea09176b", "is_disabled": 0, "fusion_lon": 0.0, "rental_uris": {"android": "https://dc.lft.to/lastmile_qr_scan", "ios": "https://dc.lft.to/lastmile_qr_scan"}, "type": "electric_scooter", "fusion_lat": 0.0, "lat": 38.89482016666667, "lon": -77.02653166666667, "is_reserved": 0}, {"bike_id": "b0e6c87106145775fc3becbcce661c68", "name": "b0e6c87106145775fc3becbcce661c68", "is_disabled": 0, "fusion_lon": 0.0, "rental_uris": {"android": "https://dc.lft.to/lastmile_qr_scan", "ios": "https://dc.lft.to/lastmile_qr_scan"}, "type": "electric_scooter", "fusion_lat": 0.0, "lat": 38.8977245, "lon": -77.01063516666666, "is_reserved": 0}, {"bike_id": "2b4fb78495a1cd8a9b5e70f6c0b21b80", "name": "2b4fb78495a1cd8a9b5e70f6c0b21b80", "is_disabled": 0, "fusion_lon": 0.0, "rental_uris": {"android": "https://dc.lft.to/lastmile_qr_scan", "ios": "https://dc.lft.to/lastmile_qr_scan"}, "type": "electric_scooter", "fusion_lat": 0.0, "lat": 38.908161166666666, "lon": -77.03581133333333, "is_reserved": 0}, {"bike_id": "4b85535c1b8d993614e8b9a7edca6a73", "name": "4b85535c1b8d993614e8b9a7edca6a73", "is_disabled": 0, "fusion_lon": 0.0, "rental_uris": {"android": "https://dc.lft.to/lastmile_qr_scan", "ios": "https://dc.lft.to/lastmile_qr_scan"}, "type": "electric_scooter", "fusion_lat": 0.0, "lat": 38.901975166666666, "lon": -77.02164416666666, "is_reserved": 0}, {"bike_id": "eab7aaf179ec2f923b6c6edf9be6bf0a", "name": "eab7aaf179ec2f923b6c6edf9be6bf0a", "is_disabled": 0, "fusion_lon": 0.0, "rental_uris": {"android": "https://dc.lft.to/lastmile_qr_scan", "ios": "https://dc.lft.to/lastmile_qr_scan"}, "type": "electric_bike", "fusion_lat": 0.0, "lat": 38.8221005, "lon": -76.97699983333334, "is_reserved": 0}, {"bike_id": "a640a6ea87f95d9dbc731d7709b14b1b", "name": "a640a6ea87f95d9dbc731d7709b14b1b", "is_disabled": 0, "fusion_lon": 0.0, "rental_uris": {"android": "https://dc.lft.to/lastmile_qr_scan", "ios": "https://dc.lft.to/lastmile_qr_scan"}, "type": "electric_scooter", "fusion_lat": 0.0, "lat": 38.9292155, "lon": -77.03485933333333, "is_reserved": 0}, {"bike_id": "0687d13c44ee3ea5bfae5a690be3f041", "name": "0687d13c44ee3ea5bfae5a690be3f041", "is_disabled": 0, "fusion_lon": 0.0, "rental_uris": {"android": "https://dc.lft.to/lastmile_qr_scan", "ios": "https://dc.lft.to/lastmile_qr_scan"}, "type": "electric_bike", "fusion_lat": 0.0, "lat": 38.95694733333333, "lon": -77.0222585, "is_reserved": 0}, {"bike_id": "c0a54553e39aebed176e93e85c9dbf72", "name": "c0a54553e39aebed176e93e85c9dbf72", "is_disabled": 0, "fusion_lon": 0.0, "rental_uris": {"android": "https://dc.lft.to/lastmile_qr_scan", "ios": "https://dc.lft.to/lastmile_qr_scan"}, "type": "electric_scooter", "fusion_lat": 0.0, "lat": 38.87895483333333, "lon": -76.9352175, "is_reserved": 0}, {"bike_id": "31fb53b4feb2db4caf9274652b251d90", "name": "31fb53b4feb2db4caf9274652b251d90", "is_disabled": 0, "fusion_lon": 0.0, "rental_uris": {"android": "https://dc.lft.to/lastmile_qr_scan", "ios": "https://dc.lft.to/lastmile_qr_scan"}, "type": "electric_scooter", "fusion_lat": 0.0, "lat": 38.8922765, "lon": -77.03336283333333, "is_reserved": 0}, {"bike_id": "f9f5902de04d74e655a2af43826b4d66", "name": "f9f5902de04d74e655a2af43826b4d66", "is_disabled": 0, "fusion_lon": 0.0, "rental_uris": {"android": "https://dc.lft.to/lastmile_qr_scan", "ios": "https://dc.lft.to/lastmile_qr_scan"}, "type": "electric_scooter", "fusion_lat": 0.0, "lat": 38.923675333333335, "lon": -77.07227033333334, "is_reserved": 0}, {"bike_id": "811ae69db5b0ee3be3791972dc89bc28", "name": "811ae69db5b0ee3be3791972dc89bc28", "is_disabled": 0, "fusion_lon": 0.0, "rental_uris": {"android": "https://dc.lft.to/lastmile_qr_scan", "ios": "https://dc.lft.to/lastmile_qr_scan"}, "type": "electric_scooter", "fusion_lat": 0.0, "lat": 38.91926816666667, "lon": -77.04167416666667, "is_reserved": 0}, {"bike_id": "3526328010be12d509804045b7d27083", "name": "3526328010be12d509804045b7d27083", "is_disabled": 0, "fusion_lon": 0.0, "rental_uris": {"android": "https://dc.lft.to/lastmile_qr_scan", "ios": "https://dc.lft.to/lastmile_qr_scan"}, "type": "electric_scooter", "fusion_lat": 0.0, "lat": 38.967334, "lon": -77.02529266666667, "is_reserved": 0}, {"bike_id": "6a453d22f149550ea71f3470c82786db", "name": "6a453d22f149550ea71f3470c82786db", "is_disabled": 0, "fusion_lon": 0.0, "rental_uris": {"android": "https://dc.lft.to/lastmile_qr_scan", "ios": "https://dc.lft.to/lastmile_qr_scan"}, "type": "electric_scooter", "fusion_lat": 0.0, "lat": 38.90729133333333, "lon": -77.041621, "is_reserved": 0}, {"bike_id": "b41c5636aa050fab05ea9f41bd7291e0", "name": "b41c5636aa050fab05ea9f41bd7291e0", "is_disabled": 0, "fusion_lon": 0.0, "rental_uris": {"android": "https://dc.lft.to/lastmile_qr_scan", "ios": "https://dc.lft.to/lastmile_qr_scan"}, "type": "electric_scooter", "fusion_lat": 0.0, "lat": 38.91532566666667, "lon": -77.012222, "is_reserved": 0}, {"bike_id": "865783e9a18ec9bbb175fcce9afd4a77", "name": "865783e9a18ec9bbb175fcce9afd4a77", "is_disabled": 0, "fusion_lon": 0.0, "rental_uris": {"android": "https://dc.lft.to/lastmile_qr_scan", "ios": "https://dc.lft.to/lastmile_qr_scan"}, "type": "electric_bike", "fusion_lat": 0.0, "lat": 38.880292833333336, "lon": -76.91714633333333, "is_reserved": 0}, {"bike_id": "d07478b2713be0d4174494872a2111b0", "name": "d07478b2713be0d4174494872a2111b0", "is_disabled": 0, "fusion_lon": 0.0, "rental_uris": {"android": "https://dc.lft.to/lastmile_qr_scan", "ios": "https://dc.lft.to/lastmile_qr_scan"}, "type": "electric_scooter", "fusion_lat": 0.0, "lat": 38.9050295, "lon": -77.029418, "is_reserved": 0}, {"bike_id": "f5d1aa398c1a85d56e81e04ce311989d", "name": "f5d1aa398c1a85d56e81e04ce311989d", "is_disabled": 0, "fusion_lon": 0.0, "rental_uris": {"android": "https://dc.lft.to/lastmile_qr_scan", "ios": "https://dc.lft.to/lastmile_qr_scan"}, "type": "electric_scooter", "fusion_lat": 0.0, "lat": 38.89843833333333, "lon": -77.0436895, "is_reserved": 0}, {"bike_id": "474b9c247dc6c4a0d19ccdf66fac2cee", "name": "474b9c247dc6c4a0d19ccdf66fac2cee", "is_disabled": 0, "fusion_lon": 0.0, "rental_uris": {"android": "https://dc.lft.to/lastmile_qr_scan", "ios": "https://dc.lft.to/lastmile_qr_scan"}, "type": "electric_scooter", "fusion_lat": 0.0, "lat": 38.93683816666667, "lon": -77.06621, "is_reserved": 0}, {"bike_id": "8b217853c989b77d0216e4411457607d", "name": "8b217853c989b77d0216e4411457607d", "is_disabled": 0, "fusion_lon": 0.0, "rental_uris": {"android": "https://dc.lft.to/lastmile_qr_scan", "ios": "https://dc.lft.to/lastmile_qr_scan"}, "type": "electric_bike", "fusion_lat": 0.0, "lat": 38.918795833333334, "lon": -76.96434483333333, "is_reserved": 0}, {"bike_id": "2ccc22bfb756725c300dfa53eed61ae2", "name": "2ccc22bfb756725c300dfa53eed61ae2", "is_disabled": 0, "fusion_lon": 0.0, "rental_uris": {"android": "https://dc.lft.to/lastmile_qr_scan", "ios": "https://dc.lft.to/lastmile_qr_scan"}, "type": "electric_scooter", "fusion_lat": 0.0, "lat": 38.92614183333333, "lon": -77.02157766666667, "is_reserved": 0}, {"bike_id": "530640d6fde924219c64a7751e2efa75", "name": "530640d6fde924219c64a7751e2efa75", "is_disabled": 0, "fusion_lon": 0.0, "rental_uris": {"android": "https://dc.lft.to/lastmile_qr_scan", "ios": "https://dc.lft.to/lastmile_qr_scan"}, "type": "electric_scooter", "fusion_lat": 0.0, "lat": 38.8877165, "lon": -77.000438, "is_reserved": 0}, {"bike_id": "97da4665c325f9289ab512bfcf2829fc", "name": "97da4665c325f9289ab512bfcf2829fc", "is_disabled": 0, "fusion_lon": 0.0, "rental_uris": {"android": "https://dc.lft.to/lastmile_qr_scan", "ios": "https://dc.lft.to/lastmile_qr_scan"}, "type": "electric_bike", "fusion_lat": 0.0, "lat": 38.96735016666667, "lon": -77.08907666666667, "is_reserved": 0}, {"bike_id": "a382a2f5a0416391a817b2046e5d211b", "name": "a382a2f5a0416391a817b2046e5d211b", "is_disabled": 0, "fusion_lon": 0.0, "rental_uris": {"android": "https://dc.lft.to/lastmile_qr_scan", "ios": "https://dc.lft.to/lastmile_qr_scan"}, "type": "electric_scooter", "fusion_lat": 0.0, "lat": 38.88656783333333, "lon": -77.02828216666667, "is_reserved": 0}, {"bike_id": "31788d6d4b6bd08071214d92c9860e87", "name": "31788d6d4b6bd08071214d92c9860e87", "is_disabled": 0, "fusion_lon": 0.0, "rental_uris": {"android": "https://dc.lft.to/lastmile_qr_scan", "ios": "https://dc.lft.to/lastmile_qr_scan"}, "type": "electric_scooter", "fusion_lat": 0.0, "lat": 38.921544, "lon": -77.02976833333334, "is_reserved": 0}, {"bike_id": "32c159ecae9acfd2c96d6fa948c345fd", "name": "32c159ecae9acfd2c96d6fa948c345fd", "is_disabled": 0, "fusion_lon": 0.0, "rental_uris": {"android": "https://dc.lft.to/lastmile_qr_scan", "ios": "https://dc.lft.to/lastmile_qr_scan"}, "type": "electric_scooter", "fusion_lat": 0.0, "lat": 38.92243966666667, "lon": -77.03663983333334, "is_reserved": 0}, {"bike_id": "2b00f22571ee64c32bd6f2d4ce266e3c", "name": "2b00f22571ee64c32bd6f2d4ce266e3c", "is_disabled": 0, "fusion_lon": 0.0, "rental_uris": {"android": "https://dc.lft.to/lastmile_qr_scan", "ios": "https://dc.lft.to/lastmile_qr_scan"}, "type": "electric_scooter", "fusion_lat": 0.0, "lat": 38.92043683333333, "lon": -77.01723433333333, "is_reserved": 0}, {"bike_id": "5a1b3043ea46717363fe8f7f26bcad88", "name": "5a1b3043ea46717363fe8f7f26bcad88", "is_disabled": 0, "fusion_lon": 0.0, "rental_uris": {"android": "https://dc.lft.to/lastmile_qr_scan", "ios": "https://dc.lft.to/lastmile_qr_scan"}, "type": "electric_scooter", "fusion_lat": 0.0, "lat": 38.89224566666667, "lon": -77.04089866666666, "is_reserved": 0}, {"bike_id": "7589e64841fe8759e47947c42c1e6f2e", "name": "7589e64841fe8759e47947c42c1e6f2e", "is_disabled": 0, "fusion_lon": 0.0, "rental_uris": {"android": "https://dc.lft.to/lastmile_qr_scan", "ios": "https://dc.lft.to/lastmile_qr_scan"}, "type": "electric_bike", "fusion_lat": 0.0, "lat": 38.844458833333334, "lon": -76.987546, "is_reserved": 0}, {"bike_id": "900ffa1a71d60cf24e112441d767ff4d", "name": "900ffa1a71d60cf24e112441d767ff4d", "is_disabled": 0, "fusion_lon": 0.0, "rental_uris": {"android": "https://dc.lft.to/lastmile_qr_scan", "ios": "https://dc.lft.to/lastmile_qr_scan"}, "type": "electric_bike", "fusion_lat": 0.0, "lat": 38.93689166666667, "lon": -76.990568, "is_reserved": 0}, {"bike_id": "349f0dd57f6e9b0aff534116589b7425", "name": "349f0dd57f6e9b0aff534116589b7425", "is_disabled": 0, "fusion_lon": 0.0, "rental_uris": {"android": "https://dc.lft.to/lastmile_qr_scan", "ios": "https://dc.lft.to/lastmile_qr_scan"}, "type": "electric_scooter", "fusion_lat": 0.0, "lat": 38.899553833333336, "lon": -76.9868145, "is_reserved": 0},