{"data": {"bikes": [{"lat": 38.92146783333333, "fusion_lat": 0.0, "type": "electric_scooter", "bike_id": "12d945e9d8037c74d179ee66c68ca903", "rental_uris": {"ios": "https://dc.lft.to/lastmile_qr_scan", "android": "https://dc.lft.to/lastmile_qr_scan"}, "fusion_lon": 0.0, "lon": -77.01807633333334, "name": "12d945e9d8037c74d179ee66c68ca903", "is_reserved": 0, "is_disabled": 0}, {"lat": 38.92425933333333, "fusion_lat": 0.0, "type": "electric_scooter", "bike_id": "e9b1c3087f344b999cc60c8fcfd143df", "rental_uris": {"ios": "https://dc.lft.to/lastmile_qr_scan", "android": "https://dc.lft.to/lastmile_qr_scan"}, "fusion_lon": 0.0, "lon": -77.0517955, "name": "e9b1c3087f344b999cc60c8fcfd143df", "is_reserved": 0, "is_disabled": 0}, {"lat": 38.942042666666666, "fusion_lat": 0.0, "type": "electric_scooter", "bike_id": "4fd506385e8a628e22f267a6d1544c57", "rental_uris": {"ios": "https://dc.lft.to/lastmile_qr_scan", "android": "https://dc.lft.to/lastmile_qr_scan"}, "fusion_lon": 0.0, "lon": -77.025902, "name": "4fd506385e8a628e22f267a6d1544c57", "is_reserved": 0, "is_disabled": 0}, {"lat": 38.918672, "fusion_lat": 0.0, "type": "electric_scooter", "bike_id": "1d1f279a70b34faeb68fa1c7fb2cb6cd", "rental_uris": {"ios": "https://dc.lft.to/lastmile_qr_scan", "android": "https://dc.lft.to/lastmile_qr_scan"}, "fusion_lon": 0.0, "lon": -77.03493766666666, "name": "1d1f279a70b34faeb68fa1c7fb2cb6cd", "is_reserved": 0, "is_disabled": 0}, {"lat": 38.87668033333333, "fusion_lat": 0.0, "type": "electric_scooter", "bike_id": "e67d681f7dd32b2f9b84c6e7f00a6343", "rental_uris": {"ios": "https://dc.lft.to/lastmile_qr_scan", "android": "https://dc.lft.to/lastmile_qr_scan"}, "fusion_lon": 0.0, "lon": -77.00280416666666, "name": "e67d681f7dd32b2f9b84c6e7f00a6343", "is_reserved": 0, "is_disabled": 0}, {"lat": 38.916062, "fusion_lat": 0.0, "type": "electric_scooter", "bike_id": "eaa116a82f13ac89721fe17c6b553d03", "rental_uris": {"ios": "https://dc.lft.to/lastmile_qr_scan", "android": "https://dc.lft.to/lastmile_qr_scan"}, "fusion_lon": 0.0, "lon": -77.0394375, "name": "eaa116a82f13ac89721fe17c6b553d03", "is_reserved": 0, "is_disabled": 0}, {"lat": 38.920578666666664, "fusion_lat": 0.0, "type": "electric_bike", "bike_id": "8a375d74c9ee33d18401b6b8bc1330da", "rental_uris": {"ios": "https://dc.lft.to/lastmile_qr_scan", "android": "https://dc.lft.to/lastmile_qr_scan"}, "fusion_lon": 0.0, "lon": -77.24132183333333, "name": "8a375d74c9ee33d18401b6b8bc1330da", "is_reserved": 0, "is_disabled": 0}, {"lat": 38.920752666666665, "fusion_lat": 0.0, "type": "electric_bike", "bike_id": "58a904b9ead8fa4a8eb2dbb49d81fdac", "rental_uris": {"ios": "https://dc.lft.to/lastmile_qr_scan", "android": "https://dc.lft.to/lastmile_qr_scan"}, "fusion_lon": 0.0, "lon": -77.0242185, "name": "58a904b9ead8fa4a8eb2dbb49d81fdac", "is_reserved": 0, "is_disabled": 0}, {"lat": 38.903528, "fusion_lat": 0.0, "type": "electric_scooter", "bike_id": "6edff3fd0a565baed9623f1577f3d5b6", "rental_uris": {"ios": "https://dc.lft.to/lastmile_qr_scan", "android": "https://dc.lft.to/lastmile_qr_scan"}, "fusion_lon": 0.0, "lon": -77.01615, "name": "6edff3fd0a565baed9623f1577f3d5b6", "is_reserved": 0, "is_disabled": 0}, {"lat": 38.920407166666664, "fusion_lat": 0.0, "type": "electric_scooter", "bike_id": "747c405dd925d3e7de78c29925c19218", "rental_uris": {"ios": "https://dc.lft.to/lastmile_qr_scan", "android": "https://dc.lft.to/lastmile_qr_scan"}, "fusion_lon": 0.0, "lon": -77.0366855, "name": "747c405dd925d3e7de78c29925c19218", "is_reserved": 0, "is_disabled": 0}, {"lat": 38.911240666666664, "fusion_lat": 0.0, "type": "electric_scooter", "bike_id": "03604800d6a21893a155c5ccbab452bf", "rental_uris": {"ios": "https://dc.lft.to/lastmile_qr_scan", "android": "https://dc.lft.to/lastmile_qr_scan"}, "fusion_lon": 0.0, "lon": -77.0375125, "name": "03604800d6a21893a155c5ccbab452bf", "is_reserved": 0, "is_disabled": 0}, {"lat": 38.91712666666667, "fusion_lat": 0.0, "type": "electric_scooter", "bike_id": "a3c51bdd65414144198d83b7b65d541d", "rental_uris": {"ios": "https://dc.lft.to/lastmile_qr_scan", "android": "https://dc.lft.to/lastmile_qr_scan"}, "fusion_lon": 0.0, "lon": -77.032411, "name": "a3c51bdd65414144198d83b7b65d541d", "is_reserved": 0, "is_disabled": 0}, {"lat": 38.900483333333334, "fusion_lat": 0.0, "type": "electric_scooter", "bike_id": "1b03db26eb9bbb75cf875fe752c6f6c7", "rental_uris": {"ios": "https://dc.lft.to/lastmile_qr_scan", "android": "https://dc.lft.to/lastmile_qr_scan"}, "fusion_lon": 0.0, "lon": -77.02414966666667, "name": "1b03db26eb9bbb75cf875fe752c6f6c7", "is_reserved": 0, "is_disabled": 0}, {"lat": 38.90788633333333, "fusion_lat": 0.0, "type": "electric_scooter", "bike_id": "944289e5e5d14c42aff9045ec770092a", "rental_uris": {"ios": "https://dc.lft.to/lastmile_qr_scan", "android": "https://dc.lft.to/lastmile_qr_scan"}, "fusion_lon": 0.0, "lon": -77.0111215, "name": "944289e5e5d14c42aff9045ec770092a", "is_reserved": 0, "is_disabled": 0}, {"lat": 38.956519666666665, "fusion_lat": 0.0, "type": "electric_bike", "bike_id": "a8ae144eb500abba4ce5ad9439ac27ec", "rental_uris": {"ios": "https://dc.lft.to/lastmile_qr_scan", "android": "https://dc.lft.to/lastmile_qr_scan"}, "fusion_lon": 0.0, "lon": -77.032944, "name": "a8ae144eb500abba4ce5ad9439ac27ec", "is_reserved": 0, "is_disabled": 0}, {"lat": 38.91955733333333, "fusion_lat": 0.0, "type": "electric_scooter", "bike_id": "d73672b7b8a262e49d70418eb3b696aa", "rental_uris": {"ios": "https://dc.lft.to/lastmile_qr_scan", "android": "https://dc.lft.to/lastmile_qr_scan"}, "fusion_lon": 0.0, "lon": -77.0251535, "name": "d73672b7b8a262e49d70418eb3b696aa", "is_reserved": 0, "is_disabled": 0}, {"lat": 38.921360666666665, "fusion_lat": 0.0, "type": "electric_bike", "bike_id": "4d8eedc121f9aea5e854f2e9259aa85a", "rental_uris": {"ios": "https://dc.lft.to/lastmile_qr_scan", "android": "https://dc.lft.to/lastmile_qr_scan"}, "fusion_lon": 0.0, "lon": -76.988774, "name": "4d8eedc121f9aea5e854f2e9259aa85a", "is_reserved": 0, "is_disabled": 0}, {"lat": 38.902612833333336, "fusion_lat": 0.0, "type": "electric_scooter", "bike_id": "714e8d0c3238d79842856ce3fa58e549", "rental_uris": {"ios": "https://dc.lft.to/lastmile_qr_scan", "android": "https://dc.lft.to/lastmile_qr_scan"}, "fusion_lon": 0.0, "lon": -77.04603, "name": "714e8d0c3238d79842856ce3fa58e549", "is_reserved": 0, "is_disabled": 0}, {"lat": 38.92479133333333, "fusion_lat": 0.0, "type": "electric_scooter", "bike_id": "ef054641c5c72a4dca3616045b404782", "rental_uris": {"ios": "https://dc.lft.to/lastmile_qr_scan", "android": "https://dc.lft.to/lastmile_qr_scan"}, "fusion_lon": 0.0, "lon": -77.0284285, "name": "ef054641c5c72a4dca3616045b404782", "is_reserved": 0, "is_disabled": 0}, {"lat": 38.93770333333333, "fusion_lat": 0.0, "type": "electric_scooter", "bike_id": "686f51d14b44eb5eb440067a54af24f3", "rental_uris": {"ios": "https://dc.lft.to/lastmile_qr_scan", "android": "https://dc.lft.to/lastmile_qr_scan"}, "fusion_lon": 0.0, "lon": -77.023486, "name": "686f51d14b44eb5eb440067a54af24f3", "is_reserved": 0, "is_disabled": 0}, {"lat": 38.897362666666666, "fusion_lat": 0.0, "type": "electric_bike", "bike_id": "8361e53d0afd4263c04fe7e6c206cc56", "rental_uris": {"ios": "https://dc.lft.to/lastmile_qr_scan", "android": "https://dc.lft.to/lastmile_qr_scan"}, "fusion_lon": 0.0, "lon": -76.9922105, "name": "8361e53d0afd4263c04fe7e6c206cc56", "is_reserved": 0, "is_disabled": 0}, {"lat": 38.91554766666667, "fusion_lat": 0.0, "type": "electric_scooter", "bike_id": "d16ffb2532b03426fcaa9e90a3f4dfef", "rental_uris": {"ios": "https://dc.lft.to/lastmile_qr_scan", "android": "https://dc.lft.to/lastmile_qr_scan"}, "fusion_lon": 0.0, "lon": -77.03253416666666, "name": "d16ffb2532b03426fcaa9e90a3f4dfef", "is_reserved": 0, "is_disabled": 0}, {"lat": 38.934816166666664, "fusion_lat": 0.0, "type": "electric_scooter", "bike_id": "821914f6d0d47596ff0018ecb58beb56", "rental_uris": {"ios": "https://dc.lft.to/lastmile_qr_scan", "android": "https://dc.lft.to/lastmile_qr_scan"}, "fusion_lon": 0.0, "lon": -77.02977783333333, "name": "821914f6d0d47596ff0018ecb58beb56", "is_reserved": 0, "is_disabled": 0}, {"lat": 38.8702795, "fusion_lat": 0.0, "type": "electric_bike", "bike_id": "fa4b653a344368eb740a08f08ff4fa4e", "rental_uris": {"ios": "https://dc.lft.to/lastmile_qr_scan", "android": "https://dc.lft.to/lastmile_qr_scan"}, "fusion_lon": 0.0, "lon": -77.22907616666667, "name": "fa4b653a344368eb740a08f08ff4fa4e", "is_reserved": 0, "is_disabled": 0}, {"lat": 38.900163, "fusion_lat": 0.0, "type": "electric_scooter", "bike_id": "cb54a860fc6ad7e49c511818f648d782", "rental_uris": {"ios": "https://dc.lft.to/lastmile_qr_scan", "android": "https://dc.lft.to/lastmile_qr_scan"}, "fusion_lon": 0.0, "lon": -76.98854533333333, "name": "cb54a860fc6ad7e49c511818f648d782", "is_reserved": 0, "is_disabled": 0}, {"lat": 38.924139333333336, "fusion_lat": 0.0, "type": "electric_scooter", "bike_id": "ac02534ac3fdd467fdc4b82ac4de7998", "rental_uris": {"ios": "https://dc.lft.to/lastmile_qr_scan", "android": "https://dc.lft.to/lastmile_qr_scan"}, "fusion_lon": 0.0, "lon": -77.0200425, "name": "ac02534ac3fdd467fdc4b82ac4de7998", "is_reserved": 0, "is_disabled": 0}, {"lat": 38.89964066666667, "fusion_lat": 0.0, "type": "electric_scooter", "bike_id": "0b75082a8015b89f8a304a888774d716", "rental_uris": {"ios": "https://dc.lft.to/lastmile_qr_scan", "android": "https://dc.lft.to/lastmile_qr_scan"}, "fusion_lon": 0.0, "lon": -77.02184533333333, "name": "0b75082a8015b89f8a304a888774d716", "is_reserved": 0, "is_disabled": 0}, {"lat": 38.910238666666665, "fusion_lat": 0.0, "type": "electric_scooter", "bike_id": "a80d21295800c1a7dddadfc9e19467fe", "rental_uris": {"ios": "https://dc.lft.to/lastmile_qr_scan", "android": "https://dc.lft.to/lastmile_qr_scan"}, "fusion_lon": 0.0, "lon": -77.07392666666667, "name": "a80d21295800c1a7dddadfc9e19467fe", "is_reserved": 0, "is_disabled": 0}, {"lat": 38.925137, "fusion_lat": 0.0, "type": "electric_scooter", "bike_id": "70c92a9186bf1ad7d50e9ecfb23f9aac", "rental_uris": {"ios": "https://dc.lft.to/lastmile_qr_scan", "android": "https://dc.lft.to/lastmile_qr_scan"}, "fusion_lon": 0.0, "lon": -77.023622, "name": "70c92a9186bf1ad7d50e9ecfb23f9aac", "is_reserved": 0, "is_disabled": 0}, {"lat": 38.929208833333334, "fusion_lat": 0.0, "type": "electric_scooter", "bike_id": "4df55eeacbd4e020c1710534237a31e8", "rental_uris": {"ios": "https://dc.lft.to/lastmile_qr_scan", "android": "https://dc.lft.to/lastmile_qr_scan"}, "fusion_lon": 0.0, "lon": -77.032532, "name": "4df55eeacbd4e020c1710534237a31e8", "is_reserved": 0, "is_disabled": 0}, {"lat": 38.90102616666667, "fusion_lat": 0.0, "type": "electric_scooter", "bike_id": "7d26b93a3823286247ae75e2e7a79417", "rental_uris": {"ios": "https://dc.lft.to/lastmile_qr_scan", "android": "https://dc.lft.to/lastmile_qr_scan"}, "fusion_lon": 0.0, "lon": -77.03485683333334, "name": "7d26b93a3823286247ae75e2e7a79417", "is_reserved": 0, "is_disabled": 0}, {"lat": 38.887305, "fusion_lat": 0.0, "type": "electric_scooter", "bike_id": "1572c4e4c3aee0f3b8cfc3b5cff00f90", "rental_uris": {"ios": "https://dc.lft.to/lastmile_qr_scan", "android": "https://dc.lft.to/lastmile_qr_scan"}, "fusion_lon": 0.0, "lon": -77.02824266666667, "name": "1572c4e4c3aee0f3b8cfc3b5cff00f90", "is_reserved": 0, "is_disabled": 0}, {"lat": 38.91099833333333, "fusion_lat": 0.0, "type": "electric_scooter", "bike_id": "9843c903235b0b1779bd32f5b3469aac", "rental_uris": {"ios": "https://dc.lft.to/lastmile_qr_scan", "android": "https://dc.lft.to/lastmile_qr_scan"}, "fusion_lon": 0.0, "lon": -77.03181383333333, "name": "9843c903235b0b1779bd32f5b3469aac", "is_reserved": 0, "is_disabled": 0}, {"lat": 38.93346416666667, "fusion_lat": 0.0, "type": "electric_scooter", "bike_id": "6234f364e15239e5311b24052a2cf923", "rental_uris": {"ios": "https://dc.lft.to/lastmile_qr_scan", "android": "https://dc.lft.to/lastmile_qr_scan"}, "fusion_lon": 0.0, "lon": -77.073474, "name": "6234f364e15239e5311b24052a2cf923", "is_reserved": 0, "is_disabled": 0}, {"lat": 38.9614215, "fusion_lat": 0.0, "type": "electric_scooter", "bike_id": "f9ba5a4cb6c3c7854042900d076f04c7", "rental_uris": {"ios": "https://dc.lft.to/lastmile_qr_scan", "android": "https://dc.lft.to/lastmile_qr_scan"}, "fusion_lon": 0.0, "lon": -77.02785466666667, "name": "f9ba5a4cb6c3c7854042900d076f04c7", "is_reserved": 0, "is_disabled": 0}, {"lat": 38.90960783333333, "fusion_lat": 0.0, "type": "electric_scooter", "bike_id": "0ca65cfb2b4ea1a07aed6af1306ed3e9", "rental_uris": {"ios": "https://dc.lft.to/lastmile_qr_scan", "android": "https://dc.lft.to/lastmile_qr_scan"}, "fusion_lon": 0.0, "lon": -77.02381716666666, "name": "0ca65cfb2b4ea1a07aed6af1306ed3e9", "is_reserved": 0, "is_disabled": 0}, {"lat": 38.967579, "fusion_lat": 0.0, "type": "electric_bike", "bike_id": "4edf7d00a5c0df54754babaf33e60555", "rental_uris": {"ios": "https://dc.lft.to/lastmile_qr_scan", "android": "https://dc.lft.to/lastmile_qr_scan"}, "fusion_lon": 0.0, "lon": -77.0279945, "name": "4edf7d00a5c0df54754babaf33e60555", "is_reserved": 0, "is_disabled": 0}, {"lat": 38.9148405, "fusion_lat": 0.0, "type": "electric_bike", "bike_id": "ff0af27d6dfe1a3b33e3efc78cebc36a", "rental_uris": {"ios": "https://dc.lft.to/lastmile_qr_scan", "android": "https://dc.lft.to/lastmile_qr_scan"}, "fusion_lon": 0.0, "lon": -76.98576616666666, "name": "ff0af27d6dfe1a3b33e3efc78cebc36a", "is_reserved": 0, "is_disabled": 0}, {"lat": 38.89731333333334, "fusion_lat": 0.0, "type": "electric_scooter", "bike_id": "00993f95f0b1e222759afdc07d9a0aaa", "rental_uris": {"ios": "https://dc.lft.to/lastmile_qr_scan", "android": "https://dc.lft.to/lastmile_qr_scan"}, "fusion_lon": 0.0, "lon": -77.04678466666667, "name": "00993f95f0b1e222759afdc07d9a0aaa", "is_reserved": 0, "is_disabled": 0}, {"lat": 38.92024083333333, "fusion_lat": 0.0, "type": "electric_scooter", "bike_id": "ffa1582b41b6c97984acea241d040141", "rental_uris": {"ios": "https://dc.lft.to/lastmile_qr_scan", "android": "https://dc.lft.to/lastmile_qr_scan"}, "fusion_lon": 0.0, "lon": -77.041848, "name": "ffa1582b41b6c97984acea241d040141", "is_reserved": 0, "is_disabled": 0}, {"lat": 38.91924916666667, "fusion_lat": 0.0, "type": "electric_scooter", "bike_id": "26440305e277ef5625cd1f5427652022", "rental_uris": {"ios": "https://dc.lft.to/lastmile_qr_scan", "android": "https://dc.lft.to/lastmile_qr_scan"}, "fusion_lon": 0.0, "lon": -77.03336133333333, "name": "26440305e277ef5625cd1f5427652022", "is_reserved": 0, "is_disabled": 0}, {"lat": 38.897426333333335, "fusion_lat": 0.0, "type": "electric_scooter", "bike_id": "7416710622d2cce2be6e1fc6bc8abff9", "rental_uris": {"ios": "https://dc.lft.to/lastmile_qr_scan", "android": "https://dc.lft.to/lastmile_qr_scan"}, "fusion_lon": 0.0, "lon": -77.04421883333333, "name": "7416710622d2cce2be6e1fc6bc8abff9", "is_reserved": 0, "is_disabled": 0}, {"lat": 38.941794333333334, "fusion_lat": 0.0, "type": "electric_scooter", "bike_id": "8cef30c13001577687135cc7324ce213", "rental_uris": {"ios": "https://dc.lft.to/lastmile_qr_scan", "android": "https://dc.lft.to/lastmile_qr_scan"}, "fusion_lon": 0.0, "lon": -77.02792683333334, "name": "8cef30c13001577687135cc7324ce213", "is_reserved": 0, "is_disabled": 0}, {"lat": 38.924597166666665, "fusion_lat": 0.0, "type": "electric_scooter", "bike_id": "66e1cdc386cc3e41fc66cfb7bc71d40e", "rental_uris": {"ios": "https://dc.lft.to/lastmile_qr_scan", "android": "https://dc.lft.to/lastmile_qr_scan"}, "fusion_lon": 0.0, "lon": -77.0215595, "name": "66e1cdc386cc3e41fc66cfb7bc71d40e", "is_reserved": 0, "is_disabled": 0}, {"lat": 38.916062833333335, "fusion_lat": 0.0, "type": "electric_scooter", "bike_id": "c05f73aeb70a869a9ab713d40a062247", "rental_uris": {"ios": "https://dc.lft.to/lastmile_qr_scan", "android": "https://dc.lft.to/lastmile_qr_scan"}, "fusion_lon": 0.0, "lon": -77.04154216666667, "name": "c05f73aeb70a869a9ab713d40a062247", "is_reserved": 0, "is_disabled": 0}, {"lat": 38.89227833333333, "fusion_lat": 0.0, "type": "electric_scooter", "bike_id": "49dc5808f58c68394520988588bbb75b", "rental_uris": {"ios": "https://dc.lft.to/lastmile_qr_scan", "android": "https://dc.lft.to/lastmile_qr_scan"}, "fusion_lon": 0.0, "lon": -77.02799983333334, "name": "49dc5808f58c68394520988588bbb75b", "is_reserved": 0, "is_disabled": 0}, {"lat": 38.939675666666666, "fusion_lat": 0.0, "type": "electric_scooter", "bike_id": "b10b477e71eb40a8e1f624ad32792c44", "rental_uris": {"ios": "https://dc.lft.to/lastmile_qr_scan", "android": "https://dc.lft.to/lastmile_qr_scan"}, "fusion_lon": 0.0, "lon": -77.03275366666666, "name": "b10b477e71eb40a8e1f624ad32792c44", "is_reserved": 0, "is_disabled": 0}, {"lat": 38.9073245, "fusion_lat": 0.0, "type": "electric_scooter", "bike_id": "eb24dd49bc4bfbb9c8eca11ed952c2a8", "rental_uris": {"ios": "https://dc.lft.to/lastmile_qr_scan", "android": "https://dc.lft.to/lastmile_qr_scan"}, "fusion_lon": 0.0, "lon": -77.03536833333334, "name": "eb24dd49bc4bfbb9c8eca11ed952c2a8", "is_reserved": 0, "is_disabled": 0}, {"lat": 38.91715716666667, "fusion_lat": 0.0, "type": "electric_scooter", "bike_id": "3db2ca7944138c2156d9e55174a08c85", "rental_uris": {"ios": "https://dc.lft.to/lastmile_qr_scan", "android": "https://dc.lft.to/lastmile_qr_scan"}, "fusion_lon": 0.0, "lon": -77.0379055, "name": "3db2ca7944138c2156d9e55174a08c85", "is_reserved": 0, "is_disabled": 0}, {"lat": 38.920596333333336, "fusion_lat": 0.0, "type": "electric_scooter", "bike_id": "2afb3522db49e8485c7329ba547eb0bd", "rental_uris": {"ios": "https://dc.lft.to/lastmile_qr_scan", "android": "https://dc.lft.to/lastmile_qr_scan"}, "fusion_lon": 0.0, "lon": -77.02412533333333, "name": "2afb3522db49e8485c7329ba547eb0bd", "is_reserved": 0, "is_disabled": 0}, {"lat": 38.92172583333333, "fusion_lat": 0.0, "type": "electric_scooter", "bike_id": "f3719c51a0c9dc4fcfc325e551f3c9da", "rental_uris": {"ios": "https://dc.lft.to/lastmile_qr_scan", "android": "https://dc.lft.to/lastmile_qr_scan"}, "fusion_lon": 0.0, "lon": -77.03818216666667, "name": "f3719c51a0c9dc4fcfc325e551f3c9da", "is_reserved": 0, "is_disabled": 0}, {"lat": 38.89355066666667, "fusion_lat": 0.0, "type": "electric_scooter", "bike_id": "8d1363bb86a4cac69ae0d18011819d5d", "rental_uris": {"ios": "https://dc.lft.to/lastmile_qr_scan", "android": "https://dc.lft.to/lastmile_qr_scan"}, "fusion_lon": 0.0, "lon": -76.98660333333333, "name": "8d1363bb86a4cac69ae0d18011819d5d", "is_reserved": 0, "is_disabled": 0}, {"lat": 38.904077, "fusion_lat": 0.0, "type": "electric_scooter", "bike_id": "6395a7cb378bfe0c49502ba54b975c4b", "rental_uris": {"ios": "https://dc.lft.to/lastmile_qr_scan", "android": "https://dc.lft.to/lastmile_qr_scan"}, "fusion_lon": 0.0, "lon": -76.9810605, "name": "6395a7cb378bfe0c49502ba54b975c4b", "is_reserved": 0, "is_disabled": 0}, {"lat": 38.887296, "fusion_lat": 0.0, "type": "electric_scooter", "bike_id": "1e6dcd4a79dbab1b4244f62682d592a9", "rental_uris": {"ios": "https://dc.lft.to/lastmile_qr_scan", "android": "https://dc.lft.to/lastmile_qr_scan"}, "fusion_lon": 0.0, "lon": -77.02824633333333, "name": "1e6dcd4a79dbab1b4244f62682d592a9", "is_reserved": 0, "is_disabled": 0}, {"lat": 38.88951983333333, "fusion_lat": 0.0, "type": "electric_scooter", "bike_id": "bd95a3b8757cf4237c16d52fa0a7d792", "rental_uris": {"ios": "https://dc.lft.to/lastmile_qr_scan", "android": "https://dc.lft.to/lastmile_qr_scan"}, "fusion_lon": 0.0, "lon": -77.08544316666666, "name": "bd95a3b8757cf4237c16d52fa0a7d792", "is_reserved": 0, "is_disabled": 0}, {"lat": 38.95800166666667, "fusion_lat": 0.0, "type": "electric_scooter", "bike_id": "c50eb24fc2c61ca1ba857c665caf3015", "rental_uris": {"ios": "https://dc.lft.to/lastmile_qr_scan", "android": "https://dc.lft.to/lastmile_qr_scan"}, "fusion_lon": 0.0, "lon": -77.01516416666666, "name": "c50eb24fc2c61ca1ba857c665caf3015", "is_reserved": 0, "is_disabled": 0}, {"lat": 38.916258666666664, "fusion_lat": 0.0, "type": "electric_scooter", "bike_id": "413086dec884ead4fda67ba835989644", "rental_uris": {"ios": "https://dc.lft.to/lastmile_qr_scan", "android": "https://dc.lft.to/lastmile_qr_scan"}, "fusion_lon": 0.0, "lon": -77.05068916666667, "name": "413086dec884ead4fda67ba835989644", "is_reserved": 0, "is_disabled": 0}, {"lat": 38.898266, "fusion_lat": 0.0, "type": "electric_scooter", "bike_id": "663e151b07d23f541cf43a02384330a3", "rental_uris": {"ios": "https://dc.lft.to/lastmile_qr_scan", "android": "https://dc.lft.to/lastmile_qr_scan"}, "fusion_lon": 0.0, "lon": -76.9465135, "name": "663e151b07d23f541cf43a02384330a3", "is_reserved": 0, "is_disabled": 0}, {"lat": 38.90262383333334, "fusion_lat": 0.0, "type": "electric_scooter", "bike_id": "a96adabd54af135086451d91b4c89728", "rental_uris": {"ios": "https://dc.lft.to/lastmile_qr_scan", "android": "https://dc.lft.to/lastmile_qr_scan"}, "fusion_lon": 0.0, "lon": -77.03560966666667, "name": "a96adabd54af135086451d91b4c89728", "is_reserved": 0, "is_disabled": 0}, {"lat": 38.927916333333336, "fusion_lat": 0.0, "type": "electric_scooter", "bike_id": "56335de75c0767b0cc90d3465eca3d42", "rental_uris": {"ios": "https://dc.lft.to/lastmile_qr_scan", "android": "https://dc.lft.to/lastmile_qr_scan"}, "fusion_lon": 0.0, "lon": -77.015524, "name": "56335de75c0767b0cc90d3465eca3d42", "is_reserved": 0, "is_disabled": 0}, {"lat": 38.8923495, "fusion_lat": 0.0, "type": "electric_scooter", "bike_id": "c147d532fa1de17fae78770af58ee9d2", "rental_uris": {"ios": "https://dc.lft.to/lastmile_qr_scan", "android": "https://dc.lft.to/lastmile_qr_scan"}, "fusion_lon": 0.0, "lon": -77.05001583333333, "name": "c147d532fa1de17fae78770af58ee9d2", "is_reserved": 0, "is_disabled": 0}, {"lat": 38.911015666666664, "fusion_lat": 0.0, "type": "electric_scooter", "bike_id": "2343321d07ef1c193d355f3b93b654d0", "rental_uris": {"ios": "https://dc.lft.to/lastmile_qr_scan", "android": "https://dc.lft.to/lastmile_qr_scan"}, "fusion_lon": 0.0, "lon": -77.04497183333334, "name": "2343321d07ef1c193d355f3b93b654d0", "is_reserved": 0, "is_disabled": 0}, {"lat": 38.905073, "fusion_lat": 0.0, "type": "electric_scooter", "bike_id": "dedd09e1cb23b6e333b9a9d83f936ae3", "rental_uris": {"ios": "https://dc.lft.to/lastmile_qr_scan", "android": "https://dc.lft.to/lastmile_qr_scan"}, "fusion_lon": 0.0, "lon": -77.064711, "name": "dedd09e1cb23b6e333b9a9d83f936ae3", "is_reserved": 0, "is_disabled": 0}, {"lat": 38.921079666666664, "fusion_lat": 0.0, "type": "electric_scooter", "bike_id": "d76d5dee6451f19ad16ea07b5103c9a8", "rental_uris": {"ios": "https://dc.lft.to/lastmile_qr_scan", "android": "https://dc.lft.to/lastmile_qr_scan"}, "fusion_lon": 0.0, "lon": -77.02200266666667, "name": "d76d5dee6451f19ad16ea07b5103c9a8", "is_reserved": 0, "is_disabled": 0}, {"lat": 38.921198, "fusion_lat": 0.0, "type": "electric_bike", "bike_id": "6acaa7433b9f0e3228dac32098e277ef", "rental_uris": {"ios": "https://dc.lft.to/lastmile_qr_scan", "android": "https://dc.lft.to/lastmile_qr_scan"}, "fusion_lon": 0.0, "lon": -77.01214366666666, "name": "6acaa7433b9f0e3228dac32098e277ef", "is_reserved": 0, "is_disabled": 0}, {"lat": 38.90874566666667, "fusion_lat": 0.0, "type": "electric_scooter", "bike_id": "b7eec7a9823061252e1e076b29b85ec0", "rental_uris": {"ios": "https://dc.lft.to/lastmile_qr_scan", "android": "https://dc.lft.to/lastmile_qr_scan"}, "fusion_lon": 0.0, "lon": -77.0022345, "name": "b7eec7a9823061252e1e076b29b85ec0", "is_reserved": 0, "is_disabled": 0}, {"lat": 38.9562695, "fusion_lat": 0.0, "type": "electric_bike", "bike_id": "f16cf089a15f36cebffe195096ccb885", "rental_uris": {"ios": "https://dc.lft.to/lastmile_qr_scan", "android": "https://dc.lft.to/lastmile_qr_scan"}, "fusion_lon": 0.0, "lon": -76.93870183333334, "name": "f16cf089a15f36cebffe195096ccb885", "is_reserved": 0, "is_disabled": 0}, {"lat": 38.9085265, "fusion_lat": 0.0, "type": "electric_scooter", "bike_id": "851b2420c2f8a1fcd2cb521e8c6280c3", "rental_uris": {"ios": "https://dc.lft.to/lastmile_qr_scan", "android": "https://dc.lft.to/lastmile_qr_scan"}, "fusion_lon": 0.0, "lon": -77.02691633333333, "name": "851b2420c2f8a1fcd2cb521e8c6280c3", "is_reserved": 0, "is_disabled": 0}, {"lat": 38.905467333333334, "fusion_lat": 0.0, "type": "electric_scooter", "bike_id": "b4736c138522e010c95afb90245051cc", "rental_uris": {"ios": "https://dc.lft.to/lastmile_qr_scan", "android": "https://dc.lft.to/lastmile_qr_scan"}, "fusion_lon": 0.0, "lon": -77.049935, "name": "b4736c138522e010c95afb90245051cc", "is_reserved": 0, "is_disabled": 0}, {"lat": 38.932864333333335, "fusion_lat": 0.0, "type": "electric_scooter", "bike_id": "c57d3b4fa5bdb9110152e20503a0b778", "rental_uris": {"ios": "https://dc.lft.to/lastmile_qr_scan", "android": "https://dc.lft.to/lastmile_qr_scan"}, "fusion_lon": 0.0, "lon": -77.03545883333334, "name": "c57d3b4fa5bdb9110152e20503a0b778", "is_reserved": 0, "is_disabled": 0}, {"lat": 38.90445166666667, "fusion_lat": 0.0, "type": "electric_scooter", "bike_id": "c00a3e91773c1e77079a7aaaea4da08a", "rental_uris": {"ios": "https://dc.lft.to/lastmile_qr_scan", "android": "https://dc.lft.to/lastmile_qr_scan"}, "fusion_lon": 0.0, "lon": -77.05863916666667, "name": "c00a3e91773c1e77079a7aaaea4da08a", "is_reserved": 0, "is_disabled": 0}, {"lat": 38.92386783333333, "fusion_lat": 0.0, "type": "electric_scooter", "bike_id": "2cc901dc467bb512849a29540b6c882c", "rental_uris": {"ios": "https://dc.lft.to/lastmile_qr_scan", "android": "https://dc.lft.to/lastmile_qr_scan"}, "fusion_lon": 0.0, "lon": -77.0365995, "name": "2cc901dc467bb512849a29540b6c882c", "is_reserved": 0, "is_disabled": 0}, {"lat": 38.92445033333333, "fusion_lat": 0.0, "type": "electric_scooter", "bike_id": "46fa92637c7ad13708b782963147db52", "rental_uris": {"ios": "https://dc.lft.to/lastmile_qr_scan", "android": "https://dc.lft.to/lastmile_qr_scan"}, "fusion_lon": 0.0, "lon": -77.000647, "name": "46fa92637c7ad13708b782963147db52", "is_reserved": 0, "is_disabled": 0}, {"lat": 38.92041533333333, "fusion_lat": 0.0, "type": "electric_scooter", "bike_id": "de01761fe2e90311cf7602bb8810d5d2", "rental_uris": {"ios": "https://dc.lft.to/lastmile_qr_scan", "android": "https://dc.lft.to/lastmile_qr_scan"}, "fusion_lon": 0.0, "lon": -77.0245955, "name": "de01761fe2e90311cf7602bb8810d5d2", "is_reserved": 0, "is_disabled": 0}, {"lat": 38.87710166666667, "fusion_lat": 0.0, "type": "electric_scooter", "bike_id": "d332e797b5a11e8daea872342a70bc46", "rental_uris": {"ios": "https://dc.lft.to/lastmile_qr_scan", "android": "https://dc.lft.to/lastmile_qr_scan"}, "fusion_lon": 0.0, "lon": -76.99692533333334, "name": "d332e797b5a11e8daea872342a70bc46", "is_reserved": 0, "is_disabled": 0}, {"lat": 38.89221583333333, "fusion_lat": 0.0, "type": "electric_scooter", "bike_id": "63610b398b84ac28e7a2e6fcd34eed7c", "rental_uris": {"ios": "https://dc.lft.to/lastmile_qr_scan", "android": "https://dc.lft.to/lastmile_qr_scan"}, "fusion_lon": 0.0, "lon": -77.02372283333334, "name": "63610b398b84ac28e7a2e6fcd34eed7c", "is_reserved": 0, "is_disabled": 0}, {"lat": 38.92498333333333, "fusion_lat": 0.0, "type": "electric_scooter", "bike_id": "49a9f39a9ab1f20c39b29d9d7efea348", "rental_uris": {"ios": "https://dc.lft.to/lastmile_qr_scan", "android": "https://dc.lft.to/lastmile_qr_scan"}, "fusion_lon": 0.0, "lon": -77.02398416666666, "name": "49a9f39a9ab1f20c39b29d9d7efea348", "is_reserved": 0, "is_disabled": 0}, {"lat": 38.9410795, "fusion_lat": 0.0, "type": "electric_scooter", "bike_id": "65a0b9e08e82dd7744fb0259c2e6a93a", "rental_uris": {"ios": "https://dc.lft.to/lastmile_qr_scan", "android": "https://dc.lft.to/lastmile_qr_scan"}, "fusion_lon": 0.0, "lon": -77.02636316666667, "name": "65a0b9e08e82dd7744fb0259c2e6a93a", "is_reserved": 0, "is_disabled": 0}, {"lat": 38.92251133333333, "fusion_lat": 0.0, "type": "electric_scooter", "bike_id": "5722b652e32bebe1f99ad020ca6c0fc9", "rental_uris": {"ios": "https://dc.lft.to/lastmile_qr_scan", "android": "https://dc.lft.to/lastmile_qr_scan"}, "fusion_lon": 0.0, "lon": -77.01913316666666, "name": "5722b652e32bebe1f99ad020ca6c0fc9", "is_reserved": 0, "is_disabled": 0}, {"lat": 38.920320333333336, "fusion_lat": 0.0, "type": "electric_scooter", "bike_id": "430567b11e71264497af11de13e25783", "rental_uris": {"ios": "https://dc.lft.to/lastmile_qr_scan", "android": "https://dc.lft.to/lastmile_qr_scan"}, "fusion_lon": 0.0, "lon": -77.07141533333333, "name": "430567b11e71264497af11de13e25783", "is_reserved": 0, "is_disabled": 0}, {"lat": 38.877119, "fusion_lat": 0.0, "type": "electric_scooter", "bike_id": "ac94493704f0b9aaa266e2d28ebbc42e", "rental_uris": {"ios": "https://dc.lft.to/lastmile_qr_scan", "android": "https://dc.lft.to/lastmile_qr_scan"}, "fusion_lon": 0.0, "lon": -77.01761833333333, "name": "ac94493704f0b9aaa266e2d28ebbc42e", "is_reserved": 0, "is_disabled": 0}, {"lat": 38.90312566666667, "fusion_lat": 0.0, "type": "electric_scooter", "bike_id": "25f6428fc8b9660205adc658b3e5d410", "rental_uris": {"ios": "https://dc.lft.to/lastmile_qr_scan", "android": "https://dc.lft.to/lastmile_qr_scan"}, "fusion_lon": 0.0, "lon": -76.97799783333333, "name": "25f6428fc8b9660205adc658b3e5d410", "is_reserved": 0, "is_disabled": 0}, {"lat": 38.8922045, "fusion_lat": 0.0, "type": "electric_scooter", "bike_id": "aee351bc21802419c4df636ecd161676", "rental_uris": {"ios": "https://dc.lft.to/lastmile_qr_scan", "android": "https://dc.lft.to/lastmile_qr_scan"}, "fusion_lon": 0.0, "lon": -77.0262535, "name": "aee351bc21802419c4df636ecd161676", "is_reserved": 0, "is_disabled": 0}, {"lat": 38.90405, "fusion_lat": 0.0, "type": "electric_scooter", "bike_id": "05104398d3b58534620d74d1aaa1b737", "rental_uris": {"ios": "https://dc.lft.to/lastmile_qr_scan", "android": "https://dc.lft.to/lastmile_qr_scan"}, "fusion_lon": 0.0, "lon": -77.068087, "name": "05104398d3b58534620d74d1aaa1b737", "is_reserved": 0, "is_disabled": 0}, {"lat": 38.8948015, "fusion_lat": 0.0, "type": "electric_scooter", "bike_id": "a871dbb7fd70fbe75f5545cf566cca67", "rental_uris": {"ios": "https://dc.lft.to/lastmile_qr_scan", "android": "https://dc.lft.to/lastmile_qr_scan"}, "fusion_lon": 0.0, "lon": -76.98591466666667, "name": "a871dbb7fd70fbe75f5545cf566cca67", "is_reserved": 0, "is_disabled": 0}, {"lat": 38.892224166666665, "fusion_lat": 0.0, "type": "electric_scooter", "bike_id": "75740a911fa346113d0445944085044b", "rental_uris": {"ios": "https://dc.lft.to/lastmile_qr_scan", "android": "https://dc.lft.to/lastmile_qr_scan"}, "fusion_lon": 0.0, "lon": -77.04325233333333, "name": "75740a911fa346113d0445944085044b", "is_reserved": 0, "is_disabled": 0}, {"lat": 38.929776333333336, "fusion_lat": 0.0, "type": "electric_scooter", "bike_id": "5c167cd5e3f4c47a9f818fea9fe8bad5", "rental_uris": {"ios": "https://dc.lft.to/lastmile_qr_scan", "android": "https://dc.lft.to/lastmile_qr_scan"}, "fusion_lon": 0.0, "lon": -77.0281985, "name": "5c167cd5e3f4c47a9f818fea9fe8bad5", "is_reserved": 0, "is_disabled": 0}, {"lat": 38.84612533333333, "fusion_lat": 0.0, "type": "electric_bike", "bike_id": "2149a50f0df4d7120c9bf1180943e017", "rental_uris": {"ios": "https://dc.lft.to/lastmile_qr_scan", "android": "https://dc.lft.to/lastmile_qr_scan"}, "fusion_lon": 0.0, "lon": -76.9691445, "name": "2149a50f0df4d7120c9bf1180943e017", "is_reserved": 0, "is_disabled": 0}, {"lat": 38.899071, "fusion_lat": 0.0, "type": "electric_scooter", "bike_id": "310a0915215e71d3671fbbb2b8191ef4", "rental_uris": {"ios": "https://dc.lft.to/lastmile_qr_scan", "android": "https://dc.lft.to/lastmile_qr_scan"}, "fusion_lon": 0.0, "lon": -77.013861, "name": "310a0915215e71d3671fbbb2b8191ef4", "is_reserved": 0, "is_disabled": 0}, {"lat": 38.87221916666667, "fusion_lat": 0.0, "type": "electric_scooter", "bike_id": "afa8be0179e991a03eb2af0713c3c167", "rental_uris": {"ios": "https://dc.lft.to/lastmile_qr_scan", "android": "https://dc.lft.to/lastmile_qr_scan"}, "fusion_lon": 0.0, "lon": -77.006162, "name": "afa8be0179e991a03eb2af0713c3c167", "is_reserved": 0, "is_disabled": 0}, {"lat": 38.91030833333333, "fusion_lat": 0.0, "type": "electric_scooter", "bike_id": "6ae7354ba5a648a3b903c7f823a04343", "rental_uris": {"ios": "https://dc.lft.to/lastmile_qr_scan", "android": "https://dc.lft.to/lastmile_qr_scan"}, "fusion_lon": 0.0, "lon": -77.021168, "name": "6ae7354ba5a648a3b903c7f823a04343", "is_reserved": 0, "is_disabled": 0}, {"lat": 38.92742833333333, "fusion_lat": 0.0, "type": "electric_scooter", "bike_id": "a5359ceb82a9952589794288f1cbaf83", "rental_uris": {"ios": "https://dc.lft.to/lastmile_qr_scan", "android": "https://dc.lft.to/lastmile_qr_scan"}, "fusion_lon": 0.0, "lon": -77.0224935, "name": "a5359ceb82a9952589794288f1cbaf83", "is_reserved": 0, "is_disabled": 0}, {"lat": 38.9205825, "fusion_lat": 0.0, "type": "electric_scooter", "bike_id": "4d3815961086446d77770b234785bf74", "rental_uris": {"ios": "https://dc.lft.to/lastmile_qr_scan", "android": "https://dc.lft.to/lastmile_qr_scan"}, "fusion_lon": 0.0, "lon": -77.025093, "name": "4d3815961086446d77770b234785bf74", "is_reserved": 0, "is_disabled": 0}, {"lat": 38.922870833333334, "fusion_lat": 0.0, "type": "electric_scooter", "bike_id": "d6975c67426a5b27fe8201340460972c", "rental_uris": {"ios": "https://dc.lft.to/lastmile_qr_scan", "android": "https://dc.lft.to/lastmile_qr_scan"}, "fusion_lon": 0.0, "lon": -77.0365535, "name": "d6975c67426a5b27fe8201340460972c", "is_reserved": 0, "is_disabled": 0}, {"lat": 38.92338766666667, "fusion_lat": 0.0, "type": "electric_scooter", "bike_id": "d1efbcb6dc74d218e3bb1b67482119a4", "rental_uris": {"ios": "https://dc.lft.to/lastmile_qr_scan", "android": "https://dc.lft.to/lastmile_qr_scan"}, "fusion_lon": 0.0, "lon": -77.0353555, "name": "d1efbcb6dc74d218e3bb1b67482119a4", "is_reserved": 0, "is_disabled": 0}, {"lat": 38.954325833333336, "fusion_lat": 0.0, "type": "electric_scooter", "bike_id": "103e57f7e48bccbb20729bbe9e70ecdf", "rental_uris": {"ios": "https://dc.lft.to/lastmile_qr_scan", "android": "https://dc.lft.to/lastmile_qr_scan"}, "fusion_lon": 0.0, "lon": -77.01849366666667, "name": "103e57f7e48bccbb20729bbe9e70ecdf", "is_reserved": 0, "is_disabled": 0}, {"lat": 38.93094, "fusion_lat": 0.0, "type": "electric_scooter", "bike_id": "b8b1774d97c8e7a1d4a77932097bd835", "rental_uris": {"ios": "https://dc.lft.to/lastmile_qr_scan", "android": "https://dc.lft.to/lastmile_qr_scan"}, "fusion_lon": 0.0, "lon": -77.02550683333334, "name": "b8b1774d97c8e7a1d4a77932097bd835", "is_reserved": 0, "is_disabled": 0}, {"lat": 38.8984035, "fusion_lat": 0.0, "type": "electric_scooter", "bike_id": "fa0bbd6f64de30be77dc8c1b5ef6b74c", "rental_uris": {"ios": "https://dc.lft.to/lastmile_qr_scan", "android": "https://dc.lft.to/lastmile_qr_scan"}, "fusion_lon": 0.0, "lon": -77.041104, "name": "fa0bbd6f64de30be77dc8c1b5ef6b74c", "is_reserved": 0, "is_disabled": 0}, {"lat": 38.9240625, "fusion_lat": 0.0, "type": "electric_scooter", "bike_id": "7e30c19388e2f45a81468cb3c6d5b0fa", "rental_uris": {"ios": "https://dc.lft.to/lastmile_qr_scan", "android": "https://dc.lft.to/lastmile_qr_scan"}, "fusion_lon": 0.0, "lon": -77.02004566666666, "name": "7e30c19388e2f45a81468cb3c6d5b0fa", "is_reserved": 0, "is_disabled": 0}, {"lat": 38.921502333333336, "fusion_lat": 0.0, "type": "electric_scooter", "bike_id": "18ac5611770ad61da0ace9a320480e5e", "rental_uris": {"ios": "https://dc.lft.to/lastmile_qr_scan", "android": "https://dc.lft.to/lastmile_qr_scan"}, "fusion_lon": 0.0, "lon": -77.04342916666667, "name": "18ac5611770ad61da0ace9a320480e5e", "is_reserved": 0, "is_disabled": 0}, {"lat": 38.902421333333336, "fusion_lat": 0.0, "type": "electric_scooter", "bike_id": "98f5d13de1138b9da20cffc3e4901869", "rental_uris": {"ios": "https://dc.lft.to/lastmile_qr_scan", "android": "https://dc.lft.to/lastmile_qr_scan"}, "fusion_lon": 0.0, "lon": -77.0191805, "name": "98f5d13de1138b9da20cffc3e4901869", "is_reserved": 0, "is_disabled": 0}, {"lat": 38.994966, "fusion_lat": 0.0, "type": "electric_bike", "bike_id": "fdd3f419b6182272e339a2b1af1b94ef", "rental_uris": {"ios": "https://dc.lft.to/lastmile_qr_scan", "android": "https://dc.lft.to/lastmile_qr_scan"}, "fusion_lon": 0.0, "lon": -77.07791366666666, "name": "fdd3f419b6182272e339a2b1af1b94ef", "is_reserved": 0, "is_disabled": 0}, {"lat": 38.94100066666667, "fusion_lat": 0.0, "type": "electric_scooter", "bike_id": "14e207f7528bbcfdaeef70912b53a251", "rental_uris": {"ios": "https://dc.lft.to/lastmile_qr_scan", "android": "https://dc.lft.to/lastmile_qr_scan"}, "fusion_lon": 0.0, "lon": -77.02642466666667, "name": "14e207f7528bbcfdaeef70912b53a251", "is_reserved": 0, "is_disabled": 0}, {"lat": 38.9169685, "fusion_lat": 0.0, "type": "electric_scooter", "bike_id": "2e2e8debee1fa048f83a04c11e9b511e", "rental_uris": {"ios": "https://dc.lft.to/lastmile_qr_scan", "android": "https://dc.lft.to/lastmile_qr_scan"}, "fusion_lon": 0.0, "lon": -77.02433766666667, "name": "2e2e8debee1fa048f83a04c11e9b511e", "is_reserved": 0, "is_disabled": 0}, {"lat": 38.900089666666666, "fusion_lat": 0.0, "type": "electric_scooter", "bike_id": "75730461aac3cbc6a5574ba9987c14ce", "rental_uris": {"ios": "https://dc.lft.to/lastmile_qr_scan", "android": "https://dc.lft.to/lastmile_qr_scan"}, "fusion_lon": 0.0, "lon": -77.02283166666666, "name": "75730461aac3cbc6a5574ba9987c14ce", "is_reserved": 0, "is_disabled": 0}, {"lat": 38.9342585, "fusion_lat": 0.0, "type": "electric_bike", "bike_id": "6baac24accf9a1c782decea122c54eef", "rental_uris": {"ios": "https://dc.lft.to/lastmile_qr_scan", "android": "https://dc.lft.to/lastmile_qr_scan"}, "fusion_lon": 0.0, "lon": -77.02212316666666, "name": "6baac24accf9a1c782decea122c54eef", "is_reserved": 0, "is_disabled": 0}, {"lat": 38.90960883333333, "fusion_lat": 0.0, "type": "electric_scooter", "bike_id": "1ebdb811ef2c7f493c73f828e6face47", "rental_uris": {"ios": "https://dc.lft.to/lastmile_qr_scan", "android": "https://dc.lft.to/lastmile_qr_scan"}, "fusion_lon": 0.0, "lon": -77.03433016666666, "name": "1ebdb811ef2c7f493c73f828e6face47", "is_reserved": 0, "is_disabled": 0}, {"lat": 39.099657, "fusion_lat": 0.0, "type": "electric_bike", "bike_id": "04d9a2f5b04e6a7d902587dd1a32ad9e", "rental_uris": {"ios": "https://dc.lft.to/lastmile_qr_scan", "android": "https://dc.lft.to/lastmile_qr_scan"}, "fusion_lon": 0.0, "lon": -77.18306516666667, "name": "04d9a2f5b04e6a7d902587dd1a32ad9e", "is_reserved": 0, "is_disabled": 0}, {"lat": 38.90865083333333, "fusion_lat": 0.0, "type": "electric_scooter", "bike_id": "8d313e161f59f3bcad5929daa19814a1", "rental_uris": {"ios": "https://dc.lft.to/lastmile_qr_scan", "android": "https://dc.lft.to/lastmile_qr_scan"}, "fusion_lon": 0.0, "lon": -77.01946916666667, "name": "8d313e161f59f3bcad5929daa19814a1", "is_reserved": 0, "is_disabled": 0}, {"lat": 38.915495166666666, "fusion_lat": 0.0, "type": "electric_scooter", "bike_id": "ef215ce59da84c8e27751ce4c55cb18c", "rental_uris": {"ios": "https://dc.lft.to/lastmile_qr_scan", "android": "https://dc.lft.to/lastmile_qr_scan"}, "fusion_lon": 0.0, "lon": -77.011844, "name": "ef215ce59da84c8e27751ce4c55cb18c", "is_reserved": 0, "is_disabled": 0}, {"lat": 38.89013333333333, "fusion_lat": 0.0, "type": "electric_scooter", "bike_id": "c7f74ad9fc91d6179aae2d83541be5a2", "rental_uris": {"ios": "https://dc.lft.to/lastmile_qr_scan", "android": "https://dc.lft.to/lastmile_qr_scan"}, "fusion_lon": 0.0, "lon": -76.93748333333333, "name": "c7f74ad9fc91d6179aae2d83541be5a2", "is_reserved": 0, "is_disabled": 0}, {"lat": 38.927417166666665, "fusion_lat": 0.0, "type": "electric_scooter", "bike_id": "8468962dabab1ed671dccb1df5086269", "rental_uris": {"ios": "https://dc.lft.to/lastmile_qr_scan", "android": "https://dc.lft.to/lastmile_qr_scan"}, "fusion_lon": 0.0, "lon": -77.03504533333333, "name": "8468962dabab1ed671dccb1df5086269", "is_reserved": 0, "is_disabled": 0}, {"lat": 38.902201833333336, "fusion_lat": 0.0, "type": "electric_scooter", "bike_id": "01428b84c1819bcc5fd7ddf5c76db842", "rental_uris": {"ios": "https://dc.lft.to/lastmile_qr_scan", "android": "https://dc.lft.to/lastmile_qr_scan"}, "fusion_lon": 0.0, "lon": -76.98196966666667, "name": "01428b84c1819bcc5fd7ddf5c76db842", "is_reserved": 0, "is_disabled": 0}, {"lat": 38.93102566666666, "fusion_lat": 0.0, "type": "electric_scooter", "bike_id": "0373ae9183570eb96d330f43e55fac5f", "rental_uris": {"ios": "https://dc.lft.to/lastmile_qr_scan", "android": "https://dc.lft.to/lastmile_qr_scan"}, "fusion_lon": 0.0, "lon": -77.02474483333333, "name": "0373ae9183570eb96d330f43e55fac5f", "is_reserved": 0, "is_disabled": 0}, {"lat": 38.8997425, "fusion_lat": 0.0, "type": "electric_scooter", "bike_id": "aa4ddcf3fd695e4c063117a35d187bdc", "rental_uris": {"ios": "https://dc.lft.to/lastmile_qr_scan", "android": "https://dc.lft.to/lastmile_qr_scan"}, "fusion_lon": 0.0, "lon": -77.02868016666666, "name": "aa4ddcf3fd695e4c063117a35d187bdc", "is_reserved": 0, "is_disabled": 0}, {"lat": 38.9336065, "fusion_lat": 0.0, "type": "electric_scooter", "bike_id": "2b061433cb493bb1130e0d978786b46b", "rental_uris": {"ios": "https://dc.lft.to/lastmile_qr_scan", "android": "https://dc.lft.to/lastmile_qr_scan"}, "fusion_lon": 0.0, "lon": -77.03727133333334, "name": "2b061433cb493bb1130e0d978786b46b", "is_reserved": 0, "is_disabled": 0}, {"lat": 38.90571033333333, "fusion_lat": 0.0, "type": "electric_scooter", "bike_id": "2603fab06f1670bf9fa429f3dbcbcf31", "rental_uris": {"ios": "https://dc.lft.to/lastmile_qr_scan", "android": "https://dc.lft.to/lastmile_qr_scan"}, "fusion_lon": 0.0, "lon": -77.00578, "name": "2603fab06f1670bf9fa429f3dbcbcf31", "is_reserved": 0, "is_disabled": 0}, {"lat": 38.9279805, "fusion_lat": 0.0, "type": "electric_scooter", "bike_id": "1559096670ec49fb21419cbeb1b94257", "rental_uris": {"ios": "https://dc.lft.to/lastmile_qr_scan", "android": "https://dc.lft.to/lastmile_qr_scan"}, "fusion_lon": 0.0, "lon": -77.0221255, "name": "1559096670ec49fb21419cbeb1b94257", "is_reserved": 0, "is_disabled": 0}, {"lat": 38.88016016666667, "fusion_lat": 0.0, "type": "electric_scooter", "bike_id": "43ae78e66237b6154f7d4d7a4b4deeb1", "rental_uris": {"ios": "https://dc.lft.to/lastmile_qr_scan", "android": "https://dc.lft.to/lastmile_qr_scan"}, "fusion_lon": 0.0, "lon": -77.02478883333333, "name": "43ae78e66237b6154f7d4d7a4b4deeb1", "is_reserved": 0, "is_disabled": 0}, {"lat": 38.93590316666667, "fusion_lat": 0.0, "type": "electric_scooter", "bike_id": "9dc8bb01d6738e8f3509bd1650fe9dd5", "rental_uris": {"ios": "https://dc.lft.to/lastmile_qr_scan", "android": "https://dc.lft.to/lastmile_qr_scan"}, "fusion_lon": 0.0, "lon": -77.02846416666667, "name": "9dc8bb01d6738e8f3509bd1650fe9dd5", "is_reserved": 0, "is_disabled": 0}, {"lat": 38.912709166666666, "fusion_lat": 0.0, "type": "electric_scooter", "bike_id": "5b27dd9364214d99fc9481b69b9d824b", "rental_uris": {"ios": "https://dc.lft.to/lastmile_qr_scan", "android": "https://dc.lft.to/lastmile_qr_scan"}, "fusion_lon": 0.0, "lon": -77.03830333333333, "name": "5b27dd9364214d99fc9481b69b9d824b", "is_reserved": 0, "is_disabled": 0}, {"lat": 38.904590166666665, "fusion_lat": 0.0, "type": "electric_scooter", "bike_id": "7622bf2c8861594122691a169db4e5ab", "rental_uris": {"ios": "https://dc.lft.to/lastmile_qr_scan", "android": "https://dc.lft.to/lastmile_qr_scan"}, "fusion_lon": 0.0, "lon": -77.02700666666667, "name": "7622bf2c8861594122691a169db4e5ab", "is_reserved": 0, "is_disabled": 0}, {"lat": 38.89436833333333, "fusion_lat": 0.0, "type": "electric_scooter", "bike_id": "6e0a868b85e3a097e7a45cf0d9dea034", "rental_uris": {"ios": "https://dc.lft.to/lastmile_qr_scan", "android": "https://dc.lft.to/lastmile_qr_scan"}, "fusion_lon": 0.0, "lon": -76.94985233333334, "name": "6e0a868b85e3a097e7a45cf0d9dea034", "is_reserved": 0, "is_disabled": 0}, {"lat": 38.9170105, "fusion_lat": 0.0, "type": "electric_scooter", "bike_id": "73da62e8ba6461eed9543a8ada34d53d", "rental_uris": {"ios": "https://dc.lft.to/lastmile_qr_scan", "android": "https://dc.lft.to/lastmile_qr_scan"}, "fusion_lon": 0.0, "lon": -77.02777933333333, "name": "73da62e8ba6461eed9543a8ada34d53d", "is_reserved": 0, "is_disabled": 0}, {"lat": 38.91708083333333, "fusion_lat": 0.0, "type": "electric_scooter", "bike_id": "2aca1b3155573bff0ff03c0d27af22f6", "rental_uris": {"ios": "https://dc.lft.to/lastmile_qr_scan", "android": "https://dc.lft.to/lastmile_qr_scan"}, "fusion_lon": 0.0, "lon": -77.0291895, "name": "2aca1b3155573bff0ff03c0d27af22f6", "is_reserved": 0, "is_disabled": 0}, {"lat": 38.9098765, "fusion_lat": 0.0, "type": "electric_scooter", "bike_id": "11a3ee554a03f318cca9c1cc499968ce", "rental_uris": {"ios": "https://dc.lft.to/lastmile_qr_scan", "android": "https://dc.lft.to/lastmile_qr_scan"}, "fusion_lon": 0.0, "lon": -77.03227783333334, "name": "11a3ee554a03f318cca9c1cc499968ce", "is_reserved": 0, "is_disabled": 0}, {"lat": 38.9078085, "fusion_lat": 0.0, "type": "electric_scooter", "bike_id": "75024a01918452514d52ab6c2e0308ab", "rental_uris": {"ios": "https://dc.lft.to/lastmile_qr_scan", "android": "https://dc.lft.to/lastmile_qr_scan"}, "fusion_lon": 0.0, "lon": -77.0383505, "name": "75024a01918452514d52ab6c2e0308ab", "is_reserved": 0, "is_disabled": 0}, {"lat": 38.9078455, "fusion_lat": 0.0, "type": "electric_scooter", "bike_id": "6da9b048e0f2f1890d3d2a72f6b8d9b6", "rental_uris": {"ios": "https://dc.lft.to/lastmile_qr_scan", "android": "https://dc.lft.to/lastmile_qr_scan"}, "fusion_lon": 0.0, "lon": -77.0419285, "name": "6da9b048e0f2f1890d3d2a72f6b8d9b6", "is_reserved": 0, "is_disabled": 0}, {"lat": 38.881262166666666, "fusion_lat": 0.0, "type": "electric_scooter", "bike_id": "9f99c358bfddb6a863e08d9cb36d1e37", "rental_uris": {"ios": "https://dc.lft.to/lastmile_qr_scan", "android": "https://dc.lft.to/lastmile_qr_scan"}, "fusion_lon": 0.0, "lon": -77.00131183333333, "name": "9f99c358bfddb6a863e08d9cb36d1e37", "is_reserved": 0, "is_disabled": 0}, {"lat": 38.896091, "fusion_lat": 0.0, "type": "electric_scooter", "bike_id": "5b626c70948137df81a944cad5abcd27", "rental_uris": {"ios": "https://dc.lft.to/lastmile_qr_scan", "android": "https://dc.lft.to/lastmile_qr_scan"}, "fusion_lon": 0.0, "lon": -77.044593, "name": "5b626c70948137df81a944cad5abcd27", "is_reserved": 0, "is_disabled": 0}, {"lat": 38.91706516666667, "fusion_lat": 0.0, "type": "electric_scooter", "bike_id": "0999afc874a57d96219aa6b7b5b65932", "rental_uris": {"ios": "https://dc.lft.to/lastmile_qr_scan", "android": "https://dc.lft.to/lastmile_qr_scan"}, "fusion_lon": 0.0, "lon": -77.03154216666667, "name": "0999afc874a57d96219aa6b7b5b65932", "is_reserved": 0, "is_disabled": 0}, {"lat": 38.92464533333333, "fusion_lat": 0.0, "type": "electric_scooter", "bike_id": "c2ec73d5ae336919d840c1a444847efe", "rental_uris": {"ios": "https://dc.lft.to/lastmile_qr_scan", "android": "https://dc.lft.to/lastmile_qr_scan"}, "fusion_lon": 0.0, "lon": -77.04037816666667, "name": "c2ec73d5ae336919d840c1a444847efe", "is_reserved": 0, "is_disabled": 0}, {"lat": 38.920083, "fusion_lat": 0.0, "type": "electric_scooter", "bike_id": "8cbd5a717d3c843244c131e24c7f172f", "rental_uris": {"ios": "https://dc.lft.to/lastmile_qr_scan", "android": "https://dc.lft.to/lastmile_qr_scan"}, "fusion_lon": 0.0, "lon": -77.02408383333334, "name": "8cbd5a717d3c843244c131e24c7f172f", "is_reserved": 0, "is_disabled": 0}, {"lat": 38.9020035, "fusion_lat": 0.0, "type": "electric_scooter", "bike_id": "9aba79612a4d2e6d2bf57f2798149827", "rental_uris": {"ios": "https://dc.lft.to/lastmile_qr_scan", "android": "https://dc.lft.to/lastmile_qr_scan"}, "fusion_lon": 0.0, "lon": -77.02191466666666, "name": "9aba79612a4d2e6d2bf57f2798149827", "is_reserved": 0, "is_disabled": 0}, {"lat": 38.91952233333333, "fusion_lat": 0.0, "type": "electric_scooter", "bike_id": "cbb5cd0107d5028c3ee8ca8d6f3e5dea", "rental_uris": {"ios": "https://dc.lft.to/lastmile_qr_scan", "android": "https://dc.lft.to/lastmile_qr_scan"}, "fusion_lon": 0.0, "lon": -77.01474583333334, "name": "cbb5cd0107d5028c3ee8ca8d6f3e5dea", "is_reserved": 0, "is_disabled": 0}, {"lat": 38.917683333333336, "fusion_lat": 0.0, "type": "electric_scooter", "bike_id": "38fc9a7e8941878a2ccddbb5f32ead6a", "rental_uris": {"ios": "https://dc.lft.to/lastmile_qr_scan", "android": "https://dc.lft.to/lastmile_qr_scan"}, "fusion_lon": 0.0, "lon": -77.04060683333333, "name": "38fc9a7e8941878a2ccddbb5f32ead6a", "is_reserved": 0, "is_disabled": 0}, {"lat": 38.92523833333333, "fusion_lat": 0.0, "type": "electric_scooter", "bike_id": "ded2b1966868549fe663baee76d74ea7", "rental_uris": {"ios": "https://dc.lft.to/lastmile_qr_scan", "android": "https://dc.lft.to/lastmile_qr_scan"}, "fusion_lon": 0.0, "lon": -76.996361, "name": "ded2b1966868549fe663baee76d74ea7", "is_reserved": 0, "is_disabled": 0}, {"lat": 38.93470966666667, "fusion_lat": 0.0, "type": "electric_scooter", "bike_id": "759c8c2eaf9efe3141b3d97a8cf97c1f", "rental_uris": {"ios": "https://dc.lft.to/lastmile_qr_scan", "android": "https://dc.lft.to/lastmile_qr_scan"}, "fusion_lon": 0.0, "lon": -77.041454, "name": "759c8c2eaf9efe3141b3d97a8cf97c1f", "is_reserved": 0, "is_disabled": 0}, {"lat": 38.866598, "fusion_lat": 0.0, "type": "electric_scooter", "bike_id": "152d3b6702bd2a345cb93307772f53e0", "rental_uris": {"ios": "https://dc.lft.to/lastmile_qr_scan", "android": "https://dc.lft.to/lastmile_qr_scan"}, "fusion_lon": 0.0, "lon": -76.9889955, "name": "152d3b6702bd2a345cb93307772f53e0", "is_reserved": 0, "is_disabled": 0}, {"lat": 38.93319533333333, "fusion_lat": 0.0, "type": "electric_scooter", "bike_id": "662b97f8f2f405054b3232d2f2ec2ff7", "rental_uris": {"ios": "https://dc.lft.to/lastmile_qr_scan", "android": "https://dc.lft.to/lastmile_qr_scan"}, "fusion_lon": 0.0, "lon": -77.03267983333333, "name": "662b97f8f2f405054b3232d2f2ec2ff7", "is_reserved": 0, "is_disabled": 0}, {"lat": 38.88511883333334, "fusion_lat": 0.0, "type": "electric_scooter", "bike_id": "1077d135eec803d509725a40fc99491e", "rental_uris": {"ios": "https://dc.lft.to/lastmile_qr_scan", "android": "https://dc.lft.to/lastmile_qr_scan"}, "fusion_lon": 0.0, "lon": -76.95267283333334, "name": "1077d135eec803d509725a40fc99491e", "is_reserved": 0, "is_disabled": 0}, {"lat": 38.89914916666667, "fusion_lat": 0.0, "type": "electric_scooter", "bike_id": "3a0d9b6940f52fe5b16918a61ec021d7", "rental_uris": {"ios": "https://dc.lft.to/lastmile_qr_scan", "android": "https://dc.lft.to/lastmile_qr_scan"}, "fusion_lon": 0.0, "lon": -77.040299, "name": "3a0d9b6940f52fe5b16918a61ec021d7", "is_reserved": 0, "is_disabled": 0}, {"lat": 38.920748, "fusion_lat": 0.0, "type": "electric_scooter", "bike_id": "d205c2431ad257a5bce4341874b12c74", "rental_uris": {"ios": "https://dc.lft.to/lastmile_qr_scan", "android": "https://dc.lft.to/lastmile_qr_scan"}, "fusion_lon": 0.0, "lon": -77.02514066666667, "name": "d205c2431ad257a5bce4341874b12c74", "is_reserved": 0, "is_disabled": 0}, {"lat": 38.9293205, "fusion_lat": 0.0, "type": "electric_scooter", "bike_id": "d87de2613ce87ecec0958baf75e2c207", "rental_uris": {"ios": "https://dc.lft.to/lastmile_qr_scan", "android": "https://dc.lft.to/lastmile_qr_scan"}, "fusion_lon": 0.0, "lon": -77.03261616666667, "name": "d87de2613ce87ecec0958baf75e2c207", "is_reserved": 0, "is_disabled": 0}, {"lat": 38.848277, "fusion_lat": 0.0, "type": "electric_bike", "bike_id": "233c3b25d64716cfcaa429dc75107e95", "rental_uris": {"ios": "https://dc.lft.to/lastmile_qr_scan", "android": "https://dc.lft.to/lastmile_qr_scan"}, "fusion_lon": 0.0, "lon": -77.078989, "name": "233c3b25d64716cfcaa429dc75107e95", "is_reserved": 0, "is_disabled": 0}, {"lat": 38.899723333333334, "fusion_lat": 0.0, "type": "electric_scooter", "bike_id": "a1d5d8d86293b94c83b475f6b27ccb73", "rental_uris": {"ios": "https://dc.lft.to/lastmile_qr_scan", "android": "https://dc.lft.to/lastmile_qr_scan"}, "fusion_lon": 0.0, "lon": -76.995036, "name": "a1d5d8d86293b94c83b475f6b27ccb73", "is_reserved": 0, "is_disabled": 0}, {"lat": 38.917114, "fusion_lat": 0.0, "type": "electric_scooter", "bike_id": "676b029d66deba36d497aa85e991ff67", "rental_uris": {"ios": "https://dc.lft.to/lastmile_qr_scan", "android": "https://dc.lft.to/lastmile_qr_scan"}, "fusion_lon": 0.0, "lon": -77.04085033333334, "name": "676b029d66deba36d497aa85e991ff67", "is_reserved": 0, "is_disabled": 0}, {"lat": 38.90729116666667, "fusion_lat": 0.0, "type": "electric_scooter", "bike_id": "a6c780d0d68a07b997083515bc5ecd28", "rental_uris": {"ios": "https://dc.lft.to/lastmile_qr_scan", "android": "https://dc.lft.to/lastmile_qr_scan"}, "fusion_lon": 0.0, "lon": -77.01133133333333, "name": "a6c780d0d68a07b997083515bc5ecd28", "is_reserved": 0, "is_disabled": 0}, {"lat": 38.928441166666666, "fusion_lat": 0.0, "type": "electric_scooter", "bike_id": "4346297988304b3bd911e9557ce5ca9e", "rental_uris": {"ios": "https://dc.lft.to/lastmile_qr_scan", "android": "https://dc.lft.to/lastmile_qr_scan"}, "fusion_lon": 0.0, "lon": -77.02008816666667, "name": "4346297988304b3bd911e9557ce5ca9e", "is_reserved": 0, "is_disabled": 0}, {"lat": 38.916979833333336, "fusion_lat": 0.0, "type": "electric_scooter", "bike_id": "25c86a91eeaa626d12c6e5f0748b0c84", "rental_uris": {"ios": "https://dc.lft.to/lastmile_qr_scan", "android": "https://dc.lft.to/lastmile_qr_scan"}, "fusion_lon": 0.0, "lon": -77.0242905, "name": "25c86a91eeaa626d12c6e5f0748b0c84", "is_reserved": 0, "is_disabled": 0}, {"lat": 38.862124333333334, "fusion_lat": 0.0, "type": "electric_scooter", "bike_id": "066acda6c3eb911691d6ff2927996ca0", "rental_uris": {"ios": "https://dc.lft.to/lastmile_qr_scan", "android": "https://dc.lft.to/lastmile_qr_scan"}, "fusion_lon": 0.0, "lon": -76.99448283333334, "name": "066acda6c3eb911691d6ff2927996ca0", "is_reserved": 0, "is_disabled": 0}, {"lat": 38.948894, "fusion_lat": 0.0, "type": "electric_scooter", "bike_id": "278c603df6f8d62c523e075294af7f47", "rental_uris": {"ios": "https://dc.lft.to/lastmile_qr_scan", "android": "https://dc.lft.to/lastmile_qr_scan"}, "fusion_lon": 0.0, "lon": -77.01849666666666, "name": "278c603df6f8d62c523e075294af7f47", "is_reserved": 0, "is_disabled": 0}, {"lat": 38.88260116666667, "fusion_lat": 0.0, "type": "electric_scooter", "bike_id": "3dc6719920eacd5c06fb05b8423c402e", "rental_uris": {"ios": "https://dc.lft.to/lastmile_qr_scan", "android": "https://dc.lft.to/lastmile_qr_scan"}, "fusion_lon": 0.0, "lon": -76.99613666666667, "name": "3dc6719920eacd5c06fb05b8423c402e", "is_reserved": 0, "is_disabled": 0}, {"lat": 38.902840833333336, "fusion_lat": 0.0, "type": "electric_scooter", "bike_id": "0ab6ac66ba28716aa90fefba9126a5bd", "rental_uris": {"ios": "https://dc.lft.to/lastmile_qr_scan", "android": "https://dc.lft.to/lastmile_qr_scan"}, "fusion_lon": 0.0, "lon": -77.03835866666667, "name": "0ab6ac66ba28716aa90fefba9126a5bd", "is_reserved": 0, "is_disabled": 0}, {"lat": 38.9078265, "fusion_lat": 0.0, "type": "electric_scooter", "bike_id": "666f99642ec180cbac4abf60361173fb", "rental_uris": {"ios": "https://dc.lft.to/lastmile_qr_scan", "android": "https://dc.lft.to/lastmile_qr_scan"}, "fusion_lon": 0.0, "lon": -77.02988766666667, "name": "666f99642ec180cbac4abf60361173fb", "is_reserved": 0, "is_disabled": 0}, {"lat": 38.898331, "fusion_lat": 0.0, "type": "electric_scooter", "bike_id": "22fae21124f95bd1fe288f3651b85ac9", "rental_uris": {"ios": "https://dc.lft.to/lastmile_qr_scan", "android": "https://dc.lft.to/lastmile_qr_scan"}, "fusion_lon": 0.0, "lon": -77.05031483333333, "name": "22fae21124f95bd1fe288f3651b85ac9", "is_reserved": 0, "is_disabled": 0}, {"lat": 38.908741166666665, "fusion_lat": 0.0, "type": "electric_scooter", "bike_id": "0137b827894f9c68b95aa8e4cf9df8c3", "rental_uris": {"ios": "https://dc.lft.to/lastmile_qr_scan", "android": "https://dc.lft.to/lastmile_qr_scan"}, "fusion_lon": 0.0, "lon": -77.0028025, "name": "0137b827894f9c68b95aa8e4cf9df8c3", "is_reserved": 0, "is_disabled": 0}, {"lat": 38.89045, "fusion_lat": 0.0, "type": "electric_scooter", "bike_id": "b5be3f25e04bd69ae18ef33f0285ce57", "rental_uris": {"ios": "https://dc.lft.to/lastmile_qr_scan", "android": "https://dc.lft.to/lastmile_qr_scan"}, "fusion_lon": 0.0, "lon": -76.9375445, "name": "b5be3f25e04bd69ae18ef33f0285ce57", "is_reserved": 0, "is_disabled": 0}, {"lat": 38.928006333333336, "fusion_lat": 0.0, "type": "electric_scooter", "bike_id": "a5f71a26b5f46fe14a3a93c259ca5577", "rental_uris": {"ios": "https://dc.lft.to/lastmile_qr_scan", "android": "https://dc.lft.to/lastmile_qr_scan"}, "fusion_lon": 0.0, "lon": -77.021272, "name": "a5f71a26b5f46fe14a3a93c259ca5577", "is_reserved": 0, "is_disabled": 0}, {"lat": 38.91925, "fusion_lat": 0.0, "type": "electric_scooter", "bike_id": "16018501c33932ad165ecaee5c2d67ca", "rental_uris": {"ios": "https://dc.lft.to/lastmile_qr_scan", "android": "https://dc.lft.to/lastmile_qr_scan"}, "fusion_lon": 0.0, "lon": -77.0325635, "name": "16018501c33932ad165ecaee5c2d67ca", "is_reserved": 0, "is_disabled": 0}, {"lat": 38.93396766666667, "fusion_lat": 0.0, "type": "electric_scooter", "bike_id": "a37c4f13c07bb448d81ae4e515a07371", "rental_uris": {"ios": "https://dc.lft.to/lastmile_qr_scan", "android": "https://dc.lft.to/lastmile_qr_scan"}, "fusion_lon": 0.0, "lon": -77.05741183333333, "name": "a37c4f13c07bb448d81ae4e515a07371", "is_reserved": 0, "is_disabled": 0}, {"lat": 38.8923925, "fusion_lat": 0.0, "type": "electric_scooter", "bike_id": "a485fdd19ecbe77edd6e1c50bdfb7234", "rental_uris": {"ios": "https://dc.lft.to/lastmile_qr_scan", "android": "https://dc.lft.to/lastmile_qr_scan"}, "fusion_lon": 0.0, "lon": -77.04486516666667, "name": "a485fdd19ecbe77edd6e1c50bdfb7234", "is_reserved": 0, "is_disabled": 0}, {"lat": 38.92317283333333, "fusion_lat": 0.0, "type": "electric_scooter", "bike_id": "b840c7fc3220aa82336b4138404a32be", "rental_uris": {"ios": "https://dc.lft.to/lastmile_qr_scan", "android": "https://dc.lft.to/lastmile_qr_scan"}, "fusion_lon": 0.0, "lon": -77.040378, "name": "b840c7fc3220aa82336b4138404a32be", "is_reserved": 0, "is_disabled": 0}, {"lat": 38.9661135, "fusion_lat": 0.0, "type": "electric_scooter", "bike_id": "6fe79cd24633df1f4d83f0e174177ef7", "rental_uris": {"ios": "https://dc.lft.to/lastmile_qr_scan", "android": "https://dc.lft.to/lastmile_qr_scan"}, "fusion_lon": 0.0, "lon": -77.02744216666666, "name": "6fe79cd24633df1f4d83f0e174177ef7", "is_reserved": 0, "is_disabled": 0}, {"lat": 38.9135655, "fusion_lat": 0.0, "type": "electric_scooter", "bike_id": "a3335d37d7d72a9f319472153622b66f", "rental_uris": {"ios": "https://dc.lft.to/lastmile_qr_scan", "android": "https://dc.lft.to/lastmile_qr_scan"}, "fusion_lon": 0.0, "lon": -77.022376, "name": "a3335d37d7d72a9f319472153622b66f", "is_reserved": 0, "is_disabled": 0}, {"lat": 38.895789666666666, "fusion_lat": 0.0, "type": "electric_scooter", "bike_id": "c89a10298320cdff75a72d6332a9ddd5", "rental_uris": {"ios": "https://dc.lft.to/lastmile_qr_scan", "android": "https://dc.lft.to/lastmile_qr_scan"}, "fusion_lon": 0.0, "lon": -76.98322266666666, "name": "c89a10298320cdff75a72d6332a9ddd5", "is_reserved": 0, "is_disabled": 0}, {"lat": 38.8960975, "fusion_lat": 0.0, "type": "electric_scooter", "bike_id": "4fca1d57e03b2d3a33e45cda8ca6099b", "rental_uris": {"ios": "https://dc.lft.to/lastmile_qr_scan", "android": "https://dc.lft.to/lastmile_qr_scan"}, "fusion_lon": 0.0, "lon": -76.99889933333333, "name": "4fca1d57e03b2d3a33e45cda8ca6099b", "is_reserved": 0, "is_disabled": 0}, {"lat": 38.897377666666664, "fusion_lat": 0.0, "type": "electric_scooter", "bike_id": "3f33f118bb5dfd0cebb4eb8a4399582e", "rental_uris": {"ios": "https://dc.lft.to/lastmile_qr_scan", "android": "https://dc.lft.to/lastmile_qr_scan"}, "fusion_lon": 0.0, "lon": -77.0096885, "name": "3f33f118bb5dfd0cebb4eb8a4399582e", "is_reserved": 0, "is_disabled": 0}, {"lat": 38.91654366666667, "fusion_lat": 0.0, "type": "electric_scooter", "bike_id": "df3117dd6f8e75be68fc11ceea8cf07a", "rental_uris": {"ios": "https://dc.lft.to/lastmile_qr_scan", "android": "https://dc.lft.to/lastmile_qr_scan"}, "fusion_lon": 0.0, "lon": -77.02801, "name": "df3117dd6f8e75be68fc11ceea8cf07a", "is_reserved": 0, "is_disabled": 0}, {"lat": 38.8654635, "fusion_lat": 0.0, "type": "electric_scooter", "bike_id": "1776f5149357d95bdec0665ae883bb01", "rental_uris": {"ios": "https://dc.lft.to/lastmile_qr_scan", "android": "https://dc.lft.to/lastmile_qr_scan"}, "fusion_lon": 0.0, "lon": -76.98707333333333, "name": "1776f5149357d95bdec0665ae883bb01", "is_reserved": 0, "is_disabled": 0}, {"lat": 38.92010466666667, "fusion_lat": 0.0, "type": "electric_scooter", "bike_id": "2a4f5bf7e639afca86d367474c237084", "rental_uris": {"ios": "https://dc.lft.to/lastmile_qr_scan", "android": "https://dc.lft.to/lastmile_qr_scan"}, "fusion_lon": 0.0, "lon": -77.03216166666667, "name": "2a4f5bf7e639afca86d367474c237084", "is_reserved": 0, "is_disabled": 0}, {"lat": 38.862689, "fusion_lat": 0.0, "type": "electric_scooter", "bike_id": "a2a27b2ac94369d31c57ac51d4b4ae51", "rental_uris": {"ios": "https://dc.lft.to/lastmile_qr_scan", "android": "https://dc.lft.to/lastmile_qr_scan"}, "fusion_lon": 0.0, "lon": -76.99535, "name": "a2a27b2ac94369d31c57ac51d4b4ae51", "is_reserved": 0, "is_disabled": 0}, {"lat": 38.97350016666667, "fusion_lat": 0.0, "type": "electric_scooter", "bike_id": "6f5600558edc70c913e95d942c48a25e", "rental_uris": {"ios": "https://dc.lft.to/lastmile_qr_scan", "android": "https://dc.lft.to/lastmile_qr_scan"}, "fusion_lon": 0.0, "lon": -77.02787433333333, "name": "6f5600558edc70c913e95d942c48a25e", "is_reserved": 0, "is_disabled": 0}, {"lat": 38.926761166666665, "fusion_lat": 0.0, "type": "electric_scooter", "bike_id": "bf455427a92560b5779c15f70b854e0c", "rental_uris": {"ios": "https://dc.lft.to/lastmile_qr_scan", "android": "https://dc.lft.to/lastmile_qr_scan"}, "fusion_lon": 0.0, "lon": -77.025872, "name": "bf455427a92560b5779c15f70b854e0c", "is_reserved": 0, "is_disabled": 0}, {"lat": 38.90796733333333, "fusion_lat": 0.0, "type": "electric_scooter", "bike_id": "0e9ae0538bd5a0d5ead18c48c25ad5fe", "rental_uris": {"ios": "https://dc.lft.to/lastmile_qr_scan", "android": "https://dc.lft.to/lastmile_qr_scan"}, "fusion_lon": 0.0, "lon": -77.04339983333334, "name": "0e9ae0538bd5a0d5ead18c48c25ad5fe", "is_reserved": 0, "is_disabled": 0}, {"lat": 38.903739333333334, "fusion_lat": 0.0, "type": "electric_scooter", "bike_id": "6046ad7a234b253e19f26dc7bc125a68", "rental_uris": {"ios": "https://dc.lft.to/lastmile_qr_scan", "android": "https://dc.lft.to/lastmile_qr_scan"}, "fusion_lon": 0.0, "lon": -77.0074335, "name": "6046ad7a234b253e19f26dc7bc125a68", "is_reserved": 0, "is_disabled": 0}, {"lat": 38.9450315, "fusion_lat": 0.0, "type": "electric_scooter", "bike_id": "1e49b6303c0721e58780e3f360d4ac17", "rental_uris": {"ios": "https://dc.lft.to/lastmile_qr_scan", "android": "https://dc.lft.to/lastmile_qr_scan"}, "fusion_lon": 0.0, "lon": -77.03838766666667, "name": "1e49b6303c0721e58780e3f360d4ac17", "is_reserved": 0, "is_disabled": 0}, {"lat": 38.93562516666667, "fusion_lat": 0.0, "type": "electric_scooter", "bike_id": "9731f3c450b479103b235b558747e9f4", "rental_uris": {"ios": "https://dc.lft.to/lastmile_qr_scan", "android": "https://dc.lft.to/lastmile_qr_scan"}, "fusion_lon": 0.0, "lon": -77.05832916666667, "name": "9731f3c450b479103b235b558747e9f4", "is_reserved": 0, "is_disabled": 0}, {"lat": 38.924616, "fusion_lat": 0.0, "type": "electric_scooter", "bike_id": "18a0d0374dc4d6b45cf4f1ea61520322", "rental_uris": {"ios": "https://dc.lft.to/lastmile_qr_scan", "android": "https://dc.lft.to/lastmile_qr_scan"}, "fusion_lon": 0.0, "lon": -77.02159633333333, "name": "18a0d0374dc4d6b45cf4f1ea61520322", "is_reserved": 0, "is_disabled": 0}, {"lat": 38.899647333333334, "fusion_lat": 0.0, "type": "electric_scooter", "bike_id": "14303c05931afcb7af94c0d60b7aaefb", "rental_uris": {"ios": "https://dc.lft.to/lastmile_qr_scan", "android": "https://dc.lft.to/lastmile_qr_scan"}, "fusion_lon": 0.0, "lon": -77.0471995, "name": "14303c05931afcb7af94c0d60b7aaefb", "is_reserved": 0, "is_disabled": 0}, {"lat": 38.902029, "fusion_lat": 0.0, "type": "electric_scooter", "bike_id": "75afb6db96212bf1c7d1ffecd3f1db9c", "rental_uris": {"ios": "https://dc.lft.to/lastmile_qr_scan", "android": "https://dc.lft.to/lastmile_qr_scan"}, "fusion_lon": 0.0, "lon": -77.02375966666666, "name": "75afb6db96212bf1c7d1ffecd3f1db9c", "is_reserved": 0, "is_disabled": 0}, {"lat": 38.909656, "fusion_lat": 0.0, "type": "electric_scooter", "bike_id": "ec59267ab083ebc4559fddb57aa7fbdf", "rental_uris": {"ios": "https://dc.lft.to/lastmile_qr_scan", "android": "https://dc.lft.to/lastmile_qr_scan"}, "fusion_lon": 0.0, "lon": -76.9847015, "name": "ec59267ab083ebc4559fddb57aa7fbdf", "is_reserved": 0, "is_disabled": 0}, {"lat": 38.92389816666667, "fusion_lat": 0.0, "type": "electric_scooter", "bike_id": "f64685c46982109a5fed92ed3889d523", "rental_uris": {"ios": "https://dc.lft.to/lastmile_qr_scan", "android": "https://dc.lft.to/lastmile_qr_scan"}, "fusion_lon": 0.0, "lon": -77.03201166666666, "name": "f64685c46982109a5fed92ed3889d523", "is_reserved": 0, "is_disabled": 0}, {"lat": 38.9060415, "fusion_lat": 0.0, "type": "electric_scooter", "bike_id": "ad29306d52bd61e29bc6e8229fb43d1c", "rental_uris": {"ios": "https://dc.lft.to/lastmile_qr_scan", "android": "https://dc.lft.to/lastmile_qr_scan"}, "fusion_lon": 0.0, "lon": -77.01323616666667, "name": "ad29306d52bd61e29bc6e8229fb43d1c", "is_reserved": 0, "is_disabled": 0}, {"lat": 38.917990833333334, "fusion_lat": 0.0, "type": "electric_scooter", "bike_id": "23465c6108cae280b0d27649f9fee1d4", "rental_uris": {"ios": "https://dc.lft.to/lastmile_qr_scan", "android": "https://dc.lft.to/lastmile_qr_scan"}, "fusion_lon": 0.0, "lon": -77.03214266666667, "name": "23465c6108cae280b0d27649f9fee1d4", "is_reserved": 0, "is_disabled": 0}, {"lat": 38.932101, "fusion_lat": 0.0, "type": "electric_scooter", "bike_id": "05d470fa7801348f0e1d467329acf33e", "rental_uris": {"ios": "https://dc.lft.to/lastmile_qr_scan", "android": "https://dc.lft.to/lastmile_qr_scan"}, "fusion_lon": 0.0, "lon": -77.03690016666667, "name": "05d470fa7801348f0e1d467329acf33e", "is_reserved": 0, "is_disabled": 0}, {"lat": 38.892206, "fusion_lat": 0.0, "type": "electric_scooter", "bike_id": "39260e9ef92d76ebb806c4bc08925d96", "rental_uris": {"ios": "https://dc.lft.to/lastmile_qr_scan", "android": "https://dc.lft.to/lastmile_qr_scan"}, "fusion_lon": 0.0, "lon": -77.02372116666666, "name": "39260e9ef92d76ebb806c4bc08925d96", "is_reserved": 0, "is_disabled": 0}, {"lat": 38.90972, "fusion_lat": 0.0, "type": "electric_scooter", "bike_id": "7d5dc9c378ca596e38531bffd054f0e4", "rental_uris": {"ios": "https://dc.lft.to/lastmile_qr_scan", "android": "https://dc.lft.to/lastmile_qr_scan"}, "fusion_lon": 0.0, "lon": -77.03862133333334, "name": "7d5dc9c378ca596e38531bffd054f0e4", "is_reserved": 0, "is_disabled": 0}, {"lat": 38.90613283333333, "fusion_lat": 0.0, "type": "electric_scooter", "bike_id": "a8364f2c90eca9f1847dcbea7e629646", "rental_uris": {"ios": "https://dc.lft.to/lastmile_qr_scan", "android": "https://dc.lft.to/lastmile_qr_scan"}, "fusion_lon": 0.0, "lon": -77.007425, "name": "a8364f2c90eca9f1847dcbea7e629646", "is_reserved": 0, "is_disabled": 0}, {"lat": 38.9325045, "fusion_lat": 0.0, "type": "electric_scooter", "bike_id": "543d90f31740e8f62de5abe52a0fd2ba", "rental_uris": {"ios": "https://dc.lft.to/lastmile_qr_scan", "android": "https://dc.lft.to/lastmile_qr_scan"}, "fusion_lon": 0.0, "lon": -77.03270733333333, "name": "543d90f31740e8f62de5abe52a0fd2ba", "is_reserved": 0, "is_disabled": 0}, {"lat": 38.92074233333334, "fusion_lat": 0.0, "type": "electric_scooter", "bike_id": "239762eae46f930576efd48c0f1ea24c", "rental_uris": {"ios": "https://dc.lft.to/lastmile_qr_scan", "android": "https://dc.lft.to/lastmile_qr_scan"}, "fusion_lon": 0.0, "lon": -77.0231695, "name": "239762eae46f930576efd48c0f1ea24c", "is_reserved": 0, "is_disabled": 0}, {"lat": 38.89926483333333, "fusion_lat": 0.0, "type": "electric_scooter", "bike_id": "3b7513e0040d9f163bcd7ab249a58fb2", "rental_uris": {"ios": "https://dc.lft.to/lastmile_qr_scan", "android": "https://dc.lft.to/lastmile_qr_scan"}, "fusion_lon": 0.0, "lon": -77.012685, "name": "3b7513e0040d9f163bcd7ab249a58fb2", "is_reserved": 0, "is_disabled": 0}, {"lat": 38.920435499999996, "fusion_lat": 0.0, "type": "electric_scooter", "bike_id": "0a27745888c964a1e1bd907c8ab14c11", "rental_uris": {"ios": "https://dc.lft.to/lastmile_qr_scan", "android": "https://dc.lft.to/lastmile_qr_scan"}, "fusion_lon": 0.0, "lon": -77.017681, "name": "0a27745888c964a1e1bd907c8ab14c11", "is_reserved": 0, "is_disabled": 0}, {"lat": 38.92078866666667, "fusion_lat": 0.0, "type": "electric_scooter", "bike_id": "e6a708a0e0a2015671707d9b79b92bc9", "rental_uris": {"ios": "https://dc.lft.to/lastmile_qr_scan", "android": "https://dc.lft.to/lastmile_qr_scan"}, "fusion_lon": 0.0, "lon": -77.0231665, "name": "e6a708a0e0a2015671707d9b79b92bc9", "is_reserved": 0, "is_disabled": 0}, {"lat": 38.915987666666666, "fusion_lat": 0.0, "type": "electric_scooter", "bike_id": "3f90eda667e2816227078748ebbcf2bb", "rental_uris": {"ios": "https://dc.lft.to/lastmile_qr_scan", "android": "https://dc.lft.to/lastmile_qr_scan"}, "fusion_lon": 0.0, "lon": -77.032267, "name": "3f90eda667e2816227078748ebbcf2bb", "is_reserved": 0, "is_disabled": 0}, {"lat": 38.944224166666665, "fusion_lat": 0.0, "type": "electric_scooter", "bike_id": "36128da0bd4f9401664e45f5c449d55e", "rental_uris": {"ios": "https://dc.lft.to/lastmile_qr_scan", "android": "https://dc.lft.to/lastmile_qr_scan"}, "fusion_lon": 0.0, "lon": -77.01776733333334, "name": "36128da0bd4f9401664e45f5c449d55e", "is_reserved": 0, "is_disabled": 0}, {"lat": 38.85951283333333, "fusion_lat": 0.0, "type": "electric_scooter", "bike_id": "e7ca5d253a9e3b1420cc50bb57b9c211", "rental_uris": {"ios": "https://dc.lft.to/lastmile_qr_scan", "android": "https://dc.lft.to/lastmile_qr_scan"}, "fusion_lon": 0.0, "lon": -76.958776, "name": "e7ca5d253a9e3b1420cc50bb57b9c211", "is_reserved": 0, "is_disabled": 0}, {"lat": 38.8971075, "fusion_lat": 0.0, "type": "electric_scooter", "bike_id": "5b4101251e9422d10d7f95ca3cd42d28", "rental_uris": {"ios": "https://dc.lft.to/lastmile_qr_scan", "android": "https://dc.lft.to/lastmile_qr_scan"}, "fusion_lon": 0.0, "lon": -77.0279635, "name": "5b4101251e9422d10d7f95ca3cd42d28", "is_reserved": 0, "is_disabled": 0}, {"lat": 38.8962415, "fusion_lat": 0.0, "type": "electric_scooter", "bike_id": "ef11fea6677b39950fd8c8abf2177730", "rental_uris": {"ios": "https://dc.lft.to/lastmile_qr_scan", "android": "https://dc.lft.to/lastmile_qr_scan"}, "fusion_lon": 0.0, "lon": -77.029627, "name": "ef11fea6677b39950fd8c8abf2177730", "is_reserved": 0, "is_disabled": 0}, {"lat": 38.98037716666666, "fusion_lat": 0.0, "type": "electric_bike", "bike_id": "ad9a17a2fa5eeb1ffe1943902b2cf380", "rental_uris": {"ios": "https://dc.lft.to/lastmile_qr_scan", "android": "https://dc.lft.to/lastmile_qr_scan"}, "fusion_lon": 0.0, "lon": -76.95789583333334, "name": "ad9a17a2fa5eeb1ffe1943902b2cf380", "is_reserved": 0, "is_disabled": 0}, {"lat": 38.89706483333333, "fusion_lat": 0.0, "type": "electric_scooter", "bike_id": "7acb1e0d3d93d856199b534dbeb5acb4", "rental_uris": {"ios": "https://dc.lft.to/lastmile_qr_scan", "android": "https://dc.lft.to/lastmile_qr_scan"}, "fusion_lon": 0.0, "lon": -76.93574333333333, "name": "7acb1e0d3d93d856199b534dbeb5acb4", "is_reserved": 0, "is_disabled": 0}, {"lat": 38.96117866666667, "fusion_lat": 0.0, "type": "electric_scooter", "bike_id": "6ce187ac0d21af071bc8f7d11f817afe", "rental_uris": {"ios": "https://dc.lft.to/lastmile_qr_scan", "android": "https://dc.lft.to/lastmile_qr_scan"}, "fusion_lon": 0.0, "lon": -77.0281395, "name": "6ce187ac0d21af071bc8f7d11f817afe", "is_reserved": 0, "is_disabled": 0}, {"lat": 38.93455616666667, "fusion_lat": 0.0, "type": "electric_scooter", "bike_id": "5c560c6663817e82ed43dd5dd932e9b4", "rental_uris": {"ios": "https://dc.lft.to/lastmile_qr_scan", "android": "https://dc.lft.to/lastmile_qr_scan"}, "fusion_lon": 0.0, "lon": -77.02914183333333, "name": "5c560c6663817e82ed43dd5dd932e9b4", "is_reserved": 0, "is_disabled": 0}, {"lat": 38.9126605, "fusion_lat": 0.0, "type": "electric_scooter", "bike_id": "56adb3c9b7dce83c0b31f315abd7c0ae", "rental_uris": {"ios": "https://dc.lft.to/lastmile_qr_scan", "android": "https://dc.lft.to/lastmile_qr_scan"}, "fusion_lon": 0.0, "lon": -77.07433133333333, "name": "56adb3c9b7dce83c0b31f315abd7c0ae", "is_reserved": 0, "is_disabled": 0}, {"lat": 38.94452716666667, "fusion_lat": 0.0, "type": "electric_scooter", "bike_id": "b8ba3b485d1b4d2f86ac77dc7fd3402f", "rental_uris": {"ios": "https://dc.lft.to/lastmile_qr_scan", "android": "https://dc.lft.to/lastmile_qr_scan"}, "fusion_lon": 0.0, "lon": -77.06360433333333, "name": "b8ba3b485d1b4d2f86ac77dc7fd3402f", "is_reserved": 0, "is_disabled": 0}, {"lat": 38.9281195, "fusion_lat": 0.0, "type": "electric_scooter", "bike_id": "c042d865f4443e75d0c0df043fbc3f7b", "rental_uris": {"ios": "https://dc.lft.to/lastmile_qr_scan", "android": "https://dc.lft.to/lastmile_qr_scan"}, "fusion_lon": 0.0, "lon": -77.03643983333333, "name": "c042d865f4443e75d0c0df043fbc3f7b", "is_reserved": 0, "is_disabled": 0}, {"lat": 38.92866166666667, "fusion_lat": 0.0, "type": "electric_scooter", "bike_id": "03840d54ae50a7d434012dc1ba274b29", "rental_uris": {"ios": "https://dc.lft.to/lastmile_qr_scan", "android": "https://dc.lft.to/lastmile_qr_scan"}, "fusion_lon": 0.0, "lon": -77.03439233333333, "name": "03840d54ae50a7d434012dc1ba274b29", "is_reserved": 0, "is_disabled": 0}, {"lat": 38.897662, "fusion_lat": 0.0, "type": "electric_scooter", "bike_id": "acd24f1edd67a3a8212f9900fbe09dbc", "rental_uris": {"ios": "https://dc.lft.to/lastmile_qr_scan", "android": "https://dc.lft.to/lastmile_qr_scan"}, "fusion_lon": 0.0, "lon": -76.9854985, "name": "acd24f1edd67a3a8212f9900fbe09dbc", "is_reserved": 0, "is_disabled": 0}, {"lat": 38.909652666666666, "fusion_lat": 0.0, "type": "electric_scooter", "bike_id": "297986d9d6669b64ec0e53fdc2c7b78f", "rental_uris": {"ios": "https://dc.lft.to/lastmile_qr_scan", "android": "https://dc.lft.to/lastmile_qr_scan"}, "fusion_lon": 0.0, "lon": -77.0331455, "name": "297986d9d6669b64ec0e53fdc2c7b78f", "is_reserved": 0, "is_disabled": 0}, {"lat": 38.923172, "fusion_lat": 0.0, "type": "electric_scooter", "bike_id": "2dfc3667840c3b64b930958dada0c2fd", "rental_uris": {"ios": "https://dc.lft.to/lastmile_qr_scan", "android": "https://dc.lft.to/lastmile_qr_scan"}, "fusion_lon": 0.0, "lon": -77.030483, "name": "2dfc3667840c3b64b930958dada0c2fd", "is_reserved": 0, "is_disabled": 0}, {"lat": 38.903713333333336, "fusion_lat": 0.0, "type": "electric_scooter", "bike_id": "52d46940419d16b51e1fa6ef9988852b", "rental_uris": {"ios": "https://dc.lft.to/lastmile_qr_scan", "android": "https://dc.lft.to/lastmile_qr_scan"}, "fusion_lon": 0.0, "lon": -77.00753716666667, "name": "52d46940419d16b51e1fa6ef9988852b", "is_reserved": 0, "is_disabled": 0}, {"lat": 38.910642, "fusion_lat": 0.0, "type": "electric_scooter", "bike_id": "d768bc4c28211c10aaa847dc972a0f30", "rental_uris": {"ios": "https://dc.lft.to/lastmile_qr_scan", "android": "https://dc.lft.to/lastmile_qr_scan"}, "fusion_lon": 0.0, "lon": -77.0046045, "name": "d768bc4c28211c10aaa847dc972a0f30", "is_reserved": 0, "is_disabled": 0}, {"lat": 38.92093766666667, "fusion_lat": 0.0, "type": "electric_scooter", "bike_id": "eeee29a80fd975b3f4267a69bb0683d7", "rental_uris": {"ios": "https://dc.lft.to/lastmile_qr_scan", "android": "https://dc.lft.to/lastmile_qr_scan"}, "fusion_lon": 0.0, "lon": -77.031766, "name": "eeee29a80fd975b3f4267a69bb0683d7", "is_reserved": 0, "is_disabled": 0}, {"lat": 38.89439466666666, "fusion_lat": 0.0, "type": "electric_scooter", "bike_id": "e502c5c8684389ce95d864046c3ac496", "rental_uris": {"ios": "https://dc.lft.to/lastmile_qr_scan", "android": "https://dc.lft.to/lastmile_qr_scan"}, "fusion_lon": 0.0, "lon": -76.97825766666666, "name": "e502c5c8684389ce95d864046c3ac496", "is_reserved": 0, "is_disabled": 0}, {"lat": 38.919354166666665, "fusion_lat": 0.0, "type": "electric_scooter", "bike_id": "9f09d3738c8022fedf5931463c96de30", "rental_uris": {"ios": "https://dc.lft.to/lastmile_qr_scan", "android": "https://dc.lft.to/lastmile_qr_scan"}, "fusion_lon": 0.0, "lon": -77.02593066666667, "name": "9f09d3738c8022fedf5931463c96de30", "is_reserved": 0, "is_disabled": 0}, {"lat": 38.92547616666667, "fusion_lat": 0.0, "type": "electric_scooter", "bike_id": "ba75747a840bb11d664bc1362947271d", "rental_uris": {"ios": "https://dc.lft.to/lastmile_qr_scan", "android": "https://dc.lft.to/lastmile_qr_scan"}, "fusion_lon": 0.0, "lon": -77.02283233333333, "name": "ba75747a840bb11d664bc1362947271d", "is_reserved": 0, "is_disabled": 0}, {"lat": 38.911941, "fusion_lat": 0.0, "type": "electric_scooter", "bike_id": "1e45ede76baeb673a9c75b2b08e7a114", "rental_uris": {"ios": "https://dc.lft.to/lastmile_qr_scan", "android": "https://dc.lft.to/lastmile_qr_scan"}, "fusion_lon": 0.0, "lon": -77.00446183333334, "name": "1e45ede76baeb673a9c75b2b08e7a114", "is_reserved": 0, "is_disabled": 0}, {"lat": 38.90849716666666, "fusion_lat": 0.0, "type": "electric_scooter", "bike_id": "2f5a26c87fd0a365977c03f535990037", "rental_uris": {"ios": "https://dc.lft.to/lastmile_qr_scan", "android": "https://dc.lft.to/lastmile_qr_scan"}, "fusion_lon": 0.0, "lon": -77.03867033333333, "name": "2f5a26c87fd0a365977c03f535990037", "is_reserved": 0, "is_disabled": 0}, {"lat": 38.918048, "fusion_lat": 0.0, "type": "electric_scooter", "bike_id": "c5ceb10d10544ea6d89907bcea53c82f", "rental_uris": {"ios": "https://dc.lft.to/lastmile_qr_scan", "android": "https://dc.lft.to/lastmile_qr_scan"}, "fusion_lon": 0.0, "lon": -77.03443633333333, "name": "c5ceb10d10544ea6d89907bcea53c82f", "is_reserved": 0, "is_disabled": 0}, {"lat": 38.912500333333334, "fusion_lat": 0.0, "type": "electric_scooter", "bike_id": "9af7b5f691cf0a2745098fb051ea7865", "rental_uris": {"ios": "https://dc.lft.to/lastmile_qr_scan", "android": "https://dc.lft.to/lastmile_qr_scan"}, "fusion_lon": 0.0, "lon": -77.04031333333333, "name": "9af7b5f691cf0a2745098fb051ea7865", "is_reserved": 0, "is_disabled": 0}, {"lat": 38.90255466666667, "fusion_lat": 0.0, "type": "electric_scooter", "bike_id": "e8e7104b7fe985f4fd17e97726268a65", "rental_uris": {"ios": "https://dc.lft.to/lastmile_qr_scan", "android": "https://dc.lft.to/lastmile_qr_scan"}, "fusion_lon": 0.0, "lon": -76.97919383333333, "name": "e8e7104b7fe985f4fd17e97726268a65", "is_reserved": 0, "is_disabled": 0}, {"lat": 38.92465966666666, "fusion_lat": 0.0, "type": "electric_scooter", "bike_id": "38b836bf4fd4fdf992a56491391e1667", "rental_uris": {"ios": "https://dc.lft.to/lastmile_qr_scan", "android": "https://dc.lft.to/lastmile_qr_scan"}, "fusion_lon": 0.0, "lon": -77.04024783333334, "name": "38b836bf4fd4fdf992a56491391e1667", "is_reserved": 0, "is_disabled": 0}, {"lat": 38.908941166666665, "fusion_lat": 0.0, "type": "electric_scooter", "bike_id": "ae79abc5c904e7ac72ea838c4c47305b", "rental_uris": {"ios": "https://dc.lft.to/lastmile_qr_scan", "android": "https://dc.lft.to/lastmile_qr_scan"}, "fusion_lon": 0.0, "lon": -77.04407716666667, "name": "ae79abc5c904e7ac72ea838c4c47305b", "is_reserved": 0, "is_disabled": 0}, {"lat": 38.88824266666666, "fusion_lat": 0.0, "type": "electric_scooter", "bike_id": "b3f3e82f235bb16cd3e44d8382844192", "rental_uris": {"ios": "https://dc.lft.to/lastmile_qr_scan", "android": "https://dc.lft.to/lastmile_qr_scan"}, "fusion_lon": 0.0, "lon": -76.97719333333333, "name": "b3f3e82f235bb16cd3e44d8382844192", "is_reserved": 0, "is_disabled": 0}, {"lat": 38.92546766666667, "fusion_lat": 0.0, "type": "electric_scooter", "bike_id": "c0f83e44c28dee6e7a43c63d27ec009c", "rental_uris": {"ios": "https://dc.lft.to/lastmile_qr_scan", "android": "https://dc.lft.to/lastmile_qr_scan"}, "fusion_lon": 0.0, "lon": -77.0387, "name": "c0f83e44c28dee6e7a43c63d27ec009c", "is_reserved": 0, "is_disabled": 0}, {"lat": 38.955968666666664, "fusion_lat": 0.0, "type": "electric_bike", "bike_id": "d96bbb5dd020b5e17e7efb1b178634c3", "rental_uris": {"ios": "https://dc.lft.to/lastmile_qr_scan", "android": "https://dc.lft.to/lastmile_qr_scan"}, "fusion_lon": 0.0, "lon": -77.0101515, "name": "d96bbb5dd020b5e17e7efb1b178634c3", "is_reserved": 0, "is_disabled": 0}, {"lat": 38.895771333333336, "fusion_lat": 0.0, "type": "electric_scooter", "bike_id": "af1793bf9233dde2aee90115484fe035", "rental_uris": {"ios": "https://dc.lft.to/lastmile_qr_scan", "android": "https://dc.lft.to/lastmile_qr_scan"}, "fusion_lon": 0.0, "lon": -76.983206, "name": "af1793bf9233dde2aee90115484fe035", "is_reserved": 0, "is_disabled": 0}, {"lat": 38.9023545, "fusion_lat": 0.0, "type": "electric_scooter", "bike_id": "aa2e3209cde8fd4ac91116b3ffa580fc", "rental_uris": {"ios": "https://dc.lft.to/lastmile_qr_scan", "android": "https://dc.lft.to/lastmile_qr_scan"}, "fusion_lon": 0.0, "lon": -77.0019255, "name": "aa2e3209cde8fd4ac91116b3ffa580fc", "is_reserved": 0, "is_disabled": 0}, {"lat": 38.93711533333333, "fusion_lat": 0.0, "type": "electric_scooter", "bike_id": "1142010db0c6dcfd08544e29529832b6", "rental_uris": {"ios": "https://dc.lft.to/lastmile_qr_scan", "android": "https://dc.lft.to/lastmile_qr_scan"}, "fusion_lon": 0.0, "lon": -77.0351905, "name": "1142010db0c6dcfd08544e29529832b6", "is_reserved": 0, "is_disabled": 0}, {"lat": 38.91542416666667, "fusion_lat": 0.0, "type": "electric_scooter", "bike_id": "4787638bdec43946eac4fa6fc846ce71", "rental_uris": {"ios": "https://dc.lft.to/lastmile_qr_scan", "android": "https://dc.lft.to/lastmile_qr_scan"}, "fusion_lon": 0.0, "lon": -77.03191466666667, "name": "4787638bdec43946eac4fa6fc846ce71", "is_reserved": 0, "is_disabled": 0}, {"lat": 38.90954516666667, "fusion_lat": 0.0, "type": "electric_scooter", "bike_id": "6e50c8eeebc1e7317421a4a5d3d8fa09", "rental_uris": {"ios": "https://dc.lft.to/lastmile_qr_scan", "android": "https://dc.lft.to/lastmile_qr_scan"}, "fusion_lon": 0.0, "lon": -77.04445583333333, "name": "6e50c8eeebc1e7317421a4a5d3d8fa09", "is_reserved": 0, "is_disabled": 0}, {"lat": 38.9379275, "fusion_lat": 0.0, "type": "electric_scooter", "bike_id": "a20573ac1bd5f5b1171d4c2fb0d71032", "rental_uris": {"ios": "https://dc.lft.to/lastmile_qr_scan", "android": "https://dc.lft.to/lastmile_qr_scan"}, "fusion_lon": 0.0, "lon": -77.03291233333333, "name": "a20573ac1bd5f5b1171d4c2fb0d71032", "is_reserved": 0, "is_disabled": 0}, {"lat": 38.934292, "fusion_lat": 0.0, "type": "electric_scooter", "bike_id": "f68472e62362ad362d8c7fdfb9bef9a7", "rental_uris": {"ios": "https://dc.lft.to/lastmile_qr_scan", "android": "https://dc.lft.to/lastmile_qr_scan"}, "fusion_lon": 0.0, "lon": -77.0427635, "name": "f68472e62362ad362d8c7fdfb9bef9a7", "is_reserved": 0, "is_disabled": 0}, {"lat": 38.912184, "fusion_lat": 0.0, "type": "electric_scooter", "bike_id": "6872dee47261ef828b97edf6f663684f", "rental_uris": {"ios": "https://dc.lft.to/lastmile_qr_scan", "android": "https://dc.lft.to/lastmile_qr_scan"}, "fusion_lon": 0.0, "lon": -77.03846133333333, "name": "6872dee47261ef828b97edf6f663684f", "is_reserved": 0, "is_disabled": 0}, {"lat": 38.891811833333335, "fusion_lat": 0.0, "type": "electric_scooter", "bike_id": "82130b64648d609b2f117aed5fe909d5", "rental_uris": {"ios": "https://dc.lft.to/lastmile_qr_scan", "android": "https://dc.lft.to/lastmile_qr_scan"}, "fusion_lon": 0.0, "lon": -76.99540066666667, "name": "82130b64648d609b2f117aed5fe909d5", "is_reserved": 0, "is_disabled": 0}, {"lat": 38.9162985, "fusion_lat": 0.0, "type": "electric_scooter", "bike_id": "843b27104f07c0675e6a302d7b6fdc93", "rental_uris": {"ios": "https://dc.lft.to/lastmile_qr_scan", "android": "https://dc.lft.to/lastmile_qr_scan"}, "fusion_lon": 0.0, "lon": -77.040097, "name": "843b27104f07c0675e6a302d7b6fdc93", "is_reserved": 0, "is_disabled": 0}, {"lat": 38.93224583333333, "fusion_lat": 0.0, "type": "electric_scooter", "bike_id": "89b13777e48c715a23af9acc93eb7ec5", "rental_uris": {"ios": "https://dc.lft.to/lastmile_qr_scan", "android": "https://dc.lft.to/lastmile_qr_scan"}, "fusion_lon": 0.0, "lon": -77.02982533333333, "name": "89b13777e48c715a23af9acc93eb7ec5", "is_reserved": 0, "is_disabled": 0}, {"lat": 38.91521983333333, "fusion_lat": 0.0, "type": "electric_scooter", "bike_id": "3b0b20ce75549e742e65bc539dde0315", "rental_uris": {"ios": "https://dc.lft.to/lastmile_qr_scan", "android": "https://dc.lft.to/lastmile_qr_scan"}, "fusion_lon": 0.0, "lon": -77.0198375, "name": "3b0b20ce75549e742e65bc539dde0315", "is_reserved": 0, "is_disabled": 0}, {"lat": 38.9016675, "fusion_lat": 0.0, "type": "electric_scooter", "bike_id": "153b46a32e205c22d120f507b6bcbf28", "rental_uris": {"ios": "https://dc.lft.to/lastmile_qr_scan", "android": "https://dc.lft.to/lastmile_qr_scan"}, "fusion_lon": 0.0, "lon": -77.03937366666666, "name": "153b46a32e205c22d120f507b6bcbf28", "is_reserved": 0, "is_disabled": 0}, {"lat": 38.932470333333335, "fusion_lat": 0.0, "type": "electric_scooter", "bike_id": "217177d1bfa82ec2d2390bb721bd2c1e", "rental_uris": {"ios": "https://dc.lft.to/lastmile_qr_scan", "android": "https://dc.lft.to/lastmile_qr_scan"}, "fusion_lon": 0.0, "lon": -77.032779, "name": "217177d1bfa82ec2d2390bb721bd2c1e", "is_reserved": 0, "is_disabled": 0}, {"lat": 38.92103483333333, "fusion_lat": 0.0, "type": "electric_scooter", "bike_id": "31c89afbc302ee06887d95aca364ade0", "rental_uris": {"ios": "https://dc.lft.to/lastmile_qr_scan", "android": "https://dc.lft.to/lastmile_qr_scan"}, "fusion_lon": 0.0, "lon": -77.03666866666667, "name": "31c89afbc302ee06887d95aca364ade0", "is_reserved": 0, "is_disabled": 0}, {"lat": 38.91707783333333, "fusion_lat": 0.0, "type": "electric_scooter", "bike_id": "7917378a6f517fd6953413f1d9ea8149", "rental_uris": {"ios": "https://dc.lft.to/lastmile_qr_scan", "android": "https://dc.lft.to/lastmile_qr_scan"}, "fusion_lon": 0.0, "lon": -77.03244566666666, "name": "7917378a6f517fd6953413f1d9ea8149", "is_reserved": 0, "is_disabled": 0}, {"lat": 38.89223283333333, "fusion_lat": 0.0, "type": "electric_scooter", "bike_id": "61f1335dd30438b943348cddf3db80f1", "rental_uris": {"ios": "https://dc.lft.to/lastmile_qr_scan", "android": "https://dc.lft.to/lastmile_qr_scan"}, "fusion_lon": 0.0, "lon": -77.04335866666666, "name": "61f1335dd30438b943348cddf3db80f1", "is_reserved": 0, "is_disabled": 0}, {"lat": 38.960869333333335, "fusion_lat": 0.0, "type": "electric_scooter", "bike_id": "c018e21a7341d41de76b7bea24b5240e", "rental_uris": {"ios": "https://dc.lft.to/lastmile_qr_scan", "android": "https://dc.lft.to/lastmile_qr_scan"}, "fusion_lon": 0.0, "lon": -77.02882366666667, "name": "c018e21a7341d41de76b7bea24b5240e", "is_reserved": 0, "is_disabled": 0}, {"lat": 38.89225866666666, "fusion_lat": 0.0, "type": "electric_scooter", "bike_id": "37074cc088edd0e47a1e8e2ff141aa33", "rental_uris": {"ios": "https://dc.lft.to/lastmile_qr_scan", "android": "https://dc.lft.to/lastmile_qr_scan"}, "fusion_lon": 0.0, "lon": -77.03169166666666, "name": "37074cc088edd0e47a1e8e2ff141aa33", "is_reserved": 0, "is_disabled": 0}, {"lat": 38.911198666666664, "fusion_lat": 0.0, "type": "electric_scooter", "bike_id": "474a784931266c5c761fd78ca67315b1", "rental_uris": {"ios": "https://dc.lft.to/lastmile_qr_scan", "android": "https://dc.lft.to/lastmile_qr_scan"}, "fusion_lon": 0.0, "lon": -77.032123, "name": "474a784931266c5c761fd78ca67315b1", "is_reserved": 0, "is_disabled": 0}, {"lat": 38.939314833333334, "fusion_lat": 0.0, "type": "electric_scooter", "bike_id": "c87274ef0157f56cfb098a919a0d390e", "rental_uris": {"ios": "https://dc.lft.to/lastmile_qr_scan", "android": "https://dc.lft.to/lastmile_qr_scan"}, "fusion_lon": 0.0, "lon": -77.02585166666667, "name": "c87274ef0157f56cfb098a919a0d390e", "is_reserved": 0, "is_disabled": 0}, {"lat": 38.914824333333335, "fusion_lat": 0.0, "type": "electric_scooter", "bike_id": "6a6fc01a6d44c71dd51340b6e0bccff9", "rental_uris": {"ios": "https://dc.lft.to/lastmile_qr_scan", "android": "https://dc.lft.to/lastmile_qr_scan"}, "fusion_lon": 0.0, "lon": -77.04096966666667, "name": "6a6fc01a6d44c71dd51340b6e0bccff9", "is_reserved": 0, "is_disabled": 0}, {"lat": 38.920689833333334, "fusion_lat": 0.0, "type": "electric_scooter", "bike_id": "8d0d7145a57ac8e6ddfe9b70ffeb39fa", "rental_uris": {"ios": "https://dc.lft.to/lastmile_qr_scan", "android": "https://dc.lft.to/lastmile_qr_scan"}, "fusion_lon": 0.0, "lon": -77.023734, "name": "8d0d7145a57ac8e6ddfe9b70ffeb39fa", "is_reserved": 0, "is_disabled": 0}, {"lat": 38.862669333333336, "fusion_lat": 0.0, "type": "electric_scooter", "bike_id": "24b2fda23ee8ab958a773cc66e46beed", "rental_uris": {"ios": "https://dc.lft.to/lastmile_qr_scan", "android": "https://dc.lft.to/lastmile_qr_scan"}, "fusion_lon": 0.0, "lon": -76.995374, "name": "24b2fda23ee8ab958a773cc66e46beed", "is_reserved": 0, "is_disabled": 0}, {"lat": 38.916230666666664, "fusion_lat": 0.0, "type": "electric_scooter", "bike_id": "853a4ea84ad4f8e3e989cc7f1a151c66", "rental_uris": {"ios": "https://dc.lft.to/lastmile_qr_scan", "android": "https://dc.lft.to/lastmile_qr_scan"}, "fusion_lon": 0.0, "lon": -77.038543, "name": "853a4ea84ad4f8e3e989cc7f1a151c66", "is_reserved": 0, "is_disabled": 0}, {"lat": 38.89223233333333, "fusion_lat": 0.0, "type": "electric_scooter", "bike_id": "9e3bf2b8d2b4e014add54716b938c166", "rental_uris": {"ios": "https://dc.lft.to/lastmile_qr_scan", "android": "https://dc.lft.to/lastmile_qr_scan"}, "fusion_lon": 0.0, "lon": -77.04468233333333, "name": "9e3bf2b8d2b4e014add54716b938c166", "is_reserved": 0, "is_disabled": 0}, {"lat": 38.923579833333335, "fusion_lat": 0.0, "type": "electric_scooter", "bike_id": "a120dba96077012c69f4bd336e48fcf2", "rental_uris": {"ios": "https://dc.lft.to/lastmile_qr_scan", "android": "https://dc.lft.to/lastmile_qr_scan"}, "fusion_lon": 0.0, "lon": -77.03229616666667, "name": "a120dba96077012c69f4bd336e48fcf2", "is_reserved": 0, "is_disabled": 0}, {"lat": 38.92633383333333, "fusion_lat": 0.0, "type": "electric_scooter", "bike_id": "a24bc839e3170487534a63521f5d9903", "rental_uris": {"ios": "https://dc.lft.to/lastmile_qr_scan", "android": "https://dc.lft.to/lastmile_qr_scan"}, "fusion_lon": 0.0, "lon": -77.03708116666667, "name": "a24bc839e3170487534a63521f5d9903", "is_reserved": 0, "is_disabled": 0}, {"lat": 38.944053333333336, "fusion_lat": 0.0, "type": "electric_scooter", "bike_id": "5a3c83e1b2bb1a75250cf2f26e31c9b3", "rental_uris": {"ios": "https://dc.lft.to/lastmile_qr_scan", "android": "https://dc.lft.to/lastmile_qr_scan"}, "fusion_lon": 0.0, "lon": -77.03907183333334, "name": "5a3c83e1b2bb1a75250cf2f26e31c9b3", "is_reserved": 0, "is_disabled": 0}, {"lat": 38.8973725, "fusion_lat": 0.0, "type": "electric_scooter", "bike_id": "6b05b9df5ebf8b3f80df49a99d38c6a9", "rental_uris": {"ios": "https://dc.lft.to/lastmile_qr_scan", "android": "https://dc.lft.to/lastmile_qr_scan"}, "fusion_lon": 0.0, "lon": -77.02763983333334, "name": "6b05b9df5ebf8b3f80df49a99d38c6a9", "is_reserved": 0, "is_disabled": 0}, {"lat": 38.907706833333336, "fusion_lat": 0.0, "type": "electric_scooter", "bike_id": "8abc71ae967f3be64e00f3cdcb7569d4", "rental_uris": {"ios": "https://dc.lft.to/lastmile_qr_scan", "android": "https://dc.lft.to/lastmile_qr_scan"}, "fusion_lon": 0.0, "lon": -77.01698933333333, "name": "8abc71ae967f3be64e00f3cdcb7569d4", "is_reserved": 0, "is_disabled": 0}, {"lat": 38.835840833333336, "fusion_lat": 0.0, "type": "electric_bike", "bike_id": "80be728a9de2e8dbd427e3f10b591b59", "rental_uris": {"ios": "https://dc.lft.to/lastmile_qr_scan", "android": "https://dc.lft.to/lastmile_qr_scan"}, "fusion_lon": 0.0, "lon": -77.00113416666667, "name": "80be728a9de2e8dbd427e3f10b591b59", "is_reserved": 0, "is_disabled": 0}, {"lat": 38.90270866666667, "fusion_lat": 0.0, "type": "electric_scooter", "bike_id": "eda3c396eb18db6ee41e68e5f458120a", "rental_uris": {"ios": "https://dc.lft.to/lastmile_qr_scan", "android": "https://dc.lft.to/lastmile_qr_scan"}, "fusion_lon": 0.0, "lon": -77.02807416666667, "name": "eda3c396eb18db6ee41e68e5f458120a", "is_reserved": 0, "is_disabled": 0}, {"lat": 38.9247135, "fusion_lat": 0.0, "type": "electric_scooter", "bike_id": "507caa4c98da7a5409234b489bdc7590", "rental_uris": {"ios": "https://dc.lft.to/lastmile_qr_scan", "android": "https://dc.lft.to/lastmile_qr_scan"}, "fusion_lon": 0.0, "lon": -77.02987533333334, "name": "507caa4c98da7a5409234b489bdc7590", "is_reserved": 0, "is_disabled": 0}, {"lat": 38.9358205, "fusion_lat": 0.0, "type": "electric_scooter", "bike_id": "635e949d1f6592a3eb13ea53640bcf33", "rental_uris": {"ios": "https://dc.lft.to/lastmile_qr_scan", "android": "https://dc.lft.to/lastmile_qr_scan"}, "fusion_lon": 0.0, "lon": -77.03362, "name": "635e949d1f6592a3eb13ea53640bcf33", "is_reserved": 0, "is_disabled": 0}, {"lat": 38.88519216666667, "fusion_lat": 0.0, "type": "electric_scooter", "bike_id": "63b518e79fb96c57ffb108ac62835fd4", "rental_uris": {"ios": "https://dc.lft.to/lastmile_qr_scan", "android": "https://dc.lft.to/lastmile_qr_scan"}, "fusion_lon": 0.0, "lon": -77.01131433333333, "name": "63b518e79fb96c57ffb108ac62835fd4", "is_reserved": 0, "is_disabled": 0}, {"lat": 38.87661216666667, "fusion_lat": 0.0, "type": "electric_scooter", "bike_id": "febf20fb0fef5e8e244651bf13dcdec0", "rental_uris": {"ios": "https://dc.lft.to/lastmile_qr_scan", "android": "https://dc.lft.to/lastmile_qr_scan"}, "fusion_lon": 0.0, "lon": -77.002856, "name": "febf20fb0fef5e8e244651bf13dcdec0", "is_reserved": 0, "is_disabled": 0}, {"lat": 38.892452, "fusion_lat": 0.0, "type": "electric_scooter", "bike_id": "c10f19618fdb9ad65d9c71ff3cf131a1", "rental_uris": {"ios": "https://dc.lft.to/lastmile_qr_scan", "android": "https://dc.lft.to/lastmile_qr_scan"}, "fusion_lon": 0.0, "lon": -77.02789516666667, "name": "c10f19618fdb9ad65d9c71ff3cf131a1", "is_reserved": 0, "is_disabled": 0}, {"lat": 38.90952566666667, "fusion_lat": 0.0, "type": "electric_scooter", "bike_id": "ff74304d6763f4d9d31f451046dea109", "rental_uris": {"ios": "https://dc.lft.to/lastmile_qr_scan", "android": "https://dc.lft.to/lastmile_qr_scan"}, "fusion_lon": 0.0, "lon": -77.048801, "name": "ff74304d6763f4d9d31f451046dea109", "is_reserved": 0, "is_disabled": 0}, {"lat": 38.914138333333334, "fusion_lat": 0.0, "type": "electric_scooter", "bike_id": "24fbabc75ed850253914922808356455", "rental_uris": {"ios": "https://dc.lft.to/lastmile_qr_scan", "android": "https://dc.lft.to/lastmile_qr_scan"}, "fusion_lon": 0.0, "lon": -77.01077216666667, "name": "24fbabc75ed850253914922808356455", "is_reserved": 0, "is_disabled": 0}, {"lat": 38.909073666666664, "fusion_lat": 0.0, "type": "electric_scooter", "bike_id": "35dbe1566b1dc6ee513e4741ea09e134", "rental_uris": {"ios": "https://dc.lft.to/lastmile_qr_scan", "android": "https://dc.lft.to/lastmile_qr_scan"}, "fusion_lon": 0.0, "lon": -77.0449285, "name": "35dbe1566b1dc6ee513e4741ea09e134", "is_reserved": 0, "is_disabled": 0}, {"lat": 38.9050235, "fusion_lat": 0.0, "type": "electric_scooter", "bike_id": "5db1b4188d2e26006c9e07b35fbb4ba2", "rental_uris": {"ios": "https://dc.lft.to/lastmile_qr_scan", "android": "https://dc.lft.to/lastmile_qr_scan"}, "fusion_lon": 0.0, "lon": -77.03162483333334, "name": "5db1b4188d2e26006c9e07b35fbb4ba2", "is_reserved": 0, "is_disabled": 0}, {"lat": 38.92031733333334, "fusion_lat": 0.0, "type": "electric_scooter", "bike_id": "55f4b45467c5c3966391481e8b3c8583", "rental_uris": {"ios": "https://dc.lft.to/lastmile_qr_scan", "android": "https://dc.lft.to/lastmile_qr_scan"}, "fusion_lon": 0.0, "lon": -77.01029783333334, "name": "55f4b45467c5c3966391481e8b3c8583", "is_reserved": 0, "is_disabled": 0}, {"lat": 38.9205985, "fusion_lat": 0.0, "type": "electric_scooter", "bike_id": "ac414649f95d2962016d6dc18aae353c", "rental_uris": {"ios": "https://dc.lft.to/lastmile_qr_scan", "android": "https://dc.lft.to/lastmile_qr_scan"}, "fusion_lon": 0.0, "lon": -77.0241015, "name": "ac414649f95d2962016d6dc18aae353c", "is_reserved": 0, "is_disabled": 0}, {"lat": 38.939504166666666, "fusion_lat": 0.0, "type": "electric_scooter", "bike_id": "64909d51881c7a416e7f2046beccbfaf", "rental_uris": {"ios": "https://dc.lft.to/lastmile_qr_scan", "android": "https://dc.lft.to/lastmile_qr_scan"}, "fusion_lon": 0.0, "lon": -77.021826, "name": "64909d51881c7a416e7f2046beccbfaf", "is_reserved": 0, "is_disabled": 0}, {"lat": 38.89899066666667, "fusion_lat": 0.0, "type": "electric_scooter", "bike_id": "0b87685d30a33c69b467719b2fe3e8d2", "rental_uris": {"ios": "https://dc.lft.to/lastmile_qr_scan", "android": "https://dc.lft.to/lastmile_qr_scan"}, "fusion_lon": 0.0, "lon": -77.00960833333333, "name": "0b87685d30a33c69b467719b2fe3e8d2", "is_reserved": 0, "is_disabled": 0}, {"lat": 38.9177425, "fusion_lat": 0.0, "type": "electric_scooter", "bike_id": "f9fbb763d9e247f596bd556db18436e6", "rental_uris": {"ios": "https://dc.lft.to/lastmile_qr_scan", "android": "https://dc.lft.to/lastmile_qr_scan"}, "fusion_lon": 0.0, "lon": -77.023015, "name": "f9fbb763d9e247f596bd556db18436e6", "is_reserved": 0, "is_disabled": 0}, {"lat": 38.806777833333335, "fusion_lat": 0.0, "type": "electric_bike", "bike_id": "2abbe7067b2fdcc0efe09517e82eeab5", "rental_uris": {"ios": "https://dc.lft.to/lastmile_qr_scan", "android": "https://dc.lft.to/lastmile_qr_scan"}, "fusion_lon": 0.0, "lon": -77.0691965, "name": "2abbe7067b2fdcc0efe09517e82eeab5", "is_reserved": 0, "is_disabled": 0}, {"lat": 38.916212333333334, "fusion_lat": 0.0, "type": "electric_scooter", "bike_id": "20ebe724a67f540106a1e9d2385aa8db", "rental_uris": {"ios": "https://dc.lft.to/lastmile_qr_scan", "android": "https://dc.lft.to/lastmile_qr_scan"}, "fusion_lon": 0.0, "lon": -77.04473333333334, "name": "20ebe724a67f540106a1e9d2385aa8db", "is_reserved": 0, "is_disabled": 0}, {"lat": 38.8849705, "fusion_lat": 0.0, "type": "electric_scooter", "bike_id": "0c0f9b3bbc736d831b20d08b9c3c2e74", "rental_uris": {"ios": "https://dc.lft.to/lastmile_qr_scan", "android": "https://dc.lft.to/lastmile_qr_scan"}, "fusion_lon": 0.0, "lon": -76.98054983333333, "name": "0c0f9b3bbc736d831b20d08b9c3c2e74", "is_reserved": 0, "is_disabled": 0}, {"lat": 38.96153066666667, "fusion_lat": 0.0, "type": "electric_scooter", "bike_id": "fbcfef8b33667947f965c2a8f5517e26", "rental_uris": {"ios": "https://dc.lft.to/lastmile_qr_scan", "android": "https://dc.lft.to/lastmile_qr_scan"}, "fusion_lon": 0.0, "lon": -77.03234816666667, "name": "fbcfef8b33667947f965c2a8f5517e26", "is_reserved": 0, "is_disabled": 0}, {"lat": 38.92175833333334, "fusion_lat": 0.0, "type": "electric_scooter", "bike_id": "0137f56624678b3e4fd883613d306315", "rental_uris": {"ios": "https://dc.lft.to/lastmile_qr_scan", "android": "https://dc.lft.to/lastmile_qr_scan"}, "fusion_lon": 0.0, "lon": -77.040126, "name": "0137f56624678b3e4fd883613d306315", "is_reserved": 0, "is_disabled": 0}, {"lat": 38.936342333333336, "fusion_lat": 0.0, "type": "electric_scooter", "bike_id": "9abdf565a2692b3e1c9e0a500a8f8720", "rental_uris": {"ios": "https://dc.lft.to/lastmile_qr_scan", "android": "https://dc.lft.to/lastmile_qr_scan"}, "fusion_lon": 0.0, "lon": -77.02115666666667, "name": "9abdf565a2692b3e1c9e0a500a8f8720", "is_reserved": 0, "is_disabled": 0}, {"lat": 38.904297, "fusion_lat": 0.0, "type": "electric_scooter", "bike_id": "ec3fe56192155e06311ed2669d6f81fd", "rental_uris": {"ios": "https://dc.lft.to/lastmile_qr_scan", "android": "https://dc.lft.to/lastmile_qr_scan"}, "fusion_lon": 0.0, "lon": -77.027731, "name": "ec3fe56192155e06311ed2669d6f81fd", "is_reserved": 0, "is_disabled": 0}, {"lat": 38.916026, "fusion_lat": 0.0, "type": "electric_bike", "bike_id": "bdf7b17908a2a6221b2628db8927120b", "rental_uris": {"ios": "https://dc.lft.to/lastmile_qr_scan", "android": "https://dc.lft.to/lastmile_qr_scan"}, "fusion_lon": 0.0, "lon": -77.04021033333333, "name": "bdf7b17908a2a6221b2628db8927120b", "is_reserved": 0, "is_disabled": 0}, {"lat": 38.9181105, "fusion_lat": 0.0, "type": "electric_scooter", "bike_id": "d3b03c56e15f5bedbc87cd491274564c", "rental_uris": {"ios": "https://dc.lft.to/lastmile_qr_scan", "android": "https://dc.lft.to/lastmile_qr_scan"}, "fusion_lon": 0.0, "lon": -77.03798683333333, "name": "d3b03c56e15f5bedbc87cd491274564c", "is_reserved": 0, "is_disabled": 0}, {"lat": 38.91814766666667, "fusion_lat": 0.0, "type": "electric_scooter", "bike_id": "25e14432bf815116dafa2ee0317a04aa", "rental_uris": {"ios": "https://dc.lft.to/lastmile_qr_scan", "android": "https://dc.lft.to/lastmile_qr_scan"},