{"data": {"bikes": [{"is_disabled": 0, "fusion_lon": 0.0, "fusion_lat": 0.0, "lat": 38.9110805, "type": "electric_scooter", "lon": -77.03745316666667, "bike_id": "67c6faa4b24b7851426c1f851e3d2c3b", "rental_uris": {"android": "https://dc.lft.to/lastmile_qr_scan", "ios": "https://dc.lft.to/lastmile_qr_scan"}, "name": "67c6faa4b24b7851426c1f851e3d2c3b", "is_reserved": 0}, {"is_disabled": 0, "fusion_lon": 0.0, "fusion_lat": 0.0, "lat": 38.9457205, "type": "electric_bike", "lon": -76.96030583333334, "bike_id": "910a7bd742fa913a3003ee4ad47f4b1d", "rental_uris": {"android": "https://dc.lft.to/lastmile_qr_scan", "ios": "https://dc.lft.to/lastmile_qr_scan"}, "name": "910a7bd742fa913a3003ee4ad47f4b1d", "is_reserved": 0}, {"is_disabled": 0, "fusion_lon": 0.0, "fusion_lat": 0.0, "lat": 38.925841, "type": "electric_scooter", "lon": -77.02563766666667, "bike_id": "8e4070e3b8e8e86cb5919de76d3da490", "rental_uris": {"android": "https://dc.lft.to/lastmile_qr_scan", "ios": "https://dc.lft.to/lastmile_qr_scan"}, "name": "8e4070e3b8e8e86cb5919de76d3da490", "is_reserved": 0}, {"is_disabled": 0, "fusion_lon": 0.0, "fusion_lat": 0.0, "lat": 38.96213733333333, "type": "electric_scooter", "lon": -77.0280325, "bike_id": "0d181f4e78cb67ee0514422b34c620da", "rental_uris": {"android": "https://dc.lft.to/lastmile_qr_scan", "ios": "https://dc.lft.to/lastmile_qr_scan"}, "name": "0d181f4e78cb67ee0514422b34c620da", "is_reserved": 0}, {"is_disabled": 0, "fusion_lon": 0.0, "fusion_lat": 0.0, "lat": 38.99062883333333, "type": "electric_bike", "lon": -77.10030183333333, "bike_id": "2f045b5838d969b8ed7c847be26dcc50", "rental_uris": {"android": "https://dc.lft.to/lastmile_qr_scan", "ios": "https://dc.lft.to/lastmile_qr_scan"}, "name": "2f045b5838d969b8ed7c847be26dcc50", "is_reserved": 0}, {"is_disabled": 0, "fusion_lon": 0.0, "fusion_lat": 0.0, "lat": 38.928084166666665, "type": "electric_scooter", "lon": -77.01416583333334, "bike_id": "60af93e888c76fbf4b4b98fdd0b1ccfb", "rental_uris": {"android": "https://dc.lft.to/lastmile_qr_scan", "ios": "https://dc.lft.to/lastmile_qr_scan"}, "name": "60af93e888c76fbf4b4b98fdd0b1ccfb", "is_reserved": 0}, {"is_disabled": 0, "fusion_lon": 0.0, "fusion_lat": 0.0, "lat": 38.956017833333334, "type": "electric_scooter", "lon": -77.00981283333333, "bike_id": "a0a0f6e0885c4f3aa4d452164d2b4d6a", "rental_uris": {"android": "https://dc.lft.to/lastmile_qr_scan", "ios": "https://dc.lft.to/lastmile_qr_scan"}, "name": "a0a0f6e0885c4f3aa4d452164d2b4d6a", "is_reserved": 0}, {"is_disabled": 0, "fusion_lon": 0.0, "fusion_lat": 0.0, "lat": 38.90555283333333, "type": "electric_scooter", "lon": -77.04643483333334, "bike_id": "46c15bad0dfeaf8d2e3ce734dce19ac9", "rental_uris": {"android": "https://dc.lft.to/lastmile_qr_scan", "ios": "https://dc.lft.to/lastmile_qr_scan"}, "name": "46c15bad0dfeaf8d2e3ce734dce19ac9", "is_reserved": 0}, {"is_disabled": 0, "fusion_lon": 0.0, "fusion_lat": 0.0, "lat": 38.9329705, "type": "electric_scooter", "lon": -77.02146583333334, "bike_id": "92ed6ffe4ebe04731b075614d095f3ea", "rental_uris": {"android": "https://dc.lft.to/lastmile_qr_scan", "ios": "https://dc.lft.to/lastmile_qr_scan"}, "name": "92ed6ffe4ebe04731b075614d095f3ea", "is_reserved": 0}, {"is_disabled": 0, "fusion_lon": 0.0, "fusion_lat": 0.0, "lat": 38.87493166666667, "type": "electric_bike", "lon": -77.04900116666667, "bike_id": "52aeaba757a69de0fae088fc81d3831e", "rental_uris": {"android": "https://dc.lft.to/lastmile_qr_scan", "ios": "https://dc.lft.to/lastmile_qr_scan"}, "name": "52aeaba757a69de0fae088fc81d3831e", "is_reserved": 0}, {"is_disabled": 0, "fusion_lon": 0.0, "fusion_lat": 0.0, "lat": 38.90350383333333, "type": "electric_scooter", "lon": -77.0396415, "bike_id": "39689f33412675a5a04c5064ff9cc7ac", "rental_uris": {"android": "https://dc.lft.to/lastmile_qr_scan", "ios": "https://dc.lft.to/lastmile_qr_scan"}, "name": "39689f33412675a5a04c5064ff9cc7ac", "is_reserved": 0}, {"is_disabled": 0, "fusion_lon": 0.0, "fusion_lat": 0.0, "lat": 38.990899666666664, "type": "electric_bike", "lon": -76.87493616666667, "bike_id": "01faf9a2c9122d0fe09ff1d57b7adf71", "rental_uris": {"android": "https://dc.lft.to/lastmile_qr_scan", "ios": "https://dc.lft.to/lastmile_qr_scan"}, "name": "01faf9a2c9122d0fe09ff1d57b7adf71", "is_reserved": 0}, {"is_disabled": 0, "fusion_lon": 0.0, "fusion_lat": 0.0, "lat": 38.90538166666666, "type": "electric_scooter", "lon": -77.06517833333334, "bike_id": "bfb625dbec800caf53a333ae46169aa0", "rental_uris": {"android": "https://dc.lft.to/lastmile_qr_scan", "ios": "https://dc.lft.to/lastmile_qr_scan"}, "name": "bfb625dbec800caf53a333ae46169aa0", "is_reserved": 0}, {"is_disabled": 0, "fusion_lon": 0.0, "fusion_lat": 0.0, "lat": 38.86356683333333, "type": "electric_scooter", "lon": -76.99069983333334, "bike_id": "ef9e0d991174083a1ddd6cebba57e88f", "rental_uris": {"android": "https://dc.lft.to/lastmile_qr_scan", "ios": "https://dc.lft.to/lastmile_qr_scan"}, "name": "ef9e0d991174083a1ddd6cebba57e88f", "is_reserved": 0}, {"is_disabled": 0, "fusion_lon": 0.0, "fusion_lat": 0.0, "lat": 38.89205066666667, "type": "electric_bike", "lon": -76.98553083333333, "bike_id": "81274659ac0ad1a9d7483235fb3f9407", "rental_uris": {"android": "https://dc.lft.to/lastmile_qr_scan", "ios": "https://dc.lft.to/lastmile_qr_scan"}, "name": "81274659ac0ad1a9d7483235fb3f9407", "is_reserved": 0}, {"is_disabled": 0, "fusion_lon": 0.0, "fusion_lat": 0.0, "lat": 38.898259833333334, "type": "electric_scooter", "lon": -77.029497, "bike_id": "cc065441c84315e4713338663539114b", "rental_uris": {"android": "https://dc.lft.to/lastmile_qr_scan", "ios": "https://dc.lft.to/lastmile_qr_scan"}, "name": "cc065441c84315e4713338663539114b", "is_reserved": 0}, {"is_disabled": 0, "fusion_lon": 0.0, "fusion_lat": 0.0, "lat": 38.897281166666666, "type": "electric_scooter", "lon": -77.00372533333334, "bike_id": "a4a7b1e6bb8e52285d72a606e4e32446", "rental_uris": {"android": "https://dc.lft.to/lastmile_qr_scan", "ios": "https://dc.lft.to/lastmile_qr_scan"}, "name": "a4a7b1e6bb8e52285d72a606e4e32446", "is_reserved": 0}, {"is_disabled": 0, "fusion_lon": 0.0, "fusion_lat": 0.0, "lat": 39.0388185, "type": "electric_bike", "lon": -77.1090555, "bike_id": "0c3fdfb8933f9ab1ebd14a4793ce3878", "rental_uris": {"android": "https://dc.lft.to/lastmile_qr_scan", "ios": "https://dc.lft.to/lastmile_qr_scan"}, "name": "0c3fdfb8933f9ab1ebd14a4793ce3878", "is_reserved": 0}, {"is_disabled": 0, "fusion_lon": 0.0, "fusion_lat": 0.0, "lat": 38.9172, "type": "electric_bike", "lon": -77.22117516666667, "bike_id": "686985ddda17d81bac8ff97b7968c008", "rental_uris": {"android": "https://dc.lft.to/lastmile_qr_scan", "ios": "https://dc.lft.to/lastmile_qr_scan"}, "name": "686985ddda17d81bac8ff97b7968c008", "is_reserved": 0}, {"is_disabled": 0, "fusion_lon": 0.0, "fusion_lat": 0.0, "lat": 38.9560675, "type": "electric_scooter", "lon": -77.0278675, "bike_id": "d7e7cd4447455c4a06324664ae1656c5", "rental_uris": {"android": "https://dc.lft.to/lastmile_qr_scan", "ios": "https://dc.lft.to/lastmile_qr_scan"}, "name": "d7e7cd4447455c4a06324664ae1656c5", "is_reserved": 0}, {"is_disabled": 0, "fusion_lon": 0.0, "fusion_lat": 0.0, "lat": 38.938644833333335, "type": "electric_scooter", "lon": -77.02648066666667, "bike_id": "dd956fd9023682f1cf629357ca4ae238", "rental_uris": {"android": "https://dc.lft.to/lastmile_qr_scan", "ios": "https://dc.lft.to/lastmile_qr_scan"}, "name": "dd956fd9023682f1cf629357ca4ae238", "is_reserved": 0}, {"is_disabled": 0, "fusion_lon": 0.0, "fusion_lat": 0.0, "lat": 38.93671466666667, "type": "electric_bike", "lon": -76.9520885, "bike_id": "7098695448704965f97ed35432fa7002", "rental_uris": {"android": "https://dc.lft.to/lastmile_qr_scan", "ios": "https://dc.lft.to/lastmile_qr_scan"}, "name": "7098695448704965f97ed35432fa7002", "is_reserved": 0}, {"is_disabled": 0, "fusion_lon": 0.0, "fusion_lat": 0.0, "lat": 38.86659516666667, "type": "electric_scooter", "lon": -76.988872, "bike_id": "270ffb08f68b95ac5ca91ac1f088ebc3", "rental_uris": {"android": "https://dc.lft.to/lastmile_qr_scan", "ios": "https://dc.lft.to/lastmile_qr_scan"}, "name": "270ffb08f68b95ac5ca91ac1f088ebc3", "is_reserved": 0}, {"is_disabled": 0, "fusion_lon": 0.0, "fusion_lat": 0.0, "lat": 38.92232633333333, "type": "electric_scooter", "lon": -77.0439165, "bike_id": "dba09384ab8c2278e1d1f198b5726e3f", "rental_uris": {"android": "https://dc.lft.to/lastmile_qr_scan", "ios": "https://dc.lft.to/lastmile_qr_scan"}, "name": "dba09384ab8c2278e1d1f198b5726e3f", "is_reserved": 0}, {"is_disabled": 0, "fusion_lon": 0.0, "fusion_lat": 0.0, "lat": 38.95324466666667, "type": "electric_scooter", "lon": -77.06855916666666, "bike_id": "c6861ac4db379bd44b7481a0f7accc12", "rental_uris": {"android": "https://dc.lft.to/lastmile_qr_scan", "ios": "https://dc.lft.to/lastmile_qr_scan"}, "name": "c6861ac4db379bd44b7481a0f7accc12", "is_reserved": 0}, {"is_disabled": 0, "fusion_lon": 0.0, "fusion_lat": 0.0, "lat": 38.935268666666666, "type": "electric_scooter", "lon": -77.066432, "bike_id": "455588d0666a3bac757eb7a8f8802315", "rental_uris": {"android": "https://dc.lft.to/lastmile_qr_scan", "ios": "https://dc.lft.to/lastmile_qr_scan"}, "name": "455588d0666a3bac757eb7a8f8802315", "is_reserved": 0}, {"is_disabled": 0, "fusion_lon": 0.0, "fusion_lat": 0.0, "lat": 38.86590183333333, "type": "electric_scooter", "lon": -77.0106675, "bike_id": "940b3788ade58664077ba9235fc30bb9", "rental_uris": {"android": "https://dc.lft.to/lastmile_qr_scan", "ios": "https://dc.lft.to/lastmile_qr_scan"}, "name": "940b3788ade58664077ba9235fc30bb9", "is_reserved": 0}, {"is_disabled": 0, "fusion_lon": 0.0, "fusion_lat": 0.0, "lat": 38.91174083333333, "type": "electric_scooter", "lon": -77.004442, "bike_id": "3ca7a6cae9c115ca39daabe016efd1c8", "rental_uris": {"android": "https://dc.lft.to/lastmile_qr_scan", "ios": "https://dc.lft.to/lastmile_qr_scan"}, "name": "3ca7a6cae9c115ca39daabe016efd1c8", "is_reserved": 0}, {"is_disabled": 0, "fusion_lon": 0.0, "fusion_lat": 0.0, "lat": 38.93087766666667, "type": "electric_scooter", "lon": -77.03615916666666, "bike_id": "b48616343f7979e1293c187ec2acf2b1", "rental_uris": {"android": "https://dc.lft.to/lastmile_qr_scan", "ios": "https://dc.lft.to/lastmile_qr_scan"}, "name": "b48616343f7979e1293c187ec2acf2b1", "is_reserved": 0}, {"is_disabled": 0, "fusion_lon": 0.0, "fusion_lat": 0.0, "lat": 38.908468166666665, "type": "electric_scooter", "lon": -77.0607925, "bike_id": "612809559886da03a4bfabd4613dc2ce", "rental_uris": {"android": "https://dc.lft.to/lastmile_qr_scan", "ios": "https://dc.lft.to/lastmile_qr_scan"}, "name": "612809559886da03a4bfabd4613dc2ce", "is_reserved": 0}, {"is_disabled": 0, "fusion_lon": 0.0, "fusion_lat": 0.0, "lat": 38.90482016666667, "type": "electric_scooter", "lon": -77.06213066666666, "bike_id": "648ee17440b7687ee90716ec25a69e41", "rental_uris": {"android": "https://dc.lft.to/lastmile_qr_scan", "ios": "https://dc.lft.to/lastmile_qr_scan"}, "name": "648ee17440b7687ee90716ec25a69e41", "is_reserved": 0}, {"is_disabled": 0, "fusion_lon": 0.0, "fusion_lat": 0.0, "lat": 38.89654983333333, "type": "electric_scooter", "lon": -77.027402, "bike_id": "e541781d5bb2c83e7f3505398bd53243", "rental_uris": {"android": "https://dc.lft.to/lastmile_qr_scan", "ios": "https://dc.lft.to/lastmile_qr_scan"}, "name": "e541781d5bb2c83e7f3505398bd53243", "is_reserved": 0}, {"is_disabled": 0, "fusion_lon": 0.0, "fusion_lat": 0.0, "lat": 38.93631283333333, "type": "electric_scooter", "lon": -77.02690866666667, "bike_id": "337e1677816b7cf47a1a3cc5ef6f0cbb", "rental_uris": {"android": "https://dc.lft.to/lastmile_qr_scan", "ios": "https://dc.lft.to/lastmile_qr_scan"}, "name": "337e1677816b7cf47a1a3cc5ef6f0cbb", "is_reserved": 0}, {"is_disabled": 0, "fusion_lon": 0.0, "fusion_lat": 0.0, "lat": 38.916952333333334, "type": "electric_scooter", "lon": -77.04116316666666, "bike_id": "d9bf95c05aadee5378982873325e1e2d", "rental_uris": {"android": "https://dc.lft.to/lastmile_qr_scan", "ios": "https://dc.lft.to/lastmile_qr_scan"}, "name": "d9bf95c05aadee5378982873325e1e2d", "is_reserved": 0}, {"is_disabled": 0, "fusion_lon": 0.0, "fusion_lat": 0.0, "lat": 38.917047833333335, "type": "electric_scooter", "lon": -77.03298416666667, "bike_id": "a53bb29e496843f095dac8c7182ef3d5", "rental_uris": {"android": "https://dc.lft.to/lastmile_qr_scan", "ios": "https://dc.lft.to/lastmile_qr_scan"}, "name": "a53bb29e496843f095dac8c7182ef3d5", "is_reserved": 0}, {"is_disabled": 0, "fusion_lon": 0.0, "fusion_lat": 0.0, "lat": 38.89216116666667, "type": "electric_scooter", "lon": -77.0317925, "bike_id": "994468a60a1810d0a3688f93871d196f", "rental_uris": {"android": "https://dc.lft.to/lastmile_qr_scan", "ios": "https://dc.lft.to/lastmile_qr_scan"}, "name": "994468a60a1810d0a3688f93871d196f", "is_reserved": 0}, {"is_disabled": 0, "fusion_lon": 0.0, "fusion_lat": 0.0, "lat": 38.89825333333334, "type": "electric_scooter", "lon": -77.02801416666667, "bike_id": "93ae860613f67d5af1ad6f8f3f699eb2", "rental_uris": {"android": "https://dc.lft.to/lastmile_qr_scan", "ios": "https://dc.lft.to/lastmile_qr_scan"}, "name": "93ae860613f67d5af1ad6f8f3f699eb2", "is_reserved": 0}, {"is_disabled": 0, "fusion_lon": 0.0, "fusion_lat": 0.0, "lat": 38.896123833333334, "type": "electric_scooter", "lon": -76.9963455, "bike_id": "1251193233d87b5694a23ee2a76bb594", "rental_uris": {"android": "https://dc.lft.to/lastmile_qr_scan", "ios": "https://dc.lft.to/lastmile_qr_scan"}, "name": "1251193233d87b5694a23ee2a76bb594", "is_reserved": 0}, {"is_disabled": 0, "fusion_lon": 0.0, "fusion_lat": 0.0, "lat": 38.9125515, "type": "electric_scooter", "lon": -77.03262283333333, "bike_id": "ae14ad326534b470c2eddcb61a4012a5", "rental_uris": {"android": "https://dc.lft.to/lastmile_qr_scan", "ios": "https://dc.lft.to/lastmile_qr_scan"}, "name": "ae14ad326534b470c2eddcb61a4012a5", "is_reserved": 0}, {"is_disabled": 0, "fusion_lon": 0.0, "fusion_lat": 0.0, "lat": 38.915657333333336, "type": "electric_scooter", "lon": -77.03264516666667, "bike_id": "16af80c2fe1287c30cbe6e9ff3a73e14", "rental_uris": {"android": "https://dc.lft.to/lastmile_qr_scan", "ios": "https://dc.lft.to/lastmile_qr_scan"}, "name": "16af80c2fe1287c30cbe6e9ff3a73e14", "is_reserved": 0}, {"is_disabled": 0, "fusion_lon": 0.0, "fusion_lat": 0.0, "lat": 38.901804166666665, "type": "electric_scooter", "lon": -76.92825666666667, "bike_id": "a3e8260ccdba54c7cd999b1142591384", "rental_uris": {"android": "https://dc.lft.to/lastmile_qr_scan", "ios": "https://dc.lft.to/lastmile_qr_scan"}, "name": "a3e8260ccdba54c7cd999b1142591384", "is_reserved": 0}, {"is_disabled": 0, "fusion_lon": 0.0, "fusion_lat": 0.0, "lat": 38.91708533333333, "type": "electric_scooter", "lon": -77.032293, "bike_id": "571e0a885e72e447bc1673003947be44", "rental_uris": {"android": "https://dc.lft.to/lastmile_qr_scan", "ios": "https://dc.lft.to/lastmile_qr_scan"}, "name": "571e0a885e72e447bc1673003947be44", "is_reserved": 0}, {"is_disabled": 0, "fusion_lon": 0.0, "fusion_lat": 0.0, "lat": 38.9178605, "type": "electric_scooter", "lon": -77.02298733333333, "bike_id": "048fc803f4cb0920feb4c5ed7321e1ae", "rental_uris": {"android": "https://dc.lft.to/lastmile_qr_scan", "ios": "https://dc.lft.to/lastmile_qr_scan"}, "name": "048fc803f4cb0920feb4c5ed7321e1ae", "is_reserved": 0}, {"is_disabled": 0, "fusion_lon": 0.0, "fusion_lat": 0.0, "lat": 38.905460166666664, "type": "electric_scooter", "lon": -77.02966233333333, "bike_id": "53c0578839f47dc10232fbbb3c377e73", "rental_uris": {"android": "https://dc.lft.to/lastmile_qr_scan", "ios": "https://dc.lft.to/lastmile_qr_scan"}, "name": "53c0578839f47dc10232fbbb3c377e73", "is_reserved": 0}, {"is_disabled": 0, "fusion_lon": 0.0, "fusion_lat": 0.0, "lat": 38.918705, "type": "electric_bike", "lon": -76.96125583333334, "bike_id": "28449a2bedcc21ac2000193bff5106ad", "rental_uris": {"android": "https://dc.lft.to/lastmile_qr_scan", "ios": "https://dc.lft.to/lastmile_qr_scan"}, "name": "28449a2bedcc21ac2000193bff5106ad", "is_reserved": 0}, {"is_disabled": 0, "fusion_lon": 0.0, "fusion_lat": 0.0, "lat": 38.905449, "type": "electric_scooter", "lon": -77.02975916666666, "bike_id": "eed09047b61541facd1a1f6bef41aa90", "rental_uris": {"android": "https://dc.lft.to/lastmile_qr_scan", "ios": "https://dc.lft.to/lastmile_qr_scan"}, "name": "eed09047b61541facd1a1f6bef41aa90", "is_reserved": 0}, {"is_disabled": 0, "fusion_lon": 0.0, "fusion_lat": 0.0, "lat": 38.86111, "type": "electric_scooter", "lon": -76.98372366666666, "bike_id": "d43b848cecbac3beb2342cfe598399ad", "rental_uris": {"android": "https://dc.lft.to/lastmile_qr_scan", "ios": "https://dc.lft.to/lastmile_qr_scan"}, "name": "d43b848cecbac3beb2342cfe598399ad", "is_reserved": 0}, {"is_disabled": 0, "fusion_lon": 0.0, "fusion_lat": 0.0, "lat": 38.94787, "type": "electric_scooter", "lon": -77.09275533333333, "bike_id": "42b3502e9892bc1a98646dbd22c3b719", "rental_uris": {"android": "https://dc.lft.to/lastmile_qr_scan", "ios": "https://dc.lft.to/lastmile_qr_scan"}, "name": "42b3502e9892bc1a98646dbd22c3b719", "is_reserved": 0}, {"is_disabled": 0, "fusion_lon": 0.0, "fusion_lat": 0.0, "lat": 38.91882566666666, "type": "electric_scooter", "lon": -77.04730733333334, "bike_id": "73e846fed8836140a4353f4d0ffca850", "rental_uris": {"android": "https://dc.lft.to/lastmile_qr_scan", "ios": "https://dc.lft.to/lastmile_qr_scan"}, "name": "73e846fed8836140a4353f4d0ffca850", "is_reserved": 0}, {"is_disabled": 0, "fusion_lon": 0.0, "fusion_lat": 0.0, "lat": 38.90533333333333, "type": "electric_scooter", "lon": -77.02960183333333, "bike_id": "1115fc7a6f8d3cf277ada294674a99bd", "rental_uris": {"android": "https://dc.lft.to/lastmile_qr_scan", "ios": "https://dc.lft.to/lastmile_qr_scan"}, "name": "1115fc7a6f8d3cf277ada294674a99bd", "is_reserved": 0}, {"is_disabled": 0, "fusion_lon": 0.0, "fusion_lat": 0.0, "lat": 38.899698666666666, "type": "electric_scooter", "lon": -77.046151, "bike_id": "403c4190edd77fecdd7187dddc55027e", "rental_uris": {"android": "https://dc.lft.to/lastmile_qr_scan", "ios": "https://dc.lft.to/lastmile_qr_scan"}, "name": "403c4190edd77fecdd7187dddc55027e", "is_reserved": 0}, {"is_disabled": 0, "fusion_lon": 0.0, "fusion_lat": 0.0, "lat": 38.941947, "type": "electric_scooter", "lon": -77.02411766666667, "bike_id": "619996b0908ea1c91cc5f9d5a4b409d5", "rental_uris": {"android": "https://dc.lft.to/lastmile_qr_scan", "ios": "https://dc.lft.to/lastmile_qr_scan"}, "name": "619996b0908ea1c91cc5f9d5a4b409d5", "is_reserved": 0}, {"is_disabled": 0, "fusion_lon": 0.0, "fusion_lat": 0.0, "lat": 38.905396333333336, "type": "electric_scooter", "lon": -77.006925, "bike_id": "0dae6453aa6af00799e34ff0c873e024", "rental_uris": {"android": "https://dc.lft.to/lastmile_qr_scan", "ios": "https://dc.lft.to/lastmile_qr_scan"}, "name": "0dae6453aa6af00799e34ff0c873e024", "is_reserved": 0}, {"is_disabled": 0, "fusion_lon": 0.0, "fusion_lat": 0.0, "lat": 38.909664166666666, "type": "electric_scooter", "lon": -77.02176383333334, "bike_id": "740b70bd0642e70c202a1dc6a62d962c", "rental_uris": {"android": "https://dc.lft.to/lastmile_qr_scan", "ios": "https://dc.lft.to/lastmile_qr_scan"}, "name": "740b70bd0642e70c202a1dc6a62d962c", "is_reserved": 0}, {"is_disabled": 0, "fusion_lon": 0.0, "fusion_lat": 0.0, "lat": 38.915175833333336, "type": "electric_scooter", "lon": -77.0197295, "bike_id": "843b1d6f6f45e4e75ed714993dd10eb3", "rental_uris": {"android": "https://dc.lft.to/lastmile_qr_scan", "ios": "https://dc.lft.to/lastmile_qr_scan"}, "name": "843b1d6f6f45e4e75ed714993dd10eb3", "is_reserved": 0}, {"is_disabled": 0, "fusion_lon": 0.0, "fusion_lat": 0.0, "lat": 38.9073005, "type": "electric_scooter", "lon": -77.0269225, "bike_id": "ddbc33da816a91c89552652592fd0ce7", "rental_uris": {"android": "https://dc.lft.to/lastmile_qr_scan", "ios": "https://dc.lft.to/lastmile_qr_scan"}, "name": "ddbc33da816a91c89552652592fd0ce7", "is_reserved": 0}, {"is_disabled": 0, "fusion_lon": 0.0, "fusion_lat": 0.0, "lat": 38.8793745, "type": "electric_bike", "lon": -77.014667, "bike_id": "82269722732e1a55cfb2895406691f6a", "rental_uris": {"android": "https://dc.lft.to/lastmile_qr_scan", "ios": "https://dc.lft.to/lastmile_qr_scan"}, "name": "82269722732e1a55cfb2895406691f6a", "is_reserved": 0}, {"is_disabled": 0, "fusion_lon": 0.0, "fusion_lat": 0.0, "lat": 38.917851, "type": "electric_scooter", "lon": -77.03205916666667, "bike_id": "484635a01c79caa4f55529cb454d2fdb", "rental_uris": {"android": "https://dc.lft.to/lastmile_qr_scan", "ios": "https://dc.lft.to/lastmile_qr_scan"}, "name": "484635a01c79caa4f55529cb454d2fdb", "is_reserved": 0}, {"is_disabled": 0, "fusion_lon": 0.0, "fusion_lat": 0.0, "lat": 38.910426666666666, "type": "electric_scooter", "lon": -77.04332516666666, "bike_id": "19622b74ef921042288553bda2f31d15", "rental_uris": {"android": "https://dc.lft.to/lastmile_qr_scan", "ios": "https://dc.lft.to/lastmile_qr_scan"}, "name": "19622b74ef921042288553bda2f31d15", "is_reserved": 0}, {"is_disabled": 0, "fusion_lon": 0.0, "fusion_lat": 0.0, "lat": 38.9329075, "type": "electric_scooter", "lon": -77.02448166666667, "bike_id": "626fdf61b77645872dc4eefb40f03928", "rental_uris": {"android": "https://dc.lft.to/lastmile_qr_scan", "ios": "https://dc.lft.to/lastmile_qr_scan"}, "name": "626fdf61b77645872dc4eefb40f03928", "is_reserved": 0}, {"is_disabled": 0, "fusion_lon": 0.0, "fusion_lat": 0.0, "lat": 38.92011266666667, "type": "electric_scooter", "lon": -77.03282833333333, "bike_id": "81c7500edc3fae65d6984974c300aa89", "rental_uris": {"android": "https://dc.lft.to/lastmile_qr_scan", "ios": "https://dc.lft.to/lastmile_qr_scan"}, "name": "81c7500edc3fae65d6984974c300aa89", "is_reserved": 0}, {"is_disabled": 0, "fusion_lon": 0.0, "fusion_lat": 0.0, "lat": 38.9498615, "type": "electric_scooter", "lon": -77.0270125, "bike_id": "b4c30d870508e0b376c046a5a527905e", "rental_uris": {"android": "https://dc.lft.to/lastmile_qr_scan", "ios": "https://dc.lft.to/lastmile_qr_scan"}, "name": "b4c30d870508e0b376c046a5a527905e", "is_reserved": 0}, {"is_disabled": 0, "fusion_lon": 0.0, "fusion_lat": 0.0, "lat": 38.9525325, "type": "electric_bike", "lon": -77.06980033333333, "bike_id": "513aaf580b974e809313cd2d3c6119f3", "rental_uris": {"android": "https://dc.lft.to/lastmile_qr_scan", "ios": "https://dc.lft.to/lastmile_qr_scan"}, "name": "513aaf580b974e809313cd2d3c6119f3", "is_reserved": 0}, {"is_disabled": 0, "fusion_lon": 0.0, "fusion_lat": 0.0, "lat": 38.89798666666667, "type": "electric_scooter", "lon": -76.930519, "bike_id": "23ba121e75cbce593ee0341757e3e2eb", "rental_uris": {"android": "https://dc.lft.to/lastmile_qr_scan", "ios": "https://dc.lft.to/lastmile_qr_scan"}, "name": "23ba121e75cbce593ee0341757e3e2eb", "is_reserved": 0}, {"is_disabled": 0, "fusion_lon": 0.0, "fusion_lat": 0.0, "lat": 38.898292833333336, "type": "electric_scooter", "lon": -77.03358966666667, "bike_id": "cd0f30e13f6317a583ab049ca240b660", "rental_uris": {"android": "https://dc.lft.to/lastmile_qr_scan", "ios": "https://dc.lft.to/lastmile_qr_scan"}, "name": "cd0f30e13f6317a583ab049ca240b660", "is_reserved": 0}, {"is_disabled": 0, "fusion_lon": 0.0, "fusion_lat": 0.0, "lat": 38.98748283333333, "type": "electric_bike", "lon": -77.0271065, "bike_id": "ad1defcba5336ae7efeea33765deeaf2", "rental_uris": {"android": "https://dc.lft.to/lastmile_qr_scan", "ios": "https://dc.lft.to/lastmile_qr_scan"}, "name": "ad1defcba5336ae7efeea33765deeaf2", "is_reserved": 0}, {"is_disabled": 0, "fusion_lon": 0.0, "fusion_lat": 0.0, "lat": 38.924102833333336, "type": "electric_scooter", "lon": -77.03546533333333, "bike_id": "8f5234a5d66011ff60abd2d1bc7b545e", "rental_uris": {"android": "https://dc.lft.to/lastmile_qr_scan", "ios": "https://dc.lft.to/lastmile_qr_scan"}, "name": "8f5234a5d66011ff60abd2d1bc7b545e", "is_reserved": 0}, {"is_disabled": 0, "fusion_lon": 0.0, "fusion_lat": 0.0, "lat": 38.831577, "type": "electric_bike", "lon": -76.99688433333333, "bike_id": "d17789d1d4a16e98323059bf73e16764", "rental_uris": {"android": "https://dc.lft.to/lastmile_qr_scan", "ios": "https://dc.lft.to/lastmile_qr_scan"}, "name": "d17789d1d4a16e98323059bf73e16764", "is_reserved": 0}, {"is_disabled": 0, "fusion_lon": 0.0, "fusion_lat": 0.0, "lat": 38.892460166666666, "type": "electric_scooter", "lon": -77.04662883333333, "bike_id": "433a841a97f4eff9565b2fd61cc7ca1f", "rental_uris": {"android": "https://dc.lft.to/lastmile_qr_scan", "ios": "https://dc.lft.to/lastmile_qr_scan"}, "name": "433a841a97f4eff9565b2fd61cc7ca1f", "is_reserved": 0}, {"is_disabled": 0, "fusion_lon": 0.0, "fusion_lat": 0.0, "lat": 38.9248175, "type": "electric_scooter", "lon": -77.027277, "bike_id": "0645a99a7ba86ab5216f87b26b749f59", "rental_uris": {"android": "https://dc.lft.to/lastmile_qr_scan", "ios": "https://dc.lft.to/lastmile_qr_scan"}, "name": "0645a99a7ba86ab5216f87b26b749f59", "is_reserved": 0}, {"is_disabled": 0, "fusion_lon": 0.0, "fusion_lat": 0.0, "lat": 38.95310716666667, "type": "electric_scooter", "lon": -77.03598816666667, "bike_id": "d35cb96740d87b1a9b45fb3912cd6dba", "rental_uris": {"android": "https://dc.lft.to/lastmile_qr_scan", "ios": "https://dc.lft.to/lastmile_qr_scan"}, "name": "d35cb96740d87b1a9b45fb3912cd6dba", "is_reserved": 0}, {"is_disabled": 0, "fusion_lon": 0.0, "fusion_lat": 0.0, "lat": 38.90005283333333, "type": "electric_scooter", "lon": -77.04163416666667, "bike_id": "f1753db45904ce731acc3adbe68c5cf5", "rental_uris": {"android": "https://dc.lft.to/lastmile_qr_scan", "ios": "https://dc.lft.to/lastmile_qr_scan"}, "name": "f1753db45904ce731acc3adbe68c5cf5", "is_reserved": 0}, {"is_disabled": 0, "fusion_lon": 0.0, "fusion_lat": 0.0, "lat": 38.9985735, "type": "electric_bike", "lon": -77.02863266666667, "bike_id": "2f76a3b0cc6720a64532ff799a1a8eaf", "rental_uris": {"android": "https://dc.lft.to/lastmile_qr_scan", "ios": "https://dc.lft.to/lastmile_qr_scan"}, "name": "2f76a3b0cc6720a64532ff799a1a8eaf", "is_reserved": 0}, {"is_disabled": 0, "fusion_lon": 0.0, "fusion_lat": 0.0, "lat": 38.91407816666667, "type": "electric_scooter", "lon": -77.03751083333333, "bike_id": "a9d5f10f260f87cdf094ffbb823eaaaf", "rental_uris": {"android": "https://dc.lft.to/lastmile_qr_scan", "ios": "https://dc.lft.to/lastmile_qr_scan"}, "name": "a9d5f10f260f87cdf094ffbb823eaaaf", "is_reserved": 0}, {"is_disabled": 0, "fusion_lon": 0.0, "fusion_lat": 0.0, "lat": 38.90864333333333, "type": "electric_scooter", "lon": -77.0269005, "bike_id": "7ca62c8e665bf53feced19a4b9dfd6ec", "rental_uris": {"android": "https://dc.lft.to/lastmile_qr_scan", "ios": "https://dc.lft.to/lastmile_qr_scan"}, "name": "7ca62c8e665bf53feced19a4b9dfd6ec", "is_reserved": 0}, {"is_disabled": 0, "fusion_lon": 0.0, "fusion_lat": 0.0, "lat": 38.909052, "type": "electric_scooter", "lon": -77.02708733333333, "bike_id": "660a18336a9c6ce907e4a9fb1cff408d", "rental_uris": {"android": "https://dc.lft.to/lastmile_qr_scan", "ios": "https://dc.lft.to/lastmile_qr_scan"}, "name": "660a18336a9c6ce907e4a9fb1cff408d", "is_reserved": 0}, {"is_disabled": 0, "fusion_lon": 0.0, "fusion_lat": 0.0, "lat": 38.951232, "type": "electric_scooter", "lon": -77.01398833333333, "bike_id": "418aea1b5791c74050fccd4903f01833", "rental_uris": {"android": "https://dc.lft.to/lastmile_qr_scan", "ios": "https://dc.lft.to/lastmile_qr_scan"}, "name": "418aea1b5791c74050fccd4903f01833", "is_reserved": 0}, {"is_disabled": 0, "fusion_lon": 0.0, "fusion_lat": 0.0, "lat": 38.845118666666664, "type": "electric_bike", "lon": -76.97210633333333, "bike_id": "3892fd339f56bd16ca99097e2a3c7327", "rental_uris": {"android": "https://dc.lft.to/lastmile_qr_scan", "ios": "https://dc.lft.to/lastmile_qr_scan"}, "name": "3892fd339f56bd16ca99097e2a3c7327", "is_reserved": 0}, {"is_disabled": 0, "fusion_lon": 0.0, "fusion_lat": 0.0, "lat": 38.91659683333334, "type": "electric_scooter", "lon": -77.02792716666667, "bike_id": "f4e1702876d39c9f71540d9230d089f7", "rental_uris": {"android": "https://dc.lft.to/lastmile_qr_scan", "ios": "https://dc.lft.to/lastmile_qr_scan"}, "name": "f4e1702876d39c9f71540d9230d089f7", "is_reserved": 0}, {"is_disabled": 0, "fusion_lon": 0.0, "fusion_lat": 0.0, "lat": 38.9197845, "type": "electric_scooter", "lon": -77.04167566666666, "bike_id": "da9e99d0d49040873959d408a6e5ca5a", "rental_uris": {"android": "https://dc.lft.to/lastmile_qr_scan", "ios": "https://dc.lft.to/lastmile_qr_scan"}, "name": "da9e99d0d49040873959d408a6e5ca5a", "is_reserved": 0}, {"is_disabled": 0, "fusion_lon": 0.0, "fusion_lat": 0.0, "lat": 38.927058833333334, "type": "electric_scooter", "lon": -77.0232715, "bike_id": "87251cc54fa2ef3d38870b856697941d", "rental_uris": {"android": "https://dc.lft.to/lastmile_qr_scan", "ios": "https://dc.lft.to/lastmile_qr_scan"}, "name": "87251cc54fa2ef3d38870b856697941d", "is_reserved": 0}, {"is_disabled": 0, "fusion_lon": 0.0, "fusion_lat": 0.0, "lat": 38.86131566666667, "type": "electric_scooter", "lon": -76.9856425, "bike_id": "5f876ef1e65bc47e5f7918419559ca3f", "rental_uris": {"android": "https://dc.lft.to/lastmile_qr_scan", "ios": "https://dc.lft.to/lastmile_qr_scan"}, "name": "5f876ef1e65bc47e5f7918419559ca3f", "is_reserved": 0}, {"is_disabled": 0, "fusion_lon": 0.0, "fusion_lat": 0.0, "lat": 38.854381000000004, "type": "electric_bike", "lon": -76.90965333333334, "bike_id": "564db4def93535fff3340b88c78fb99c", "rental_uris": {"android": "https://dc.lft.to/lastmile_qr_scan", "ios": "https://dc.lft.to/lastmile_qr_scan"}, "name": "564db4def93535fff3340b88c78fb99c", "is_reserved": 0}, {"is_disabled": 0, "fusion_lon": 0.0, "fusion_lat": 0.0, "lat": 38.92742366666667, "type": "electric_scooter", "lon": -77.02254933333333, "bike_id": "985bc36c48d21412c83fa00b32a11c86", "rental_uris": {"android": "https://dc.lft.to/lastmile_qr_scan", "ios": "https://dc.lft.to/lastmile_qr_scan"}, "name": "985bc36c48d21412c83fa00b32a11c86", "is_reserved": 0}, {"is_disabled": 0, "fusion_lon": 0.0, "fusion_lat": 0.0, "lat": 38.89371366666666, "type": "electric_scooter", "lon": -76.94989516666666, "bike_id": "2eb3b1bea320ddbd0a5f8f1d89f0a0ab", "rental_uris": {"android": "https://dc.lft.to/lastmile_qr_scan", "ios": "https://dc.lft.to/lastmile_qr_scan"}, "name": "2eb3b1bea320ddbd0a5f8f1d89f0a0ab", "is_reserved": 0}, {"is_disabled": 0, "fusion_lon": 0.0, "fusion_lat": 0.0, "lat": 38.92858316666667, "type": "electric_scooter", "lon": -77.01426983333333, "bike_id": "9bb7182ea3777dab7da0adad07d8162e", "rental_uris": {"android": "https://dc.lft.to/lastmile_qr_scan", "ios": "https://dc.lft.to/lastmile_qr_scan"}, "name": "9bb7182ea3777dab7da0adad07d8162e", "is_reserved": 0}, {"is_disabled": 0, "fusion_lon": 0.0, "fusion_lat": 0.0, "lat": 38.918384, "type": "electric_scooter", "lon": -77.02516883333334, "bike_id": "7c1f3f86b602ee240e405f7267c40df1", "rental_uris": {"android": "https://dc.lft.to/lastmile_qr_scan", "ios": "https://dc.lft.to/lastmile_qr_scan"}, "name": "7c1f3f86b602ee240e405f7267c40df1", "is_reserved": 0}, {"is_disabled": 0, "fusion_lon": 0.0, "fusion_lat": 0.0, "lat": 38.9301915, "type": "electric_scooter", "lon": -77.03800466666667, "bike_id": "989dcc6ed0fe4bec5213941da31da72f", "rental_uris": {"android": "https://dc.lft.to/lastmile_qr_scan", "ios": "https://dc.lft.to/lastmile_qr_scan"}, "name": "989dcc6ed0fe4bec5213941da31da72f", "is_reserved": 0}, {"is_disabled": 0, "fusion_lon": 0.0, "fusion_lat": 0.0, "lat": 38.9183385, "type": "electric_scooter", "lon": -77.02302983333334, "bike_id": "532193cff2dcfd0709b115715adbb67c", "rental_uris": {"android": "https://dc.lft.to/lastmile_qr_scan", "ios": "https://dc.lft.to/lastmile_qr_scan"}, "name": "532193cff2dcfd0709b115715adbb67c", "is_reserved": 0}, {"is_disabled": 0, "fusion_lon": 0.0, "fusion_lat": 0.0, "lat": 38.90648133333333, "type": "electric_scooter", "lon": -77.027069, "bike_id": "22c8c13db94c7117aaf2d24ec06fd667", "rental_uris": {"android": "https://dc.lft.to/lastmile_qr_scan", "ios": "https://dc.lft.to/lastmile_qr_scan"}, "name": "22c8c13db94c7117aaf2d24ec06fd667", "is_reserved": 0}, {"is_disabled": 0, "fusion_lon": 0.0, "fusion_lat": 0.0, "lat": 38.897313833333335, "type": "electric_scooter", "lon": -77.02646666666666, "bike_id": "eea999cc8cbd41606ae67705af7b85d2", "rental_uris": {"android": "https://dc.lft.to/lastmile_qr_scan", "ios": "https://dc.lft.to/lastmile_qr_scan"}, "name": "eea999cc8cbd41606ae67705af7b85d2", "is_reserved": 0}, {"is_disabled": 0, "fusion_lon": 0.0, "fusion_lat": 0.0, "lat": 38.896920333333334, "type": "electric_scooter", "lon": -77.01178266666666, "bike_id": "a395f0aab7b20cb8961c9c96130351b7", "rental_uris": {"android": "https://dc.lft.to/lastmile_qr_scan", "ios": "https://dc.lft.to/lastmile_qr_scan"}, "name": "a395f0aab7b20cb8961c9c96130351b7", "is_reserved": 0}, {"is_disabled": 0, "fusion_lon": 0.0, "fusion_lat": 0.0, "lat": 38.903635, "type": "electric_scooter", "lon": -77.02203266666666, "bike_id": "a7ea9e32a440224b138c105ecd455bb4", "rental_uris": {"android": "https://dc.lft.to/lastmile_qr_scan", "ios": "https://dc.lft.to/lastmile_qr_scan"}, "name": "a7ea9e32a440224b138c105ecd455bb4", "is_reserved": 0}, {"is_disabled": 0, "fusion_lon": 0.0, "fusion_lat": 0.0, "lat": 38.920444333333336, "type": "electric_scooter", "lon": -77.04805133333333, "bike_id": "b460a84ede6e5e03023a4f515110feaa", "rental_uris": {"android": "https://dc.lft.to/lastmile_qr_scan", "ios": "https://dc.lft.to/lastmile_qr_scan"}, "name": "b460a84ede6e5e03023a4f515110feaa", "is_reserved": 0}, {"is_disabled": 0, "fusion_lon": 0.0, "fusion_lat": 0.0, "lat": 38.91789583333333, "type": "electric_scooter", "lon": -77.04355733333334, "bike_id": "cfd324a4524a8bed80db49c77b80cffc", "rental_uris": {"android": "https://dc.lft.to/lastmile_qr_scan", "ios": "https://dc.lft.to/lastmile_qr_scan"}, "name": "cfd324a4524a8bed80db49c77b80cffc", "is_reserved": 0}, {"is_disabled": 0, "fusion_lon": 0.0, "fusion_lat": 0.0, "lat": 38.905382833333334, "type": "electric_scooter", "lon": -77.04709783333334, "bike_id": "2f98965f35da35e376d20aaf145eec0d", "rental_uris": {"android": "https://dc.lft.to/lastmile_qr_scan", "ios": "https://dc.lft.to/lastmile_qr_scan"}, "name": "2f98965f35da35e376d20aaf145eec0d", "is_reserved": 0}, {"is_disabled": 0, "fusion_lon": 0.0, "fusion_lat": 0.0, "lat": 38.923479666666665, "type": "electric_bike", "lon": -76.99248733333333, "bike_id": "643f73ffca73ec0a331e0a0967969a80", "rental_uris": {"android": "https://dc.lft.to/lastmile_qr_scan", "ios": "https://dc.lft.to/lastmile_qr_scan"}, "name": "643f73ffca73ec0a331e0a0967969a80", "is_reserved": 0}, {"is_disabled": 0, "fusion_lon": 0.0, "fusion_lat": 0.0, "lat": 38.881335666666665, "type": "electric_scooter", "lon": -77.02071216666667, "bike_id": "b17319204ff311bb9b56a2cf4a2249ad", "rental_uris": {"android": "https://dc.lft.to/lastmile_qr_scan", "ios": "https://dc.lft.to/lastmile_qr_scan"}, "name": "b17319204ff311bb9b56a2cf4a2249ad", "is_reserved": 0}, {"is_disabled": 0, "fusion_lon": 0.0, "fusion_lat": 0.0, "lat": 38.990643166666665, "type": "electric_bike", "lon": -77.02381466666667, "bike_id": "5cfd77699c32a5b9481068011fb0557d", "rental_uris": {"android": "https://dc.lft.to/lastmile_qr_scan", "ios": "https://dc.lft.to/lastmile_qr_scan"}, "name": "5cfd77699c32a5b9481068011fb0557d", "is_reserved": 0}, {"is_disabled": 0, "fusion_lon": 0.0, "fusion_lat": 0.0, "lat": 38.884122833333336, "type": "electric_scooter", "lon": -77.0329975, "bike_id": "68b060a9b04eed422225b8d5b88bc209", "rental_uris": {"android": "https://dc.lft.to/lastmile_qr_scan", "ios": "https://dc.lft.to/lastmile_qr_scan"}, "name": "68b060a9b04eed422225b8d5b88bc209", "is_reserved": 0}, {"is_disabled": 0, "fusion_lon": 0.0, "fusion_lat": 0.0, "lat": 38.909734, "type": "electric_bike", "lon": -77.08826566666667, "bike_id": "fb16bbd2d6c56c8660252577fef926b2", "rental_uris": {"android": "https://dc.lft.to/lastmile_qr_scan", "ios": "https://dc.lft.to/lastmile_qr_scan"}, "name": "fb16bbd2d6c56c8660252577fef926b2", "is_reserved": 0}, {"is_disabled": 0, "fusion_lon": 0.0, "fusion_lat": 0.0, "lat": 38.898518833333334, "type": "electric_scooter", "lon": -76.99035583333334, "bike_id": "a3eea3f93f46076217c50768c3e15ea5", "rental_uris": {"android": "https://dc.lft.to/lastmile_qr_scan", "ios": "https://dc.lft.to/lastmile_qr_scan"}, "name": "a3eea3f93f46076217c50768c3e15ea5", "is_reserved": 0}, {"is_disabled": 0, "fusion_lon": 0.0, "fusion_lat": 0.0, "lat": 38.8960825, "type": "electric_scooter", "lon": -77.00891366666667, "bike_id": "fde7d3c1df89a05dabbcdbe17ab5b51d", "rental_uris": {"android": "https://dc.lft.to/lastmile_qr_scan", "ios": "https://dc.lft.to/lastmile_qr_scan"}, "name": "fde7d3c1df89a05dabbcdbe17ab5b51d", "is_reserved": 0}, {"is_disabled": 0, "fusion_lon": 0.0, "fusion_lat": 0.0, "lat": 38.935916166666665, "type": "electric_scooter", "lon": -77.08257966666666, "bike_id": "63183b409102a2b22e4ee4225239cbc2", "rental_uris": {"android": "https://dc.lft.to/lastmile_qr_scan", "ios": "https://dc.lft.to/lastmile_qr_scan"}, "name": "63183b409102a2b22e4ee4225239cbc2", "is_reserved": 0}, {"is_disabled": 0, "fusion_lon": 0.0, "fusion_lat": 0.0, "lat": 38.915153, "type": "electric_scooter", "lon": -77.01983616666666, "bike_id": "03d1971739d64094cf559ad99591b63d", "rental_uris": {"android": "https://dc.lft.to/lastmile_qr_scan", "ios": "https://dc.lft.to/lastmile_qr_scan"}, "name": "03d1971739d64094cf559ad99591b63d", "is_reserved": 0}, {"is_disabled": 0, "fusion_lon": 0.0, "fusion_lat": 0.0, "lat": 38.90378883333333, "type": "electric_bike", "lon": -76.9955035, "bike_id": "1e8348e73b23f590ff699b305325cf35", "rental_uris": {"android": "https://dc.lft.to/lastmile_qr_scan", "ios": "https://dc.lft.to/lastmile_qr_scan"}, "name": "1e8348e73b23f590ff699b305325cf35", "is_reserved": 0}, {"is_disabled": 0, "fusion_lon": 0.0, "fusion_lat": 0.0, "lat": 38.90006533333333, "type": "electric_scooter", "lon": -77.03343416666667, "bike_id": "37605bcf28b2b5a38e6c74433f2b69fc", "rental_uris": {"android": "https://dc.lft.to/lastmile_qr_scan", "ios": "https://dc.lft.to/lastmile_qr_scan"}, "name": "37605bcf28b2b5a38e6c74433f2b69fc", "is_reserved": 0}, {"is_disabled": 0, "fusion_lon": 0.0, "fusion_lat": 0.0, "lat": 38.91385733333333, "type": "electric_scooter", "lon": -77.01700966666667, "bike_id": "ca52b0ac9b2ad2fb92f4950caa315edf", "rental_uris": {"android": "https://dc.lft.to/lastmile_qr_scan", "ios": "https://dc.lft.to/lastmile_qr_scan"}, "name": "ca52b0ac9b2ad2fb92f4950caa315edf", "is_reserved": 0}, {"is_disabled": 0, "fusion_lon": 0.0, "fusion_lat": 0.0, "lat": 38.945146, "type": "electric_bike", "lon": -77.00673966666666, "bike_id": "2b616e4ef03a788bdc88b8bbecb16dff", "rental_uris": {"android": "https://dc.lft.to/lastmile_qr_scan", "ios": "https://dc.lft.to/lastmile_qr_scan"}, "name": "2b616e4ef03a788bdc88b8bbecb16dff", "is_reserved": 0}, {"is_disabled": 0, "fusion_lon": 0.0, "fusion_lat": 0.0, "lat": 38.874546333333335, "type": "electric_scooter", "lon": -77.005006, "bike_id": "e029e445f360e1512709d2778b6eec81", "rental_uris": {"android": "https://dc.lft.to/lastmile_qr_scan", "ios": "https://dc.lft.to/lastmile_qr_scan"}, "name": "e029e445f360e1512709d2778b6eec81", "is_reserved": 0}, {"is_disabled": 0, "fusion_lon": 0.0, "fusion_lat": 0.0, "lat": 38.916933666666665, "type": "electric_scooter", "lon": -77.02299616666667, "bike_id": "9607337200e209e135d3bb998b1235dc", "rental_uris": {"android": "https://dc.lft.to/lastmile_qr_scan", "ios": "https://dc.lft.to/lastmile_qr_scan"}, "name": "9607337200e209e135d3bb998b1235dc", "is_reserved": 0}, {"is_disabled": 0, "fusion_lon": 0.0, "fusion_lat": 0.0, "lat": 38.970585166666666, "type": "electric_bike", "lon": -76.96067316666667, "bike_id": "eebdc639ccd5d19bed1a15614f481e78", "rental_uris": {"android": "https://dc.lft.to/lastmile_qr_scan", "ios": "https://dc.lft.to/lastmile_qr_scan"}, "name": "eebdc639ccd5d19bed1a15614f481e78", "is_reserved": 0}, {"is_disabled": 0, "fusion_lon": 0.0, "fusion_lat": 0.0, "lat": 38.92168866666667, "type": "electric_scooter", "lon": -77.04342816666667, "bike_id": "2cf97dc215161082c6e724fe426445e3", "rental_uris": {"android": "https://dc.lft.to/lastmile_qr_scan", "ios": "https://dc.lft.to/lastmile_qr_scan"}, "name": "2cf97dc215161082c6e724fe426445e3", "is_reserved": 0}, {"is_disabled": 0, "fusion_lon": 0.0, "fusion_lat": 0.0, "lat": 38.90193583333333, "type": "electric_scooter", "lon": -77.03934, "bike_id": "298171aec7f66c2f21690c7c23845813", "rental_uris": {"android": "https://dc.lft.to/lastmile_qr_scan", "ios": "https://dc.lft.to/lastmile_qr_scan"}, "name": "298171aec7f66c2f21690c7c23845813", "is_reserved": 0}, {"is_disabled": 0, "fusion_lon": 0.0, "fusion_lat": 0.0, "lat": 38.94835, "type": "electric_scooter", "lon": -77.02831516666667, "bike_id": "419a648fa59e425e0300a5639c1b68fd", "rental_uris": {"android": "https://dc.lft.to/lastmile_qr_scan", "ios": "https://dc.lft.to/lastmile_qr_scan"}, "name": "419a648fa59e425e0300a5639c1b68fd", "is_reserved": 0}, {"is_disabled": 0, "fusion_lon": 0.0, "fusion_lat": 0.0, "lat": 38.8857255, "type": "electric_scooter", "lon": -77.00070466666666, "bike_id": "7c6d3b9f31bb4f0995094746cf987db8", "rental_uris": {"android": "https://dc.lft.to/lastmile_qr_scan", "ios": "https://dc.lft.to/lastmile_qr_scan"}, "name": "7c6d3b9f31bb4f0995094746cf987db8", "is_reserved": 0}, {"is_disabled": 0, "fusion_lon": 0.0, "fusion_lat": 0.0, "lat": 38.91731566666667, "type": "electric_scooter", "lon": -76.99179416666666, "bike_id": "1264a9829b2fb65afb09dfc59fb929f8", "rental_uris": {"android": "https://dc.lft.to/lastmile_qr_scan", "ios": "https://dc.lft.to/lastmile_qr_scan"}, "name": "1264a9829b2fb65afb09dfc59fb929f8", "is_reserved": 0}, {"is_disabled": 0, "fusion_lon": 0.0, "fusion_lat": 0.0, "lat": 38.90163416666667, "type": "electric_scooter", "lon": -76.99378866666666, "bike_id": "b3e84e874c2782781b8567d8198bafd7", "rental_uris": {"android": "https://dc.lft.to/lastmile_qr_scan", "ios": "https://dc.lft.to/lastmile_qr_scan"}, "name": "b3e84e874c2782781b8567d8198bafd7", "is_reserved": 0}, {"is_disabled": 0, "fusion_lon": 0.0, "fusion_lat": 0.0, "lat": 38.911919, "type": "electric_scooter", "lon": -77.03831083333333, "bike_id": "b6ba52874d855a173abc294f9ec21dbb", "rental_uris": {"android": "https://dc.lft.to/lastmile_qr_scan", "ios": "https://dc.lft.to/lastmile_qr_scan"}, "name": "b6ba52874d855a173abc294f9ec21dbb", "is_reserved": 0}, {"is_disabled": 0, "fusion_lon": 0.0, "fusion_lat": 0.0, "lat": 38.91205033333333, "type": "electric_scooter", "lon": -76.98480183333334, "bike_id": "bf18ce5a5763ce8dbaef62ce14becd01", "rental_uris": {"android": "https://dc.lft.to/lastmile_qr_scan", "ios": "https://dc.lft.to/lastmile_qr_scan"}, "name": "bf18ce5a5763ce8dbaef62ce14becd01", "is_reserved": 0}, {"is_disabled": 0, "fusion_lon": 0.0, "fusion_lat": 0.0, "lat": 38.94810183333333, "type": "electric_bike", "lon": -76.97212633333334, "bike_id": "0f3b818eced17e823a02b4601b946172", "rental_uris": {"android": "https://dc.lft.to/lastmile_qr_scan", "ios": "https://dc.lft.to/lastmile_qr_scan"}, "name": "0f3b818eced17e823a02b4601b946172", "is_reserved": 0}, {"is_disabled": 0, "fusion_lon": 0.0, "fusion_lat": 0.0, "lat": 38.9125375, "type": "electric_scooter", "lon": -77.00925866666667, "bike_id": "c01aa0562d1971f4cf2257b7edc2beef", "rental_uris": {"android": "https://dc.lft.to/lastmile_qr_scan", "ios": "https://dc.lft.to/lastmile_qr_scan"}, "name": "c01aa0562d1971f4cf2257b7edc2beef", "is_reserved": 0}, {"is_disabled": 0, "fusion_lon": 0.0, "fusion_lat": 0.0, "lat": 38.89821533333333, "type": "electric_scooter", "lon": -77.02957516666666, "bike_id": "5e13c9312a135059c7f640b07e54b488", "rental_uris": {"android": "https://dc.lft.to/lastmile_qr_scan", "ios": "https://dc.lft.to/lastmile_qr_scan"}, "name": "5e13c9312a135059c7f640b07e54b488", "is_reserved": 0}, {"is_disabled": 0, "fusion_lon": 0.0, "fusion_lat": 0.0, "lat": 38.89356, "type": "electric_scooter", "lon": -76.9398835, "bike_id": "b9957ffa394ca53aa4af973a06b49f79", "rental_uris": {"android": "https://dc.lft.to/lastmile_qr_scan", "ios": "https://dc.lft.to/lastmile_qr_scan"}, "name": "b9957ffa394ca53aa4af973a06b49f79", "is_reserved": 0}, {"is_disabled": 0, "fusion_lon": 0.0, "fusion_lat": 0.0, "lat": 38.903986833333335, "type": "electric_scooter", "lon": -77.03435633333333, "bike_id": "e625a6cb2648f64d085f0ab090fe1863", "rental_uris": {"android": "https://dc.lft.to/lastmile_qr_scan", "ios": "https://dc.lft.to/lastmile_qr_scan"}, "name": "e625a6cb2648f64d085f0ab090fe1863", "is_reserved": 0}, {"is_disabled": 0, "fusion_lon": 0.0, "fusion_lat": 0.0, "lat": 38.9508525, "type": "electric_bike", "lon": -76.96561083333333, "bike_id": "5d9cd40ba2574552d55b5eb9429f1cb2", "rental_uris": {"android": "https://dc.lft.to/lastmile_qr_scan", "ios": "https://dc.lft.to/lastmile_qr_scan"}, "name": "5d9cd40ba2574552d55b5eb9429f1cb2", "is_reserved": 0}, {"is_disabled": 0, "fusion_lon": 0.0, "fusion_lat": 0.0, "lat": 38.907905166666666, "type": "electric_scooter", "lon": -77.04098866666666, "bike_id": "40d04e79b0f62af63b4d76983d34222a", "rental_uris": {"android": "https://dc.lft.to/lastmile_qr_scan", "ios": "https://dc.lft.to/lastmile_qr_scan"}, "name": "40d04e79b0f62af63b4d76983d34222a", "is_reserved": 0}, {"is_disabled": 0, "fusion_lon": 0.0, "fusion_lat": 0.0, "lat": 38.91264833333334, "type": "electric_scooter", "lon": -77.02226816666666, "bike_id": "ea621804648527eddea4fff471a927cf", "rental_uris": {"android": "https://dc.lft.to/lastmile_qr_scan", "ios": "https://dc.lft.to/lastmile_qr_scan"}, "name": "ea621804648527eddea4fff471a927cf", "is_reserved": 0}, {"is_disabled": 0, "fusion_lon": 0.0, "fusion_lat": 0.0, "lat": 39.03001033333334, "type": "electric_bike", "lon": -77.10652266666666, "bike_id": "f1bd24de1e38bc2395aa3ce3766e62f3", "rental_uris": {"android": "https://dc.lft.to/lastmile_qr_scan", "ios": "https://dc.lft.to/lastmile_qr_scan"}, "name": "f1bd24de1e38bc2395aa3ce3766e62f3", "is_reserved": 0}, {"is_disabled": 0, "fusion_lon": 0.0, "fusion_lat": 0.0, "lat": 38.8995275, "type": "electric_scooter", "lon": -77.05217533333334, "bike_id": "a0a3aae8d903a115da317bd97ddec3fd", "rental_uris": {"android": "https://dc.lft.to/lastmile_qr_scan", "ios": "https://dc.lft.to/lastmile_qr_scan"}, "name": "a0a3aae8d903a115da317bd97ddec3fd", "is_reserved": 0}, {"is_disabled": 0, "fusion_lon": 0.0, "fusion_lat": 0.0, "lat": 38.928877, "type": "electric_scooter", "lon": -77.03236483333333, "bike_id": "e4c4c17d82044ee64ae77762459ec343", "rental_uris": {"android": "https://dc.lft.to/lastmile_qr_scan", "ios": "https://dc.lft.to/lastmile_qr_scan"}, "name": "e4c4c17d82044ee64ae77762459ec343", "is_reserved": 0}, {"is_disabled": 0, "fusion_lon": 0.0, "fusion_lat": 0.0, "lat": 38.924828833333336, "type": "electric_scooter", "lon": -77.02728133333333, "bike_id": "309c904057d68f4c7a77b6c578ec8511", "rental_uris": {"android": "https://dc.lft.to/lastmile_qr_scan", "ios": "https://dc.lft.to/lastmile_qr_scan"}, "name": "309c904057d68f4c7a77b6c578ec8511", "is_reserved": 0}, {"is_disabled": 0, "fusion_lon": 0.0, "fusion_lat": 0.0, "lat": 38.842927833333334, "type": "electric_scooter", "lon": -76.99948683333334, "bike_id": "50b76484d0f54edd399f34bf2aad1712", "rental_uris": {"android": "https://dc.lft.to/lastmile_qr_scan", "ios": "https://dc.lft.to/lastmile_qr_scan"}, "name": "50b76484d0f54edd399f34bf2aad1712", "is_reserved": 0}, {"is_disabled": 0, "fusion_lon": 0.0, "fusion_lat": 0.0, "lat": 38.9181315, "type": "electric_scooter", "lon": -77.036406, "bike_id": "db45c0d7c3a9c6c3eb597baa435d1b3f", "rental_uris": {"android": "https://dc.lft.to/lastmile_qr_scan", "ios": "https://dc.lft.to/lastmile_qr_scan"}, "name": "db45c0d7c3a9c6c3eb597baa435d1b3f", "is_reserved": 0}, {"is_disabled": 0, "fusion_lon": 0.0, "fusion_lat": 0.0, "lat": 38.940341, "type": "electric_scooter", "lon": -77.02521866666666, "bike_id": "5ce1f6af652950cfdf4cb1ec62a69b76", "rental_uris": {"android": "https://dc.lft.to/lastmile_qr_scan", "ios": "https://dc.lft.to/lastmile_qr_scan"}, "name": "5ce1f6af652950cfdf4cb1ec62a69b76", "is_reserved": 0}, {"is_disabled": 0, "fusion_lon": 0.0, "fusion_lat": 0.0, "lat": 38.98562166666667, "type": "electric_bike", "lon": -76.9882785, "bike_id": "c490c4dd6675b3b14dd1ca52be403b5b", "rental_uris": {"android": "https://dc.lft.to/lastmile_qr_scan", "ios": "https://dc.lft.to/lastmile_qr_scan"}, "name": "c490c4dd6675b3b14dd1ca52be403b5b", "is_reserved": 0}, {"is_disabled": 0, "fusion_lon": 0.0, "fusion_lat": 0.0, "lat": 38.91413216666667, "type": "electric_scooter", "lon": -77.02231333333333, "bike_id": "a6da139c4408a55f7f98f2fd92bbd8c3", "rental_uris": {"android": "https://dc.lft.to/lastmile_qr_scan", "ios": "https://dc.lft.to/lastmile_qr_scan"}, "name": "a6da139c4408a55f7f98f2fd92bbd8c3", "is_reserved": 0}, {"is_disabled": 0, "fusion_lon": 0.0, "fusion_lat": 0.0, "lat": 38.911924166666665, "type": "electric_scooter", "lon": -77.01880683333333, "bike_id": "032269eab7c015fbb7deb6d75a590e18", "rental_uris": {"android": "https://dc.lft.to/lastmile_qr_scan", "ios": "https://dc.lft.to/lastmile_qr_scan"}, "name": "032269eab7c015fbb7deb6d75a590e18", "is_reserved": 0}, {"is_disabled": 0, "fusion_lon": 0.0, "fusion_lat": 0.0, "lat": 38.91066683333333, "type": "electric_scooter", "lon": -77.08246733333333, "bike_id": "1201a080dded8e3c76c3f1197f395c30", "rental_uris": {"android": "https://dc.lft.to/lastmile_qr_scan", "ios": "https://dc.lft.to/lastmile_qr_scan"}, "name": "1201a080dded8e3c76c3f1197f395c30", "is_reserved": 0}, {"is_disabled": 0, "fusion_lon": 0.0, "fusion_lat": 0.0, "lat": 38.908314, "type": "electric_scooter", "lon": -76.9969685, "bike_id": "91b2ade70584c30eecbc21651217eacb", "rental_uris": {"android": "https://dc.lft.to/lastmile_qr_scan", "ios": "https://dc.lft.to/lastmile_qr_scan"}, "name": "91b2ade70584c30eecbc21651217eacb", "is_reserved": 0}, {"is_disabled": 0, "fusion_lon": 0.0, "fusion_lat": 0.0, "lat": 38.9054195, "type": "electric_scooter", "lon": -77.05093233333334, "bike_id": "a2a828c59dacef79d87cac323a60f539", "rental_uris": {"android": "https://dc.lft.to/lastmile_qr_scan", "ios": "https://dc.lft.to/lastmile_qr_scan"}, "name": "a2a828c59dacef79d87cac323a60f539", "is_reserved": 0}, {"is_disabled": 0, "fusion_lon": 0.0, "fusion_lat": 0.0, "lat": 38.9353505, "type": "electric_scooter", "lon": -77.0340645, "bike_id": "b342a0159a659134703761866d377563", "rental_uris": {"android": "https://dc.lft.to/lastmile_qr_scan", "ios": "https://dc.lft.to/lastmile_qr_scan"}, "name": "b342a0159a659134703761866d377563", "is_reserved": 0}, {"is_disabled": 0, "fusion_lon": 0.0, "fusion_lat": 0.0, "lat": 38.90442, "type": "electric_scooter", "lon": -77.06117733333333, "bike_id": "82fea8730febbf30af58b5e2d02011ce", "rental_uris": {"android": "https://dc.lft.to/lastmile_qr_scan", "ios": "https://dc.lft.to/lastmile_qr_scan"}, "name": "82fea8730febbf30af58b5e2d02011ce", "is_reserved": 0}, {"is_disabled": 0, "fusion_lon": 0.0, "fusion_lat": 0.0, "lat": 38.88002616666667, "type": "electric_bike", "lon": -76.915978, "bike_id": "5f5f2946fb0c5e2a24431669a35482f8", "rental_uris": {"android": "https://dc.lft.to/lastmile_qr_scan", "ios": "https://dc.lft.to/lastmile_qr_scan"}, "name": "5f5f2946fb0c5e2a24431669a35482f8", "is_reserved": 0}, {"is_disabled": 0, "fusion_lon": 0.0, "fusion_lat": 0.0, "lat": 38.956140166666664, "type": "electric_scooter", "lon": -77.0328185, "bike_id": "2a6c522bb19b77976945fb5f9aadca66", "rental_uris": {"android": "https://dc.lft.to/lastmile_qr_scan", "ios": "https://dc.lft.to/lastmile_qr_scan"}, "name": "2a6c522bb19b77976945fb5f9aadca66", "is_reserved": 0}, {"is_disabled": 0, "fusion_lon": 0.0, "fusion_lat": 0.0, "lat": 38.96653633333333, "type": "electric_bike", "lon": -76.9302345, "bike_id": "60764f78205ca759da9cdd876fa6ffcc", "rental_uris": {"android": "https://dc.lft.to/lastmile_qr_scan", "ios": "https://dc.lft.to/lastmile_qr_scan"}, "name": "60764f78205ca759da9cdd876fa6ffcc", "is_reserved": 0}, {"is_disabled": 0, "fusion_lon": 0.0, "fusion_lat": 0.0, "lat": 38.92238483333333, "type": "electric_scooter", "lon": -77.03082683333334, "bike_id": "d9318f5eaa407e9b72ba98ea0a50efe4", "rental_uris": {"android": "https://dc.lft.to/lastmile_qr_scan", "ios": "https://dc.lft.to/lastmile_qr_scan"}, "name": "d9318f5eaa407e9b72ba98ea0a50efe4", "is_reserved": 0}, {"is_disabled": 0, "fusion_lon": 0.0, "fusion_lat": 0.0, "lat": 38.89729966666667, "type": "electric_scooter", "lon": -77.0499185, "bike_id": "750ef73f4aae195702359eca662a011a", "rental_uris": {"android": "https://dc.lft.to/lastmile_qr_scan", "ios": "https://dc.lft.to/lastmile_qr_scan"}, "name": "750ef73f4aae195702359eca662a011a", "is_reserved": 0}, {"is_disabled": 0, "fusion_lon": 0.0, "fusion_lat": 0.0, "lat": 38.88118383333333, "type": "electric_scooter", "lon": -77.016537, "bike_id": "923091d5793fe0d6ec64615849484719", "rental_uris": {"android": "https://dc.lft.to/lastmile_qr_scan", "ios": "https://dc.lft.to/lastmile_qr_scan"}, "name": "923091d5793fe0d6ec64615849484719", "is_reserved": 0}, {"is_disabled": 0, "fusion_lon": 0.0, "fusion_lat": 0.0, "lat": 38.90838083333333, "type": "electric_scooter", "lon": -77.04881783333333, "bike_id": "928c8cd9ada82f280a5d379c486064d2", "rental_uris": {"android": "https://dc.lft.to/lastmile_qr_scan", "ios": "https://dc.lft.to/lastmile_qr_scan"}, "name": "928c8cd9ada82f280a5d379c486064d2", "is_reserved": 0}, {"is_disabled": 0, "fusion_lon": 0.0, "fusion_lat": 0.0, "lat": 38.89231483333333, "type": "electric_scooter", "lon": -77.0499845, "bike_id": "4e7be1e6db25d331c988d3fa19e0a5f9", "rental_uris": {"android": "https://dc.lft.to/lastmile_qr_scan", "ios": "https://dc.lft.to/lastmile_qr_scan"}, "name": "4e7be1e6db25d331c988d3fa19e0a5f9", "is_reserved": 0}, {"is_disabled": 0, "fusion_lon": 0.0, "fusion_lat": 0.0, "lat": 38.887410333333335, "type": "electric_scooter", "lon": -77.0257125, "bike_id": "6e67a1fb81e8d256dff45bff2b6f033d", "rental_uris": {"android": "https://dc.lft.to/lastmile_qr_scan", "ios": "https://dc.lft.to/lastmile_qr_scan"}, "name": "6e67a1fb81e8d256dff45bff2b6f033d", "is_reserved": 0}, {"is_disabled": 0, "fusion_lon": 0.0, "fusion_lat": 0.0, "lat": 38.91782716666667, "type": "electric_scooter", "lon": -77.0344395, "bike_id": "8c419ed9d756b1ba8e4e0331297b8f17", "rental_uris": {"android": "https://dc.lft.to/lastmile_qr_scan", "ios": "https://dc.lft.to/lastmile_qr_scan"}, "name": "8c419ed9d756b1ba8e4e0331297b8f17", "is_reserved": 0}, {"is_disabled": 0, "fusion_lon": 0.0, "fusion_lat": 0.0, "lat": 38.9295585, "type": "electric_scooter", "lon": -77.05515116666666, "bike_id": "eea51506ecba33c28e29dd758526a0dc", "rental_uris": {"android": "https://dc.lft.to/lastmile_qr_scan", "ios": "https://dc.lft.to/lastmile_qr_scan"}, "name": "eea51506ecba33c28e29dd758526a0dc", "is_reserved": 0}, {"is_disabled": 0, "fusion_lon": 0.0, "fusion_lat": 0.0, "lat": 38.938722166666665, "type": "electric_scooter", "lon": -77.03254166666666, "bike_id": "d6e5833f04bff97952bd1a0fecb5aa34", "rental_uris": {"android": "https://dc.lft.to/lastmile_qr_scan", "ios": "https://dc.lft.to/lastmile_qr_scan"}, "name": "d6e5833f04bff97952bd1a0fecb5aa34", "is_reserved": 0}, {"is_disabled": 0, "fusion_lon": 0.0, "fusion_lat": 0.0, "lat": 38.954006, "type": "electric_scooter", "lon": -77.02752816666667, "bike_id": "5caf4e0305d56bd4e32cd9946c5a8758", "rental_uris": {"android": "https://dc.lft.to/lastmile_qr_scan", "ios": "https://dc.lft.to/lastmile_qr_scan"}, "name": "5caf4e0305d56bd4e32cd9946c5a8758", "is_reserved": 0}, {"is_disabled": 0, "fusion_lon": 0.0, "fusion_lat": 0.0, "lat": 38.92896866666667, "type": "electric_scooter", "lon": -77.03264783333333, "bike_id": "c8cee97b32881789c2602d9cf397b7cf", "rental_uris": {"android": "https://dc.lft.to/lastmile_qr_scan", "ios": "https://dc.lft.to/lastmile_qr_scan"}, "name": "c8cee97b32881789c2602d9cf397b7cf", "is_reserved": 0}, {"is_disabled": 0, "fusion_lon": 0.0, "fusion_lat": 0.0, "lat": 38.85838316666667, "type": "electric_bike", "lon": -76.9928315, "bike_id": "58dd991e1638f99a1d9234b00fe88434", "rental_uris": {"android": "https://dc.lft.to/lastmile_qr_scan", "ios": "https://dc.lft.to/lastmile_qr_scan"}, "name": "58dd991e1638f99a1d9234b00fe88434", "is_reserved": 0}, {"is_disabled": 0, "fusion_lon": 0.0, "fusion_lat": 0.0, "lat": 38.927860333333335, "type": "electric_scooter", "lon": -77.03108066666667, "bike_id": "a316d75ad5f6f598bd1209e6be50d415", "rental_uris": {"android": "https://dc.lft.to/lastmile_qr_scan", "ios": "https://dc.lft.to/lastmile_qr_scan"}, "name": "a316d75ad5f6f598bd1209e6be50d415", "is_reserved": 0}, {"is_disabled": 0, "fusion_lon": 0.0, "fusion_lat": 0.0, "lat": 38.930499833333336, "type": "electric_scooter", "lon": -77.03230316666667, "bike_id": "074bec0fb32acb189ff0b26ecfa57221", "rental_uris": {"android": "https://dc.lft.to/lastmile_qr_scan", "ios": "https://dc.lft.to/lastmile_qr_scan"}, "name": "074bec0fb32acb189ff0b26ecfa57221", "is_reserved": 0}, {"is_disabled": 0, "fusion_lon": 0.0, "fusion_lat": 0.0, "lat": 38.925888666666665, "type": "electric_scooter", "lon": -77.0252085, "bike_id": "3cb69420895633874dbf87974eb9d45f", "rental_uris": {"android": "https://dc.lft.to/lastmile_qr_scan", "ios": "https://dc.lft.to/lastmile_qr_scan"}, "name": "3cb69420895633874dbf87974eb9d45f", "is_reserved": 0}, {"is_disabled": 0, "fusion_lon": 0.0, "fusion_lat": 0.0, "lat": 38.914568, "type": "electric_scooter", "lon": -76.98438383333334, "bike_id": "4212f3238ea2f70f30a04f84471f84ea", "rental_uris": {"android": "https://dc.lft.to/lastmile_qr_scan", "ios": "https://dc.lft.to/lastmile_qr_scan"}, "name": "4212f3238ea2f70f30a04f84471f84ea", "is_reserved": 0}, {"is_disabled": 0, "fusion_lon": 0.0, "fusion_lat": 0.0, "lat": 38.9257385, "type": "electric_scooter", "lon": -77.08061483333333, "bike_id": "ac4a0ee85355ab7fb780d423f0305c48", "rental_uris": {"android": "https://dc.lft.to/lastmile_qr_scan", "ios": "https://dc.lft.to/lastmile_qr_scan"}, "name": "ac4a0ee85355ab7fb780d423f0305c48", "is_reserved": 0}, {"is_disabled": 0, "fusion_lon": 0.0, "fusion_lat": 0.0, "lat": 38.895267, "type": "electric_scooter", "lon": -77.04845866666666, "bike_id": "f097fd46585e6a7297ab73adcfeecbdf", "rental_uris": {"android": "https://dc.lft.to/lastmile_qr_scan", "ios": "https://dc.lft.to/lastmile_qr_scan"}, "name": "f097fd46585e6a7297ab73adcfeecbdf", "is_reserved": 0}, {"is_disabled": 0, "fusion_lon": 0.0, "fusion_lat": 0.0, "lat": 38.90287516666667, "type": "electric_scooter", "lon": -77.03657266666667, "bike_id": "e22a6b3c8b597b8144428856fdb67ba0", "rental_uris": {"android": "https://dc.lft.to/lastmile_qr_scan", "ios": "https://dc.lft.to/lastmile_qr_scan"}, "name": "e22a6b3c8b597b8144428856fdb67ba0", "is_reserved": 0}, {"is_disabled": 0, "fusion_lon": 0.0, "fusion_lat": 0.0, "lat": 38.877595166666666, "type": "electric_bike", "lon": -76.97991666666667, "bike_id": "60287466efe1df7fbc93dd32174cfa21", "rental_uris": {"android": "https://dc.lft.to/lastmile_qr_scan", "ios": "https://dc.lft.to/lastmile_qr_scan"}, "name": "60287466efe1df7fbc93dd32174cfa21", "is_reserved": 0}, {"is_disabled": 0, "fusion_lon": 0.0, "fusion_lat": 0.0, "lat": 38.929764666666664, "type": "electric_scooter", "lon": -77.02794183333333, "bike_id": "3dde552233aa4efd8c036cb8bbfd5abe", "rental_uris": {"android": "https://dc.lft.to/lastmile_qr_scan", "ios": "https://dc.lft.to/lastmile_qr_scan"}, "name": "3dde552233aa4efd8c036cb8bbfd5abe", "is_reserved": 0}, {"is_disabled": 0, "fusion_lon": 0.0, "fusion_lat": 0.0, "lat": 38.924688333333336, "type": "electric_scooter", "lon": -77.07866783333333, "bike_id": "250684d29e8d17c2fa5762ed283449a7", "rental_uris": {"android": "https://dc.lft.to/lastmile_qr_scan", "ios": "https://dc.lft.to/lastmile_qr_scan"}, "name": "250684d29e8d17c2fa5762ed283449a7", "is_reserved": 0}, {"is_disabled": 0, "fusion_lon": 0.0, "fusion_lat": 0.0, "lat": 38.93961933333333, "type": "electric_bike", "lon": -77.360933, "bike_id": "358407c43309b3c49cbfb6f84b5a3b94", "rental_uris": {"android": "https://dc.lft.to/lastmile_qr_scan", "ios": "https://dc.lft.to/lastmile_qr_scan"}, "name": "358407c43309b3c49cbfb6f84b5a3b94", "is_reserved": 0}, {"is_disabled": 0, "fusion_lon": 0.0, "fusion_lat": 0.0, "lat": 38.877048, "type": "electric_scooter", "lon": -77.01753483333333, "bike_id": "c4158c6d0596d19bf700668faf82c4c9", "rental_uris": {"android": "https://dc.lft.to/lastmile_qr_scan", "ios": "https://dc.lft.to/lastmile_qr_scan"}, "name": "c4158c6d0596d19bf700668faf82c4c9", "is_reserved": 0}, {"is_disabled": 0, "fusion_lon": 0.0, "fusion_lat": 0.0, "lat": 38.926588, "type": "electric_scooter", "lon": -77.022692, "bike_id": "9a796e77238f53b247e7e69ba2a12ec8", "rental_uris": {"android": "https://dc.lft.to/lastmile_qr_scan", "ios": "https://dc.lft.to/lastmile_qr_scan"}, "name": "9a796e77238f53b247e7e69ba2a12ec8", "is_reserved": 0}, {"is_disabled": 0, "fusion_lon": 0.0, "fusion_lat": 0.0, "lat": 38.90208033333333, "type": "electric_scooter", "lon": -77.04778, "bike_id": "67e26e0e0fc2639ccaad9bb9a36c3025", "rental_uris": {"android": "https://dc.lft.to/lastmile_qr_scan", "ios": "https://dc.lft.to/lastmile_qr_scan"}, "name": "67e26e0e0fc2639ccaad9bb9a36c3025", "is_reserved": 0}, {"is_disabled": 0, "fusion_lon": 0.0, "fusion_lat": 0.0, "lat": 38.9167865, "type": "electric_scooter", "lon": -77.02898483333334, "bike_id": "a2f4c4be710c0ea19fd3e1b875b731e4", "rental_uris": {"android": "https://dc.lft.to/lastmile_qr_scan", "ios": "https://dc.lft.to/lastmile_qr_scan"}, "name": "a2f4c4be710c0ea19fd3e1b875b731e4", "is_reserved": 0}, {"is_disabled": 0, "fusion_lon": 0.0, "fusion_lat": 0.0, "lat": 38.875749666666664, "type": "electric_scooter", "lon": -77.0208215, "bike_id": "1d6a4f7d69b01c2da4f6c72e634803ce", "rental_uris": {"android": "https://dc.lft.to/lastmile_qr_scan", "ios": "https://dc.lft.to/lastmile_qr_scan"}, "name": "1d6a4f7d69b01c2da4f6c72e634803ce", "is_reserved": 0}, {"is_disabled": 0, "fusion_lon": 0.0, "fusion_lat": 0.0, "lat": 38.9359795, "type": "electric_scooter", "lon": -77.0831025, "bike_id": "f500977d7c987288913588db2780573b", "rental_uris": {"android": "https://dc.lft.to/lastmile_qr_scan", "ios": "https://dc.lft.to/lastmile_qr_scan"}, "name": "f500977d7c987288913588db2780573b", "is_reserved": 0}, {"is_disabled": 0, "fusion_lon": 0.0, "fusion_lat": 0.0, "lat": 38.99669216666667, "type": "electric_bike", "lon": -76.99142866666666, "bike_id": "07aa64eb58c0cc3a812b3f8e95b87730", "rental_uris": {"android": "https://dc.lft.to/lastmile_qr_scan", "ios": "https://dc.lft.to/lastmile_qr_scan"}, "name": "07aa64eb58c0cc3a812b3f8e95b87730", "is_reserved": 0}, {"is_disabled": 0, "fusion_lon": 0.0, "fusion_lat": 0.0, "lat": 38.90352516666667, "type": "electric_scooter", "lon": -77.01105616666666, "bike_id": "29c006a18203f6f283664ba5e78a391b", "rental_uris": {"android": "https://dc.lft.to/lastmile_qr_scan", "ios": "https://dc.lft.to/lastmile_qr_scan"}, "name": "29c006a18203f6f283664ba5e78a391b", "is_reserved": 0}, {"is_disabled": 0, "fusion_lon": 0.0, "fusion_lat": 0.0, "lat": 38.94459333333333, "type": "electric_scooter", "lon": -77.06025566666666, "bike_id": "b9e5ab9a1e832cd28e68c20db133a218", "rental_uris": {"android": "https://dc.lft.to/lastmile_qr_scan", "ios": "https://dc.lft.to/lastmile_qr_scan"}, "name": "b9e5ab9a1e832cd28e68c20db133a218", "is_reserved": 0}, {"is_disabled": 0, "fusion_lon": 0.0, "fusion_lat": 0.0, "lat": 38.916756, "type": "electric_scooter", "lon": -77.01581566666667, "bike_id": "7e71230c6c22f46436e1400e7bc74763", "rental_uris": {"android": "https://dc.lft.to/lastmile_qr_scan", "ios": "https://dc.lft.to/lastmile_qr_scan"}, "name": "7e71230c6c22f46436e1400e7bc74763", "is_reserved": 0}, {"is_disabled": 0, "fusion_lon": 0.0, "fusion_lat": 0.0, "lat": 38.895077, "type": "electric_scooter", "lon": -77.01101233333333, "bike_id": "bee6463adf25952e56871a9c59b144b4", "rental_uris": {"android": "https://dc.lft.to/lastmile_qr_scan", "ios": "https://dc.lft.to/lastmile_qr_scan"}, "name": "bee6463adf25952e56871a9c59b144b4", "is_reserved": 0}, {"is_disabled": 0, "fusion_lon": 0.0, "fusion_lat": 0.0, "lat": 38.919124, "type": "electric_scooter", "lon": -77.03028116666667, "bike_id": "c655f2d1d3b72495a8c06f59480bd002", "rental_uris": {"android": "https://dc.lft.to/lastmile_qr_scan", "ios": "https://dc.lft.to/lastmile_qr_scan"}, "name": "c655f2d1d3b72495a8c06f59480bd002", "is_reserved": 0}, {"is_disabled": 0, "fusion_lon": 0.0, "fusion_lat": 0.0, "lat": 38.89167316666666, "type": "electric_scooter", "lon": -77.015412, "bike_id": "373ec90b0bca4429ceb9542eeafeb974", "rental_uris": {"android": "https://dc.lft.to/lastmile_qr_scan", "ios": "https://dc.lft.to/lastmile_qr_scan"}, "name": "373ec90b0bca4429ceb9542eeafeb974", "is_reserved": 0}, {"is_disabled": 0, "fusion_lon": 0.0, "fusion_lat": 0.0, "lat": 38.949821666666665, "type": "electric_scooter", "lon": -77.0270235, "bike_id": "0fbea982aa82d5ed1cc2db252a0f4f77", "rental_uris": {"android": "https://dc.lft.to/lastmile_qr_scan", "ios": "https://dc.lft.to/lastmile_qr_scan"}, "name": "0fbea982aa82d5ed1cc2db252a0f4f77", "is_reserved": 0}, {"is_disabled": 0, "fusion_lon": 0.0, "fusion_lat": 0.0, "lat": 38.90927416666667, "type": "electric_scooter", "lon": -77.03202466666667, "bike_id": "046d5d4844673b7599529d5e1d931786", "rental_uris": {"android": "https://dc.lft.to/lastmile_qr_scan", "ios": "https://dc.lft.to/lastmile_qr_scan"}, "name": "046d5d4844673b7599529d5e1d931786", "is_reserved": 0}, {"is_disabled": 0, "fusion_lon": 0.0, "fusion_lat": 0.0, "lat": 38.9310465, "type": "electric_scooter", "lon": -77.04123366666667, "bike_id": "a407504241571e69d0d8d3fffe57db05", "rental_uris": {"android": "https://dc.lft.to/lastmile_qr_scan", "ios": "https://dc.lft.to/lastmile_qr_scan"}, "name": "a407504241571e69d0d8d3fffe57db05", "is_reserved": 0}, {"is_disabled": 0, "fusion_lon": 0.0, "fusion_lat": 0.0, "lat": 38.89222083333333, "type": "electric_scooter", "lon": -77.0226025, "bike_id": "ce821a13d2bfa5401cee904e77971d77", "rental_uris": {"android": "https://dc.lft.to/lastmile_qr_scan", "ios": "https://dc.lft.to/lastmile_qr_scan"}, "name": "ce821a13d2bfa5401cee904e77971d77", "is_reserved": 0}, {"is_disabled": 0, "fusion_lon": 0.0, "fusion_lat": 0.0, "lat": 38.91033016666667, "type": "electric_scooter", "lon": -77.0137115, "bike_id": "03672e47b1b2e86c2d9809304643822c", "rental_uris": {"android": "https://dc.lft.to/lastmile_qr_scan", "ios": "https://dc.lft.to/lastmile_qr_scan"}, "name": "03672e47b1b2e86c2d9809304643822c", "is_reserved": 0}, {"is_disabled": 0, "fusion_lon": 0.0, "fusion_lat": 0.0, "lat": 38.920496, "type": "electric_scooter", "lon": -77.02610416666667, "bike_id": "a71ade74958687a71568bcda5f798c55", "rental_uris": {"android": "https://dc.lft.to/lastmile_qr_scan", "ios": "https://dc.lft.to/lastmile_qr_scan"}, "name": "a71ade74958687a71568bcda5f798c55", "is_reserved": 0}, {"is_disabled": 0, "fusion_lon": 0.0, "fusion_lat": 0.0, "lat": 38.901943333333335, "type": "electric_scooter", "lon": -77.02371766666667, "bike_id": "40cfe459a9791657e03c17ab32841d6c", "rental_uris": {"android": "https://dc.lft.to/lastmile_qr_scan", "ios": "https://dc.lft.to/lastmile_qr_scan"}, "name": "40cfe459a9791657e03c17ab32841d6c", "is_reserved": 0}, {"is_disabled": 0, "fusion_lon": 0.0, "fusion_lat": 0.0, "lat": 38.90836566666667, "type": "electric_scooter", "lon": -76.99693766666667, "bike_id": "eba3d8ef0e70a6ebc63080a9d7f60022", "rental_uris": {"android": "https://dc.lft.to/lastmile_qr_scan", "ios": "https://dc.lft.to/lastmile_qr_scan"}, "name": "eba3d8ef0e70a6ebc63080a9d7f60022", "is_reserved": 0}, {"is_disabled": 0, "fusion_lon": 0.0, "fusion_lat": 0.0, "lat": 38.84518966666667, "type": "electric_bike", "lon": -77.07795233333333, "bike_id": "0267dd030e3bd909e42b43ffacca4162", "rental_uris": {"android": "https://dc.lft.to/lastmile_qr_scan", "ios": "https://dc.lft.to/lastmile_qr_scan"}, "name": "0267dd030e3bd909e42b43ffacca4162", "is_reserved": 0}, {"is_disabled": 0, "fusion_lon": 0.0, "fusion_lat": 0.0, "lat": 38.89225666666667, "type": "electric_scooter", "lon": -77.033384, "bike_id": "53411e18cc0a60e794a61b13c977c754", "rental_uris": {"android": "https://dc.lft.to/lastmile_qr_scan", "ios": "https://dc.lft.to/lastmile_qr_scan"}, "name": "53411e18cc0a60e794a61b13c977c754", "is_reserved": 0}, {"is_disabled": 0, "fusion_lon": 0.0, "fusion_lat": 0.0, "lat": 38.901962166666664, "type": "electric_scooter", "lon": -77.03958316666667, "bike_id": "07caf43e6b05f36b6ec3c5d5b26f991c", "rental_uris": {"android": "https://dc.lft.to/lastmile_qr_scan", "ios": "https://dc.lft.to/lastmile_qr_scan"}, "name": "07caf43e6b05f36b6ec3c5d5b26f991c", "is_reserved": 0}, {"is_disabled": 0, "fusion_lon": 0.0, "fusion_lat": 0.0, "lat": 38.918570333333335, "type": "electric_scooter", "lon": -77.04175533333333, "bike_id": "59004a7953f99827b52aa7762043e248", "rental_uris": {"android": "https://dc.lft.to/lastmile_qr_scan", "ios": "https://dc.lft.to/lastmile_qr_scan"}, "name": "59004a7953f99827b52aa7762043e248", "is_reserved": 0}, {"is_disabled": 0, "fusion_lon": 0.0, "fusion_lat": 0.0, "lat": 38.90555833333333, "type": "electric_scooter", "lon": -77.03348416666667, "bike_id": "7294fcef892702cf9a425b608b58408d", "rental_uris": {"android": "https://dc.lft.to/lastmile_qr_scan", "ios": "https://dc.lft.to/lastmile_qr_scan"}, "name": "7294fcef892702cf9a425b608b58408d", "is_reserved": 0}, {"is_disabled": 0, "fusion_lon": 0.0, "fusion_lat": 0.0, "lat": 38.901229, "type": "electric_scooter", "lon": -77.01789716666667, "bike_id": "26e9f12570cca43be607538645d3debb", "rental_uris": {"android": "https://dc.lft.to/lastmile_qr_scan", "ios": "https://dc.lft.to/lastmile_qr_scan"}, "name": "26e9f12570cca43be607538645d3debb", "is_reserved": 0}, {"is_disabled": 0, "fusion_lon": 0.0, "fusion_lat": 0.0, "lat": 38.9181705, "type": "electric_scooter", "lon": -77.01210416666666, "bike_id": "f3916fffefe7557d2f69c245cf714ea9", "rental_uris": {"android": "https://dc.lft.to/lastmile_qr_scan", "ios": "https://dc.lft.to/lastmile_qr_scan"}, "name": "f3916fffefe7557d2f69c245cf714ea9", "is_reserved": 0}, {"is_disabled": 0, "fusion_lon": 0.0, "fusion_lat": 0.0, "lat": 38.911942, "type": "electric_scooter", "lon": -77.04173816666666, "bike_id": "a2ef6873e892987d6fb2c4c33b4f9c3a", "rental_uris": {"android": "https://dc.lft.to/lastmile_qr_scan", "ios": "https://dc.lft.to/lastmile_qr_scan"}, "name": "a2ef6873e892987d6fb2c4c33b4f9c3a", "is_reserved": 0}, {"is_disabled": 0, "fusion_lon": 0.0, "fusion_lat": 0.0, "lat": 38.898776166666664, "type": "electric_scooter", "lon": -76.93185566666666, "bike_id": "ccccf4bd139f050df3728e2397e5df51", "rental_uris": {"android": "https://dc.lft.to/lastmile_qr_scan", "ios": "https://dc.lft.to/lastmile_qr_scan"}, "name": "ccccf4bd139f050df3728e2397e5df51", "is_reserved": 0}, {"is_disabled": 0, "fusion_lon": 0.0, "fusion_lat": 0.0, "lat": 38.937116333333336, "type": "electric_scooter", "lon": -77.02367983333333, "bike_id": "ec00eac218c910d6c4b07a32e0c31e09", "rental_uris": {"android": "https://dc.lft.to/lastmile_qr_scan", "ios": "https://dc.lft.to/lastmile_qr_scan"}, "name": "ec00eac218c910d6c4b07a32e0c31e09", "is_reserved": 0}, {"is_disabled": 0, "fusion_lon": 0.0, "fusion_lat": 0.0, "lat": 38.83810416666667, "type": "electric_scooter", "lon": -77.00431016666667, "bike_id": "7a7896d73e678b28b82d96fe9d2a24e6", "rental_uris": {"android": "https://dc.lft.to/lastmile_qr_scan", "ios": "https://dc.lft.to/lastmile_qr_scan"}, "name": "7a7896d73e678b28b82d96fe9d2a24e6", "is_reserved": 0}, {"is_disabled": 0, "fusion_lon": 0.0, "fusion_lat": 0.0, "lat": 38.93703683333333, "type": "electric_scooter", "lon": -77.06100483333333, "bike_id": "f06f8dd59ebd17b4e0facaeb02b17817", "rental_uris": {"android": "https://dc.lft.to/lastmile_qr_scan", "ios": "https://dc.lft.to/lastmile_qr_scan"}, "name": "f06f8dd59ebd17b4e0facaeb02b17817", "is_reserved": 0}, {"is_disabled": 0, "fusion_lon": 0.0, "fusion_lat": 0.0, "lat": 38.895179666666664, "type": "electric_scooter", "lon": -77.01102316666666, "bike_id": "0377748e9f69ec2fda14855acf244da3", "rental_uris": {"android": "https://dc.lft.to/lastmile_qr_scan", "ios": "https://dc.lft.to/lastmile_qr_scan"}, "name": "0377748e9f69ec2fda14855acf244da3", "is_reserved": 0}, {"is_disabled": 0, "fusion_lon": 0.0, "fusion_lat": 0.0, "lat": 38.88320866666667, "type": "electric_scooter", "lon": -77.01630883333333, "bike_id": "9cafda5b379288575d48da9f3c514831", "rental_uris": {"android": "https://dc.lft.to/lastmile_qr_scan", "ios": "https://dc.lft.to/lastmile_qr_scan"}, "name": "9cafda5b379288575d48da9f3c514831", "is_reserved": 0}, {"is_disabled": 0, "fusion_lon": 0.0, "fusion_lat": 0.0, "lat": 38.89223, "type": "electric_scooter", "lon": -77.031847, "bike_id": "0e873707eb3231729d0cad9969584bbe", "rental_uris": {"android": "https://dc.lft.to/lastmile_qr_scan", "ios": "https://dc.lft.to/lastmile_qr_scan"}, "name": "0e873707eb3231729d0cad9969584bbe", "is_reserved": 0}, {"is_disabled": 0, "fusion_lon": 0.0, "fusion_lat": 0.0, "lat": 38.924901, "type": "electric_scooter", "lon": -77.0281485, "bike_id": "95222579351b9c4f8f4788d03da554a7", "rental_uris": {"android": "https://dc.lft.to/lastmile_qr_scan", "ios": "https://dc.lft.to/lastmile_qr_scan"}, "name": "95222579351b9c4f8f4788d03da554a7", "is_reserved": 0}, {"is_disabled": 0, "fusion_lon": 0.0, "fusion_lat": 0.0, "lat": 38.90182716666666, "type": "electric_scooter", "lon": -77.025996, "bike_id": "db0b45ea9f754c336dfccba7a73d6e82", "rental_uris": {"android": "https://dc.lft.to/lastmile_qr_scan", "ios": "https://dc.lft.to/lastmile_qr_scan"}, "name": "db0b45ea9f754c336dfccba7a73d6e82", "is_reserved": 0}, {"is_disabled": 0, "fusion_lon": 0.0, "fusion_lat": 0.0, "lat": 38.88738633333333, "type": "electric_scooter", "lon": -77.01531816666666, "bike_id": "e2b1863e748f32a51254c15def6f82e4", "rental_uris": {"android": "https://dc.lft.to/lastmile_qr_scan", "ios": "https://dc.lft.to/lastmile_qr_scan"}, "name": "e2b1863e748f32a51254c15def6f82e4", "is_reserved": 0}, {"is_disabled": 0, "fusion_lon": 0.0, "fusion_lat": 0.0, "lat": 38.920922833333336, "type": "electric_scooter", "lon": -77.03166816666666, "bike_id": "11ab3500c971f0d991c67601c27e3682", "rental_uris": {"android": "https://dc.lft.to/lastmile_qr_scan", "ios": "https://dc.lft.to/lastmile_qr_scan"}, "name": "11ab3500c971f0d991c67601c27e3682", "is_reserved": 0}, {"is_disabled": 0, "fusion_lon": 0.0, "fusion_lat": 0.0, "lat": 38.90146266666667, "type": "electric_scooter", "lon": -77.03985233333333, "bike_id": "7b7f651aa58c18d3423f159951b8ad1e", "rental_uris": {"android": "https://dc.lft.to/lastmile_qr_scan", "ios": "https://dc.lft.to/lastmile_qr_scan"}, "name": "7b7f651aa58c18d3423f159951b8ad1e", "is_reserved": 0}, {"is_disabled": 0, "fusion_lon": 0.0, "fusion_lat": 0.0, "lat": 38.893526, "type": "electric_scooter", "lon": -76.98461416666666, "bike_id": "433713c21f7681879315a04d74a1e114", "rental_uris": {"android": "https://dc.lft.to/lastmile_qr_scan", "ios": "https://dc.lft.to/lastmile_qr_scan"}, "name": "433713c21f7681879315a04d74a1e114", "is_reserved": 0}, {"is_disabled": 0, "fusion_lon": 0.0, "fusion_lat": 0.0, "lat": 38.914096, "type": "electric_scooter", "lon": -77.03996983333333, "bike_id": "1fb1b2d0153c33bc4eac2f11a2d00eee", "rental_uris": {"android": "https://dc.lft.to/lastmile_qr_scan", "ios": "https://dc.lft.to/lastmile_qr_scan"}, "name": "1fb1b2d0153c33bc4eac2f11a2d00eee", "is_reserved": 0}, {"is_disabled": 0, "fusion_lon": 0.0, "fusion_lat": 0.0, "lat": 38.905024, "type": "electric_scooter", "lon": -77.03436083333334, "bike_id": "ffff7da840ae93a3182bc34b3c7e159c", "rental_uris": {"android": "https://dc.lft.to/lastmile_qr_scan", "ios": "https://dc.lft.to/lastmile_qr_scan"}, "name": "ffff7da840ae93a3182bc34b3c7e159c", "is_reserved": 0}, {"is_disabled": 0, "fusion_lon": 0.0, "fusion_lat": 0.0, "lat": 38.9051945, "type": "electric_scooter", "lon": -77.05032916666667, "bike_id": "b3b0df09c10b95b90b809e5e8fce749e", "rental_uris": {"android": "https://dc.lft.to/lastmile_qr_scan", "ios": "https://dc.lft.to/lastmile_qr_scan"}, "name": "b3b0df09c10b95b90b809e5e8fce749e", "is_reserved": 0}, {"is_disabled": 0, "fusion_lon": 0.0, "fusion_lat": 0.0, "lat": 38.92812383333333, "type": "electric_scooter", "lon": -77.02349333333333, "bike_id": "bd5b7c5efc8d6d8bf074776a742a347b", "rental_uris": {"android": "https://dc.lft.to/lastmile_qr_scan", "ios": "https://dc.lft.to/lastmile_qr_scan"}, "name": "bd5b7c5efc8d6d8bf074776a742a347b", "is_reserved": 0}, {"is_disabled": 0, "fusion_lon": 0.0, "fusion_lat": 0.0, "lat": 38.9179295, "type": "electric_scooter", "lon": -77.03248933333333, "bike_id": "1271aa71703ee94caaa6ce7874b32243", "rental_uris": {"android": "https://dc.lft.to/lastmile_qr_scan", "ios": "https://dc.lft.to/lastmile_qr_scan"}, "name": "1271aa71703ee94caaa6ce7874b32243", "is_reserved": 0}, {"is_disabled": 0, "fusion_lon": 0.0, "fusion_lat": 0.0, "lat": 38.934270833333336, "type": "electric_scooter", "lon": -77.05834033333333, "bike_id": "ba89f3abc1c2448e03181e4c310c8d72", "rental_uris": {"android": "https://dc.lft.to/lastmile_qr_scan", "ios": "https://dc.lft.to/lastmile_qr_scan"}, "name": "ba89f3abc1c2448e03181e4c310c8d72", "is_reserved": 0}, {"is_disabled": 0, "fusion_lon": 0.0, "fusion_lat": 0.0, "lat": 38.9000565, "type": "electric_scooter", "lon": -77.039371, "bike_id": "0de371d2bf43f481da7324868596af9b", "rental_uris": {"android": "https://dc.lft.to/lastmile_qr_scan", "ios": "https://dc.lft.to/lastmile_qr_scan"}, "name": "0de371d2bf43f481da7324868596af9b", "is_reserved": 0}, {"is_disabled": 0, "fusion_lon": 0.0, "fusion_lat": 0.0, "lat": 38.898215, "type": "electric_scooter", "lon": -77.02966983333333, "bike_id": "c49c2e7db693071636abc3907d14b510", "rental_uris": {"android": "https://dc.lft.to/lastmile_qr_scan", "ios": "https://dc.lft.to/lastmile_qr_scan"}, "name": "c49c2e7db693071636abc3907d14b510", "is_reserved": 0}, {"is_disabled": 0, "fusion_lon": 0.0, "fusion_lat": 0.0, "lat": 38.90695783333334, "type": "electric_scooter", "lon": -77.07481916666667, "bike_id": "d3b72482db32ed37d13fd1ead6ea48bd", "rental_uris": {"android": "https://dc.lft.to/lastmile_qr_scan", "ios": "https://dc.lft.to/lastmile_qr_scan"}, "name": "d3b72482db32ed37d13fd1ead6ea48bd", "is_reserved": 0}, {"is_disabled": 0, "fusion_lon": 0.0, "fusion_lat": 0.0, "lat": 38.92117416666667, "type": "electric_scooter", "lon": -77.0365745, "bike_id": "7eb27b97be21e96f8231672d35e8d548", "rental_uris": {"android": "https://dc.lft.to/lastmile_qr_scan", "ios": "https://dc.lft.to/lastmile_qr_scan"}, "name": "7eb27b97be21e96f8231672d35e8d548", "is_reserved": 0}, {"is_disabled": 0, "fusion_lon": 0.0, "fusion_lat": 0.0, "lat": 38.945359, "type": "electric_bike", "lon": -77.05101633333334, "bike_id": "76f189c98e12b40ecc0ebc071e193c63", "rental_uris": {"android": "https://dc.lft.to/lastmile_qr_scan", "ios": "https://dc.lft.to/lastmile_qr_scan"}, "name": "76f189c98e12b40ecc0ebc071e193c63", "is_reserved": 0}, {"is_disabled": 0, "fusion_lon": 0.0, "fusion_lat": 0.0, "lat": 38.88690716666667, "type": "electric_scooter", "lon": -76.95474616666667, "bike_id": "3e69ce2f4ade76df88f6a21bc5a6eb4e", "rental_uris": {"android": "https://dc.lft.to/lastmile_qr_scan", "ios": "https://dc.lft.to/lastmile_qr_scan"}, "name": "3e69ce2f4ade76df88f6a21bc5a6eb4e", "is_reserved": 0}, {"is_disabled": 0, "fusion_lon": 0.0, "fusion_lat": 0.0, "lat": 38.944747666666665, "type": "electric_bike", "lon": -77.006492, "bike_id": "edb35ac98ffa843aef19e012913d74eb", "rental_uris": {"android": "https://dc.lft.to/lastmile_qr_scan", "ios": "https://dc.lft.to/lastmile_qr_scan"}, "name": "edb35ac98ffa843aef19e012913d74eb", "is_reserved": 0}, {"is_disabled": 0, "fusion_lon": 0.0, "fusion_lat": 0.0, "lat": 38.901298833333335, "type": "electric_scooter", "lon": -77.00322083333333, "bike_id": "d9750dc95b42bb0d6b852d249c9a2f2e", "rental_uris": {"android": "https://dc.lft.to/lastmile_qr_scan", "ios": "https://dc.lft.to/lastmile_qr_scan"}, "name": "d9750dc95b42bb0d6b852d249c9a2f2e", "is_reserved": 0}, {"is_disabled": 0, "fusion_lon": 0.0, "fusion_lat": 0.0, "lat": 38.8960435, "type": "electric_scooter", "lon": -77.02672283333334, "bike_id": "3a3844c4c72cf74999e6dcb4baf82fd9", "rental_uris": {"android": "https://dc.lft.to/lastmile_qr_scan", "ios": "https://dc.lft.to/lastmile_qr_scan"}, "name": "3a3844c4c72cf74999e6dcb4baf82fd9", "is_reserved": 0}, {"is_disabled": 0, "fusion_lon": 0.0, "fusion_lat": 0.0, "lat": 38.88986583333333, "type": "electric_scooter", "lon": -77.00342266666667, "bike_id": "21637415a8dcd737ecd321cb9cb4edf8", "rental_uris": {"android": "https://dc.lft.to/lastmile_qr_scan", "ios": "https://dc.lft.to/lastmile_qr_scan"}, "name": "21637415a8dcd737ecd321cb9cb4edf8", "is_reserved": 0}, {"is_disabled": 0, "fusion_lon": 0.0, "fusion_lat": 0.0, "lat": 38.864639333333336, "type": "electric_scooter", "lon": -76.9961035, "bike_id": "58fa42a7f2f3e15ccb58e8a9065bbce8", "rental_uris": {"android": "https://dc.lft.to/lastmile_qr_scan", "ios": "https://dc.lft.to/lastmile_qr_scan"}, "name": "58fa42a7f2f3e15ccb58e8a9065bbce8", "is_reserved": 0}, {"is_disabled": 0, "fusion_lon": 0.0, "fusion_lat": 0.0, "lat": 38.904687833333334, "type": "electric_scooter", "lon": -77.0061075, "bike_id": "cb6d304f82ca093de218ed6d910eb278", "rental_uris": {"android": "https://dc.lft.to/lastmile_qr_scan", "ios": "https://dc.lft.to/lastmile_qr_scan"}, "name": "cb6d304f82ca093de218ed6d910eb278", "is_reserved": 0}, {"is_disabled": 0, "fusion_lon": 0.0, "fusion_lat": 0.0, "lat": 38.89826016666667, "type": "electric_scooter", "lon": -77.03180816666666, "bike_id": "0ef26d63508d3b479fbd5598299368ff", "rental_uris": {"android": "https://dc.lft.to/lastmile_qr_scan", "ios": "https://dc.lft.to/lastmile_qr_scan"}, "name": "0ef26d63508d3b479fbd5598299368ff", "is_reserved": 0}, {"is_disabled": 0, "fusion_lon": 0.0, "fusion_lat": 0.0, "lat": 38.885797, "type": "electric_scooter", "lon": -77.0122355, "bike_id": "17262b88bf9470e3e4edf2aeb763feea", "rental_uris": {"android": "https://dc.lft.to/lastmile_qr_scan", "ios": "https://dc.lft.to/lastmile_qr_scan"}, "name": "17262b88bf9470e3e4edf2aeb763feea", "is_reserved": 0}, {"is_disabled": 0, "fusion_lon": 0.0, "fusion_lat": 0.0, "lat": 38.940803333333335, "type": "electric_scooter", "lon": -77.061421, "bike_id": "f47e2eaa29fa50c90afb00cb07ff9723", "rental_uris": {"android": "https://dc.lft.to/lastmile_qr_scan", "ios": "https://dc.lft.to/lastmile_qr_scan"}, "name": "f47e2eaa29fa50c90afb00cb07ff9723", "is_reserved": 0}, {"is_disabled": 0, "fusion_lon": 0.0, "fusion_lat": 0.0, "lat": 38.923112833333334, "type": "electric_scooter", "lon": -77.042097, "bike_id": "5ce267ab50d399c3e72647e91a560e95", "rental_uris": {"android": "https://dc.lft.to/lastmile_qr_scan", "ios": "https://dc.lft.to/lastmile_qr_scan"}, "name": "5ce267ab50d399c3e72647e91a560e95", "is_reserved": 0}, {"is_disabled": 0, "fusion_lon": 0.0, "fusion_lat": 0.0, "lat": 38.9081365, "type": "electric_scooter", "lon": -77.0346315, "bike_id": "571b717bcd66e7c08ea5f9097a742688", "rental_uris": {"android": "https://dc.lft.to/lastmile_qr_scan", "ios": "https://dc.lft.to/lastmile_qr_scan"}, "name": "571b717bcd66e7c08ea5f9097a742688", "is_reserved": 0}, {"is_disabled": 0, "fusion_lon": 0.0, "fusion_lat": 0.0, "lat": 38.94912133333333, "type": "electric_bike", "lon": -77.0079375, "bike_id": "2fdf7c08c5451034d98f63422971e86a", "rental_uris": {"android": "https://dc.lft.to/lastmile_qr_scan", "ios": "https://dc.lft.to/lastmile_qr_scan"}, "name": "2fdf7c08c5451034d98f63422971e86a", "is_reserved": 0}, {"is_disabled": 0, "fusion_lon": 0.0, "fusion_lat": 0.0, "lat": 38.8955885, "type": "electric_scooter", "lon": -77.022705, "bike_id": "b8dfdcf36a56f6ff7cd3b62cb74b1561", "rental_uris": {"android": "https://dc.lft.to/lastmile_qr_scan", "ios": "https://dc.lft.to/lastmile_qr_scan"}, "name": "b8dfdcf36a56f6ff7cd3b62cb74b1561", "is_reserved": 0}, {"is_disabled": 0, "fusion_lon": 0.0, "fusion_lat": 0.0, "lat": 38.86910733333333, "type": "electric_bike", "lon": -77.131778, "bike_id": "3afed1bf9fd74358b4810912b16edfc0", "rental_uris": {"android": "https://dc.lft.to/lastmile_qr_scan", "ios": "https://dc.lft.to/lastmile_qr_scan"}, "name": "3afed1bf9fd74358b4810912b16edfc0", "is_reserved": 0}, {"is_disabled": 0, "fusion_lon": 0.0, "fusion_lat": 0.0, "lat": 38.90243183333333, "type": "electric_scooter", "lon": -77.0345585, "bike_id": "11b40d1b203bc8d8a0a0425bc4b80d32", "rental_uris": {"android": "https://dc.lft.to/lastmile_qr_scan", "ios": "https://dc.lft.to/lastmile_qr_scan"}, "name": "11b40d1b203bc8d8a0a0425bc4b80d32", "is_reserved": 0}, {"is_disabled": 0, "fusion_lon": 0.0, "fusion_lat": 0.0, "lat": 38.919824166666665, "type": "electric_bike", "lon": -76.97310216666666, "bike_id": "62840d85633dc2ad6b4c7e7543d7ddc0", "rental_uris": {"android": "https://dc.lft.to/lastmile_qr_scan", "ios": "https://dc.lft.to/lastmile_qr_scan"}, "name": "62840d85633dc2ad6b4c7e7543d7ddc0", "is_reserved": 0}, {"is_disabled": 0, "fusion_lon": 0.0, "fusion_lat": 0.0, "lat": 38.88167766666667, "type": "electric_scooter", "lon": -77.01296733333334, "bike_id": "ae2242c70b13bfb486b2d6788c42aaf1", "rental_uris": {"android": "https://dc.lft.to/lastmile_qr_scan", "ios": "https://dc.lft.to/lastmile_qr_scan"}, "name": "ae2242c70b13bfb486b2d6788c42aaf1", "is_reserved": 0}, {"is_disabled": 0, "fusion_lon": 0.0, "fusion_lat": 0.0, "lat": 38.90847, "type": "electric_scooter", "lon": -77.00984216666667, "bike_id": "0bd6b56a8fd967927e2a95a81b6be723", "rental_uris": {"android": "https://dc.lft.to/lastmile_qr_scan", "ios": "https://dc.lft.to/lastmile_qr_scan"}, "name": "0bd6b56a8fd967927e2a95a81b6be723", "is_reserved": 0}, {"is_disabled": 0, "fusion_lon": 0.0, "fusion_lat": 0.0, "lat": 38.923321, "type": "electric_scooter", "lon": -77.0430725, "bike_id": "24a876cd5f1738fa6aacc5f13e397078", "rental_uris": {"android": "https://dc.lft.to/lastmile_qr_scan", "ios": "https://dc.lft.to/lastmile_qr_scan"}, "name": "24a876cd5f1738fa6aacc5f13e397078", "is_reserved": 0}, {"is_disabled": 0, "fusion_lon": 0.0, "fusion_lat": 0.0, "lat": 38.90831283333333, "type": "electric_scooter", "lon": -76.996962, "bike_id": "1ea37c83a466bf7584f3216a0f4956f9", "rental_uris": {"android": "https://dc.lft.to/lastmile_qr_scan", "ios": "https://dc.lft.to/lastmile_qr_scan"}, "name": "1ea37c83a466bf7584f3216a0f4956f9", "is_reserved": 0}, {"is_disabled": 0, "fusion_lon": 0.0, "fusion_lat": 0.0, "lat": 38.89533933333333, "type": "electric_scooter", "lon": -77.030213, "bike_id": "a7209d8060d35ff3586f717dbfb78677", "rental_uris": {"android": "https://dc.lft.to/lastmile_qr_scan", "ios": "https://dc.lft.to/lastmile_qr_scan"}, "name": "a7209d8060d35ff3586f717dbfb78677", "is_reserved": 0}, {"is_disabled": 0, "fusion_lon": 0.0, "fusion_lat": 0.0, "lat": 38.975377333333334, "type": "electric_bike", "lon": -76.99528416666666, "bike_id": "20b8791acce187896f5e60fd2245e78d", "rental_uris": {"android": "https://dc.lft.to/lastmile_qr_scan", "ios": "https://dc.lft.to/lastmile_qr_scan"}, "name": "20b8791acce187896f5e60fd2245e78d", "is_reserved": 0}, {"is_disabled": 0, "fusion_lon": 0.0, "fusion_lat": 0.0, "lat": 38.915905, "type": "electric_bike", "lon": -76.97151733333334, "bike_id": "88fb8d406b43d3e4be99439b0796e40f", "rental_uris": {"android": "https://dc.lft.to/lastmile_qr_scan", "ios": "https://dc.lft.to/lastmile_qr_scan"}, "name": "88fb8d406b43d3e4be99439b0796e40f", "is_reserved": 0}, {"is_disabled": 0, "fusion_lon": 0.0, "fusion_lat": 0.0, "lat": 38.910283, "type": "electric_scooter", "lon": -77.00757466666667, "bike_id": "16cee0b92433addbd5d782f2062b2739", "rental_uris": {"android": "https://dc.lft.to/lastmile_qr_scan", "ios": "https://dc.lft.to/lastmile_qr_scan"}, "name": "16cee0b92433addbd5d782f2062b2739", "is_reserved": 0}, {"is_disabled": 0, "fusion_lon": 0.0, "fusion_lat": 0.0, "lat": 38.93006916666667, "type": "electric_scooter", "lon": -77.02208366666666, "bike_id": "db6427d1282e331d46e93b5c6cbed4e9", "rental_uris": {"android": "https://dc.lft.to/lastmile_qr_scan", "ios": "https://dc.lft.to/lastmile_qr_scan"}, "name": "db6427d1282e331d46e93b5c6cbed4e9", "is_reserved": 0}, {"is_disabled": 0, "fusion_lon": 0.0, "fusion_lat": 0.0, "lat": 38.916908166666666, "type": "electric_scooter", "lon": -77.0298645, "bike_id": "ff3fdda8006fb260c79cdd1889146a2f", "rental_uris": {"android": "https://dc.lft.to/lastmile_qr_scan", "ios": "https://dc.lft.to/lastmile_qr_scan"}, "name": "ff3fdda8006fb260c79cdd1889146a2f", "is_reserved": 0}, {"is_disabled": 0, "fusion_lon": 0.0, "fusion_lat": 0.0, "lat": 38.899333, "type": "electric_scooter", "lon": -77.02940283333334, "bike_id": "74b9ddc07d773b8b68f5027bb4648818", "rental_uris": {"android": "https://dc.lft.to/lastmile_qr_scan", "ios": "https://dc.lft.to/lastmile_qr_scan"}, "name": "74b9ddc07d773b8b68f5027bb4648818", "is_reserved": 0}, {"is_disabled": 0, "fusion_lon": 0.0, "fusion_lat": 0.0, "lat": 38.898325666666665, "type": "electric_scooter", "lon": -76.9463245, "bike_id": "0e9d04ce69e347b1d0310b16424a3db5", "rental_uris": {"android": "https://dc.lft.to/lastmile_qr_scan", "ios": "https://dc.lft.to/lastmile_qr_scan"}, "name": "0e9d04ce69e347b1d0310b16424a3db5", "is_reserved": 0}, {"is_disabled": 0, "fusion_lon": 0.0, "fusion_lat": 0.0, "lat": 38.93554433333333, "type": "electric_bike", "lon": -77.081983, "bike_id": "cd1d3d43d4b640605c4c61f65a90395b", "rental_uris": {"android": "https://dc.lft.to/lastmile_qr_scan", "ios": "https://dc.lft.to/lastmile_qr_scan"}, "name": "cd1d3d43d4b640605c4c61f65a90395b", "is_reserved": 0}, {"is_disabled": 0, "fusion_lon": 0.0, "fusion_lat": 0.0, "lat": 38.9170515, "type": "electric_scooter", "lon": -77.028426, "bike_id": "1c896668ca78e3b40b40ddb3334783c0", "rental_uris": {"android": "https://dc.lft.to/lastmile_qr_scan", "ios": "https://dc.lft.to/lastmile_qr_scan"}, "name": "1c896668ca78e3b40b40ddb3334783c0", "is_reserved": 0}, {"is_disabled": 0, "fusion_lon": 0.0, "fusion_lat": 0.0, "lat": 38.9024385, "type": "electric_scooter", "lon": -77.0608845, "bike_id": "1629891c495a50622dcaa9856d6e35ff", "rental_uris": {"android": "https://dc.lft.to/lastmile_qr_scan", "ios": "https://dc.lft.to/lastmile_qr_scan"}, "name": "1629891c495a50622dcaa9856d6e35ff", "is_reserved": 0}, {"is_disabled": 0, "fusion_lon": 0.0, "fusion_lat": 0.0, "lat": 38.828684333333335, "type": "electric_bike", "lon": -77.11220516666667, "bike_id": "1768b6b38fd33d94754630b9057f9cd5", "rental_uris": {"android": "https://dc.lft.to/lastmile_qr_scan", "ios": "https://dc.lft.to/lastmile_qr_scan"}, "name": "1768b6b38fd33d94754630b9057f9cd5", "is_reserved": 0}, {"is_disabled": 0, "fusion_lon": 0.0, "fusion_lat": 0.0, "lat": 38.897162333333334, "type": "electric_scooter", "lon": -77.0215185, "bike_id": "13a519114d47423b779ad0f93c108b6b", "rental_uris": {"android": "https://dc.lft.to/lastmile_qr_scan", "ios": "https://dc.lft.to/lastmile_qr_scan"}, "name": "13a519114d47423b779ad0f93c108b6b", "is_reserved": 0}, {"is_disabled": 0, "fusion_lon": 0.0, "fusion_lat": 0.0, "lat": 38.925483, "type": "electric_scooter", "lon": -77.05294583333334, "bike_id": "515e786e43145ec5a544ac3bb313d184", "rental_uris": {"android": "https://dc.lft.to/lastmile_qr_scan", "ios": "https://dc.lft.to/lastmile_qr_scan"}, "name": "515e786e43145ec5a544ac3bb313d184", "is_reserved": 0}, {"is_disabled": 0, "fusion_lon": 0.0, "fusion_lat": 0.0, "lat": 38.903830666666664, "type": "electric_scooter", "lon": -77.01767333333333, "bike_id": "a085cf6624364c04cf8fa3ca0139c8e2", "rental_uris": {"android": "https://dc.lft.to/lastmile_qr_scan", "ios": "https://dc.lft.to/lastmile_qr_scan"}, "name": "a085cf6624364c04cf8fa3ca0139c8e2", "is_reserved": 0}, {"is_disabled": 0, "fusion_lon": 0.0, "fusion_lat": 0.0, "lat": 38.92120583333333, "type": "electric_scooter", "lon": -77.0217395, "bike_id": "fe5843b1109b2613f2b619e6a879c06c", "rental_uris": {"android": "https://dc.lft.to/lastmile_qr_scan", "ios": "https://dc.lft.to/lastmile_qr_scan"}, "name": "fe5843b1109b2613f2b619e6a879c06c", "is_reserved": 0}, {"is_disabled": 0, "fusion_lon": 0.0, "fusion_lat": 0.0, "lat": 39.00015883333333, "type": "electric_bike", "lon": -76.87284133333333, "bike_id": "9a8497cd9514567869f6b0f97705e16d", "rental_uris": {"android": "https://dc.lft.to/lastmile_qr_scan", "ios": "https://dc.lft.to/lastmile_qr_scan"}, "name": "9a8497cd9514567869f6b0f97705e16d", "is_reserved": 0}, {"is_disabled": 0, "fusion_lon": 0.0, "fusion_lat": 0.0, "lat": 38.91815666666667, "type": "electric_scooter", "lon": -77.04011483333333, "bike_id": "1580a17fe852365b6c8762baa1fa1ce9", "rental_uris": {"android": "https://dc.lft.to/lastmile_qr_scan", "ios": "https://dc.lft.to/lastmile_qr_scan"}, "name": "1580a17fe852365b6c8762baa1fa1ce9", "is_reserved": 0}, {"is_disabled": 0, "fusion_lon": 0.0, "fusion_lat": 0.0, "lat": 38.9053275, "type": "electric_scooter", "lon": -77.04880266666666, "bike_id": "eb04923430cae302919460e31383d78c", "rental_uris": {"android": "https://dc.lft.to/lastmile_qr_scan", "ios": "https://dc.lft.to/lastmile_qr_scan"}, "name": "eb04923430cae302919460e31383d78c", "is_reserved": 0}, {"is_disabled": 0, "fusion_lon": 0.0, "fusion_lat": 0.0, "lat": 38.914776, "type": "electric_scooter", "lon": -77.03470983333334, "bike_id": "0ec9a064090f8689c072519ff94e7f56", "rental_uris": {"android": "https://dc.lft.to/lastmile_qr_scan", "ios": "https://dc.lft.to/lastmile_qr_scan"}, "name": "0ec9a064090f8689c072519ff94e7f56", "is_reserved": 0}, {"is_disabled": 0, "fusion_lon": 0.0, "fusion_lat": 0.0, "lat": 38.898284833333335, "type": "electric_scooter", "lon": -77.0335195, "bike_id": "dc2c7c5379c7c1849ba6d4a8379402ee", "rental_uris": {"android": "https://dc.lft.to/lastmile_qr_scan", "ios": "https://dc.lft.to/lastmile_qr_scan"}, "name": "dc2c7c5379c7c1849ba6d4a8379402ee", "is_reserved": 0}, {"is_disabled": 0, "fusion_lon": 0.0, "fusion_lat": 0.0, "lat": 39.08842883333333, "type": "electric_bike", "lon": -77.17795483333333, "bike_id": "5199e415cae12ed282044f909b43be27", "rental_uris": {"android": "https://dc.lft.to/lastmile_qr_scan", "ios": "https://dc.lft.to/lastmile_qr_scan"}, "name": "5199e415cae12ed282044f909b43be27", "is_reserved": 0}, {"is_disabled": 0, "fusion_lon": 0.0, "fusion_lat": 0.0, "lat": 38.91330516666667, "type": "electric_scooter", "lon": -77.03278483333334, "bike_id": "3997d1c2e6bec0faee99f41543f3c8ac", "rental_uris": {"android": "https://dc.lft.to/lastmile_qr_scan", "ios": "https://dc.lft.to/lastmile_qr_scan"}, "name": "3997d1c2e6bec0faee99f41543f3c8ac", "is_reserved": 0}, {"is_disabled": 0, "fusion_lon": 0.0, "fusion_lat": 0.0, "lat": 38.892058166666665, "type": "electric_scooter", "lon": -76.98808, "bike_id": "c8b3e24f816b5c238328f1d08cef2a10", "rental_uris": {"android": "https://dc.lft.to/lastmile_qr_scan", "ios": "https://dc.lft.to/lastmile_qr_scan"}, "name": "c8b3e24f816b5c238328f1d08cef2a10", "is_reserved": 0}, {"is_disabled": 0, "fusion_lon": 0.0, "fusion_lat": 0.0, "lat": 38.88423, "type": "electric_scooter", "lon": -76.95400916666667, "bike_id": "497257c5cb29581417fbb78972904018", "rental_uris": {"android": "https://dc.lft.to/lastmile_qr_scan", "ios": "https://dc.lft.to/lastmile_qr_scan"}, "name": "497257c5cb29581417fbb78972904018", "is_reserved": 0}, {"is_disabled": 0, "fusion_lon": 0.0, "fusion_lat": 0.0, "lat": 38.91796983333333, "type": "electric_scooter", "lon": -77.03467216666667, "bike_id": "6755361a6b0533883a67646b6ec0ce47", "rental_uris": {"android": "https://dc.lft.to/lastmile_qr_scan", "ios": "https://dc.lft.to/lastmile_qr_scan"}, "name": "6755361a6b0533883a67646b6ec0ce47", "is_reserved": 0}, {"is_disabled": 0, "fusion_lon": 0.0, "fusion_lat": 0.0, "lat": 38.90960716666667, "type": "electric_scooter", "lon": -77.0373325, "bike_id": "f40f04d4af6971504588bba7ca3939b1", "rental_uris": {"android": "https://dc.lft.to/lastmile_qr_scan", "ios": "https://dc.lft.to/lastmile_qr_scan"}, "name": "f40f04d4af6971504588bba7ca3939b1", "is_reserved": 0}, {"is_disabled": 0, "fusion_lon": 0.0, "fusion_lat": 0.0, "lat": 38.88451333333333, "type": "electric_scooter", "lon": -76.95212683333334, "bike_id": "a4569d9f85ccc656fe534dee285721a7", "rental_uris": {"android": "https://dc.lft.to/lastmile_qr_scan", "ios": "https://dc.lft.to/lastmile_qr_scan"}, "name": "a4569d9f85ccc656fe534dee285721a7", "is_reserved": 0}, {"is_disabled": 0, "fusion_lon": 0.0, "fusion_lat": 0.0, "lat": 38.877125, "type": "electric_scooter", "lon": -77.0175335, "bike_id": "d533b9f2f2571f85026a8da558b30196", "rental_uris": {"android": "https://dc.lft.to/lastmile_qr_scan", "ios": "https://dc.lft.to/lastmile_qr_scan"}, "name": "d533b9f2f2571f85026a8da558b30196", "is_reserved": 0}, {"is_disabled": 0, "fusion_lon": 0.0, "fusion_lat": 0.0, "lat": 38.89713916666667, "type": "electric_scooter", "lon": -77.02158, "bike_id": "457f3dc35da149e74af2932410d12b9b", "rental_uris": {"android": "https://dc.lft.to/lastmile_qr_scan", "ios": "https://dc.lft.to/lastmile_qr_scan"}, "name": "457f3dc35da149e74af2932410d12b9b", "is_reserved": 0}, {"is_disabled": 0, "fusion_lon": 0.0, "fusion_lat": 0.0, "lat": 38.918156833333335, "type": "electric_scooter", "lon": -77.034542, "bike_id": "60dded12af4ea279fdb194e1b3c09ab3", "rental_uris": {"android": "https://dc.lft.to/lastmile_qr_scan", "ios": "https://dc.lft.to/lastmile_qr_scan"}, "name": "60dded12af4ea279fdb194e1b3c09ab3", "is_reserved": 0}, {"is_disabled": 0, "fusion_lon": 0.0, "fusion_lat": 0.0, "lat": 38.910417333333335, "type": "electric_scooter", "lon": -77.01493, "bike_id": "a9d62bd8e2c24fe55e6ef9869a5db860", "rental_uris": {"android": "https://dc.lft.to/lastmile_qr_scan", "ios": "https://dc.lft.to/lastmile_qr_scan"}, "name": "a9d62bd8e2c24fe55e6ef9869a5db860", "is_reserved": 0}, {"is_disabled": 0, "fusion_lon": 0.0, "fusion_lat": 0.0, "lat": 38.9224575, "type": "electric_scooter", "lon": -77.0299335, "bike_id": "4b7e2081dbe59bb7f5bc798902647749", "rental_uris": {"android": "https://dc.lft.to/lastmile_qr_scan", "ios": "https://dc.lft.to/lastmile_qr_scan"}, "name": "4b7e2081dbe59bb7f5bc798902647749", "is_reserved": 0}, {"is_disabled": 0, "fusion_lon": 0.0, "fusion_lat": 0.0, "lat": 38.91677983333334, "type": "electric_scooter", "lon": -77.03165216666666, "bike_id": "bf32e0388f0ec195fac019a396458d80", "rental_uris": {"android": "https://dc.lft.to/lastmile_qr_scan", "ios": "https://dc.lft.to/lastmile_qr_scan"}, "name": "bf32e0388f0ec195fac019a396458d80", "is_reserved": 0}, {"is_disabled": 0, "fusion_lon": 0.0, "fusion_lat": 0.0, "lat": 38.9370645, "type": "electric_scooter", "lon": -77.02464033333334, "bike_id": "17a5beef0993a0ca70d527114c9c6d9e", "rental_uris": {"android": "https://dc.lft.to/lastmile_qr_scan", "ios": "https://dc.lft.to/lastmile_qr_scan"}, "name": "17a5beef0993a0ca70d527114c9c6d9e", "is_reserved": 0}, {"is_disabled": 0, "fusion_lon": 0.0, "fusion_lat": 0.0, "lat": 38.93699083333333, "type": "electric_bike", "lon": -77.02978516666667, "bike_id": "7bda49ac9eb3127c5a1c1cf61c0148a7", "rental_uris": {"android": "https://dc.lft.to/lastmile_qr_scan", "ios": "https://dc.lft.to/lastmile_qr_scan"}, "name": "7bda49ac9eb3127c5a1c1cf61c0148a7", "is_reserved": 0}, {"is_disabled": 0, "fusion_lon": 0.0, "fusion_lat": 0.0, "lat": 38.92228883333333, "type": "electric_scooter", "lon": -76.9753025, "bike_id": "de2c0fe98f68dedf33ce1b241f07b352", "rental_uris": {"android": "https://dc.lft.to/lastmile_qr_scan", "ios": "https://dc.lft.to/lastmile_qr_scan"}, "name": "de2c0fe98f68dedf33ce1b241f07b352", "is_reserved": 0}, {"is_disabled": 0, "fusion_lon": 0.0, "fusion_lat": 0.0, "lat": 38.90563866666667, "type": "electric_scooter", "lon": -77.00586166666666, "bike_id": "de5a8837c50e127e1973f682eba2a347", "rental_uris": {"android": "https://dc.lft.to/lastmile_qr_scan", "ios": "https://dc.lft.to/lastmile_qr_scan"}, "name": "de5a8837c50e127e1973f682eba2a347", "is_reserved": 0}, {"is_disabled": 0, "fusion_lon": 0.0, "fusion_lat": 0.0, "lat": 38.90930633333333, "type": "electric_scooter", "lon": -76.992084, "bike_id": "94dcc8c65f31177ffc988efc18587bf0", "rental_uris": {"android": "https://dc.lft.to/lastmile_qr_scan", "ios": "https://dc.lft.to/lastmile_qr_scan"}, "name": "94dcc8c65f31177ffc988efc18587bf0", "is_reserved": 0},