{"data": {"bikes": [{"lat": 38.79332766666667, "is_disabled": 0, "type": "electric_bike", "lon": -77.04019, "bike_id": "214ff84bfcae55d21558202513efe939", "fusion_lat": 0.0, "name": "214ff84bfcae55d21558202513efe939", "is_reserved": 0, "rental_uris": {"android": "https://dc.lft.to/lastmile_qr_scan", "ios": "https://dc.lft.to/lastmile_qr_scan"}, "fusion_lon": 0.0}, {"lat": 38.94906016666667, "is_disabled": 0, "type": "electric_bike", "lon": -76.97238683333333, "bike_id": "803a88cde15a176df76fb3b8b485c487", "fusion_lat": 0.0, "name": "803a88cde15a176df76fb3b8b485c487", "is_reserved": 0, "rental_uris": {"android": "https://dc.lft.to/lastmile_qr_scan", "ios": "https://dc.lft.to/lastmile_qr_scan"}, "fusion_lon": 0.0}, {"lat": 38.926865666666664, "is_disabled": 0, "type": "electric_scooter", "lon": -77.01574383333333, "bike_id": "3c0807f74736ffbc607e81c599031abc", "fusion_lat": 0.0, "name": "3c0807f74736ffbc607e81c599031abc", "is_reserved": 0, "rental_uris": {"android": "https://dc.lft.to/lastmile_qr_scan", "ios": "https://dc.lft.to/lastmile_qr_scan"}, "fusion_lon": 0.0}, {"lat": 38.873719333333334, "is_disabled": 0, "type": "electric_bike", "lon": -77.11803933333333, "bike_id": "510df420e134b2535f6e5a93aefd098c", "fusion_lat": 0.0, "name": "510df420e134b2535f6e5a93aefd098c", "is_reserved": 0, "rental_uris": {"android": "https://dc.lft.to/lastmile_qr_scan", "ios": "https://dc.lft.to/lastmile_qr_scan"}, "fusion_lon": 0.0}, {"lat": 38.89219966666667, "is_disabled": 0, "type": "electric_scooter", "lon": -77.02624666666667, "bike_id": "d3d7df2328cbb41e33b5b4b8a28d44a3", "fusion_lat": 0.0, "name": "d3d7df2328cbb41e33b5b4b8a28d44a3", "is_reserved": 0, "rental_uris": {"android": "https://dc.lft.to/lastmile_qr_scan", "ios": "https://dc.lft.to/lastmile_qr_scan"}, "fusion_lon": 0.0}, {"lat": 38.901459833333334, "is_disabled": 0, "type": "electric_scooter", "lon": -77.01506033333334, "bike_id": "31daff44624d24803922bcfa09060bb7", "fusion_lat": 0.0, "name": "31daff44624d24803922bcfa09060bb7", "is_reserved": 0, "rental_uris": {"android": "https://dc.lft.to/lastmile_qr_scan", "ios": "https://dc.lft.to/lastmile_qr_scan"}, "fusion_lon": 0.0}, {"lat": 38.8874785, "is_disabled": 0, "type": "electric_scooter", "lon": -77.03231733333334, "bike_id": "2e4fb35372cd72643802a384f0a73c9a", "fusion_lat": 0.0, "name": "2e4fb35372cd72643802a384f0a73c9a", "is_reserved": 0, "rental_uris": {"android": "https://dc.lft.to/lastmile_qr_scan", "ios": "https://dc.lft.to/lastmile_qr_scan"}, "fusion_lon": 0.0}, {"lat": 38.8989815, "is_disabled": 0, "type": "electric_scooter", "lon": -77.03235333333333, "bike_id": "9ba44ae6afe714df45facb6a1b937196", "fusion_lat": 0.0, "name": "9ba44ae6afe714df45facb6a1b937196", "is_reserved": 0, "rental_uris": {"android": "https://dc.lft.to/lastmile_qr_scan", "ios": "https://dc.lft.to/lastmile_qr_scan"}, "fusion_lon": 0.0}, {"lat": 38.88338516666666, "is_disabled": 0, "type": "electric_scooter", "lon": -77.00936816666666, "bike_id": "e8dd78d61ff9efc146f7d6ccd88cd863", "fusion_lat": 0.0, "name": "e8dd78d61ff9efc146f7d6ccd88cd863", "is_reserved": 0, "rental_uris": {"android": "https://dc.lft.to/lastmile_qr_scan", "ios": "https://dc.lft.to/lastmile_qr_scan"}, "fusion_lon": 0.0}, {"lat": 38.915463333333335, "is_disabled": 0, "type": "electric_scooter", "lon": -77.03853066666667, "bike_id": "84b6c23783d23226d981caa47c47f8b1", "fusion_lat": 0.0, "name": "84b6c23783d23226d981caa47c47f8b1", "is_reserved": 0, "rental_uris": {"android": "https://dc.lft.to/lastmile_qr_scan", "ios": "https://dc.lft.to/lastmile_qr_scan"}, "fusion_lon": 0.0}, {"lat": 38.892222333333336, "is_disabled": 0, "type": "electric_scooter", "lon": -77.04367383333333, "bike_id": "2a4e7476b1a02c2403e48bf0007b3fd2", "fusion_lat": 0.0, "name": "2a4e7476b1a02c2403e48bf0007b3fd2", "is_reserved": 0, "rental_uris": {"android": "https://dc.lft.to/lastmile_qr_scan", "ios": "https://dc.lft.to/lastmile_qr_scan"}, "fusion_lon": 0.0}, {"lat": 38.88525083333333, "is_disabled": 0, "type": "electric_scooter", "lon": -77.011333, "bike_id": "9103c7d95db1c78d5434b85339a357a3", "fusion_lat": 0.0, "name": "9103c7d95db1c78d5434b85339a357a3", "is_reserved": 0, "rental_uris": {"android": "https://dc.lft.to/lastmile_qr_scan", "ios": "https://dc.lft.to/lastmile_qr_scan"}, "fusion_lon": 0.0}, {"lat": 38.936088, "is_disabled": 0, "type": "electric_scooter", "lon": -77.05858333333333, "bike_id": "eb6f1fe960e25e51993f24ca17fce7cc", "fusion_lat": 0.0, "name": "eb6f1fe960e25e51993f24ca17fce7cc", "is_reserved": 0, "rental_uris": {"android": "https://dc.lft.to/lastmile_qr_scan", "ios": "https://dc.lft.to/lastmile_qr_scan"}, "fusion_lon": 0.0}, {"lat": 38.933220666666664, "is_disabled": 0, "type": "electric_scooter", "lon": -77.0436475, "bike_id": "e506293410892982c0fd853869dbaecd", "fusion_lat": 0.0, "name": "e506293410892982c0fd853869dbaecd", "is_reserved": 0, "rental_uris": {"android": "https://dc.lft.to/lastmile_qr_scan", "ios": "https://dc.lft.to/lastmile_qr_scan"}, "fusion_lon": 0.0}, {"lat": 38.90212366666667, "is_disabled": 0, "type": "electric_scooter", "lon": -77.06049183333333, "bike_id": "8a56ae5a4acfae6ded4c87198fce1fcc", "fusion_lat": 0.0, "name": "8a56ae5a4acfae6ded4c87198fce1fcc", "is_reserved": 0, "rental_uris": {"android": "https://dc.lft.to/lastmile_qr_scan", "ios": "https://dc.lft.to/lastmile_qr_scan"}, "fusion_lon": 0.0}, {"lat": 38.924815333333335, "is_disabled": 0, "type": "electric_scooter", "lon": -77.05750183333333, "bike_id": "bfeab80093c4f3ae013687ef7305f094", "fusion_lat": 0.0, "name": "bfeab80093c4f3ae013687ef7305f094", "is_reserved": 0, "rental_uris": {"android": "https://dc.lft.to/lastmile_qr_scan", "ios": "https://dc.lft.to/lastmile_qr_scan"}, "fusion_lon": 0.0}, {"lat": 38.9195485, "is_disabled": 0, "type": "electric_scooter", "lon": -76.98079033333333, "bike_id": "3220fbbd4042acfdfc3e760afb46d988", "fusion_lat": 0.0, "name": "3220fbbd4042acfdfc3e760afb46d988", "is_reserved": 0, "rental_uris": {"android": "https://dc.lft.to/lastmile_qr_scan", "ios": "https://dc.lft.to/lastmile_qr_scan"}, "fusion_lon": 0.0}, {"lat": 38.911, "is_disabled": 0, "type": "electric_scooter", "lon": -77.031799, "bike_id": "a329a5be200221e8bde0a86b1e51a07d", "fusion_lat": 0.0, "name": "a329a5be200221e8bde0a86b1e51a07d", "is_reserved": 0, "rental_uris": {"android": "https://dc.lft.to/lastmile_qr_scan", "ios": "https://dc.lft.to/lastmile_qr_scan"}, "fusion_lon": 0.0}, {"lat": 38.941716666666665, "is_disabled": 0, "type": "electric_scooter", "lon": -77.04134833333333, "bike_id": "d79b8ef7ce1d28f5b3ccc253fc7eb456", "fusion_lat": 0.0, "name": "d79b8ef7ce1d28f5b3ccc253fc7eb456", "is_reserved": 0, "rental_uris": {"android": "https://dc.lft.to/lastmile_qr_scan", "ios": "https://dc.lft.to/lastmile_qr_scan"}, "fusion_lon": 0.0}, {"lat": 38.907932, "is_disabled": 0, "type": "electric_scooter", "lon": -77.0434105, "bike_id": "46021d2ea92cde1d37b4a28f7834088b", "fusion_lat": 0.0, "name": "46021d2ea92cde1d37b4a28f7834088b", "is_reserved": 0, "rental_uris": {"android": "https://dc.lft.to/lastmile_qr_scan", "ios": "https://dc.lft.to/lastmile_qr_scan"}, "fusion_lon": 0.0}, {"lat": 38.917933, "is_disabled": 0, "type": "electric_scooter", "lon": -77.022782, "bike_id": "5ae8406c5e2b1e43fe7c244501ecdd52", "fusion_lat": 0.0, "name": "5ae8406c5e2b1e43fe7c244501ecdd52", "is_reserved": 0, "rental_uris": {"android": "https://dc.lft.to/lastmile_qr_scan", "ios": "https://dc.lft.to/lastmile_qr_scan"}, "fusion_lon": 0.0}, {"lat": 38.8921995, "is_disabled": 0, "type": "electric_scooter", "lon": -77.02777133333333, "bike_id": "80e2a3c75ad095ea40ace9aae4834b07", "fusion_lat": 0.0, "name": "80e2a3c75ad095ea40ace9aae4834b07", "is_reserved": 0, "rental_uris": {"android": "https://dc.lft.to/lastmile_qr_scan", "ios": "https://dc.lft.to/lastmile_qr_scan"}, "fusion_lon": 0.0}, {"lat": 38.9346795, "is_disabled": 0, "type": "electric_scooter", "lon": -77.06192183333333, "bike_id": "e065d371be298a1cfe633c0b5c089a20", "fusion_lat": 0.0, "name": "e065d371be298a1cfe633c0b5c089a20", "is_reserved": 0, "rental_uris": {"android": "https://dc.lft.to/lastmile_qr_scan", "ios": "https://dc.lft.to/lastmile_qr_scan"}, "fusion_lon": 0.0}, {"lat": 39.00013783333333, "is_disabled": 0, "type": "electric_bike", "lon": -76.91084966666666, "bike_id": "af9f7722f9855aca2a7b584961c2d1c7", "fusion_lat": 0.0, "name": "af9f7722f9855aca2a7b584961c2d1c7", "is_reserved": 0, "rental_uris": {"android": "https://dc.lft.to/lastmile_qr_scan", "ios": "https://dc.lft.to/lastmile_qr_scan"}, "fusion_lon": 0.0}, {"lat": 38.863906166666666, "is_disabled": 0, "type": "electric_bike", "lon": -76.98989133333333, "bike_id": "4ac1d6fc38941c8542f39d3259112b15", "fusion_lat": 0.0, "name": "4ac1d6fc38941c8542f39d3259112b15", "is_reserved": 0, "rental_uris": {"android": "https://dc.lft.to/lastmile_qr_scan", "ios": "https://dc.lft.to/lastmile_qr_scan"}, "fusion_lon": 0.0}, {"lat": 38.91114433333333, "is_disabled": 0, "type": "electric_scooter", "lon": -77.03303233333334, "bike_id": "7452816c469ad0798bd8c7ad86246583", "fusion_lat": 0.0, "name": "7452816c469ad0798bd8c7ad86246583", "is_reserved": 0, "rental_uris": {"android": "https://dc.lft.to/lastmile_qr_scan", "ios": "https://dc.lft.to/lastmile_qr_scan"}, "fusion_lon": 0.0}, {"lat": 38.887494333333336, "is_disabled": 0, "type": "electric_scooter", "lon": -77.032338, "bike_id": "6efa79254c8d79d64c76ebbeab809856", "fusion_lat": 0.0, "name": "6efa79254c8d79d64c76ebbeab809856", "is_reserved": 0, "rental_uris": {"android": "https://dc.lft.to/lastmile_qr_scan", "ios": "https://dc.lft.to/lastmile_qr_scan"}, "fusion_lon": 0.0}, {"lat": 38.8656635, "is_disabled": 0, "type": "electric_scooter", "lon": -76.97406833333334, "bike_id": "27b39210e962e1b92254017de698103e", "fusion_lat": 0.0, "name": "27b39210e962e1b92254017de698103e", "is_reserved": 0, "rental_uris": {"android": "https://dc.lft.to/lastmile_qr_scan", "ios": "https://dc.lft.to/lastmile_qr_scan"}, "fusion_lon": 0.0}, {"lat": 38.953579, "is_disabled": 0, "type": "electric_bike", "lon": -76.98095533333333, "bike_id": "861bf581ea49068a598aa02c4d3a9f8f", "fusion_lat": 0.0, "name": "861bf581ea49068a598aa02c4d3a9f8f", "is_reserved": 0, "rental_uris": {"android": "https://dc.lft.to/lastmile_qr_scan", "ios": "https://dc.lft.to/lastmile_qr_scan"}, "fusion_lon": 0.0}, {"lat": 38.8976285, "is_disabled": 0, "type": "electric_scooter", "lon": -77.02690016666666, "bike_id": "44c33638da4ebaee3a0197463f403838", "fusion_lat": 0.0, "name": "44c33638da4ebaee3a0197463f403838", "is_reserved": 0, "rental_uris": {"android": "https://dc.lft.to/lastmile_qr_scan", "ios": "https://dc.lft.to/lastmile_qr_scan"}, "fusion_lon": 0.0}, {"lat": 38.90562283333333, "is_disabled": 0, "type": "electric_scooter", "lon": -77.02494733333333, "bike_id": "4067c04af7e9ad26288d1f27a833a7e7", "fusion_lat": 0.0, "name": "4067c04af7e9ad26288d1f27a833a7e7", "is_reserved": 0, "rental_uris": {"android": "https://dc.lft.to/lastmile_qr_scan", "ios": "https://dc.lft.to/lastmile_qr_scan"}, "fusion_lon": 0.0}, {"lat": 38.925084, "is_disabled": 0, "type": "electric_bike", "lon": -76.98225416666666, "bike_id": "79c404faca45bd624f80225e04f22c20", "fusion_lat": 0.0, "name": "79c404faca45bd624f80225e04f22c20", "is_reserved": 0, "rental_uris": {"android": "https://dc.lft.to/lastmile_qr_scan", "ios": "https://dc.lft.to/lastmile_qr_scan"}, "fusion_lon": 0.0}, {"lat": 38.89621783333333, "is_disabled": 0, "type": "electric_scooter", "lon": -77.03163833333333, "bike_id": "1a6e3f6b63758faff256e541cc278c16", "fusion_lat": 0.0, "name": "1a6e3f6b63758faff256e541cc278c16", "is_reserved": 0, "rental_uris": {"android": "https://dc.lft.to/lastmile_qr_scan", "ios": "https://dc.lft.to/lastmile_qr_scan"}, "fusion_lon": 0.0}, {"lat": 38.9068115, "is_disabled": 0, "type": "electric_scooter", "lon": -77.037483, "bike_id": "1ae1c4837dac3e33cfe47fb610d699ac", "fusion_lat": 0.0, "name": "1ae1c4837dac3e33cfe47fb610d699ac", "is_reserved": 0, "rental_uris": {"android": "https://dc.lft.to/lastmile_qr_scan", "ios": "https://dc.lft.to/lastmile_qr_scan"}, "fusion_lon": 0.0}, {"lat": 38.92105883333333, "is_disabled": 0, "type": "electric_scooter", "lon": -77.043622, "bike_id": "6137eafe6cf3e43987757d371dea3435", "fusion_lat": 0.0, "name": "6137eafe6cf3e43987757d371dea3435", "is_reserved": 0, "rental_uris": {"android": "https://dc.lft.to/lastmile_qr_scan", "ios": "https://dc.lft.to/lastmile_qr_scan"}, "fusion_lon": 0.0}, {"lat": 38.915976, "is_disabled": 0, "type": "electric_scooter", "lon": -77.044577, "bike_id": "2ca781dc9bd42563bfffe096703b8862", "fusion_lat": 0.0, "name": "2ca781dc9bd42563bfffe096703b8862", "is_reserved": 0, "rental_uris": {"android": "https://dc.lft.to/lastmile_qr_scan", "ios": "https://dc.lft.to/lastmile_qr_scan"}, "fusion_lon": 0.0}, {"lat": 38.89255283333333, "is_disabled": 0, "type": "electric_scooter", "lon": -77.04896716666667, "bike_id": "eab9b69332d603dbd1442504fd574bae", "fusion_lat": 0.0, "name": "eab9b69332d603dbd1442504fd574bae", "is_reserved": 0, "rental_uris": {"android": "https://dc.lft.to/lastmile_qr_scan", "ios": "https://dc.lft.to/lastmile_qr_scan"}, "fusion_lon": 0.0}, {"lat": 38.91684566666667, "is_disabled": 0, "type": "electric_scooter", "lon": -77.029442, "bike_id": "242b3c57d4eda87be1109dd6e1964fb2", "fusion_lat": 0.0, "name": "242b3c57d4eda87be1109dd6e1964fb2", "is_reserved": 0, "rental_uris": {"android": "https://dc.lft.to/lastmile_qr_scan", "ios": "https://dc.lft.to/lastmile_qr_scan"}, "fusion_lon": 0.0}, {"lat": 38.949933333333334, "is_disabled": 0, "type": "electric_bike", "lon": -77.0296425, "bike_id": "84241a332dd097179a5bbddd3316ec70", "fusion_lat": 0.0, "name": "84241a332dd097179a5bbddd3316ec70", "is_reserved": 0, "rental_uris": {"android": "https://dc.lft.to/lastmile_qr_scan", "ios": "https://dc.lft.to/lastmile_qr_scan"}, "fusion_lon": 0.0}, {"lat": 38.89832666666667, "is_disabled": 0, "type": "electric_scooter", "lon": -76.93108466666666, "bike_id": "32c568a3c9dd8da11046a68d7e9c9bbe", "fusion_lat": 0.0, "name": "32c568a3c9dd8da11046a68d7e9c9bbe", "is_reserved": 0, "rental_uris": {"android": "https://dc.lft.to/lastmile_qr_scan", "ios": "https://dc.lft.to/lastmile_qr_scan"}, "fusion_lon": 0.0}, {"lat": 38.900253166666666, "is_disabled": 0, "type": "electric_scooter", "lon": -76.99819866666667, "bike_id": "8413b4c870ba7e7fc6369fb644fd81b6", "fusion_lat": 0.0, "name": "8413b4c870ba7e7fc6369fb644fd81b6", "is_reserved": 0, "rental_uris": {"android": "https://dc.lft.to/lastmile_qr_scan", "ios": "https://dc.lft.to/lastmile_qr_scan"}, "fusion_lon": 0.0}, {"lat": 38.9309125, "is_disabled": 0, "type": "electric_scooter", "lon": -77.0255905, "bike_id": "ebb5f781841acc3a3427b04b3020c6b5", "fusion_lat": 0.0, "name": "ebb5f781841acc3a3427b04b3020c6b5", "is_reserved": 0, "rental_uris": {"android": "https://dc.lft.to/lastmile_qr_scan", "ios": "https://dc.lft.to/lastmile_qr_scan"}, "fusion_lon": 0.0}, {"lat": 38.9693, "is_disabled": 0, "type": "electric_bike", "lon": -77.02620433333334, "bike_id": "b40cd85a63936fa6faa7ae4b1b238854", "fusion_lat": 0.0, "name": "b40cd85a63936fa6faa7ae4b1b238854", "is_reserved": 0, "rental_uris": {"android": "https://dc.lft.to/lastmile_qr_scan", "ios": "https://dc.lft.to/lastmile_qr_scan"}, "fusion_lon": 0.0}, {"lat": 38.91179833333333, "is_disabled": 0, "type": "electric_scooter", "lon": -77.00643583333333, "bike_id": "9797a27b5de3697ad4553ffe73711165", "fusion_lat": 0.0, "name": "9797a27b5de3697ad4553ffe73711165", "is_reserved": 0, "rental_uris": {"android": "https://dc.lft.to/lastmile_qr_scan", "ios": "https://dc.lft.to/lastmile_qr_scan"}, "fusion_lon": 0.0}, {"lat": 38.9278055, "is_disabled": 0, "type": "electric_scooter", "lon": -77.03198183333333, "bike_id": "9c49afab95a996a113f2f57e0557434b", "fusion_lat": 0.0, "name": "9c49afab95a996a113f2f57e0557434b", "is_reserved": 0, "rental_uris": {"android": "https://dc.lft.to/lastmile_qr_scan", "ios": "https://dc.lft.to/lastmile_qr_scan"}, "fusion_lon": 0.0}, {"lat": 38.90310566666667, "is_disabled": 0, "type": "electric_scooter", "lon": -77.06300733333333, "bike_id": "d0d62a892f8ac1af2a5562c5bfd8fba5", "fusion_lat": 0.0, "name": "d0d62a892f8ac1af2a5562c5bfd8fba5", "is_reserved": 0, "rental_uris": {"android": "https://dc.lft.to/lastmile_qr_scan", "ios": "https://dc.lft.to/lastmile_qr_scan"}, "fusion_lon": 0.0}, {"lat": 38.911226166666665, "is_disabled": 0, "type": "electric_scooter", "lon": -77.0384415, "bike_id": "e434a07a93f30803d7e3c7297fa42c71", "fusion_lat": 0.0, "name": "e434a07a93f30803d7e3c7297fa42c71", "is_reserved": 0, "rental_uris": {"android": "https://dc.lft.to/lastmile_qr_scan", "ios": "https://dc.lft.to/lastmile_qr_scan"}, "fusion_lon": 0.0}, {"lat": 38.855162, "is_disabled": 0, "type": "electric_bike", "lon": -76.98422933333333, "bike_id": "d782ffac27f7c0078c3c42c53d5f1b01", "fusion_lat": 0.0, "name": "d782ffac27f7c0078c3c42c53d5f1b01", "is_reserved": 0, "rental_uris": {"android": "https://dc.lft.to/lastmile_qr_scan", "ios": "https://dc.lft.to/lastmile_qr_scan"}, "fusion_lon": 0.0}, {"lat": 38.934196166666666, "is_disabled": 0, "type": "electric_scooter", "lon": -77.0555225, "bike_id": "41a9188b9e3d3a9c0673e180f7460b7b", "fusion_lat": 0.0, "name": "41a9188b9e3d3a9c0673e180f7460b7b", "is_reserved": 0, "rental_uris": {"android": "https://dc.lft.to/lastmile_qr_scan", "ios": "https://dc.lft.to/lastmile_qr_scan"}, "fusion_lon": 0.0}, {"lat": 38.9111025, "is_disabled": 0, "type": "electric_scooter", "lon": -77.04812666666666, "bike_id": "938ccd24d03c3ad0d75b1e75b4c1db28", "fusion_lat": 0.0, "name": "938ccd24d03c3ad0d75b1e75b4c1db28", "is_reserved": 0, "rental_uris": {"android": "https://dc.lft.to/lastmile_qr_scan", "ios": "https://dc.lft.to/lastmile_qr_scan"}, "fusion_lon": 0.0}, {"lat": 38.918071833333336, "is_disabled": 0, "type": "electric_scooter", "lon": -77.03670383333333, "bike_id": "a5405ea23ba727d31cd65ffa046908af", "fusion_lat": 0.0, "name": "a5405ea23ba727d31cd65ffa046908af", "is_reserved": 0, "rental_uris": {"android": "https://dc.lft.to/lastmile_qr_scan", "ios": "https://dc.lft.to/lastmile_qr_scan"}, "fusion_lon": 0.0}, {"lat": 38.91115816666667, "is_disabled": 0, "type": "electric_scooter", "lon": -77.0201695, "bike_id": "e42b904226bc097ca738911a0ba595f9", "fusion_lat": 0.0, "name": "e42b904226bc097ca738911a0ba595f9", "is_reserved": 0, "rental_uris": {"android": "https://dc.lft.to/lastmile_qr_scan", "ios": "https://dc.lft.to/lastmile_qr_scan"}, "fusion_lon": 0.0}, {"lat": 38.813485166666666, "is_disabled": 0, "type": "electric_bike", "lon": -77.04925066666667, "bike_id": "c3ce088bcc36d10a2a951e7e936b7b30", "fusion_lat": 0.0, "name": "c3ce088bcc36d10a2a951e7e936b7b30", "is_reserved": 0, "rental_uris": {"android": "https://dc.lft.to/lastmile_qr_scan", "ios": "https://dc.lft.to/lastmile_qr_scan"}, "fusion_lon": 0.0}, {"lat": 38.908575, "is_disabled": 0, "type": "electric_scooter", "lon": -77.04297533333333, "bike_id": "e634a754950ba708f4e7ddefb5ce6717", "fusion_lat": 0.0, "name": "e634a754950ba708f4e7ddefb5ce6717", "is_reserved": 0, "rental_uris": {"android": "https://dc.lft.to/lastmile_qr_scan", "ios": "https://dc.lft.to/lastmile_qr_scan"}, "fusion_lon": 0.0}, {"lat": 38.9148375, "is_disabled": 0, "type": "electric_scooter", "lon": -77.01375633333333, "bike_id": "be669c4fb6897e1deaee3a0dbedd8f87", "fusion_lat": 0.0, "name": "be669c4fb6897e1deaee3a0dbedd8f87", "is_reserved": 0, "rental_uris": {"android": "https://dc.lft.to/lastmile_qr_scan", "ios": "https://dc.lft.to/lastmile_qr_scan"}, "fusion_lon": 0.0}, {"lat": 38.90034133333333, "is_disabled": 0, "type": "electric_scooter", "lon": -77.0019945, "bike_id": "e96d017312ca928e6917959d4a806c9a", "fusion_lat": 0.0, "name": "e96d017312ca928e6917959d4a806c9a", "is_reserved": 0, "rental_uris": {"android": "https://dc.lft.to/lastmile_qr_scan", "ios": "https://dc.lft.to/lastmile_qr_scan"}, "fusion_lon": 0.0}, {"lat": 38.92476083333333, "is_disabled": 0, "type": "electric_scooter", "lon": -77.0351035, "bike_id": "6c999784f3d1d62eea902a03ab3f17f0", "fusion_lat": 0.0, "name": "6c999784f3d1d62eea902a03ab3f17f0", "is_reserved": 0, "rental_uris": {"android": "https://dc.lft.to/lastmile_qr_scan", "ios": "https://dc.lft.to/lastmile_qr_scan"}, "fusion_lon": 0.0}, {"lat": 38.89850066666666, "is_disabled": 0, "type": "electric_scooter", "lon": -76.9764785, "bike_id": "3d08088cf7bd7a1e5c00dbc194d079b2", "fusion_lat": 0.0, "name": "3d08088cf7bd7a1e5c00dbc194d079b2", "is_reserved": 0, "rental_uris": {"android": "https://dc.lft.to/lastmile_qr_scan", "ios": "https://dc.lft.to/lastmile_qr_scan"}, "fusion_lon": 0.0}, {"lat": 38.9336375, "is_disabled": 0, "type": "electric_scooter", "lon": -77.05719533333334, "bike_id": "7bb205b9410e859d72f430f18d873887", "fusion_lat": 0.0, "name": "7bb205b9410e859d72f430f18d873887", "is_reserved": 0, "rental_uris": {"android": "https://dc.lft.to/lastmile_qr_scan", "ios": "https://dc.lft.to/lastmile_qr_scan"}, "fusion_lon": 0.0}, {"lat": 38.93875466666667, "is_disabled": 0, "type": "electric_scooter", "lon": -77.03260666666667, "bike_id": "726ff77769bb428bd83ddf0fd0a7c025", "fusion_lat": 0.0, "name": "726ff77769bb428bd83ddf0fd0a7c025", "is_reserved": 0, "rental_uris": {"android": "https://dc.lft.to/lastmile_qr_scan", "ios": "https://dc.lft.to/lastmile_qr_scan"}, "fusion_lon": 0.0}, {"lat": 38.9232675, "is_disabled": 0, "type": "electric_scooter", "lon": -77.02964533333333, "bike_id": "8edd054ceadc69bd2660a72545826772", "fusion_lat": 0.0, "name": "8edd054ceadc69bd2660a72545826772", "is_reserved": 0, "rental_uris": {"android": "https://dc.lft.to/lastmile_qr_scan", "ios": "https://dc.lft.to/lastmile_qr_scan"}, "fusion_lon": 0.0}, {"lat": 38.91553666666667, "is_disabled": 0, "type": "electric_scooter", "lon": -77.03499283333333, "bike_id": "9ae776fc335921de2be25f9549b8594e", "fusion_lat": 0.0, "name": "9ae776fc335921de2be25f9549b8594e", "is_reserved": 0, "rental_uris": {"android": "https://dc.lft.to/lastmile_qr_scan", "ios": "https://dc.lft.to/lastmile_qr_scan"}, "fusion_lon": 0.0}, {"lat": 38.916995666666665, "is_disabled": 0, "type": "electric_scooter", "lon": -77.04688316666666, "bike_id": "a4dea7cad56de3b89ba2f1e5c3ab5afb", "fusion_lat": 0.0, "name": "a4dea7cad56de3b89ba2f1e5c3ab5afb", "is_reserved": 0, "rental_uris": {"android": "https://dc.lft.to/lastmile_qr_scan", "ios": "https://dc.lft.to/lastmile_qr_scan"}, "fusion_lon": 0.0}, {"lat": 38.92663533333333, "is_disabled": 0, "type": "electric_scooter", "lon": -77.05594233333333, "bike_id": "37933f3bc862c5440d6e3711672521a0", "fusion_lat": 0.0, "name": "37933f3bc862c5440d6e3711672521a0", "is_reserved": 0, "rental_uris": {"android": "https://dc.lft.to/lastmile_qr_scan", "ios": "https://dc.lft.to/lastmile_qr_scan"}, "fusion_lon": 0.0}, {"lat": 38.902662166666666, "is_disabled": 0, "type": "electric_scooter", "lon": -77.043803, "bike_id": "b33c59b3ea38edd194cd52100419ed09", "fusion_lat": 0.0, "name": "b33c59b3ea38edd194cd52100419ed09", "is_reserved": 0, "rental_uris": {"android": "https://dc.lft.to/lastmile_qr_scan", "ios": "https://dc.lft.to/lastmile_qr_scan"}, "fusion_lon": 0.0}, {"lat": 38.9212215, "is_disabled": 0, "type": "electric_scooter", "lon": -77.03181633333334, "bike_id": "97e7f240e7973a7128518cc4d8827da4", "fusion_lat": 0.0, "name": "97e7f240e7973a7128518cc4d8827da4", "is_reserved": 0, "rental_uris": {"android": "https://dc.lft.to/lastmile_qr_scan", "ios": "https://dc.lft.to/lastmile_qr_scan"}, "fusion_lon": 0.0}, {"lat": 38.9500095, "is_disabled": 0, "type": "electric_scooter", "lon": -77.06675433333334, "bike_id": "c842b27c53d2caf6a33ef280f4851429", "fusion_lat": 0.0, "name": "c842b27c53d2caf6a33ef280f4851429", "is_reserved": 0, "rental_uris": {"android": "https://dc.lft.to/lastmile_qr_scan", "ios": "https://dc.lft.to/lastmile_qr_scan"}, "fusion_lon": 0.0}, {"lat": 38.931973666666664, "is_disabled": 0, "type": "electric_scooter", "lon": -77.02353666666667, "bike_id": "d969810b2ca1057ad7200dbbe64a6790", "fusion_lat": 0.0, "name": "d969810b2ca1057ad7200dbbe64a6790", "is_reserved": 0, "rental_uris": {"android": "https://dc.lft.to/lastmile_qr_scan", "ios": "https://dc.lft.to/lastmile_qr_scan"}, "fusion_lon": 0.0}, {"lat": 38.913456333333336, "is_disabled": 0, "type": "electric_scooter", "lon": -77.03190716666667, "bike_id": "5180a83116e20299b34e51cd73be05b2", "fusion_lat": 0.0, "name": "5180a83116e20299b34e51cd73be05b2", "is_reserved": 0, "rental_uris": {"android": "https://dc.lft.to/lastmile_qr_scan", "ios": "https://dc.lft.to/lastmile_qr_scan"}, "fusion_lon": 0.0}, {"lat": 38.935364166666666, "is_disabled": 0, "type": "electric_scooter", "lon": -77.0340085, "bike_id": "d81f4f44d1db1ab5751e3b86a19129cd", "fusion_lat": 0.0, "name": "d81f4f44d1db1ab5751e3b86a19129cd", "is_reserved": 0, "rental_uris": {"android": "https://dc.lft.to/lastmile_qr_scan", "ios": "https://dc.lft.to/lastmile_qr_scan"}, "fusion_lon": 0.0}, {"lat": 38.91813916666667, "is_disabled": 0, "type": "electric_scooter", "lon": -77.0417835, "bike_id": "d0525fe3994152e58227f4d23d828dee", "fusion_lat": 0.0, "name": "d0525fe3994152e58227f4d23d828dee", "is_reserved": 0, "rental_uris": {"android": "https://dc.lft.to/lastmile_qr_scan", "ios": "https://dc.lft.to/lastmile_qr_scan"}, "fusion_lon": 0.0}, {"lat": 38.926104, "is_disabled": 0, "type": "electric_bike", "lon": -77.02431066666666, "bike_id": "a4aa30ba693da4acd35aba184d9ae1c7", "fusion_lat": 0.0, "name": "a4aa30ba693da4acd35aba184d9ae1c7", "is_reserved": 0, "rental_uris": {"android": "https://dc.lft.to/lastmile_qr_scan", "ios": "https://dc.lft.to/lastmile_qr_scan"}, "fusion_lon": 0.0}, {"lat": 38.91710233333333, "is_disabled": 0, "type": "electric_scooter", "lon": -77.03975933333334, "bike_id": "fbe25f67cb77d8c6496e4a17ea06b16d", "fusion_lat": 0.0, "name": "fbe25f67cb77d8c6496e4a17ea06b16d", "is_reserved": 0, "rental_uris": {"android": "https://dc.lft.to/lastmile_qr_scan", "ios": "https://dc.lft.to/lastmile_qr_scan"}, "fusion_lon": 0.0}, {"lat": 38.91464716666667, "is_disabled": 0, "type": "electric_scooter", "lon": -77.032156, "bike_id": "e55aa8209b3b86804829d5718af04707", "fusion_lat": 0.0, "name": "e55aa8209b3b86804829d5718af04707", "is_reserved": 0, "rental_uris": {"android": "https://dc.lft.to/lastmile_qr_scan", "ios": "https://dc.lft.to/lastmile_qr_scan"}, "fusion_lon": 0.0}, {"lat": 38.87681466666667, "is_disabled": 0, "type": "electric_scooter", "lon": -77.01791483333334, "bike_id": "aa1226a3d067dab5e2c7251c32750262", "fusion_lat": 0.0, "name": "aa1226a3d067dab5e2c7251c32750262", "is_reserved": 0, "rental_uris": {"android": "https://dc.lft.to/lastmile_qr_scan", "ios": "https://dc.lft.to/lastmile_qr_scan"}, "fusion_lon": 0.0}, {"lat": 38.895590166666665, "is_disabled": 0, "type": "electric_scooter", "lon": -76.93376433333333, "bike_id": "86c625202bfe2b293248a42df3940020", "fusion_lat": 0.0, "name": "86c625202bfe2b293248a42df3940020", "is_reserved": 0, "rental_uris": {"android": "https://dc.lft.to/lastmile_qr_scan", "ios": "https://dc.lft.to/lastmile_qr_scan"}, "fusion_lon": 0.0}, {"lat": 38.921576333333334, "is_disabled": 0, "type": "electric_scooter", "lon": -77.035154, "bike_id": "f6c1ed8a46b2d9de93e9ddfe2f52023d", "fusion_lat": 0.0, "name": "f6c1ed8a46b2d9de93e9ddfe2f52023d", "is_reserved": 0, "rental_uris": {"android": "https://dc.lft.to/lastmile_qr_scan", "ios": "https://dc.lft.to/lastmile_qr_scan"}, "fusion_lon": 0.0}, {"lat": 38.955595, "is_disabled": 0, "type": "electric_scooter", "lon": -77.02242933333333, "bike_id": "edc6589011a282f5c83b47047b6bc085", "fusion_lat": 0.0, "name": "edc6589011a282f5c83b47047b6bc085", "is_reserved": 0, "rental_uris": {"android": "https://dc.lft.to/lastmile_qr_scan", "ios": "https://dc.lft.to/lastmile_qr_scan"}, "fusion_lon": 0.0}, {"lat": 38.90721, "is_disabled": 0, "type": "electric_scooter", "lon": -77.03447333333334, "bike_id": "e0f29bf6aee86e2943a5d3d4ce71cb42", "fusion_lat": 0.0, "name": "e0f29bf6aee86e2943a5d3d4ce71cb42", "is_reserved": 0, "rental_uris": {"android": "https://dc.lft.to/lastmile_qr_scan", "ios": "https://dc.lft.to/lastmile_qr_scan"}, "fusion_lon": 0.0}, {"lat": 38.9076465, "is_disabled": 0, "type": "electric_scooter", "lon": -76.98311616666666, "bike_id": "ec08f86ff13f7f256a5f4a005e1d553b", "fusion_lat": 0.0, "name": "ec08f86ff13f7f256a5f4a005e1d553b", "is_reserved": 0, "rental_uris": {"android": "https://dc.lft.to/lastmile_qr_scan", "ios": "https://dc.lft.to/lastmile_qr_scan"}, "fusion_lon": 0.0}, {"lat": 38.859293, "is_disabled": 0, "type": "electric_scooter", "lon": -76.997047, "bike_id": "079be5caf5081c52ed128d6e3c0b89f4", "fusion_lat": 0.0, "name": "079be5caf5081c52ed128d6e3c0b89f4", "is_reserved": 0, "rental_uris": {"android": "https://dc.lft.to/lastmile_qr_scan", "ios": "https://dc.lft.to/lastmile_qr_scan"}, "fusion_lon": 0.0}, {"lat": 38.91847383333333, "is_disabled": 0, "type": "electric_scooter", "lon": -77.02290733333334, "bike_id": "e8b7c7bb649afbff0bbb7b6be747a00f", "fusion_lat": 0.0, "name": "e8b7c7bb649afbff0bbb7b6be747a00f", "is_reserved": 0, "rental_uris": {"android": "https://dc.lft.to/lastmile_qr_scan", "ios": "https://dc.lft.to/lastmile_qr_scan"}, "fusion_lon": 0.0}, {"lat": 38.905007166666664, "is_disabled": 0, "type": "electric_scooter", "lon": -77.02951283333333, "bike_id": "872136f088f39f81ef34a7d777525957", "fusion_lat": 0.0, "name": "872136f088f39f81ef34a7d777525957", "is_reserved": 0, "rental_uris": {"android": "https://dc.lft.to/lastmile_qr_scan", "ios": "https://dc.lft.to/lastmile_qr_scan"}, "fusion_lon": 0.0}, {"lat": 38.902238833333335, "is_disabled": 0, "type": "electric_scooter", "lon": -77.04870166666667, "bike_id": "77645dfdcc439a23040d94b0787d2082", "fusion_lat": 0.0, "name": "77645dfdcc439a23040d94b0787d2082", "is_reserved": 0, "rental_uris": {"android": "https://dc.lft.to/lastmile_qr_scan", "ios": "https://dc.lft.to/lastmile_qr_scan"}, "fusion_lon": 0.0}, {"lat": 38.93397616666667, "is_disabled": 0, "type": "electric_scooter", "lon": -77.041281, "bike_id": "69c9378cba4a540fdc29ea86bb76f132", "fusion_lat": 0.0, "name": "69c9378cba4a540fdc29ea86bb76f132", "is_reserved": 0, "rental_uris": {"android": "https://dc.lft.to/lastmile_qr_scan", "ios": "https://dc.lft.to/lastmile_qr_scan"}, "fusion_lon": 0.0}, {"lat": 38.960938666666664, "is_disabled": 0, "type": "electric_scooter", "lon": -77.082857, "bike_id": "0610c5d8a82cd97562d59c3d4bdd1e36", "fusion_lat": 0.0, "name": "0610c5d8a82cd97562d59c3d4bdd1e36", "is_reserved": 0, "rental_uris": {"android": "https://dc.lft.to/lastmile_qr_scan", "ios": "https://dc.lft.to/lastmile_qr_scan"}, "fusion_lon": 0.0}, {"lat": 38.934875166666664, "is_disabled": 0, "type": "electric_scooter", "lon": -77.07273983333333, "bike_id": "e23efb55694f745d0b0183e622cd6feb", "fusion_lat": 0.0, "name": "e23efb55694f745d0b0183e622cd6feb", "is_reserved": 0, "rental_uris": {"android": "https://dc.lft.to/lastmile_qr_scan", "ios": "https://dc.lft.to/lastmile_qr_scan"}, "fusion_lon": 0.0}, {"lat": 38.92105566666667, "is_disabled": 0, "type": "electric_bike", "lon": -77.03936266666666, "bike_id": "95304da1c7040f713f10926030e3c3c3", "fusion_lat": 0.0, "name": "95304da1c7040f713f10926030e3c3c3", "is_reserved": 0, "rental_uris": {"android": "https://dc.lft.to/lastmile_qr_scan", "ios": "https://dc.lft.to/lastmile_qr_scan"}, "fusion_lon": 0.0}, {"lat": 38.9221835, "is_disabled": 0, "type": "electric_scooter", "lon": -77.032929, "bike_id": "200979fcace166c90a0771d81cf6b012", "fusion_lat": 0.0, "name": "200979fcace166c90a0771d81cf6b012", "is_reserved": 0, "rental_uris": {"android": "https://dc.lft.to/lastmile_qr_scan", "ios": "https://dc.lft.to/lastmile_qr_scan"}, "fusion_lon": 0.0}, {"lat": 38.880207, "is_disabled": 0, "type": "electric_scooter", "lon": -76.96013433333333, "bike_id": "59e73b5098aa478c05335cc529d5b619", "fusion_lat": 0.0, "name": "59e73b5098aa478c05335cc529d5b619", "is_reserved": 0, "rental_uris": {"android": "https://dc.lft.to/lastmile_qr_scan", "ios": "https://dc.lft.to/lastmile_qr_scan"}, "fusion_lon": 0.0}, {"lat": 38.92829716666667, "is_disabled": 0, "type": "electric_scooter", "lon": -77.05442583333334, "bike_id": "055bf0b1ed50faa9866f6bd598eb1fd3", "fusion_lat": 0.0, "name": "055bf0b1ed50faa9866f6bd598eb1fd3", "is_reserved": 0, "rental_uris": {"android": "https://dc.lft.to/lastmile_qr_scan", "ios": "https://dc.lft.to/lastmile_qr_scan"}, "fusion_lon": 0.0}, {"lat": 38.86648666666667, "is_disabled": 0, "type": "electric_scooter", "lon": -76.98893316666667, "bike_id": "3e21437039610a49294dbfbd821bda6d", "fusion_lat": 0.0, "name": "3e21437039610a49294dbfbd821bda6d", "is_reserved": 0, "rental_uris": {"android": "https://dc.lft.to/lastmile_qr_scan", "ios": "https://dc.lft.to/lastmile_qr_scan"}, "fusion_lon": 0.0}, {"lat": 38.91750833333333, "is_disabled": 0, "type": "electric_scooter", "lon": -77.04162033333333, "bike_id": "02350c88e8b70587d7350cea38c104e8", "fusion_lat": 0.0, "name": "02350c88e8b70587d7350cea38c104e8", "is_reserved": 0, "rental_uris": {"android": "https://dc.lft.to/lastmile_qr_scan", "ios": "https://dc.lft.to/lastmile_qr_scan"}, "fusion_lon": 0.0}, {"lat": 38.93863433333333, "is_disabled": 0, "type": "electric_scooter", "lon": -77.03087183333334, "bike_id": "e277391b854c1f1568f8f70a95d185de", "fusion_lat": 0.0, "name": "e277391b854c1f1568f8f70a95d185de", "is_reserved": 0, "rental_uris": {"android": "https://dc.lft.to/lastmile_qr_scan", "ios": "https://dc.lft.to/lastmile_qr_scan"}, "fusion_lon": 0.0}, {"lat": 38.921978, "is_disabled": 0, "type": "electric_scooter", "lon": -77.04229733333334, "bike_id": "48adf06bb212ad4d28e9e5fcec885eed", "fusion_lat": 0.0, "name": "48adf06bb212ad4d28e9e5fcec885eed", "is_reserved": 0, "rental_uris": {"android": "https://dc.lft.to/lastmile_qr_scan", "ios": "https://dc.lft.to/lastmile_qr_scan"}, "fusion_lon": 0.0}, {"lat": 38.900315166666665, "is_disabled": 0, "type": "electric_scooter", "lon": -76.98981466666666, "bike_id": "7e3bd303c259b4d054344d095a6faf3d", "fusion_lat": 0.0, "name": "7e3bd303c259b4d054344d095a6faf3d", "is_reserved": 0, "rental_uris": {"android": "https://dc.lft.to/lastmile_qr_scan", "ios": "https://dc.lft.to/lastmile_qr_scan"}, "fusion_lon": 0.0}, {"lat": 38.938728833333336, "is_disabled": 0, "type": "electric_scooter", "lon": -77.0312725, "bike_id": "42417b3d864f70d80dd7a95c617204fd", "fusion_lat": 0.0, "name": "42417b3d864f70d80dd7a95c617204fd", "is_reserved": 0, "rental_uris": {"android": "https://dc.lft.to/lastmile_qr_scan", "ios": "https://dc.lft.to/lastmile_qr_scan"}, "fusion_lon": 0.0}, {"lat": 38.9237155, "is_disabled": 0, "type": "electric_scooter", "lon": -77.05131083333333, "bike_id": "a513f7906673cf398894f47596188d03", "fusion_lat": 0.0, "name": "a513f7906673cf398894f47596188d03", "is_reserved": 0, "rental_uris": {"android": "https://dc.lft.to/lastmile_qr_scan", "ios": "https://dc.lft.to/lastmile_qr_scan"}, "fusion_lon": 0.0}, {"lat": 38.90072766666667, "is_disabled": 0, "type": "electric_scooter", "lon": -77.00216116666667, "bike_id": "98c7201e4f767a5df3e68f7f2394958d", "fusion_lat": 0.0, "name": "98c7201e4f767a5df3e68f7f2394958d", "is_reserved": 0, "rental_uris": {"android": "https://dc.lft.to/lastmile_qr_scan", "ios": "https://dc.lft.to/lastmile_qr_scan"}, "fusion_lon": 0.0}, {"lat": 39.00472083333333, "is_disabled": 0, "type": "electric_bike", "lon": -76.90136133333333, "bike_id": "6f90dcf8716f7486165d29b11975cae7", "fusion_lat": 0.0, "name": "6f90dcf8716f7486165d29b11975cae7", "is_reserved": 0, "rental_uris": {"android": "https://dc.lft.to/lastmile_qr_scan", "ios": "https://dc.lft.to/lastmile_qr_scan"}, "fusion_lon": 0.0}, {"lat": 38.9315875, "is_disabled": 0, "type": "electric_scooter", "lon": -77.0363325, "bike_id": "3601364ea06a5e44bca30a142838dce1", "fusion_lat": 0.0, "name": "3601364ea06a5e44bca30a142838dce1", "is_reserved": 0, "rental_uris": {"android": "https://dc.lft.to/lastmile_qr_scan", "ios": "https://dc.lft.to/lastmile_qr_scan"}, "fusion_lon": 0.0}, {"lat": 38.8921495, "is_disabled": 0, "type": "electric_scooter", "lon": -77.03163766666667, "bike_id": "1d8c0e9011c05e4898a04ad63fa9045a", "fusion_lat": 0.0, "name": "1d8c0e9011c05e4898a04ad63fa9045a", "is_reserved": 0, "rental_uris": {"android": "https://dc.lft.to/lastmile_qr_scan", "ios": "https://dc.lft.to/lastmile_qr_scan"}, "fusion_lon": 0.0}, {"lat": 38.930119166666664, "is_disabled": 0, "type": "electric_scooter", "lon": -77.0445975, "bike_id": "c35c3ab07d26d71010b12110f286bd0d", "fusion_lat": 0.0, "name": "c35c3ab07d26d71010b12110f286bd0d", "is_reserved": 0, "rental_uris": {"android": "https://dc.lft.to/lastmile_qr_scan", "ios": "https://dc.lft.to/lastmile_qr_scan"}, "fusion_lon": 0.0}, {"lat": 38.828729333333335, "is_disabled": 0, "type": "electric_bike", "lon": -77.11219266666667, "bike_id": "30e57a6db099899d17dcafa7520e1c73", "fusion_lat": 0.0, "name": "30e57a6db099899d17dcafa7520e1c73", "is_reserved": 0, "rental_uris": {"android": "https://dc.lft.to/lastmile_qr_scan", "ios": "https://dc.lft.to/lastmile_qr_scan"}, "fusion_lon": 0.0}, {"lat": 38.9249905, "is_disabled": 0, "type": "electric_scooter", "lon": -77.05214966666666, "bike_id": "d3e6104be5456ead00324dab1d266757", "fusion_lat": 0.0, "name": "d3e6104be5456ead00324dab1d266757", "is_reserved": 0, "rental_uris": {"android": "https://dc.lft.to/lastmile_qr_scan", "ios": "https://dc.lft.to/lastmile_qr_scan"}, "fusion_lon": 0.0}, {"lat": 38.90990383333333, "is_disabled": 0, "type": "electric_scooter", "lon": -76.9974005, "bike_id": "0b960754c6a9775e8210f5b705cdbe95", "fusion_lat": 0.0, "name": "0b960754c6a9775e8210f5b705cdbe95", "is_reserved": 0, "rental_uris": {"android": "https://dc.lft.to/lastmile_qr_scan", "ios": "https://dc.lft.to/lastmile_qr_scan"}, "fusion_lon": 0.0}, {"lat": 38.902494, "is_disabled": 0, "type": "electric_scooter", "lon": -77.01793533333333, "bike_id": "0d592cff661eb9e22ccb95e9501b8db9", "fusion_lat": 0.0, "name": "0d592cff661eb9e22ccb95e9501b8db9", "is_reserved": 0, "rental_uris": {"android": "https://dc.lft.to/lastmile_qr_scan", "ios": "https://dc.lft.to/lastmile_qr_scan"}, "fusion_lon": 0.0}, {"lat": 38.9239515, "is_disabled": 0, "type": "electric_scooter", "lon": -77.03227316666667, "bike_id": "85b218b1817d5a710d7153c6539727bf", "fusion_lat": 0.0, "name": "85b218b1817d5a710d7153c6539727bf", "is_reserved": 0, "rental_uris": {"android": "https://dc.lft.to/lastmile_qr_scan", "ios": "https://dc.lft.to/lastmile_qr_scan"}, "fusion_lon": 0.0}, {"lat": 38.899489833333334, "is_disabled": 0, "type": "electric_scooter", "lon": -77.05175966666667, "bike_id": "79352b48d45fcf3e76d9220fc01d7f91", "fusion_lat": 0.0, "name": "79352b48d45fcf3e76d9220fc01d7f91", "is_reserved": 0, "rental_uris": {"android": "https://dc.lft.to/lastmile_qr_scan", "ios": "https://dc.lft.to/lastmile_qr_scan"}, "fusion_lon": 0.0}, {"lat": 38.90495966666667, "is_disabled": 0, "type": "electric_scooter", "lon": -77.04875566666666, "bike_id": "e5800f6c67fb053c9c4ab96107a6bdc5", "fusion_lat": 0.0, "name": "e5800f6c67fb053c9c4ab96107a6bdc5", "is_reserved": 0, "rental_uris": {"android": "https://dc.lft.to/lastmile_qr_scan", "ios": "https://dc.lft.to/lastmile_qr_scan"}, "fusion_lon": 0.0}, {"lat": 38.86510366666667, "is_disabled": 0, "type": "electric_scooter", "lon": -76.99005266666667, "bike_id": "2642b99f64e136dfc2767a67eb7e3d85", "fusion_lat": 0.0, "name": "2642b99f64e136dfc2767a67eb7e3d85", "is_reserved": 0, "rental_uris": {"android": "https://dc.lft.to/lastmile_qr_scan", "ios": "https://dc.lft.to/lastmile_qr_scan"}, "fusion_lon": 0.0}, {"lat": 38.9000465, "is_disabled": 0, "type": "electric_scooter", "lon": -77.006592, "bike_id": "9494553604f4096b5d6f115420bf14de", "fusion_lat": 0.0, "name": "9494553604f4096b5d6f115420bf14de", "is_reserved": 0, "rental_uris": {"android": "https://dc.lft.to/lastmile_qr_scan", "ios": "https://dc.lft.to/lastmile_qr_scan"}, "fusion_lon": 0.0}, {"lat": 38.9417575, "is_disabled": 0, "type": "electric_scooter", "lon": -77.025019, "bike_id": "3a8be8ad1e1e5a71347392386049f13a", "fusion_lat": 0.0, "name": "3a8be8ad1e1e5a71347392386049f13a", "is_reserved": 0, "rental_uris": {"android": "https://dc.lft.to/lastmile_qr_scan", "ios": "https://dc.lft.to/lastmile_qr_scan"}, "fusion_lon": 0.0}, {"lat": 38.892257, "is_disabled": 0, "type": "electric_scooter", "lon": -76.93300733333334, "bike_id": "da7b9b9d940c4a04b648e28a57fb0652", "fusion_lat": 0.0, "name": "da7b9b9d940c4a04b648e28a57fb0652", "is_reserved": 0, "rental_uris": {"android": "https://dc.lft.to/lastmile_qr_scan", "ios": "https://dc.lft.to/lastmile_qr_scan"}, "fusion_lon": 0.0}, {"lat": 38.913544333333334, "is_disabled": 0, "type": "electric_scooter", "lon": -77.033647, "bike_id": "c5cb130f33bdb8bd61e71ea460ea66e2", "fusion_lat": 0.0, "name": "c5cb130f33bdb8bd61e71ea460ea66e2", "is_reserved": 0, "rental_uris": {"android": "https://dc.lft.to/lastmile_qr_scan", "ios": "https://dc.lft.to/lastmile_qr_scan"}, "fusion_lon": 0.0}, {"lat": 38.900930833333334, "is_disabled": 0, "type": "electric_scooter", "lon": -77.05603533333333, "bike_id": "aca743f212bba8a3708e002e2968ae99", "fusion_lat": 0.0, "name": "aca743f212bba8a3708e002e2968ae99", "is_reserved": 0, "rental_uris": {"android": "https://dc.lft.to/lastmile_qr_scan", "ios": "https://dc.lft.to/lastmile_qr_scan"}, "fusion_lon": 0.0}, {"lat": 38.902249166666664, "is_disabled": 0, "type": "electric_scooter", "lon": -77.0590555, "bike_id": "3a3b1db8196481d2a9f635f32e9dbce1", "fusion_lat": 0.0, "name": "3a3b1db8196481d2a9f635f32e9dbce1", "is_reserved": 0, "rental_uris": {"android": "https://dc.lft.to/lastmile_qr_scan", "ios": "https://dc.lft.to/lastmile_qr_scan"}, "fusion_lon": 0.0}, {"lat": 38.9174425, "is_disabled": 0, "type": "electric_scooter", "lon": -77.03596716666667, "bike_id": "0cdd741e9f5ec424a24bb92e70a361be", "fusion_lat": 0.0, "name": "0cdd741e9f5ec424a24bb92e70a361be", "is_reserved": 0, "rental_uris": {"android": "https://dc.lft.to/lastmile_qr_scan", "ios": "https://dc.lft.to/lastmile_qr_scan"}, "fusion_lon": 0.0}, {"lat": 38.89221366666666, "is_disabled": 0, "type": "electric_scooter", "lon": -77.02212683333333, "bike_id": "adfeb9905f2eea5f9c9ef003ae311258", "fusion_lat": 0.0, "name": "adfeb9905f2eea5f9c9ef003ae311258", "is_reserved": 0, "rental_uris": {"android": "https://dc.lft.to/lastmile_qr_scan", "ios": "https://dc.lft.to/lastmile_qr_scan"}, "fusion_lon": 0.0}, {"lat": 38.909504166666665, "is_disabled": 0, "type": "electric_scooter", "lon": -77.03447616666666, "bike_id": "3772895c07147c8201860fdd44987151", "fusion_lat": 0.0, "name": "3772895c07147c8201860fdd44987151", "is_reserved": 0, "rental_uris": {"android": "https://dc.lft.to/lastmile_qr_scan", "ios": "https://dc.lft.to/lastmile_qr_scan"}, "fusion_lon": 0.0}, {"lat": 38.916177833333336, "is_disabled": 0, "type": "electric_scooter", "lon": -77.03201933333334, "bike_id": "96ca8d19df04f3f3c916ee826cfa352e", "fusion_lat": 0.0, "name": "96ca8d19df04f3f3c916ee826cfa352e", "is_reserved": 0, "rental_uris": {"android": "https://dc.lft.to/lastmile_qr_scan", "ios": "https://dc.lft.to/lastmile_qr_scan"}, "fusion_lon": 0.0}, {"lat": 38.91566383333333, "is_disabled": 0, "type": "electric_scooter", "lon": -77.02293266666666, "bike_id": "e00d52806d76fdadbb04758894abcbfb", "fusion_lat": 0.0, "name": "e00d52806d76fdadbb04758894abcbfb", "is_reserved": 0, "rental_uris": {"android": "https://dc.lft.to/lastmile_qr_scan", "ios": "https://dc.lft.to/lastmile_qr_scan"}, "fusion_lon": 0.0}, {"lat": 38.926146333333335, "is_disabled": 0, "type": "electric_scooter", "lon": -76.99599883333333, "bike_id": "e0bb4fe97e1d9be4839f5460ae2b0f08", "fusion_lat": 0.0, "name": "e0bb4fe97e1d9be4839f5460ae2b0f08", "is_reserved": 0, "rental_uris": {"android": "https://dc.lft.to/lastmile_qr_scan", "ios": "https://dc.lft.to/lastmile_qr_scan"}, "fusion_lon": 0.0}, {"lat": 38.91557666666667, "is_disabled": 0, "type": "electric_scooter", "lon": -77.03864583333333, "bike_id": "b062bdf9682f8ce68696960bc048f169", "fusion_lat": 0.0, "name": "b062bdf9682f8ce68696960bc048f169", "is_reserved": 0, "rental_uris": {"android": "https://dc.lft.to/lastmile_qr_scan", "ios": "https://dc.lft.to/lastmile_qr_scan"}, "fusion_lon": 0.0}, {"lat": 38.89222766666666, "is_disabled": 0, "type": "electric_scooter", "lon": -77.0278325, "bike_id": "a8e8d125c0df1905ebf291a841ab546d", "fusion_lat": 0.0, "name": "a8e8d125c0df1905ebf291a841ab546d", "is_reserved": 0, "rental_uris": {"android": "https://dc.lft.to/lastmile_qr_scan", "ios": "https://dc.lft.to/lastmile_qr_scan"}, "fusion_lon": 0.0}, {"lat": 38.889991, "is_disabled": 0, "type": "electric_scooter", "lon": -76.95415366666667, "bike_id": "651154b0b03d6072f3f8fc65a99a7e15", "fusion_lat": 0.0, "name": "651154b0b03d6072f3f8fc65a99a7e15", "is_reserved": 0, "rental_uris": {"android": "https://dc.lft.to/lastmile_qr_scan", "ios": "https://dc.lft.to/lastmile_qr_scan"}, "fusion_lon": 0.0}, {"lat": 38.91266616666667, "is_disabled": 0, "type": "electric_scooter", "lon": -77.02249383333333, "bike_id": "c3cfa74eb1526cf71bf316282aebb8b6", "fusion_lat": 0.0, "name": "c3cfa74eb1526cf71bf316282aebb8b6", "is_reserved": 0, "rental_uris": {"android": "https://dc.lft.to/lastmile_qr_scan", "ios": "https://dc.lft.to/lastmile_qr_scan"}, "fusion_lon": 0.0}, {"lat": 38.89529433333333, "is_disabled": 0, "type": "electric_scooter", "lon": -77.002127, "bike_id": "eb58c105c6b12fa3e8d02b122c0eb57d", "fusion_lat": 0.0, "name": "eb58c105c6b12fa3e8d02b122c0eb57d", "is_reserved": 0, "rental_uris": {"android": "https://dc.lft.to/lastmile_qr_scan", "ios": "https://dc.lft.to/lastmile_qr_scan"}, "fusion_lon": 0.0}, {"lat": 38.8757475, "is_disabled": 0, "type": "electric_bike", "lon": -77.10563566666667, "bike_id": "2d48efef303cf50e1b2f934d1e57b869", "fusion_lat": 0.0, "name": "2d48efef303cf50e1b2f934d1e57b869", "is_reserved": 0, "rental_uris": {"android": "https://dc.lft.to/lastmile_qr_scan", "ios": "https://dc.lft.to/lastmile_qr_scan"}, "fusion_lon": 0.0}, {"lat": 38.91364, "is_disabled": 0, "type": "electric_scooter", "lon": -77.03950266666666, "bike_id": "5a3c5d744915b71457d460cc52bf9656", "fusion_lat": 0.0, "name": "5a3c5d744915b71457d460cc52bf9656", "is_reserved": 0, "rental_uris": {"android": "https://dc.lft.to/lastmile_qr_scan", "ios": "https://dc.lft.to/lastmile_qr_scan"}, "fusion_lon": 0.0}, {"lat": 38.88486233333333, "is_disabled": 0, "type": "electric_scooter", "lon": -77.007132, "bike_id": "a36173a15d4a1d9aca531b6a7d1163a1", "fusion_lat": 0.0, "name": "a36173a15d4a1d9aca531b6a7d1163a1", "is_reserved": 0, "rental_uris": {"android": "https://dc.lft.to/lastmile_qr_scan", "ios": "https://dc.lft.to/lastmile_qr_scan"}, "fusion_lon": 0.0}, {"lat": 38.866174666666666, "is_disabled": 0, "type": "electric_scooter", "lon": -76.987005, "bike_id": "6bf08fdf92bff2186e41dd253ad80b5a", "fusion_lat": 0.0, "name": "6bf08fdf92bff2186e41dd253ad80b5a", "is_reserved": 0, "rental_uris": {"android": "https://dc.lft.to/lastmile_qr_scan", "ios": "https://dc.lft.to/lastmile_qr_scan"}, "fusion_lon": 0.0}, {"lat": 38.8427555, "is_disabled": 0, "type": "electric_bike", "lon": -76.988402, "bike_id": "d1299050f6bb3c444cab21d7d1d5ac4b", "fusion_lat": 0.0, "name": "d1299050f6bb3c444cab21d7d1d5ac4b", "is_reserved": 0, "rental_uris": {"android": "https://dc.lft.to/lastmile_qr_scan", "ios": "https://dc.lft.to/lastmile_qr_scan"}, "fusion_lon": 0.0}, {"lat": 38.905062, "is_disabled": 0, "type": "electric_scooter", "lon": -77.0435505, "bike_id": "671a674e6016b4ae4b5f06c6020bd16e", "fusion_lat": 0.0, "name": "671a674e6016b4ae4b5f06c6020bd16e", "is_reserved": 0, "rental_uris": {"android": "https://dc.lft.to/lastmile_qr_scan", "ios": "https://dc.lft.to/lastmile_qr_scan"}, "fusion_lon": 0.0}, {"lat": 38.91185683333333, "is_disabled": 0, "type": "electric_scooter", "lon": -77.004591, "bike_id": "ee8d1f8db001290536c8fdc5d9159a49", "fusion_lat": 0.0, "name": "ee8d1f8db001290536c8fdc5d9159a49", "is_reserved": 0, "rental_uris": {"android": "https://dc.lft.to/lastmile_qr_scan", "ios": "https://dc.lft.to/lastmile_qr_scan"}, "fusion_lon": 0.0}, {"lat": 38.905385333333335, "is_disabled": 0, "type": "electric_scooter", "lon": -77.0294495, "bike_id": "385732093113414300b8ca51bdc740c3", "fusion_lat": 0.0, "name": "385732093113414300b8ca51bdc740c3", "is_reserved": 0, "rental_uris": {"android": "https://dc.lft.to/lastmile_qr_scan", "ios": "https://dc.lft.to/lastmile_qr_scan"}, "fusion_lon": 0.0}, {"lat": 38.94929333333333, "is_disabled": 0, "type": "electric_scooter", "lon": -77.01936983333333, "bike_id": "62c27e56c96ffdb31a241aa8127fa588", "fusion_lat": 0.0, "name": "62c27e56c96ffdb31a241aa8127fa588", "is_reserved": 0, "rental_uris": {"android": "https://dc.lft.to/lastmile_qr_scan", "ios": "https://dc.lft.to/lastmile_qr_scan"}, "fusion_lon": 0.0}, {"lat": 38.90517883333333, "is_disabled": 0, "type": "electric_scooter", "lon": -77.04153433333333, "bike_id": "83da0316fe2d0b2d1ac428c424da996a", "fusion_lat": 0.0, "name": "83da0316fe2d0b2d1ac428c424da996a", "is_reserved": 0, "rental_uris": {"android": "https://dc.lft.to/lastmile_qr_scan", "ios": "https://dc.lft.to/lastmile_qr_scan"}, "fusion_lon": 0.0}, {"lat": 38.90511266666667, "is_disabled": 0, "type": "electric_scooter", "lon": -77.04179266666667, "bike_id": "61525ff4457f3d7394023225ef9c80e0", "fusion_lat": 0.0, "name": "61525ff4457f3d7394023225ef9c80e0", "is_reserved": 0, "rental_uris": {"android": "https://dc.lft.to/lastmile_qr_scan", "ios": "https://dc.lft.to/lastmile_qr_scan"}, "fusion_lon": 0.0}, {"lat": 39.024356166666664, "is_disabled": 0, "type": "electric_bike", "lon": -77.13102283333333, "bike_id": "7de32a7d7b1ee2146bdc76e3214cf18c", "fusion_lat": 0.0, "name": "7de32a7d7b1ee2146bdc76e3214cf18c", "is_reserved": 0, "rental_uris": {"android": "https://dc.lft.to/lastmile_qr_scan", "ios": "https://dc.lft.to/lastmile_qr_scan"}, "fusion_lon": 0.0}, {"lat": 38.89528166666667, "is_disabled": 0, "type": "electric_scooter", "lon": -76.94889483333333, "bike_id": "82f3dc0a9a125137b2f2eba6317c0af8", "fusion_lat": 0.0, "name": "82f3dc0a9a125137b2f2eba6317c0af8", "is_reserved": 0, "rental_uris": {"android": "https://dc.lft.to/lastmile_qr_scan", "ios": "https://dc.lft.to/lastmile_qr_scan"}, "fusion_lon": 0.0}, {"lat": 38.922565, "is_disabled": 0, "type": "electric_scooter", "lon": -77.0307005, "bike_id": "1ae0f2c70a66062e5a533dd9817930bf", "fusion_lat": 0.0, "name": "1ae0f2c70a66062e5a533dd9817930bf", "is_reserved": 0, "rental_uris": {"android": "https://dc.lft.to/lastmile_qr_scan", "ios": "https://dc.lft.to/lastmile_qr_scan"}, "fusion_lon": 0.0}, {"lat": 38.949742, "is_disabled": 0, "type": "electric_scooter", "lon": -77.06558283333334, "bike_id": "c0559123db3a0368d8d1dba6f63cc974", "fusion_lat": 0.0, "name": "c0559123db3a0368d8d1dba6f63cc974", "is_reserved": 0, "rental_uris": {"android": "https://dc.lft.to/lastmile_qr_scan", "ios": "https://dc.lft.to/lastmile_qr_scan"}, "fusion_lon": 0.0}, {"lat": 38.89205583333333, "is_disabled": 0, "type": "electric_scooter", "lon": -76.98562066666666, "bike_id": "0a3dd6aa5e290b371b2293bbb95838ff", "fusion_lat": 0.0, "name": "0a3dd6aa5e290b371b2293bbb95838ff", "is_reserved": 0, "rental_uris": {"android": "https://dc.lft.to/lastmile_qr_scan", "ios": "https://dc.lft.to/lastmile_qr_scan"}, "fusion_lon": 0.0}, {"lat": 39.0304095, "is_disabled": 0, "type": "electric_bike", "lon": -77.09478983333334, "bike_id": "5e01f363c644a348f9f2b9d41e3fd98e", "fusion_lat": 0.0, "name": "5e01f363c644a348f9f2b9d41e3fd98e", "is_reserved": 0, "rental_uris": {"android": "https://dc.lft.to/lastmile_qr_scan", "ios": "https://dc.lft.to/lastmile_qr_scan"}, "fusion_lon": 0.0}, {"lat": 38.9170185, "is_disabled": 0, "type": "electric_scooter", "lon": -77.02731616666667, "bike_id": "9c340811d914571da4074fef47a89253", "fusion_lat": 0.0, "name": "9c340811d914571da4074fef47a89253", "is_reserved": 0, "rental_uris": {"android": "https://dc.lft.to/lastmile_qr_scan", "ios": "https://dc.lft.to/lastmile_qr_scan"}, "fusion_lon": 0.0}, {"lat": 38.899802, "is_disabled": 0, "type": "electric_scooter", "lon": -77.02070716666667, "bike_id": "4fbec596aedb58f6dc52d798890ddf22", "fusion_lat": 0.0, "name": "4fbec596aedb58f6dc52d798890ddf22", "is_reserved": 0, "rental_uris": {"android": "https://dc.lft.to/lastmile_qr_scan", "ios": "https://dc.lft.to/lastmile_qr_scan"}, "fusion_lon": 0.0}, {"lat": 38.9384695, "is_disabled": 0, "type": "electric_scooter", "lon": -77.03091633333334, "bike_id": "59d137ae54f2958828a08ded850c972c", "fusion_lat": 0.0, "name": "59d137ae54f2958828a08ded850c972c", "is_reserved": 0, "rental_uris": {"android": "https://dc.lft.to/lastmile_qr_scan", "ios": "https://dc.lft.to/lastmile_qr_scan"}, "fusion_lon": 0.0}, {"lat": 38.87649033333334, "is_disabled": 0, "type": "electric_scooter", "lon": -77.00429083333333, "bike_id": "7906622713ed737f41fe86033f50966a", "fusion_lat": 0.0, "name": "7906622713ed737f41fe86033f50966a", "is_reserved": 0, "rental_uris": {"android": "https://dc.lft.to/lastmile_qr_scan", "ios": "https://dc.lft.to/lastmile_qr_scan"}, "fusion_lon": 0.0}, {"lat": 38.99822433333333, "is_disabled": 0, "type": "electric_bike", "lon": -76.883698, "bike_id": "e29d4d70edb5237e6e3b7e699bf0394c", "fusion_lat": 0.0, "name": "e29d4d70edb5237e6e3b7e699bf0394c", "is_reserved": 0, "rental_uris": {"android": "https://dc.lft.to/lastmile_qr_scan", "ios": "https://dc.lft.to/lastmile_qr_scan"}, "fusion_lon": 0.0}, {"lat": 38.91742883333333, "is_disabled": 0, "type": "electric_scooter", "lon": -77.03184183333333, "bike_id": "9cdc2355874c67dea76900ddecb6513b", "fusion_lat": 0.0, "name": "9cdc2355874c67dea76900ddecb6513b", "is_reserved": 0, "rental_uris": {"android": "https://dc.lft.to/lastmile_qr_scan", "ios": "https://dc.lft.to/lastmile_qr_scan"}, "fusion_lon": 0.0}, {"lat": 38.910341, "is_disabled": 0, "type": "electric_scooter", "lon": -76.99343983333333, "bike_id": "81829aff508b60c02d2b13fb7e0c6796", "fusion_lat": 0.0, "name": "81829aff508b60c02d2b13fb7e0c6796", "is_reserved": 0, "rental_uris": {"android": "https://dc.lft.to/lastmile_qr_scan", "ios": "https://dc.lft.to/lastmile_qr_scan"}, "fusion_lon": 0.0}, {"lat": 38.923666, "is_disabled": 0, "type": "electric_scooter", "lon": -77.05131816666666, "bike_id": "07b5cb948d6c185262fc8d83da1d5714", "fusion_lat": 0.0, "name": "07b5cb948d6c185262fc8d83da1d5714", "is_reserved": 0, "rental_uris": {"android": "https://dc.lft.to/lastmile_qr_scan", "ios": "https://dc.lft.to/lastmile_qr_scan"}, "fusion_lon": 0.0}, {"lat": 38.8939045, "is_disabled": 0, "type": "electric_scooter", "lon": -76.94995483333334, "bike_id": "86191344f9b228c1faac6b293ad13a80", "fusion_lat": 0.0, "name": "86191344f9b228c1faac6b293ad13a80", "is_reserved": 0, "rental_uris": {"android": "https://dc.lft.to/lastmile_qr_scan", "ios": "https://dc.lft.to/lastmile_qr_scan"}, "fusion_lon": 0.0}, {"lat": 38.9156175, "is_disabled": 0, "type": "electric_scooter", "lon": -77.02004516666666, "bike_id": "3d1e11fd44f90d472cb03d989c4aba0f", "fusion_lat": 0.0, "name": "3d1e11fd44f90d472cb03d989c4aba0f", "is_reserved": 0, "rental_uris": {"android": "https://dc.lft.to/lastmile_qr_scan", "ios": "https://dc.lft.to/lastmile_qr_scan"}, "fusion_lon": 0.0}, {"lat": 38.95414266666667, "is_disabled": 0, "type": "electric_bike", "lon": -76.98061566666667, "bike_id": "072a64b0305dece2d8b366a5e30e7daf", "fusion_lat": 0.0, "name": "072a64b0305dece2d8b366a5e30e7daf", "is_reserved": 0, "rental_uris": {"android": "https://dc.lft.to/lastmile_qr_scan", "ios": "https://dc.lft.to/lastmile_qr_scan"}, "fusion_lon": 0.0}, {"lat": 38.94430333333333, "is_disabled": 0, "type": "electric_scooter", "lon": -77.06340483333334, "bike_id": "9ad2126ab38c7cd9494e93db96ce796b", "fusion_lat": 0.0, "name": "9ad2126ab38c7cd9494e93db96ce796b", "is_reserved": 0, "rental_uris": {"android": "https://dc.lft.to/lastmile_qr_scan", "ios": "https://dc.lft.to/lastmile_qr_scan"}, "fusion_lon": 0.0}, {"lat": 38.9009745, "is_disabled": 0, "type": "electric_scooter", "lon": -77.0006665, "bike_id": "35f8e3bc079d4703bcb8b3eba25bbf1d", "fusion_lat": 0.0, "name": "35f8e3bc079d4703bcb8b3eba25bbf1d", "is_reserved": 0, "rental_uris": {"android": "https://dc.lft.to/lastmile_qr_scan", "ios": "https://dc.lft.to/lastmile_qr_scan"}, "fusion_lon": 0.0}, {"lat": 38.904947166666666, "is_disabled": 0, "type": "electric_scooter", "lon": -77.02955333333334, "bike_id": "a72d7a8d0bd8628f413c155cca45b1c1", "fusion_lat": 0.0, "name": "a72d7a8d0bd8628f413c155cca45b1c1", "is_reserved": 0, "rental_uris": {"android": "https://dc.lft.to/lastmile_qr_scan", "ios": "https://dc.lft.to/lastmile_qr_scan"}, "fusion_lon": 0.0}, {"lat": 38.873457, "is_disabled": 0, "type": "electric_scooter", "lon": -76.9916955, "bike_id": "0999352241f3841086d41d7c7132385e", "fusion_lat": 0.0, "name": "0999352241f3841086d41d7c7132385e", "is_reserved": 0, "rental_uris": {"android": "https://dc.lft.to/lastmile_qr_scan", "ios": "https://dc.lft.to/lastmile_qr_scan"}, "fusion_lon": 0.0}, {"lat": 38.91913816666667, "is_disabled": 0, "type": "electric_scooter", "lon": -77.02594016666667, "bike_id": "c9530657d19cc0fe3fa595654ba204c8", "fusion_lat": 0.0, "name": "c9530657d19cc0fe3fa595654ba204c8", "is_reserved": 0, "rental_uris": {"android": "https://dc.lft.to/lastmile_qr_scan", "ios": "https://dc.lft.to/lastmile_qr_scan"}, "fusion_lon": 0.0}, {"lat": 38.9067655, "is_disabled": 0, "type": "electric_scooter", "lon": -77.03827483333333, "bike_id": "6b8eef736df0a54e0332c7fc42614f69", "fusion_lat": 0.0, "name": "6b8eef736df0a54e0332c7fc42614f69", "is_reserved": 0, "rental_uris": {"android": "https://dc.lft.to/lastmile_qr_scan", "ios": "https://dc.lft.to/lastmile_qr_scan"}, "fusion_lon": 0.0}, {"lat": 38.90622033333333, "is_disabled": 0, "type": "electric_scooter", "lon": -77.021892, "bike_id": "cd055fabc2daf2e52e9bb3e3cde61a9f", "fusion_lat": 0.0, "name": "cd055fabc2daf2e52e9bb3e3cde61a9f", "is_reserved": 0, "rental_uris": {"android": "https://dc.lft.to/lastmile_qr_scan", "ios": "https://dc.lft.to/lastmile_qr_scan"}, "fusion_lon": 0.0}, {"lat": 38.887354333333334, "is_disabled": 0, "type": "electric_scooter", "lon": -77.0220485, "bike_id": "f1f1f73d14740ccbb10f06bf447aa824", "fusion_lat": 0.0, "name": "f1f1f73d14740ccbb10f06bf447aa824", "is_reserved": 0, "rental_uris": {"android": "https://dc.lft.to/lastmile_qr_scan", "ios": "https://dc.lft.to/lastmile_qr_scan"}, "fusion_lon": 0.0}, {"lat": 38.922576166666666, "is_disabled": 0, "type": "electric_scooter", "lon": -77.01929183333333, "bike_id": "7c8f8c907764c785247b43d590ab8fd4", "fusion_lat": 0.0, "name": "7c8f8c907764c785247b43d590ab8fd4", "is_reserved": 0, "rental_uris": {"android": "https://dc.lft.to/lastmile_qr_scan", "ios": "https://dc.lft.to/lastmile_qr_scan"}, "fusion_lon": 0.0}, {"lat": 38.909817, "is_disabled": 0, "type": "electric_scooter", "lon": -77.03188066666667, "bike_id": "ff055ef8da0aba6ebe692606d319b3ba", "fusion_lat": 0.0, "name": "ff055ef8da0aba6ebe692606d319b3ba", "is_reserved": 0, "rental_uris": {"android": "https://dc.lft.to/lastmile_qr_scan", "ios": "https://dc.lft.to/lastmile_qr_scan"}, "fusion_lon": 0.0}, {"lat": 38.98231766666667, "is_disabled": 0, "type": "electric_scooter", "lon": -77.02638033333334, "bike_id": "cb6c0b024d3adf50f817098accc43efb", "fusion_lat": 0.0, "name": "cb6c0b024d3adf50f817098accc43efb", "is_reserved": 0, "rental_uris": {"android": "https://dc.lft.to/lastmile_qr_scan", "ios": "https://dc.lft.to/lastmile_qr_scan"}, "fusion_lon": 0.0}, {"lat": 38.917358166666666, "is_disabled": 0, "type": "electric_scooter", "lon": -77.0363625, "bike_id": "cb611da219f3e91c4a04c9ddfdc711ac", "fusion_lat": 0.0, "name": "cb611da219f3e91c4a04c9ddfdc711ac", "is_reserved": 0, "rental_uris": {"android": "https://dc.lft.to/lastmile_qr_scan", "ios": "https://dc.lft.to/lastmile_qr_scan"}, "fusion_lon": 0.0}, {"lat": 38.916971833333335, "is_disabled": 0, "type": "electric_scooter", "lon": -77.039348, "bike_id": "e98e404c3952c473e8336962664d0862", "fusion_lat": 0.0, "name": "e98e404c3952c473e8336962664d0862", "is_reserved": 0, "rental_uris": {"android": "https://dc.lft.to/lastmile_qr_scan", "ios": "https://dc.lft.to/lastmile_qr_scan"}, "fusion_lon": 0.0}, {"lat": 38.90288, "is_disabled": 0, "type": "electric_scooter", "lon": -77.03639383333334, "bike_id": "3ef2562b32d0a23fde53ed314a3f791a", "fusion_lat": 0.0, "name": "3ef2562b32d0a23fde53ed314a3f791a", "is_reserved": 0, "rental_uris": {"android": "https://dc.lft.to/lastmile_qr_scan", "ios": "https://dc.lft.to/lastmile_qr_scan"}, "fusion_lon": 0.0}, {"lat": 38.92481333333333, "is_disabled": 0, "type": "electric_scooter", "lon": -77.03477833333334, "bike_id": "4a25374fad7acf5ddd70b55315377f99", "fusion_lat": 0.0, "name": "4a25374fad7acf5ddd70b55315377f99", "is_reserved": 0, "rental_uris": {"android": "https://dc.lft.to/lastmile_qr_scan", "ios": "https://dc.lft.to/lastmile_qr_scan"}, "fusion_lon": 0.0}, {"lat": 38.914793, "is_disabled": 0, "type": "electric_scooter", "lon": -77.02188333333334, "bike_id": "2d4c4ae5d76abb4b3ae782368898ee6d", "fusion_lat": 0.0, "name": "2d4c4ae5d76abb4b3ae782368898ee6d", "is_reserved": 0, "rental_uris": {"android": "https://dc.lft.to/lastmile_qr_scan", "ios": "https://dc.lft.to/lastmile_qr_scan"}, "fusion_lon": 0.0}, {"lat": 38.894857333333334, "is_disabled": 0, "type": "electric_scooter", "lon": -77.002253, "bike_id": "aced4a68272edc6ecb89788da46a6760", "fusion_lat": 0.0, "name": "aced4a68272edc6ecb89788da46a6760", "is_reserved": 0, "rental_uris": {"android": "https://dc.lft.to/lastmile_qr_scan", "ios": "https://dc.lft.to/lastmile_qr_scan"}, "fusion_lon": 0.0}, {"lat": 38.88625566666666, "is_disabled": 0, "type": "electric_scooter", "lon": -76.9551445, "bike_id": "cd329b1182db28914f6026ea69ea1b73", "fusion_lat": 0.0, "name": "cd329b1182db28914f6026ea69ea1b73", "is_reserved": 0, "rental_uris": {"android": "https://dc.lft.to/lastmile_qr_scan", "ios": "https://dc.lft.to/lastmile_qr_scan"}, "fusion_lon": 0.0}, {"lat": 38.921739, "is_disabled": 0, "type": "electric_scooter", "lon": -77.04004766666667, "bike_id": "d6a4c7be988c798ff07bedf24b012068", "fusion_lat": 0.0, "name": "d6a4c7be988c798ff07bedf24b012068", "is_reserved": 0, "rental_uris": {"android": "https://dc.lft.to/lastmile_qr_scan", "ios": "https://dc.lft.to/lastmile_qr_scan"}, "fusion_lon": 0.0}, {"lat": 38.90481333333334, "is_disabled": 0, "type": "electric_scooter", "lon": -76.97331, "bike_id": "3bf57a8361df04d3c830143c8519fe03", "fusion_lat": 0.0, "name": "3bf57a8361df04d3c830143c8519fe03", "is_reserved": 0, "rental_uris": {"android": "https://dc.lft.to/lastmile_qr_scan", "ios": "https://dc.lft.to/lastmile_qr_scan"}, "fusion_lon": 0.0}, {"lat": 38.892276, "is_disabled": 0, "type": "electric_scooter", "lon": -77.03344116666666, "bike_id": "457bb6e43f7b4fac5a08e44b9e3ae9ad", "fusion_lat": 0.0, "name": "457bb6e43f7b4fac5a08e44b9e3ae9ad", "is_reserved": 0, "rental_uris": {"android": "https://dc.lft.to/lastmile_qr_scan", "ios": "https://dc.lft.to/lastmile_qr_scan"}, "fusion_lon": 0.0}, {"lat": 38.915704, "is_disabled": 0, "type": "electric_scooter", "lon": -77.03850633333333, "bike_id": "89630351bd5f16cb1c7e90a2e058ad0c", "fusion_lat": 0.0, "name": "89630351bd5f16cb1c7e90a2e058ad0c", "is_reserved": 0, "rental_uris": {"android": "https://dc.lft.to/lastmile_qr_scan", "ios": "https://dc.lft.to/lastmile_qr_scan"}, "fusion_lon": 0.0}, {"lat": 38.9142005, "is_disabled": 0, "type": "electric_scooter", "lon": -77.03186533333333, "bike_id": "66c3ef7c5bd88594064fa79566257025", "fusion_lat": 0.0, "name": "66c3ef7c5bd88594064fa79566257025", "is_reserved": 0, "rental_uris": {"android": "https://dc.lft.to/lastmile_qr_scan", "ios": "https://dc.lft.to/lastmile_qr_scan"}, "fusion_lon": 0.0}, {"lat": 38.892473, "is_disabled": 0, "type": "electric_scooter", "lon": -77.03955883333333, "bike_id": "695d021f5790462b3024647b520fb0ea", "fusion_lat": 0.0, "name": "695d021f5790462b3024647b520fb0ea", "is_reserved": 0, "rental_uris": {"android": "https://dc.lft.to/lastmile_qr_scan", "ios": "https://dc.lft.to/lastmile_qr_scan"}, "fusion_lon": 0.0}, {"lat": 38.9312005, "is_disabled": 0, "type": "electric_scooter", "lon": -77.033987, "bike_id": "77f7bd17507c102574b1e8f514914412", "fusion_lat": 0.0, "name": "77f7bd17507c102574b1e8f514914412", "is_reserved": 0, "rental_uris": {"android": "https://dc.lft.to/lastmile_qr_scan", "ios": "https://dc.lft.to/lastmile_qr_scan"}, "fusion_lon": 0.0}, {"lat": 38.916521833333334, "is_disabled": 0, "type": "electric_scooter", "lon": -77.0227385, "bike_id": "17b4a6b5de96422f3d72b0d840444e31", "fusion_lat": 0.0, "name": "17b4a6b5de96422f3d72b0d840444e31", "is_reserved": 0, "rental_uris": {"android": "https://dc.lft.to/lastmile_qr_scan", "ios": "https://dc.lft.to/lastmile_qr_scan"}, "fusion_lon": 0.0}, {"lat": 38.892236833333335, "is_disabled": 0, "type": "electric_scooter", "lon": -77.04855316666666, "bike_id": "04a5ed5e86e8d0a2ce86559e4b6d14c7", "fusion_lat": 0.0, "name": "04a5ed5e86e8d0a2ce86559e4b6d14c7", "is_reserved": 0, "rental_uris": {"android": "https://dc.lft.to/lastmile_qr_scan", "ios": "https://dc.lft.to/lastmile_qr_scan"}, "fusion_lon": 0.0}, {"lat": 38.89901233333333, "is_disabled": 0, "type": "electric_scooter", "lon": -76.93364733333334, "bike_id": "6587c0df5ffeea96d3bd7e6f3a0fa3df", "fusion_lat": 0.0, "name": "6587c0df5ffeea96d3bd7e6f3a0fa3df", "is_reserved": 0, "rental_uris": {"android": "https://dc.lft.to/lastmile_qr_scan", "ios": "https://dc.lft.to/lastmile_qr_scan"}, "fusion_lon": 0.0}, {"lat": 38.940755833333334, "is_disabled": 0, "type": "electric_scooter", "lon": -77.0239045, "bike_id": "f3527a849243a4e1511de851473e71d1", "fusion_lat": 0.0, "name": "f3527a849243a4e1511de851473e71d1", "is_reserved": 0, "rental_uris": {"android": "https://dc.lft.to/lastmile_qr_scan", "ios": "https://dc.lft.to/lastmile_qr_scan"}, "fusion_lon": 0.0}, {"lat": 38.95062316666667, "is_disabled": 0, "type": "electric_bike", "lon": -77.00729366666667, "bike_id": "2cbf95a2f4c6b934287ba8a7f0b9a9f4", "fusion_lat": 0.0, "name": "2cbf95a2f4c6b934287ba8a7f0b9a9f4", "is_reserved": 0, "rental_uris": {"android": "https://dc.lft.to/lastmile_qr_scan", "ios": "https://dc.lft.to/lastmile_qr_scan"}, "fusion_lon": 0.0}, {"lat": 38.90287083333333, "is_disabled": 0, "type": "electric_scooter", "lon": -77.06350116666667, "bike_id": "17d6b937d34dea00d430bbafe6374118", "fusion_lat": 0.0, "name": "17d6b937d34dea00d430bbafe6374118", "is_reserved": 0, "rental_uris": {"android": "https://dc.lft.to/lastmile_qr_scan", "ios": "https://dc.lft.to/lastmile_qr_scan"}, "fusion_lon": 0.0}, {"lat": 38.907969333333334, "is_disabled": 0, "type": "electric_scooter", "lon": -77.04014116666667, "bike_id": "4b1887edb0d8d3fb5e4e4d0fb65d6563", "fusion_lat": 0.0, "name": "4b1887edb0d8d3fb5e4e4d0fb65d6563", "is_reserved": 0, "rental_uris": {"android": "https://dc.lft.to/lastmile_qr_scan", "ios": "https://dc.lft.to/lastmile_qr_scan"}, "fusion_lon": 0.0}, {"lat": 38.917046666666664, "is_disabled": 0, "type": "electric_scooter", "lon": -77.03561783333333, "bike_id": "5d02c93e4b9769ec8f5d943bf8447c9e", "fusion_lat": 0.0, "name": "5d02c93e4b9769ec8f5d943bf8447c9e", "is_reserved": 0, "rental_uris": {"android": "https://dc.lft.to/lastmile_qr_scan", "ios": "https://dc.lft.to/lastmile_qr_scan"}, "fusion_lon": 0.0}, {"lat": 38.95882433333333, "is_disabled": 0, "type": "electric_bike", "lon": -76.92487133333333, "bike_id": "e53d9b8af8531cd1d664a518f9f923df", "fusion_lat": 0.0, "name": "e53d9b8af8531cd1d664a518f9f923df", "is_reserved": 0, "rental_uris": {"android": "https://dc.lft.to/lastmile_qr_scan", "ios": "https://dc.lft.to/lastmile_qr_scan"}, "fusion_lon": 0.0}, {"lat": 38.911845166666666, "is_disabled": 0, "type": "electric_scooter", "lon": -77.0432775, "bike_id": "845f595a18749bb983753b9d72a7793c", "fusion_lat": 0.0, "name": "845f595a18749bb983753b9d72a7793c", "is_reserved": 0, "rental_uris": {"android": "https://dc.lft.to/lastmile_qr_scan", "ios": "https://dc.lft.to/lastmile_qr_scan"}, "fusion_lon": 0.0}, {"lat": 38.930109333333334, "is_disabled": 0, "type": "electric_scooter", "lon": -77.0208235, "bike_id": "1a7e22cfad4a0e4994211b5501969cdc", "fusion_lat": 0.0, "name": "1a7e22cfad4a0e4994211b5501969cdc", "is_reserved": 0, "rental_uris": {"android": "https://dc.lft.to/lastmile_qr_scan", "ios": "https://dc.lft.to/lastmile_qr_scan"}, "fusion_lon": 0.0}, {"lat": 38.92079833333333, "is_disabled": 0, "type": "electric_scooter", "lon": -77.01426933333333, "bike_id": "9aa049858a313d0d5b0bba7fb9a8bcf5", "fusion_lat": 0.0, "name": "9aa049858a313d0d5b0bba7fb9a8bcf5", "is_reserved": 0, "rental_uris": {"android": "https://dc.lft.to/lastmile_qr_scan", "ios": "https://dc.lft.to/lastmile_qr_scan"}, "fusion_lon": 0.0}, {"lat": 38.913493833333334, "is_disabled": 0, "type": "electric_scooter", "lon": -77.03191083333333, "bike_id": "fecf7de25f2083456f20b05f7084409f", "fusion_lat": 0.0, "name": "fecf7de25f2083456f20b05f7084409f", "is_reserved": 0, "rental_uris": {"android": "https://dc.lft.to/lastmile_qr_scan", "ios": "https://dc.lft.to/lastmile_qr_scan"}, "fusion_lon": 0.0}, {"lat": 38.92285066666667, "is_disabled": 0, "type": "electric_scooter", "lon": -77.03659866666666, "bike_id": "0788ad87d39f8b570807d777a4452ca5", "fusion_lat": 0.0, "name": "0788ad87d39f8b570807d777a4452ca5", "is_reserved": 0, "rental_uris": {"android": "https://dc.lft.to/lastmile_qr_scan", "ios": "https://dc.lft.to/lastmile_qr_scan"}, "fusion_lon": 0.0}, {"lat": 38.909878, "is_disabled": 0, "type": "electric_bike", "lon": -77.00504083333334, "bike_id": "34b5a1f238472a250486bdba75aa0a51", "fusion_lat": 0.0, "name": "34b5a1f238472a250486bdba75aa0a51", "is_reserved": 0, "rental_uris": {"android": "https://dc.lft.to/lastmile_qr_scan", "ios": "https://dc.lft.to/lastmile_qr_scan"}, "fusion_lon": 0.0}, {"lat": 38.85302516666667, "is_disabled": 0, "type": "electric_bike", "lon": -77.13126016666666, "bike_id": "0996c0862f4136ff072a76c98ab29452", "fusion_lat": 0.0, "name": "0996c0862f4136ff072a76c98ab29452", "is_reserved": 0, "rental_uris": {"android": "https://dc.lft.to/lastmile_qr_scan", "ios": "https://dc.lft.to/lastmile_qr_scan"}, "fusion_lon": 0.0}, {"lat": 38.909943166666665, "is_disabled": 0, "type": "electric_scooter", "lon": -77.04005733333334, "bike_id": "6b2dda2c7e34163783ddbbfa0b838f5a", "fusion_lat": 0.0, "name": "6b2dda2c7e34163783ddbbfa0b838f5a", "is_reserved": 0, "rental_uris": {"android": "https://dc.lft.to/lastmile_qr_scan", "ios": "https://dc.lft.to/lastmile_qr_scan"}, "fusion_lon": 0.0}, {"lat": 38.90792283333333, "is_disabled": 0, "type": "electric_scooter", "lon": -77.04343433333334, "bike_id": "59e6af1a00e8282c02332b7820292532", "fusion_lat": 0.0, "name": "59e6af1a00e8282c02332b7820292532", "is_reserved": 0, "rental_uris": {"android": "https://dc.lft.to/lastmile_qr_scan", "ios": "https://dc.lft.to/lastmile_qr_scan"}, "fusion_lon": 0.0}, {"lat": 38.917631, "is_disabled": 0, "type": "electric_scooter", "lon": -77.031909, "bike_id": "fd5a073a3f6c6690f9912bd646f77367", "fusion_lat": 0.0, "name": "fd5a073a3f6c6690f9912bd646f77367", "is_reserved": 0, "rental_uris": {"android": "https://dc.lft.to/lastmile_qr_scan", "ios": "https://dc.lft.to/lastmile_qr_scan"}, "fusion_lon": 0.0}, {"lat": 38.902814, "is_disabled": 0, "type": "electric_scooter", "lon": -77.03856516666667, "bike_id": "d53e9ea9c4c28a01e1d7f31befa71e07", "fusion_lat": 0.0, "name": "d53e9ea9c4c28a01e1d7f31befa71e07", "is_reserved": 0, "rental_uris": {"android": "https://dc.lft.to/lastmile_qr_scan", "ios": "https://dc.lft.to/lastmile_qr_scan"}, "fusion_lon": 0.0}, {"lat": 38.9528385, "is_disabled": 0, "type": "electric_bike", "lon": -76.94593866666666, "bike_id": "a86950f64de0d93a19151ef1e8e44289", "fusion_lat": 0.0, "name": "a86950f64de0d93a19151ef1e8e44289", "is_reserved": 0, "rental_uris": {"android": "https://dc.lft.to/lastmile_qr_scan", "ios": "https://dc.lft.to/lastmile_qr_scan"}, "fusion_lon": 0.0}, {"lat": 38.892214833333334, "is_disabled": 0, "type": "electric_scooter", "lon": -77.04859233333333, "bike_id": "c8dc13fda58797f3d893f54df22732dc", "fusion_lat": 0.0, "name": "c8dc13fda58797f3d893f54df22732dc", "is_reserved": 0, "rental_uris": {"android": "https://dc.lft.to/lastmile_qr_scan", "ios": "https://dc.lft.to/lastmile_qr_scan"}, "fusion_lon": 0.0}, {"lat": 38.903403, "is_disabled": 0, "type": "electric_scooter", "lon": -77.0448555, "bike_id": "8dbf59f961c8157ccddd70e422ae8f30", "fusion_lat": 0.0, "name": "8dbf59f961c8157ccddd70e422ae8f30", "is_reserved": 0, "rental_uris": {"android": "https://dc.lft.to/lastmile_qr_scan", "ios": "https://dc.lft.to/lastmile_qr_scan"}, "fusion_lon": 0.0}, {"lat": 38.899080166666664, "is_disabled": 0, "type": "electric_scooter", "lon": -76.93351333333334, "bike_id": "bac5e91a2677229d161679b08b589717", "fusion_lat": 0.0, "name": "bac5e91a2677229d161679b08b589717", "is_reserved": 0, "rental_uris": {"android": "https://dc.lft.to/lastmile_qr_scan", "ios": "https://dc.lft.to/lastmile_qr_scan"}, "fusion_lon": 0.0}, {"lat": 38.92368366666667, "is_disabled": 0, "type": "electric_scooter", "lon": -77.03136166666667, "bike_id": "2527bd957ab7cc86b6c9ea379818633c", "fusion_lat": 0.0, "name": "2527bd957ab7cc86b6c9ea379818633c", "is_reserved": 0, "rental_uris": {"android": "https://dc.lft.to/lastmile_qr_scan", "ios": "https://dc.lft.to/lastmile_qr_scan"}, "fusion_lon": 0.0}, {"lat": 38.912797, "is_disabled": 0, "type": "electric_scooter", "lon": -77.04508616666666, "bike_id": "abd15007f5822c7a3998f899e45f3a4f", "fusion_lat": 0.0, "name": "abd15007f5822c7a3998f899e45f3a4f", "is_reserved": 0, "rental_uris": {"android": "https://dc.lft.to/lastmile_qr_scan", "ios": "https://dc.lft.to/lastmile_qr_scan"}, "fusion_lon": 0.0}, {"lat": 38.990038166666665, "is_disabled": 0, "type": "electric_bike", "lon": -77.004367, "bike_id": "6701e1b6cfc5a6309685eaa7f16c5c29", "fusion_lat": 0.0, "name": "6701e1b6cfc5a6309685eaa7f16c5c29", "is_reserved": 0, "rental_uris": {"android": "https://dc.lft.to/lastmile_qr_scan", "ios": "https://dc.lft.to/lastmile_qr_scan"}, "fusion_lon": 0.0}, {"lat": 38.8957015, "is_disabled": 0, "type": "electric_scooter", "lon": -76.9304195, "bike_id": "53d34ebbe2f1a71cae3e0049dd711f88", "fusion_lat": 0.0, "name": "53d34ebbe2f1a71cae3e0049dd711f88", "is_reserved": 0, "rental_uris": {"android": "https://dc.lft.to/lastmile_qr_scan", "ios": "https://dc.lft.to/lastmile_qr_scan"}, "fusion_lon": 0.0}, {"lat": 38.93948866666667, "is_disabled": 0, "type": "electric_bike", "lon": -77.36086133333333, "bike_id": "8e10a7d9d686f6485c3ac3ac0b26ec93", "fusion_lat": 0.0, "name": "8e10a7d9d686f6485c3ac3ac0b26ec93", "is_reserved": 0, "rental_uris": {"android": "https://dc.lft.to/lastmile_qr_scan", "ios": "https://dc.lft.to/lastmile_qr_scan"}, "fusion_lon": 0.0}, {"lat": 38.930940166666666, "is_disabled": 0, "type": "electric_scooter", "lon": -77.02556783333333, "bike_id": "95485f268e6c968ff31b943a94923f9c", "fusion_lat": 0.0, "name": "95485f268e6c968ff31b943a94923f9c", "is_reserved": 0, "rental_uris": {"android": "https://dc.lft.to/lastmile_qr_scan", "ios": "https://dc.lft.to/lastmile_qr_scan"}, "fusion_lon": 0.0}, {"lat": 38.9360205, "is_disabled": 0, "type": "electric_scooter", "lon": -77.03752033333333, "bike_id": "2ab8c34d99b3e815c44c7c287a74a80d", "fusion_lat": 0.0, "name": "2ab8c34d99b3e815c44c7c287a74a80d", "is_reserved": 0, "rental_uris": {"android": "https://dc.lft.to/lastmile_qr_scan", "ios": "https://dc.lft.to/lastmile_qr_scan"}, "fusion_lon": 0.0}, {"lat": 38.93368183333333, "is_disabled": 0, "type": "electric_scooter", "lon": -77.057131, "bike_id": "41380dbcfd4a2d495de50ddd62dc4c9d", "fusion_lat": 0.0, "name": "41380dbcfd4a2d495de50ddd62dc4c9d", "is_reserved": 0, "rental_uris": {"android": "https://dc.lft.to/lastmile_qr_scan", "ios": "https://dc.lft.to/lastmile_qr_scan"}, "fusion_lon": 0.0}, {"lat": 38.893915666666665, "is_disabled": 0, "type": "electric_scooter", "lon": -76.94998683333333, "bike_id": "cddfe8c2af43bdbcbbdc5259506c863a", "fusion_lat": 0.0, "name": "cddfe8c2af43bdbcbbdc5259506c863a", "is_reserved": 0, "rental_uris": {"android": "https://dc.lft.to/lastmile_qr_scan", "ios": "https://dc.lft.to/lastmile_qr_scan"}, "fusion_lon": 0.0}, {"lat": 38.91612583333333, "is_disabled": 0, "type": "electric_scooter", "lon": -77.02305783333334, "bike_id": "6b7c057ce90122ddcb8ee6718ae2e47f", "fusion_lat": 0.0, "name": "6b7c057ce90122ddcb8ee6718ae2e47f", "is_reserved": 0, "rental_uris": {"android": "https://dc.lft.to/lastmile_qr_scan", "ios": "https://dc.lft.to/lastmile_qr_scan"}, "fusion_lon": 0.0}, {"lat": 38.9061935, "is_disabled": 0, "type": "electric_scooter", "lon": -77.03391633333334, "bike_id": "097891a2039fc2dca15f44849dfd0f79", "fusion_lat": 0.0, "name": "097891a2039fc2dca15f44849dfd0f79", "is_reserved": 0, "rental_uris": {"android": "https://dc.lft.to/lastmile_qr_scan", "ios": "https://dc.lft.to/lastmile_qr_scan"}, "fusion_lon": 0.0}, {"lat": 38.9203955, "is_disabled": 0, "type": "electric_scooter", "lon": -77.04184616666667, "bike_id": "d239359df338a3e361486c7b938ec040", "fusion_lat": 0.0, "name": "d239359df338a3e361486c7b938ec040", "is_reserved": 0, "rental_uris": {"android": "https://dc.lft.to/lastmile_qr_scan", "ios": "https://dc.lft.to/lastmile_qr_scan"}, "fusion_lon": 0.0}, {"lat": 38.91812766666666, "is_disabled": 0, "type": "electric_scooter", "lon": -77.01391516666666, "bike_id": "a5fdcfc07a06133dce4fa60fe3d1f76c", "fusion_lat": 0.0, "name": "a5fdcfc07a06133dce4fa60fe3d1f76c", "is_reserved": 0, "rental_uris": {"android": "https://dc.lft.to/lastmile_qr_scan", "ios": "https://dc.lft.to/lastmile_qr_scan"}, "fusion_lon": 0.0}, {"lat": 38.89737916666667, "is_disabled": 0, "type": "electric_scooter", "lon": -77.0217885, "bike_id": "c633da034ff8825cf899f45b038aac79", "fusion_lat": 0.0, "name": "c633da034ff8825cf899f45b038aac79", "is_reserved": 0, "rental_uris": {"android": "https://dc.lft.to/lastmile_qr_scan", "ios": "https://dc.lft.to/lastmile_qr_scan"}, "fusion_lon": 0.0}, {"lat": 38.89227966666667, "is_disabled": 0, "type": "electric_bike", "lon": -77.034479, "bike_id": "0abaae424f226d8a0743415e18832df7", "fusion_lat": 0.0, "name": "0abaae424f226d8a0743415e18832df7", "is_reserved": 0, "rental_uris": {"android": "https://dc.lft.to/lastmile_qr_scan", "ios": "https://dc.lft.to/lastmile_qr_scan"}, "fusion_lon": 0.0}, {"lat": 38.90154733333333, "is_disabled": 0, "type": "electric_scooter", "lon": -77.039297, "bike_id": "1cd78c45e347eae0d691bbe47ecdab6d", "fusion_lat": 0.0, "name": "1cd78c45e347eae0d691bbe47ecdab6d", "is_reserved": 0, "rental_uris": {"android": "https://dc.lft.to/lastmile_qr_scan", "ios": "https://dc.lft.to/lastmile_qr_scan"}, "fusion_lon": 0.0}, {"lat": 38.89575333333333, "is_disabled": 0, "type": "electric_bike", "lon": -77.1271345, "bike_id": "33517c8d095fae2f9f1868ef7916a955", "fusion_lat": 0.0, "name": "33517c8d095fae2f9f1868ef7916a955", "is_reserved": 0, "rental_uris": {"android": "https://dc.lft.to/lastmile_qr_scan", "ios": "https://dc.lft.to/lastmile_qr_scan"}, "fusion_lon": 0.0}, {"lat": 38.9286135, "is_disabled": 0, "type": "electric_scooter", "lon": -77.03309833333333, "bike_id": "b36c4b601bdc7de3a630b86c76d72be3", "fusion_lat": 0.0, "name": "b36c4b601bdc7de3a630b86c76d72be3", "is_reserved": 0, "rental_uris": {"android": "https://dc.lft.to/lastmile_qr_scan", "ios": "https://dc.lft.to/lastmile_qr_scan"}, "fusion_lon": 0.0}, {"lat": 38.90295033333334, "is_disabled": 0, "type": "electric_scooter", "lon": -77.03665, "bike_id": "99d18539475e804e6a166a70ce58d94a", "fusion_lat": 0.0, "name": "99d18539475e804e6a166a70ce58d94a", "is_reserved": 0, "rental_uris": {"android": "https://dc.lft.to/lastmile_qr_scan", "ios": "https://dc.lft.to/lastmile_qr_scan"}, "fusion_lon": 0.0}, {"lat": 38.914244333333336, "is_disabled": 0, "type": "electric_scooter", "lon": -77.03185283333333, "bike_id": "37ab4dcdba97f5bcbb79b940afd3d514", "fusion_lat": 0.0, "name": "37ab4dcdba97f5bcbb79b940afd3d514", "is_reserved": 0, "rental_uris": {"android": "https://dc.lft.to/lastmile_qr_scan", "ios": "https://dc.lft.to/lastmile_qr_scan"}, "fusion_lon": 0.0}, {"lat": 38.9232535, "is_disabled": 0, "type": "electric_scooter", "lon": -77.0354645, "bike_id": "ea700e7baf76c38cac2476df0b4ed1f6", "fusion_lat": 0.0, "name": "ea700e7baf76c38cac2476df0b4ed1f6", "is_reserved": 0, "rental_uris": {"android": "https://dc.lft.to/lastmile_qr_scan", "ios": "https://dc.lft.to/lastmile_qr_scan"}, "fusion_lon": 0.0}, {"lat": 38.933566166666665, "is_disabled": 0, "type": "electric_bike", "lon": -77.09961916666667, "bike_id": "a44d6b21c90ba05f390a5d301679fac6", "fusion_lat": 0.0, "name": "a44d6b21c90ba05f390a5d301679fac6", "is_reserved": 0, "rental_uris": {"android": "https://dc.lft.to/lastmile_qr_scan", "ios": "https://dc.lft.to/lastmile_qr_scan"}, "fusion_lon": 0.0}, {"lat": 38.91689616666667, "is_disabled": 0, "type": "electric_scooter", "lon": -77.04191716666666, "bike_id": "70c52260c66610e13ed7dc257f903816", "fusion_lat": 0.0, "name": "70c52260c66610e13ed7dc257f903816", "is_reserved": 0, "rental_uris": {"android": "https://dc.lft.to/lastmile_qr_scan", "ios": "https://dc.lft.to/lastmile_qr_scan"}, "fusion_lon": 0.0}, {"lat": 38.9097385, "is_disabled": 0, "type": "electric_scooter", "lon": -77.0386295, "bike_id": "58448055fac004162b3ed3ab1da9bb68", "fusion_lat": 0.0, "name": "58448055fac004162b3ed3ab1da9bb68", "is_reserved": 0, "rental_uris": {"android": "https://dc.lft.to/lastmile_qr_scan", "ios": "https://dc.lft.to/lastmile_qr_scan"}, "fusion_lon": 0.0}, {"lat": 38.90800016666667, "is_disabled": 0, "type": "electric_scooter", "lon": -77.04346716666667, "bike_id": "9325be0979e8cef409ab661b8cad09f9", "fusion_lat": 0.0, "name": "9325be0979e8cef409ab661b8cad09f9", "is_reserved": 0, "rental_uris": {"android": "https://dc.lft.to/lastmile_qr_scan", "ios": "https://dc.lft.to/lastmile_qr_scan"}, "fusion_lon": 0.0}, {"lat": 38.86515583333333, "is_disabled": 0, "type": "electric_scooter", "lon": -76.9903605, "bike_id": "dd0273437f575c03582508a39df32d8d", "fusion_lat": 0.0, "name": "dd0273437f575c03582508a39df32d8d", "is_reserved": 0, "rental_uris": {"android": "https://dc.lft.to/lastmile_qr_scan", "ios": "https://dc.lft.to/lastmile_qr_scan"}, "fusion_lon": 0.0}, {"lat": 38.9360725, "is_disabled": 0, "type": "electric_scooter", "lon": -77.05853616666667, "bike_id": "f9db96e769460037fe56ab6823f033c5", "fusion_lat": 0.0, "name": "f9db96e769460037fe56ab6823f033c5", "is_reserved": 0, "rental_uris": {"android": "https://dc.lft.to/lastmile_qr_scan", "ios": "https://dc.lft.to/lastmile_qr_scan"}, "fusion_lon": 0.0}, {"lat": 38.90980366666667, "is_disabled": 0, "type": "electric_scooter", "lon": -77.03183133333333, "bike_id": "4670edcea1c5aa061883739a392c724f", "fusion_lat": 0.0, "name": "4670edcea1c5aa061883739a392c724f", "is_reserved": 0, "rental_uris": {"android": "https://dc.lft.to/lastmile_qr_scan", "ios": "https://dc.lft.to/lastmile_qr_scan"}, "fusion_lon": 0.0}, {"lat": 38.916802, "is_disabled": 0, "type": "electric_scooter", "lon": -77.002007, "bike_id": "7c9312d38767e8d5bf1a591fb4253ea8", "fusion_lat": 0.0, "name": "7c9312d38767e8d5bf1a591fb4253ea8", "is_reserved": 0, "rental_uris": {"android": "https://dc.lft.to/lastmile_qr_scan", "ios": "https://dc.lft.to/lastmile_qr_scan"}, "fusion_lon": 0.0}, {"lat": 38.965088333333334, "is_disabled": 0, "type": "electric_bike", "lon": -77.028312, "bike_id": "5c3bda8d653ed2048e9cb2b065a1b980", "fusion_lat": 0.0, "name": "5c3bda8d653ed2048e9cb2b065a1b980", "is_reserved": 0, "rental_uris": {"android": "https://dc.lft.to/lastmile_qr_scan", "ios": "https://dc.lft.to/lastmile_qr_scan"}, "fusion_lon": 0.0}, {"lat": 38.9588995, "is_disabled": 0, "type": "electric_bike", "lon": -76.92492983333334, "bike_id": "9471ff23c998273b3a1522507462d94c", "fusion_lat": 0.0, "name": "9471ff23c998273b3a1522507462d94c", "is_reserved": 0, "rental_uris": {"android": "https://dc.lft.to/lastmile_qr_scan", "ios": "https://dc.lft.to/lastmile_qr_scan"}, "fusion_lon": 0.0}, {"lat": 38.934127, "is_disabled": 0, "type": "electric_scooter", "lon": -77.03288533333334, "bike_id": "a49bed1a2081171794e4e5b08a4d53fa", "fusion_lat": 0.0, "name": "a49bed1a2081171794e4e5b08a4d53fa", "is_reserved": 0, "rental_uris": {"android": "https://dc.lft.to/lastmile_qr_scan", "ios": "https://dc.lft.to/lastmile_qr_scan"}, "fusion_lon": 0.0}, {"lat": 38.920638333333336, "is_disabled": 0, "type": "electric_scooter", "lon": -77.07883416666667, "bike_id": "8f97171a5629af489549ce998ea252da", "fusion_lat": 0.0, "name": "8f97171a5629af489549ce998ea252da", "is_reserved": 0, "rental_uris": {"android": "https://dc.lft.to/lastmile_qr_scan", "ios": "https://dc.lft.to/lastmile_qr_scan"}, "fusion_lon": 0.0}, {"lat": 38.883638, "is_disabled": 0, "type": "electric_scooter", "lon": -76.94155116666667, "bike_id": "b357d7619ec28600065790652bc040e6", "fusion_lat": 0.0, "name": "b357d7619ec28600065790652bc040e6", "is_reserved": 0, "rental_uris": {"android": "https://dc.lft.to/lastmile_qr_scan", "ios": "https://dc.lft.to/lastmile_qr_scan"}, "fusion_lon": 0.0}, {"lat": 38.92540566666667, "is_disabled": 0, "type": "electric_scooter", "lon": -77.02628316666667, "bike_id": "63e6fb5a96423535e55e112acdbf26bf", "fusion_lat": 0.0, "name": "63e6fb5a96423535e55e112acdbf26bf", "is_reserved": 0, "rental_uris": {"android": "https://dc.lft.to/lastmile_qr_scan", "ios": "https://dc.lft.to/lastmile_qr_scan"}, "fusion_lon": 0.0}, {"lat": 38.91539616666667, "is_disabled": 0, "type": "electric_scooter", "lon": -77.074151, "bike_id": "33fa3a77d5cd39db0ed8e4bead7c36bb", "fusion_lat": 0.0, "name": "33fa3a77d5cd39db0ed8e4bead7c36bb", "is_reserved": 0, "rental_uris": {"android": "https://dc.lft.to/lastmile_qr_scan", "ios": "https://dc.lft.to/lastmile_qr_scan"}, "fusion_lon": 0.0}, {"lat": 38.898443, "is_disabled": 0, "type": "electric_scooter", "lon": -76.94634166666667, "bike_id": "ff5fa993fb2bee339a12870b8a468f5a", "fusion_lat": 0.0, "name": "ff5fa993fb2bee339a12870b8a468f5a", "is_reserved": 0, "rental_uris": {"android": "https://dc.lft.to/lastmile_qr_scan", "ios": "https://dc.lft.to/lastmile_qr_scan"}, "fusion_lon": 0.0}, {"lat": 38.90967283333333, "is_disabled": 0, "type": "electric_scooter", "lon": -76.99605033333333, "bike_id": "76febb5bf77c6d920f2cab10d710bd36", "fusion_lat": 0.0, "name": "76febb5bf77c6d920f2cab10d710bd36", "is_reserved": 0, "rental_uris": {"android": "https://dc.lft.to/lastmile_qr_scan", "ios": "https://dc.lft.to/lastmile_qr_scan"}, "fusion_lon": 0.0}, {"lat": 38.89997833333334, "is_disabled": 0, "type": "electric_scooter", "lon": -76.99956983333334, "bike_id": "b74dbced84039cdf6e762565232f2138", "fusion_lat": 0.0, "name": "b74dbced84039cdf6e762565232f2138", "is_reserved": 0, "rental_uris": {"android": "https://dc.lft.to/lastmile_qr_scan", "ios": "https://dc.lft.to/lastmile_qr_scan"}, "fusion_lon": 0.0}, {"lat": 38.90680533333333, "is_disabled": 0, "type": "electric_scooter", "lon": -77.027164, "bike_id": "87c6f37b8e7924674a4dbf0c16276802", "fusion_lat": 0.0, "name": "87c6f37b8e7924674a4dbf0c16276802", "is_reserved": 0, "rental_uris": {"android": "https://dc.lft.to/lastmile_qr_scan", "ios": "https://dc.lft.to/lastmile_qr_scan"}, "fusion_lon": 0.0}, {"lat": 38.9110815, "is_disabled": 0, "type": "electric_scooter", "lon": -77.03195033333333, "bike_id": "15af8f3fa7be19f08e215c78ed395bf3", "fusion_lat": 0.0, "name": "15af8f3fa7be19f08e215c78ed395bf3", "is_reserved": 0, "rental_uris": {"android": "https://dc.lft.to/lastmile_qr_scan", "ios": "https://dc.lft.to/lastmile_qr_scan"}, "fusion_lon": 0.0}, {"lat": 38.89290316666667, "is_disabled": 0, "type": "electric_scooter", "lon": -76.95849783333334, "bike_id": "b8564c277bbf30dc453c03d20c55762b", "fusion_lat": 0.0, "name": "b8564c277bbf30dc453c03d20c55762b", "is_reserved": 0, "rental_uris": {"android": "https://dc.lft.to/lastmile_qr_scan", "ios": "https://dc.lft.to/lastmile_qr_scan"}, "fusion_lon": 0.0}, {"lat": 38.9295475, "is_disabled": 0, "type": "electric_scooter", "lon": -76.9908495, "bike_id": "6715c631cefa11b258cecc71011b3344", "fusion_lat": 0.0, "name": "6715c631cefa11b258cecc71011b3344", "is_reserved": 0, "rental_uris": {"android": "https://dc.lft.to/lastmile_qr_scan", "ios": "https://dc.lft.to/lastmile_qr_scan"}, "fusion_lon": 0.0}, {"lat": 38.88720133333333, "is_disabled": 0, "type": "electric_scooter", "lon": -76.99612016666667, "bike_id": "6d91f65ea30c91ca07f10d61aeff5c86", "fusion_lat": 0.0, "name": "6d91f65ea30c91ca07f10d61aeff5c86", "is_reserved": 0, "rental_uris": {"android": "https://dc.lft.to/lastmile_qr_scan", "ios": "https://dc.lft.to/lastmile_qr_scan"}, "fusion_lon": 0.0}, {"lat": 38.9193635, "is_disabled": 0, "type": "electric_scooter", "lon": -77.0259375, "bike_id": "48d01088f2619a629a0bc87fa843b98c", "fusion_lat": 0.0, "name": "48d01088f2619a629a0bc87fa843b98c", "is_reserved": 0, "rental_uris": {"android": "https://dc.lft.to/lastmile_qr_scan", "ios": "https://dc.lft.to/lastmile_qr_scan"}, "fusion_lon": 0.0}, {"lat": 38.8636195, "is_disabled": 0, "type": "electric_scooter", "lon": -76.99038883333333, "bike_id": "966443b1ead75aa7829840ed2f31b01b", "fusion_lat": 0.0, "name": "966443b1ead75aa7829840ed2f31b01b", "is_reserved": 0, "rental_uris": {"android": "https://dc.lft.to/lastmile_qr_scan", "ios": "https://dc.lft.to/lastmile_qr_scan"}, "fusion_lon": 0.0}, {"lat": 38.802239, "is_disabled": 0, "type": "electric_bike", "lon": -77.0791325, "bike_id": "8d459510a3c0c865f8c6e263cc71a6dc", "fusion_lat": 0.0, "name": "8d459510a3c0c865f8c6e263cc71a6dc", "is_reserved": 0, "rental_uris": {"android": "https://dc.lft.to/lastmile_qr_scan", "ios": "https://dc.lft.to/lastmile_qr_scan"}, "fusion_lon": 0.0}, {"lat": 38.922382166666665, "is_disabled": 0, "type": "electric_scooter", "lon": -77.0435705, "bike_id": "91dd5e2c0c2a091112ad81dcb5ada777", "fusion_lat": 0.0, "name": "91dd5e2c0c2a091112ad81dcb5ada777", "is_reserved": 0, "rental_uris": {"android": "https://dc.lft.to/lastmile_qr_scan", "ios": "https://dc.lft.to/lastmile_qr_scan"}, "fusion_lon": 0.0}, {"lat": 38.88486433333333, "is_disabled": 0, "type": "electric_scooter", "lon": -77.03475116666667, "bike_id": "fa299710641b7b8746436c2239103f66", "fusion_lat": 0.0, "name": "fa299710641b7b8746436c2239103f66", "is_reserved": 0, "rental_uris": {"android": "https://dc.lft.to/lastmile_qr_scan", "ios": "https://dc.lft.to/lastmile_qr_scan"}, "fusion_lon": 0.0}, {"lat": 38.90232316666667, "is_disabled": 0, "type": "electric_scooter", "lon": -77.04330366666667, "bike_id": "31237f362e8dd56a1222269853807de2", "fusion_lat": 0.0, "name": "31237f362e8dd56a1222269853807de2", "is_reserved": 0, "rental_uris": {"android": "https://dc.lft.to/lastmile_qr_scan", "ios": "https://dc.lft.to/lastmile_qr_scan"}, "fusion_lon": 0.0}, {"lat": 38.927154333333334, "is_disabled": 0, "type": "electric_scooter", "lon": -77.023035, "bike_id": "eb90577de5eb5499270ee8840cabcf31", "fusion_lat": 0.0, "name": "eb90577de5eb5499270ee8840cabcf31", "is_reserved": 0, "rental_uris": {"android": "https://dc.lft.to/lastmile_qr_scan", "ios": "https://dc.lft.to/lastmile_qr_scan"}, "fusion_lon": 0.0}, {"lat": 38.941403, "is_disabled": 0, "type": "electric_bike", "lon": -77.0327555, "bike_id": "0c4ec65aa3dc526837f8c747b43d971f", "fusion_lat": 0.0, "name": "0c4ec65aa3dc526837f8c747b43d971f", "is_reserved": 0, "rental_uris": {"android": "https://dc.lft.to/lastmile_qr_scan", "ios": "https://dc.lft.to/lastmile_qr_scan"}, "fusion_lon": 0.0}, {"lat": 38.91930266666667, "is_disabled": 0, "type": "electric_scooter", "lon": -76.97013883333334, "bike_id": "50557f25ce9a1abd25f53c09f5ee04d9", "fusion_lat": 0.0, "name": "50557f25ce9a1abd25f53c09f5ee04d9", "is_reserved": 0, "rental_uris": {"android": "https://dc.lft.to/lastmile_qr_scan", "ios": "https://dc.lft.to/lastmile_qr_scan"}, "fusion_lon": 0.0}, {"lat": 38.87155466666667, "is_disabled": 0, "type": "electric_scooter", "lon": -77.0118955, "bike_id": "799bdc67e5986c1efc0c0538fc4b0a95", "fusion_lat": 0.0, "name": "799bdc67e5986c1efc0c0538fc4b0a95", "is_reserved": 0, "rental_uris": {"android": "https://dc.lft.to/lastmile_qr_scan", "ios": "https://dc.lft.to/lastmile_qr_scan"}, "fusion_lon": 0.0}, {"lat": 38.95405316666667, "is_disabled": 0, "type": "electric_bike", "lon": -76.97868716666666, "bike_id": "bc517b95e672747bf11a8330dd2d1373", "fusion_lat": 0.0, "name": "bc517b95e672747bf11a8330dd2d1373", "is_reserved": 0, "rental_uris": {"android": "https://dc.lft.to/lastmile_qr_scan", "ios": "https://dc.lft.to/lastmile_qr_scan"}, "fusion_lon": 0.0}, {"lat": 38.92889666666667, "is_disabled": 0, "type": "electric_scooter", "lon": -77.01425083333334, "bike_id": "f2bf3506ccd676b0fd44464b85a994fe", "fusion_lat": 0.0, "name": "f2bf3506ccd676b0fd44464b85a994fe", "is_reserved": 0, "rental_uris": {"android": "https://dc.lft.to/lastmile_qr_scan", "ios": "https://dc.lft.to/lastmile_qr_scan"}, "fusion_lon": 0.0}, {"lat": 38.903060333333336, "is_disabled": 0, "type": "electric_scooter", "lon": -77.00893933333333, "bike_id": "297ce38032bed0da6317b4bd5182e730", "fusion_lat": 0.0, "name": "297ce38032bed0da6317b4bd5182e730", "is_reserved": 0, "rental_uris": {"android": "https://dc.lft.to/lastmile_qr_scan", "ios": "https://dc.lft.to/lastmile_qr_scan"}, "fusion_lon": 0.0}, {"lat": 38.90464683333333, "is_disabled": 0, "type": "electric_scooter", "lon": -77.03885683333333, "bike_id": "66b2e4c444d086a8348bc63408a4f949", "fusion_lat": 0.0, "name": "66b2e4c444d086a8348bc63408a4f949", "is_reserved": 0, "rental_uris": {"android": "https://dc.lft.to/lastmile_qr_scan", "ios": "https://dc.lft.to/lastmile_qr_scan"}, "fusion_lon": 0.0}, {"lat": 38.919882, "is_disabled": 0, "type": "electric_scooter", "lon": -77.039618, "bike_id": "44417e439f04b71931e570233ad4ba99", "fusion_lat": 0.0, "name": "44417e439f04b71931e570233ad4ba99", "is_reserved": 0, "rental_uris": {"android": "https://dc.lft.to/lastmile_qr_scan", "ios": "https://dc.lft.to/lastmile_qr_scan"}, "fusion_lon": 0.0}, {"lat": 38.907067833333336, "is_disabled": 0, "type": "electric_scooter", "lon": -76.98691883333333, "bike_id": "4a2daf463c9ab55182b1089830372400", "fusion_lat": 0.0, "name": "4a2daf463c9ab55182b1089830372400", "is_reserved": 0, "rental_uris": {"android": "https://dc.lft.to/lastmile_qr_scan", "ios": "https://dc.lft.to/lastmile_qr_scan"}, "fusion_lon": 0.0}, {"lat": 38.87731633333333, "is_disabled": 0, "type": "electric_bike", "lon": -77.1185225, "bike_id": "eb728749e0ae833dba061a9e925a7c92", "fusion_lat": 0.0, "name": "eb728749e0ae833dba061a9e925a7c92", "is_reserved": 0, "rental_uris": {"android": "https://dc.lft.to/lastmile_qr_scan", "ios": "https://dc.lft.to/lastmile_qr_scan"}, "fusion_lon": 0.0}, {"lat": 38.94630866666667, "is_disabled": 0, "type": "electric_scooter", "lon": -77.0184775, "bike_id": "9b1a7ae4fd04756dc124436a29e68388", "fusion_lat": 0.0, "name": "9b1a7ae4fd04756dc124436a29e68388", "is_reserved": 0, "rental_uris": {"android": "https://dc.lft.to/lastmile_qr_scan", "ios": "https://dc.lft.to/lastmile_qr_scan"}, "fusion_lon": 0.0}, {"lat": 38.951870166666666, "is_disabled": 0, "type": "electric_bike", "lon": -76.93545033333334, "bike_id": "5d5654133e034169d4335c6b3763fd95", "fusion_lat": 0.0, "name": "5d5654133e034169d4335c6b3763fd95", "is_reserved": 0, "rental_uris": {"android": "https://dc.lft.to/lastmile_qr_scan", "ios": "https://dc.lft.to/lastmile_qr_scan"}, "fusion_lon": 0.0}, {"lat": 38.909628166666664, "is_disabled": 0, "type": "electric_scooter", "lon": -77.03844883333333, "bike_id": "f7cca72d8d7c0bbaf06dfe94b3c5e2a2", "fusion_lat": 0.0, "name": "f7cca72d8d7c0bbaf06dfe94b3c5e2a2", "is_reserved": 0, "rental_uris": {"android": "https://dc.lft.to/lastmile_qr_scan", "ios": "https://dc.lft.to/lastmile_qr_scan"}, "fusion_lon": 0.0}, {"lat": 38.909217, "is_disabled": 0, "type": "electric_scooter", "lon": -77.0802525, "bike_id": "5450e1d6c49c8060d46ef3fef72c9984", "fusion_lat": 0.0, "name": "5450e1d6c49c8060d46ef3fef72c9984", "is_reserved": 0, "rental_uris": {"android": "https://dc.lft.to/lastmile_qr_scan", "ios": "https://dc.lft.to/lastmile_qr_scan"}, "fusion_lon": 0.0}, {"lat": 38.867456, "is_disabled": 0, "type": "electric_scooter", "lon": -76.97661033333333, "bike_id": "89b56cdee6c29fa8999999ad15f93e10", "fusion_lat": 0.0, "name": "89b56cdee6c29fa8999999ad15f93e10", "is_reserved": 0, "rental_uris": {"android": "https://dc.lft.to/lastmile_qr_scan", "ios": "https://dc.lft.to/lastmile_qr_scan"}, "fusion_lon": 0.0}, {"lat": 38.9482045, "is_disabled": 0, "type": "electric_scooter", "lon": -76.999039, "bike_id": "77168d0f1aed1899045f5a8b44f974c8", "fusion_lat": 0.0, "name": "77168d0f1aed1899045f5a8b44f974c8", "is_reserved": 0, "rental_uris": {"android": "https://dc.lft.to/lastmile_qr_scan", "ios": "https://dc.lft.to/lastmile_qr_scan"}, "fusion_lon": 0.0}, {"lat": 38.9168055, "is_disabled": 0, "type": "electric_scooter", "lon": -77.03211333333333, "bike_id": "8a8876355a03a1af0bc5fae2c23e450d", "fusion_lat": 0.0, "name": "8a8876355a03a1af0bc5fae2c23e450d", "is_reserved": 0, "rental_uris": {"android": "https://dc.lft.to/lastmile_qr_scan", "ios": "https://dc.lft.to/lastmile_qr_scan"}, "fusion_lon": 0.0}, {"lat": 38.89739516666667, "is_disabled": 0, "type": "electric_scooter", "lon": -77.02168183333333, "bike_id": "f1ac0d9b75f1403466059d0e659a5820", "fusion_lat": 0.0, "name": "f1ac0d9b75f1403466059d0e659a5820", "is_reserved": 0, "rental_uris": {"android": "https://dc.lft.to/lastmile_qr_scan", "ios": "https://dc.lft.to/lastmile_qr_scan"}, "fusion_lon": 0.0}, {"lat": 38.9203625, "is_disabled": 0, "type": "electric_scooter", "lon": -77.04173933333334, "bike_id": "9d498718b5982353781ccd97a835afbc", "fusion_lat": 0.0, "name": "9d498718b5982353781ccd97a835afbc", "is_reserved": 0, "rental_uris": {"android": "https://dc.lft.to/lastmile_qr_scan", "ios": "https://dc.lft.to/lastmile_qr_scan"}, "fusion_lon": 0.0}, {"lat": 38.91416016666667, "is_disabled": 0, "type": "electric_scooter", "lon": -77.02213366666666, "bike_id": "f4dfd7d1d58d19d6a72770a421894d3f", "fusion_lat": 0.0, "name": "f4dfd7d1d58d19d6a72770a421894d3f", "is_reserved": 0, "rental_uris": {"android": "https://dc.lft.to/lastmile_qr_scan", "ios": "https://dc.lft.to/lastmile_qr_scan"}, "fusion_lon": 0.0}, {"lat": 38.876463, "is_disabled": 0, "type": "electric_scooter", "lon": -77.00431833333333, "bike_id": "1da1401ff5c660ff1bbb9992681605dc", "fusion_lat": 0.0, "name": "1da1401ff5c660ff1bbb9992681605dc", "is_reserved": 0, "rental_uris": {"android": "https://dc.lft.to/lastmile_qr_scan", "ios": "https://dc.lft.to/lastmile_qr_scan"}, "fusion_lon": 0.0}, {"lat": 38.90394933333334, "is_disabled": 0, "type": "electric_scooter", "lon": -77.02535733333333, "bike_id": "c50f3cf4eada0b0499e642e9e1554f43", "fusion_lat": 0.0, "name": "c50f3cf4eada0b0499e642e9e1554f43", "is_reserved": 0, "rental_uris": {"android": "https://dc.lft.to/lastmile_qr_scan", "ios": "https://dc.lft.to/lastmile_qr_scan"}, "fusion_lon": 0.0}, {"lat": 38.96214116666667, "is_disabled": 0, "type": "electric_bike", "lon": -77.02626983333333, "bike_id": "a5d9e67a764a478b10db4801d279c138", "fusion_lat": 0.0, "name": "a5d9e67a764a478b10db4801d279c138", "is_reserved": 0, "rental_uris": {"android": "https://dc.lft.to/lastmile_qr_scan", "ios": "https://dc.lft.to/lastmile_qr_scan"}, "fusion_lon": 0.0}, {"lat": 38.9056545, "is_disabled": 0, "type": "electric_scooter", "lon": -77.0465745, "bike_id": "6c33b6f2cc6c2789f595c7813d428400", "fusion_lat": 0.0, "name": "6c33b6f2cc6c2789f595c7813d428400", "is_reserved": 0, "rental_uris": {"android": "https://dc.lft.to/lastmile_qr_scan", "ios": "https://dc.lft.to/lastmile_qr_scan"}, "fusion_lon": 0.0}, {"lat": 38.92334266666667, "is_disabled": 0, "type": "electric_bike", "lon": -77.038922, "bike_id": "67aee8708ed7ac42a8fed7dd472d62df", "fusion_lat": 0.0, "name": "67aee8708ed7ac42a8fed7dd472d62df", "is_reserved": 0, "rental_uris": {"android": "https://dc.lft.to/lastmile_qr_scan", "ios": "https://dc.lft.to/lastmile_qr_scan"}, "fusion_lon": 0.0}, {"lat": 38.9137505, "is_disabled": 0, "type": "electric_scooter", "lon": -77.02, "bike_id": "8d747972a99aaaf06eff8aa1e8502fda", "fusion_lat": 0.0, "name": "8d747972a99aaaf06eff8aa1e8502fda", "is_reserved": 0, "rental_uris": {"android": "https://dc.lft.to/lastmile_qr_scan", "ios": "https://dc.lft.to/lastmile_qr_scan"}, "fusion_lon": 0.0},