{"data": {"bikes": [{"bike_id": "9f02fa9c5ec70d6916fbb8ff93eab668", "is_reserved": 0, "fusion_lon": 0.0, "lat": 38.896106, "is_disabled": 0, "name": "9f02fa9c5ec70d6916fbb8ff93eab668", "fusion_lat": 0.0, "rental_uris": {"ios": "https://dc.lft.to/lastmile_qr_scan", "android": "https://dc.lft.to/lastmile_qr_scan"}, "lon": -76.984534, "type": "electric_scooter"}, {"bike_id": "c73a1df456d4a33ceae9991fb5cd40e8", "is_reserved": 0, "fusion_lon": 0.0, "lat": 38.901097, "is_disabled": 0, "name": "c73a1df456d4a33ceae9991fb5cd40e8", "fusion_lat": 0.0, "rental_uris": {"ios": "https://dc.lft.to/lastmile_qr_scan", "android": "https://dc.lft.to/lastmile_qr_scan"}, "lon": -77.0435835, "type": "electric_scooter"}, {"bike_id": "80375925beac0563f6377db3b3e03572", "is_reserved": 0, "fusion_lon": 0.0, "lat": 38.909619666666664, "is_disabled": 0, "name": "80375925beac0563f6377db3b3e03572", "fusion_lat": 0.0, "rental_uris": {"ios": "https://dc.lft.to/lastmile_qr_scan", "android": "https://dc.lft.to/lastmile_qr_scan"}, "lon": -77.0486675, "type": "electric_scooter"}, {"bike_id": "ca10c6cad7c73219932e1ca73c9d9f3b", "is_reserved": 0, "fusion_lon": 0.0, "lat": 39.03880866666667, "is_disabled": 0, "name": "ca10c6cad7c73219932e1ca73c9d9f3b", "fusion_lat": 0.0, "rental_uris": {"ios": "https://dc.lft.to/lastmile_qr_scan", "android": "https://dc.lft.to/lastmile_qr_scan"}, "lon": -76.990395, "type": "electric_bike"}, {"bike_id": "46415e0b49f7f31a042f7b6799bce0ab", "is_reserved": 0, "fusion_lon": 0.0, "lat": 38.91427316666667, "is_disabled": 0, "name": "46415e0b49f7f31a042f7b6799bce0ab", "fusion_lat": 0.0, "rental_uris": {"ios": "https://dc.lft.to/lastmile_qr_scan", "android": "https://dc.lft.to/lastmile_qr_scan"}, "lon": -77.04498483333333, "type": "electric_scooter"}, {"bike_id": "032e94dd0230272764b6530add4b912a", "is_reserved": 0, "fusion_lon": 0.0, "lat": 38.892245333333335, "is_disabled": 0, "name": "032e94dd0230272764b6530add4b912a", "fusion_lat": 0.0, "rental_uris": {"ios": "https://dc.lft.to/lastmile_qr_scan", "android": "https://dc.lft.to/lastmile_qr_scan"}, "lon": -77.02452366666667, "type": "electric_scooter"}, {"bike_id": "fcd1b6a3b9c1c0adabc33b64ca451af7", "is_reserved": 0, "fusion_lon": 0.0, "lat": 38.9060945, "is_disabled": 0, "name": "fcd1b6a3b9c1c0adabc33b64ca451af7", "fusion_lat": 0.0, "rental_uris": {"ios": "https://dc.lft.to/lastmile_qr_scan", "android": "https://dc.lft.to/lastmile_qr_scan"}, "lon": -77.07486066666667, "type": "electric_scooter"}, {"bike_id": "10299d350b31b2e33149eedbaec099f6", "is_reserved": 0, "fusion_lon": 0.0, "lat": 38.902769666666664, "is_disabled": 0, "name": "10299d350b31b2e33149eedbaec099f6", "fusion_lat": 0.0, "rental_uris": {"ios": "https://dc.lft.to/lastmile_qr_scan", "android": "https://dc.lft.to/lastmile_qr_scan"}, "lon": -77.028296, "type": "electric_scooter"}, {"bike_id": "dc6c893c32089bed4cf8b9afd4ac47f8", "is_reserved": 0, "fusion_lon": 0.0, "lat": 38.92330666666667, "is_disabled": 0, "name": "dc6c893c32089bed4cf8b9afd4ac47f8", "fusion_lat": 0.0, "rental_uris": {"ios": "https://dc.lft.to/lastmile_qr_scan", "android": "https://dc.lft.to/lastmile_qr_scan"}, "lon": -77.043878, "type": "electric_scooter"}, {"bike_id": "68755a9c2d99288e3e89ddafd6a75e3d", "is_reserved": 0, "fusion_lon": 0.0, "lat": 38.95780333333333, "is_disabled": 0, "name": "68755a9c2d99288e3e89ddafd6a75e3d", "fusion_lat": 0.0, "rental_uris": {"ios": "https://dc.lft.to/lastmile_qr_scan", "android": "https://dc.lft.to/lastmile_qr_scan"}, "lon": -77.02757133333333, "type": "electric_bike"}, {"bike_id": "556da047fe6e931e9beca36a415adbbf", "is_reserved": 0, "fusion_lon": 0.0, "lat": 38.92069766666667, "is_disabled": 0, "name": "556da047fe6e931e9beca36a415adbbf", "fusion_lat": 0.0, "rental_uris": {"ios": "https://dc.lft.to/lastmile_qr_scan", "android": "https://dc.lft.to/lastmile_qr_scan"}, "lon": -76.97799616666667, "type": "electric_scooter"}, {"bike_id": "66852e6a5e122cd9a9b7f7c2592be83b", "is_reserved": 0, "fusion_lon": 0.0, "lat": 38.90587466666667, "is_disabled": 0, "name": "66852e6a5e122cd9a9b7f7c2592be83b", "fusion_lat": 0.0, "rental_uris": {"ios": "https://dc.lft.to/lastmile_qr_scan", "android": "https://dc.lft.to/lastmile_qr_scan"}, "lon": -77.06514416666667, "type": "electric_scooter"}, {"bike_id": "7873a89dcac99ed12e06d0e0779e980c", "is_reserved": 0, "fusion_lon": 0.0, "lat": 38.920564666666664, "is_disabled": 0, "name": "7873a89dcac99ed12e06d0e0779e980c", "fusion_lat": 0.0, "rental_uris": {"ios": "https://dc.lft.to/lastmile_qr_scan", "android": "https://dc.lft.to/lastmile_qr_scan"}, "lon": -77.03393483333333, "type": "electric_scooter"}, {"bike_id": "18115e994f37439c04fd49a2d2956b0a", "is_reserved": 0, "fusion_lon": 0.0, "lat": 38.91120516666667, "is_disabled": 0, "name": "18115e994f37439c04fd49a2d2956b0a", "fusion_lat": 0.0, "rental_uris": {"ios": "https://dc.lft.to/lastmile_qr_scan", "android": "https://dc.lft.to/lastmile_qr_scan"}, "lon": -77.0465345, "type": "electric_scooter"}, {"bike_id": "9e7f656aceca728bff6bc19f0c76f412", "is_reserved": 0, "fusion_lon": 0.0, "lat": 38.905093666666666, "is_disabled": 0, "name": "9e7f656aceca728bff6bc19f0c76f412", "fusion_lat": 0.0, "rental_uris": {"ios": "https://dc.lft.to/lastmile_qr_scan", "android": "https://dc.lft.to/lastmile_qr_scan"}, "lon": -77.06387533333333, "type": "electric_scooter"}, {"bike_id": "e012d311fd941b97e9cb52b05aa24c90", "is_reserved": 0, "fusion_lon": 0.0, "lat": 38.905945833333334, "is_disabled": 0, "name": "e012d311fd941b97e9cb52b05aa24c90", "fusion_lat": 0.0, "rental_uris": {"ios": "https://dc.lft.to/lastmile_qr_scan", "android": "https://dc.lft.to/lastmile_qr_scan"}, "lon": -77.046709, "type": "electric_scooter"}, {"bike_id": "dd1c729ce9e17afe3a9dae0c85204723", "is_reserved": 0, "fusion_lon": 0.0, "lat": 38.905752, "is_disabled": 0, "name": "dd1c729ce9e17afe3a9dae0c85204723", "fusion_lat": 0.0, "rental_uris": {"ios": "https://dc.lft.to/lastmile_qr_scan", "android": "https://dc.lft.to/lastmile_qr_scan"}, "lon": -77.03625933333333, "type": "electric_scooter"}, {"bike_id": "b0d88ac8f231db9fccec8cf0377c4c6f", "is_reserved": 0, "fusion_lon": 0.0, "lat": 38.9205675, "is_disabled": 0, "name": "b0d88ac8f231db9fccec8cf0377c4c6f", "fusion_lat": 0.0, "rental_uris": {"ios": "https://dc.lft.to/lastmile_qr_scan", "android": "https://dc.lft.to/lastmile_qr_scan"}, "lon": -77.03317566666666, "type": "electric_bike"}, {"bike_id": "eca161051b8d6b3733e1602336c4556c", "is_reserved": 0, "fusion_lon": 0.0, "lat": 38.9197775, "is_disabled": 0, "name": "eca161051b8d6b3733e1602336c4556c", "fusion_lat": 0.0, "rental_uris": {"ios": "https://dc.lft.to/lastmile_qr_scan", "android": "https://dc.lft.to/lastmile_qr_scan"}, "lon": -77.00110166666667, "type": "electric_scooter"}, {"bike_id": "b4b1b69151751cbde9c8b5764a6b304d", "is_reserved": 0, "fusion_lon": 0.0, "lat": 38.9232405, "is_disabled": 0, "name": "b4b1b69151751cbde9c8b5764a6b304d", "fusion_lat": 0.0, "rental_uris": {"ios": "https://dc.lft.to/lastmile_qr_scan", "android": "https://dc.lft.to/lastmile_qr_scan"}, "lon": -77.03865066666667, "type": "electric_scooter"}, {"bike_id": "f528a0c947ce2758d224280b4bb2923e", "is_reserved": 0, "fusion_lon": 0.0, "lat": 38.89665633333333, "is_disabled": 0, "name": "f528a0c947ce2758d224280b4bb2923e", "fusion_lat": 0.0, "rental_uris": {"ios": "https://dc.lft.to/lastmile_qr_scan", "android": "https://dc.lft.to/lastmile_qr_scan"}, "lon": -77.02956216666666, "type": "electric_scooter"}, {"bike_id": "4c3b8915fa2813b5209e4d18a1d884fb", "is_reserved": 0, "fusion_lon": 0.0, "lat": 38.92349016666667, "is_disabled": 0, "name": "4c3b8915fa2813b5209e4d18a1d884fb", "fusion_lat": 0.0, "rental_uris": {"ios": "https://dc.lft.to/lastmile_qr_scan", "android": "https://dc.lft.to/lastmile_qr_scan"}, "lon": -77.01899116666667, "type": "electric_scooter"}, {"bike_id": "c7f96368f99642c6519364dc964a41c9", "is_reserved": 0, "fusion_lon": 0.0, "lat": 38.897108333333335, "is_disabled": 0, "name": "c7f96368f99642c6519364dc964a41c9", "fusion_lat": 0.0, "rental_uris": {"ios": "https://dc.lft.to/lastmile_qr_scan", "android": "https://dc.lft.to/lastmile_qr_scan"}, "lon": -76.91767783333333, "type": "electric_scooter"}, {"bike_id": "6a6a5b2d6dd573e41c843162a7a679bd", "is_reserved": 0, "fusion_lon": 0.0, "lat": 38.921109333333334, "is_disabled": 0, "name": "6a6a5b2d6dd573e41c843162a7a679bd", "fusion_lat": 0.0, "rental_uris": {"ios": "https://dc.lft.to/lastmile_qr_scan", "android": "https://dc.lft.to/lastmile_qr_scan"}, "lon": -77.04572116666667, "type": "electric_scooter"}, {"bike_id": "1b6e8928e3c4f0ae783ec2714ad0c166", "is_reserved": 0, "fusion_lon": 0.0, "lat": 38.91880033333333, "is_disabled": 0, "name": "1b6e8928e3c4f0ae783ec2714ad0c166", "fusion_lat": 0.0, "rental_uris": {"ios": "https://dc.lft.to/lastmile_qr_scan", "android": "https://dc.lft.to/lastmile_qr_scan"}, "lon": -77.04315166666666, "type": "electric_scooter"}, {"bike_id": "3548a0c73fb72c6a51679d4132764584", "is_reserved": 0, "fusion_lon": 0.0, "lat": 38.827285, "is_disabled": 0, "name": "3548a0c73fb72c6a51679d4132764584", "fusion_lat": 0.0, "rental_uris": {"ios": "https://dc.lft.to/lastmile_qr_scan", "android": "https://dc.lft.to/lastmile_qr_scan"}, "lon": -77.008625, "type": "electric_bike"}, {"bike_id": "16b3eb114ed56c37bbe97222d6a99f66", "is_reserved": 0, "fusion_lon": 0.0, "lat": 38.924081, "is_disabled": 0, "name": "16b3eb114ed56c37bbe97222d6a99f66", "fusion_lat": 0.0, "rental_uris": {"ios": "https://dc.lft.to/lastmile_qr_scan", "android": "https://dc.lft.to/lastmile_qr_scan"}, "lon": -77.01945783333333, "type": "electric_scooter"}, {"bike_id": "a44ad7dcc0f7fdeb2c6cc9614c066050", "is_reserved": 0, "fusion_lon": 0.0, "lat": 38.8997315, "is_disabled": 0, "name": "a44ad7dcc0f7fdeb2c6cc9614c066050", "fusion_lat": 0.0, "rental_uris": {"ios": "https://dc.lft.to/lastmile_qr_scan", "android": "https://dc.lft.to/lastmile_qr_scan"}, "lon": -77.05575366666666, "type": "electric_scooter"}, {"bike_id": "a4a0ced1f28d4219d39f7eb9aacdee79", "is_reserved": 0, "fusion_lon": 0.0, "lat": 38.88023466666667, "is_disabled": 0, "name": "a4a0ced1f28d4219d39f7eb9aacdee79", "fusion_lat": 0.0, "rental_uris": {"ios": "https://dc.lft.to/lastmile_qr_scan", "android": "https://dc.lft.to/lastmile_qr_scan"}, "lon": -76.93125916666666, "type": "electric_scooter"}, {"bike_id": "795241a07587b56076d6bbc0924c0146", "is_reserved": 0, "fusion_lon": 0.0, "lat": 38.927967833333334, "is_disabled": 0, "name": "795241a07587b56076d6bbc0924c0146", "fusion_lat": 0.0, "rental_uris": {"ios": "https://dc.lft.to/lastmile_qr_scan", "android": "https://dc.lft.to/lastmile_qr_scan"}, "lon": -77.05359433333334, "type": "electric_scooter"}, {"bike_id": "8de2559ea5270642d06b3642e289ca94", "is_reserved": 0, "fusion_lon": 0.0, "lat": 38.8849505, "is_disabled": 0, "name": "8de2559ea5270642d06b3642e289ca94", "fusion_lat": 0.0, "rental_uris": {"ios": "https://dc.lft.to/lastmile_qr_scan", "android": "https://dc.lft.to/lastmile_qr_scan"}, "lon": -77.00728083333334, "type": "electric_scooter"}, {"bike_id": "6113fabf6d50a025f8ca14ecb6b9e6e2", "is_reserved": 0, "fusion_lon": 0.0, "lat": 38.9086325, "is_disabled": 0, "name": "6113fabf6d50a025f8ca14ecb6b9e6e2", "fusion_lat": 0.0, "rental_uris": {"ios": "https://dc.lft.to/lastmile_qr_scan", "android": "https://dc.lft.to/lastmile_qr_scan"}, "lon": -77.02733583333334, "type": "electric_scooter"}, {"bike_id": "9afc45a7088708279e5de1abcc8c7ea6", "is_reserved": 0, "fusion_lon": 0.0, "lat": 38.9079905, "is_disabled": 0, "name": "9afc45a7088708279e5de1abcc8c7ea6", "fusion_lat": 0.0, "rental_uris": {"ios": "https://dc.lft.to/lastmile_qr_scan", "android": "https://dc.lft.to/lastmile_qr_scan"}, "lon": -77.03458183333333, "type": "electric_scooter"}, {"bike_id": "e448234df79219abc57a73e0d02c50ad", "is_reserved": 0, "fusion_lon": 0.0, "lat": 38.8923195, "is_disabled": 0, "name": "e448234df79219abc57a73e0d02c50ad", "fusion_lat": 0.0, "rental_uris": {"ios": "https://dc.lft.to/lastmile_qr_scan", "android": "https://dc.lft.to/lastmile_qr_scan"}, "lon": -77.02204916666666, "type": "electric_scooter"}, {"bike_id": "71b8ee3b56f63d8131d44bbec886d984", "is_reserved": 0, "fusion_lon": 0.0, "lat": 38.91117916666666, "is_disabled": 0, "name": "71b8ee3b56f63d8131d44bbec886d984", "fusion_lat": 0.0, "rental_uris": {"ios": "https://dc.lft.to/lastmile_qr_scan", "android": "https://dc.lft.to/lastmile_qr_scan"}, "lon": -77.03730483333334, "type": "electric_scooter"}, {"bike_id": "5cef4aae5de85ffc047b8e972cc29d94", "is_reserved": 0, "fusion_lon": 0.0, "lat": 38.975107, "is_disabled": 0, "name": "5cef4aae5de85ffc047b8e972cc29d94", "fusion_lat": 0.0, "rental_uris": {"ios": "https://dc.lft.to/lastmile_qr_scan", "android": "https://dc.lft.to/lastmile_qr_scan"}, "lon": -77.0174805, "type": "electric_scooter"}, {"bike_id": "ebc33a0bbc2992b73aba3cba44e8332a", "is_reserved": 0, "fusion_lon": 0.0, "lat": 38.93514316666667, "is_disabled": 0, "name": "ebc33a0bbc2992b73aba3cba44e8332a", "fusion_lat": 0.0, "rental_uris": {"ios": "https://dc.lft.to/lastmile_qr_scan", "android": "https://dc.lft.to/lastmile_qr_scan"}, "lon": -77.03297933333333, "type": "electric_scooter"}, {"bike_id": "c7d79b3bb49f9eb5f9f05e006572773b", "is_reserved": 0, "fusion_lon": 0.0, "lat": 38.91063616666667, "is_disabled": 0, "name": "c7d79b3bb49f9eb5f9f05e006572773b", "fusion_lat": 0.0, "rental_uris": {"ios": "https://dc.lft.to/lastmile_qr_scan", "android": "https://dc.lft.to/lastmile_qr_scan"}, "lon": -77.0222735, "type": "electric_scooter"}, {"bike_id": "758661610fb0a2feb7e40037b7dde046", "is_reserved": 0, "fusion_lon": 0.0, "lat": 38.84298116666667, "is_disabled": 0, "name": "758661610fb0a2feb7e40037b7dde046", "fusion_lat": 0.0, "rental_uris": {"ios": "https://dc.lft.to/lastmile_qr_scan", "android": "https://dc.lft.to/lastmile_qr_scan"}, "lon": -76.99946766666666, "type": "electric_scooter"}, {"bike_id": "48115220029b2dafd6bec7eed0d8499f", "is_reserved": 0, "fusion_lon": 0.0, "lat": 38.90573166666667, "is_disabled": 0, "name": "48115220029b2dafd6bec7eed0d8499f", "fusion_lat": 0.0, "rental_uris": {"ios": "https://dc.lft.to/lastmile_qr_scan", "android": "https://dc.lft.to/lastmile_qr_scan"}, "lon": -77.01674283333334, "type": "electric_scooter"}, {"bike_id": "2ca416f0cb2c1463d50cda457700adcf", "is_reserved": 0, "fusion_lon": 0.0, "lat": 38.90647466666667, "is_disabled": 0, "name": "2ca416f0cb2c1463d50cda457700adcf", "fusion_lat": 0.0, "rental_uris": {"ios": "https://dc.lft.to/lastmile_qr_scan", "android": "https://dc.lft.to/lastmile_qr_scan"}, "lon": -77.010318, "type": "electric_scooter"}, {"bike_id": "9fc5052654b7992b83ce1d588e4b6fde", "is_reserved": 0, "fusion_lon": 0.0, "lat": 38.886733666666665, "is_disabled": 0, "name": "9fc5052654b7992b83ce1d588e4b6fde", "fusion_lat": 0.0, "rental_uris": {"ios": "https://dc.lft.to/lastmile_qr_scan", "android": "https://dc.lft.to/lastmile_qr_scan"}, "lon": -77.0137215, "type": "electric_scooter"}, {"bike_id": "4184098f8760a25cf992a1bb3369b76d", "is_reserved": 0, "fusion_lon": 0.0, "lat": 38.927452833333334, "is_disabled": 0, "name": "4184098f8760a25cf992a1bb3369b76d", "fusion_lat": 0.0, "rental_uris": {"ios": "https://dc.lft.to/lastmile_qr_scan", "android": "https://dc.lft.to/lastmile_qr_scan"}, "lon": -77.05383966666666, "type": "electric_scooter"}, {"bike_id": "e97382829c1ab6fe395cca472ffb8a09", "is_reserved": 0, "fusion_lon": 0.0, "lat": 38.892197833333334, "is_disabled": 0, "name": "e97382829c1ab6fe395cca472ffb8a09", "fusion_lat": 0.0, "rental_uris": {"ios": "https://dc.lft.to/lastmile_qr_scan", "android": "https://dc.lft.to/lastmile_qr_scan"}, "lon": -77.03222583333333, "type": "electric_scooter"}, {"bike_id": "8c75c9532b35a21c10c24378a0707637", "is_reserved": 0, "fusion_lon": 0.0, "lat": 38.921295, "is_disabled": 0, "name": "8c75c9532b35a21c10c24378a0707637", "fusion_lat": 0.0, "rental_uris": {"ios": "https://dc.lft.to/lastmile_qr_scan", "android": "https://dc.lft.to/lastmile_qr_scan"}, "lon": -77.0220065, "type": "electric_scooter"}, {"bike_id": "0fae8f694692b1c98e94f79ce0aabad0", "is_reserved": 0, "fusion_lon": 0.0, "lat": 38.902596, "is_disabled": 0, "name": "0fae8f694692b1c98e94f79ce0aabad0", "fusion_lat": 0.0, "rental_uris": {"ios": "https://dc.lft.to/lastmile_qr_scan", "android": "https://dc.lft.to/lastmile_qr_scan"}, "lon": -77.03968333333333, "type": "electric_scooter"}, {"bike_id": "7e5c7658f4adf17f8a09d67db1bc6cf0", "is_reserved": 0, "fusion_lon": 0.0, "lat": 38.85248566666667, "is_disabled": 0, "name": "7e5c7658f4adf17f8a09d67db1bc6cf0", "fusion_lat": 0.0, "rental_uris": {"ios": "https://dc.lft.to/lastmile_qr_scan", "android": "https://dc.lft.to/lastmile_qr_scan"}, "lon": -77.11425266666667, "type": "electric_bike"}, {"bike_id": "8459d44c700daeedc715580fb7a3e3fe", "is_reserved": 0, "fusion_lon": 0.0, "lat": 38.902879, "is_disabled": 0, "name": "8459d44c700daeedc715580fb7a3e3fe", "fusion_lat": 0.0, "rental_uris": {"ios": "https://dc.lft.to/lastmile_qr_scan", "android": "https://dc.lft.to/lastmile_qr_scan"}, "lon": -77.03848133333334, "type": "electric_scooter"}, {"bike_id": "6d78bcb5337a93f182b492076314aa5a", "is_reserved": 0, "fusion_lon": 0.0, "lat": 38.9120305, "is_disabled": 0, "name": "6d78bcb5337a93f182b492076314aa5a", "fusion_lat": 0.0, "rental_uris": {"ios": "https://dc.lft.to/lastmile_qr_scan", "android": "https://dc.lft.to/lastmile_qr_scan"}, "lon": -77.0297435, "type": "electric_scooter"}, {"bike_id": "69dba10c842bf92132a3fe0c950fc24c", "is_reserved": 0, "fusion_lon": 0.0, "lat": 38.904981166666666, "is_disabled": 0, "name": "69dba10c842bf92132a3fe0c950fc24c", "fusion_lat": 0.0, "rental_uris": {"ios": "https://dc.lft.to/lastmile_qr_scan", "android": "https://dc.lft.to/lastmile_qr_scan"}, "lon": -77.05747366666667, "type": "electric_scooter"}, {"bike_id": "64f218ed7a403fc4a26e72d38884add8", "is_reserved": 0, "fusion_lon": 0.0, "lat": 38.8813595, "is_disabled": 0, "name": "64f218ed7a403fc4a26e72d38884add8", "fusion_lat": 0.0, "rental_uris": {"ios": "https://dc.lft.to/lastmile_qr_scan", "android": "https://dc.lft.to/lastmile_qr_scan"}, "lon": -76.980942, "type": "electric_bike"}, {"bike_id": "a2f1a9baeb91c56297a7518d5765eccb", "is_reserved": 0, "fusion_lon": 0.0, "lat": 38.91429, "is_disabled": 0, "name": "a2f1a9baeb91c56297a7518d5765eccb", "fusion_lat": 0.0, "rental_uris": {"ios": "https://dc.lft.to/lastmile_qr_scan", "android": "https://dc.lft.to/lastmile_qr_scan"}, "lon": -77.04158633333333, "type": "electric_scooter"}, {"bike_id": "312f1d9a12ca41fa38940696ec9224b4", "is_reserved": 0, "fusion_lon": 0.0, "lat": 38.900629, "is_disabled": 0, "name": "312f1d9a12ca41fa38940696ec9224b4", "fusion_lat": 0.0, "rental_uris": {"ios": "https://dc.lft.to/lastmile_qr_scan", "android": "https://dc.lft.to/lastmile_qr_scan"}, "lon": -77.05153616666666, "type": "electric_scooter"}, {"bike_id": "4f905d3cdf722d75d7af0cbe8fe45e98", "is_reserved": 0, "fusion_lon": 0.0, "lat": 38.9141965, "is_disabled": 0, "name": "4f905d3cdf722d75d7af0cbe8fe45e98", "fusion_lat": 0.0, "rental_uris": {"ios": "https://dc.lft.to/lastmile_qr_scan", "android": "https://dc.lft.to/lastmile_qr_scan"}, "lon": -77.03813333333333, "type": "electric_scooter"}, {"bike_id": "b2521dc80aafcddb34bf3d6b02b7c013", "is_reserved": 0, "fusion_lon": 0.0, "lat": 38.894801666666666, "is_disabled": 0, "name": "b2521dc80aafcddb34bf3d6b02b7c013", "fusion_lat": 0.0, "rental_uris": {"ios": "https://dc.lft.to/lastmile_qr_scan", "android": "https://dc.lft.to/lastmile_qr_scan"}, "lon": -77.0228745, "type": "electric_scooter"}, {"bike_id": "4df1ccfb4f6eeef80cd6e5e6dd4ce965", "is_reserved": 0, "fusion_lon": 0.0, "lat": 38.93084133333333, "is_disabled": 0, "name": "4df1ccfb4f6eeef80cd6e5e6dd4ce965", "fusion_lat": 0.0, "rental_uris": {"ios": "https://dc.lft.to/lastmile_qr_scan", "android": "https://dc.lft.to/lastmile_qr_scan"}, "lon": -77.0279315, "type": "electric_scooter"}, {"bike_id": "b5f7dcf0169f2082cf7367e9922ef107", "is_reserved": 0, "fusion_lon": 0.0, "lat": 38.91682433333333, "is_disabled": 0, "name": "b5f7dcf0169f2082cf7367e9922ef107", "fusion_lat": 0.0, "rental_uris": {"ios": "https://dc.lft.to/lastmile_qr_scan", "android": "https://dc.lft.to/lastmile_qr_scan"}, "lon": -77.0295275, "type": "electric_scooter"}, {"bike_id": "eb63124d781045bc20da7c6a94285a2b", "is_reserved": 0, "fusion_lon": 0.0, "lat": 38.9014785, "is_disabled": 0, "name": "eb63124d781045bc20da7c6a94285a2b", "fusion_lat": 0.0, "rental_uris": {"ios": "https://dc.lft.to/lastmile_qr_scan", "android": "https://dc.lft.to/lastmile_qr_scan"}, "lon": -77.02837283333334, "type": "electric_scooter"}, {"bike_id": "0db98f5f27466a70cd41bbb84f3d2dc2", "is_reserved": 0, "fusion_lon": 0.0, "lat": 38.9028905, "is_disabled": 0, "name": "0db98f5f27466a70cd41bbb84f3d2dc2", "fusion_lat": 0.0, "rental_uris": {"ios": "https://dc.lft.to/lastmile_qr_scan", "android": "https://dc.lft.to/lastmile_qr_scan"}, "lon": -77.03954183333333, "type": "electric_scooter"}, {"bike_id": "d4764d2a0ec4a53e8c18fc06b0518914", "is_reserved": 0, "fusion_lon": 0.0, "lat": 38.8666005, "is_disabled": 0, "name": "d4764d2a0ec4a53e8c18fc06b0518914", "fusion_lat": 0.0, "rental_uris": {"ios": "https://dc.lft.to/lastmile_qr_scan", "android": "https://dc.lft.to/lastmile_qr_scan"}, "lon": -76.99010283333334, "type": "electric_scooter"}, {"bike_id": "e0ff14e422ffe25147d793bd6cf78b23", "is_reserved": 0, "fusion_lon": 0.0, "lat": 38.898231, "is_disabled": 0, "name": "e0ff14e422ffe25147d793bd6cf78b23", "fusion_lat": 0.0, "rental_uris": {"ios": "https://dc.lft.to/lastmile_qr_scan", "android": "https://dc.lft.to/lastmile_qr_scan"}, "lon": -76.94654733333333, "type": "electric_scooter"}, {"bike_id": "75af162995c39fb74f0aafc320b4be13", "is_reserved": 0, "fusion_lon": 0.0, "lat": 38.90063466666667, "is_disabled": 0, "name": "75af162995c39fb74f0aafc320b4be13", "fusion_lat": 0.0, "rental_uris": {"ios": "https://dc.lft.to/lastmile_qr_scan", "android": "https://dc.lft.to/lastmile_qr_scan"}, "lon": -77.0505035, "type": "electric_scooter"}, {"bike_id": "41638e1bb9b0db908f35cf7052b5a0e6", "is_reserved": 0, "fusion_lon": 0.0, "lat": 38.839846666666666, "is_disabled": 0, "name": "41638e1bb9b0db908f35cf7052b5a0e6", "fusion_lat": 0.0, "rental_uris": {"ios": "https://dc.lft.to/lastmile_qr_scan", "android": "https://dc.lft.to/lastmile_qr_scan"}, "lon": -77.00563566666666, "type": "electric_bike"}, {"bike_id": "fa3c426910b42a61996cd6afd5e5a88c", "is_reserved": 0, "fusion_lon": 0.0, "lat": 38.90333033333334, "is_disabled": 0, "name": "fa3c426910b42a61996cd6afd5e5a88c", "fusion_lat": 0.0, "rental_uris": {"ios": "https://dc.lft.to/lastmile_qr_scan", "android": "https://dc.lft.to/lastmile_qr_scan"}, "lon": -77.06602766666667, "type": "electric_scooter"}, {"bike_id": "a5e39f2eb695f5ae9c6354a26eadcf27", "is_reserved": 0, "fusion_lon": 0.0, "lat": 38.89684533333333, "is_disabled": 0, "name": "a5e39f2eb695f5ae9c6354a26eadcf27", "fusion_lat": 0.0, "rental_uris": {"ios": "https://dc.lft.to/lastmile_qr_scan", "android": "https://dc.lft.to/lastmile_qr_scan"}, "lon": -77.02617083333334, "type": "electric_scooter"}, {"bike_id": "cff06df0a6fa6e722e33c378e809189e", "is_reserved": 0, "fusion_lon": 0.0, "lat": 38.90273216666667, "is_disabled": 0, "name": "cff06df0a6fa6e722e33c378e809189e", "fusion_lat": 0.0, "rental_uris": {"ios": "https://dc.lft.to/lastmile_qr_scan", "android": "https://dc.lft.to/lastmile_qr_scan"}, "lon": -77.03837683333333, "type": "electric_scooter"}, {"bike_id": "696dc7ad3644f822465908aa425d0bc6", "is_reserved": 0, "fusion_lon": 0.0, "lat": 38.898453833333335, "is_disabled": 0, "name": "696dc7ad3644f822465908aa425d0bc6", "fusion_lat": 0.0, "rental_uris": {"ios": "https://dc.lft.to/lastmile_qr_scan", "android": "https://dc.lft.to/lastmile_qr_scan"}, "lon": -76.99495266666666, "type": "electric_scooter"}, {"bike_id": "33ef7caf607b6c44d5e127ff73e4d1ff", "is_reserved": 0, "fusion_lon": 0.0, "lat": 38.92766966666667, "is_disabled": 0, "name": "33ef7caf607b6c44d5e127ff73e4d1ff", "fusion_lat": 0.0, "rental_uris": {"ios": "https://dc.lft.to/lastmile_qr_scan", "android": "https://dc.lft.to/lastmile_qr_scan"}, "lon": -77.03243866666666, "type": "electric_scooter"}, {"bike_id": "642c76b7ecbbc3429375ed38f6b92360", "is_reserved": 0, "fusion_lon": 0.0, "lat": 38.89096966666666, "is_disabled": 0, "name": "642c76b7ecbbc3429375ed38f6b92360", "fusion_lat": 0.0, "rental_uris": {"ios": "https://dc.lft.to/lastmile_qr_scan", "android": "https://dc.lft.to/lastmile_qr_scan"}, "lon": -76.943886, "type": "electric_scooter"}, {"bike_id": "d513421a1905661edb5f0579fed9cbc4", "is_reserved": 0, "fusion_lon": 0.0, "lat": 38.90967933333334, "is_disabled": 0, "name": "d513421a1905661edb5f0579fed9cbc4", "fusion_lat": 0.0, "rental_uris": {"ios": "https://dc.lft.to/lastmile_qr_scan", "android": "https://dc.lft.to/lastmile_qr_scan"}, "lon": -77.0526695, "type": "electric_scooter"}, {"bike_id": "4f085285cf15bd0d41899222fe7f3cc1", "is_reserved": 0, "fusion_lon": 0.0, "lat": 38.92372966666667, "is_disabled": 0, "name": "4f085285cf15bd0d41899222fe7f3cc1", "fusion_lat": 0.0, "rental_uris": {"ios": "https://dc.lft.to/lastmile_qr_scan", "android": "https://dc.lft.to/lastmile_qr_scan"}, "lon": -77.0190235, "type": "electric_scooter"}, {"bike_id": "0f7b3979a1411c5e84ae2fc55185d385", "is_reserved": 0, "fusion_lon": 0.0, "lat": 38.9007875, "is_disabled": 0, "name": "0f7b3979a1411c5e84ae2fc55185d385", "fusion_lat": 0.0, "rental_uris": {"ios": "https://dc.lft.to/lastmile_qr_scan", "android": "https://dc.lft.to/lastmile_qr_scan"}, "lon": -76.93869333333333, "type": "electric_scooter"}, {"bike_id": "5cae26c0e35dcdc8fb7e42066960f508", "is_reserved": 0, "fusion_lon": 0.0, "lat": 38.918060833333335, "is_disabled": 0, "name": "5cae26c0e35dcdc8fb7e42066960f508", "fusion_lat": 0.0, "rental_uris": {"ios": "https://dc.lft.to/lastmile_qr_scan", "android": "https://dc.lft.to/lastmile_qr_scan"}, "lon": -77.03569466666667, "type": "electric_scooter"}, {"bike_id": "5fa7948c9302ec6efdd6bf5707537bcd", "is_reserved": 0, "fusion_lon": 0.0, "lat": 38.92972116666667, "is_disabled": 0, "name": "5fa7948c9302ec6efdd6bf5707537bcd", "fusion_lat": 0.0, "rental_uris": {"ios": "https://dc.lft.to/lastmile_qr_scan", "android": "https://dc.lft.to/lastmile_qr_scan"}, "lon": -77.0053405, "type": "electric_scooter"}, {"bike_id": "c5e43e43a45439e9984f5c4cc42d3aa6", "is_reserved": 0, "fusion_lon": 0.0, "lat": 38.92765516666667, "is_disabled": 0, "name": "c5e43e43a45439e9984f5c4cc42d3aa6", "fusion_lat": 0.0, "rental_uris": {"ios": "https://dc.lft.to/lastmile_qr_scan", "android": "https://dc.lft.to/lastmile_qr_scan"}, "lon": -77.02781666666667, "type": "electric_scooter"}, {"bike_id": "a0b708bdfac6bda86dc1dd4bac484315", "is_reserved": 0, "fusion_lon": 0.0, "lat": 38.9248045, "is_disabled": 0, "name": "a0b708bdfac6bda86dc1dd4bac484315", "fusion_lat": 0.0, "rental_uris": {"ios": "https://dc.lft.to/lastmile_qr_scan", "android": "https://dc.lft.to/lastmile_qr_scan"}, "lon": -77.05211933333334, "type": "electric_scooter"}, {"bike_id": "9fd140132c417a362c4d600a52ce9f80", "is_reserved": 0, "fusion_lon": 0.0, "lat": 38.931593666666664, "is_disabled": 0, "name": "9fd140132c417a362c4d600a52ce9f80", "fusion_lat": 0.0, "rental_uris": {"ios": "https://dc.lft.to/lastmile_qr_scan", "android": "https://dc.lft.to/lastmile_qr_scan"}, "lon": -77.05640516666666, "type": "electric_scooter"}, {"bike_id": "56108ae49ed4bace7845349542034006", "is_reserved": 0, "fusion_lon": 0.0, "lat": 38.899764166666664, "is_disabled": 0, "name": "56108ae49ed4bace7845349542034006", "fusion_lat": 0.0, "rental_uris": {"ios": "https://dc.lft.to/lastmile_qr_scan", "android": "https://dc.lft.to/lastmile_qr_scan"}, "lon": -77.01555333333333, "type": "electric_scooter"}, {"bike_id": "2c8142042eba2da1aa5fff519a0e7f41", "is_reserved": 0, "fusion_lon": 0.0, "lat": 38.90946533333333, "is_disabled": 0, "name": "2c8142042eba2da1aa5fff519a0e7f41", "fusion_lat": 0.0, "rental_uris": {"ios": "https://dc.lft.to/lastmile_qr_scan", "android": "https://dc.lft.to/lastmile_qr_scan"}, "lon": -77.038539, "type": "electric_scooter"}, {"bike_id": "ace16f789052ddc46fd91e5b2590a52a", "is_reserved": 0, "fusion_lon": 0.0, "lat": 38.899068, "is_disabled": 0, "name": "ace16f789052ddc46fd91e5b2590a52a", "fusion_lat": 0.0, "rental_uris": {"ios": "https://dc.lft.to/lastmile_qr_scan", "android": "https://dc.lft.to/lastmile_qr_scan"}, "lon": -77.03971316666667, "type": "electric_scooter"}, {"bike_id": "37f834151e90b78314982e765c7c8fe5", "is_reserved": 0, "fusion_lon": 0.0, "lat": 38.88772866666667, "is_disabled": 0, "name": "37f834151e90b78314982e765c7c8fe5", "fusion_lat": 0.0, "rental_uris": {"ios": "https://dc.lft.to/lastmile_qr_scan", "android": "https://dc.lft.to/lastmile_qr_scan"}, "lon": -76.932614, "type": "electric_scooter"}, {"bike_id": "9c149c656b448728f9d545cc411de782", "is_reserved": 0, "fusion_lon": 0.0, "lat": 38.89964416666667, "is_disabled": 0, "name": "9c149c656b448728f9d545cc411de782", "fusion_lat": 0.0, "rental_uris": {"ios": "https://dc.lft.to/lastmile_qr_scan", "android": "https://dc.lft.to/lastmile_qr_scan"}, "lon": -76.92615933333333, "type": "electric_scooter"}, {"bike_id": "75ff82ca5c89202afd23e1394e8434f9", "is_reserved": 0, "fusion_lon": 0.0, "lat": 38.921658666666666, "is_disabled": 0, "name": "75ff82ca5c89202afd23e1394e8434f9", "fusion_lat": 0.0, "rental_uris": {"ios": "https://dc.lft.to/lastmile_qr_scan", "android": "https://dc.lft.to/lastmile_qr_scan"}, "lon": -77.04688083333333, "type": "electric_scooter"}, {"bike_id": "a74002dac22775dc6e05e67c179657e7", "is_reserved": 0, "fusion_lon": 0.0, "lat": 38.92343066666667, "is_disabled": 0, "name": "a74002dac22775dc6e05e67c179657e7", "fusion_lat": 0.0, "rental_uris": {"ios": "https://dc.lft.to/lastmile_qr_scan", "android": "https://dc.lft.to/lastmile_qr_scan"}, "lon": -77.0351605, "type": "electric_scooter"}, {"bike_id": "82a9444ea64c493f67dd89aad9434e47", "is_reserved": 0, "fusion_lon": 0.0, "lat": 38.92746783333333, "is_disabled": 0, "name": "82a9444ea64c493f67dd89aad9434e47", "fusion_lat": 0.0, "rental_uris": {"ios": "https://dc.lft.to/lastmile_qr_scan", "android": "https://dc.lft.to/lastmile_qr_scan"}, "lon": -77.03635616666666, "type": "electric_bike"}, {"bike_id": "d4d0cdbc9d8ed4357473618682cb05b4", "is_reserved": 0, "fusion_lon": 0.0, "lat": 38.908806166666665, "is_disabled": 0, "name": "d4d0cdbc9d8ed4357473618682cb05b4", "fusion_lat": 0.0, "rental_uris": {"ios": "https://dc.lft.to/lastmile_qr_scan", "android": "https://dc.lft.to/lastmile_qr_scan"}, "lon": -77.03288366666666, "type": "electric_scooter"}, {"bike_id": "3d7fcef73915ae7c686177cdec3d0a55", "is_reserved": 0, "fusion_lon": 0.0, "lat": 38.89223966666667, "is_disabled": 0, "name": "3d7fcef73915ae7c686177cdec3d0a55", "fusion_lat": 0.0, "rental_uris": {"ios": "https://dc.lft.to/lastmile_qr_scan", "android": "https://dc.lft.to/lastmile_qr_scan"}, "lon": -77.03341683333333, "type": "electric_scooter"}, {"bike_id": "f8d9cb0a7e3f60729f7222d22cbcfbff", "is_reserved": 0, "fusion_lon": 0.0, "lat": 38.86369583333333, "is_disabled": 0, "name": "f8d9cb0a7e3f60729f7222d22cbcfbff", "fusion_lat": 0.0, "rental_uris": {"ios": "https://dc.lft.to/lastmile_qr_scan", "android": "https://dc.lft.to/lastmile_qr_scan"}, "lon": -77.01362433333334, "type": "electric_scooter"}, {"bike_id": "31b307658b20dbf81c0d2186c5f6ad76", "is_reserved": 0, "fusion_lon": 0.0, "lat": 38.929623166666666, "is_disabled": 0, "name": "31b307658b20dbf81c0d2186c5f6ad76", "fusion_lat": 0.0, "rental_uris": {"ios": "https://dc.lft.to/lastmile_qr_scan", "android": "https://dc.lft.to/lastmile_qr_scan"}, "lon": -77.0114585, "type": "electric_scooter"}, {"bike_id": "5e984590fe5f3c1063ddca0303f9f16a", "is_reserved": 0, "fusion_lon": 0.0, "lat": 38.90530783333333, "is_disabled": 0, "name": "5e984590fe5f3c1063ddca0303f9f16a", "fusion_lat": 0.0, "rental_uris": {"ios": "https://dc.lft.to/lastmile_qr_scan", "android": "https://dc.lft.to/lastmile_qr_scan"}, "lon": -77.05761633333333, "type": "electric_scooter"}, {"bike_id": "8e2e3d5ce986fc2e441b5e90ddfe38c4", "is_reserved": 0, "fusion_lon": 0.0, "lat": 38.9179925, "is_disabled": 0, "name": "8e2e3d5ce986fc2e441b5e90ddfe38c4", "fusion_lat": 0.0, "rental_uris": {"ios": "https://dc.lft.to/lastmile_qr_scan", "android": "https://dc.lft.to/lastmile_qr_scan"}, "lon": -77.03436866666667, "type": "electric_scooter"}, {"bike_id": "06442d8618d4d0d18266431687274ad8", "is_reserved": 0, "fusion_lon": 0.0, "lat": 38.84577483333333, "is_disabled": 0, "name": "06442d8618d4d0d18266431687274ad8", "fusion_lat": 0.0, "rental_uris": {"ios": "https://dc.lft.to/lastmile_qr_scan", "android": "https://dc.lft.to/lastmile_qr_scan"}, "lon": -77.09621333333334, "type": "electric_bike"}, {"bike_id": "9f954643e207c2dc39bd9d52398395d9", "is_reserved": 0, "fusion_lon": 0.0, "lat": 38.91809883333333, "is_disabled": 0, "name": "9f954643e207c2dc39bd9d52398395d9", "fusion_lat": 0.0, "rental_uris": {"ios": "https://dc.lft.to/lastmile_qr_scan", "android": "https://dc.lft.to/lastmile_qr_scan"}, "lon": -77.03438083333333, "type": "electric_scooter"}, {"bike_id": "c8deff7f53ae92059759a8f656455cd7", "is_reserved": 0, "fusion_lon": 0.0, "lat": 38.908692, "is_disabled": 0, "name": "c8deff7f53ae92059759a8f656455cd7", "fusion_lat": 0.0, "rental_uris": {"ios": "https://dc.lft.to/lastmile_qr_scan", "android": "https://dc.lft.to/lastmile_qr_scan"}, "lon": -77.00628033333334, "type": "electric_scooter"}, {"bike_id": "4c5f1d27554555550ff944a943bcb023", "is_reserved": 0, "fusion_lon": 0.0, "lat": 38.924155999999996, "is_disabled": 0, "name": "4c5f1d27554555550ff944a943bcb023", "fusion_lat": 0.0, "rental_uris": {"ios": "https://dc.lft.to/lastmile_qr_scan", "android": "https://dc.lft.to/lastmile_qr_scan"}, "lon": -76.99746, "type": "electric_bike"}, {"bike_id": "e0cca877f6321a54ec9e2550ff0a505e", "is_reserved": 0, "fusion_lon": 0.0, "lat": 38.917731, "is_disabled": 0, "name": "e0cca877f6321a54ec9e2550ff0a505e", "fusion_lat": 0.0, "rental_uris": {"ios": "https://dc.lft.to/lastmile_qr_scan", "android": "https://dc.lft.to/lastmile_qr_scan"}, "lon": -77.04055366666667, "type": "electric_scooter"}, {"bike_id": "9717790aa8dd34e835547e469f1570ce", "is_reserved": 0, "fusion_lon": 0.0, "lat": 38.842910333333336, "is_disabled": 0, "name": "9717790aa8dd34e835547e469f1570ce", "fusion_lat": 0.0, "rental_uris": {"ios": "https://dc.lft.to/lastmile_qr_scan", "android": "https://dc.lft.to/lastmile_qr_scan"}, "lon": -76.99954566666666, "type": "electric_scooter"}, {"bike_id": "7e4a98dcef8437fb2f548cd1d84d366a", "is_reserved": 0, "fusion_lon": 0.0, "lat": 38.936774, "is_disabled": 0, "name": "7e4a98dcef8437fb2f548cd1d84d366a", "fusion_lat": 0.0, "rental_uris": {"ios": "https://dc.lft.to/lastmile_qr_scan", "android": "https://dc.lft.to/lastmile_qr_scan"}, "lon": -77.035898, "type": "electric_scooter"}, {"bike_id": "dc9d93a69eef7ba1f4ac9fd1cc6b4a94", "is_reserved": 0, "fusion_lon": 0.0, "lat": 38.90327833333333, "is_disabled": 0, "name": "dc9d93a69eef7ba1f4ac9fd1cc6b4a94", "fusion_lat": 0.0, "rental_uris": {"ios": "https://dc.lft.to/lastmile_qr_scan", "android": "https://dc.lft.to/lastmile_qr_scan"}, "lon": -77.065936, "type": "electric_scooter"}, {"bike_id": "6d0c8159df3296c0bdce713b94d334d4", "is_reserved": 0, "fusion_lon": 0.0, "lat": 38.8983115, "is_disabled": 0, "name": "6d0c8159df3296c0bdce713b94d334d4", "fusion_lat": 0.0, "rental_uris": {"ios": "https://dc.lft.to/lastmile_qr_scan", "android": "https://dc.lft.to/lastmile_qr_scan"}, "lon": -77.00773033333333, "type": "electric_scooter"}, {"bike_id": "3c28c8a1c678740ba8bfe5704f228286", "is_reserved": 0, "fusion_lon": 0.0, "lat": 38.90305016666667, "is_disabled": 0, "name": "3c28c8a1c678740ba8bfe5704f228286", "fusion_lat": 0.0, "rental_uris": {"ios": "https://dc.lft.to/lastmile_qr_scan", "android": "https://dc.lft.to/lastmile_qr_scan"}, "lon": -76.99842366666667, "type": "electric_bike"}, {"bike_id": "6ea791e72b08b707ff651850043d82e4", "is_reserved": 0, "fusion_lon": 0.0, "lat": 38.913854, "is_disabled": 0, "name": "6ea791e72b08b707ff651850043d82e4", "fusion_lat": 0.0, "rental_uris": {"ios": "https://dc.lft.to/lastmile_qr_scan", "android": "https://dc.lft.to/lastmile_qr_scan"}, "lon": -77.01796933333334, "type": "electric_scooter"}, {"bike_id": "640eb4b2e34493f7d140e5a9d0cf12f9", "is_reserved": 0, "fusion_lon": 0.0, "lat": 38.914039333333335, "is_disabled": 0, "name": "640eb4b2e34493f7d140e5a9d0cf12f9", "fusion_lat": 0.0, "rental_uris": {"ios": "https://dc.lft.to/lastmile_qr_scan", "android": "https://dc.lft.to/lastmile_qr_scan"}, "lon": -77.041519, "type": "electric_scooter"}, {"bike_id": "1f704b99a85eecaa625a0f1b9c575725", "is_reserved": 0, "fusion_lon": 0.0, "lat": 38.903793, "is_disabled": 0, "name": "1f704b99a85eecaa625a0f1b9c575725", "fusion_lat": 0.0, "rental_uris": {"ios": "https://dc.lft.to/lastmile_qr_scan", "android": "https://dc.lft.to/lastmile_qr_scan"}, "lon": -76.99827766666667, "type": "electric_scooter"}, {"bike_id": "3a6f721e0bdb33c45daa0fe2590e9e21", "is_reserved": 0, "fusion_lon": 0.0, "lat": 38.92459, "is_disabled": 0, "name": "3a6f721e0bdb33c45daa0fe2590e9e21", "fusion_lat": 0.0, "rental_uris": {"ios": "https://dc.lft.to/lastmile_qr_scan", "android": "https://dc.lft.to/lastmile_qr_scan"}, "lon": -76.99912166666667, "type": "electric_scooter"}, {"bike_id": "ea61cab2c6c5907ca8ac59e06de75b55", "is_reserved": 0, "fusion_lon": 0.0, "lat": 38.903567833333334, "is_disabled": 0, "name": "ea61cab2c6c5907ca8ac59e06de75b55", "fusion_lat": 0.0, "rental_uris": {"ios": "https://dc.lft.to/lastmile_qr_scan", "android": "https://dc.lft.to/lastmile_qr_scan"}, "lon": -77.038859, "type": "electric_scooter"}, {"bike_id": "39fbcdc9f572bccf2035c2d155792fb7", "is_reserved": 0, "fusion_lon": 0.0, "lat": 38.8133195, "is_disabled": 0, "name": "39fbcdc9f572bccf2035c2d155792fb7", "fusion_lat": 0.0, "rental_uris": {"ios": "https://dc.lft.to/lastmile_qr_scan", "android": "https://dc.lft.to/lastmile_qr_scan"}, "lon": -77.051124, "type": "electric_bike"}, {"bike_id": "81f17ef3211e71cc63adaab676728cd8", "is_reserved": 0, "fusion_lon": 0.0, "lat": 38.90727866666667, "is_disabled": 0, "name": "81f17ef3211e71cc63adaab676728cd8", "fusion_lat": 0.0, "rental_uris": {"ios": "https://dc.lft.to/lastmile_qr_scan", "android": "https://dc.lft.to/lastmile_qr_scan"}, "lon": -77.0434345, "type": "electric_scooter"}, {"bike_id": "b1ebee76202de1452dc9ef83f48ab9f7", "is_reserved": 0, "fusion_lon": 0.0, "lat": 38.91785866666667, "is_disabled": 0, "name": "b1ebee76202de1452dc9ef83f48ab9f7", "fusion_lat": 0.0, "rental_uris": {"ios": "https://dc.lft.to/lastmile_qr_scan", "android": "https://dc.lft.to/lastmile_qr_scan"}, "lon": -77.0269715, "type": "electric_scooter"}, {"bike_id": "c7f3af625ebb88625725a2a5ad90f94c", "is_reserved": 0, "fusion_lon": 0.0, "lat": 38.88642933333333, "is_disabled": 0, "name": "c7f3af625ebb88625725a2a5ad90f94c", "fusion_lat": 0.0, "rental_uris": {"ios": "https://dc.lft.to/lastmile_qr_scan", "android": "https://dc.lft.to/lastmile_qr_scan"}, "lon": -77.021346, "type": "electric_scooter"}, {"bike_id": "ace23c257b180db6f247016b6bb3c741", "is_reserved": 0, "fusion_lon": 0.0, "lat": 38.9067305, "is_disabled": 0, "name": "ace23c257b180db6f247016b6bb3c741", "fusion_lat": 0.0, "rental_uris": {"ios": "https://dc.lft.to/lastmile_qr_scan", "android": "https://dc.lft.to/lastmile_qr_scan"}, "lon": -77.0003705, "type": "electric_scooter"}, {"bike_id": "f7d7fc7d2bee978e5f8a893172386658", "is_reserved": 0, "fusion_lon": 0.0, "lat": 38.82873716666667, "is_disabled": 0, "name": "f7d7fc7d2bee978e5f8a893172386658", "fusion_lat": 0.0, "rental_uris": {"ios": "https://dc.lft.to/lastmile_qr_scan", "android": "https://dc.lft.to/lastmile_qr_scan"}, "lon": -77.11217666666667, "type": "electric_bike"}, {"bike_id": "2a4909e21fc93da6cf56c678d657e0e3", "is_reserved": 0, "fusion_lon": 0.0, "lat": 38.88409933333333, "is_disabled": 0, "name": "2a4909e21fc93da6cf56c678d657e0e3", "fusion_lat": 0.0, "rental_uris": {"ios": "https://dc.lft.to/lastmile_qr_scan", "android": "https://dc.lft.to/lastmile_qr_scan"}, "lon": -77.015244, "type": "electric_scooter"}, {"bike_id": "b78dbe77adab898ca2cb745a650dd341", "is_reserved": 0, "fusion_lon": 0.0, "lat": 38.90179333333333, "is_disabled": 0, "name": "b78dbe77adab898ca2cb745a650dd341", "fusion_lat": 0.0, "rental_uris": {"ios": "https://dc.lft.to/lastmile_qr_scan", "android": "https://dc.lft.to/lastmile_qr_scan"}, "lon": -77.02183633333334, "type": "electric_scooter"}, {"bike_id": "df127e8da911982abf025ce23d222c8d", "is_reserved": 0, "fusion_lon": 0.0, "lat": 38.9167715, "is_disabled": 0, "name": "df127e8da911982abf025ce23d222c8d", "fusion_lat": 0.0, "rental_uris": {"ios": "https://dc.lft.to/lastmile_qr_scan", "android": "https://dc.lft.to/lastmile_qr_scan"}, "lon": -77.03639483333333, "type": "electric_scooter"}, {"bike_id": "991b147812b9240a4a36711f70e40c30", "is_reserved": 0, "fusion_lon": 0.0, "lat": 38.9197615, "is_disabled": 0, "name": "991b147812b9240a4a36711f70e40c30", "fusion_lat": 0.0, "rental_uris": {"ios": "https://dc.lft.to/lastmile_qr_scan", "android": "https://dc.lft.to/lastmile_qr_scan"}, "lon": -77.0238925, "type": "electric_scooter"}, {"bike_id": "4f7d5b7df9d63af2313c2135d3972ad7", "is_reserved": 0, "fusion_lon": 0.0, "lat": 38.91999283333333, "is_disabled": 0, "name": "4f7d5b7df9d63af2313c2135d3972ad7", "fusion_lat": 0.0, "rental_uris": {"ios": "https://dc.lft.to/lastmile_qr_scan", "android": "https://dc.lft.to/lastmile_qr_scan"}, "lon": -77.03217066666667, "type": "electric_scooter"}, {"bike_id": "54918c1d76e006d16bb68d3642ab6cd2", "is_reserved": 0, "fusion_lon": 0.0, "lat": 38.93608366666667, "is_disabled": 0, "name": "54918c1d76e006d16bb68d3642ab6cd2", "fusion_lat": 0.0, "rental_uris": {"ios": "https://dc.lft.to/lastmile_qr_scan", "android": "https://dc.lft.to/lastmile_qr_scan"}, "lon": -77.0586725, "type": "electric_scooter"}, {"bike_id": "889b5a3210bf2e6950ee67902bbe5b01", "is_reserved": 0, "fusion_lon": 0.0, "lat": 38.90032266666667, "is_disabled": 0, "name": "889b5a3210bf2e6950ee67902bbe5b01", "fusion_lat": 0.0, "rental_uris": {"ios": "https://dc.lft.to/lastmile_qr_scan", "android": "https://dc.lft.to/lastmile_qr_scan"}, "lon": -77.01365083333333, "type": "electric_scooter"}, {"bike_id": "cbc6b6e6baf66acfc67bb4071cf0690f", "is_reserved": 0, "fusion_lon": 0.0, "lat": 38.900958833333334, "is_disabled": 0, "name": "cbc6b6e6baf66acfc67bb4071cf0690f", "fusion_lat": 0.0, "rental_uris": {"ios": "https://dc.lft.to/lastmile_qr_scan", "android": "https://dc.lft.to/lastmile_qr_scan"}, "lon": -77.04870666666666, "type": "electric_scooter"}, {"bike_id": "d4ccd0ca8b8d492792c883620fcd6a44", "is_reserved": 0, "fusion_lon": 0.0, "lat": 38.9180235, "is_disabled": 0, "name": "d4ccd0ca8b8d492792c883620fcd6a44", "fusion_lat": 0.0, "rental_uris": {"ios": "https://dc.lft.to/lastmile_qr_scan", "android": "https://dc.lft.to/lastmile_qr_scan"}, "lon": -77.03443083333333, "type": "electric_scooter"}, {"bike_id": "fcb63c68cc75c33aab26fb52fce95ca0", "is_reserved": 0, "fusion_lon": 0.0, "lat": 38.99090733333333, "is_disabled": 0, "name": "fcb63c68cc75c33aab26fb52fce95ca0", "fusion_lat": 0.0, "rental_uris": {"ios": "https://dc.lft.to/lastmile_qr_scan", "android": "https://dc.lft.to/lastmile_qr_scan"}, "lon": -76.87494233333334, "type": "electric_bike"}, {"bike_id": "e3c597e085c6bbf382af09fd616af2ca", "is_reserved": 0, "fusion_lon": 0.0, "lat": 38.91095966666666, "is_disabled": 0, "name": "e3c597e085c6bbf382af09fd616af2ca", "fusion_lat": 0.0, "rental_uris": {"ios": "https://dc.lft.to/lastmile_qr_scan", "android": "https://dc.lft.to/lastmile_qr_scan"}, "lon": -77.0344155, "type": "electric_scooter"}, {"bike_id": "d0630f6af646603c27985601fa05c8a5", "is_reserved": 0, "fusion_lon": 0.0, "lat": 38.88875916666667, "is_disabled": 0, "name": "d0630f6af646603c27985601fa05c8a5", "fusion_lat": 0.0, "rental_uris": {"ios": "https://dc.lft.to/lastmile_qr_scan", "android": "https://dc.lft.to/lastmile_qr_scan"}, "lon": -76.99033366666667, "type": "electric_scooter"}, {"bike_id": "77635225efac687c9c1cabbbe0b5e16e", "is_reserved": 0, "fusion_lon": 0.0, "lat": 38.872138666666665, "is_disabled": 0, "name": "77635225efac687c9c1cabbbe0b5e16e", "fusion_lat": 0.0, "rental_uris": {"ios": "https://dc.lft.to/lastmile_qr_scan", "android": "https://dc.lft.to/lastmile_qr_scan"}, "lon": -77.00578533333334, "type": "electric_scooter"}, {"bike_id": "b827112d524aff0f86719bc579549590", "is_reserved": 0, "fusion_lon": 0.0, "lat": 38.91772783333333, "is_disabled": 0, "name": "b827112d524aff0f86719bc579549590", "fusion_lat": 0.0, "rental_uris": {"ios": "https://dc.lft.to/lastmile_qr_scan", "android": "https://dc.lft.to/lastmile_qr_scan"}, "lon": -77.040576, "type": "electric_scooter"}, {"bike_id": "1b755292bfbcd72259eacbcc04773cb5", "is_reserved": 0, "fusion_lon": 0.0, "lat": 38.892976833333336, "is_disabled": 0, "name": "1b755292bfbcd72259eacbcc04773cb5", "fusion_lat": 0.0, "rental_uris": {"ios": "https://dc.lft.to/lastmile_qr_scan", "android": "https://dc.lft.to/lastmile_qr_scan"}, "lon": -77.0123935, "type": "electric_scooter"}, {"bike_id": "b8d98eaa2d674898f6c28dbbb359859a", "is_reserved": 0, "fusion_lon": 0.0, "lat": 38.921187333333336, "is_disabled": 0, "name": "b8d98eaa2d674898f6c28dbbb359859a", "fusion_lat": 0.0, "rental_uris": {"ios": "https://dc.lft.to/lastmile_qr_scan", "android": "https://dc.lft.to/lastmile_qr_scan"}, "lon": -77.0458575, "type": "electric_scooter"}, {"bike_id": "eff02cfecdabc4ddb4cc8d1e75053757", "is_reserved": 0, "fusion_lon": 0.0, "lat": 38.91783433333333, "is_disabled": 0, "name": "eff02cfecdabc4ddb4cc8d1e75053757", "fusion_lat": 0.0, "rental_uris": {"ios": "https://dc.lft.to/lastmile_qr_scan", "android": "https://dc.lft.to/lastmile_qr_scan"}, "lon": -77.02701983333333, "type": "electric_scooter"}, {"bike_id": "a925fa38e3344897b680d5c6e65072a7", "is_reserved": 0, "fusion_lon": 0.0, "lat": 38.84424966666667, "is_disabled": 0, "name": "a925fa38e3344897b680d5c6e65072a7", "fusion_lat": 0.0, "rental_uris": {"ios": "https://dc.lft.to/lastmile_qr_scan", "android": "https://dc.lft.to/lastmile_qr_scan"}, "lon": -76.99776983333334, "type": "electric_scooter"}, {"bike_id": "4347bae4e43e7ca9a900ac002cd31423", "is_reserved": 0, "fusion_lon": 0.0, "lat": 38.915562333333334, "is_disabled": 0, "name": "4347bae4e43e7ca9a900ac002cd31423", "fusion_lat": 0.0, "rental_uris": {"ios": "https://dc.lft.to/lastmile_qr_scan", "android": "https://dc.lft.to/lastmile_qr_scan"}, "lon": -77.01413366666667, "type": "electric_scooter"}, {"bike_id": "53235c30561cd7ab38b10e70666666a1", "is_reserved": 0, "fusion_lon": 0.0, "lat": 38.90410466666667, "is_disabled": 0, "name": "53235c30561cd7ab38b10e70666666a1", "fusion_lat": 0.0, "rental_uris": {"ios": "https://dc.lft.to/lastmile_qr_scan", "android": "https://dc.lft.to/lastmile_qr_scan"}, "lon": -77.03649316666667, "type": "electric_scooter"}, {"bike_id": "964f9558e63733b06602763ea9fc21c8", "is_reserved": 0, "fusion_lon": 0.0, "lat": 38.86924233333333, "is_disabled": 0, "name": "964f9558e63733b06602763ea9fc21c8", "fusion_lat": 0.0, "rental_uris": {"ios": "https://dc.lft.to/lastmile_qr_scan", "android": "https://dc.lft.to/lastmile_qr_scan"}, "lon": -76.98308966666667, "type": "electric_scooter"}, {"bike_id": "2ec5884b5ad43346bbe8517bf8ea3d7e", "is_reserved": 0, "fusion_lon": 0.0, "lat": 38.89822683333333, "is_disabled": 0, "name": "2ec5884b5ad43346bbe8517bf8ea3d7e", "fusion_lat": 0.0, "rental_uris": {"ios": "https://dc.lft.to/lastmile_qr_scan", "android": "https://dc.lft.to/lastmile_qr_scan"}, "lon": -77.03313466666667, "type": "electric_scooter"}, {"bike_id": "5764740580d103c23ca9585dc954e1b7", "is_reserved": 0, "fusion_lon": 0.0, "lat": 38.88492216666667, "is_disabled": 0, "name": "5764740580d103c23ca9585dc954e1b7", "fusion_lat": 0.0, "rental_uris": {"ios": "https://dc.lft.to/lastmile_qr_scan", "android": "https://dc.lft.to/lastmile_qr_scan"}, "lon": -77.00712533333333, "type": "electric_scooter"}, {"bike_id": "8de4f286aa70054d6b07150f2bce4067", "is_reserved": 0, "fusion_lon": 0.0, "lat": 38.91340816666667, "is_disabled": 0, "name": "8de4f286aa70054d6b07150f2bce4067", "fusion_lat": 0.0, "rental_uris": {"ios": "https://dc.lft.to/lastmile_qr_scan", "android": "https://dc.lft.to/lastmile_qr_scan"}, "lon": -77.00329566666667, "type": "electric_scooter"}, {"bike_id": "f770a66e8abc2134320f6b7526635660", "is_reserved": 0, "fusion_lon": 0.0, "lat": 38.8916855, "is_disabled": 0, "name": "f770a66e8abc2134320f6b7526635660", "fusion_lat": 0.0, "rental_uris": {"ios": "https://dc.lft.to/lastmile_qr_scan", "android": "https://dc.lft.to/lastmile_qr_scan"}, "lon": -77.01545966666667, "type": "electric_scooter"}, {"bike_id": "5ddfcce49d9d962323ae1acdb024800f", "is_reserved": 0, "fusion_lon": 0.0, "lat": 38.90276166666666, "is_disabled": 0, "name": "5ddfcce49d9d962323ae1acdb024800f", "fusion_lat": 0.0, "rental_uris": {"ios": "https://dc.lft.to/lastmile_qr_scan", "android": "https://dc.lft.to/lastmile_qr_scan"}, "lon": -77.03843983333333, "type": "electric_scooter"}, {"bike_id": "f06c53bbc3400b9f4587beb36bd5a9f6", "is_reserved": 0, "fusion_lon": 0.0, "lat": 38.918962, "is_disabled": 0, "name": "f06c53bbc3400b9f4587beb36bd5a9f6", "fusion_lat": 0.0, "rental_uris": {"ios": "https://dc.lft.to/lastmile_qr_scan", "android": "https://dc.lft.to/lastmile_qr_scan"}, "lon": -77.01974, "type": "electric_scooter"}, {"bike_id": "223ed51699660f13109d9302b0593448", "is_reserved": 0, "fusion_lon": 0.0, "lat": 38.87639516666667, "is_disabled": 0, "name": "223ed51699660f13109d9302b0593448", "fusion_lat": 0.0, "rental_uris": {"ios": "https://dc.lft.to/lastmile_qr_scan", "android": "https://dc.lft.to/lastmile_qr_scan"}, "lon": -76.99587466666667, "type": "electric_scooter"}, {"bike_id": "71dbb9ac1cacc9e852c68d7e0ad3c3d8", "is_reserved": 0, "fusion_lon": 0.0, "lat": 38.934567333333334, "is_disabled": 0, "name": "71dbb9ac1cacc9e852c68d7e0ad3c3d8", "fusion_lat": 0.0, "rental_uris": {"ios": "https://dc.lft.to/lastmile_qr_scan", "android": "https://dc.lft.to/lastmile_qr_scan"}, "lon": -77.0312345, "type": "electric_scooter"}, {"bike_id": "599c0f5f48048334f2b81134395b4ffe", "is_reserved": 0, "fusion_lon": 0.0, "lat": 38.918471833333335, "is_disabled": 0, "name": "599c0f5f48048334f2b81134395b4ffe", "fusion_lat": 0.0, "rental_uris": {"ios": "https://dc.lft.to/lastmile_qr_scan", "android": "https://dc.lft.to/lastmile_qr_scan"}, "lon": -77.03904233333333, "type": "electric_scooter"}, {"bike_id": "6cf0cfd7c5eb5602ada47b9b4ac77c91", "is_reserved": 0, "fusion_lon": 0.0, "lat": 38.91484883333333, "is_disabled": 0, "name": "6cf0cfd7c5eb5602ada47b9b4ac77c91", "fusion_lat": 0.0, "rental_uris": {"ios": "https://dc.lft.to/lastmile_qr_scan", "android": "https://dc.lft.to/lastmile_qr_scan"}, "lon": -77.0217855, "type": "electric_scooter"}, {"bike_id": "e7fc9e9a5961dc58eeee423c850d7044", "is_reserved": 0, "fusion_lon": 0.0, "lat": 38.916819833333335, "is_disabled": 0, "name": "e7fc9e9a5961dc58eeee423c850d7044", "fusion_lat": 0.0, "rental_uris": {"ios": "https://dc.lft.to/lastmile_qr_scan", "android": "https://dc.lft.to/lastmile_qr_scan"}, "lon": -77.02949283333334, "type": "electric_scooter"}, {"bike_id": "7b3f12f4c48302b649e99a3c471c6191", "is_reserved": 0, "fusion_lon": 0.0, "lat": 38.900103, "is_disabled": 0, "name": "7b3f12f4c48302b649e99a3c471c6191", "fusion_lat": 0.0, "rental_uris": {"ios": "https://dc.lft.to/lastmile_qr_scan", "android": "https://dc.lft.to/lastmile_qr_scan"}, "lon": -77.01105633333333, "type": "electric_scooter"}, {"bike_id": "e074f1b77e2190dc83a6cd5a06ecd7ef", "is_reserved": 0, "fusion_lon": 0.0, "lat": 38.91482716666667, "is_disabled": 0, "name": "e074f1b77e2190dc83a6cd5a06ecd7ef", "fusion_lat": 0.0, "rental_uris": {"ios": "https://dc.lft.to/lastmile_qr_scan", "android": "https://dc.lft.to/lastmile_qr_scan"}, "lon": -77.00838116666667, "type": "electric_scooter"}, {"bike_id": "f133ce33f707984f36f1fd8fc87e1935", "is_reserved": 0, "fusion_lon": 0.0, "lat": 39.058158166666665, "is_disabled": 0, "name": "f133ce33f707984f36f1fd8fc87e1935", "fusion_lat": 0.0, "rental_uris": {"ios": "https://dc.lft.to/lastmile_qr_scan", "android": "https://dc.lft.to/lastmile_qr_scan"}, "lon": -77.12626416666667, "type": "electric_bike"}, {"bike_id": "0b35abd2b3684e43bef000f29e3d0e33", "is_reserved": 0, "fusion_lon": 0.0, "lat": 38.90243233333333, "is_disabled": 0, "name": "0b35abd2b3684e43bef000f29e3d0e33", "fusion_lat": 0.0, "rental_uris": {"ios": "https://dc.lft.to/lastmile_qr_scan", "android": "https://dc.lft.to/lastmile_qr_scan"}, "lon": -77.001957, "type": "electric_scooter"}, {"bike_id": "dd93b1cd0a70b30e7e4d93858b4eed62", "is_reserved": 0, "fusion_lon": 0.0, "lat": 38.8460855, "is_disabled": 0, "name": "dd93b1cd0a70b30e7e4d93858b4eed62", "fusion_lat": 0.0, "rental_uris": {"ios": "https://dc.lft.to/lastmile_qr_scan", "android": "https://dc.lft.to/lastmile_qr_scan"}, "lon": -76.9783505, "type": "electric_bike"}, {"bike_id": "513756bc88e336ca06225d61187fd5c0", "is_reserved": 0, "fusion_lon": 0.0, "lat": 38.8962435, "is_disabled": 0, "name": "513756bc88e336ca06225d61187fd5c0", "fusion_lat": 0.0, "rental_uris": {"ios": "https://dc.lft.to/lastmile_qr_scan", "android": "https://dc.lft.to/lastmile_qr_scan"}, "lon": -77.01132916666667, "type": "electric_scooter"}, {"bike_id": "3719176006e704390493962a9ec2b88d", "is_reserved": 0, "fusion_lon": 0.0, "lat": 38.89845533333333, "is_disabled": 0, "name": "3719176006e704390493962a9ec2b88d", "fusion_lat": 0.0, "rental_uris": {"ios": "https://dc.lft.to/lastmile_qr_scan", "android": "https://dc.lft.to/lastmile_qr_scan"}, "lon": -77.02872066666667, "type": "electric_scooter"}, {"bike_id": "0ca1f9ab9329ba4fbaad8cae005413fd", "is_reserved": 0, "fusion_lon": 0.0, "lat": 38.900304166666665, "is_disabled": 0, "name": "0ca1f9ab9329ba4fbaad8cae005413fd", "fusion_lat": 0.0, "rental_uris": {"ios": "https://dc.lft.to/lastmile_qr_scan", "android": "https://dc.lft.to/lastmile_qr_scan"}, "lon": -77.01206666666667, "type": "electric_scooter"}, {"bike_id": "5e471099bb2537e86c9f6ea6e2c688e7", "is_reserved": 0, "fusion_lon": 0.0, "lat": 38.895549833333334, "is_disabled": 0, "name": "5e471099bb2537e86c9f6ea6e2c688e7", "fusion_lat": 0.0, "rental_uris": {"ios": "https://dc.lft.to/lastmile_qr_scan", "android": "https://dc.lft.to/lastmile_qr_scan"}, "lon": -76.93045416666666, "type": "electric_scooter"}, {"bike_id": "72773a73d59aea78ec960b03ab957e37", "is_reserved": 0, "fusion_lon": 0.0, "lat": 38.91049233333333, "is_disabled": 0, "name": "72773a73d59aea78ec960b03ab957e37", "fusion_lat": 0.0, "rental_uris": {"ios": "https://dc.lft.to/lastmile_qr_scan", "android": "https://dc.lft.to/lastmile_qr_scan"}, "lon": -77.01512633333333, "type": "electric_scooter"}, {"bike_id": "a5450898eb98d5d3039eaa483d6ad94f", "is_reserved": 0, "fusion_lon": 0.0, "lat": 38.95358683333333, "is_disabled": 0, "name": "a5450898eb98d5d3039eaa483d6ad94f", "fusion_lat": 0.0, "rental_uris": {"ios": "https://dc.lft.to/lastmile_qr_scan", "android": "https://dc.lft.to/lastmile_qr_scan"}, "lon": -76.98095083333334, "type": "electric_bike"}, {"bike_id": "e4aea2401b171112406a0c80744b5258", "is_reserved": 0, "fusion_lon": 0.0, "lat": 38.925036666666664, "is_disabled": 0, "name": "e4aea2401b171112406a0c80744b5258", "fusion_lat": 0.0, "rental_uris": {"ios": "https://dc.lft.to/lastmile_qr_scan", "android": "https://dc.lft.to/lastmile_qr_scan"}, "lon": -77.02177466666667, "type": "electric_scooter"}, {"bike_id": "6b2f6dda25c934706b942fb82af3205e", "is_reserved": 0, "fusion_lon": 0.0, "lat": 38.89222083333333, "is_disabled": 0, "name": "6b2f6dda25c934706b942fb82af3205e", "fusion_lat": 0.0, "rental_uris": {"ios": "https://dc.lft.to/lastmile_qr_scan", "android": "https://dc.lft.to/lastmile_qr_scan"}, "lon": -77.0398045, "type": "electric_scooter"}, {"bike_id": "62053066b1522bbce29505d656becb84", "is_reserved": 0, "fusion_lon": 0.0, "lat": 38.91592683333333, "is_disabled": 0, "name": "62053066b1522bbce29505d656becb84", "fusion_lat": 0.0, "rental_uris": {"ios": "https://dc.lft.to/lastmile_qr_scan", "android": "https://dc.lft.to/lastmile_qr_scan"}, "lon": -76.98375, "type": "electric_scooter"}, {"bike_id": "5eca8ece44e69608536dc22818111464", "is_reserved": 0, "fusion_lon": 0.0, "lat": 38.900155, "is_disabled": 0, "name": "5eca8ece44e69608536dc22818111464", "fusion_lat": 0.0, "rental_uris": {"ios": "https://dc.lft.to/lastmile_qr_scan", "android": "https://dc.lft.to/lastmile_qr_scan"}, "lon": -76.99789633333333, "type": "electric_scooter"}, {"bike_id": "69bafbc05969497fd1c59a7c5f543cad", "is_reserved": 0, "fusion_lon": 0.0, "lat": 38.92437, "is_disabled": 0, "name": "69bafbc05969497fd1c59a7c5f543cad", "fusion_lat": 0.0, "rental_uris": {"ios": "https://dc.lft.to/lastmile_qr_scan", "android": "https://dc.lft.to/lastmile_qr_scan"}, "lon": -77.040007, "type": "electric_scooter"}, {"bike_id": "8fdb1102522ee5141513ab3ee53e7667", "is_reserved": 0, "fusion_lon": 0.0, "lat": 38.85320466666667, "is_disabled": 0, "name": "8fdb1102522ee5141513ab3ee53e7667", "fusion_lat": 0.0, "rental_uris": {"ios": "https://dc.lft.to/lastmile_qr_scan", "android": "https://dc.lft.to/lastmile_qr_scan"}, "lon": -76.98008483333334, "type": "electric_scooter"}, {"bike_id": "f54d61a4f4c6f5e31c2c59c33833125a", "is_reserved": 0, "fusion_lon": 0.0, "lat": 38.940475666666664, "is_disabled": 0, "name": "f54d61a4f4c6f5e31c2c59c33833125a", "fusion_lat": 0.0, "rental_uris": {"ios": "https://dc.lft.to/lastmile_qr_scan", "android": "https://dc.lft.to/lastmile_qr_scan"}, "lon": -77.029816, "type": "electric_scooter"}, {"bike_id": "861971d951e670dc2f9a4fea8818afc0", "is_reserved": 0, "fusion_lon": 0.0, "lat": 38.922632166666666, "is_disabled": 0, "name": "861971d951e670dc2f9a4fea8818afc0", "fusion_lat": 0.0, "rental_uris": {"ios": "https://dc.lft.to/lastmile_qr_scan", "android": "https://dc.lft.to/lastmile_qr_scan"}, "lon": -77.04138983333333, "type": "electric_scooter"}, {"bike_id": "c42178c7554b939a645f252c87dda62b", "is_reserved": 0, "fusion_lon": 0.0, "lat": 38.920888833333336, "is_disabled": 0, "name": "c42178c7554b939a645f252c87dda62b", "fusion_lat": 0.0, "rental_uris": {"ios": "https://dc.lft.to/lastmile_qr_scan", "android": "https://dc.lft.to/lastmile_qr_scan"}, "lon": -76.9990345, "type": "electric_scooter"}, {"bike_id": "def42491fc6c852c14b09e9b2772140b", "is_reserved": 0, "fusion_lon": 0.0, "lat": 38.990637, "is_disabled": 0, "name": "def42491fc6c852c14b09e9b2772140b", "fusion_lat": 0.0, "rental_uris": {"ios": "https://dc.lft.to/lastmile_qr_scan", "android": "https://dc.lft.to/lastmile_qr_scan"}, "lon": -77.10030633333334, "type": "electric_bike"}, {"bike_id": "54dc54dab5bf9c2eb88a154495abceb3", "is_reserved": 0, "fusion_lon": 0.0, "lat": 38.9188205, "is_disabled": 0, "name": "54dc54dab5bf9c2eb88a154495abceb3", "fusion_lat": 0.0, "rental_uris": {"ios": "https://dc.lft.to/lastmile_qr_scan", "android": "https://dc.lft.to/lastmile_qr_scan"}, "lon": -77.035086, "type": "electric_scooter"}, {"bike_id": "c1d8b0b42d58b463145d768b69f25551", "is_reserved": 0, "fusion_lon": 0.0, "lat": 38.8723855, "is_disabled": 0, "name": "c1d8b0b42d58b463145d768b69f25551", "fusion_lat": 0.0, "rental_uris": {"ios": "https://dc.lft.to/lastmile_qr_scan", "android": "https://dc.lft.to/lastmile_qr_scan"}, "lon": -77.0117395, "type": "electric_bike"}, {"bike_id": "c3f698606ba0069625c0b88a961a6f6e", "is_reserved": 0, "fusion_lon": 0.0, "lat": 38.907970666666664, "is_disabled": 0, "name": "c3f698606ba0069625c0b88a961a6f6e", "fusion_lat": 0.0, "rental_uris": {"ios": "https://dc.lft.to/lastmile_qr_scan", "android": "https://dc.lft.to/lastmile_qr_scan"}, "lon": -77.03468066666667, "type": "electric_scooter"}, {"bike_id": "d863b0ecf218d95cc359cf1465f83d08", "is_reserved": 0, "fusion_lon": 0.0, "lat": 38.9205025, "is_disabled": 0, "name": "d863b0ecf218d95cc359cf1465f83d08", "fusion_lat": 0.0, "rental_uris": {"ios": "https://dc.lft.to/lastmile_qr_scan", "android": "https://dc.lft.to/lastmile_qr_scan"}, "lon": -76.998187, "type": "electric_scooter"}, {"bike_id": "621472fd9810104f45c4be5fdc25dcdc", "is_reserved": 0, "fusion_lon": 0.0, "lat": 38.92419483333333, "is_disabled": 0, "name": "621472fd9810104f45c4be5fdc25dcdc", "fusion_lat": 0.0, "rental_uris": {"ios": "https://dc.lft.to/lastmile_qr_scan", "android": "https://dc.lft.to/lastmile_qr_scan"}, "lon": -77.0355385, "type": "electric_scooter"}, {"bike_id": "234fd543dcf5b808ae7f7f32a69ef258", "is_reserved": 0, "fusion_lon": 0.0, "lat": 38.918086333333335, "is_disabled": 0, "name": "234fd543dcf5b808ae7f7f32a69ef258", "fusion_lat": 0.0, "rental_uris": {"ios": "https://dc.lft.to/lastmile_qr_scan", "android": "https://dc.lft.to/lastmile_qr_scan"}, "lon": -77.03438, "type": "electric_scooter"}, {"bike_id": "ef5cbf5f4948cbf41fa1f57338df3ef7", "is_reserved": 0, "fusion_lon": 0.0, "lat": 38.900214166666665, "is_disabled": 0, "name": "ef5cbf5f4948cbf41fa1f57338df3ef7", "fusion_lat": 0.0, "rental_uris": {"ios": "https://dc.lft.to/lastmile_qr_scan", "android": "https://dc.lft.to/lastmile_qr_scan"}, "lon": -77.00199466666666, "type": "electric_scooter"}, {"bike_id": "c0d9900b5e37be979345725d83286eb7", "is_reserved": 0, "fusion_lon": 0.0, "lat": 38.93950383333333, "is_disabled": 0, "name": "c0d9900b5e37be979345725d83286eb7", "fusion_lat": 0.0, "rental_uris": {"ios": "https://dc.lft.to/lastmile_qr_scan", "android": "https://dc.lft.to/lastmile_qr_scan"}, "lon": -77.032611, "type": "electric_scooter"}, {"bike_id": "faf40139e0127f8ff1d48019dab34a95", "is_reserved": 0, "fusion_lon": 0.0, "lat": 38.89231983333333, "is_disabled": 0, "name": "faf40139e0127f8ff1d48019dab34a95", "fusion_lat": 0.0, "rental_uris": {"ios": "https://dc.lft.to/lastmile_qr_scan", "android": "https://dc.lft.to/lastmile_qr_scan"}, "lon": -77.02174633333334, "type": "electric_scooter"}, {"bike_id": "bf8ad24c4e98275ed960940582622073", "is_reserved": 0, "fusion_lon": 0.0, "lat": 38.8996465, "is_disabled": 0, "name": "bf8ad24c4e98275ed960940582622073", "fusion_lat": 0.0, "rental_uris": {"ios": "https://dc.lft.to/lastmile_qr_scan", "android": "https://dc.lft.to/lastmile_qr_scan"}, "lon": -77.01633016666666, "type": "electric_scooter"}, {"bike_id": "a688a659eb210e9ae4f21bfbc324de94", "is_reserved": 0, "fusion_lon": 0.0, "lat": 38.933999666666665, "is_disabled": 0, "name": "a688a659eb210e9ae4f21bfbc324de94", "fusion_lat": 0.0, "rental_uris": {"ios": "https://dc.lft.to/lastmile_qr_scan", "android": "https://dc.lft.to/lastmile_qr_scan"}, "lon": -77.02063816666667, "type": "electric_scooter"}, {"bike_id": "ee6610fd61a432b00e59e22398c5a031", "is_reserved": 0, "fusion_lon": 0.0, "lat": 38.9528275, "is_disabled": 0, "name": "ee6610fd61a432b00e59e22398c5a031", "fusion_lat": 0.0, "rental_uris": {"ios": "https://dc.lft.to/lastmile_qr_scan", "android": "https://dc.lft.to/lastmile_qr_scan"}, "lon": -77.00790333333333, "type": "electric_scooter"}, {"bike_id": "dabbff053bf67f13e641a75b9260f04a", "is_reserved": 0, "fusion_lon": 0.0, "lat": 38.907485333333334, "is_disabled": 0, "name": "dabbff053bf67f13e641a75b9260f04a", "fusion_lat": 0.0, "rental_uris": {"ios": "https://dc.lft.to/lastmile_qr_scan", "android": "https://dc.lft.to/lastmile_qr_scan"}, "lon": -77.034659, "type": "electric_scooter"}, {"bike_id": "0c04e224bcdfbdd700143df8b5913c67", "is_reserved": 0, "fusion_lon": 0.0, "lat": 38.91479966666667, "is_disabled": 0, "name": "0c04e224bcdfbdd700143df8b5913c67", "fusion_lat": 0.0, "rental_uris": {"ios": "https://dc.lft.to/lastmile_qr_scan", "android": "https://dc.lft.to/lastmile_qr_scan"}, "lon": -77.01277966666666, "type": "electric_scooter"}, {"bike_id": "0d3b1f64091eb6ec2b90ac585a0b9b26", "is_reserved": 0, "fusion_lon": 0.0, "lat": 38.91806016666666, "is_disabled": 0, "name": "0d3b1f64091eb6ec2b90ac585a0b9b26", "fusion_lat": 0.0, "rental_uris": {"ios": "https://dc.lft.to/lastmile_qr_scan", "android": "https://dc.lft.to/lastmile_qr_scan"}, "lon": -77.03443466666667, "type": "electric_scooter"}, {"bike_id": "d6fd219e7acee1bc5d5de9840703f163", "is_reserved": 0, "fusion_lon": 0.0, "lat": 38.898354833333336, "is_disabled": 0, "name": "d6fd219e7acee1bc5d5de9840703f163", "fusion_lat": 0.0, "rental_uris": {"ios": "https://dc.lft.to/lastmile_qr_scan", "android": "https://dc.lft.to/lastmile_qr_scan"}, "lon": -76.94632616666667, "type": "electric_scooter"}, {"bike_id": "7c17cfec17be3795c8072a4f149f84ac", "is_reserved": 0, "fusion_lon": 0.0, "lat": 38.933375833333336, "is_disabled": 0, "name": "7c17cfec17be3795c8072a4f149f84ac", "fusion_lat": 0.0, "rental_uris": {"ios": "https://dc.lft.to/lastmile_qr_scan", "android": "https://dc.lft.to/lastmile_qr_scan"}, "lon": -77.0328165, "type": "electric_scooter"}, {"bike_id": "e6a845b20365f7f81a8d51adc94f72d0", "is_reserved": 0, "fusion_lon": 0.0, "lat": 38.90593766666667, "is_disabled": 0, "name": "e6a845b20365f7f81a8d51adc94f72d0", "fusion_lat": 0.0, "rental_uris": {"ios": "https://dc.lft.to/lastmile_qr_scan", "android": "https://dc.lft.to/lastmile_qr_scan"}, "lon": -77.06301516666667, "type": "electric_scooter"}, {"bike_id": "ba783b6c9ef37fda5312371161b620d2", "is_reserved": 0, "fusion_lon": 0.0, "lat": 38.90127866666667, "is_disabled": 0, "name": "ba783b6c9ef37fda5312371161b620d2", "fusion_lat": 0.0, "rental_uris": {"ios": "https://dc.lft.to/lastmile_qr_scan", "android": "https://dc.lft.to/lastmile_qr_scan"}, "lon": -77.01968566666666, "type": "electric_scooter"}, {"bike_id": "3d9d84a4668c0555133bad8416810550", "is_reserved": 0, "fusion_lon": 0.0, "lat": 38.945529, "is_disabled": 0, "name": "3d9d84a4668c0555133bad8416810550", "fusion_lat": 0.0, "rental_uris": {"ios": "https://dc.lft.to/lastmile_qr_scan", "android": "https://dc.lft.to/lastmile_qr_scan"}, "lon": -76.89528883333334, "type": "electric_bike"}, {"bike_id": "0423fa900df8858748fc5f0edaafd655", "is_reserved": 0, "fusion_lon": 0.0, "lat": 38.912565, "is_disabled": 0, "name": "0423fa900df8858748fc5f0edaafd655", "fusion_lat": 0.0, "rental_uris": {"ios": "https://dc.lft.to/lastmile_qr_scan", "android": "https://dc.lft.to/lastmile_qr_scan"}, "lon": -77.01442783333333, "type": "electric_scooter"}, {"bike_id": "22dbf7b9126b4a103815b1ce6e6e2375", "is_reserved": 0, "fusion_lon": 0.0, "lat": 38.933328833333334, "is_disabled": 0, "name": "22dbf7b9126b4a103815b1ce6e6e2375", "fusion_lat": 0.0, "rental_uris": {"ios": "https://dc.lft.to/lastmile_qr_scan", "android": "https://dc.lft.to/lastmile_qr_scan"}, "lon": -77.032675, "type": "electric_scooter"}, {"bike_id": "4579588ddf0734426a82c308c15224f2", "is_reserved": 0, "fusion_lon": 0.0, "lat": 38.894830666666664, "is_disabled": 0, "name": "4579588ddf0734426a82c308c15224f2", "fusion_lat": 0.0, "rental_uris": {"ios": "https://dc.lft.to/lastmile_qr_scan", "android": "https://dc.lft.to/lastmile_qr_scan"}, "lon": -77.01209483333334, "type": "electric_scooter"}, {"bike_id": "178d230c559ba7fd6db2cd3cef45d64c", "is_reserved": 0, "fusion_lon": 0.0, "lat": 38.9000805, "is_disabled": 0, "name": "178d230c559ba7fd6db2cd3cef45d64c", "fusion_lat": 0.0, "rental_uris": {"ios": "https://dc.lft.to/lastmile_qr_scan", "android": "https://dc.lft.to/lastmile_qr_scan"}, "lon": -77.04668383333333, "type": "electric_scooter"}, {"bike_id": "0cd1db7b654292358ba12d189424a72a", "is_reserved": 0, "fusion_lon": 0.0, "lat": 38.883975166666666, "is_disabled": 0, "name": "0cd1db7b654292358ba12d189424a72a", "fusion_lat": 0.0, "rental_uris": {"ios": "https://dc.lft.to/lastmile_qr_scan", "android": "https://dc.lft.to/lastmile_qr_scan"}, "lon": -76.930361, "type": "electric_scooter"}, {"bike_id": "ebc7732fa7f88d339cf70c1b6c26deaf", "is_reserved": 0, "fusion_lon": 0.0, "lat": 38.84427733333333, "is_disabled": 0, "name": "ebc7732fa7f88d339cf70c1b6c26deaf", "fusion_lat": 0.0, "rental_uris": {"ios": "https://dc.lft.to/lastmile_qr_scan", "android": "https://dc.lft.to/lastmile_qr_scan"}, "lon": -76.99777783333333, "type": "electric_scooter"}, {"bike_id": "264c11b5f027bde42827d9e1a054cc7c", "is_reserved": 0, "fusion_lon": 0.0, "lat": 38.90697616666667, "is_disabled": 0, "name": "264c11b5f027bde42827d9e1a054cc7c", "fusion_lat": 0.0, "rental_uris": {"ios": "https://dc.lft.to/lastmile_qr_scan", "android": "https://dc.lft.to/lastmile_qr_scan"}, "lon": -77.03531983333333, "type": "electric_scooter"}, {"bike_id": "2172d7fede799a3af3e2ce98d09a46a3", "is_reserved": 0, "fusion_lon": 0.0, "lat": 38.873644, "is_disabled": 0, "name": "2172d7fede799a3af3e2ce98d09a46a3", "fusion_lat": 0.0, "rental_uris": {"ios": "https://dc.lft.to/lastmile_qr_scan", "android": "https://dc.lft.to/lastmile_qr_scan"}, "lon": -76.97164083333334, "type": "electric_scooter"}, {"bike_id": "91d63e6b40cb22ca00b92d9ce0bb44b8", "is_reserved": 0, "fusion_lon": 0.0, "lat": 38.90030383333333, "is_disabled": 0, "name": "91d63e6b40cb22ca00b92d9ce0bb44b8", "fusion_lat": 0.0, "rental_uris": {"ios": "https://dc.lft.to/lastmile_qr_scan", "android": "https://dc.lft.to/lastmile_qr_scan"}, "lon": -77.01198616666667, "type": "electric_scooter"}, {"bike_id": "7ca2c90db7574cb291e15ca53119dc5f", "is_reserved": 0, "fusion_lon": 0.0, "lat": 38.861812, "is_disabled": 0, "name": "7ca2c90db7574cb291e15ca53119dc5f", "fusion_lat": 0.0, "rental_uris": {"ios": "https://dc.lft.to/lastmile_qr_scan", "android": "https://dc.lft.to/lastmile_qr_scan"}, "lon": -76.96911166666666, "type": "electric_scooter"}, {"bike_id": "cbd4c2dc07101e9aae21ecc7d9102371", "is_reserved": 0, "fusion_lon": 0.0, "lat": 38.916993166666664, "is_disabled": 0, "name": "cbd4c2dc07101e9aae21ecc7d9102371", "fusion_lat": 0.0, "rental_uris": {"ios": "https://dc.lft.to/lastmile_qr_scan", "android": "https://dc.lft.to/lastmile_qr_scan"}, "lon": -77.02246416666667, "type": "electric_scooter"}, {"bike_id": "2bf0a9047401ea275a1f3fc0c631f0bd", "is_reserved": 0, "fusion_lon": 0.0, "lat": 38.865636333333335, "is_disabled": 0, "name": "2bf0a9047401ea275a1f3fc0c631f0bd", "fusion_lat": 0.0, "rental_uris": {"ios": "https://dc.lft.to/lastmile_qr_scan", "android": "https://dc.lft.to/lastmile_qr_scan"}, "lon": -76.98948483333334, "type": "electric_scooter"}, {"bike_id": "06b6c60a2bce5d60ad19ed0ad601d685", "is_reserved": 0, "fusion_lon": 0.0, "lat": 38.8984495, "is_disabled": 0, "name": "06b6c60a2bce5d60ad19ed0ad601d685", "fusion_lat": 0.0, "rental_uris": {"ios": "https://dc.lft.to/lastmile_qr_scan", "android": "https://dc.lft.to/lastmile_qr_scan"}, "lon": -77.0334675, "type": "electric_scooter"}, {"bike_id": "518d922766cdba3dbb6301d87823cd24", "is_reserved": 0, "fusion_lon": 0.0, "lat": 38.97329233333333, "is_disabled": 0, "name": "518d922766cdba3dbb6301d87823cd24", "fusion_lat": 0.0, "rental_uris": {"ios": "https://dc.lft.to/lastmile_qr_scan", "android": "https://dc.lft.to/lastmile_qr_scan"}, "lon": -77.02154283333333, "type": "electric_bike"}, {"bike_id": "a6e2279623c9007af5e5409c6e8aface", "is_reserved": 0, "fusion_lon": 0.0, "lat": 38.9244565, "is_disabled": 0, "name": "a6e2279623c9007af5e5409c6e8aface", "fusion_lat": 0.0, "rental_uris": {"ios": "https://dc.lft.to/lastmile_qr_scan", "android": "https://dc.lft.to/lastmile_qr_scan"}, "lon": -77.04116166666667, "type": "electric_scooter"}, {"bike_id": "32b036b1a866cbbb588b70448aca05c6", "is_reserved": 0, "fusion_lon": 0.0, "lat": 38.899617, "is_disabled": 0, "name": "32b036b1a866cbbb588b70448aca05c6", "fusion_lat": 0.0, "rental_uris": {"ios": "https://dc.lft.to/lastmile_qr_scan", "android": "https://dc.lft.to/lastmile_qr_scan"}, "lon": -77.05059616666666, "type": "electric_scooter"}, {"bike_id": "6a62b95a7ad4d94e06252732706e6c72", "is_reserved": 0, "fusion_lon": 0.0, "lat": 38.941831666666666, "is_disabled": 0, "name": "6a62b95a7ad4d94e06252732706e6c72", "fusion_lat": 0.0, "rental_uris": {"ios": "https://dc.lft.to/lastmile_qr_scan", "android": "https://dc.lft.to/lastmile_qr_scan"}, "lon": -77.03092983333333, "type": "electric_scooter"}, {"bike_id": "63fafe18d2ba30c9a15e657cb11a4345", "is_reserved": 0, "fusion_lon": 0.0, "lat": 38.9086665, "is_disabled": 0, "name": "63fafe18d2ba30c9a15e657cb11a4345", "fusion_lat": 0.0, "rental_uris": {"ios": "https://dc.lft.to/lastmile_qr_scan", "android": "https://dc.lft.to/lastmile_qr_scan"}, "lon": -77.0859675, "type": "electric_scooter"}, {"bike_id": "46e35480bae91c9d6e594bc9388d8c97", "is_reserved": 0, "fusion_lon": 0.0, "lat": 38.9172375, "is_disabled": 0, "name": "46e35480bae91c9d6e594bc9388d8c97", "fusion_lat": 0.0, "rental_uris": {"ios": "https://dc.lft.to/lastmile_qr_scan", "android": "https://dc.lft.to/lastmile_qr_scan"}, "lon": -77.03838683333333, "type": "electric_scooter"}, {"bike_id": "afc62d6d12fcfbb28a1efb16e10b991b", "is_reserved": 0, "fusion_lon": 0.0, "lat": 38.90198183333333, "is_disabled": 0, "name": "afc62d6d12fcfbb28a1efb16e10b991b", "fusion_lat": 0.0, "rental_uris": {"ios": "https://dc.lft.to/lastmile_qr_scan", "android": "https://dc.lft.to/lastmile_qr_scan"}, "lon": -76.94195933333333, "type": "electric_scooter"}, {"bike_id": "71e6f63bf65602b6b72be1d4e4934ecb", "is_reserved": 0, "fusion_lon": 0.0, "lat": 38.87184966666667, "is_disabled": 0, "name": "71e6f63bf65602b6b72be1d4e4934ecb", "fusion_lat": 0.0, "rental_uris": {"ios": "https://dc.lft.to/lastmile_qr_scan", "android": "https://dc.lft.to/lastmile_qr_scan"}, "lon": -77.01222466666667, "type": "electric_scooter"}, {"bike_id": "abd002ac31a051f66513741d7b8d77d0", "is_reserved": 0, "fusion_lon": 0.0, "lat": 38.928493833333334, "is_disabled": 0, "name": "abd002ac31a051f66513741d7b8d77d0", "fusion_lat": 0.0, "rental_uris": {"ios": "https://dc.lft.to/lastmile_qr_scan", "android": "https://dc.lft.to/lastmile_qr_scan"}, "lon": -77.02052366666666, "type": "electric_bike"}, {"bike_id": "561da8288ff8b27c35e57229cb1b3ea2", "is_reserved": 0, "fusion_lon": 0.0, "lat": 38.91126283333333, "is_disabled": 0, "name": "561da8288ff8b27c35e57229cb1b3ea2", "fusion_lat": 0.0, "rental_uris": {"ios": "https://dc.lft.to/lastmile_qr_scan", "android": "https://dc.lft.to/lastmile_qr_scan"}, "lon": -77.00263633333333, "type": "electric_scooter"}, {"bike_id": "4224f72fe06329c8c74b24e6aa40b48b", "is_reserved": 0, "fusion_lon": 0.0, "lat": 38.854389166666664, "is_disabled": 0, "name": "4224f72fe06329c8c74b24e6aa40b48b", "fusion_lat": 0.0, "rental_uris": {"ios": "https://dc.lft.to/lastmile_qr_scan", "android": "https://dc.lft.to/lastmile_qr_scan"}, "lon": -77.11706633333333, "type": "electric_bike"}, {"bike_id": "42af6518a924be2e9264c8ab1080d42e", "is_reserved": 0, "fusion_lon": 0.0, "lat": 38.90797166666667, "is_disabled": 0, "name": "42af6518a924be2e9264c8ab1080d42e", "fusion_lat": 0.0, "rental_uris": {"ios": "https://dc.lft.to/lastmile_qr_scan", "android": "https://dc.lft.to/lastmile_qr_scan"}, "lon": -76.99698983333333, "type": "electric_scooter"}, {"bike_id": "4a0c3986a7c3f7221bb5fdf4fa5b57ff", "is_reserved": 0, "fusion_lon": 0.0, "lat": 38.90015366666667, "is_disabled": 0, "name": "4a0c3986a7c3f7221bb5fdf4fa5b57ff", "fusion_lat": 0.0, "rental_uris": {"ios": "https://dc.lft.to/lastmile_qr_scan", "android": "https://dc.lft.to/lastmile_qr_scan"}, "lon": -76.98813666666666, "type": "electric_scooter"}, {"bike_id": "e98b2d7005b2dd148cb578ecd6158702", "is_reserved": 0, "fusion_lon": 0.0, "lat": 38.872618, "is_disabled": 0, "name": "e98b2d7005b2dd148cb578ecd6158702", "fusion_lat": 0.0, "rental_uris": {"ios": "https://dc.lft.to/lastmile_qr_scan", "android": "https://dc.lft.to/lastmile_qr_scan"}, "lon": -76.97911166666667, "type": "electric_bike"}, {"bike_id": "13b177b23bc856722a1883ac43d1228e", "is_reserved": 0, "fusion_lon": 0.0, "lat": 38.921511833333334, "is_disabled": 0, "name": "13b177b23bc856722a1883ac43d1228e", "fusion_lat": 0.0, "rental_uris": {"ios": "https://dc.lft.to/lastmile_qr_scan", "android": "https://dc.lft.to/lastmile_qr_scan"}, "lon": -77.03529933333333, "type": "electric_scooter"}, {"bike_id": "24c69e0bc513d289fa52cd424722ee6f", "is_reserved": 0, "fusion_lon": 0.0, "lat": 38.899966666666664, "is_disabled": 0, "name": "24c69e0bc513d289fa52cd424722ee6f", "fusion_lat": 0.0, "rental_uris": {"ios": "https://dc.lft.to/lastmile_qr_scan", "android": "https://dc.lft.to/lastmile_qr_scan"}, "lon": -76.99780716666666, "type": "electric_scooter"}, {"bike_id": "928d6a93c7f4da5a2bf61f3bd6ff0f26", "is_reserved": 0, "fusion_lon": 0.0, "lat": 38.90531283333333, "is_disabled": 0, "name": "928d6a93c7f4da5a2bf61f3bd6ff0f26", "fusion_lat": 0.0, "rental_uris": {"ios": "https://dc.lft.to/lastmile_qr_scan", "android": "https://dc.lft.to/lastmile_qr_scan"}, "lon": -77.02623866666667, "type": "electric_scooter"}, {"bike_id": "ec895fd61044786de6f4375c158a454f", "is_reserved": 0, "fusion_lon": 0.0, "lat": 38.903703166666666, "is_disabled": 0, "name": "ec895fd61044786de6f4375c158a454f", "fusion_lat": 0.0, "rental_uris": {"ios": "https://dc.lft.to/lastmile_qr_scan", "android": "https://dc.lft.to/lastmile_qr_scan"}, "lon": -77.045313, "type": "electric_scooter"}, {"bike_id": "cdcc1832d35329d4dc87a3e7df80510a", "is_reserved": 0, "fusion_lon": 0.0, "lat": 38.89845116666667, "is_disabled": 0, "name": "cdcc1832d35329d4dc87a3e7df80510a", "fusion_lat": 0.0, "rental_uris": {"ios": "https://dc.lft.to/lastmile_qr_scan", "android": "https://dc.lft.to/lastmile_qr_scan"}, "lon": -76.94481066666667, "type": "electric_scooter"}, {"bike_id": "c61fa2a347dd1f3c22f275c8793410d7", "is_reserved": 0, "fusion_lon": 0.0, "lat": 38.84049516666666, "is_disabled": 0, "name": "c61fa2a347dd1f3c22f275c8793410d7", "fusion_lat": 0.0, "rental_uris": {"ios": "https://dc.lft.to/lastmile_qr_scan", "android": "https://dc.lft.to/lastmile_qr_scan"}, "lon": -77.064115, "type": "electric_bike"}, {"bike_id": "be1e2bd1aad746b77732e533efded826", "is_reserved": 0, "fusion_lon": 0.0, "lat": 39.0945995, "is_disabled": 0, "name": "be1e2bd1aad746b77732e533efded826", "fusion_lat": 0.0, "rental_uris": {"ios": "https://dc.lft.to/lastmile_qr_scan", "android": "https://dc.lft.to/lastmile_qr_scan"}, "lon": -77.1499365, "type": "electric_bike"}, {"bike_id": "25744b077e08690b8d6e1e087486d16b", "is_reserved": 0, "fusion_lon": 0.0, "lat": 38.82786866666667, "is_disabled": 0, "name": "25744b077e08690b8d6e1e087486d16b", "fusion_lat": 0.0, "rental_uris": {"ios": "https://dc.lft.to/lastmile_qr_scan", "android": "https://dc.lft.to/lastmile_qr_scan"}, "lon": -77.009067, "type": "electric_bike"}, {"bike_id": "c09008a08ab6ed344da78c1acfa83b27", "is_reserved": 0, "fusion_lon": 0.0, "lat": 38.90665833333333, "is_disabled": 0, "name": "c09008a08ab6ed344da78c1acfa83b27", "fusion_lat": 0.0, "rental_uris": {"ios": "https://dc.lft.to/lastmile_qr_scan", "android": "https://dc.lft.to/lastmile_qr_scan"}, "lon": -77.03820633333333, "type": "electric_scooter"}, {"bike_id": "1d1572b17c8c91a85cb59472ba4b68b9", "is_reserved": 0, "fusion_lon": 0.0, "lat": 38.91154183333333, "is_disabled": 0, "name": "1d1572b17c8c91a85cb59472ba4b68b9", "fusion_lat": 0.0, "rental_uris": {"ios": "https://dc.lft.to/lastmile_qr_scan", "android": "https://dc.lft.to/lastmile_qr_scan"}, "lon": -77.0416345, "type": "electric_scooter"}, {"bike_id": "7a0e53c1217bc553663f990cbe22ac6a", "is_reserved": 0, "fusion_lon": 0.0, "lat": 38.871870666666666, "is_disabled": 0, "name": "7a0e53c1217bc553663f990cbe22ac6a", "fusion_lat": 0.0, "rental_uris": {"ios": "https://dc.lft.to/lastmile_qr_scan", "android": "https://dc.lft.to/lastmile_qr_scan"}, "lon": -77.01373133333334, "type": "electric_scooter"}, {"bike_id": "bf2020a8852efcbd43401ab673366e4a", "is_reserved": 0, "fusion_lon": 0.0, "lat": 38.909083833333334, "is_disabled": 0, "name": "bf2020a8852efcbd43401ab673366e4a", "fusion_lat": 0.0, "rental_uris": {"ios": "https://dc.lft.to/lastmile_qr_scan", "android": "https://dc.lft.to/lastmile_qr_scan"}, "lon": -77.03838066666667, "type": "electric_scooter"}, {"bike_id": "e113ad82b3710db568e41440b7970608", "is_reserved": 0, "fusion_lon": 0.0, "lat": 38.9368105, "is_disabled": 0, "name": "e113ad82b3710db568e41440b7970608", "fusion_lat": 0.0, "rental_uris": {"ios": "https://dc.lft.to/lastmile_qr_scan", "android": "https://dc.lft.to/lastmile_qr_scan"}, "lon": -76.95196716666666, "type": "electric_bike"}, {"bike_id": "3f44e93142d7a38b0f042f343ded75b5", "is_reserved": 0, "fusion_lon": 0.0, "lat": 38.928779666666664, "is_disabled": 0, "name": "3f44e93142d7a38b0f042f343ded75b5", "fusion_lat": 0.0, "rental_uris": {"ios": "https://dc.lft.to/lastmile_qr_scan", "android": "https://dc.lft.to/lastmile_qr_scan"}, "lon": -77.04052133333333, "type": "electric_scooter"}, {"bike_id": "83588c21fd41e553637b77af987d1261", "is_reserved": 0, "fusion_lon": 0.0, "lat": 38.90026233333333, "is_disabled": 0, "name": "83588c21fd41e553637b77af987d1261", "fusion_lat": 0.0, "rental_uris": {"ios": "https://dc.lft.to/lastmile_qr_scan", "android": "https://dc.lft.to/lastmile_qr_scan"}, "lon": -76.99758566666667, "type": "electric_scooter"}, {"bike_id": "82c4fb39db536731e56d805a9f84b397", "is_reserved": 0, "fusion_lon": 0.0, "lat": 38.91958266666666, "is_disabled": 0, "name": "82c4fb39db536731e56d805a9f84b397", "fusion_lat": 0.0, "rental_uris": {"ios": "https://dc.lft.to/lastmile_qr_scan", "android": "https://dc.lft.to/lastmile_qr_scan"}, "lon": -76.97905583333333, "type": "electric_bike"}, {"bike_id": "9f2f25dc91727ab39aed84b8677f2860", "is_reserved": 0, "fusion_lon": 0.0, "lat": 38.885185166666666, "is_disabled": 0, "name": "9f2f25dc91727ab39aed84b8677f2860", "fusion_lat": 0.0, "rental_uris": {"ios": "https://dc.lft.to/lastmile_qr_scan", "android": "https://dc.lft.to/lastmile_qr_scan"}, "lon": -77.01734133333333, "type": "electric_scooter"}, {"bike_id": "ff6979e1de54cca2e23f261aecc9d037", "is_reserved": 0, "fusion_lon": 0.0, "lat": 38.8840995, "is_disabled": 0, "name": "ff6979e1de54cca2e23f261aecc9d037", "fusion_lat": 0.0, "rental_uris": {"ios": "https://dc.lft.to/lastmile_qr_scan", "android": "https://dc.lft.to/lastmile_qr_scan"}, "lon": -76.9606085, "type": "electric_bike"}, {"bike_id": "4bb5b06ed001b6bc8314add4698751fb", "is_reserved": 0, "fusion_lon": 0.0, "lat": 38.936962, "is_disabled": 0, "name": "4bb5b06ed001b6bc8314add4698751fb", "fusion_lat": 0.0, "rental_uris": {"ios": "https://dc.lft.to/lastmile_qr_scan", "android": "https://dc.lft.to/lastmile_qr_scan"}, "lon": -77.06020633333333, "type": "electric_scooter"}, {"bike_id": "0621f3fab75514b9d205c6be6ebb369b", "is_reserved": 0, "fusion_lon": 0.0, "lat": 38.855353666666666, "is_disabled": 0, "name": "0621f3fab75514b9d205c6be6ebb369b", "fusion_lat": 0.0, "rental_uris": {"ios": "https://dc.lft.to/lastmile_qr_scan", "android": "https://dc.lft.to/lastmile_qr_scan"}, "lon": -77.113298, "type": "electric_bike"}, {"bike_id": "7801565e43a6d12d2fd8a214abe28fdc", "is_reserved": 0, "fusion_lon": 0.0, "lat": 38.89668483333333, "is_disabled": 0, "name": "7801565e43a6d12d2fd8a214abe28fdc", "fusion_lat": 0.0, "rental_uris": {"ios": "https://dc.lft.to/lastmile_qr_scan", "android": "https://dc.lft.to/lastmile_qr_scan"}, "lon": -77.02957233333333, "type": "electric_scooter"}, {"bike_id": "d66aaf48f5a2fe051e286a34f80f724c", "is_reserved": 0, "fusion_lon": 0.0, "lat": 38.88334183333333, "is_disabled": 0, "name": "d66aaf48f5a2fe051e286a34f80f724c", "fusion_lat": 0.0, "rental_uris": {"ios": "https://dc.lft.to/lastmile_qr_scan", "android": "https://dc.lft.to/lastmile_qr_scan"}, "lon": -77.01748633333334, "type": "electric_scooter"}, {"bike_id": "e818e51f4b410192a5941c9df7694528", "is_reserved": 0, "fusion_lon": 0.0, "lat": 38.92578366666667, "is_disabled": 0, "name": "e818e51f4b410192a5941c9df7694528", "fusion_lat": 0.0, "rental_uris": {"ios": "https://dc.lft.to/lastmile_qr_scan", "android": "https://dc.lft.to/lastmile_qr_scan"}, "lon": -77.03920216666667, "type": "electric_scooter"}, {"bike_id": "29e5a64424894fd60f54b41ec4aad2b8", "is_reserved": 0, "fusion_lon": 0.0, "lat": 38.925670333333336, "is_disabled": 0, "name": "29e5a64424894fd60f54b41ec4aad2b8", "fusion_lat": 0.0, "rental_uris": {"ios": "https://dc.lft.to/lastmile_qr_scan", "android": "https://dc.lft.to/lastmile_qr_scan"}, "lon": -77.039021, "type": "electric_scooter"}, {"bike_id": "cf6fdab8cdedbd317cffeff6d52de7b0", "is_reserved": 0, "fusion_lon": 0.0, "lat": 38.917191333333335, "is_disabled": 0, "name": "cf6fdab8cdedbd317cffeff6d52de7b0", "fusion_lat": 0.0, "rental_uris": {"ios": "https://dc.lft.to/lastmile_qr_scan", "android": "https://dc.lft.to/lastmile_qr_scan"}, "lon": -77.0310835, "type": "electric_scooter"}, {"bike_id": "f3fdb0025d92b62cb23912a07a0b1606", "is_reserved": 0, "fusion_lon": 0.0, "lat": 38.915971, "is_disabled": 0, "name": "f3fdb0025d92b62cb23912a07a0b1606", "fusion_lat": 0.0, "rental_uris": {"ios": "https://dc.lft.to/lastmile_qr_scan", "android": "https://dc.lft.to/lastmile_qr_scan"}, "lon": -76.98374666666666, "type": "electric_scooter"}, {"bike_id": "738176b41f3275b2d549c61ea6f65dcd", "is_reserved": 0, "fusion_lon": 0.0, "lat": 38.916846166666666, "is_disabled": 0, "name": "738176b41f3275b2d549c61ea6f65dcd", "fusion_lat": 0.0, "rental_uris": {"ios": "https://dc.lft.to/lastmile_qr_scan", "android": "https://dc.lft.to/lastmile_qr_scan"}, "lon": -77.0290725, "type": "electric_scooter"}, {"bike_id": "bc28e4fbfaa92d3321e7fec9734a5c3b", "is_reserved": 0, "fusion_lon": 0.0, "lat": 38.9043325, "is_disabled": 0, "name": "bc28e4fbfaa92d3321e7fec9734a5c3b", "fusion_lat": 0.0, "rental_uris": {"ios": "https://dc.lft.to/lastmile_qr_scan", "android": "https://dc.lft.to/lastmile_qr_scan"}, "lon": -77.02878833333334, "type": "electric_scooter"}, {"bike_id": "a49633112e1d884446b39a80fb2cb3fe", "is_reserved": 0, "fusion_lon": 0.0, "lat": 38.90127666666667, "is_disabled": 0, "name": "a49633112e1d884446b39a80fb2cb3fe", "fusion_lat": 0.0, "rental_uris": {"ios": "https://dc.lft.to/lastmile_qr_scan", "android": "https://dc.lft.to/lastmile_qr_scan"}, "lon": -77.01620566666666, "type": "electric_scooter"}, {"bike_id": "6e446e4daf1004da330345903d5304d1", "is_reserved": 0, "fusion_lon": 0.0, "lat": 38.912865, "is_disabled": 0, "name": "6e446e4daf1004da330345903d5304d1", "fusion_lat": 0.0, "rental_uris": {"ios": "https://dc.lft.to/lastmile_qr_scan", "android": "https://dc.lft.to/lastmile_qr_scan"}, "lon": -77.03850916666667, "type": "electric_scooter"}, {"bike_id": "f40d1e05b63fb413d1db911fb30dc587", "is_reserved": 0, "fusion_lon": 0.0, "lat": 38.902976, "is_disabled": 0, "name": "f40d1e05b63fb413d1db911fb30dc587", "fusion_lat": 0.0, "rental_uris": {"ios": "https://dc.lft.to/lastmile_qr_scan", "android": "https://dc.lft.to/lastmile_qr_scan"}, "lon": -77.03962183333333, "type": "electric_scooter"}, {"bike_id": "312cd9a31ec996fd412931c6826b6c94", "is_reserved": 0, "fusion_lon": 0.0, "lat": 38.898028, "is_disabled": 0, "name": "312cd9a31ec996fd412931c6826b6c94", "fusion_lat": 0.0, "rental_uris": {"ios": "https://dc.lft.to/lastmile_qr_scan", "android": "https://dc.lft.to/lastmile_qr_scan"}, "lon": -77.02974966666666, "type": "electric_scooter"}, {"bike_id": "6edfff4bdb4eb5028d1140e8f38b42d1", "is_reserved": 0, "fusion_lon": 0.0, "lat": 38.9209815, "is_disabled": 0, "name": "6edfff4bdb4eb5028d1140e8f38b42d1", "fusion_lat": 0.0, "rental_uris": {"ios": "https://dc.lft.to/lastmile_qr_scan", "android": "https://dc.lft.to/lastmile_qr_scan"}, "lon": -77.07468983333334, "type": "electric_scooter"}, {"bike_id": "ef22d64177e8d8e347093b7b0d99cdfb", "is_reserved": 0, "fusion_lon": 0.0, "lat": 38.90016833333333, "is_disabled": 0, "name": "ef22d64177e8d8e347093b7b0d99cdfb", "fusion_lat": 0.0, "rental_uris": {"ios": "https://dc.lft.to/lastmile_qr_scan", "android": "https://dc.lft.to/lastmile_qr_scan"}, "lon": -77.0112915, "type": "electric_scooter"}, {"bike_id": "82c4c3a393d96192a2f398195232cad5", "is_reserved": 0, "fusion_lon": 0.0, "lat": 38.86242416666666, "is_disabled": 0, "name": "82c4c3a393d96192a2f398195232cad5", "fusion_lat": 0.0, "rental_uris": {"ios": "https://dc.lft.to/lastmile_qr_scan", "android": "https://dc.lft.to/lastmile_qr_scan"}, "lon": -76.99482866666666, "type": "electric_scooter"}, {"bike_id": "fb7f3c43df55453e6e08d8a8560bde60", "is_reserved": 0, "fusion_lon": 0.0, "lat": 38.90136616666667, "is_disabled": 0, "name": "fb7f3c43df55453e6e08d8a8560bde60", "fusion_lat": 0.0, "rental_uris": {"ios": "https://dc.lft.to/lastmile_qr_scan", "android": "https://dc.lft.to/lastmile_qr_scan"}, "lon": -77.04476333333334, "type": "electric_scooter"}, {"bike_id": "50cd14288a554cded0d589fbac46ba37", "is_reserved": 0, "fusion_lon": 0.0, "lat": 38.9051005, "is_disabled": 0, "name": "50cd14288a554cded0d589fbac46ba37", "fusion_lat": 0.0, "rental_uris": {"ios": "https://dc.lft.to/lastmile_qr_scan", "android": "https://dc.lft.to/lastmile_qr_scan"}, "lon": -77.04160783333333, "type": "electric_scooter"}, {"bike_id": "cdf29b3ffef16209452f95519bdaf945", "is_reserved": 0, "fusion_lon": 0.0, "lat": 38.91105966666667, "is_disabled": 0, "name": "cdf29b3ffef16209452f95519bdaf945", "fusion_lat": 0.0, "rental_uris": {"ios": "https://dc.lft.to/lastmile_qr_scan", "android": "https://dc.lft.to/lastmile_qr_scan"}, "lon": -77.00373666666667, "type": "electric_scooter"}, {"bike_id": "c3aed5d9d862dd5116b59451b4aaf860", "is_reserved": 0, "fusion_lon": 0.0, "lat": 38.8982855, "is_disabled": 0, "name": "c3aed5d9d862dd5116b59451b4aaf860", "fusion_lat": 0.0, "rental_uris": {"ios": "https://dc.lft.to/lastmile_qr_scan", "android": "https://dc.lft.to/lastmile_qr_scan"}, "lon": -77.03343183333334, "type": "electric_scooter"}, {"bike_id": "62fa8714d4769f886e5dc4d3e408b66e", "is_reserved": 0, "fusion_lon": 0.0, "lat": 38.923453, "is_disabled": 0, "name": "62fa8714d4769f886e5dc4d3e408b66e", "fusion_lat": 0.0, "rental_uris": {"ios": "https://dc.lft.to/lastmile_qr_scan", "android": "https://dc.lft.to/lastmile_qr_scan"}, "lon": -77.03514183333333, "type": "electric_scooter"}, {"bike_id": "5b3d3cd2e82de0de1bded8fe0e820d76", "is_reserved": 0, "fusion_lon": 0.0, "lat": 38.93346183333333, "is_disabled": 0, "name": "5b3d3cd2e82de0de1bded8fe0e820d76", "fusion_lat": 0.0, "rental_uris": {"ios": "https://dc.lft.to/lastmile_qr_scan", "android": "https://dc.lft.to/lastmile_qr_scan"}, "lon": -77.05864433333333, "type": "electric_scooter"}, {"bike_id": "3439585c343d8a45e89ed3c23e6073f4", "is_reserved": 0, "fusion_lon": 0.0, "lat": 38.92786233333333, "is_disabled": 0, "name": "3439585c343d8a45e89ed3c23e6073f4", "fusion_lat": 0.0, "rental_uris": {"ios": "https://dc.lft.to/lastmile_qr_scan", "android": "https://dc.lft.to/lastmile_qr_scan"}, "lon": -77.03148266666666, "type": "electric_scooter"}, {"bike_id": "4356d1b060566933f93e52a1fc844864", "is_reserved": 0, "fusion_lon": 0.0, "lat": 38.98464416666667, "is_disabled": 0, "name": "4356d1b060566933f93e52a1fc844864", "fusion_lat": 0.0, "rental_uris": {"ios": "https://dc.lft.to/lastmile_qr_scan", "android": "https://dc.lft.to/lastmile_qr_scan"}, "lon": -76.95527733333333, "type": "electric_bike"}, {"bike_id": "2da70138d3a9455b1c79c5cfd12ae756", "is_reserved": 0, "fusion_lon": 0.0, "lat": 38.86560733333334, "is_disabled": 0, "name": "2da70138d3a9455b1c79c5cfd12ae756", "fusion_lat": 0.0, "rental_uris": {"ios": "https://dc.lft.to/lastmile_qr_scan", "android": "https://dc.lft.to/lastmile_qr_scan"}, "lon": -76.98958066666667, "type": "electric_scooter"}, {"bike_id": "f6b6186b29c0c1b67c17de0e67f20744", "is_reserved": 0, "fusion_lon": 0.0, "lat": 38.90569283333333, "is_disabled": 0, "name": "f6b6186b29c0c1b67c17de0e67f20744", "fusion_lat": 0.0, "rental_uris": {"ios": "https://dc.lft.to/lastmile_qr_scan", "android": "https://dc.lft.to/lastmile_qr_scan"}, "lon": -77.02981683333333, "type": "electric_scooter"}, {"bike_id": "72ad7a545f70d6105985911c7d40c30d", "is_reserved": 0, "fusion_lon": 0.0, "lat": 38.900603, "is_disabled": 0, "name": "72ad7a545f70d6105985911c7d40c30d", "fusion_lat": 0.0, "rental_uris": {"ios": "https://dc.lft.to/lastmile_qr_scan", "android": "https://dc.lft.to/lastmile_qr_scan"}, "lon": -77.00756083333333, "type": "electric_scooter"}, {"bike_id": "3ac2b1283cada869797b0286c56cc749", "is_reserved": 0, "fusion_lon": 0.0, "lat": 38.93954183333334, "is_disabled": 0, "name": "3ac2b1283cada869797b0286c56cc749", "fusion_lat": 0.0, "rental_uris": {"ios": "https://dc.lft.to/lastmile_qr_scan", "android": "https://dc.lft.to/lastmile_qr_scan"}, "lon": -77.03259033333333, "type": "electric_scooter"}, {"bike_id": "e512a1402fa0a2007c33d9314f7c7b12", "is_reserved": 0, "fusion_lon": 0.0, "lat": 38.8922545, "is_disabled": 0, "name": "e512a1402fa0a2007c33d9314f7c7b12", "fusion_lat": 0.0, "rental_uris": {"ios": "https://dc.lft.to/lastmile_qr_scan", "android": "https://dc.lft.to/lastmile_qr_scan"}, "lon": -77.02835883333333, "type": "electric_scooter"}, {"bike_id": "9da1f2a0229dd9f6277707bc4d8afa61", "is_reserved": 0, "fusion_lon": 0.0, "lat": 38.89988866666667, "is_disabled": 0, "name": "9da1f2a0229dd9f6277707bc4d8afa61", "fusion_lat": 0.0, "rental_uris": {"ios": "https://dc.lft.to/lastmile_qr_scan", "android": "https://dc.lft.to/lastmile_qr_scan"}, "lon": -77.021606, "type": "electric_scooter"}, {"bike_id": "0bc41040b951feb4bf950d7c117e62e6", "is_reserved": 0, "fusion_lon": 0.0, "lat": 38.941847333333335, "is_disabled": 0, "name": "0bc41040b951feb4bf950d7c117e62e6", "fusion_lat": 0.0, "rental_uris": {"ios": "https://dc.lft.to/lastmile_qr_scan", "android": "https://dc.lft.to/lastmile_qr_scan"}, "lon": -77.025268, "type": "electric_scooter"}, {"bike_id": "6a4552d36a9fc7ad805b3f5c2e13362a", "is_reserved": 0, "fusion_lon": 0.0, "lat": 38.897281166666666, "is_disabled": 0, "name": "6a4552d36a9fc7ad805b3f5c2e13362a", "fusion_lat": 0.0, "rental_uris": {"ios": "https://dc.lft.to/lastmile_qr_scan", "android": "https://dc.lft.to/lastmile_qr_scan"}, "lon": -77.02714783333333, "type": "electric_scooter"}, {"bike_id": "51afc202908fe6e2c8eca57a75e39092", "is_reserved": 0, "fusion_lon": 0.0, "lat": 38.865981, "is_disabled": 0, "name": "51afc202908fe6e2c8eca57a75e39092", "fusion_lat": 0.0, "rental_uris": {"ios": "https://dc.lft.to/lastmile_qr_scan", "android": "https://dc.lft.to/lastmile_qr_scan"}, "lon": -76.93229716666667, "type": "electric_bike"}, {"bike_id": "3527dabc20e6f291cdb4d87ef73d6ab3", "is_reserved": 0, "fusion_lon": 0.0, "lat": 38.892297666666664, "is_disabled": 0, "name": "3527dabc20e6f291cdb4d87ef73d6ab3", "fusion_lat": 0.0, "rental_uris": {"ios": "https://dc.lft.to/lastmile_qr_scan", "android": "https://dc.lft.to/lastmile_qr_scan"}, "lon": -77.0258215, "type": "electric_scooter"}, {"bike_id": "8b2ded6673fa22c02bd31f6aca110c81", "is_reserved": 0, "fusion_lon": 0.0, "lat": 38.919729833333335, "is_disabled": 0, "name": "8b2ded6673fa22c02bd31f6aca110c81", "fusion_lat": 0.0, "rental_uris": {"ios": "https://dc.lft.to/lastmile_qr_scan", "android": "https://dc.lft.to/lastmile_qr_scan"}, "lon": -77.02392816666666, "type": "electric_scooter"}, {"bike_id": "fd9c43e972348c3f1b403b073648c107", "is_reserved": 0, "fusion_lon": 0.0, "lat": 38.90267, "is_disabled": 0, "name": "fd9c43e972348c3f1b403b073648c107", "fusion_lat": 0.0, "rental_uris": {"ios": "https://dc.lft.to/lastmile_qr_scan", "android": "https://dc.lft.to/lastmile_qr_scan"}, "lon": -77.0407655, "type": "electric_scooter"}, {"bike_id": "2a526084494f5db2d200f68cdea0a4f6", "is_reserved": 0, "fusion_lon": 0.0, "lat": 38.91655516666667, "is_disabled": 0, "name": "2a526084494f5db2d200f68cdea0a4f6", "fusion_lat": 0.0, "rental_uris": {"ios": "https://dc.lft.to/lastmile_qr_scan", "android": "https://dc.lft.to/lastmile_qr_scan"}, "lon": -77.03641666666667, "type": "electric_scooter"}, {"bike_id": "eeb10d91bba8f8a37e8d570d385b273f", "is_reserved": 0, "fusion_lon": 0.0, "lat": 38.80699033333333, "is_disabled": 0, "name": "eeb10d91bba8f8a37e8d570d385b273f", "fusion_lat": 0.0, "rental_uris": {"ios": "https://dc.lft.to/lastmile_qr_scan", "android": "https://dc.lft.to/lastmile_qr_scan"}, "lon": -77.0596635, "type": "electric_bike"}, {"bike_id": "85f26b20917c3291d1d078be35a24ee6", "is_reserved": 0, "fusion_lon": 0.0, "lat": 38.852186, "is_disabled": 0, "name": "85f26b20917c3291d1d078be35a24ee6", "fusion_lat": 0.0, "rental_uris": {"ios": "https://dc.lft.to/lastmile_qr_scan", "android": "https://dc.lft.to/lastmile_qr_scan"}, "lon": -77.12955816666667, "type": "electric_bike"}, {"bike_id": "596da5d57dea874420d1748d60a2e6a3", "is_reserved": 0, "fusion_lon": 0.0, "lat": 38.90880466666667, "is_disabled": 0, "name": "596da5d57dea874420d1748d60a2e6a3", "fusion_lat": 0.0, "rental_uris": {"ios": "https://dc.lft.to/lastmile_qr_scan", "android": "https://dc.lft.to/lastmile_qr_scan"}, "lon": -77.02304383333333, "type": "electric_scooter"}, {"bike_id": "97fcee2e469ef3dc9117228e78f9ca43", "is_reserved": 0, "fusion_lon": 0.0, "lat": 38.939490166666666, "is_disabled": 0, "name": "97fcee2e469ef3dc9117228e78f9ca43", "fusion_lat": 0.0, "rental_uris": {"ios": "https://dc.lft.to/lastmile_qr_scan", "android": "https://dc.lft.to/lastmile_qr_scan"}, "lon": -77.032631, "type": "electric_scooter"}, {"bike_id": "f60eddadbdab1bb5b0852b6249fd0072", "is_reserved": 0, "fusion_lon": 0.0, "lat": 38.92751666666667, "is_disabled": 0, "name": "f60eddadbdab1bb5b0852b6249fd0072", "fusion_lat": 0.0, "rental_uris": {"ios": "https://dc.lft.to/lastmile_qr_scan", "android": "https://dc.lft.to/lastmile_qr_scan"}, "lon": -77.05382933333334, "type": "electric_scooter"}, {"bike_id": "2ba29c651fecb476ecebda5e5f296b3f", "is_reserved": 0, "fusion_lon": 0.0, "lat": 38.92086666666667, "is_disabled": 0, "name": "2ba29c651fecb476ecebda5e5f296b3f", "fusion_lat": 0.0, "rental_uris": {"ios": "https://dc.lft.to/lastmile_qr_scan", "android": "https://dc.lft.to/lastmile_qr_scan"}, "lon": -77.02543133333333, "type": "electric_scooter"}, {"bike_id": "70f32b7d5a815778ae5c4aab89e39c6b", "is_reserved": 0, "fusion_lon": 0.0, "lat": 38.909007833333334, "is_disabled": 0, "name": "70f32b7d5a815778ae5c4aab89e39c6b", "fusion_lat": 0.0, "rental_uris": {"ios": "https://dc.lft.to/lastmile_qr_scan", "android": "https://dc.lft.to/lastmile_qr_scan"}, "lon": -77.02693966666666, "type": "electric_scooter"}, {"bike_id": "af04663dd377a735edb3b5718d37ac03", "is_reserved": 0, "fusion_lon": 0.0, "lat": 38.91284266666667, "is_disabled": 0, "name": "af04663dd377a735edb3b5718d37ac03", "fusion_lat": 0.0, "rental_uris": {"ios": "https://dc.lft.to/lastmile_qr_scan", "android": "https://dc.lft.to/lastmile_qr_scan"}, "lon": -77.02298566666667, "type": "electric_scooter"}, {"bike_id": "8c2772e5022ec67f724c4cd0ccf05917", "is_reserved": 0, "fusion_lon": 0.0, "lat": 38.91884816666666, "is_disabled": 0, "name": "8c2772e5022ec67f724c4cd0ccf05917", "fusion_lat": 0.0, "rental_uris": {"ios": "https://dc.lft.to/lastmile_qr_scan", "android": "https://dc.lft.to/lastmile_qr_scan"}, "lon": -76.97161633333333, "type": "electric_scooter"}, {"bike_id": "cc5631f88f1daa274c265acc8d341238", "is_reserved": 0, "fusion_lon": 0.0, "lat": 38.89477683333333, "is_disabled": 0, "name": "cc5631f88f1daa274c265acc8d341238", "fusion_lat": 0.0, "rental_uris": {"ios": "https://dc.lft.to/lastmile_qr_scan", "android": "https://dc.lft.to/lastmile_qr_scan"}, "lon": -77.02212033333333, "type": "electric_scooter"}, {"bike_id": "809144d889b9bf302ce07a04df24ec80", "is_reserved": 0, "fusion_lon": 0.0, "lat": 38.914919, "is_disabled": 0, "name": "809144d889b9bf302ce07a04df24ec80", "fusion_lat": 0.0, "rental_uris": {"ios": "https://dc.lft.to/lastmile_qr_scan", "android": "https://dc.lft.to/lastmile_qr_scan"}, "lon": -77.02690016666666, "type": "electric_scooter"}, {"bike_id": "f327c40c7d447ef9caad1084402e7854", "is_reserved": 0, "fusion_lon": 0.0, "lat": 38.94612083333333, "is_disabled": 0, "name": "f327c40c7d447ef9caad1084402e7854", "fusion_lat": 0.0, "rental_uris": {"ios": "https://dc.lft.to/lastmile_qr_scan", "android": "https://dc.lft.to/lastmile_qr_scan"}, "lon": -77.0351265, "type": "electric_scooter"}, {"bike_id": "58a5eb5e0b61ec65924b7f5cbb34769c", "is_reserved": 0, "fusion_lon": 0.0, "lat": 38.899191, "is_disabled": 0, "name": "58a5eb5e0b61ec65924b7f5cbb34769c", "fusion_lat": 0.0, "rental_uris": {"ios": "https://dc.lft.to/lastmile_qr_scan", "android": "https://dc.lft.to/lastmile_qr_scan"}, "lon": -77.054219, "type": "electric_scooter"}, {"bike_id": "f47713117111fdf2b0b1e0da89907049", "is_reserved": 0, "fusion_lon": 0.0, "lat": 38.949301, "is_disabled": 0, "name": "f47713117111fdf2b0b1e0da89907049", "fusion_lat": 0.0, "rental_uris": {"ios": "https://dc.lft.to/lastmile_qr_scan", "android": "https://dc.lft.to/lastmile_qr_scan"}, "lon": -77.01932333333333, "type": "electric_scooter"},