{"data": {"bikes": [{"bike_id": "ea9ba82658e3fb59326c5f8914893619", "fusion_lon": 0.0, "name": "ea9ba82658e3fb59326c5f8914893619", "lat": 38.9301985, "is_disabled": 0, "is_reserved": 0, "lon": -77.0329, "type": "electric_scooter", "fusion_lat": 0.0, "rental_uris": {"android": "https://dc.lft.to/lastmile_qr_scan", "ios": "https://dc.lft.to/lastmile_qr_scan"}}, {"bike_id": "e70ae9cc09a7930d95b04f0426aa42e0", "fusion_lon": 0.0, "name": "e70ae9cc09a7930d95b04f0426aa42e0", "lat": 38.942552, "is_disabled": 0, "is_reserved": 0, "lon": -77.0253115, "type": "electric_scooter", "fusion_lat": 0.0, "rental_uris": {"android": "https://dc.lft.to/lastmile_qr_scan", "ios": "https://dc.lft.to/lastmile_qr_scan"}}, {"bike_id": "9c2f771dbadb13f2814262532d3a6226", "fusion_lon": 0.0, "name": "9c2f771dbadb13f2814262532d3a6226", "lat": 38.91683116666667, "is_disabled": 0, "is_reserved": 0, "lon": -77.02949466666666, "type": "electric_scooter", "fusion_lat": 0.0, "rental_uris": {"android": "https://dc.lft.to/lastmile_qr_scan", "ios": "https://dc.lft.to/lastmile_qr_scan"}}, {"bike_id": "0fc357a3b06387145a5231a11e243b40", "fusion_lon": 0.0, "name": "0fc357a3b06387145a5231a11e243b40", "lat": 38.920441833333335, "is_disabled": 0, "is_reserved": 0, "lon": -77.01673683333334, "type": "electric_scooter", "fusion_lat": 0.0, "rental_uris": {"android": "https://dc.lft.to/lastmile_qr_scan", "ios": "https://dc.lft.to/lastmile_qr_scan"}}, {"bike_id": "b4c370b1948d2f1ff2ef661627520993", "fusion_lon": 0.0, "name": "b4c370b1948d2f1ff2ef661627520993", "lat": 38.920711, "is_disabled": 0, "is_reserved": 0, "lon": -76.995383, "type": "electric_scooter", "fusion_lat": 0.0, "rental_uris": {"android": "https://dc.lft.to/lastmile_qr_scan", "ios": "https://dc.lft.to/lastmile_qr_scan"}}, {"bike_id": "e4347750f224a69a1955892aaff6081f", "fusion_lon": 0.0, "name": "e4347750f224a69a1955892aaff6081f", "lat": 38.856481333333335, "is_disabled": 0, "is_reserved": 0, "lon": -77.085329, "type": "electric_bike", "fusion_lat": 0.0, "rental_uris": {"android": "https://dc.lft.to/lastmile_qr_scan", "ios": "https://dc.lft.to/lastmile_qr_scan"}}, {"bike_id": "32540c5c33ca949bc461f82ccf89ff78", "fusion_lon": 0.0, "name": "32540c5c33ca949bc461f82ccf89ff78", "lat": 38.90709116666667, "is_disabled": 0, "is_reserved": 0, "lon": -77.00582966666667, "type": "electric_scooter", "fusion_lat": 0.0, "rental_uris": {"android": "https://dc.lft.to/lastmile_qr_scan", "ios": "https://dc.lft.to/lastmile_qr_scan"}}, {"bike_id": "105399d4427cc5984f3397ff4dbb8671", "fusion_lon": 0.0, "name": "105399d4427cc5984f3397ff4dbb8671", "lat": 38.88254033333333, "is_disabled": 0, "is_reserved": 0, "lon": -76.926687, "type": "electric_scooter", "fusion_lat": 0.0, "rental_uris": {"android": "https://dc.lft.to/lastmile_qr_scan", "ios": "https://dc.lft.to/lastmile_qr_scan"}}, {"bike_id": "2b930ea484eb0798c8a799dcc5b2a85e", "fusion_lon": 0.0, "name": "2b930ea484eb0798c8a799dcc5b2a85e", "lat": 38.91577083333333, "is_disabled": 0, "is_reserved": 0, "lon": -77.02120416666666, "type": "electric_scooter", "fusion_lat": 0.0, "rental_uris": {"android": "https://dc.lft.to/lastmile_qr_scan", "ios": "https://dc.lft.to/lastmile_qr_scan"}}, {"bike_id": "fe5f205829f89ecb87011e4e37985f9d", "fusion_lon": 0.0, "name": "fe5f205829f89ecb87011e4e37985f9d", "lat": 38.9153195, "is_disabled": 0, "is_reserved": 0, "lon": -77.012257, "type": "electric_scooter", "fusion_lat": 0.0, "rental_uris": {"android": "https://dc.lft.to/lastmile_qr_scan", "ios": "https://dc.lft.to/lastmile_qr_scan"}}, {"bike_id": "dd83fb94647734cf28c158bddddb4046", "fusion_lon": 0.0, "name": "dd83fb94647734cf28c158bddddb4046", "lat": 38.888102333333336, "is_disabled": 0, "is_reserved": 0, "lon": -76.983605, "type": "electric_scooter", "fusion_lat": 0.0, "rental_uris": {"android": "https://dc.lft.to/lastmile_qr_scan", "ios": "https://dc.lft.to/lastmile_qr_scan"}}, {"bike_id": "3dd0d2a40d0a6c7fb4f91be42f18d511", "fusion_lon": 0.0, "name": "3dd0d2a40d0a6c7fb4f91be42f18d511", "lat": 38.8970215, "is_disabled": 0, "is_reserved": 0, "lon": -77.0161185, "type": "electric_scooter", "fusion_lat": 0.0, "rental_uris": {"android": "https://dc.lft.to/lastmile_qr_scan", "ios": "https://dc.lft.to/lastmile_qr_scan"}}, {"bike_id": "d09b1c3bb772128225e1291e13f19403", "fusion_lon": 0.0, "name": "d09b1c3bb772128225e1291e13f19403", "lat": 38.900397166666664, "is_disabled": 0, "is_reserved": 0, "lon": -77.00192816666667, "type": "electric_scooter", "fusion_lat": 0.0, "rental_uris": {"android": "https://dc.lft.to/lastmile_qr_scan", "ios": "https://dc.lft.to/lastmile_qr_scan"}}, {"bike_id": "3bb9bb9ca0c0146a5eda7abd445dc36d", "fusion_lon": 0.0, "name": "3bb9bb9ca0c0146a5eda7abd445dc36d", "lat": 38.8935935, "is_disabled": 0, "is_reserved": 0, "lon": -77.02805283333333, "type": "electric_scooter", "fusion_lat": 0.0, "rental_uris": {"android": "https://dc.lft.to/lastmile_qr_scan", "ios": "https://dc.lft.to/lastmile_qr_scan"}}, {"bike_id": "34fe5175a5342414c96c7f23e072cc11", "fusion_lon": 0.0, "name": "34fe5175a5342414c96c7f23e072cc11", "lat": 38.86629683333334, "is_disabled": 0, "is_reserved": 0, "lon": -76.98306583333333, "type": "electric_scooter", "fusion_lat": 0.0, "rental_uris": {"android": "https://dc.lft.to/lastmile_qr_scan", "ios": "https://dc.lft.to/lastmile_qr_scan"}}, {"bike_id": "452da1aae379d3a60a4002c5f05b7259", "fusion_lon": 0.0, "name": "452da1aae379d3a60a4002c5f05b7259", "lat": 38.9170995, "is_disabled": 0, "is_reserved": 0, "lon": -77.03475216666666, "type": "electric_scooter", "fusion_lat": 0.0, "rental_uris": {"android": "https://dc.lft.to/lastmile_qr_scan", "ios": "https://dc.lft.to/lastmile_qr_scan"}}, {"bike_id": "3ba816c4aa4dfe4ec0ddbc518c7365c3", "fusion_lon": 0.0, "name": "3ba816c4aa4dfe4ec0ddbc518c7365c3", "lat": 38.90838866666667, "is_disabled": 0, "is_reserved": 0, "lon": -77.0557965, "type": "electric_scooter", "fusion_lat": 0.0, "rental_uris": {"android": "https://dc.lft.to/lastmile_qr_scan", "ios": "https://dc.lft.to/lastmile_qr_scan"}}, {"bike_id": "78b46dc6b8eb63dfad85f58e649cb346", "fusion_lon": 0.0, "name": "78b46dc6b8eb63dfad85f58e649cb346", "lat": 38.91927316666667, "is_disabled": 0, "is_reserved": 0, "lon": -77.0317745, "type": "electric_scooter", "fusion_lat": 0.0, "rental_uris": {"android": "https://dc.lft.to/lastmile_qr_scan", "ios": "https://dc.lft.to/lastmile_qr_scan"}}, {"bike_id": "47500becae1268621a5e0ec82db83370", "fusion_lon": 0.0, "name": "47500becae1268621a5e0ec82db83370", "lat": 38.88611916666667, "is_disabled": 0, "is_reserved": 0, "lon": -77.01529733333334, "type": "electric_scooter", "fusion_lat": 0.0, "rental_uris": {"android": "https://dc.lft.to/lastmile_qr_scan", "ios": "https://dc.lft.to/lastmile_qr_scan"}}, {"bike_id": "edfb2af9b86abcb708fa2d04253f94d8", "fusion_lon": 0.0, "name": "edfb2af9b86abcb708fa2d04253f94d8", "lat": 38.902505833333336, "is_disabled": 0, "is_reserved": 0, "lon": -77.02707433333333, "type": "electric_scooter", "fusion_lat": 0.0, "rental_uris": {"android": "https://dc.lft.to/lastmile_qr_scan", "ios": "https://dc.lft.to/lastmile_qr_scan"}}, {"bike_id": "d8e4a3ba74ee955f4ab399654b41d942", "fusion_lon": 0.0, "name": "d8e4a3ba74ee955f4ab399654b41d942", "lat": 38.9054975, "is_disabled": 0, "is_reserved": 0, "lon": -77.00554333333334, "type": "electric_scooter", "fusion_lat": 0.0, "rental_uris": {"android": "https://dc.lft.to/lastmile_qr_scan", "ios": "https://dc.lft.to/lastmile_qr_scan"}}, {"bike_id": "7e5252a0e94b4a20cce00ae059de06e4", "fusion_lon": 0.0, "name": "7e5252a0e94b4a20cce00ae059de06e4", "lat": 38.85459266666667, "is_disabled": 0, "is_reserved": 0, "lon": -76.972305, "type": "electric_scooter", "fusion_lat": 0.0, "rental_uris": {"android": "https://dc.lft.to/lastmile_qr_scan", "ios": "https://dc.lft.to/lastmile_qr_scan"}}, {"bike_id": "f445f448c140422e82fa962b48030e91", "fusion_lon": 0.0, "name": "f445f448c140422e82fa962b48030e91", "lat": 38.91689733333333, "is_disabled": 0, "is_reserved": 0, "lon": -77.02598566666667, "type": "electric_scooter", "fusion_lat": 0.0, "rental_uris": {"android": "https://dc.lft.to/lastmile_qr_scan", "ios": "https://dc.lft.to/lastmile_qr_scan"}}, {"bike_id": "9d8ad046ae9836234043020f9ccb77a3", "fusion_lon": 0.0, "name": "9d8ad046ae9836234043020f9ccb77a3", "lat": 38.88772933333333, "is_disabled": 0, "is_reserved": 0, "lon": -76.97751983333333, "type": "electric_scooter", "fusion_lat": 0.0, "rental_uris": {"android": "https://dc.lft.to/lastmile_qr_scan", "ios": "https://dc.lft.to/lastmile_qr_scan"}}, {"bike_id": "3d54f2018ecf45348ee3638fb42c8230", "fusion_lon": 0.0, "name": "3d54f2018ecf45348ee3638fb42c8230", "lat": 38.92601166666667, "is_disabled": 0, "is_reserved": 0, "lon": -77.02154966666667, "type": "electric_scooter", "fusion_lat": 0.0, "rental_uris": {"android": "https://dc.lft.to/lastmile_qr_scan", "ios": "https://dc.lft.to/lastmile_qr_scan"}}, {"bike_id": "4ac87dc97ed47f93c8da7cf4d009cf40", "fusion_lon": 0.0, "name": "4ac87dc97ed47f93c8da7cf4d009cf40", "lat": 39.0387515, "is_disabled": 0, "is_reserved": 0, "lon": -77.05027433333333, "type": "electric_bike", "fusion_lat": 0.0, "rental_uris": {"android": "https://dc.lft.to/lastmile_qr_scan", "ios": "https://dc.lft.to/lastmile_qr_scan"}}, {"bike_id": "a37b58672355a3e0fbe28a441035c266", "fusion_lon": 0.0, "name": "a37b58672355a3e0fbe28a441035c266", "lat": 38.90202083333333, "is_disabled": 0, "is_reserved": 0, "lon": -77.0224915, "type": "electric_scooter", "fusion_lat": 0.0, "rental_uris": {"android": "https://dc.lft.to/lastmile_qr_scan", "ios": "https://dc.lft.to/lastmile_qr_scan"}}, {"bike_id": "9d63d960d5d592c549892d7f501a76d6", "fusion_lon": 0.0, "name": "9d63d960d5d592c549892d7f501a76d6", "lat": 38.90685783333333, "is_disabled": 0, "is_reserved": 0, "lon": -76.98496466666667, "type": "electric_scooter", "fusion_lat": 0.0, "rental_uris": {"android": "https://dc.lft.to/lastmile_qr_scan", "ios": "https://dc.lft.to/lastmile_qr_scan"}}, {"bike_id": "e294423fe51dfc8fc1ffdc2444bb6a43", "fusion_lon": 0.0, "name": "e294423fe51dfc8fc1ffdc2444bb6a43", "lat": 38.9340315, "is_disabled": 0, "is_reserved": 0, "lon": -77.03258933333333, "type": "electric_scooter", "fusion_lat": 0.0, "rental_uris": {"android": "https://dc.lft.to/lastmile_qr_scan", "ios": "https://dc.lft.to/lastmile_qr_scan"}}, {"bike_id": "fd289e17108c650825de665a31e72070", "fusion_lon": 0.0, "name": "fd289e17108c650825de665a31e72070", "lat": 38.884875666666666, "is_disabled": 0, "is_reserved": 0, "lon": -77.00713516666667, "type": "electric_scooter", "fusion_lat": 0.0, "rental_uris": {"android": "https://dc.lft.to/lastmile_qr_scan", "ios": "https://dc.lft.to/lastmile_qr_scan"}}, {"bike_id": "a561ac3ae7feabcd7f61d58c6aa01b38", "fusion_lon": 0.0, "name": "a561ac3ae7feabcd7f61d58c6aa01b38", "lat": 38.892289, "is_disabled": 0, "is_reserved": 0, "lon": -77.01712566666667, "type": "electric_scooter", "fusion_lat": 0.0, "rental_uris": {"android": "https://dc.lft.to/lastmile_qr_scan", "ios": "https://dc.lft.to/lastmile_qr_scan"}}, {"bike_id": "838a03795118047e641fee415a04b559", "fusion_lon": 0.0, "name": "838a03795118047e641fee415a04b559", "lat": 38.90593483333333, "is_disabled": 0, "is_reserved": 0, "lon": -77.06563266666667, "type": "electric_scooter", "fusion_lat": 0.0, "rental_uris": {"android": "https://dc.lft.to/lastmile_qr_scan", "ios": "https://dc.lft.to/lastmile_qr_scan"}}, {"bike_id": "8df0bc58916a0bc2c1012e45b72644b4", "fusion_lon": 0.0, "name": "8df0bc58916a0bc2c1012e45b72644b4", "lat": 38.915297833333334, "is_disabled": 0, "is_reserved": 0, "lon": -77.0122475, "type": "electric_scooter", "fusion_lat": 0.0, "rental_uris": {"android": "https://dc.lft.to/lastmile_qr_scan", "ios": "https://dc.lft.to/lastmile_qr_scan"}}, {"bike_id": "d252dace562e227978370f89c45a5fd6", "fusion_lon": 0.0, "name": "d252dace562e227978370f89c45a5fd6", "lat": 38.88470133333333, "is_disabled": 0, "is_reserved": 0, "lon": -77.01526283333334, "type": "electric_scooter", "fusion_lat": 0.0, "rental_uris": {"android": "https://dc.lft.to/lastmile_qr_scan", "ios": "https://dc.lft.to/lastmile_qr_scan"}}, {"bike_id": "a8831e5262b4fb1bcc26e0cf312f2e23", "fusion_lon": 0.0, "name": "a8831e5262b4fb1bcc26e0cf312f2e23", "lat": 38.9096945, "is_disabled": 0, "is_reserved": 0, "lon": -77.03443466666667, "type": "electric_scooter", "fusion_lat": 0.0, "rental_uris": {"android": "https://dc.lft.to/lastmile_qr_scan", "ios": "https://dc.lft.to/lastmile_qr_scan"}}, {"bike_id": "971aefa9ebab017de0ded41c25ea3865", "fusion_lon": 0.0, "name": "971aefa9ebab017de0ded41c25ea3865", "lat": 38.93519383333334, "is_disabled": 0, "is_reserved": 0, "lon": -77.08706233333334, "type": "electric_scooter", "fusion_lat": 0.0, "rental_uris": {"android": "https://dc.lft.to/lastmile_qr_scan", "ios": "https://dc.lft.to/lastmile_qr_scan"}}, {"bike_id": "eee334450c1118b6836cf3866c2ac8a4", "fusion_lon": 0.0, "name": "eee334450c1118b6836cf3866c2ac8a4", "lat": 38.88341716666667, "is_disabled": 0, "is_reserved": 0, "lon": -77.01691516666666, "type": "electric_scooter", "fusion_lat": 0.0, "rental_uris": {"android": "https://dc.lft.to/lastmile_qr_scan", "ios": "https://dc.lft.to/lastmile_qr_scan"}}, {"bike_id": "0af1f70368d07254cef92e37611faebb", "fusion_lon": 0.0, "name": "0af1f70368d07254cef92e37611faebb", "lat": 38.92367483333334, "is_disabled": 0, "is_reserved": 0, "lon": -77.01908366666666, "type": "electric_scooter", "fusion_lat": 0.0, "rental_uris": {"android": "https://dc.lft.to/lastmile_qr_scan", "ios": "https://dc.lft.to/lastmile_qr_scan"}}, {"bike_id": "4052df53a627aa8b11a840c910c113a4", "fusion_lon": 0.0, "name": "4052df53a627aa8b11a840c910c113a4", "lat": 38.92754333333333, "is_disabled": 0, "is_reserved": 0, "lon": -77.03297816666667, "type": "electric_scooter", "fusion_lat": 0.0, "rental_uris": {"android": "https://dc.lft.to/lastmile_qr_scan", "ios": "https://dc.lft.to/lastmile_qr_scan"}}, {"bike_id": "beef6a3c03117e3ea97ab50fb371cc8a", "fusion_lon": 0.0, "name": "beef6a3c03117e3ea97ab50fb371cc8a", "lat": 38.90526116666667, "is_disabled": 0, "is_reserved": 0, "lon": -77.04357333333333, "type": "electric_scooter", "fusion_lat": 0.0, "rental_uris": {"android": "https://dc.lft.to/lastmile_qr_scan", "ios": "https://dc.lft.to/lastmile_qr_scan"}}, {"bike_id": "85842b61ca38824a55e9dc7f5246573f", "fusion_lon": 0.0, "name": "85842b61ca38824a55e9dc7f5246573f", "lat": 38.92493133333333, "is_disabled": 0, "is_reserved": 0, "lon": -77.021502, "type": "electric_scooter", "fusion_lat": 0.0, "rental_uris": {"android": "https://dc.lft.to/lastmile_qr_scan", "ios": "https://dc.lft.to/lastmile_qr_scan"}}, {"bike_id": "4c40ee56b04b3bbf65f132649c34ca98", "fusion_lon": 0.0, "name": "4c40ee56b04b3bbf65f132649c34ca98", "lat": 38.956454, "is_disabled": 0, "is_reserved": 0, "lon": -77.0229085, "type": "electric_scooter", "fusion_lat": 0.0, "rental_uris": {"android": "https://dc.lft.to/lastmile_qr_scan", "ios": "https://dc.lft.to/lastmile_qr_scan"}}, {"bike_id": "3fa7259215e735e74d60d99684c26ddf", "fusion_lon": 0.0, "name": "3fa7259215e735e74d60d99684c26ddf", "lat": 38.92356216666667, "is_disabled": 0, "is_reserved": 0, "lon": -77.05037266666666, "type": "electric_scooter", "fusion_lat": 0.0, "rental_uris": {"android": "https://dc.lft.to/lastmile_qr_scan", "ios": "https://dc.lft.to/lastmile_qr_scan"}}, {"bike_id": "bf6bdeb86aeba6c6002c8c5ac33bd1d5", "fusion_lon": 0.0, "name": "bf6bdeb86aeba6c6002c8c5ac33bd1d5", "lat": 38.884883333333335, "is_disabled": 0, "is_reserved": 0, "lon": -77.01083633333333, "type": "electric_scooter", "fusion_lat": 0.0, "rental_uris": {"android": "https://dc.lft.to/lastmile_qr_scan", "ios": "https://dc.lft.to/lastmile_qr_scan"}}, {"bike_id": "b525f3fba792b98412e96aeba59f0acf", "fusion_lon": 0.0, "name": "b525f3fba792b98412e96aeba59f0acf", "lat": 39.0038155, "is_disabled": 0, "is_reserved": 0, "lon": -77.0129785, "type": "electric_bike", "fusion_lat": 0.0, "rental_uris": {"android": "https://dc.lft.to/lastmile_qr_scan", "ios": "https://dc.lft.to/lastmile_qr_scan"}}, {"bike_id": "56218d309a976a8f81da4e2a6040acfb", "fusion_lon": 0.0, "name": "56218d309a976a8f81da4e2a6040acfb", "lat": 38.9042475, "is_disabled": 0, "is_reserved": 0, "lon": -77.0288185, "type": "electric_scooter", "fusion_lat": 0.0, "rental_uris": {"android": "https://dc.lft.to/lastmile_qr_scan", "ios": "https://dc.lft.to/lastmile_qr_scan"}}, {"bike_id": "5d9b8ca641e6bf300bae2015451e8ebf", "fusion_lon": 0.0, "name": "5d9b8ca641e6bf300bae2015451e8ebf", "lat": 38.89714633333333, "is_disabled": 0, "is_reserved": 0, "lon": -77.00801033333333, "type": "electric_scooter", "fusion_lat": 0.0, "rental_uris": {"android": "https://dc.lft.to/lastmile_qr_scan", "ios": "https://dc.lft.to/lastmile_qr_scan"}}, {"bike_id": "de1f4b397eb18acad867d717b3f10280", "fusion_lon": 0.0, "name": "de1f4b397eb18acad867d717b3f10280", "lat": 38.892186833333334, "is_disabled": 0, "is_reserved": 0, "lon": -77.046867, "type": "electric_scooter", "fusion_lat": 0.0, "rental_uris": {"android": "https://dc.lft.to/lastmile_qr_scan", "ios": "https://dc.lft.to/lastmile_qr_scan"}}, {"bike_id": "2d36b235df43b0b0e70a6cd92916b8b0", "fusion_lon": 0.0, "name": "2d36b235df43b0b0e70a6cd92916b8b0", "lat": 38.89234866666666, "is_disabled": 0, "is_reserved": 0, "lon": -77.033553, "type": "electric_scooter", "fusion_lat": 0.0, "rental_uris": {"android": "https://dc.lft.to/lastmile_qr_scan", "ios": "https://dc.lft.to/lastmile_qr_scan"}}, {"bike_id": "0ea1af2f45fe7c8b3aca0858928b25a7", "fusion_lon": 0.0, "name": "0ea1af2f45fe7c8b3aca0858928b25a7", "lat": 38.90732233333333, "is_disabled": 0, "is_reserved": 0, "lon": -77.02515416666667, "type": "electric_scooter", "fusion_lat": 0.0, "rental_uris": {"android": "https://dc.lft.to/lastmile_qr_scan", "ios": "https://dc.lft.to/lastmile_qr_scan"}}, {"bike_id": "85a067ab54af7b41bf1fee3987435e3d", "fusion_lon": 0.0, "name": "85a067ab54af7b41bf1fee3987435e3d", "lat": 38.885094, "is_disabled": 0, "is_reserved": 0, "lon": -77.02086383333334, "type": "electric_scooter", "fusion_lat": 0.0, "rental_uris": {"android": "https://dc.lft.to/lastmile_qr_scan", "ios": "https://dc.lft.to/lastmile_qr_scan"}}, {"bike_id": "9ba986f348a7062a18a92953cf04145b", "fusion_lon": 0.0, "name": "9ba986f348a7062a18a92953cf04145b", "lat": 38.93151916666667, "is_disabled": 0, "is_reserved": 0, "lon": -77.07852416666667, "type": "electric_scooter", "fusion_lat": 0.0, "rental_uris": {"android": "https://dc.lft.to/lastmile_qr_scan", "ios": "https://dc.lft.to/lastmile_qr_scan"}}, {"bike_id": "71515a09edd02e58329a817e47488617", "fusion_lon": 0.0, "name": "71515a09edd02e58329a817e47488617", "lat": 38.944458166666664, "is_disabled": 0, "is_reserved": 0, "lon": -77.02343783333333, "type": "electric_scooter", "fusion_lat": 0.0, "rental_uris": {"android": "https://dc.lft.to/lastmile_qr_scan", "ios": "https://dc.lft.to/lastmile_qr_scan"}}, {"bike_id": "7a13fe10659882edd44f805801e8433e", "fusion_lon": 0.0, "name": "7a13fe10659882edd44f805801e8433e", "lat": 38.86628983333333, "is_disabled": 0, "is_reserved": 0, "lon": -76.98716, "type": "electric_scooter", "fusion_lat": 0.0, "rental_uris": {"android": "https://dc.lft.to/lastmile_qr_scan", "ios": "https://dc.lft.to/lastmile_qr_scan"}}, {"bike_id": "83f86ed3a87af351fb3541f2d46b0a9c", "fusion_lon": 0.0, "name": "83f86ed3a87af351fb3541f2d46b0a9c", "lat": 38.90365333333333, "is_disabled": 0, "is_reserved": 0, "lon": -77.03198166666667, "type": "electric_scooter", "fusion_lat": 0.0, "rental_uris": {"android": "https://dc.lft.to/lastmile_qr_scan", "ios": "https://dc.lft.to/lastmile_qr_scan"}}, {"bike_id": "7b3d66b27e019091c681e329665f0098", "fusion_lon": 0.0, "name": "7b3d66b27e019091c681e329665f0098", "lat": 38.902695, "is_disabled": 0, "is_reserved": 0, "lon": -77.053177, "type": "electric_scooter", "fusion_lat": 0.0, "rental_uris": {"android": "https://dc.lft.to/lastmile_qr_scan", "ios": "https://dc.lft.to/lastmile_qr_scan"}}, {"bike_id": "a05389676c80221ab09d6044bec23664", "fusion_lon": 0.0, "name": "a05389676c80221ab09d6044bec23664", "lat": 38.905676166666666, "is_disabled": 0, "is_reserved": 0, "lon": -77.00302666666667, "type": "electric_bike", "fusion_lat": 0.0, "rental_uris": {"android": "https://dc.lft.to/lastmile_qr_scan", "ios": "https://dc.lft.to/lastmile_qr_scan"}}, {"bike_id": "2486e97e3b9a4acfa8361942d09a0972", "fusion_lon": 0.0, "name": "2486e97e3b9a4acfa8361942d09a0972", "lat": 38.9130855, "is_disabled": 0, "is_reserved": 0, "lon": -77.03184416666667, "type": "electric_scooter", "fusion_lat": 0.0, "rental_uris": {"android": "https://dc.lft.to/lastmile_qr_scan", "ios": "https://dc.lft.to/lastmile_qr_scan"}}, {"bike_id": "491995a387c906c7b30f02f5affb82b6", "fusion_lon": 0.0, "name": "491995a387c906c7b30f02f5affb82b6", "lat": 38.9084995, "is_disabled": 0, "is_reserved": 0, "lon": -76.9980005, "type": "electric_scooter", "fusion_lat": 0.0, "rental_uris": {"android": "https://dc.lft.to/lastmile_qr_scan", "ios": "https://dc.lft.to/lastmile_qr_scan"}}, {"bike_id": "e7b6ace77f242e45e26885f9bfb9938d", "fusion_lon": 0.0, "name": "e7b6ace77f242e45e26885f9bfb9938d", "lat": 38.911139666666664, "is_disabled": 0, "is_reserved": 0, "lon": -77.0382945, "type": "electric_scooter", "fusion_lat": 0.0, "rental_uris": {"android": "https://dc.lft.to/lastmile_qr_scan", "ios": "https://dc.lft.to/lastmile_qr_scan"}}, {"bike_id": "100bed8e8a7a3a7863d37968947f1f6c", "fusion_lon": 0.0, "name": "100bed8e8a7a3a7863d37968947f1f6c", "lat": 38.9111795, "is_disabled": 0, "is_reserved": 0, "lon": -77.00606183333333, "type": "electric_scooter", "fusion_lat": 0.0, "rental_uris": {"android": "https://dc.lft.to/lastmile_qr_scan", "ios": "https://dc.lft.to/lastmile_qr_scan"}}, {"bike_id": "98d056dc3f4a20925875f4457747987c", "fusion_lon": 0.0, "name": "98d056dc3f4a20925875f4457747987c", "lat": 38.88422333333333, "is_disabled": 0, "is_reserved": 0, "lon": -76.95409566666666, "type": "electric_bike", "fusion_lat": 0.0, "rental_uris": {"android": "https://dc.lft.to/lastmile_qr_scan", "ios": "https://dc.lft.to/lastmile_qr_scan"}}, {"bike_id": "5a0aab053b5aafd17e7cf57d63af6c7c", "fusion_lon": 0.0, "name": "5a0aab053b5aafd17e7cf57d63af6c7c", "lat": 38.87789033333333, "is_disabled": 0, "is_reserved": 0, "lon": -77.00122383333333, "type": "electric_scooter", "fusion_lat": 0.0, "rental_uris": {"android": "https://dc.lft.to/lastmile_qr_scan", "ios": "https://dc.lft.to/lastmile_qr_scan"}}, {"bike_id": "1c86110c9d9e81f47c8284f0ea8dfc20", "fusion_lon": 0.0, "name": "1c86110c9d9e81f47c8284f0ea8dfc20", "lat": 38.93514483333333, "is_disabled": 0, "is_reserved": 0, "lon": -77.0583765, "type": "electric_scooter", "fusion_lat": 0.0, "rental_uris": {"android": "https://dc.lft.to/lastmile_qr_scan", "ios": "https://dc.lft.to/lastmile_qr_scan"}}, {"bike_id": "8482b6bc7bb4c08a185289fe6f86a370", "fusion_lon": 0.0, "name": "8482b6bc7bb4c08a185289fe6f86a370", "lat": 38.88742116666667, "is_disabled": 0, "is_reserved": 0, "lon": -77.02121516666666, "type": "electric_scooter", "fusion_lat": 0.0, "rental_uris": {"android": "https://dc.lft.to/lastmile_qr_scan", "ios": "https://dc.lft.to/lastmile_qr_scan"}}, {"bike_id": "dd3b8b6acad07bbf3b025a01fb424287", "fusion_lon": 0.0, "name": "dd3b8b6acad07bbf3b025a01fb424287", "lat": 38.90677916666667, "is_disabled": 0, "is_reserved": 0, "lon": -77.07181883333334, "type": "electric_scooter", "fusion_lat": 0.0, "rental_uris": {"android": "https://dc.lft.to/lastmile_qr_scan", "ios": "https://dc.lft.to/lastmile_qr_scan"}}, {"bike_id": "9ad3ade52d4e2dc022e1a700c4647d24", "fusion_lon": 0.0, "name": "9ad3ade52d4e2dc022e1a700c4647d24", "lat": 38.918208, "is_disabled": 0, "is_reserved": 0, "lon": -77.04178066666667, "type": "electric_scooter", "fusion_lat": 0.0, "rental_uris": {"android": "https://dc.lft.to/lastmile_qr_scan", "ios": "https://dc.lft.to/lastmile_qr_scan"}}, {"bike_id": "d2a9caec7b56005868545fa2bc396b1d", "fusion_lon": 0.0, "name": "d2a9caec7b56005868545fa2bc396b1d", "lat": 38.922453, "is_disabled": 0, "is_reserved": 0, "lon": -77.0195295, "type": "electric_scooter", "fusion_lat": 0.0, "rental_uris": {"android": "https://dc.lft.to/lastmile_qr_scan", "ios": "https://dc.lft.to/lastmile_qr_scan"}}, {"bike_id": "949215ec7355524285a84fbe63b22114", "fusion_lon": 0.0, "name": "949215ec7355524285a84fbe63b22114", "lat": 38.90138066666667, "is_disabled": 0, "is_reserved": 0, "lon": -77.06076116666667, "type": "electric_scooter", "fusion_lat": 0.0, "rental_uris": {"android": "https://dc.lft.to/lastmile_qr_scan", "ios": "https://dc.lft.to/lastmile_qr_scan"}}, {"bike_id": "a4e90ed3509a62901b1e0529cd57d3d2", "fusion_lon": 0.0, "name": "a4e90ed3509a62901b1e0529cd57d3d2", "lat": 38.90045116666667, "is_disabled": 0, "is_reserved": 0, "lon": -77.000718, "type": "electric_scooter", "fusion_lat": 0.0, "rental_uris": {"android": "https://dc.lft.to/lastmile_qr_scan", "ios": "https://dc.lft.to/lastmile_qr_scan"}}, {"bike_id": "10c5e72801fda52702f4458799b98f6c", "fusion_lon": 0.0, "name": "10c5e72801fda52702f4458799b98f6c", "lat": 38.907771333333336, "is_disabled": 0, "is_reserved": 0, "lon": -77.04343533333333, "type": "electric_scooter", "fusion_lat": 0.0, "rental_uris": {"android": "https://dc.lft.to/lastmile_qr_scan", "ios": "https://dc.lft.to/lastmile_qr_scan"}}, {"bike_id": "0be6a7625da5c47db119b1b65cd91a8a", "fusion_lon": 0.0, "name": "0be6a7625da5c47db119b1b65cd91a8a", "lat": 38.892205, "is_disabled": 0, "is_reserved": 0, "lon": -77.03984, "type": "electric_scooter", "fusion_lat": 0.0, "rental_uris": {"android": "https://dc.lft.to/lastmile_qr_scan", "ios": "https://dc.lft.to/lastmile_qr_scan"}}, {"bike_id": "1d9f8f7c704da1c8d88af0c411f4d103", "fusion_lon": 0.0, "name": "1d9f8f7c704da1c8d88af0c411f4d103", "lat": 38.932446166666665, "is_disabled": 0, "is_reserved": 0, "lon": -77.032722, "type": "electric_scooter", "fusion_lat": 0.0, "rental_uris": {"android": "https://dc.lft.to/lastmile_qr_scan", "ios": "https://dc.lft.to/lastmile_qr_scan"}}, {"bike_id": "8ebaddc44735f2c28807acfc33a69873", "fusion_lon": 0.0, "name": "8ebaddc44735f2c28807acfc33a69873", "lat": 38.87578083333333, "is_disabled": 0, "is_reserved": 0, "lon": -77.23413066666667, "type": "electric_bike", "fusion_lat": 0.0, "rental_uris": {"android": "https://dc.lft.to/lastmile_qr_scan", "ios": "https://dc.lft.to/lastmile_qr_scan"}}, {"bike_id": "2ff68122a14361ce37064a8e146ac64a", "fusion_lon": 0.0, "name": "2ff68122a14361ce37064a8e146ac64a", "lat": 38.91603666666666, "is_disabled": 0, "is_reserved": 0, "lon": -77.03128716666667, "type": "electric_scooter", "fusion_lat": 0.0, "rental_uris": {"android": "https://dc.lft.to/lastmile_qr_scan", "ios": "https://dc.lft.to/lastmile_qr_scan"}}, {"bike_id": "86c687a74cde8830f79007eda14e3fbe", "fusion_lon": 0.0, "name": "86c687a74cde8830f79007eda14e3fbe", "lat": 38.92997366666667, "is_disabled": 0, "is_reserved": 0, "lon": -77.03801816666666, "type": "electric_scooter", "fusion_lat": 0.0, "rental_uris": {"android": "https://dc.lft.to/lastmile_qr_scan", "ios": "https://dc.lft.to/lastmile_qr_scan"}}, {"bike_id": "f65b81d7f27b5fd0734137d3c4476c2a", "fusion_lon": 0.0, "name": "f65b81d7f27b5fd0734137d3c4476c2a", "lat": 38.885225, "is_disabled": 0, "is_reserved": 0, "lon": -76.92926166666666, "type": "electric_scooter", "fusion_lat": 0.0, "rental_uris": {"android": "https://dc.lft.to/lastmile_qr_scan", "ios": "https://dc.lft.to/lastmile_qr_scan"}}, {"bike_id": "0a1c02d3d07a6f9ec5791b8561366916", "fusion_lon": 0.0, "name": "0a1c02d3d07a6f9ec5791b8561366916", "lat": 38.90729783333333, "is_disabled": 0, "is_reserved": 0, "lon": -77.02372283333334, "type": "electric_scooter", "fusion_lat": 0.0, "rental_uris": {"android": "https://dc.lft.to/lastmile_qr_scan", "ios": "https://dc.lft.to/lastmile_qr_scan"}}, {"bike_id": "4526f0b29748be8dfe4b6da6e0107e48", "fusion_lon": 0.0, "name": "4526f0b29748be8dfe4b6da6e0107e48", "lat": 38.905416333333335, "is_disabled": 0, "is_reserved": 0, "lon": -77.0322645, "type": "electric_scooter", "fusion_lat": 0.0, "rental_uris": {"android": "https://dc.lft.to/lastmile_qr_scan", "ios": "https://dc.lft.to/lastmile_qr_scan"}}, {"bike_id": "d29814686863b0a200a4c12cc2686e43", "fusion_lon": 0.0, "name": "d29814686863b0a200a4c12cc2686e43", "lat": 38.89272833333333, "is_disabled": 0, "is_reserved": 0, "lon": -77.05036383333334, "type": "electric_scooter", "fusion_lat": 0.0, "rental_uris": {"android": "https://dc.lft.to/lastmile_qr_scan", "ios": "https://dc.lft.to/lastmile_qr_scan"}}, {"bike_id": "eedace59963c8393099c38b626d24b33", "fusion_lon": 0.0, "name": "eedace59963c8393099c38b626d24b33", "lat": 38.892332333333336, "is_disabled": 0, "is_reserved": 0, "lon": -77.026054, "type": "electric_scooter", "fusion_lat": 0.0, "rental_uris": {"android": "https://dc.lft.to/lastmile_qr_scan", "ios": "https://dc.lft.to/lastmile_qr_scan"}}, {"bike_id": "2dad8e54a46634c79d5eed466e0a2577", "fusion_lon": 0.0, "name": "2dad8e54a46634c79d5eed466e0a2577", "lat": 38.89734033333333, "is_disabled": 0, "is_reserved": 0, "lon": -77.024692, "type": "electric_scooter", "fusion_lat": 0.0, "rental_uris": {"android": "https://dc.lft.to/lastmile_qr_scan", "ios": "https://dc.lft.to/lastmile_qr_scan"}}, {"bike_id": "feb2e4cb09fc5c9b3ccf0fcdb9b7ffef", "fusion_lon": 0.0, "name": "feb2e4cb09fc5c9b3ccf0fcdb9b7ffef", "lat": 38.900467166666665, "is_disabled": 0, "is_reserved": 0, "lon": -77.0077655, "type": "electric_bike", "fusion_lat": 0.0, "rental_uris": {"android": "https://dc.lft.to/lastmile_qr_scan", "ios": "https://dc.lft.to/lastmile_qr_scan"}}, {"bike_id": "bbfcaaff8f0b09a5608731c9912aeb08", "fusion_lon": 0.0, "name": "bbfcaaff8f0b09a5608731c9912aeb08", "lat": 38.91734866666667, "is_disabled": 0, "is_reserved": 0, "lon": -77.028168, "type": "electric_scooter", "fusion_lat": 0.0, "rental_uris": {"android": "https://dc.lft.to/lastmile_qr_scan", "ios": "https://dc.lft.to/lastmile_qr_scan"}}, {"bike_id": "e28694ff3aa2246476f77b991a98f370", "fusion_lon": 0.0, "name": "e28694ff3aa2246476f77b991a98f370", "lat": 38.89231566666667, "is_disabled": 0, "is_reserved": 0, "lon": -77.0261275, "type": "electric_scooter", "fusion_lat": 0.0, "rental_uris": {"android": "https://dc.lft.to/lastmile_qr_scan", "ios": "https://dc.lft.to/lastmile_qr_scan"}}, {"bike_id": "51796719b377ed95ec9f1a1c3bad7978", "fusion_lon": 0.0, "name": "51796719b377ed95ec9f1a1c3bad7978", "lat": 38.90392466666667, "is_disabled": 0, "is_reserved": 0, "lon": -77.0438435, "type": "electric_scooter", "fusion_lat": 0.0, "rental_uris": {"android": "https://dc.lft.to/lastmile_qr_scan", "ios": "https://dc.lft.to/lastmile_qr_scan"}}, {"bike_id": "1abd01908e89f0e768f7d3dba01b11cc", "fusion_lon": 0.0, "name": "1abd01908e89f0e768f7d3dba01b11cc", "lat": 38.9032655, "is_disabled": 0, "is_reserved": 0, "lon": -77.02903566666667, "type": "electric_scooter", "fusion_lat": 0.0, "rental_uris": {"android": "https://dc.lft.to/lastmile_qr_scan", "ios": "https://dc.lft.to/lastmile_qr_scan"}}, {"bike_id": "efc570b1f09c2bf2cae6a9b0ab1688eb", "fusion_lon": 0.0, "name": "efc570b1f09c2bf2cae6a9b0ab1688eb", "lat": 38.916971833333335, "is_disabled": 0, "is_reserved": 0, "lon": -77.035903, "type": "electric_scooter", "fusion_lat": 0.0, "rental_uris": {"android": "https://dc.lft.to/lastmile_qr_scan", "ios": "https://dc.lft.to/lastmile_qr_scan"}}, {"bike_id": "ba827048db8e781af2fb0868a8bde048", "fusion_lon": 0.0, "name": "ba827048db8e781af2fb0868a8bde048", "lat": 38.905216833333334, "is_disabled": 0, "is_reserved": 0, "lon": -77.0631185, "type": "electric_scooter", "fusion_lat": 0.0, "rental_uris": {"android": "https://dc.lft.to/lastmile_qr_scan", "ios": "https://dc.lft.to/lastmile_qr_scan"}}, {"bike_id": "84bddf57891b1ee474cacf57058a9b82", "fusion_lon": 0.0, "name": "84bddf57891b1ee474cacf57058a9b82", "lat": 38.90245183333333, "is_disabled": 0, "is_reserved": 0, "lon": -77.03527133333333, "type": "electric_scooter", "fusion_lat": 0.0, "rental_uris": {"android": "https://dc.lft.to/lastmile_qr_scan", "ios": "https://dc.lft.to/lastmile_qr_scan"}}, {"bike_id": "2d0ca9219ceff6018306f595da797ba1", "fusion_lon": 0.0, "name": "2d0ca9219ceff6018306f595da797ba1", "lat": 38.9040995, "is_disabled": 0, "is_reserved": 0, "lon": -76.973316, "type": "electric_scooter", "fusion_lat": 0.0, "rental_uris": {"android": "https://dc.lft.to/lastmile_qr_scan", "ios": "https://dc.lft.to/lastmile_qr_scan"}}, {"bike_id": "aabe4da1575cc2e5f265c6f32b2770e9", "fusion_lon": 0.0, "name": "aabe4da1575cc2e5f265c6f32b2770e9", "lat": 38.87242916666667, "is_disabled": 0, "is_reserved": 0, "lon": -76.97727133333333, "type": "electric_scooter", "fusion_lat": 0.0, "rental_uris": {"android": "https://dc.lft.to/lastmile_qr_scan", "ios": "https://dc.lft.to/lastmile_qr_scan"}}, {"bike_id": "0b0bdd6ccf0d3d020b7f7a75cd10d884", "fusion_lon": 0.0, "name": "0b0bdd6ccf0d3d020b7f7a75cd10d884", "lat": 38.9876515, "is_disabled": 0, "is_reserved": 0, "lon": -77.1405015, "type": "electric_bike", "fusion_lat": 0.0, "rental_uris": {"android": "https://dc.lft.to/lastmile_qr_scan", "ios": "https://dc.lft.to/lastmile_qr_scan"}}, {"bike_id": "689ec30355d36b50a0f0ae7943861ab6", "fusion_lon": 0.0, "name": "689ec30355d36b50a0f0ae7943861ab6", "lat": 38.91568133333333, "is_disabled": 0, "is_reserved": 0, "lon": -77.03855266666666, "type": "electric_scooter", "fusion_lat": 0.0, "rental_uris": {"android": "https://dc.lft.to/lastmile_qr_scan", "ios": "https://dc.lft.to/lastmile_qr_scan"}}, {"bike_id": "6f428ee0db55c588b5994736269ef580", "fusion_lon": 0.0, "name": "6f428ee0db55c588b5994736269ef580", "lat": 38.89727516666667, "is_disabled": 0, "is_reserved": 0, "lon": -77.00375533333333, "type": "electric_scooter", "fusion_lat": 0.0, "rental_uris": {"android": "https://dc.lft.to/lastmile_qr_scan", "ios": "https://dc.lft.to/lastmile_qr_scan"}}, {"bike_id": "b7ad9c8f364f8fb97c77354226a451a2", "fusion_lon": 0.0, "name": "b7ad9c8f364f8fb97c77354226a451a2", "lat": 38.931157666666664, "is_disabled": 0, "is_reserved": 0, "lon": -77.03881833333334, "type": "electric_scooter", "fusion_lat": 0.0, "rental_uris": {"android": "https://dc.lft.to/lastmile_qr_scan", "ios": "https://dc.lft.to/lastmile_qr_scan"}}, {"bike_id": "b4e53c293251038cb5e25902118c4364", "fusion_lon": 0.0, "name": "b4e53c293251038cb5e25902118c4364", "lat": 38.92450183333333, "is_disabled": 0, "is_reserved": 0, "lon": -77.03321833333334, "type": "electric_scooter", "fusion_lat": 0.0, "rental_uris": {"android": "https://dc.lft.to/lastmile_qr_scan", "ios": "https://dc.lft.to/lastmile_qr_scan"}}, {"bike_id": "6b7799a1506daa0278ea019fe00096c0", "fusion_lon": 0.0, "name": "6b7799a1506daa0278ea019fe00096c0", "lat": 38.8911825, "is_disabled": 0, "is_reserved": 0, "lon": -76.93846166666667, "type": "electric_scooter", "fusion_lat": 0.0, "rental_uris": {"android": "https://dc.lft.to/lastmile_qr_scan", "ios": "https://dc.lft.to/lastmile_qr_scan"}}, {"bike_id": "b83f063c9e69daefa7a12f1e24bebe60", "fusion_lon": 0.0, "name": "b83f063c9e69daefa7a12f1e24bebe60", "lat": 38.94983466666667, "is_disabled": 0, "is_reserved": 0, "lon": -77.02710266666666, "type": "electric_scooter", "fusion_lat": 0.0, "rental_uris": {"android": "https://dc.lft.to/lastmile_qr_scan", "ios": "https://dc.lft.to/lastmile_qr_scan"}}, {"bike_id": "255034ad93519cca006344580872c102", "fusion_lon": 0.0, "name": "255034ad93519cca006344580872c102", "lat": 38.9178185, "is_disabled": 0, "is_reserved": 0, "lon": -77.02316133333333, "type": "electric_scooter", "fusion_lat": 0.0, "rental_uris": {"android": "https://dc.lft.to/lastmile_qr_scan", "ios": "https://dc.lft.to/lastmile_qr_scan"}}, {"bike_id": "e8231afe6be002b73623eed9bd5892fc", "fusion_lon": 0.0, "name": "e8231afe6be002b73623eed9bd5892fc", "lat": 38.91686966666666, "is_disabled": 0, "is_reserved": 0, "lon": -77.02955183333333, "type": "electric_scooter", "fusion_lat": 0.0, "rental_uris": {"android": "https://dc.lft.to/lastmile_qr_scan", "ios": "https://dc.lft.to/lastmile_qr_scan"}}, {"bike_id": "adc21cf90d61c052dcf28d77651640b8", "fusion_lon": 0.0, "name": "adc21cf90d61c052dcf28d77651640b8", "lat": 38.9264265, "is_disabled": 0, "is_reserved": 0, "lon": -77.03323316666666, "type": "electric_scooter", "fusion_lat": 0.0, "rental_uris": {"android": "https://dc.lft.to/lastmile_qr_scan", "ios": "https://dc.lft.to/lastmile_qr_scan"}}, {"bike_id": "76647dd7121636e418ffafbba1b6d007", "fusion_lon": 0.0, "name": "76647dd7121636e418ffafbba1b6d007", "lat": 38.9568505, "is_disabled": 0, "is_reserved": 0, "lon": -77.01933916666667, "type": "electric_scooter", "fusion_lat": 0.0, "rental_uris": {"android": "https://dc.lft.to/lastmile_qr_scan", "ios": "https://dc.lft.to/lastmile_qr_scan"}}, {"bike_id": "5194b236b725190c659699419132fbde", "fusion_lon": 0.0, "name": "5194b236b725190c659699419132fbde", "lat": 38.95640783333333, "is_disabled": 0, "is_reserved": 0, "lon": -76.9979525, "type": "electric_scooter", "fusion_lat": 0.0, "rental_uris": {"android": "https://dc.lft.to/lastmile_qr_scan", "ios": "https://dc.lft.to/lastmile_qr_scan"}}, {"bike_id": "ec2339d5d080d64041480075acb8e7b4", "fusion_lon": 0.0, "name": "ec2339d5d080d64041480075acb8e7b4", "lat": 38.897495166666666, "is_disabled": 0, "is_reserved": 0, "lon": -77.0261635, "type": "electric_scooter", "fusion_lat": 0.0, "rental_uris": {"android": "https://dc.lft.to/lastmile_qr_scan", "ios": "https://dc.lft.to/lastmile_qr_scan"}}, {"bike_id": "4c348b6fc9558d0e53a5d4ce66ee08ab", "fusion_lon": 0.0, "name": "4c348b6fc9558d0e53a5d4ce66ee08ab", "lat": 38.88708333333334, "is_disabled": 0, "is_reserved": 0, "lon": -77.0220785, "type": "electric_scooter", "fusion_lat": 0.0, "rental_uris": {"android": "https://dc.lft.to/lastmile_qr_scan", "ios": "https://dc.lft.to/lastmile_qr_scan"}}, {"bike_id": "a89d126bf41412c0584e05d1dc319db2", "fusion_lon": 0.0, "name": "a89d126bf41412c0584e05d1dc319db2", "lat": 38.85651416666666, "is_disabled": 0, "is_reserved": 0, "lon": -76.99673583333333, "type": "electric_scooter", "fusion_lat": 0.0, "rental_uris": {"android": "https://dc.lft.to/lastmile_qr_scan", "ios": "https://dc.lft.to/lastmile_qr_scan"}}, {"bike_id": "0c2934ea1e310d14072fc128ada16f44", "fusion_lon": 0.0, "name": "0c2934ea1e310d14072fc128ada16f44", "lat": 38.8980335, "is_disabled": 0, "is_reserved": 0, "lon": -77.01203133333334, "type": "electric_scooter", "fusion_lat": 0.0, "rental_uris": {"android": "https://dc.lft.to/lastmile_qr_scan", "ios": "https://dc.lft.to/lastmile_qr_scan"}}, {"bike_id": "9b81470113c07eb16ab5d53a3675c9e8", "fusion_lon": 0.0, "name": "9b81470113c07eb16ab5d53a3675c9e8", "lat": 38.897329, "is_disabled": 0, "is_reserved": 0, "lon": -76.92044633333333, "type": "electric_bike", "fusion_lat": 0.0, "rental_uris": {"android": "https://dc.lft.to/lastmile_qr_scan", "ios": "https://dc.lft.to/lastmile_qr_scan"}}, {"bike_id": "d462714d25b8f8c2f5d3538e5acafcb7", "fusion_lon": 0.0, "name": "d462714d25b8f8c2f5d3538e5acafcb7", "lat": 38.909457333333336, "is_disabled": 0, "is_reserved": 0, "lon": -77.03009316666666, "type": "electric_scooter", "fusion_lat": 0.0, "rental_uris": {"android": "https://dc.lft.to/lastmile_qr_scan", "ios": "https://dc.lft.to/lastmile_qr_scan"}}, {"bike_id": "777a1d82372233103ea411864363e1f4", "fusion_lon": 0.0, "name": "777a1d82372233103ea411864363e1f4", "lat": 38.9287605, "is_disabled": 0, "is_reserved": 0, "lon": -77.01362933333333, "type": "electric_scooter", "fusion_lat": 0.0, "rental_uris": {"android": "https://dc.lft.to/lastmile_qr_scan", "ios": "https://dc.lft.to/lastmile_qr_scan"}}, {"bike_id": "45f667e701fbdf6edf4cf9565fa438bf", "fusion_lon": 0.0, "name": "45f667e701fbdf6edf4cf9565fa438bf", "lat": 38.93669283333333, "is_disabled": 0, "is_reserved": 0, "lon": -77.03599, "type": "electric_scooter", "fusion_lat": 0.0, "rental_uris": {"android": "https://dc.lft.to/lastmile_qr_scan", "ios": "https://dc.lft.to/lastmile_qr_scan"}}, {"bike_id": "2f8aa4dc004e415b2ac99674f69958c4", "fusion_lon": 0.0, "name": "2f8aa4dc004e415b2ac99674f69958c4", "lat": 38.918113, "is_disabled": 0, "is_reserved": 0, "lon": -77.02713033333333, "type": "electric_scooter", "fusion_lat": 0.0, "rental_uris": {"android": "https://dc.lft.to/lastmile_qr_scan", "ios": "https://dc.lft.to/lastmile_qr_scan"}}, {"bike_id": "130d16437d814e4bc77f82ac9fcc8d5d", "fusion_lon": 0.0, "name": "130d16437d814e4bc77f82ac9fcc8d5d", "lat": 38.904881833333334, "is_disabled": 0, "is_reserved": 0, "lon": -76.97425766666667, "type": "electric_bike", "fusion_lat": 0.0, "rental_uris": {"android": "https://dc.lft.to/lastmile_qr_scan", "ios": "https://dc.lft.to/lastmile_qr_scan"}}, {"bike_id": "803941a91de688e0527e368ed3452101", "fusion_lon": 0.0, "name": "803941a91de688e0527e368ed3452101", "lat": 38.883544, "is_disabled": 0, "is_reserved": 0, "lon": -76.98220266666667, "type": "electric_scooter", "fusion_lat": 0.0, "rental_uris": {"android": "https://dc.lft.to/lastmile_qr_scan", "ios": "https://dc.lft.to/lastmile_qr_scan"}}, {"bike_id": "65f3b7439b69595bbb24a68db2a4388d", "fusion_lon": 0.0, "name": "65f3b7439b69595bbb24a68db2a4388d", "lat": 38.862603166666666, "is_disabled": 0, "is_reserved": 0, "lon": -76.98353166666666, "type": "electric_bike", "fusion_lat": 0.0, "rental_uris": {"android": "https://dc.lft.to/lastmile_qr_scan", "ios": "https://dc.lft.to/lastmile_qr_scan"}}, {"bike_id": "6435637f75f2795f6b913746d597edb1", "fusion_lon": 0.0, "name": "6435637f75f2795f6b913746d597edb1", "lat": 38.9000875, "is_disabled": 0, "is_reserved": 0, "lon": -77.01185583333333, "type": "electric_scooter", "fusion_lat": 0.0, "rental_uris": {"android": "https://dc.lft.to/lastmile_qr_scan", "ios": "https://dc.lft.to/lastmile_qr_scan"}}, {"bike_id": "e743343e30fc6cbc99e79c26ce0a714e", "fusion_lon": 0.0, "name": "e743343e30fc6cbc99e79c26ce0a714e", "lat": 38.996083666666664, "is_disabled": 0, "is_reserved": 0, "lon": -77.078102, "type": "electric_bike", "fusion_lat": 0.0, "rental_uris": {"android": "https://dc.lft.to/lastmile_qr_scan", "ios": "https://dc.lft.to/lastmile_qr_scan"}}, {"bike_id": "7c8c7a1702a847e23bcc4b02aa42c2ea", "fusion_lon": 0.0, "name": "7c8c7a1702a847e23bcc4b02aa42c2ea", "lat": 38.94659083333333, "is_disabled": 0, "is_reserved": 0, "lon": -77.00701883333333, "type": "electric_bike", "fusion_lat": 0.0, "rental_uris": {"android": "https://dc.lft.to/lastmile_qr_scan", "ios": "https://dc.lft.to/lastmile_qr_scan"}}, {"bike_id": "61f9acb1d275190aba54e1913540d752", "fusion_lon": 0.0, "name": "61f9acb1d275190aba54e1913540d752", "lat": 38.922441166666665, "is_disabled": 0, "is_reserved": 0, "lon": -77.030006, "type": "electric_scooter", "fusion_lat": 0.0, "rental_uris": {"android": "https://dc.lft.to/lastmile_qr_scan", "ios": "https://dc.lft.to/lastmile_qr_scan"}}, {"bike_id": "050f14745e9aebe696b777eb734ba906", "fusion_lon": 0.0, "name": "050f14745e9aebe696b777eb734ba906", "lat": 38.8427875, "is_disabled": 0, "is_reserved": 0, "lon": -76.988448, "type": "electric_bike", "fusion_lat": 0.0, "rental_uris": {"android": "https://dc.lft.to/lastmile_qr_scan", "ios": "https://dc.lft.to/lastmile_qr_scan"}}, {"bike_id": "bc451f51d4a5fccd2bbfb04c732bebaa", "fusion_lon": 0.0, "name": "bc451f51d4a5fccd2bbfb04c732bebaa", "lat": 38.9168855, "is_disabled": 0, "is_reserved": 0, "lon": -77.037698, "type": "electric_scooter", "fusion_lat": 0.0, "rental_uris": {"android": "https://dc.lft.to/lastmile_qr_scan", "ios": "https://dc.lft.to/lastmile_qr_scan"}}, {"bike_id": "246f5bbb1ffb51fefaf5cd54df555f10", "fusion_lon": 0.0, "name": "246f5bbb1ffb51fefaf5cd54df555f10", "lat": 38.91778883333333, "is_disabled": 0, "is_reserved": 0, "lon": -77.0228535, "type": "electric_scooter", "fusion_lat": 0.0, "rental_uris": {"android": "https://dc.lft.to/lastmile_qr_scan", "ios": "https://dc.lft.to/lastmile_qr_scan"}}, {"bike_id": "44352c8ea1c5271811832e358890f132", "fusion_lon": 0.0, "name": "44352c8ea1c5271811832e358890f132", "lat": 38.899176, "is_disabled": 0, "is_reserved": 0, "lon": -77.02718766666666, "type": "electric_scooter", "fusion_lat": 0.0, "rental_uris": {"android": "https://dc.lft.to/lastmile_qr_scan", "ios": "https://dc.lft.to/lastmile_qr_scan"}}, {"bike_id": "8ff79e69b9558d11ff40147682f01c4b", "fusion_lon": 0.0, "name": "8ff79e69b9558d11ff40147682f01c4b", "lat": 38.865074166666666, "is_disabled": 0, "is_reserved": 0, "lon": -76.99004433333333, "type": "electric_scooter", "fusion_lat": 0.0, "rental_uris": {"android": "https://dc.lft.to/lastmile_qr_scan", "ios": "https://dc.lft.to/lastmile_qr_scan"}}, {"bike_id": "fceda7b8cb4e20a05add938e5004b6db", "fusion_lon": 0.0, "name": "fceda7b8cb4e20a05add938e5004b6db", "lat": 38.89318, "is_disabled": 0, "is_reserved": 0, "lon": -77.02222966666666, "type": "electric_scooter", "fusion_lat": 0.0, "rental_uris": {"android": "https://dc.lft.to/lastmile_qr_scan", "ios": "https://dc.lft.to/lastmile_qr_scan"}}, {"bike_id": "0615c946b9ac4bdb9f234f7105f431ce", "fusion_lon": 0.0, "name": "0615c946b9ac4bdb9f234f7105f431ce", "lat": 38.956332333333336, "is_disabled": 0, "is_reserved": 0, "lon": -77.03309733333333, "type": "electric_scooter", "fusion_lat": 0.0, "rental_uris": {"android": "https://dc.lft.to/lastmile_qr_scan", "ios": "https://dc.lft.to/lastmile_qr_scan"}}, {"bike_id": "4aa4259898d88b45f713078ae039b04e", "fusion_lon": 0.0, "name": "4aa4259898d88b45f713078ae039b04e", "lat": 38.9115555, "is_disabled": 0, "is_reserved": 0, "lon": -77.02380766666667, "type": "electric_scooter", "fusion_lat": 0.0, "rental_uris": {"android": "https://dc.lft.to/lastmile_qr_scan", "ios": "https://dc.lft.to/lastmile_qr_scan"}}, {"bike_id": "2c04066f6a1cb18c52f6b6d94f9ddfc0", "fusion_lon": 0.0, "name": "2c04066f6a1cb18c52f6b6d94f9ddfc0", "lat": 38.918534666666666, "is_disabled": 0, "is_reserved": 0, "lon": -77.03188333333334, "type": "electric_scooter", "fusion_lat": 0.0, "rental_uris": {"android": "https://dc.lft.to/lastmile_qr_scan", "ios": "https://dc.lft.to/lastmile_qr_scan"}}, {"bike_id": "d4c39c9aecebf700d9105beaad44b8e9", "fusion_lon": 0.0, "name": "d4c39c9aecebf700d9105beaad44b8e9", "lat": 38.89224083333333, "is_disabled": 0, "is_reserved": 0, "lon": -77.033405, "type": "electric_scooter", "fusion_lat": 0.0, "rental_uris": {"android": "https://dc.lft.to/lastmile_qr_scan", "ios": "https://dc.lft.to/lastmile_qr_scan"}}, {"bike_id": "66ba47709fb7220c3257a151f01c705b", "fusion_lon": 0.0, "name": "66ba47709fb7220c3257a151f01c705b", "lat": 38.90967966666667, "is_disabled": 0, "is_reserved": 0, "lon": -77.0404925, "type": "electric_scooter", "fusion_lat": 0.0, "rental_uris": {"android": "https://dc.lft.to/lastmile_qr_scan", "ios": "https://dc.lft.to/lastmile_qr_scan"}}, {"bike_id": "d7fa0fc0595943196976d07ef2bd40a3", "fusion_lon": 0.0, "name": "d7fa0fc0595943196976d07ef2bd40a3", "lat": 38.90859233333333, "is_disabled": 0, "is_reserved": 0, "lon": -76.99953966666666, "type": "electric_scooter", "fusion_lat": 0.0, "rental_uris": {"android": "https://dc.lft.to/lastmile_qr_scan", "ios": "https://dc.lft.to/lastmile_qr_scan"}}, {"bike_id": "ab7143a73cc2d3d90282147838ed02af", "fusion_lon": 0.0, "name": "ab7143a73cc2d3d90282147838ed02af", "lat": 38.91741866666667, "is_disabled": 0, "is_reserved": 0, "lon": -77.02120333333333, "type": "electric_scooter", "fusion_lat": 0.0, "rental_uris": {"android": "https://dc.lft.to/lastmile_qr_scan", "ios": "https://dc.lft.to/lastmile_qr_scan"}}, {"bike_id": "89235787e5ab503294a07025a01a0c66", "fusion_lon": 0.0, "name": "89235787e5ab503294a07025a01a0c66", "lat": 38.898415, "is_disabled": 0, "is_reserved": 0, "lon": -77.02527533333334, "type": "electric_scooter", "fusion_lat": 0.0, "rental_uris": {"android": "https://dc.lft.to/lastmile_qr_scan", "ios": "https://dc.lft.to/lastmile_qr_scan"}}, {"bike_id": "0fd3b98572a31c4a4465f377b9aa0c69", "fusion_lon": 0.0, "name": "0fd3b98572a31c4a4465f377b9aa0c69", "lat": 38.92317383333334, "is_disabled": 0, "is_reserved": 0, "lon": -77.02963716666666, "type": "electric_scooter", "fusion_lat": 0.0, "rental_uris": {"android": "https://dc.lft.to/lastmile_qr_scan", "ios": "https://dc.lft.to/lastmile_qr_scan"}}, {"bike_id": "edb57286d0cf12ff09021dc24107bd7c", "fusion_lon": 0.0, "name": "edb57286d0cf12ff09021dc24107bd7c", "lat": 38.90673816666666, "is_disabled": 0, "is_reserved": 0, "lon": -77.075296, "type": "electric_scooter", "fusion_lat": 0.0, "rental_uris": {"android": "https://dc.lft.to/lastmile_qr_scan", "ios": "https://dc.lft.to/lastmile_qr_scan"}}, {"bike_id": "7c2813561779c369bc98c433a4fb2717", "fusion_lon": 0.0, "name": "7c2813561779c369bc98c433a4fb2717", "lat": 38.905128166666664, "is_disabled": 0, "is_reserved": 0, "lon": -77.06138966666667, "type": "electric_scooter", "fusion_lat": 0.0, "rental_uris": {"android": "https://dc.lft.to/lastmile_qr_scan", "ios": "https://dc.lft.to/lastmile_qr_scan"}}, {"bike_id": "81932f39975e1233b37b2d8edf60543a", "fusion_lon": 0.0, "name": "81932f39975e1233b37b2d8edf60543a", "lat": 38.89224083333333, "is_disabled": 0, "is_reserved": 0, "lon": -77.02229783333334, "type": "electric_scooter", "fusion_lat": 0.0, "rental_uris": {"android": "https://dc.lft.to/lastmile_qr_scan", "ios": "https://dc.lft.to/lastmile_qr_scan"}}, {"bike_id": "9d0e2309b6bbee14f46363e7639c376a", "fusion_lon": 0.0, "name": "9d0e2309b6bbee14f46363e7639c376a", "lat": 38.90543616666667, "is_disabled": 0, "is_reserved": 0, "lon": -77.04863816666666, "type": "electric_scooter", "fusion_lat": 0.0, "rental_uris": {"android": "https://dc.lft.to/lastmile_qr_scan", "ios": "https://dc.lft.to/lastmile_qr_scan"}}, {"bike_id": "f479cb83a792b7ccad4e2b3ab5974a60", "fusion_lon": 0.0, "name": "f479cb83a792b7ccad4e2b3ab5974a60", "lat": 38.898257666666666, "is_disabled": 0, "is_reserved": 0, "lon": -77.0315905, "type": "electric_scooter", "fusion_lat": 0.0, "rental_uris": {"android": "https://dc.lft.to/lastmile_qr_scan", "ios": "https://dc.lft.to/lastmile_qr_scan"}}, {"bike_id": "8cea034a3ef9771f5ca12c1d63dc45a9", "fusion_lon": 0.0, "name": "8cea034a3ef9771f5ca12c1d63dc45a9", "lat": 38.8830275, "is_disabled": 0, "is_reserved": 0, "lon": -77.01404883333333, "type": "electric_scooter", "fusion_lat": 0.0, "rental_uris": {"android": "https://dc.lft.to/lastmile_qr_scan", "ios": "https://dc.lft.to/lastmile_qr_scan"}}, {"bike_id": "b942b6e963084524a7430e1e798c04fd", "fusion_lon": 0.0, "name": "b942b6e963084524a7430e1e798c04fd", "lat": 38.8922015, "is_disabled": 0, "is_reserved": 0, "lon": -77.04310083333333, "type": "electric_scooter", "fusion_lat": 0.0, "rental_uris": {"android": "https://dc.lft.to/lastmile_qr_scan", "ios": "https://dc.lft.to/lastmile_qr_scan"}}, {"bike_id": "54dbcbaa5e3d090ad6dbb9f7e3d73b61", "fusion_lon": 0.0, "name": "54dbcbaa5e3d090ad6dbb9f7e3d73b61", "lat": 38.93501833333333, "is_disabled": 0, "is_reserved": 0, "lon": -77.08210733333334, "type": "electric_scooter", "fusion_lat": 0.0, "rental_uris": {"android": "https://dc.lft.to/lastmile_qr_scan", "ios": "https://dc.lft.to/lastmile_qr_scan"}}, {"bike_id": "413232750f5ac69819417885084d94f6", "fusion_lon": 0.0, "name": "413232750f5ac69819417885084d94f6", "lat": 38.91269483333333, "is_disabled": 0, "is_reserved": 0, "lon": -77.02213916666666, "type": "electric_scooter", "fusion_lat": 0.0, "rental_uris": {"android": "https://dc.lft.to/lastmile_qr_scan", "ios": "https://dc.lft.to/lastmile_qr_scan"}}, {"bike_id": "fa67789100516df77eea26b56c48a7e4", "fusion_lon": 0.0, "name": "fa67789100516df77eea26b56c48a7e4", "lat": 38.9725595, "is_disabled": 0, "is_reserved": 0, "lon": -76.99276883333333, "type": "electric_bike", "fusion_lat": 0.0, "rental_uris": {"android": "https://dc.lft.to/lastmile_qr_scan", "ios": "https://dc.lft.to/lastmile_qr_scan"}}, {"bike_id": "5c77e709a94ad3ab0b1a6cde4ac71d5b", "fusion_lon": 0.0, "name": "5c77e709a94ad3ab0b1a6cde4ac71d5b", "lat": 38.91302866666667, "is_disabled": 0, "is_reserved": 0, "lon": -77.031974, "type": "electric_scooter", "fusion_lat": 0.0, "rental_uris": {"android": "https://dc.lft.to/lastmile_qr_scan", "ios": "https://dc.lft.to/lastmile_qr_scan"}}, {"bike_id": "de52aa739f9dbd6fad17ceadd1732216", "fusion_lon": 0.0, "name": "de52aa739f9dbd6fad17ceadd1732216", "lat": 38.929125666666664, "is_disabled": 0, "is_reserved": 0, "lon": -77.03249783333334, "type": "electric_scooter", "fusion_lat": 0.0, "rental_uris": {"android": "https://dc.lft.to/lastmile_qr_scan", "ios": "https://dc.lft.to/lastmile_qr_scan"}}, {"bike_id": "786d52600c34f78867f098141b16754a", "fusion_lon": 0.0, "name": "786d52600c34f78867f098141b16754a", "lat": 38.949633166666665, "is_disabled": 0, "is_reserved": 0, "lon": -77.075276, "type": "electric_scooter", "fusion_lat": 0.0, "rental_uris": {"android": "https://dc.lft.to/lastmile_qr_scan", "ios": "https://dc.lft.to/lastmile_qr_scan"}}, {"bike_id": "8ce7b9a3c2e3497c530dfbc5099c074b", "fusion_lon": 0.0, "name": "8ce7b9a3c2e3497c530dfbc5099c074b", "lat": 38.903910833333335, "is_disabled": 0, "is_reserved": 0, "lon": -77.04330116666667, "type": "electric_scooter", "fusion_lat": 0.0, "rental_uris": {"android": "https://dc.lft.to/lastmile_qr_scan", "ios": "https://dc.lft.to/lastmile_qr_scan"}}, {"bike_id": "5745144d9ff5bd444773bdd69c36f420", "fusion_lon": 0.0, "name": "5745144d9ff5bd444773bdd69c36f420", "lat": 38.88387266666667, "is_disabled": 0, "is_reserved": 0, "lon": -76.9305075, "type": "electric_scooter", "fusion_lat": 0.0, "rental_uris": {"android": "https://dc.lft.to/lastmile_qr_scan", "ios": "https://dc.lft.to/lastmile_qr_scan"}}, {"bike_id": "4315e23a674b12744dec6900c31cbcf1", "fusion_lon": 0.0, "name": "4315e23a674b12744dec6900c31cbcf1", "lat": 38.909944, "is_disabled": 0, "is_reserved": 0, "lon": -77.02695333333334, "type": "electric_scooter", "fusion_lat": 0.0, "rental_uris": {"android": "https://dc.lft.to/lastmile_qr_scan", "ios": "https://dc.lft.to/lastmile_qr_scan"}}, {"bike_id": "b7a9dc8729b7b2032514488041f48c0a", "fusion_lon": 0.0, "name": "b7a9dc8729b7b2032514488041f48c0a", "lat": 38.9224275, "is_disabled": 0, "is_reserved": 0, "lon": -77.0808385, "type": "electric_scooter", "fusion_lat": 0.0, "rental_uris": {"android": "https://dc.lft.to/lastmile_qr_scan", "ios": "https://dc.lft.to/lastmile_qr_scan"}}, {"bike_id": "e3ca8473146c855650fa2e77ee0148f6", "fusion_lon": 0.0, "name": "e3ca8473146c855650fa2e77ee0148f6", "lat": 38.9194765, "is_disabled": 0, "is_reserved": 0, "lon": -77.02877116666667, "type": "electric_scooter", "fusion_lat": 0.0, "rental_uris": {"android": "https://dc.lft.to/lastmile_qr_scan", "ios": "https://dc.lft.to/lastmile_qr_scan"}}, {"bike_id": "576c0ea7b47904d53eafd5ac8887aa0d", "fusion_lon": 0.0, "name": "576c0ea7b47904d53eafd5ac8887aa0d", "lat": 38.90185833333334, "is_disabled": 0, "is_reserved": 0, "lon": -77.0472765, "type": "electric_scooter", "fusion_lat": 0.0, "rental_uris": {"android": "https://dc.lft.to/lastmile_qr_scan", "ios": "https://dc.lft.to/lastmile_qr_scan"}}, {"bike_id": "4888f65e3b741e2ed22ce609fb7ec004", "fusion_lon": 0.0, "name": "4888f65e3b741e2ed22ce609fb7ec004", "lat": 38.90424066666667, "is_disabled": 0, "is_reserved": 0, "lon": -77.02416216666667, "type": "electric_scooter", "fusion_lat": 0.0, "rental_uris": {"android": "https://dc.lft.to/lastmile_qr_scan", "ios": "https://dc.lft.to/lastmile_qr_scan"}}, {"bike_id": "5ff25f59d322dcdbbe697242cbeabbfd", "fusion_lon": 0.0, "name": "5ff25f59d322dcdbbe697242cbeabbfd", "lat": 38.903865333333336, "is_disabled": 0, "is_reserved": 0, "lon": -77.050455, "type": "electric_scooter", "fusion_lat": 0.0, "rental_uris": {"android": "https://dc.lft.to/lastmile_qr_scan", "ios": "https://dc.lft.to/lastmile_qr_scan"}}, {"bike_id": "0b89c31f87b33be97fe90b8057e45e42", "fusion_lon": 0.0, "name": "0b89c31f87b33be97fe90b8057e45e42", "lat": 38.900225, "is_disabled": 0, "is_reserved": 0, "lon": -76.97399016666667, "type": "electric_scooter", "fusion_lat": 0.0, "rental_uris": {"android": "https://dc.lft.to/lastmile_qr_scan", "ios": "https://dc.lft.to/lastmile_qr_scan"}}, {"bike_id": "c9af89e9ebd3bb14a309bfbb4d36d48f", "fusion_lon": 0.0, "name": "c9af89e9ebd3bb14a309bfbb4d36d48f", "lat": 38.92185933333333, "is_disabled": 0, "is_reserved": 0, "lon": -77.018417, "type": "electric_scooter", "fusion_lat": 0.0, "rental_uris": {"android": "https://dc.lft.to/lastmile_qr_scan", "ios": "https://dc.lft.to/lastmile_qr_scan"}}, {"bike_id": "cfaf31e4f417d9f5e157a39cfdd74feb", "fusion_lon": 0.0, "name": "cfaf31e4f417d9f5e157a39cfdd74feb", "lat": 38.94522083333333, "is_disabled": 0, "is_reserved": 0, "lon": -77.022703, "type": "electric_scooter", "fusion_lat": 0.0, "rental_uris": {"android": "https://dc.lft.to/lastmile_qr_scan", "ios": "https://dc.lft.to/lastmile_qr_scan"}}, {"bike_id": "8cbf606d28295f6189ca0858bddb485c", "fusion_lon": 0.0, "name": "8cbf606d28295f6189ca0858bddb485c", "lat": 38.9121795, "is_disabled": 0, "is_reserved": 0, "lon": -77.03645066666667, "type": "electric_scooter", "fusion_lat": 0.0, "rental_uris": {"android": "https://dc.lft.to/lastmile_qr_scan", "ios": "https://dc.lft.to/lastmile_qr_scan"}}, {"bike_id": "7ca1a81b178c7c032be27dc41a061169", "fusion_lon": 0.0, "name": "7ca1a81b178c7c032be27dc41a061169", "lat": 38.907233833333336, "is_disabled": 0, "is_reserved": 0, "lon": -77.03358933333334, "type": "electric_scooter", "fusion_lat": 0.0, "rental_uris": {"android": "https://dc.lft.to/lastmile_qr_scan", "ios": "https://dc.lft.to/lastmile_qr_scan"}}, {"bike_id": "4eeb9639aca112adfa67760c166c7561", "fusion_lon": 0.0, "name": "4eeb9639aca112adfa67760c166c7561", "lat": 38.91333483333333, "is_disabled": 0, "is_reserved": 0, "lon": -77.04862266666666, "type": "electric_scooter", "fusion_lat": 0.0, "rental_uris": {"android": "https://dc.lft.to/lastmile_qr_scan", "ios": "https://dc.lft.to/lastmile_qr_scan"}}, {"bike_id": "954ba3ff991efa36af287bbfea5672ba", "fusion_lon": 0.0, "name": "954ba3ff991efa36af287bbfea5672ba", "lat": 38.93042783333333, "is_disabled": 0, "is_reserved": 0, "lon": -77.03265, "type": "electric_scooter", "fusion_lat": 0.0, "rental_uris": {"android": "https://dc.lft.to/lastmile_qr_scan", "ios": "https://dc.lft.to/lastmile_qr_scan"}}, {"bike_id": "a49b545e7f93dde5e5f5b958881a9aec", "fusion_lon": 0.0, "name": "a49b545e7f93dde5e5f5b958881a9aec", "lat": 38.90009766666667, "is_disabled": 0, "is_reserved": 0, "lon": -76.9868405, "type": "electric_bike", "fusion_lat": 0.0, "rental_uris": {"android": "https://dc.lft.to/lastmile_qr_scan", "ios": "https://dc.lft.to/lastmile_qr_scan"}}, {"bike_id": "648005546d375669fee354bbb6f45390", "fusion_lon": 0.0, "name": "648005546d375669fee354bbb6f45390", "lat": 38.904939666666664, "is_disabled": 0, "is_reserved": 0, "lon": -76.9813395, "type": "electric_scooter", "fusion_lat": 0.0, "rental_uris": {"android": "https://dc.lft.to/lastmile_qr_scan", "ios": "https://dc.lft.to/lastmile_qr_scan"}}, {"bike_id": "5f9f555bfde6ddc76e78ce6258a1a1a3", "fusion_lon": 0.0, "name": "5f9f555bfde6ddc76e78ce6258a1a1a3", "lat": 38.87448416666667, "is_disabled": 0, "is_reserved": 0, "lon": -77.00927283333333, "type": "electric_scooter", "fusion_lat": 0.0, "rental_uris": {"android": "https://dc.lft.to/lastmile_qr_scan", "ios": "https://dc.lft.to/lastmile_qr_scan"}}, {"bike_id": "ce80df94fc7bce59c64e821d8b5cfd59", "fusion_lon": 0.0, "name": "ce80df94fc7bce59c64e821d8b5cfd59", "lat": 38.8848525, "is_disabled": 0, "is_reserved": 0, "lon": -77.00709883333333, "type": "electric_scooter", "fusion_lat": 0.0, "rental_uris": {"android": "https://dc.lft.to/lastmile_qr_scan", "ios": "https://dc.lft.to/lastmile_qr_scan"}}, {"bike_id": "d3f165e6205f819c8c18b414c6dc385f", "fusion_lon": 0.0, "name": "d3f165e6205f819c8c18b414c6dc385f", "lat": 38.86756233333333, "is_disabled": 0, "is_reserved": 0, "lon": -76.98282316666666, "type": "electric_scooter", "fusion_lat": 0.0, "rental_uris": {"android": "https://dc.lft.to/lastmile_qr_scan", "ios": "https://dc.lft.to/lastmile_qr_scan"}}, {"bike_id": "477ad7e6e3b60c5385d080b30df86470", "fusion_lon": 0.0, "name": "477ad7e6e3b60c5385d080b30df86470", "lat": 38.8943205, "is_disabled": 0, "is_reserved": 0, "lon": -76.97720483333333, "type": "electric_scooter", "fusion_lat": 0.0, "rental_uris": {"android": "https://dc.lft.to/lastmile_qr_scan", "ios": "https://dc.lft.to/lastmile_qr_scan"}}, {"bike_id": "d04d6ae918efff280b841d36b38d07e7", "fusion_lon": 0.0, "name": "d04d6ae918efff280b841d36b38d07e7", "lat": 38.903837, "is_disabled": 0, "is_reserved": 0, "lon": -77.03426466666667, "type": "electric_scooter", "fusion_lat": 0.0, "rental_uris": {"android": "https://dc.lft.to/lastmile_qr_scan", "ios": "https://dc.lft.to/lastmile_qr_scan"}}, {"bike_id": "3d49b19ddae9d3421fc4aa059c53a036", "fusion_lon": 0.0, "name": "3d49b19ddae9d3421fc4aa059c53a036", "lat": 38.90330516666667, "is_disabled": 0, "is_reserved": 0, "lon": -77.04339583333334, "type": "electric_scooter", "fusion_lat": 0.0, "rental_uris": {"android": "https://dc.lft.to/lastmile_qr_scan", "ios": "https://dc.lft.to/lastmile_qr_scan"}}, {"bike_id": "8282048e6f3baaa8ecc47f951a65e2de", "fusion_lon": 0.0, "name": "8282048e6f3baaa8ecc47f951a65e2de", "lat": 38.925119333333335, "is_disabled": 0, "is_reserved": 0, "lon": -76.99571183333333, "type": "electric_scooter", "fusion_lat": 0.0, "rental_uris": {"android": "https://dc.lft.to/lastmile_qr_scan", "ios": "https://dc.lft.to/lastmile_qr_scan"}}, {"bike_id": "f953d43dbacf65452285115677defe09", "fusion_lon": 0.0, "name": "f953d43dbacf65452285115677defe09", "lat": 38.90133766666667, "is_disabled": 0, "is_reserved": 0, "lon": -77.041576, "type": "electric_scooter", "fusion_lat": 0.0, "rental_uris": {"android": "https://dc.lft.to/lastmile_qr_scan", "ios": "https://dc.lft.to/lastmile_qr_scan"}}, {"bike_id": "767d4ea2dbaac4df15c43536d8e1ecb0", "fusion_lon": 0.0, "name": "767d4ea2dbaac4df15c43536d8e1ecb0", "lat": 38.86679083333333, "is_disabled": 0, "is_reserved": 0, "lon": -76.98564683333333, "type": "electric_scooter", "fusion_lat": 0.0, "rental_uris": {"android": "https://dc.lft.to/lastmile_qr_scan", "ios": "https://dc.lft.to/lastmile_qr_scan"}}, {"bike_id": "f970f95fc165e55dc2b0581c5a31e4a4", "fusion_lon": 0.0, "name": "f970f95fc165e55dc2b0581c5a31e4a4", "lat": 38.895206, "is_disabled": 0, "is_reserved": 0, "lon": -77.01197283333333, "type": "electric_scooter", "fusion_lat": 0.0, "rental_uris": {"android": "https://dc.lft.to/lastmile_qr_scan", "ios": "https://dc.lft.to/lastmile_qr_scan"}}, {"bike_id": "bf77d4a1e2560d64a735aa5f5a25e517", "fusion_lon": 0.0, "name": "bf77d4a1e2560d64a735aa5f5a25e517", "lat": 38.90217083333334, "is_disabled": 0, "is_reserved": 0, "lon": -77.034421, "type": "electric_scooter", "fusion_lat": 0.0, "rental_uris": {"android": "https://dc.lft.to/lastmile_qr_scan", "ios": "https://dc.lft.to/lastmile_qr_scan"}}, {"bike_id": "b18ee8820b008f5dfda759a9046f4e59", "fusion_lon": 0.0, "name": "b18ee8820b008f5dfda759a9046f4e59", "lat": 38.904912, "is_disabled": 0, "is_reserved": 0, "lon": -77.05132233333333, "type": "electric_scooter", "fusion_lat": 0.0, "rental_uris": {"android": "https://dc.lft.to/lastmile_qr_scan", "ios": "https://dc.lft.to/lastmile_qr_scan"}}, {"bike_id": "8247b04caafb9e1c9805e54a4826edcf", "fusion_lon": 0.0, "name": "8247b04caafb9e1c9805e54a4826edcf", "lat": 38.92162666666667, "is_disabled": 0, "is_reserved": 0, "lon": -77.033281, "type": "electric_scooter", "fusion_lat": 0.0, "rental_uris": {"android": "https://dc.lft.to/lastmile_qr_scan", "ios": "https://dc.lft.to/lastmile_qr_scan"}}, {"bike_id": "4dddcc3fc0a704b11f139d7cd42c9e12", "fusion_lon": 0.0, "name": "4dddcc3fc0a704b11f139d7cd42c9e12", "lat": 38.899775, "is_disabled": 0, "is_reserved": 0, "lon": -77.00930933333333, "type": "electric_scooter", "fusion_lat": 0.0, "rental_uris": {"android": "https://dc.lft.to/lastmile_qr_scan", "ios": "https://dc.lft.to/lastmile_qr_scan"}}, {"bike_id": "4d0a86f5830f3d9173c6b79ef4c6ff3f", "fusion_lon": 0.0, "name": "4d0a86f5830f3d9173c6b79ef4c6ff3f", "lat": 38.90955683333333, "is_disabled": 0, "is_reserved": 0, "lon": -77.0228395, "type": "electric_scooter", "fusion_lat": 0.0, "rental_uris": {"android": "https://dc.lft.to/lastmile_qr_scan", "ios": "https://dc.lft.to/lastmile_qr_scan"}}, {"bike_id": "02be2d64ed803d79626f79561e399416", "fusion_lon": 0.0, "name": "02be2d64ed803d79626f79561e399416", "lat": 38.91882116666667, "is_disabled": 0, "is_reserved": 0, "lon": -77.0297725, "type": "electric_scooter", "fusion_lat": 0.0, "rental_uris": {"android": "https://dc.lft.to/lastmile_qr_scan", "ios": "https://dc.lft.to/lastmile_qr_scan"}}, {"bike_id": "ecb55e10aca15b6d917639b4114ac1cb", "fusion_lon": 0.0, "name": "ecb55e10aca15b6d917639b4114ac1cb", "lat": 38.91691633333333, "is_disabled": 0, "is_reserved": 0, "lon": -77.0259915, "type": "electric_scooter", "fusion_lat": 0.0, "rental_uris": {"android": "https://dc.lft.to/lastmile_qr_scan", "ios": "https://dc.lft.to/lastmile_qr_scan"}}, {"bike_id": "ca0d92050f2b8a6d710634651a9434de", "fusion_lon": 0.0, "name": "ca0d92050f2b8a6d710634651a9434de", "lat": 38.874894, "is_disabled": 0, "is_reserved": 0, "lon": -77.211249, "type": "electric_bike", "fusion_lat": 0.0, "rental_uris": {"android": "https://dc.lft.to/lastmile_qr_scan", "ios": "https://dc.lft.to/lastmile_qr_scan"}}, {"bike_id": "b3001567b03bdea7fd2140a68a73d74f", "fusion_lon": 0.0, "name": "b3001567b03bdea7fd2140a68a73d74f", "lat": 38.846098166666664, "is_disabled": 0, "is_reserved": 0, "lon": -76.9690955, "type": "electric_bike", "fusion_lat": 0.0, "rental_uris": {"android": "https://dc.lft.to/lastmile_qr_scan", "ios": "https://dc.lft.to/lastmile_qr_scan"}}, {"bike_id": "b1ffeb6c43fa9a46059e902d357044c5", "fusion_lon": 0.0, "name": "b1ffeb6c43fa9a46059e902d357044c5", "lat": 38.8961155, "is_disabled": 0, "is_reserved": 0, "lon": -76.90741083333333, "type": "electric_bike", "fusion_lat": 0.0, "rental_uris": {"android": "https://dc.lft.to/lastmile_qr_scan", "ios": "https://dc.lft.to/lastmile_qr_scan"}}, {"bike_id": "a6180f738eb0d195b2d8b1203eedd3c8", "fusion_lon": 0.0, "name": "a6180f738eb0d195b2d8b1203eedd3c8", "lat": 38.915407, "is_disabled": 0, "is_reserved": 0, "lon": -77.03440283333333, "type": "electric_scooter", "fusion_lat": 0.0, "rental_uris": {"android": "https://dc.lft.to/lastmile_qr_scan", "ios": "https://dc.lft.to/lastmile_qr_scan"}}, {"bike_id": "2f26d1a3e9e171fe53b1fc4417d17cea", "fusion_lon": 0.0, "name": "2f26d1a3e9e171fe53b1fc4417d17cea", "lat": 38.89224, "is_disabled": 0, "is_reserved": 0, "lon": -77.043059, "type": "electric_scooter", "fusion_lat": 0.0, "rental_uris": {"android": "https://dc.lft.to/lastmile_qr_scan", "ios": "https://dc.lft.to/lastmile_qr_scan"}}, {"bike_id": "eed58165e76fa6c819c88a02dd5f20b3", "fusion_lon": 0.0, "name": "eed58165e76fa6c819c88a02dd5f20b3", "lat": 38.905667, "is_disabled": 0, "is_reserved": 0, "lon": -77.00570166666667, "type": "electric_scooter", "fusion_lat": 0.0, "rental_uris": {"android": "https://dc.lft.to/lastmile_qr_scan", "ios": "https://dc.lft.to/lastmile_qr_scan"}}, {"bike_id": "1056ef8ca1a8dc6862bb3ac57a69ccc3", "fusion_lon": 0.0, "name": "1056ef8ca1a8dc6862bb3ac57a69ccc3", "lat": 38.89739183333333, "is_disabled": 0, "is_reserved": 0, "lon": -77.04564883333333, "type": "electric_scooter", "fusion_lat": 0.0, "rental_uris": {"android": "https://dc.lft.to/lastmile_qr_scan", "ios": "https://dc.lft.to/lastmile_qr_scan"}}, {"bike_id": "9cae2576d28f2c62d4e5813d5ad10749", "fusion_lon": 0.0, "name": "9cae2576d28f2c62d4e5813d5ad10749", "lat": 38.942230333333335, "is_disabled": 0, "is_reserved": 0, "lon": -77.07682516666667, "type": "electric_scooter", "fusion_lat": 0.0, "rental_uris": {"android": "https://dc.lft.to/lastmile_qr_scan", "ios": "https://dc.lft.to/lastmile_qr_scan"}}, {"bike_id": "71cde4be789f7985f6b123543720cceb", "fusion_lon": 0.0, "name": "71cde4be789f7985f6b123543720cceb", "lat": 38.912827166666666, "is_disabled": 0, "is_reserved": 0, "lon": -77.023072, "type": "electric_scooter", "fusion_lat": 0.0, "rental_uris": {"android": "https://dc.lft.to/lastmile_qr_scan", "ios": "https://dc.lft.to/lastmile_qr_scan"}}, {"bike_id": "aea5d39900c42910fc122e5977cd3894", "fusion_lon": 0.0, "name": "aea5d39900c42910fc122e5977cd3894", "lat": 38.904115833333336, "is_disabled": 0, "is_reserved": 0, "lon": -77.0435315, "type": "electric_scooter", "fusion_lat": 0.0, "rental_uris": {"android": "https://dc.lft.to/lastmile_qr_scan", "ios": "https://dc.lft.to/lastmile_qr_scan"}}, {"bike_id": "ecb406be45f32084faf22c738495000e", "fusion_lon": 0.0, "name": "ecb406be45f32084faf22c738495000e", "lat": 38.91729016666667, "is_disabled": 0, "is_reserved": 0, "lon": -77.0230155, "type": "electric_scooter", "fusion_lat": 0.0, "rental_uris": {"android": "https://dc.lft.to/lastmile_qr_scan", "ios": "https://dc.lft.to/lastmile_qr_scan"}}, {"bike_id": "7fb8e8acb337191b044486fbb48fae12", "fusion_lon": 0.0, "name": "7fb8e8acb337191b044486fbb48fae12", "lat": 38.91426466666667, "is_disabled": 0, "is_reserved": 0, "lon": -77.039276, "type": "electric_scooter", "fusion_lat": 0.0, "rental_uris": {"android": "https://dc.lft.to/lastmile_qr_scan", "ios": "https://dc.lft.to/lastmile_qr_scan"}}, {"bike_id": "9358cc0c314e9d70f9e465278f555877", "fusion_lon": 0.0, "name": "9358cc0c314e9d70f9e465278f555877", "lat": 38.927355666666664, "is_disabled": 0, "is_reserved": 0, "lon": -77.02285433333333, "type": "electric_scooter", "fusion_lat": 0.0, "rental_uris": {"android": "https://dc.lft.to/lastmile_qr_scan", "ios": "https://dc.lft.to/lastmile_qr_scan"}}, {"bike_id": "99b14a6c868515b86f0276bc83389a25", "fusion_lon": 0.0, "name": "99b14a6c868515b86f0276bc83389a25", "lat": 38.87686583333333, "is_disabled": 0, "is_reserved": 0, "lon": -76.99425766666667, "type": "electric_scooter", "fusion_lat": 0.0, "rental_uris": {"android": "https://dc.lft.to/lastmile_qr_scan", "ios": "https://dc.lft.to/lastmile_qr_scan"}}, {"bike_id": "fbc46e09477396efa07c10a2d9c7dbae", "fusion_lon": 0.0, "name": "fbc46e09477396efa07c10a2d9c7dbae", "lat": 38.894314, "is_disabled": 0, "is_reserved": 0, "lon": -77.00104666666667, "type": "electric_scooter", "fusion_lat": 0.0, "rental_uris": {"android": "https://dc.lft.to/lastmile_qr_scan", "ios": "https://dc.lft.to/lastmile_qr_scan"}}, {"bike_id": "46515deff45779bfc5ec59cf375557d2", "fusion_lon": 0.0, "name": "46515deff45779bfc5ec59cf375557d2", "lat": 38.8948275, "is_disabled": 0, "is_reserved": 0, "lon": -77.0097425, "type": "electric_scooter", "fusion_lat": 0.0, "rental_uris": {"android": "https://dc.lft.to/lastmile_qr_scan", "ios": "https://dc.lft.to/lastmile_qr_scan"}}, {"bike_id": "f25c5e875fc6156afe11a694f48c9fee", "fusion_lon": 0.0, "name": "f25c5e875fc6156afe11a694f48c9fee", "lat": 38.81938783333333, "is_disabled": 0, "is_reserved": 0, "lon": -77.00205616666666, "type": "electric_bike", "fusion_lat": 0.0, "rental_uris": {"android": "https://dc.lft.to/lastmile_qr_scan", "ios": "https://dc.lft.to/lastmile_qr_scan"}}, {"bike_id": "e78d74b2820be365abc3fbe4cf490334", "fusion_lon": 0.0, "name": "e78d74b2820be365abc3fbe4cf490334", "lat": 38.8922045, "is_disabled": 0, "is_reserved": 0, "lon": -77.0313305, "type": "electric_scooter", "fusion_lat": 0.0, "rental_uris": {"android": "https://dc.lft.to/lastmile_qr_scan", "ios": "https://dc.lft.to/lastmile_qr_scan"}}, {"bike_id": "da6838b65485b5d034835ad931159e51", "fusion_lon": 0.0, "name": "da6838b65485b5d034835ad931159e51", "lat": 38.88898916666667, "is_disabled": 0, "is_reserved": 0, "lon": -76.9920635, "type": "electric_scooter", "fusion_lat": 0.0, "rental_uris": {"android": "https://dc.lft.to/lastmile_qr_scan", "ios": "https://dc.lft.to/lastmile_qr_scan"}}, {"bike_id": "cb3f1274232fc4ce3c5e5bb690db2022", "fusion_lon": 0.0, "name": "cb3f1274232fc4ce3c5e5bb690db2022", "lat": 38.8935445, "is_disabled": 0, "is_reserved": 0, "lon": -77.18744133333334, "type": "electric_bike", "fusion_lat": 0.0, "rental_uris": {"android": "https://dc.lft.to/lastmile_qr_scan", "ios": "https://dc.lft.to/lastmile_qr_scan"}}, {"bike_id": "8dbd44d40bafd80268ad92a4208c7f84", "fusion_lon": 0.0, "name": "8dbd44d40bafd80268ad92a4208c7f84", "lat": 38.90493033333333, "is_disabled": 0, "is_reserved": 0, "lon": -76.97581033333333, "type": "electric_bike", "fusion_lat": 0.0, "rental_uris": {"android": "https://dc.lft.to/lastmile_qr_scan", "ios": "https://dc.lft.to/lastmile_qr_scan"}}, {"bike_id": "e1bcca2218a60be10ee4f546263d4d1c", "fusion_lon": 0.0, "name": "e1bcca2218a60be10ee4f546263d4d1c", "lat": 38.913988833333335, "is_disabled": 0, "is_reserved": 0, "lon": -77.02422833333334, "type": "electric_scooter", "fusion_lat": 0.0, "rental_uris": {"android": "https://dc.lft.to/lastmile_qr_scan", "ios": "https://dc.lft.to/lastmile_qr_scan"}}, {"bike_id": "b15943a64d662e4fd2384bab9ecc8ff8", "fusion_lon": 0.0, "name": "b15943a64d662e4fd2384bab9ecc8ff8", "lat": 38.903948166666666, "is_disabled": 0, "is_reserved": 0, "lon": -77.06312716666666, "type": "electric_scooter", "fusion_lat": 0.0, "rental_uris": {"android": "https://dc.lft.to/lastmile_qr_scan", "ios": "https://dc.lft.to/lastmile_qr_scan"}}, {"bike_id": "30d7d81f1681c5613e105770a95db7d3", "fusion_lon": 0.0, "name": "30d7d81f1681c5613e105770a95db7d3", "lat": 38.91125516666666, "is_disabled": 0, "is_reserved": 0, "lon": -77.04169033333334, "type": "electric_scooter", "fusion_lat": 0.0, "rental_uris": {"android": "https://dc.lft.to/lastmile_qr_scan", "ios": "https://dc.lft.to/lastmile_qr_scan"}}, {"bike_id": "e55696f09dc0f9c91bccf2a2606992aa", "fusion_lon": 0.0, "name": "e55696f09dc0f9c91bccf2a2606992aa", "lat": 38.865050333333336, "is_disabled": 0, "is_reserved": 0, "lon": -76.99006566666667, "type": "electric_scooter", "fusion_lat": 0.0, "rental_uris": {"android": "https://dc.lft.to/lastmile_qr_scan", "ios": "https://dc.lft.to/lastmile_qr_scan"}}, {"bike_id": "7fe33733fd80070abadb9bc3c16809ae", "fusion_lon": 0.0, "name": "7fe33733fd80070abadb9bc3c16809ae", "lat": 38.91814383333333, "is_disabled": 0, "is_reserved": 0, "lon": -77.03999, "type": "electric_scooter", "fusion_lat": 0.0, "rental_uris": {"android": "https://dc.lft.to/lastmile_qr_scan", "ios": "https://dc.lft.to/lastmile_qr_scan"}}, {"bike_id": "593cffcef39a30cf4bb0de2d4fc83886", "fusion_lon": 0.0, "name": "593cffcef39a30cf4bb0de2d4fc83886", "lat": 38.924226166666664, "is_disabled": 0, "is_reserved": 0, "lon": -77.01948883333333, "type": "electric_scooter", "fusion_lat": 0.0, "rental_uris": {"android": "https://dc.lft.to/lastmile_qr_scan", "ios": "https://dc.lft.to/lastmile_qr_scan"}}, {"bike_id": "e77a976f251e681788e16a01b2248505", "fusion_lon": 0.0, "name": "e77a976f251e681788e16a01b2248505", "lat": 38.92225783333333, "is_disabled": 0, "is_reserved": 0, "lon": -77.04644633333334, "type": "electric_scooter", "fusion_lat": 0.0, "rental_uris": {"android": "https://dc.lft.to/lastmile_qr_scan", "ios": "https://dc.lft.to/lastmile_qr_scan"}}, {"bike_id": "fd0e0cf0a6527165caf96eb3596e95c8", "fusion_lon": 0.0, "name": "fd0e0cf0a6527165caf96eb3596e95c8", "lat": 38.903158833333336, "is_disabled": 0, "is_reserved": 0, "lon": -77.05019166666666, "type": "electric_scooter", "fusion_lat": 0.0, "rental_uris": {"android": "https://dc.lft.to/lastmile_qr_scan", "ios": "https://dc.lft.to/lastmile_qr_scan"}}, {"bike_id": "1ea9331f08be29f67580dfcee71225f5", "fusion_lon": 0.0, "name": "1ea9331f08be29f67580dfcee71225f5", "lat": 38.981121, "is_disabled": 0, "is_reserved": 0, "lon": -77.02668283333334, "type": "electric_scooter", "fusion_lat": 0.0, "rental_uris": {"android": "https://dc.lft.to/lastmile_qr_scan", "ios": "https://dc.lft.to/lastmile_qr_scan"}}, {"bike_id": "0fdb7994397d4c331114b673e834e089", "fusion_lon": 0.0, "name": "0fdb7994397d4c331114b673e834e089", "lat": 38.892179666666664, "is_disabled": 0, "is_reserved": 0, "lon": -77.02223766666667, "type": "electric_scooter", "fusion_lat": 0.0, "rental_uris": {"android": "https://dc.lft.to/lastmile_qr_scan", "ios": "https://dc.lft.to/lastmile_qr_scan"}}, {"bike_id": "92f4ab5df46c2fd9e810d213e179e4b9", "fusion_lon": 0.0, "name": "92f4ab5df46c2fd9e810d213e179e4b9", "lat": 38.8909825, "is_disabled": 0, "is_reserved": 0, "lon": -76.93483566666667, "type": "electric_bike", "fusion_lat": 0.0, "rental_uris": {"android": "https://dc.lft.to/lastmile_qr_scan", "ios": "https://dc.lft.to/lastmile_qr_scan"}}, {"bike_id": "9d97319c27a02dbb06f6773690f73367", "fusion_lon": 0.0, "name": "9d97319c27a02dbb06f6773690f73367", "lat": 38.92137233333333, "is_disabled": 0, "is_reserved": 0, "lon": -77.0434395, "type": "electric_scooter", "fusion_lat": 0.0, "rental_uris": {"android": "https://dc.lft.to/lastmile_qr_scan", "ios": "https://dc.lft.to/lastmile_qr_scan"}}, {"bike_id": "cc431dab2aebb1f865f11f5056459f3c", "fusion_lon": 0.0, "name": "cc431dab2aebb1f865f11f5056459f3c", "lat": 38.883624833333336, "is_disabled": 0, "is_reserved": 0, "lon": -76.994858, "type": "electric_scooter", "fusion_lat": 0.0, "rental_uris": {"android": "https://dc.lft.to/lastmile_qr_scan", "ios": "https://dc.lft.to/lastmile_qr_scan"}}, {"bike_id": "b3f8c21ff2601e5d2a6a1818dda3b5d1", "fusion_lon": 0.0, "name": "b3f8c21ff2601e5d2a6a1818dda3b5d1", "lat": 38.924847666666665, "is_disabled": 0, "is_reserved": 0, "lon": -77.05213316666666, "type": "electric_scooter", "fusion_lat": 0.0, "rental_uris": {"android": "https://dc.lft.to/lastmile_qr_scan", "ios": "https://dc.lft.to/lastmile_qr_scan"}}, {"bike_id": "fb38b898ea8d0dce0cd9ada3795ad1ca", "fusion_lon": 0.0, "name": "fb38b898ea8d0dce0cd9ada3795ad1ca", "lat": 38.912639, "is_disabled": 0, "is_reserved": 0, "lon": -77.0474355, "type": "electric_scooter", "fusion_lat": 0.0, "rental_uris": {"android": "https://dc.lft.to/lastmile_qr_scan", "ios": "https://dc.lft.to/lastmile_qr_scan"}}, {"bike_id": "9e9c7a30626aa6a6e50857c7cd38079a", "fusion_lon": 0.0, "name": "9e9c7a30626aa6a6e50857c7cd38079a", "lat": 38.863891333333335, "is_disabled": 0, "is_reserved": 0, "lon": -76.99039233333333, "type": "electric_scooter", "fusion_lat": 0.0, "rental_uris": {"android": "https://dc.lft.to/lastmile_qr_scan", "ios": "https://dc.lft.to/lastmile_qr_scan"}}, {"bike_id": "13e6919f23c5af619f1af1cdccf6b0ec", "fusion_lon": 0.0, "name": "13e6919f23c5af619f1af1cdccf6b0ec", "lat": 38.899421833333335, "is_disabled": 0, "is_reserved": 0, "lon": -77.02982983333334, "type": "electric_scooter", "fusion_lat": 0.0, "rental_uris": {"android": "https://dc.lft.to/lastmile_qr_scan", "ios": "https://dc.lft.to/lastmile_qr_scan"}}, {"bike_id": "1e1172668908ca775e6b6f1573afde49", "fusion_lon": 0.0, "name": "1e1172668908ca775e6b6f1573afde49", "lat": 38.85719066666667, "is_disabled": 0, "is_reserved": 0, "lon": -76.9810025, "type": "electric_scooter", "fusion_lat": 0.0, "rental_uris": {"android": "https://dc.lft.to/lastmile_qr_scan", "ios": "https://dc.lft.to/lastmile_qr_scan"}}, {"bike_id": "f323bd194a27062c37e148b3658845fb", "fusion_lon": 0.0, "name": "f323bd194a27062c37e148b3658845fb", "lat": 38.9286205, "is_disabled": 0, "is_reserved": 0, "lon": -77.03502033333334, "type": "electric_scooter", "fusion_lat": 0.0, "rental_uris": {"android": "https://dc.lft.to/lastmile_qr_scan", "ios": "https://dc.lft.to/lastmile_qr_scan"}}, {"bike_id": "e1475ad5dc54150676e7fd44a2ed7c2e", "fusion_lon": 0.0, "name": "e1475ad5dc54150676e7fd44a2ed7c2e", "lat": 38.8972975, "is_disabled": 0, "is_reserved": 0, "lon": -76.947056, "type": "electric_scooter", "fusion_lat": 0.0, "rental_uris": {"android": "https://dc.lft.to/lastmile_qr_scan", "ios": "https://dc.lft.to/lastmile_qr_scan"}}, {"bike_id": "ad59d16a36ffedbd9080a7aa88c03d92", "fusion_lon": 0.0, "name": "ad59d16a36ffedbd9080a7aa88c03d92", "lat": 38.903263333333335, "is_disabled": 0, "is_reserved": 0, "lon": -77.02524416666667, "type": "electric_scooter", "fusion_lat": 0.0, "rental_uris": {"android": "https://dc.lft.to/lastmile_qr_scan", "ios": "https://dc.lft.to/lastmile_qr_scan"}}, {"bike_id": "03a99e367d270401c8666303fe6fe357", "fusion_lon": 0.0, "name": "03a99e367d270401c8666303fe6fe357", "lat": 38.90826583333333, "is_disabled": 0, "is_reserved": 0, "lon": -77.06386116666667, "type": "electric_scooter", "fusion_lat": 0.0, "rental_uris": {"android": "https://dc.lft.to/lastmile_qr_scan", "ios": "https://dc.lft.to/lastmile_qr_scan"}}, {"bike_id": "bc9e55c7da0a5da494eb2d9c011795f4", "fusion_lon": 0.0, "name": "bc9e55c7da0a5da494eb2d9c011795f4", "lat": 38.886517166666664, "is_disabled": 0, "is_reserved": 0, "lon": -77.028236, "type": "electric_scooter", "fusion_lat": 0.0, "rental_uris": {"android": "https://dc.lft.to/lastmile_qr_scan", "ios": "https://dc.lft.to/lastmile_qr_scan"}}, {"bike_id": "e81c89f231a63cd6437d16598092dfa8", "fusion_lon": 0.0, "name": "e81c89f231a63cd6437d16598092dfa8", "lat": 38.98458316666667, "is_disabled": 0, "is_reserved": 0, "lon": -76.97056433333333, "type": "electric_bike", "fusion_lat": 0.0, "rental_uris": {"android": "https://dc.lft.to/lastmile_qr_scan", "ios": "https://dc.lft.to/lastmile_qr_scan"}}, {"bike_id": "56746a4b72c9834bc59650ea05c9b013", "fusion_lon": 0.0, "name": "56746a4b72c9834bc59650ea05c9b013", "lat": 38.9042445, "is_disabled": 0, "is_reserved": 0, "lon": -77.04351966666667, "type": "electric_scooter", "fusion_lat": 0.0, "rental_uris": {"android": "https://dc.lft.to/lastmile_qr_scan", "ios": "https://dc.lft.to/lastmile_qr_scan"}}, {"bike_id": "3b14da4783f5d41e87285ae83accaf2e", "fusion_lon": 0.0, "name": "3b14da4783f5d41e87285ae83accaf2e", "lat": 38.93383983333333, "is_disabled": 0, "is_reserved": 0, "lon": -77.05739083333333, "type": "electric_bike", "fusion_lat": 0.0, "rental_uris": {"android": "https://dc.lft.to/lastmile_qr_scan", "ios": "https://dc.lft.to/lastmile_qr_scan"}}, {"bike_id": "795391a4dc3f6c3225524d9928fa937c", "fusion_lon": 0.0, "name": "795391a4dc3f6c3225524d9928fa937c", "lat": 38.855132, "is_disabled": 0, "is_reserved": 0, "lon": -76.98431433333333, "type": "electric_bike", "fusion_lat": 0.0, "rental_uris": {"android": "https://dc.lft.to/lastmile_qr_scan", "ios": "https://dc.lft.to/lastmile_qr_scan"}}, {"bike_id": "345a37df54d2f773875a43f4680222b8", "fusion_lon": 0.0, "name": "345a37df54d2f773875a43f4680222b8", "lat": 38.905263166666664, "is_disabled": 0, "is_reserved": 0, "lon": -77.049433, "type": "electric_scooter", "fusion_lat": 0.0, "rental_uris": {"android": "https://dc.lft.to/lastmile_qr_scan", "ios": "https://dc.lft.to/lastmile_qr_scan"}}, {"bike_id": "18c9f05408ac2885c7be68fb890e43bb", "fusion_lon": 0.0, "name": "18c9f05408ac2885c7be68fb890e43bb", "lat": 38.915903666666665, "is_disabled": 0, "is_reserved": 0, "lon": -77.04598633333333, "type": "electric_scooter", "fusion_lat": 0.0, "rental_uris": {"android": "https://dc.lft.to/lastmile_qr_scan", "ios": "https://dc.lft.to/lastmile_qr_scan"}}, {"bike_id": "6b1bf391d3d6ab9f8375f41ceceb93ac", "fusion_lon": 0.0, "name": "6b1bf391d3d6ab9f8375f41ceceb93ac", "lat": 38.887674, "is_disabled": 0, "is_reserved": 0, "lon": -76.97751766666667, "type": "electric_scooter", "fusion_lat": 0.0, "rental_uris": {"android": "https://dc.lft.to/lastmile_qr_scan", "ios": "https://dc.lft.to/lastmile_qr_scan"}}, {"bike_id": "77b8c5dcd041b95b8e229259dbebb6f0", "fusion_lon": 0.0, "name": "77b8c5dcd041b95b8e229259dbebb6f0", "lat": 38.910530333333334, "is_disabled": 0, "is_reserved": 0, "lon": -76.98524016666667, "type": "electric_scooter", "fusion_lat": 0.0, "rental_uris": {"android": "https://dc.lft.to/lastmile_qr_scan", "ios": "https://dc.lft.to/lastmile_qr_scan"}}, {"bike_id": "4c06edf8287a737746398dbc70033046", "fusion_lon": 0.0, "name": "4c06edf8287a737746398dbc70033046", "lat": 38.901488, "is_disabled": 0, "is_reserved": 0, "lon": -76.93071316666666, "type": "electric_scooter", "fusion_lat": 0.0, "rental_uris": {"android": "https://dc.lft.to/lastmile_qr_scan", "ios": "https://dc.lft.to/lastmile_qr_scan"}}, {"bike_id": "07641fc34130c97370d35b8d7af60a62", "fusion_lon": 0.0, "name": "07641fc34130c97370d35b8d7af60a62", "lat": 38.852457333333334, "is_disabled": 0, "is_reserved": 0, "lon": -77.10792333333333, "type": "electric_bike", "fusion_lat": 0.0, "rental_uris": {"android": "https://dc.lft.to/lastmile_qr_scan", "ios": "https://dc.lft.to/lastmile_qr_scan"}}, {"bike_id": "839b78d2785d272ae4a291a16ddb42c7", "fusion_lon": 0.0, "name": "839b78d2785d272ae4a291a16ddb42c7", "lat": 38.87953133333333, "is_disabled": 0, "is_reserved": 0, "lon": -76.99015616666667, "type": "electric_scooter", "fusion_lat": 0.0, "rental_uris": {"android": "https://dc.lft.to/lastmile_qr_scan", "ios": "https://dc.lft.to/lastmile_qr_scan"}}, {"bike_id": "d7d7400d7ddc6d2b023e79b4d8fddee7", "fusion_lon": 0.0, "name": "d7d7400d7ddc6d2b023e79b4d8fddee7", "lat": 38.924584, "is_disabled": 0, "is_reserved": 0, "lon": -76.98360516666666, "type": "electric_scooter", "fusion_lat": 0.0, "rental_uris": {"android": "https://dc.lft.to/lastmile_qr_scan", "ios": "https://dc.lft.to/lastmile_qr_scan"}}, {"bike_id": "0cbdd6100948bfea4c4227554238bba5", "fusion_lon": 0.0, "name": "0cbdd6100948bfea4c4227554238bba5", "lat": 38.804463, "is_disabled": 0, "is_reserved": 0, "lon": -77.05381183333333, "type": "electric_bike", "fusion_lat": 0.0, "rental_uris": {"android": "https://dc.lft.to/lastmile_qr_scan", "ios": "https://dc.lft.to/lastmile_qr_scan"}}, {"bike_id": "e74a562e8a0e6c2dd8d99b13a2ceaeef", "fusion_lon": 0.0, "name": "e74a562e8a0e6c2dd8d99b13a2ceaeef", "lat": 38.903025, "is_disabled": 0, "is_reserved": 0, "lon": -77.04331166666667, "type": "electric_scooter", "fusion_lat": 0.0, "rental_uris": {"android": "https://dc.lft.to/lastmile_qr_scan", "ios": "https://dc.lft.to/lastmile_qr_scan"}}, {"bike_id": "ec563f90700788ded4e980cff92073e9", "fusion_lon": 0.0, "name": "ec563f90700788ded4e980cff92073e9", "lat": 38.89826583333333, "is_disabled": 0, "is_reserved": 0, "lon": -76.94629716666667, "type": "electric_scooter", "fusion_lat": 0.0, "rental_uris": {"android": "https://dc.lft.to/lastmile_qr_scan", "ios": "https://dc.lft.to/lastmile_qr_scan"}}, {"bike_id": "a30c1aceb18bfa2babd8430545f90d88", "fusion_lon": 0.0, "name": "a30c1aceb18bfa2babd8430545f90d88", "lat": 38.923184166666665, "is_disabled": 0, "is_reserved": 0, "lon": -77.03921683333333, "type": "electric_scooter", "fusion_lat": 0.0, "rental_uris": {"android": "https://dc.lft.to/lastmile_qr_scan", "ios": "https://dc.lft.to/lastmile_qr_scan"}}, {"bike_id": "3e7ecb274acc660ea9fd89f95dd4dbd0", "fusion_lon": 0.0, "name": "3e7ecb274acc660ea9fd89f95dd4dbd0", "lat": 38.914835333333336, "is_disabled": 0, "is_reserved": 0, "lon": -77.04560033333334, "type": "electric_scooter", "fusion_lat": 0.0, "rental_uris": {"android": "https://dc.lft.to/lastmile_qr_scan", "ios": "https://dc.lft.to/lastmile_qr_scan"}}, {"bike_id": "faca34ab00985d54352a04844966b2a1", "fusion_lon": 0.0, "name": "faca34ab00985d54352a04844966b2a1", "lat": 38.88327966666667, "is_disabled": 0, "is_reserved": 0, "lon": -77.01774683333333, "type": "electric_scooter", "fusion_lat": 0.0, "rental_uris": {"android": "https://dc.lft.to/lastmile_qr_scan", "ios": "https://dc.lft.to/lastmile_qr_scan"}}, {"bike_id": "9f411612c6a5067f3e6e757687c75517", "fusion_lon": 0.0, "name": "9f411612c6a5067f3e6e757687c75517", "lat": 38.90674766666667, "is_disabled": 0, "is_reserved": 0, "lon": -77.03478966666667, "type": "electric_scooter", "fusion_lat": 0.0, "rental_uris": {"android": "https://dc.lft.to/lastmile_qr_scan", "ios": "https://dc.lft.to/lastmile_qr_scan"}}, {"bike_id": "7fc8845af619d2014434926923a0146f", "fusion_lon": 0.0, "name": "7fc8845af619d2014434926923a0146f", "lat": 38.907191833333336, "is_disabled": 0, "is_reserved": 0, "lon": -77.03438916666667, "type": "electric_scooter", "fusion_lat": 0.0, "rental_uris": {"android": "https://dc.lft.to/lastmile_qr_scan", "ios": "https://dc.lft.to/lastmile_qr_scan"}}, {"bike_id": "f4386a6c20626697c0c90da91cfd15e1", "fusion_lon": 0.0, "name": "f4386a6c20626697c0c90da91cfd15e1", "lat": 38.876805166666664, "is_disabled": 0, "is_reserved": 0, "lon": -77.01792083333333, "type": "electric_scooter", "fusion_lat": 0.0, "rental_uris": {"android": "https://dc.lft.to/lastmile_qr_scan", "ios": "https://dc.lft.to/lastmile_qr_scan"}}, {"bike_id": "20e3693d9af979d013d354d775972b7b", "fusion_lon": 0.0, "name": "20e3693d9af979d013d354d775972b7b", "lat": 38.90383216666667, "is_disabled": 0, "is_reserved": 0, "lon": -77.03834033333334, "type": "electric_scooter", "fusion_lat": 0.0, "rental_uris": {"android": "https://dc.lft.to/lastmile_qr_scan", "ios": "https://dc.lft.to/lastmile_qr_scan"}}, {"bike_id": "70da5ab1b7a81e12264445b6a03bd1ec", "fusion_lon": 0.0, "name": "70da5ab1b7a81e12264445b6a03bd1ec", "lat": 38.926016833333335, "is_disabled": 0, "is_reserved": 0, "lon": -77.0215435, "type": "electric_scooter", "fusion_lat": 0.0, "rental_uris": {"android": "https://dc.lft.to/lastmile_qr_scan", "ios": "https://dc.lft.to/lastmile_qr_scan"}}, {"bike_id": "b81cfd1729659d3338c70acb0ebcea1e", "fusion_lon": 0.0, "name": "b81cfd1729659d3338c70acb0ebcea1e", "lat": 38.89233866666667, "is_disabled": 0, "is_reserved": 0, "lon": -77.033555, "type": "electric_scooter", "fusion_lat": 0.0, "rental_uris": {"android": "https://dc.lft.to/lastmile_qr_scan", "ios": "https://dc.lft.to/lastmile_qr_scan"}}, {"bike_id": "1ed29f6c734eb7251127170268782746", "fusion_lon": 0.0, "name": "1ed29f6c734eb7251127170268782746", "lat": 38.960834, "is_disabled": 0, "is_reserved": 0, "lon": -77.02887533333333, "type": "electric_scooter", "fusion_lat": 0.0, "rental_uris": {"android": "https://dc.lft.to/lastmile_qr_scan", "ios": "https://dc.lft.to/lastmile_qr_scan"}}, {"bike_id": "fa40bee6297b2705a566ab632342b75e", "fusion_lon": 0.0, "name": "fa40bee6297b2705a566ab632342b75e", "lat": 38.88706833333333, "is_disabled": 0, "is_reserved": 0, "lon": -77.00252866666666, "type": "electric_scooter", "fusion_lat": 0.0, "rental_uris": {"android": "https://dc.lft.to/lastmile_qr_scan", "ios": "https://dc.lft.to/lastmile_qr_scan"}}, {"bike_id": "fe480b543b2895cada0795e43de7ff0a", "fusion_lon": 0.0, "name": "fe480b543b2895cada0795e43de7ff0a", "lat": 38.8217515, "is_disabled": 0, "is_reserved": 0, "lon": -76.99511933333334, "type": "electric_bike", "fusion_lat": 0.0, "rental_uris": {"android": "https://dc.lft.to/lastmile_qr_scan", "ios": "https://dc.lft.to/lastmile_qr_scan"}}, {"bike_id": "8f2776c77ba42dd0c2250537c8d251be", "fusion_lon": 0.0, "name": "8f2776c77ba42dd0c2250537c8d251be", "lat": 38.90732283333333, "is_disabled": 0, "is_reserved": 0, "lon": -77.04338816666667, "type": "electric_scooter", "fusion_lat": 0.0, "rental_uris": {"android": "https://dc.lft.to/lastmile_qr_scan", "ios": "https://dc.lft.to/lastmile_qr_scan"}}, {"bike_id": "3626f9cc0782efa460822bcf262e907d", "fusion_lon": 0.0, "name": "3626f9cc0782efa460822bcf262e907d", "lat": 38.8992255, "is_disabled": 0, "is_reserved": 0, "lon": -77.03299983333334, "type": "electric_scooter", "fusion_lat": 0.0, "rental_uris": {"android": "https://dc.lft.to/lastmile_qr_scan", "ios": "https://dc.lft.to/lastmile_qr_scan"}}, {"bike_id": "a0052933d665ea6b6c02b8fbec6ccdd0", "fusion_lon": 0.0, "name": "a0052933d665ea6b6c02b8fbec6ccdd0", "lat": 38.91416366666667, "is_disabled": 0, "is_reserved": 0, "lon": -77.06932433333333, "type": "electric_bike", "fusion_lat": 0.0, "rental_uris": {"android": "https://dc.lft.to/lastmile_qr_scan", "ios": "https://dc.lft.to/lastmile_qr_scan"}}, {"bike_id": "21aa08effb13e3b18dcf3503861a6e03", "fusion_lon": 0.0, "name": "21aa08effb13e3b18dcf3503861a6e03", "lat": 38.9231295, "is_disabled": 0, "is_reserved": 0, "lon": -77.04196083333333, "type": "electric_scooter", "fusion_lat": 0.0, "rental_uris": {"android": "https://dc.lft.to/lastmile_qr_scan", "ios": "https://dc.lft.to/lastmile_qr_scan"}}, {"bike_id": "2f03672b5060df9505e2f27f35af2cea", "fusion_lon": 0.0, "name": "2f03672b5060df9505e2f27f35af2cea", "lat": 38.8655715, "is_disabled": 0, "is_reserved": 0, "lon": -76.98353533333334, "type": "electric_scooter", "fusion_lat": 0.0, "rental_uris": {"android": "https://dc.lft.to/lastmile_qr_scan", "ios": "https://dc.lft.to/lastmile_qr_scan"}}, {"bike_id": "928ea8b9b55682a6a89fabff8c6aa2f7", "fusion_lon": 0.0, "name": "928ea8b9b55682a6a89fabff8c6aa2f7", "lat": 38.882575333333335, "is_disabled": 0, "is_reserved": 0, "lon": -76.994919, "type": "electric_scooter", "fusion_lat": 0.0, "rental_uris": {"android": "https://dc.lft.to/lastmile_qr_scan", "ios": "https://dc.lft.to/lastmile_qr_scan"}}, {"bike_id": "3a825df91f4d67f1bee98786aed5bc71", "fusion_lon": 0.0, "name": "3a825df91f4d67f1bee98786aed5bc71", "lat": 38.92029616666667, "is_disabled": 0, "is_reserved": 0, "lon": -77.01291033333334, "type": "electric_scooter", "fusion_lat": 0.0, "rental_uris": {"android": "https://dc.lft.to/lastmile_qr_scan", "ios": "https://dc.lft.to/lastmile_qr_scan"}}, {"bike_id": "7f31ad125de4319ad07ec8bac4ca5c2c", "fusion_lon": 0.0, "name": "7f31ad125de4319ad07ec8bac4ca5c2c", "lat": 38.90736283333333, "is_disabled": 0, "is_reserved": 0, "lon": -77.04334766666666, "type": "electric_scooter", "fusion_lat": 0.0, "rental_uris": {"android": "https://dc.lft.to/lastmile_qr_scan", "ios": "https://dc.lft.to/lastmile_qr_scan"}}, {"bike_id": "81f31113bd55bf3b8bda9fad2e205b47", "fusion_lon": 0.0, "name": "81f31113bd55bf3b8bda9fad2e205b47", "lat": 38.87716533333333, "is_disabled": 0, "is_reserved": 0, "lon": -77.00729533333333, "type": "electric_scooter", "fusion_lat": 0.0, "rental_uris": {"android": "https://dc.lft.to/lastmile_qr_scan", "ios": "https://dc.lft.to/lastmile_qr_scan"}}, {"bike_id": "5ca9db4a9c4054043beed8e227cf990d", "fusion_lon": 0.0, "name": "5ca9db4a9c4054043beed8e227cf990d", "lat": 38.871317166666664, "is_disabled": 0, "is_reserved": 0, "lon": -77.10029616666667, "type": "electric_bike", "fusion_lat": 0.0, "rental_uris": {"android": "https://dc.lft.to/lastmile_qr_scan", "ios": "https://dc.lft.to/lastmile_qr_scan"}}, {"bike_id": "77813a68423d348eb4ff4f6250f54530", "fusion_lon": 0.0, "name": "77813a68423d348eb4ff4f6250f54530", "lat": 38.892210666666664, "is_disabled": 0, "is_reserved": 0, "lon": -77.047739, "type": "electric_scooter", "fusion_lat": 0.0, "rental_uris": {"android": "https://dc.lft.to/lastmile_qr_scan", "ios": "https://dc.lft.to/lastmile_qr_scan"}}, {"bike_id": "12d8029f12723ba8738bcef5c18e1130", "fusion_lon": 0.0, "name": "12d8029f12723ba8738bcef5c18e1130", "lat": 38.896038833333336, "is_disabled": 0, "is_reserved": 0, "lon": -77.05439433333333, "type": "electric_scooter", "fusion_lat": 0.0, "rental_uris": {"android": "https://dc.lft.to/lastmile_qr_scan", "ios": "https://dc.lft.to/lastmile_qr_scan"}}, {"bike_id": "0aa7aad55c0bdf7840b6ed38aa533871", "fusion_lon": 0.0, "name": "0aa7aad55c0bdf7840b6ed38aa533871", "lat": 38.89223366666667, "is_disabled": 0, "is_reserved": 0, "lon": -77.03377383333333, "type": "electric_scooter", "fusion_lat": 0.0, "rental_uris": {"android": "https://dc.lft.to/lastmile_qr_scan", "ios": "https://dc.lft.to/lastmile_qr_scan"}}, {"bike_id": "efcbac0251891e1120e869657831cfc5", "fusion_lon": 0.0, "name": "efcbac0251891e1120e869657831cfc5", "lat": 38.8994105, "is_disabled": 0, "is_reserved": 0, "lon": -77.04178866666666, "type": "electric_scooter", "fusion_lat": 0.0, "rental_uris": {"android": "https://dc.lft.to/lastmile_qr_scan", "ios": "https://dc.lft.to/lastmile_qr_scan"}}, {"bike_id": "54de22f8ac8709795bd65b68957c333b", "fusion_lon": 0.0, "name": "54de22f8ac8709795bd65b68957c333b", "lat": 38.90434833333333, "is_disabled": 0, "is_reserved": 0, "lon": -77.04048316666666, "type": "electric_scooter", "fusion_lat": 0.0, "rental_uris": {"android": "https://dc.lft.to/lastmile_qr_scan", "ios": "https://dc.lft.to/lastmile_qr_scan"}}, {"bike_id": "a590a14cf9925b9286cda1bfeb131b63", "fusion_lon": 0.0, "name": "a590a14cf9925b9286cda1bfeb131b63", "lat": 38.90316466666667, "is_disabled": 0, "is_reserved": 0, "lon": -77.04464633333333, "type": "electric_scooter", "fusion_lat": 0.0, "rental_uris": {"android": "https://dc.lft.to/lastmile_qr_scan", "ios": "https://dc.lft.to/lastmile_qr_scan"}}, {"bike_id": "41e1e4036f9985cd7af916cef61be5be", "fusion_lon": 0.0, "name": "41e1e4036f9985cd7af916cef61be5be", "lat": 38.8961225, "is_disabled": 0, "is_reserved": 0, "lon": -77.02637983333334, "type": "electric_scooter", "fusion_lat": 0.0, "rental_uris": {"android": "https://dc.lft.to/lastmile_qr_scan", "ios": "https://dc.lft.to/lastmile_qr_scan"}}, {"bike_id": "ec3ef7f0aa107dc58efce036c93620e4", "fusion_lon": 0.0, "name": "ec3ef7f0aa107dc58efce036c93620e4", "lat": 38.93196316666667, "is_disabled": 0, "is_reserved": 0, "lon": -77.03855666666666, "type": "electric_scooter", "fusion_lat": 0.0, "rental_uris": {"android": "https://dc.lft.to/lastmile_qr_scan", "ios": "https://dc.lft.to/lastmile_qr_scan"}}, {"bike_id": "6eb25a77e97f4e0ed59586c6a1a69c5d", "fusion_lon": 0.0, "name": "6eb25a77e97f4e0ed59586c6a1a69c5d", "lat": 38.89852533333333, "is_disabled": 0, "is_reserved": 0, "lon": -77.02863866666667, "type": "electric_scooter", "fusion_lat": 0.0, "rental_uris": {"android": "https://dc.lft.to/lastmile_qr_scan", "ios": "https://dc.lft.to/lastmile_qr_scan"}}, {"bike_id": "8c34f13e9aba362b79b050c2ec71d913", "fusion_lon": 0.0, "name": "8c34f13e9aba362b79b050c2ec71d913", "lat": 38.89921283333334, "is_disabled": 0, "is_reserved": 0, "lon": -76.9854065, "type": "electric_scooter", "fusion_lat": 0.0, "rental_uris": {"android": "https://dc.lft.to/lastmile_qr_scan", "ios": "https://dc.lft.to/lastmile_qr_scan"}}, {"bike_id": "e2c097f65ff3d00b68fd3f0f07f36ba4", "fusion_lon": 0.0, "name": "e2c097f65ff3d00b68fd3f0f07f36ba4", "lat": 38.855832166666666, "is_disabled": 0, "is_reserved": 0, "lon": -76.96659866666667, "type": "electric_scooter", "fusion_lat": 0.0, "rental_uris": {"android": "https://dc.lft.to/lastmile_qr_scan", "ios": "https://dc.lft.to/lastmile_qr_scan"}}, {"bike_id": "6655a1603e29c03888b915fd931993ee", "fusion_lon": 0.0, "name": "6655a1603e29c03888b915fd931993ee", "lat": 38.91367183333333, "is_disabled": 0, "is_reserved": 0, "lon": -77.03850866666667, "type": "electric_scooter", "fusion_lat": 0.0, "rental_uris": {"android": "https://dc.lft.to/lastmile_qr_scan", "ios": "https://dc.lft.to/lastmile_qr_scan"}}, {"bike_id": "abe4e97db3b2d4c0baad5e41b0f59f82", "fusion_lon": 0.0, "name": "abe4e97db3b2d4c0baad5e41b0f59f82", "lat": 38.92364833333333, "is_disabled": 0, "is_reserved": 0, "lon": -77.0502815, "type": "electric_scooter", "fusion_lat": 0.0, "rental_uris": {"android": "https://dc.lft.to/lastmile_qr_scan", "ios": "https://dc.lft.to/lastmile_qr_scan"}}, {"bike_id": "6d1074c0b8a49dffc48ea3b7fc2d7f5e", "fusion_lon": 0.0, "name": "6d1074c0b8a49dffc48ea3b7fc2d7f5e", "lat": 38.8921765, "is_disabled": 0, "is_reserved": 0, "lon": -77.0201065, "type": "electric_scooter", "fusion_lat": 0.0, "rental_uris": {"android": "https://dc.lft.to/lastmile_qr_scan", "ios": "https://dc.lft.to/lastmile_qr_scan"}}, {"bike_id": "14844f41c524952279b6dd961605edac", "fusion_lon": 0.0, "name": "14844f41c524952279b6dd961605edac", "lat": 38.93685883333333, "is_disabled": 0, "is_reserved": 0, "lon": -77.03631216666666, "type": "electric_scooter", "fusion_lat": 0.0, "rental_uris": {"android": "https://dc.lft.to/lastmile_qr_scan", "ios": "https://dc.lft.to/lastmile_qr_scan"}}, {"bike_id": "dde718ceb06bff89126287a313a7c60f", "fusion_lon": 0.0, "name": "dde718ceb06bff89126287a313a7c60f", "lat": 38.943207666666666, "is_disabled": 0, "is_reserved": 0, "lon": -77.01316933333334, "type": "electric_scooter", "fusion_lat": 0.0, "rental_uris": {"android": "https://dc.lft.to/lastmile_qr_scan", "ios": "https://dc.lft.to/lastmile_qr_scan"}}, {"bike_id": "0c671e2e632b958272ee0131636e02c6", "fusion_lon": 0.0, "name": "0c671e2e632b958272ee0131636e02c6", "lat": 38.90471016666667, "is_disabled": 0, "is_reserved": 0, "lon": -77.04478416666667, "type": "electric_scooter", "fusion_lat": 0.0, "rental_uris": {"android": "https://dc.lft.to/lastmile_qr_scan", "ios": "https://dc.lft.to/lastmile_qr_scan"}}, {"bike_id": "0f33fd517740ec06d4593c5f0cb38cf1", "fusion_lon": 0.0, "name": "0f33fd517740ec06d4593c5f0cb38cf1", "lat": 38.91297183333333, "is_disabled": 0, "is_reserved": 0, "lon": -77.04871066666666, "type": "electric_scooter", "fusion_lat": 0.0, "rental_uris": {"android": "https://dc.lft.to/lastmile_qr_scan", "ios": "https://dc.lft.to/lastmile_qr_scan"}}, {"bike_id": "801687d6ff52814b54733aa2ebc05791", "fusion_lon": 0.0, "name": "801687d6ff52814b54733aa2ebc05791", "lat": 38.901569, "is_disabled": 0, "is_reserved": 0, "lon": -77.0133605, "type": "electric_scooter", "fusion_lat": 0.0, "rental_uris": {"android": "https://dc.lft.to/lastmile_qr_scan", "ios": "https://dc.lft.to/lastmile_qr_scan"}},