{"data": {"bikes": [{"lon": -76.9949065, "bike_id": "214543aa3b17537327bb856fafb91d6b", "lat": 38.881859166666665, "fusion_lon": 0.0, "fusion_lat": 0.0, "type": "electric_scooter", "name": "214543aa3b17537327bb856fafb91d6b", "is_disabled": 0, "rental_uris": {"ios": "https://dc.lft.to/lastmile_qr_scan", "android": "https://dc.lft.to/lastmile_qr_scan"}, "is_reserved": 0}, {"lon": -77.05691466666667, "bike_id": "54b92e34edd66d2127817f7c31ef906f", "lat": 38.90544966666667, "fusion_lon": 0.0, "fusion_lat": 0.0, "type": "electric_scooter", "name": "54b92e34edd66d2127817f7c31ef906f", "is_disabled": 0, "rental_uris": {"ios": "https://dc.lft.to/lastmile_qr_scan", "android": "https://dc.lft.to/lastmile_qr_scan"}, "is_reserved": 0}, {"lon": -77.0434635, "bike_id": "d4645fd1d006abdf9be312bc8e2a70ef", "lat": 38.92147816666667, "fusion_lon": 0.0, "fusion_lat": 0.0, "type": "electric_scooter", "name": "d4645fd1d006abdf9be312bc8e2a70ef", "is_disabled": 0, "rental_uris": {"ios": "https://dc.lft.to/lastmile_qr_scan", "android": "https://dc.lft.to/lastmile_qr_scan"}, "is_reserved": 0}, {"lon": -77.01638816666667, "bike_id": "3a466b9a2dd38e6a0a614303c966d90c", "lat": 38.903449333333334, "fusion_lon": 0.0, "fusion_lat": 0.0, "type": "electric_scooter", "name": "3a466b9a2dd38e6a0a614303c966d90c", "is_disabled": 0, "rental_uris": {"ios": "https://dc.lft.to/lastmile_qr_scan", "android": "https://dc.lft.to/lastmile_qr_scan"}, "is_reserved": 0}, {"lon": -77.0417455, "bike_id": "07882f1baf00355fcc9ce0462a00b2e6", "lat": 38.917959333333336, "fusion_lon": 0.0, "fusion_lat": 0.0, "type": "electric_scooter", "name": "07882f1baf00355fcc9ce0462a00b2e6", "is_disabled": 0, "rental_uris": {"ios": "https://dc.lft.to/lastmile_qr_scan", "android": "https://dc.lft.to/lastmile_qr_scan"}, "is_reserved": 0}, {"lon": -77.02116066666666, "bike_id": "bb0e9f3d57bbe70df82d768d55663a7a", "lat": 38.936965666666666, "fusion_lon": 0.0, "fusion_lat": 0.0, "type": "electric_scooter", "name": "bb0e9f3d57bbe70df82d768d55663a7a", "is_disabled": 0, "rental_uris": {"ios": "https://dc.lft.to/lastmile_qr_scan", "android": "https://dc.lft.to/lastmile_qr_scan"}, "is_reserved": 0}, {"lon": -77.02966516666666, "bike_id": "39ab6e4d1ca70298382b20cbcd79b501", "lat": 38.932476333333334, "fusion_lon": 0.0, "fusion_lat": 0.0, "type": "electric_scooter", "name": "39ab6e4d1ca70298382b20cbcd79b501", "is_disabled": 0, "rental_uris": {"ios": "https://dc.lft.to/lastmile_qr_scan", "android": "https://dc.lft.to/lastmile_qr_scan"}, "is_reserved": 0}, {"lon": -77.02448816666667, "bike_id": "d3fe329041a0fa2243fb7bb214d4ae1b", "lat": 38.9141175, "fusion_lon": 0.0, "fusion_lat": 0.0, "type": "electric_scooter", "name": "d3fe329041a0fa2243fb7bb214d4ae1b", "is_disabled": 0, "rental_uris": {"ios": "https://dc.lft.to/lastmile_qr_scan", "android": "https://dc.lft.to/lastmile_qr_scan"}, "is_reserved": 0}, {"lon": -77.04106383333334, "bike_id": "88a25f085b21bcda8a8401ff838043f6", "lat": 38.92454, "fusion_lon": 0.0, "fusion_lat": 0.0, "type": "electric_scooter", "name": "88a25f085b21bcda8a8401ff838043f6", "is_disabled": 0, "rental_uris": {"ios": "https://dc.lft.to/lastmile_qr_scan", "android": "https://dc.lft.to/lastmile_qr_scan"}, "is_reserved": 0}, {"lon": -77.025218, "bike_id": "8dda4090f50bc995963bd4697ff1bfde", "lat": 38.9208005, "fusion_lon": 0.0, "fusion_lat": 0.0, "type": "electric_scooter", "name": "8dda4090f50bc995963bd4697ff1bfde", "is_disabled": 0, "rental_uris": {"ios": "https://dc.lft.to/lastmile_qr_scan", "android": "https://dc.lft.to/lastmile_qr_scan"}, "is_reserved": 0}, {"lon": -76.95330533333333, "bike_id": "7316f87e4dfe513cd3168e43f7bc5813", "lat": 38.889311666666664, "fusion_lon": 0.0, "fusion_lat": 0.0, "type": "electric_scooter", "name": "7316f87e4dfe513cd3168e43f7bc5813", "is_disabled": 0, "rental_uris": {"ios": "https://dc.lft.to/lastmile_qr_scan", "android": "https://dc.lft.to/lastmile_qr_scan"}, "is_reserved": 0}, {"lon": -77.06129333333334, "bike_id": "cdaf198591646a9438c1a6feaa62f335", "lat": 38.94348816666667, "fusion_lon": 0.0, "fusion_lat": 0.0, "type": "electric_scooter", "name": "cdaf198591646a9438c1a6feaa62f335", "is_disabled": 0, "rental_uris": {"ios": "https://dc.lft.to/lastmile_qr_scan", "android": "https://dc.lft.to/lastmile_qr_scan"}, "is_reserved": 0}, {"lon": -77.07791816666666, "bike_id": "b68d89230dcbecffdd649aa625a1ace5", "lat": 38.996009666666666, "fusion_lon": 0.0, "fusion_lat": 0.0, "type": "electric_bike", "name": "b68d89230dcbecffdd649aa625a1ace5", "is_disabled": 0, "rental_uris": {"ios": "https://dc.lft.to/lastmile_qr_scan", "android": "https://dc.lft.to/lastmile_qr_scan"}, "is_reserved": 0}, {"lon": -77.024277, "bike_id": "0df95245dc2125c5775d1b41ed0aa2d0", "lat": 38.9228715, "fusion_lon": 0.0, "fusion_lat": 0.0, "type": "electric_scooter", "name": "0df95245dc2125c5775d1b41ed0aa2d0", "is_disabled": 0, "rental_uris": {"ios": "https://dc.lft.to/lastmile_qr_scan", "android": "https://dc.lft.to/lastmile_qr_scan"}, "is_reserved": 0}, {"lon": -77.04382316666667, "bike_id": "b1e18c5ee94acdec7e7448538628cad8", "lat": 38.9058075, "fusion_lon": 0.0, "fusion_lat": 0.0, "type": "electric_scooter", "name": "b1e18c5ee94acdec7e7448538628cad8", "is_disabled": 0, "rental_uris": {"ios": "https://dc.lft.to/lastmile_qr_scan", "android": "https://dc.lft.to/lastmile_qr_scan"}, "is_reserved": 0}, {"lon": -77.019943, "bike_id": "0ac2fa5058ba63172a155e28d8b72a50", "lat": 38.886058, "fusion_lon": 0.0, "fusion_lat": 0.0, "type": "electric_scooter", "name": "0ac2fa5058ba63172a155e28d8b72a50", "is_disabled": 0, "rental_uris": {"ios": "https://dc.lft.to/lastmile_qr_scan", "android": "https://dc.lft.to/lastmile_qr_scan"}, "is_reserved": 0}, {"lon": -77.031824, "bike_id": "1e8f8ae9df75a48aa5aef90e92c84583", "lat": 38.919037, "fusion_lon": 0.0, "fusion_lat": 0.0, "type": "electric_scooter", "name": "1e8f8ae9df75a48aa5aef90e92c84583", "is_disabled": 0, "rental_uris": {"ios": "https://dc.lft.to/lastmile_qr_scan", "android": "https://dc.lft.to/lastmile_qr_scan"}, "is_reserved": 0}, {"lon": -77.02451916666666, "bike_id": "0263ddc7d7d825a753b9d9a671995656", "lat": 38.93844266666667, "fusion_lon": 0.0, "fusion_lat": 0.0, "type": "electric_scooter", "name": "0263ddc7d7d825a753b9d9a671995656", "is_disabled": 0, "rental_uris": {"ios": "https://dc.lft.to/lastmile_qr_scan", "android": "https://dc.lft.to/lastmile_qr_scan"}, "is_reserved": 0}, {"lon": -77.02804916666666, "bike_id": "ed18a71d8b41a4337fdb77ea37a8f96c", "lat": 38.9113215, "fusion_lon": 0.0, "fusion_lat": 0.0, "type": "electric_scooter", "name": "ed18a71d8b41a4337fdb77ea37a8f96c", "is_disabled": 0, "rental_uris": {"ios": "https://dc.lft.to/lastmile_qr_scan", "android": "https://dc.lft.to/lastmile_qr_scan"}, "is_reserved": 0}, {"lon": -77.024734, "bike_id": "6daf85997dca1b86352ba5720dd9be3c", "lat": 38.903958, "fusion_lon": 0.0, "fusion_lat": 0.0, "type": "electric_scooter", "name": "6daf85997dca1b86352ba5720dd9be3c", "is_disabled": 0, "rental_uris": {"ios": "https://dc.lft.to/lastmile_qr_scan", "android": "https://dc.lft.to/lastmile_qr_scan"}, "is_reserved": 0}, {"lon": -77.035878, "bike_id": "3ce6be7b3a5c47e68b12cf605b42a429", "lat": 38.90963983333333, "fusion_lon": 0.0, "fusion_lat": 0.0, "type": "electric_scooter", "name": "3ce6be7b3a5c47e68b12cf605b42a429", "is_disabled": 0, "rental_uris": {"ios": "https://dc.lft.to/lastmile_qr_scan", "android": "https://dc.lft.to/lastmile_qr_scan"}, "is_reserved": 0}, {"lon": -77.001899, "bike_id": "fdb1a0084e53f87f17d094fd0d36cc5e", "lat": 38.890952666666664, "fusion_lon": 0.0, "fusion_lat": 0.0, "type": "electric_scooter", "name": "fdb1a0084e53f87f17d094fd0d36cc5e", "is_disabled": 0, "rental_uris": {"ios": "https://dc.lft.to/lastmile_qr_scan", "android": "https://dc.lft.to/lastmile_qr_scan"}, "is_reserved": 0}, {"lon": -77.04981616666667, "bike_id": "959cf5d433c8a3c96c7a8cbcfde27142", "lat": 38.900578333333335, "fusion_lon": 0.0, "fusion_lat": 0.0, "type": "electric_scooter", "name": "959cf5d433c8a3c96c7a8cbcfde27142", "is_disabled": 0, "rental_uris": {"ios": "https://dc.lft.to/lastmile_qr_scan", "android": "https://dc.lft.to/lastmile_qr_scan"}, "is_reserved": 0}, {"lon": -77.02999016666666, "bike_id": "327d1209dd658706248f5ce9fc22fce2", "lat": 39.04195883333333, "fusion_lon": 0.0, "fusion_lat": 0.0, "type": "electric_bike", "name": "327d1209dd658706248f5ce9fc22fce2", "is_disabled": 0, "rental_uris": {"ios": "https://dc.lft.to/lastmile_qr_scan", "android": "https://dc.lft.to/lastmile_qr_scan"}, "is_reserved": 0}, {"lon": -77.02682316666667, "bike_id": "59e9e260f5f0249556e0c68b7fa21431", "lat": 38.90242966666667, "fusion_lon": 0.0, "fusion_lat": 0.0, "type": "electric_scooter", "name": "59e9e260f5f0249556e0c68b7fa21431", "is_disabled": 0, "rental_uris": {"ios": "https://dc.lft.to/lastmile_qr_scan", "android": "https://dc.lft.to/lastmile_qr_scan"}, "is_reserved": 0}, {"lon": -77.04976316666666, "bike_id": "a75a98971e22d99129fd625487f3ae6f", "lat": 38.89995666666667, "fusion_lon": 0.0, "fusion_lat": 0.0, "type": "electric_scooter", "name": "a75a98971e22d99129fd625487f3ae6f", "is_disabled": 0, "rental_uris": {"ios": "https://dc.lft.to/lastmile_qr_scan", "android": "https://dc.lft.to/lastmile_qr_scan"}, "is_reserved": 0}, {"lon": -77.02712916666667, "bike_id": "4469eb705e529680e4bf249a657fabd7", "lat": 38.93467183333333, "fusion_lon": 0.0, "fusion_lat": 0.0, "type": "electric_scooter", "name": "4469eb705e529680e4bf249a657fabd7", "is_disabled": 0, "rental_uris": {"ios": "https://dc.lft.to/lastmile_qr_scan", "android": "https://dc.lft.to/lastmile_qr_scan"}, "is_reserved": 0}, {"lon": -77.02494716666666, "bike_id": "96946d1c9fc62db869ae1d287a73ab35", "lat": 38.919856833333334, "fusion_lon": 0.0, "fusion_lat": 0.0, "type": "electric_scooter", "name": "96946d1c9fc62db869ae1d287a73ab35", "is_disabled": 0, "rental_uris": {"ios": "https://dc.lft.to/lastmile_qr_scan", "android": "https://dc.lft.to/lastmile_qr_scan"}, "is_reserved": 0}, {"lon": -77.04321283333333, "bike_id": "b022683658f276632f371c0c1e08ae6a", "lat": 38.91879816666667, "fusion_lon": 0.0, "fusion_lat": 0.0, "type": "electric_scooter", "name": "b022683658f276632f371c0c1e08ae6a", "is_disabled": 0, "rental_uris": {"ios": "https://dc.lft.to/lastmile_qr_scan", "android": "https://dc.lft.to/lastmile_qr_scan"}, "is_reserved": 0}, {"lon": -77.0642605, "bike_id": "36cea20877d7bfc00d0727252da7f656", "lat": 38.908879166666665, "fusion_lon": 0.0, "fusion_lat": 0.0, "type": "electric_scooter", "name": "36cea20877d7bfc00d0727252da7f656", "is_disabled": 0, "rental_uris": {"ios": "https://dc.lft.to/lastmile_qr_scan", "android": "https://dc.lft.to/lastmile_qr_scan"}, "is_reserved": 0}, {"lon": -77.01988633333333, "bike_id": "b36f405255b4ea7054dd11b99a75b4b9", "lat": 38.90287033333333, "fusion_lon": 0.0, "fusion_lat": 0.0, "type": "electric_scooter", "name": "b36f405255b4ea7054dd11b99a75b4b9", "is_disabled": 0, "rental_uris": {"ios": "https://dc.lft.to/lastmile_qr_scan", "android": "https://dc.lft.to/lastmile_qr_scan"}, "is_reserved": 0}, {"lon": -77.03905183333333, "bike_id": "78066da7cf26057bb385b122ca897378", "lat": 38.91422033333333, "fusion_lon": 0.0, "fusion_lat": 0.0, "type": "electric_scooter", "name": "78066da7cf26057bb385b122ca897378", "is_disabled": 0, "rental_uris": {"ios": "https://dc.lft.to/lastmile_qr_scan", "android": "https://dc.lft.to/lastmile_qr_scan"}, "is_reserved": 0}, {"lon": -77.0340325, "bike_id": "3aeadfbe99448648e49414136f2b04d9", "lat": 38.96025366666667, "fusion_lon": 0.0, "fusion_lat": 0.0, "type": "electric_bike", "name": "3aeadfbe99448648e49414136f2b04d9", "is_disabled": 0, "rental_uris": {"ios": "https://dc.lft.to/lastmile_qr_scan", "android": "https://dc.lft.to/lastmile_qr_scan"}, "is_reserved": 0}, {"lon": -77.04245516666667, "bike_id": "cbd6591b75b611afcc83d8f240258867", "lat": 38.922435166666666, "fusion_lon": 0.0, "fusion_lat": 0.0, "type": "electric_scooter", "name": "cbd6591b75b611afcc83d8f240258867", "is_disabled": 0, "rental_uris": {"ios": "https://dc.lft.to/lastmile_qr_scan", "android": "https://dc.lft.to/lastmile_qr_scan"}, "is_reserved": 0}, {"lon": -76.99852116666666, "bike_id": "3ccce5c2082762aa6b55435fd3c5daa7", "lat": 38.8415895, "fusion_lon": 0.0, "fusion_lat": 0.0, "type": "electric_scooter", "name": "3ccce5c2082762aa6b55435fd3c5daa7", "is_disabled": 0, "rental_uris": {"ios": "https://dc.lft.to/lastmile_qr_scan", "android": "https://dc.lft.to/lastmile_qr_scan"}, "is_reserved": 0}, {"lon": -77.1248965, "bike_id": "a58a698a76c7cee393e8cb35a8eee418", "lat": 38.82784516666667, "fusion_lon": 0.0, "fusion_lat": 0.0, "type": "electric_bike", "name": "a58a698a76c7cee393e8cb35a8eee418", "is_disabled": 0, "rental_uris": {"ios": "https://dc.lft.to/lastmile_qr_scan", "android": "https://dc.lft.to/lastmile_qr_scan"}, "is_reserved": 0}, {"lon": -77.00281116666666, "bike_id": "e86996727b60af32ef411c8ea6b620b8", "lat": 38.957111, "fusion_lon": 0.0, "fusion_lat": 0.0, "type": "electric_bike", "name": "e86996727b60af32ef411c8ea6b620b8", "is_disabled": 0, "rental_uris": {"ios": "https://dc.lft.to/lastmile_qr_scan", "android": "https://dc.lft.to/lastmile_qr_scan"}, "is_reserved": 0}, {"lon": -76.98555733333333, "bike_id": "1766059205a2d3831170709128dbb594", "lat": 38.899544666666664, "fusion_lon": 0.0, "fusion_lat": 0.0, "type": "electric_scooter", "name": "1766059205a2d3831170709128dbb594", "is_disabled": 0, "rental_uris": {"ios": "https://dc.lft.to/lastmile_qr_scan", "android": "https://dc.lft.to/lastmile_qr_scan"}, "is_reserved": 0}, {"lon": -77.04361966666667, "bike_id": "7068fa4418b239abf18c3dbb947ba29f", "lat": 38.92151333333333, "fusion_lon": 0.0, "fusion_lat": 0.0, "type": "electric_scooter", "name": "7068fa4418b239abf18c3dbb947ba29f", "is_disabled": 0, "rental_uris": {"ios": "https://dc.lft.to/lastmile_qr_scan", "android": "https://dc.lft.to/lastmile_qr_scan"}, "is_reserved": 0}, {"lon": -77.02976083333333, "bike_id": "1726843e2acf4b2c36b8687c144bf664", "lat": 38.9306565, "fusion_lon": 0.0, "fusion_lat": 0.0, "type": "electric_scooter", "name": "1726843e2acf4b2c36b8687c144bf664", "is_disabled": 0, "rental_uris": {"ios": "https://dc.lft.to/lastmile_qr_scan", "android": "https://dc.lft.to/lastmile_qr_scan"}, "is_reserved": 0}, {"lon": -77.02009716666667, "bike_id": "2965e41b52c740534523f320165b9b67", "lat": 38.9241865, "fusion_lon": 0.0, "fusion_lat": 0.0, "type": "electric_scooter", "name": "2965e41b52c740534523f320165b9b67", "is_disabled": 0, "rental_uris": {"ios": "https://dc.lft.to/lastmile_qr_scan", "android": "https://dc.lft.to/lastmile_qr_scan"}, "is_reserved": 0}, {"lon": -77.019057, "bike_id": "1e6ea4cfa57f1dde5cd457ec16bc35f4", "lat": 39.011782833333335, "fusion_lon": 0.0, "fusion_lat": 0.0, "type": "electric_bike", "name": "1e6ea4cfa57f1dde5cd457ec16bc35f4", "is_disabled": 0, "rental_uris": {"ios": "https://dc.lft.to/lastmile_qr_scan", "android": "https://dc.lft.to/lastmile_qr_scan"}, "is_reserved": 0}, {"lon": -76.98988416666667, "bike_id": "62415f0a2e6c21e535b15112be817d35", "lat": 38.93361866666667, "fusion_lon": 0.0, "fusion_lat": 0.0, "type": "electric_scooter", "name": "62415f0a2e6c21e535b15112be817d35", "is_disabled": 0, "rental_uris": {"ios": "https://dc.lft.to/lastmile_qr_scan", "android": "https://dc.lft.to/lastmile_qr_scan"}, "is_reserved": 0}, {"lon": -77.032644, "bike_id": "c88ebdb05274d668e8ae2f7eda0df62c", "lat": 38.901295, "fusion_lon": 0.0, "fusion_lat": 0.0, "type": "electric_scooter", "name": "c88ebdb05274d668e8ae2f7eda0df62c", "is_disabled": 0, "rental_uris": {"ios": "https://dc.lft.to/lastmile_qr_scan", "android": "https://dc.lft.to/lastmile_qr_scan"}, "is_reserved": 0}, {"lon": -77.057474, "bike_id": "ae4d03685e5158110c699788b1bcf3f8", "lat": 38.9335385, "fusion_lon": 0.0, "fusion_lat": 0.0, "type": "electric_scooter", "name": "ae4d03685e5158110c699788b1bcf3f8", "is_disabled": 0, "rental_uris": {"ios": "https://dc.lft.to/lastmile_qr_scan", "android": "https://dc.lft.to/lastmile_qr_scan"}, "is_reserved": 0}, {"lon": -77.0415115, "bike_id": "6d0590b5e93f419e5a4e2d3928264f4c", "lat": 38.917176833333336, "fusion_lon": 0.0, "fusion_lat": 0.0, "type": "electric_scooter", "name": "6d0590b5e93f419e5a4e2d3928264f4c", "is_disabled": 0, "rental_uris": {"ios": "https://dc.lft.to/lastmile_qr_scan", "android": "https://dc.lft.to/lastmile_qr_scan"}, "is_reserved": 0}, {"lon": -76.99035683333334, "bike_id": "dbce93150924d7df2fc90a9ef3465eee", "lat": 38.88874633333333, "fusion_lon": 0.0, "fusion_lat": 0.0, "type": "electric_scooter", "name": "dbce93150924d7df2fc90a9ef3465eee", "is_disabled": 0, "rental_uris": {"ios": "https://dc.lft.to/lastmile_qr_scan", "android": "https://dc.lft.to/lastmile_qr_scan"}, "is_reserved": 0}, {"lon": -77.04164533333334, "bike_id": "0e9fe5ad5c063f8c3412d4a7abe02af5", "lat": 38.9198035, "fusion_lon": 0.0, "fusion_lat": 0.0, "type": "electric_scooter", "name": "0e9fe5ad5c063f8c3412d4a7abe02af5", "is_disabled": 0, "rental_uris": {"ios": "https://dc.lft.to/lastmile_qr_scan", "android": "https://dc.lft.to/lastmile_qr_scan"}, "is_reserved": 0}, {"lon": -76.980191, "bike_id": "6535cff5897732f6f6a6e00e28478830", "lat": 38.853214666666666, "fusion_lon": 0.0, "fusion_lat": 0.0, "type": "electric_bike", "name": "6535cff5897732f6f6a6e00e28478830", "is_disabled": 0, "rental_uris": {"ios": "https://dc.lft.to/lastmile_qr_scan", "android": "https://dc.lft.to/lastmile_qr_scan"}, "is_reserved": 0}, {"lon": -77.03210433333334, "bike_id": "cba8ceab09a4c9f7e67cdb2217f356a7", "lat": 38.9147345, "fusion_lon": 0.0, "fusion_lat": 0.0, "type": "electric_scooter", "name": "cba8ceab09a4c9f7e67cdb2217f356a7", "is_disabled": 0, "rental_uris": {"ios": "https://dc.lft.to/lastmile_qr_scan", "android": "https://dc.lft.to/lastmile_qr_scan"}, "is_reserved": 0}, {"lon": -77.04142533333334, "bike_id": "b71c257b0ef1c88473a1a7d3c696881d", "lat": 38.9196705, "fusion_lon": 0.0, "fusion_lat": 0.0, "type": "electric_scooter", "name": "b71c257b0ef1c88473a1a7d3c696881d", "is_disabled": 0, "rental_uris": {"ios": "https://dc.lft.to/lastmile_qr_scan", "android": "https://dc.lft.to/lastmile_qr_scan"}, "is_reserved": 0}, {"lon": -76.94878366666667, "bike_id": "b2233c68e8b36ac00db3181bcbbadb87", "lat": 38.895089166666665, "fusion_lon": 0.0, "fusion_lat": 0.0, "type": "electric_scooter", "name": "b2233c68e8b36ac00db3181bcbbadb87", "is_disabled": 0, "rental_uris": {"ios": "https://dc.lft.to/lastmile_qr_scan", "android": "https://dc.lft.to/lastmile_qr_scan"}, "is_reserved": 0}, {"lon": -76.99525216666666, "bike_id": "49d1c280a2e906eb826bba43a2ccf37b", "lat": 38.862595666666664, "fusion_lon": 0.0, "fusion_lat": 0.0, "type": "electric_scooter", "name": "49d1c280a2e906eb826bba43a2ccf37b", "is_disabled": 0, "rental_uris": {"ios": "https://dc.lft.to/lastmile_qr_scan", "android": "https://dc.lft.to/lastmile_qr_scan"}, "is_reserved": 0}, {"lon": -77.021675, "bike_id": "d8583435870246b419dc6fe894f266b6", "lat": 38.942948, "fusion_lon": 0.0, "fusion_lat": 0.0, "type": "electric_scooter", "name": "d8583435870246b419dc6fe894f266b6", "is_disabled": 0, "rental_uris": {"ios": "https://dc.lft.to/lastmile_qr_scan", "android": "https://dc.lft.to/lastmile_qr_scan"}, "is_reserved": 0}, {"lon": -77.036568, "bike_id": "3182b664595f2767c627842b67483d70", "lat": 38.936064333333334, "fusion_lon": 0.0, "fusion_lat": 0.0, "type": "electric_scooter", "name": "3182b664595f2767c627842b67483d70", "is_disabled": 0, "rental_uris": {"ios": "https://dc.lft.to/lastmile_qr_scan", "android": "https://dc.lft.to/lastmile_qr_scan"}, "is_reserved": 0}, {"lon": -77.03437016666666, "bike_id": "34151c33f5f9fdb54db16b0209b15da4", "lat": 38.914921666666665, "fusion_lon": 0.0, "fusion_lat": 0.0, "type": "electric_scooter", "name": "34151c33f5f9fdb54db16b0209b15da4", "is_disabled": 0, "rental_uris": {"ios": "https://dc.lft.to/lastmile_qr_scan", "android": "https://dc.lft.to/lastmile_qr_scan"}, "is_reserved": 0}, {"lon": -77.0408905, "bike_id": "98d2e16b09a7585dfa6ede7932241c88", "lat": 38.9155935, "fusion_lon": 0.0, "fusion_lat": 0.0, "type": "electric_scooter", "name": "98d2e16b09a7585dfa6ede7932241c88", "is_disabled": 0, "rental_uris": {"ios": "https://dc.lft.to/lastmile_qr_scan", "android": "https://dc.lft.to/lastmile_qr_scan"}, "is_reserved": 0}, {"lon": -76.98900583333334, "bike_id": "6089796b98e6fe085512a4549e1a2c8f", "lat": 38.913441166666665, "fusion_lon": 0.0, "fusion_lat": 0.0, "type": "electric_scooter", "name": "6089796b98e6fe085512a4549e1a2c8f", "is_disabled": 0, "rental_uris": {"ios": "https://dc.lft.to/lastmile_qr_scan", "android": "https://dc.lft.to/lastmile_qr_scan"}, "is_reserved": 0}, {"lon": -77.00724, "bike_id": "1de892acd0f5bc2dd2f78f9c686ae83c", "lat": 38.90514816666666, "fusion_lon": 0.0, "fusion_lat": 0.0, "type": "electric_scooter", "name": "1de892acd0f5bc2dd2f78f9c686ae83c", "is_disabled": 0, "rental_uris": {"ios": "https://dc.lft.to/lastmile_qr_scan", "android": "https://dc.lft.to/lastmile_qr_scan"}, "is_reserved": 0}, {"lon": -77.0209215, "bike_id": "8b673bba71240c40c3f114e27906060d", "lat": 38.904065833333334, "fusion_lon": 0.0, "fusion_lat": 0.0, "type": "electric_scooter", "name": "8b673bba71240c40c3f114e27906060d", "is_disabled": 0, "rental_uris": {"ios": "https://dc.lft.to/lastmile_qr_scan", "android": "https://dc.lft.to/lastmile_qr_scan"}, "is_reserved": 0}, {"lon": -77.02832, "bike_id": "18ddd5f791a8dfb1a270b23e6c69f5ac", "lat": 38.902482666666664, "fusion_lon": 0.0, "fusion_lat": 0.0, "type": "electric_scooter", "name": "18ddd5f791a8dfb1a270b23e6c69f5ac", "is_disabled": 0, "rental_uris": {"ios": "https://dc.lft.to/lastmile_qr_scan", "android": "https://dc.lft.to/lastmile_qr_scan"}, "is_reserved": 0}, {"lon": -77.03385966666667, "bike_id": "f638e075fae160bc20b2495993e41754", "lat": 38.902685166666664, "fusion_lon": 0.0, "fusion_lat": 0.0, "type": "electric_scooter", "name": "f638e075fae160bc20b2495993e41754", "is_disabled": 0, "rental_uris": {"ios": "https://dc.lft.to/lastmile_qr_scan", "android": "https://dc.lft.to/lastmile_qr_scan"}, "is_reserved": 0}, {"lon": -77.00837983333334, "bike_id": "776a09037f64e0f2e399764de8931ba5", "lat": 38.91620833333333, "fusion_lon": 0.0, "fusion_lat": 0.0, "type": "electric_scooter", "name": "776a09037f64e0f2e399764de8931ba5", "is_disabled": 0, "rental_uris": {"ios": "https://dc.lft.to/lastmile_qr_scan", "android": "https://dc.lft.to/lastmile_qr_scan"}, "is_reserved": 0}, {"lon": -77.0134845, "bike_id": "a0d8199666bb41057511c3c5e828c0de", "lat": 38.91273, "fusion_lon": 0.0, "fusion_lat": 0.0, "type": "electric_scooter", "name": "a0d8199666bb41057511c3c5e828c0de", "is_disabled": 0, "rental_uris": {"ios": "https://dc.lft.to/lastmile_qr_scan", "android": "https://dc.lft.to/lastmile_qr_scan"}, "is_reserved": 0}, {"lon": -77.0426, "bike_id": "39cb834a694e5c8e5e4ad8a28fbe27ac", "lat": 38.90011483333333, "fusion_lon": 0.0, "fusion_lat": 0.0, "type": "electric_scooter", "name": "39cb834a694e5c8e5e4ad8a28fbe27ac", "is_disabled": 0, "rental_uris": {"ios": "https://dc.lft.to/lastmile_qr_scan", "android": "https://dc.lft.to/lastmile_qr_scan"}, "is_reserved": 0}, {"lon": -77.03823883333334, "bike_id": "3a71e447a45502e617647eb28550bd77", "lat": 38.906704833333336, "fusion_lon": 0.0, "fusion_lat": 0.0, "type": "electric_scooter", "name": "3a71e447a45502e617647eb28550bd77", "is_disabled": 0, "rental_uris": {"ios": "https://dc.lft.to/lastmile_qr_scan", "android": "https://dc.lft.to/lastmile_qr_scan"}, "is_reserved": 0}, {"lon": -76.98491166666666, "bike_id": "6e58093cfe099607dd5578b12ac94c40", "lat": 38.87833933333334, "fusion_lon": 0.0, "fusion_lat": 0.0, "type": "electric_scooter", "name": "6e58093cfe099607dd5578b12ac94c40", "is_disabled": 0, "rental_uris": {"ios": "https://dc.lft.to/lastmile_qr_scan", "android": "https://dc.lft.to/lastmile_qr_scan"}, "is_reserved": 0}, {"lon": -76.9441015, "bike_id": "9da5094cca086c1f569f1ae4591a24ca", "lat": 38.886107333333335, "fusion_lon": 0.0, "fusion_lat": 0.0, "type": "electric_scooter", "name": "9da5094cca086c1f569f1ae4591a24ca", "is_disabled": 0, "rental_uris": {"ios": "https://dc.lft.to/lastmile_qr_scan", "android": "https://dc.lft.to/lastmile_qr_scan"}, "is_reserved": 0}, {"lon": -77.02387416666667, "bike_id": "e2b83f4dd59c29950b6a13ed22fb1c83", "lat": 38.898246, "fusion_lon": 0.0, "fusion_lat": 0.0, "type": "electric_scooter", "name": "e2b83f4dd59c29950b6a13ed22fb1c83", "is_disabled": 0, "rental_uris": {"ios": "https://dc.lft.to/lastmile_qr_scan", "android": "https://dc.lft.to/lastmile_qr_scan"}, "is_reserved": 0}, {"lon": -77.06007733333334, "bike_id": "499c2846d3c465c06b94bd6d18a285d3", "lat": 38.901146833333335, "fusion_lon": 0.0, "fusion_lat": 0.0, "type": "electric_scooter", "name": "499c2846d3c465c06b94bd6d18a285d3", "is_disabled": 0, "rental_uris": {"ios": "https://dc.lft.to/lastmile_qr_scan", "android": "https://dc.lft.to/lastmile_qr_scan"}, "is_reserved": 0}, {"lon": -77.02515, "bike_id": "934d5de6c7557274b0764f358d656d0b", "lat": 38.91682266666667, "fusion_lon": 0.0, "fusion_lat": 0.0, "type": "electric_scooter", "name": "934d5de6c7557274b0764f358d656d0b", "is_disabled": 0, "rental_uris": {"ios": "https://dc.lft.to/lastmile_qr_scan", "android": "https://dc.lft.to/lastmile_qr_scan"}, "is_reserved": 0}, {"lon": -77.043302, "bike_id": "5e99db2acbf181403aa5acefe1b3b740", "lat": 38.91605233333333, "fusion_lon": 0.0, "fusion_lat": 0.0, "type": "electric_scooter", "name": "5e99db2acbf181403aa5acefe1b3b740", "is_disabled": 0, "rental_uris": {"ios": "https://dc.lft.to/lastmile_qr_scan", "android": "https://dc.lft.to/lastmile_qr_scan"}, "is_reserved": 0}, {"lon": -77.04491533333334, "bike_id": "549a7b6006631c92a5aed3d4e8e3bf18", "lat": 38.9135625, "fusion_lon": 0.0, "fusion_lat": 0.0, "type": "electric_scooter", "name": "549a7b6006631c92a5aed3d4e8e3bf18", "is_disabled": 0, "rental_uris": {"ios": "https://dc.lft.to/lastmile_qr_scan", "android": "https://dc.lft.to/lastmile_qr_scan"}, "is_reserved": 0}, {"lon": -77.0326, "bike_id": "fbe697698fe05c64f4051ea3b3aa292a", "lat": 38.93773366666667, "fusion_lon": 0.0, "fusion_lat": 0.0, "type": "electric_scooter", "name": "fbe697698fe05c64f4051ea3b3aa292a", "is_disabled": 0, "rental_uris": {"ios": "https://dc.lft.to/lastmile_qr_scan", "android": "https://dc.lft.to/lastmile_qr_scan"}, "is_reserved": 0}, {"lon": -76.96525083333333, "bike_id": "e7e0df48a594226afcb91e571c56d6e2", "lat": 38.87626683333333, "fusion_lon": 0.0, "fusion_lat": 0.0, "type": "electric_scooter", "name": "e7e0df48a594226afcb91e571c56d6e2", "is_disabled": 0, "rental_uris": {"ios": "https://dc.lft.to/lastmile_qr_scan", "android": "https://dc.lft.to/lastmile_qr_scan"}, "is_reserved": 0}, {"lon": -77.02516783333333, "bike_id": "ac88d86cd9d9ce69aeaacc96ad3ac34a", "lat": 38.9126465, "fusion_lon": 0.0, "fusion_lat": 0.0, "type": "electric_scooter", "name": "ac88d86cd9d9ce69aeaacc96ad3ac34a", "is_disabled": 0, "rental_uris": {"ios": "https://dc.lft.to/lastmile_qr_scan", "android": "https://dc.lft.to/lastmile_qr_scan"}, "is_reserved": 0}, {"lon": -77.05016183333333, "bike_id": "8a3a084e8f9321a7cba1aba75a3111ae", "lat": 38.915648166666664, "fusion_lon": 0.0, "fusion_lat": 0.0, "type": "electric_scooter", "name": "8a3a084e8f9321a7cba1aba75a3111ae", "is_disabled": 0, "rental_uris": {"ios": "https://dc.lft.to/lastmile_qr_scan", "android": "https://dc.lft.to/lastmile_qr_scan"}, "is_reserved": 0}, {"lon": -77.00324416666666, "bike_id": "9e8e7636773a60a4c1e3975f6a65b181", "lat": 38.89726616666667, "fusion_lon": 0.0, "fusion_lat": 0.0, "type": "electric_scooter", "name": "9e8e7636773a60a4c1e3975f6a65b181", "is_disabled": 0, "rental_uris": {"ios": "https://dc.lft.to/lastmile_qr_scan", "android": "https://dc.lft.to/lastmile_qr_scan"}, "is_reserved": 0}, {"lon": -77.1083475, "bike_id": "9df2329506c56a24ed8887ecca777e51", "lat": 38.81200316666666, "fusion_lon": 0.0, "fusion_lat": 0.0, "type": "electric_bike", "name": "9df2329506c56a24ed8887ecca777e51", "is_disabled": 0, "rental_uris": {"ios": "https://dc.lft.to/lastmile_qr_scan", "android": "https://dc.lft.to/lastmile_qr_scan"}, "is_reserved": 0}, {"lon": -77.02776233333333, "bike_id": "74c6ae7952939db4c5d29825aba9d92e", "lat": 38.930141666666664, "fusion_lon": 0.0, "fusion_lat": 0.0, "type": "electric_scooter", "name": "74c6ae7952939db4c5d29825aba9d92e", "is_disabled": 0, "rental_uris": {"ios": "https://dc.lft.to/lastmile_qr_scan", "android": "https://dc.lft.to/lastmile_qr_scan"}, "is_reserved": 0}, {"lon": -77.04390366666667, "bike_id": "e6c6a685599014eb330307f37a308c5b", "lat": 38.91657816666667, "fusion_lon": 0.0, "fusion_lat": 0.0, "type": "electric_scooter", "name": "e6c6a685599014eb330307f37a308c5b", "is_disabled": 0, "rental_uris": {"ios": "https://dc.lft.to/lastmile_qr_scan", "android": "https://dc.lft.to/lastmile_qr_scan"}, "is_reserved": 0}, {"lon": -77.04337216666667, "bike_id": "16e0fa66842e5d7c9c03f1473292d0a9", "lat": 38.911088666666664, "fusion_lon": 0.0, "fusion_lat": 0.0, "type": "electric_scooter", "name": "16e0fa66842e5d7c9c03f1473292d0a9", "is_disabled": 0, "rental_uris": {"ios": "https://dc.lft.to/lastmile_qr_scan", "android": "https://dc.lft.to/lastmile_qr_scan"}, "is_reserved": 0}, {"lon": -77.00521833333333, "bike_id": "3a7e1d4a48a383e24440c09d9d72f69e", "lat": 38.875447666666666, "fusion_lon": 0.0, "fusion_lat": 0.0, "type": "electric_scooter", "name": "3a7e1d4a48a383e24440c09d9d72f69e", "is_disabled": 0, "rental_uris": {"ios": "https://dc.lft.to/lastmile_qr_scan", "android": "https://dc.lft.to/lastmile_qr_scan"}, "is_reserved": 0}, {"lon": -77.035741, "bike_id": "440c2fb8b798e078fc23cfd23922d310", "lat": 38.917731, "fusion_lon": 0.0, "fusion_lat": 0.0, "type": "electric_scooter", "name": "440c2fb8b798e078fc23cfd23922d310", "is_disabled": 0, "rental_uris": {"ios": "https://dc.lft.to/lastmile_qr_scan", "android": "https://dc.lft.to/lastmile_qr_scan"}, "is_reserved": 0}, {"lon": -77.02795833333333, "bike_id": "2ef90a0e2c8ec703657b0046d01872f9", "lat": 38.893692333333334, "fusion_lon": 0.0, "fusion_lat": 0.0, "type": "electric_scooter", "name": "2ef90a0e2c8ec703657b0046d01872f9", "is_disabled": 0, "rental_uris": {"ios": "https://dc.lft.to/lastmile_qr_scan", "android": "https://dc.lft.to/lastmile_qr_scan"}, "is_reserved": 0}, {"lon": -76.99000933333333, "bike_id": "0207f0908c24f421b6d7e75e0d21c2f7", "lat": 38.865057166666666, "fusion_lon": 0.0, "fusion_lat": 0.0, "type": "electric_scooter", "name": "0207f0908c24f421b6d7e75e0d21c2f7", "is_disabled": 0, "rental_uris": {"ios": "https://dc.lft.to/lastmile_qr_scan", "android": "https://dc.lft.to/lastmile_qr_scan"}, "is_reserved": 0}, {"lon": -76.98082216666667, "bike_id": "d23872d275d3732c4f26943dd420a6f3", "lat": 38.907061, "fusion_lon": 0.0, "fusion_lat": 0.0, "type": "electric_scooter", "name": "d23872d275d3732c4f26943dd420a6f3", "is_disabled": 0, "rental_uris": {"ios": "https://dc.lft.to/lastmile_qr_scan", "android": "https://dc.lft.to/lastmile_qr_scan"}, "is_reserved": 0}, {"lon": -77.048462, "bike_id": "3aff0e6bac1ce45adabc0ba96dda4f9c", "lat": 38.90478266666667, "fusion_lon": 0.0, "fusion_lat": 0.0, "type": "electric_bike", "name": "3aff0e6bac1ce45adabc0ba96dda4f9c", "is_disabled": 0, "rental_uris": {"ios": "https://dc.lft.to/lastmile_qr_scan", "android": "https://dc.lft.to/lastmile_qr_scan"}, "is_reserved": 0}, {"lon": -77.01659316666667, "bike_id": "c2c9e287febe40f1a1cc3f89a17db693", "lat": 38.881157, "fusion_lon": 0.0, "fusion_lat": 0.0, "type": "electric_bike", "name": "c2c9e287febe40f1a1cc3f89a17db693", "is_disabled": 0, "rental_uris": {"ios": "https://dc.lft.to/lastmile_qr_scan", "android": "https://dc.lft.to/lastmile_qr_scan"}, "is_reserved": 0}, {"lon": -77.04179333333333, "bike_id": "f5e9ca233e11185b18cbf14a68591333", "lat": 38.91972616666666, "fusion_lon": 0.0, "fusion_lat": 0.0, "type": "electric_scooter", "name": "f5e9ca233e11185b18cbf14a68591333", "is_disabled": 0, "rental_uris": {"ios": "https://dc.lft.to/lastmile_qr_scan", "android": "https://dc.lft.to/lastmile_qr_scan"}, "is_reserved": 0}, {"lon": -76.983677, "bike_id": "b04486fc7c531db68d8274d657f0ea9d", "lat": 38.914997, "fusion_lon": 0.0, "fusion_lat": 0.0, "type": "electric_scooter", "name": "b04486fc7c531db68d8274d657f0ea9d", "is_disabled": 0, "rental_uris": {"ios": "https://dc.lft.to/lastmile_qr_scan", "android": "https://dc.lft.to/lastmile_qr_scan"}, "is_reserved": 0}, {"lon": -77.03290033333333, "bike_id": "202070885394ce0c7467d9daa4f59f62", "lat": 38.9564385, "fusion_lon": 0.0, "fusion_lat": 0.0, "type": "electric_scooter", "name": "202070885394ce0c7467d9daa4f59f62", "is_disabled": 0, "rental_uris": {"ios": "https://dc.lft.to/lastmile_qr_scan", "android": "https://dc.lft.to/lastmile_qr_scan"}, "is_reserved": 0}, {"lon": -77.11781833333333, "bike_id": "1f1fd76d8ba024c3d354c241ffd1b7cb", "lat": 39.05493383333334, "fusion_lon": 0.0, "fusion_lat": 0.0, "type": "electric_bike", "name": "1f1fd76d8ba024c3d354c241ffd1b7cb", "is_disabled": 0, "rental_uris": {"ios": "https://dc.lft.to/lastmile_qr_scan", "android": "https://dc.lft.to/lastmile_qr_scan"}, "is_reserved": 0}, {"lon": -77.01660783333334, "bike_id": "4d1a6e4cf6f3e84f6f3dcf0ea3f8a5cc", "lat": 38.917379333333336, "fusion_lon": 0.0, "fusion_lat": 0.0, "type": "electric_scooter", "name": "4d1a6e4cf6f3e84f6f3dcf0ea3f8a5cc", "is_disabled": 0, "rental_uris": {"ios": "https://dc.lft.to/lastmile_qr_scan", "android": "https://dc.lft.to/lastmile_qr_scan"}, "is_reserved": 0}, {"lon": -77.04042, "bike_id": "3b2f91ae16e2cb8d7b2a8b27eee43838", "lat": 38.925613, "fusion_lon": 0.0, "fusion_lat": 0.0, "type": "electric_bike", "name": "3b2f91ae16e2cb8d7b2a8b27eee43838", "is_disabled": 0, "rental_uris": {"ios": "https://dc.lft.to/lastmile_qr_scan", "android": "https://dc.lft.to/lastmile_qr_scan"}, "is_reserved": 0}, {"lon": -77.0360295, "bike_id": "2ce30778bc253d59970d75c8bb46a484", "lat": 38.92321183333333, "fusion_lon": 0.0, "fusion_lat": 0.0, "type": "electric_scooter", "name": "2ce30778bc253d59970d75c8bb46a484", "is_disabled": 0, "rental_uris": {"ios": "https://dc.lft.to/lastmile_qr_scan", "android": "https://dc.lft.to/lastmile_qr_scan"}, "is_reserved": 0}, {"lon": -77.02745666666667, "bike_id": "4d8758a9469f422694bdf743a846ac1d", "lat": 38.89502733333333, "fusion_lon": 0.0, "fusion_lat": 0.0, "type": "electric_scooter", "name": "4d8758a9469f422694bdf743a846ac1d", "is_disabled": 0, "rental_uris": {"ios": "https://dc.lft.to/lastmile_qr_scan", "android": "https://dc.lft.to/lastmile_qr_scan"}, "is_reserved": 0}, {"lon": -76.99940833333334, "bike_id": "b928bd1aa1172d122313199614cfeca3", "lat": 38.90624866666667, "fusion_lon": 0.0, "fusion_lat": 0.0, "type": "electric_scooter", "name": "b928bd1aa1172d122313199614cfeca3", "is_disabled": 0, "rental_uris": {"ios": "https://dc.lft.to/lastmile_qr_scan", "android": "https://dc.lft.to/lastmile_qr_scan"}, "is_reserved": 0}, {"lon": -77.031085, "bike_id": "ab97587cc0fc9fefd2a5eeeea754bf0b", "lat": 38.887458333333335, "fusion_lon": 0.0, "fusion_lat": 0.0, "type": "electric_scooter", "name": "ab97587cc0fc9fefd2a5eeeea754bf0b", "is_disabled": 0, "rental_uris": {"ios": "https://dc.lft.to/lastmile_qr_scan", "android": "https://dc.lft.to/lastmile_qr_scan"}, "is_reserved": 0}, {"lon": -77.01237583333334, "bike_id": "e351a17aa4d23c4dacd9b08dd4800211", "lat": 38.89293383333333, "fusion_lon": 0.0, "fusion_lat": 0.0, "type": "electric_scooter", "name": "e351a17aa4d23c4dacd9b08dd4800211", "is_disabled": 0, "rental_uris": {"ios": "https://dc.lft.to/lastmile_qr_scan", "android": "https://dc.lft.to/lastmile_qr_scan"}, "is_reserved": 0}, {"lon": -77.01628683333334, "bike_id": "49928052f41231034848d88f40cc4417", "lat": 38.905702166666664, "fusion_lon": 0.0, "fusion_lat": 0.0, "type": "electric_scooter", "name": "49928052f41231034848d88f40cc4417", "is_disabled": 0, "rental_uris": {"ios": "https://dc.lft.to/lastmile_qr_scan", "android": "https://dc.lft.to/lastmile_qr_scan"}, "is_reserved": 0}, {"lon": -77.04657383333333, "bike_id": "79a0d378fa610ee8cba6a71f9a2297b1", "lat": 38.89779816666667, "fusion_lon": 0.0, "fusion_lat": 0.0, "type": "electric_scooter", "name": "79a0d378fa610ee8cba6a71f9a2297b1", "is_disabled": 0, "rental_uris": {"ios": "https://dc.lft.to/lastmile_qr_scan", "android": "https://dc.lft.to/lastmile_qr_scan"}, "is_reserved": 0}, {"lon": -76.9914135, "bike_id": "b9b74fde4daf0902da6e69404481393e", "lat": 38.889669833333336, "fusion_lon": 0.0, "fusion_lat": 0.0, "type": "electric_scooter", "name": "b9b74fde4daf0902da6e69404481393e", "is_disabled": 0, "rental_uris": {"ios": "https://dc.lft.to/lastmile_qr_scan", "android": "https://dc.lft.to/lastmile_qr_scan"}, "is_reserved": 0}, {"lon": -77.03962566666667, "bike_id": "a597e0f982aad89abf55f814474f4b6a", "lat": 38.906208666666664, "fusion_lon": 0.0, "fusion_lat": 0.0, "type": "electric_scooter", "name": "a597e0f982aad89abf55f814474f4b6a", "is_disabled": 0, "rental_uris": {"ios": "https://dc.lft.to/lastmile_qr_scan", "android": "https://dc.lft.to/lastmile_qr_scan"}, "is_reserved": 0}, {"lon": -77.03858366666667, "bike_id": "d3fc7cd00916ca0539a0cc769a3aa600", "lat": 38.91713416666666, "fusion_lon": 0.0, "fusion_lat": 0.0, "type": "electric_scooter", "name": "d3fc7cd00916ca0539a0cc769a3aa600", "is_disabled": 0, "rental_uris": {"ios": "https://dc.lft.to/lastmile_qr_scan", "android": "https://dc.lft.to/lastmile_qr_scan"}, "is_reserved": 0}, {"lon": -77.0013305, "bike_id": "d2347a642f809fa1891f1e6cfa1823f5", "lat": 38.89466933333333, "fusion_lon": 0.0, "fusion_lat": 0.0, "type": "electric_scooter", "name": "d2347a642f809fa1891f1e6cfa1823f5", "is_disabled": 0, "rental_uris": {"ios": "https://dc.lft.to/lastmile_qr_scan", "android": "https://dc.lft.to/lastmile_qr_scan"}, "is_reserved": 0}, {"lon": -76.93727666666666, "bike_id": "44a09b3e5b4f322d3c191b0bf019d2eb", "lat": 38.89014916666667, "fusion_lon": 0.0, "fusion_lat": 0.0, "type": "electric_scooter", "name": "44a09b3e5b4f322d3c191b0bf019d2eb", "is_disabled": 0, "rental_uris": {"ios": "https://dc.lft.to/lastmile_qr_scan", "android": "https://dc.lft.to/lastmile_qr_scan"}, "is_reserved": 0}, {"lon": -76.93753316666667, "bike_id": "c688c47639e90072b71da5c7a5d7bf6a", "lat": 38.890380666666665, "fusion_lon": 0.0, "fusion_lat": 0.0, "type": "electric_scooter", "name": "c688c47639e90072b71da5c7a5d7bf6a", "is_disabled": 0, "rental_uris": {"ios": "https://dc.lft.to/lastmile_qr_scan", "android": "https://dc.lft.to/lastmile_qr_scan"}, "is_reserved": 0}, {"lon": -77.03475666666667, "bike_id": "e08fa671f5972557c6abdb30bdba7098", "lat": 38.91710916666667, "fusion_lon": 0.0, "fusion_lat": 0.0, "type": "electric_scooter", "name": "e08fa671f5972557c6abdb30bdba7098", "is_disabled": 0, "rental_uris": {"ios": "https://dc.lft.to/lastmile_qr_scan", "android": "https://dc.lft.to/lastmile_qr_scan"}, "is_reserved": 0}, {"lon": -77.04486833333333, "bike_id": "6faf583d0aa769685c2182ee2362d2d0", "lat": 38.90365666666667, "fusion_lon": 0.0, "fusion_lat": 0.0, "type": "electric_scooter", "name": "6faf583d0aa769685c2182ee2362d2d0", "is_disabled": 0, "rental_uris": {"ios": "https://dc.lft.to/lastmile_qr_scan", "android": "https://dc.lft.to/lastmile_qr_scan"}, "is_reserved": 0}, {"lon": -76.992718, "bike_id": "cec4710b4f489d01dd08105620ef1353", "lat": 38.897669666666665, "fusion_lon": 0.0, "fusion_lat": 0.0, "type": "electric_scooter", "name": "cec4710b4f489d01dd08105620ef1353", "is_disabled": 0, "rental_uris": {"ios": "https://dc.lft.to/lastmile_qr_scan", "android": "https://dc.lft.to/lastmile_qr_scan"}, "is_reserved": 0}, {"lon": -77.00192716666666, "bike_id": "a633b384d9d30c37ec7cab68da88cbc6", "lat": 38.900255333333334, "fusion_lon": 0.0, "fusion_lat": 0.0, "type": "electric_scooter", "name": "a633b384d9d30c37ec7cab68da88cbc6", "is_disabled": 0, "rental_uris": {"ios": "https://dc.lft.to/lastmile_qr_scan", "android": "https://dc.lft.to/lastmile_qr_scan"}, "is_reserved": 0}, {"lon": -77.03440483333334, "bike_id": "bbde047d56558ac9f33d3ae4b2005f0c", "lat": 38.908029, "fusion_lon": 0.0, "fusion_lat": 0.0, "type": "electric_scooter", "name": "bbde047d56558ac9f33d3ae4b2005f0c", "is_disabled": 0, "rental_uris": {"ios": "https://dc.lft.to/lastmile_qr_scan", "android": "https://dc.lft.to/lastmile_qr_scan"}, "is_reserved": 0}, {"lon": -77.01718016666666, "bike_id": "ad168e59e873f672ef42486e792033fa", "lat": 38.90967083333334, "fusion_lon": 0.0, "fusion_lat": 0.0, "type": "electric_scooter", "name": "ad168e59e873f672ef42486e792033fa", "is_disabled": 0, "rental_uris": {"ios": "https://dc.lft.to/lastmile_qr_scan", "android": "https://dc.lft.to/lastmile_qr_scan"}, "is_reserved": 0}, {"lon": -77.04354316666667, "bike_id": "940f28e450314f2b73ef51d14d280bed", "lat": 38.90255616666666, "fusion_lon": 0.0, "fusion_lat": 0.0, "type": "electric_scooter", "name": "940f28e450314f2b73ef51d14d280bed", "is_disabled": 0, "rental_uris": {"ios": "https://dc.lft.to/lastmile_qr_scan", "android": "https://dc.lft.to/lastmile_qr_scan"}, "is_reserved": 0}, {"lon": -77.04076566666667, "bike_id": "2238b699f79902fe3d68c1275f3bc3b1", "lat": 38.907231333333335, "fusion_lon": 0.0, "fusion_lat": 0.0, "type": "electric_scooter", "name": "2238b699f79902fe3d68c1275f3bc3b1", "is_disabled": 0, "rental_uris": {"ios": "https://dc.lft.to/lastmile_qr_scan", "android": "https://dc.lft.to/lastmile_qr_scan"}, "is_reserved": 0}, {"lon": -76.99650116666666, "bike_id": "957a5a08bde1e8a4f893d240a6d5bcf1", "lat": 38.98829716666667, "fusion_lon": 0.0, "fusion_lat": 0.0, "type": "electric_bike", "name": "957a5a08bde1e8a4f893d240a6d5bcf1", "is_disabled": 0, "rental_uris": {"ios": "https://dc.lft.to/lastmile_qr_scan", "android": "https://dc.lft.to/lastmile_qr_scan"}, "is_reserved": 0}, {"lon": -77.05034466666666, "bike_id": "1ed2c20f97c16ea38a1306e174eb867e", "lat": 38.90045883333333, "fusion_lon": 0.0, "fusion_lat": 0.0, "type": "electric_scooter", "name": "1ed2c20f97c16ea38a1306e174eb867e", "is_disabled": 0, "rental_uris": {"ios": "https://dc.lft.to/lastmile_qr_scan", "android": "https://dc.lft.to/lastmile_qr_scan"}, "is_reserved": 0}, {"lon": -77.0236695, "bike_id": "c313304bb5e7281af4a2050227e0b95d", "lat": 38.89219883333333, "fusion_lon": 0.0, "fusion_lat": 0.0, "type": "electric_scooter", "name": "c313304bb5e7281af4a2050227e0b95d", "is_disabled": 0, "rental_uris": {"ios": "https://dc.lft.to/lastmile_qr_scan", "android": "https://dc.lft.to/lastmile_qr_scan"}, "is_reserved": 0}, {"lon": -77.02082533333333, "bike_id": "3a4306ef8ca7397445d94caaee837edf", "lat": 38.9574035, "fusion_lon": 0.0, "fusion_lat": 0.0, "type": "electric_scooter", "name": "3a4306ef8ca7397445d94caaee837edf", "is_disabled": 0, "rental_uris": {"ios": "https://dc.lft.to/lastmile_qr_scan", "android": "https://dc.lft.to/lastmile_qr_scan"}, "is_reserved": 0}, {"lon": -76.9752115, "bike_id": "d2adaa566cdc58e110e12fb457f8929e", "lat": 38.96691633333333, "fusion_lon": 0.0, "fusion_lat": 0.0, "type": "electric_bike", "name": "d2adaa566cdc58e110e12fb457f8929e", "is_disabled": 0, "rental_uris": {"ios": "https://dc.lft.to/lastmile_qr_scan", "android": "https://dc.lft.to/lastmile_qr_scan"}, "is_reserved": 0}, {"lon": -77.0386125, "bike_id": "7f3604619182f0aa883f808bcc4d06de", "lat": 38.911719166666664, "fusion_lon": 0.0, "fusion_lat": 0.0, "type": "electric_scooter", "name": "7f3604619182f0aa883f808bcc4d06de", "is_disabled": 0, "rental_uris": {"ios": "https://dc.lft.to/lastmile_qr_scan", "android": "https://dc.lft.to/lastmile_qr_scan"}, "is_reserved": 0}, {"lon": -77.08289483333333, "bike_id": "88d4cfff1f46c226825b3913e8056121", "lat": 38.935802833333334, "fusion_lon": 0.0, "fusion_lat": 0.0, "type": "electric_scooter", "name": "88d4cfff1f46c226825b3913e8056121", "is_disabled": 0, "rental_uris": {"ios": "https://dc.lft.to/lastmile_qr_scan", "android": "https://dc.lft.to/lastmile_qr_scan"}, "is_reserved": 0}, {"lon": -77.02214733333334, "bike_id": "b85014766197aa097556022992cde72e", "lat": 38.916462, "fusion_lon": 0.0, "fusion_lat": 0.0, "type": "electric_scooter", "name": "b85014766197aa097556022992cde72e", "is_disabled": 0, "rental_uris": {"ios": "https://dc.lft.to/lastmile_qr_scan", "android": "https://dc.lft.to/lastmile_qr_scan"}, "is_reserved": 0}, {"lon": -76.99682283333334, "bike_id": "23947d4fcea7d92c1b268f0df5474a7c", "lat": 38.86019916666667, "fusion_lon": 0.0, "fusion_lat": 0.0, "type": "electric_scooter", "name": "23947d4fcea7d92c1b268f0df5474a7c", "is_disabled": 0, "rental_uris": {"ios": "https://dc.lft.to/lastmile_qr_scan", "android": "https://dc.lft.to/lastmile_qr_scan"}, "is_reserved": 0}, {"lon": -77.03343483333333, "bike_id": "438b6b115c5a9f4ac1f694c11651f595", "lat": 38.908354333333335, "fusion_lon": 0.0, "fusion_lat": 0.0, "type": "electric_scooter", "name": "438b6b115c5a9f4ac1f694c11651f595", "is_disabled": 0, "rental_uris": {"ios": "https://dc.lft.to/lastmile_qr_scan", "android": "https://dc.lft.to/lastmile_qr_scan"}, "is_reserved": 0}, {"lon": -77.05019733333333, "bike_id": "e62e63696720735336f8281a22c8611e", "lat": 38.90135983333333, "fusion_lon": 0.0, "fusion_lat": 0.0, "type": "electric_scooter", "name": "e62e63696720735336f8281a22c8611e", "is_disabled": 0, "rental_uris": {"ios": "https://dc.lft.to/lastmile_qr_scan", "android": "https://dc.lft.to/lastmile_qr_scan"}, "is_reserved": 0}, {"lon": -77.030454, "bike_id": "2e6212fd2acf95a1b0f47f331e7d7257", "lat": 38.884235833333335, "fusion_lon": 0.0, "fusion_lat": 0.0, "type": "electric_scooter", "name": "2e6212fd2acf95a1b0f47f331e7d7257", "is_disabled": 0, "rental_uris": {"ios": "https://dc.lft.to/lastmile_qr_scan", "android": "https://dc.lft.to/lastmile_qr_scan"}, "is_reserved": 0}, {"lon": -77.06882483333334, "bike_id": "21161e5bdf3d0f9d8fff082982d92b8a", "lat": 38.9040455, "fusion_lon": 0.0, "fusion_lat": 0.0, "type": "electric_bike", "name": "21161e5bdf3d0f9d8fff082982d92b8a", "is_disabled": 0, "rental_uris": {"ios": "https://dc.lft.to/lastmile_qr_scan", "android": "https://dc.lft.to/lastmile_qr_scan"}, "is_reserved": 0}, {"lon": -77.04157316666667, "bike_id": "c0d2b36263dfa6ae205a96274c2ce3c6", "lat": 38.9124975, "fusion_lon": 0.0, "fusion_lat": 0.0, "type": "electric_scooter", "name": "c0d2b36263dfa6ae205a96274c2ce3c6", "is_disabled": 0, "rental_uris": {"ios": "https://dc.lft.to/lastmile_qr_scan", "android": "https://dc.lft.to/lastmile_qr_scan"}, "is_reserved": 0}, {"lon": -77.03093266666667, "bike_id": "328fb71b3178158191c9f7bef4f94914", "lat": 38.909819666666664, "fusion_lon": 0.0, "fusion_lat": 0.0, "type": "electric_scooter", "name": "328fb71b3178158191c9f7bef4f94914", "is_disabled": 0, "rental_uris": {"ios": "https://dc.lft.to/lastmile_qr_scan", "android": "https://dc.lft.to/lastmile_qr_scan"}, "is_reserved": 0}, {"lon": -77.03253583333333, "bike_id": "221ba99ce0d5002ddac68f72aaefa35b", "lat": 38.929589166666666, "fusion_lon": 0.0, "fusion_lat": 0.0, "type": "electric_scooter", "name": "221ba99ce0d5002ddac68f72aaefa35b", "is_disabled": 0, "rental_uris": {"ios": "https://dc.lft.to/lastmile_qr_scan", "android": "https://dc.lft.to/lastmile_qr_scan"}, "is_reserved": 0}, {"lon": -76.97437866666667, "bike_id": "c001f1f0c33b54611472e4cdd85d97ca", "lat": 38.864253166666664, "fusion_lon": 0.0, "fusion_lat": 0.0, "type": "electric_scooter", "name": "c001f1f0c33b54611472e4cdd85d97ca", "is_disabled": 0, "rental_uris": {"ios": "https://dc.lft.to/lastmile_qr_scan", "android": "https://dc.lft.to/lastmile_qr_scan"}, "is_reserved": 0}, {"lon": -77.0384715, "bike_id": "11da0525d763c7f175582f53947d0b54", "lat": 38.932028, "fusion_lon": 0.0, "fusion_lat": 0.0, "type": "electric_scooter", "name": "11da0525d763c7f175582f53947d0b54", "is_disabled": 0, "rental_uris": {"ios": "https://dc.lft.to/lastmile_qr_scan", "android": "https://dc.lft.to/lastmile_qr_scan"}, "is_reserved": 0}, {"lon": -77.03449383333333, "bike_id": "ecea54774ab03fab0b02085d8012fbaa", "lat": 38.90972, "fusion_lon": 0.0, "fusion_lat": 0.0, "type": "electric_scooter", "name": "ecea54774ab03fab0b02085d8012fbaa", "is_disabled": 0, "rental_uris": {"ios": "https://dc.lft.to/lastmile_qr_scan", "android": "https://dc.lft.to/lastmile_qr_scan"}, "is_reserved": 0}, {"lon": -77.02385533333333, "bike_id": "5ee9345f139a420d483d1a10869fda5a", "lat": 38.900104, "fusion_lon": 0.0, "fusion_lat": 0.0, "type": "electric_scooter", "name": "5ee9345f139a420d483d1a10869fda5a", "is_disabled": 0, "rental_uris": {"ios": "https://dc.lft.to/lastmile_qr_scan", "android": "https://dc.lft.to/lastmile_qr_scan"}, "is_reserved": 0}, {"lon": -77.0610155, "bike_id": "188203904c23198216d74300db65e46c", "lat": 38.90528333333334, "fusion_lon": 0.0, "fusion_lat": 0.0, "type": "electric_scooter", "name": "188203904c23198216d74300db65e46c", "is_disabled": 0, "rental_uris": {"ios": "https://dc.lft.to/lastmile_qr_scan", "android": "https://dc.lft.to/lastmile_qr_scan"}, "is_reserved": 0}, {"lon": -77.040813, "bike_id": "98ef2d6336f0b2d5cfe4a65a6873cbb1", "lat": 38.9231385, "fusion_lon": 0.0, "fusion_lat": 0.0, "type": "electric_scooter", "name": "98ef2d6336f0b2d5cfe4a65a6873cbb1", "is_disabled": 0, "rental_uris": {"ios": "https://dc.lft.to/lastmile_qr_scan", "android": "https://dc.lft.to/lastmile_qr_scan"}, "is_reserved": 0}, {"lon": -76.95748283333333, "bike_id": "553d80c1cf1ff4f058cde70c4cb322b0", "lat": 38.8842895, "fusion_lon": 0.0, "fusion_lat": 0.0, "type": "electric_scooter", "name": "553d80c1cf1ff4f058cde70c4cb322b0", "is_disabled": 0, "rental_uris": {"ios": "https://dc.lft.to/lastmile_qr_scan", "android": "https://dc.lft.to/lastmile_qr_scan"}, "is_reserved": 0}, {"lon": -76.9894185, "bike_id": "f57ea8063610050e987778eef473bdc4", "lat": 38.901859333333334, "fusion_lon": 0.0, "fusion_lat": 0.0, "type": "electric_scooter", "name": "f57ea8063610050e987778eef473bdc4", "is_disabled": 0, "rental_uris": {"ios": "https://dc.lft.to/lastmile_qr_scan", "android": "https://dc.lft.to/lastmile_qr_scan"}, "is_reserved": 0}, {"lon": -76.93554166666667, "bike_id": "9c0c56694a062a3da18bb091855ab60c", "lat": 38.890150166666665, "fusion_lon": 0.0, "fusion_lat": 0.0, "type": "electric_scooter", "name": "9c0c56694a062a3da18bb091855ab60c", "is_disabled": 0, "rental_uris": {"ios": "https://dc.lft.to/lastmile_qr_scan", "android": "https://dc.lft.to/lastmile_qr_scan"}, "is_reserved": 0}, {"lon": -77.0296495, "bike_id": "bc8fc028c7b8c6b8f893253bb0aeb2a7", "lat": 38.9124415, "fusion_lon": 0.0, "fusion_lat": 0.0, "type": "electric_scooter", "name": "bc8fc028c7b8c6b8f893253bb0aeb2a7", "is_disabled": 0, "rental_uris": {"ios": "https://dc.lft.to/lastmile_qr_scan", "android": "https://dc.lft.to/lastmile_qr_scan"}, "is_reserved": 0}, {"lon": -77.03075616666666, "bike_id": "58c6f9c3421979d0212c597df065ea30", "lat": 38.880373166666665, "fusion_lon": 0.0, "fusion_lat": 0.0, "type": "electric_scooter", "name": "58c6f9c3421979d0212c597df065ea30", "is_disabled": 0, "rental_uris": {"ios": "https://dc.lft.to/lastmile_qr_scan", "android": "https://dc.lft.to/lastmile_qr_scan"}, "is_reserved": 0}, {"lon": -77.0313335, "bike_id": "675e3b3bb21646c6b31a8cbec51979f2", "lat": 38.92962333333333, "fusion_lon": 0.0, "fusion_lat": 0.0, "type": "electric_scooter", "name": "675e3b3bb21646c6b31a8cbec51979f2", "is_disabled": 0, "rental_uris": {"ios": "https://dc.lft.to/lastmile_qr_scan", "android": "https://dc.lft.to/lastmile_qr_scan"}, "is_reserved": 0}, {"lon": -77.02687283333333, "bike_id": "7c65db54d288fa982f977ecb3a43d4e0", "lat": 38.912267166666666, "fusion_lon": 0.0, "fusion_lat": 0.0, "type": "electric_scooter", "name": "7c65db54d288fa982f977ecb3a43d4e0", "is_disabled": 0, "rental_uris": {"ios": "https://dc.lft.to/lastmile_qr_scan", "android": "https://dc.lft.to/lastmile_qr_scan"}, "is_reserved": 0}, {"lon": -77.00046533333334, "bike_id": "947c111851fa9c64f3f37fd41396261c", "lat": 38.90812366666667, "fusion_lon": 0.0, "fusion_lat": 0.0, "type": "electric_scooter", "name": "947c111851fa9c64f3f37fd41396261c", "is_disabled": 0, "rental_uris": {"ios": "https://dc.lft.to/lastmile_qr_scan", "android": "https://dc.lft.to/lastmile_qr_scan"}, "is_reserved": 0}, {"lon": -76.996151, "bike_id": "40188b4d5f884d74f14dcfba5849048c", "lat": 38.84702683333333, "fusion_lon": 0.0, "fusion_lat": 0.0, "type": "electric_scooter", "name": "40188b4d5f884d74f14dcfba5849048c", "is_disabled": 0, "rental_uris": {"ios": "https://dc.lft.to/lastmile_qr_scan", "android": "https://dc.lft.to/lastmile_qr_scan"}, "is_reserved": 0}, {"lon": -77.01205266666666, "bike_id": "f5cc9f5797a59f887ad192b7d17a08ad", "lat": 38.885501, "fusion_lon": 0.0, "fusion_lat": 0.0, "type": "electric_scooter", "name": "f5cc9f5797a59f887ad192b7d17a08ad", "is_disabled": 0, "rental_uris": {"ios": "https://dc.lft.to/lastmile_qr_scan", "android": "https://dc.lft.to/lastmile_qr_scan"}, "is_reserved": 0}, {"lon": -77.03844916666667, "bike_id": "1bbe3aaa6e02e960105d781260d3ac8b", "lat": 38.9088035, "fusion_lon": 0.0, "fusion_lat": 0.0, "type": "electric_scooter", "name": "1bbe3aaa6e02e960105d781260d3ac8b", "is_disabled": 0, "rental_uris": {"ios": "https://dc.lft.to/lastmile_qr_scan", "android": "https://dc.lft.to/lastmile_qr_scan"}, "is_reserved": 0}, {"lon": -77.03261616666667, "bike_id": "022e4b321afcb3bf409dba8c42824ab6", "lat": 38.93917966666667, "fusion_lon": 0.0, "fusion_lat": 0.0, "type": "electric_scooter", "name": "022e4b321afcb3bf409dba8c42824ab6", "is_disabled": 0, "rental_uris": {"ios": "https://dc.lft.to/lastmile_qr_scan", "android": "https://dc.lft.to/lastmile_qr_scan"}, "is_reserved": 0}, {"lon": -77.03096833333333, "bike_id": "b09fb24b355e27fac1ad14db1f87a91b", "lat": 38.91917816666667, "fusion_lon": 0.0, "fusion_lat": 0.0, "type": "electric_scooter", "name": "b09fb24b355e27fac1ad14db1f87a91b", "is_disabled": 0, "rental_uris": {"ios": "https://dc.lft.to/lastmile_qr_scan", "android": "https://dc.lft.to/lastmile_qr_scan"}, "is_reserved": 0}, {"lon": -77.03277616666666, "bike_id": "01fcbf36f5f851382d5eabdbfdd2377d", "lat": 38.901449, "fusion_lon": 0.0, "fusion_lat": 0.0, "type": "electric_scooter", "name": "01fcbf36f5f851382d5eabdbfdd2377d", "is_disabled": 0, "rental_uris": {"ios": "https://dc.lft.to/lastmile_qr_scan", "android": "https://dc.lft.to/lastmile_qr_scan"}, "is_reserved": 0}, {"lon": -77.050216, "bike_id": "18b82fe938122ae30e7a02b40625ce1b", "lat": 38.90521783333333, "fusion_lon": 0.0, "fusion_lat": 0.0, "type": "electric_scooter", "name": "18b82fe938122ae30e7a02b40625ce1b", "is_disabled": 0, "rental_uris": {"ios": "https://dc.lft.to/lastmile_qr_scan", "android": "https://dc.lft.to/lastmile_qr_scan"}, "is_reserved": 0}, {"lon": -77.0311135, "bike_id": "c0484f126b56a586b43b78f9af55d477", "lat": 38.8873995, "fusion_lon": 0.0, "fusion_lat": 0.0, "type": "electric_scooter", "name": "c0484f126b56a586b43b78f9af55d477", "is_disabled": 0, "rental_uris": {"ios": "https://dc.lft.to/lastmile_qr_scan", "android": "https://dc.lft.to/lastmile_qr_scan"}, "is_reserved": 0}, {"lon": -77.008859, "bike_id": "204d541d31dc47888171c005513d2407", "lat": 38.91442283333333, "fusion_lon": 0.0, "fusion_lat": 0.0, "type": "electric_scooter", "name": "204d541d31dc47888171c005513d2407", "is_disabled": 0, "rental_uris": {"ios": "https://dc.lft.to/lastmile_qr_scan", "android": "https://dc.lft.to/lastmile_qr_scan"}, "is_reserved": 0}, {"lon": -77.03248166666667, "bike_id": "1bf17b4d325140c77ecf44e7fb68393c", "lat": 38.90963266666667, "fusion_lon": 0.0, "fusion_lat": 0.0, "type": "electric_scooter", "name": "1bf17b4d325140c77ecf44e7fb68393c", "is_disabled": 0, "rental_uris": {"ios": "https://dc.lft.to/lastmile_qr_scan", "android": "https://dc.lft.to/lastmile_qr_scan"}, "is_reserved": 0}, {"lon": -77.01176366666667, "bike_id": "279b3cf4ea610b84a55df0937902a1c9", "lat": 38.900319833333334, "fusion_lon": 0.0, "fusion_lat": 0.0, "type": "electric_scooter", "name": "279b3cf4ea610b84a55df0937902a1c9", "is_disabled": 0, "rental_uris": {"ios": "https://dc.lft.to/lastmile_qr_scan", "android": "https://dc.lft.to/lastmile_qr_scan"}, "is_reserved": 0}, {"lon": -77.02730883333334, "bike_id": "e881cf1c603e1693ab48a3372c414b9b", "lat": 38.943766333333336, "fusion_lon": 0.0, "fusion_lat": 0.0, "type": "electric_scooter", "name": "e881cf1c603e1693ab48a3372c414b9b", "is_disabled": 0, "rental_uris": {"ios": "https://dc.lft.to/lastmile_qr_scan", "android": "https://dc.lft.to/lastmile_qr_scan"}, "is_reserved": 0}, {"lon": -77.04339816666666, "bike_id": "f60d04323bf665124194f3e9b50a5be4", "lat": 38.93333116666667, "fusion_lon": 0.0, "fusion_lat": 0.0, "type": "electric_scooter", "name": "f60d04323bf665124194f3e9b50a5be4", "is_disabled": 0, "rental_uris": {"ios": "https://dc.lft.to/lastmile_qr_scan", "android": "https://dc.lft.to/lastmile_qr_scan"}, "is_reserved": 0}, {"lon": -77.04133533333334, "bike_id": "cff18cb3938f0d81a2eaccc3230f6028", "lat": 38.8992925, "fusion_lon": 0.0, "fusion_lat": 0.0, "type": "electric_scooter", "name": "cff18cb3938f0d81a2eaccc3230f6028", "is_disabled": 0, "rental_uris": {"ios": "https://dc.lft.to/lastmile_qr_scan", "android": "https://dc.lft.to/lastmile_qr_scan"}, "is_reserved": 0}, {"lon": -77.0324445, "bike_id": "f7f6b797d240379ddd68a75384979419", "lat": 38.90547216666667, "fusion_lon": 0.0, "fusion_lat": 0.0, "type": "electric_scooter", "name": "f7f6b797d240379ddd68a75384979419", "is_disabled": 0, "rental_uris": {"ios": "https://dc.lft.to/lastmile_qr_scan", "android": "https://dc.lft.to/lastmile_qr_scan"}, "is_reserved": 0}, {"lon": -76.98337216666667, "bike_id": "a1dc04936a771d625914ddb0fa08c5b9", "lat": 38.8664175, "fusion_lon": 0.0, "fusion_lat": 0.0, "type": "electric_scooter", "name": "a1dc04936a771d625914ddb0fa08c5b9", "is_disabled": 0, "rental_uris": {"ios": "https://dc.lft.to/lastmile_qr_scan", "android": "https://dc.lft.to/lastmile_qr_scan"}, "is_reserved": 0}, {"lon": -76.98036483333334, "bike_id": "5795db49669f90e14baace2073a2bb1a", "lat": 38.889668, "fusion_lon": 0.0, "fusion_lat": 0.0, "type": "electric_scooter", "name": "5795db49669f90e14baace2073a2bb1a", "is_disabled": 0, "rental_uris": {"ios": "https://dc.lft.to/lastmile_qr_scan", "android": "https://dc.lft.to/lastmile_qr_scan"}, "is_reserved": 0}, {"lon": -76.93187666666667, "bike_id": "c2f5f4a20b14478f085379e144c552ce", "lat": 38.89876366666667, "fusion_lon": 0.0, "fusion_lat": 0.0, "type": "electric_scooter", "name": "c2f5f4a20b14478f085379e144c552ce", "is_disabled": 0, "rental_uris": {"ios": "https://dc.lft.to/lastmile_qr_scan", "android": "https://dc.lft.to/lastmile_qr_scan"}, "is_reserved": 0}, {"lon": -77.03278816666666, "bike_id": "966f7390a9357b38473b439cf7e15793", "lat": 38.90722816666667, "fusion_lon": 0.0, "fusion_lat": 0.0, "type": "electric_scooter", "name": "966f7390a9357b38473b439cf7e15793", "is_disabled": 0, "rental_uris": {"ios": "https://dc.lft.to/lastmile_qr_scan", "android": "https://dc.lft.to/lastmile_qr_scan"}, "is_reserved": 0}, {"lon": -77.07998216666667, "bike_id": "3daea51294966658bc495ff95044fc2e", "lat": 38.96486483333333, "fusion_lon": 0.0, "fusion_lat": 0.0, "type": "electric_scooter", "name": "3daea51294966658bc495ff95044fc2e", "is_disabled": 0, "rental_uris": {"ios": "https://dc.lft.to/lastmile_qr_scan", "android": "https://dc.lft.to/lastmile_qr_scan"}, "is_reserved": 0}, {"lon": -77.07752033333334, "bike_id": "a34087a7e576ab877b6732e1d28e177e", "lat": 38.841942833333334, "fusion_lon": 0.0, "fusion_lat": 0.0, "type": "electric_bike", "name": "a34087a7e576ab877b6732e1d28e177e", "is_disabled": 0, "rental_uris": {"ios": "https://dc.lft.to/lastmile_qr_scan", "android": "https://dc.lft.to/lastmile_qr_scan"}, "is_reserved": 0}, {"lon": -77.014927, "bike_id": "594ba56f2acb4ae0217910c1ba23e220", "lat": 38.91754533333334, "fusion_lon": 0.0, "fusion_lat": 0.0, "type": "electric_scooter", "name": "594ba56f2acb4ae0217910c1ba23e220", "is_disabled": 0, "rental_uris": {"ios": "https://dc.lft.to/lastmile_qr_scan", "android": "https://dc.lft.to/lastmile_qr_scan"}, "is_reserved": 0}, {"lon": -76.99009633333333, "bike_id": "123232422b8fc7553304df12c11d6084", "lat": 38.882689166666665, "fusion_lon": 0.0, "fusion_lat": 0.0, "type": "electric_scooter", "name": "123232422b8fc7553304df12c11d6084", "is_disabled": 0, "rental_uris": {"ios": "https://dc.lft.to/lastmile_qr_scan", "android": "https://dc.lft.to/lastmile_qr_scan"}, "is_reserved": 0}, {"lon": -77.0238195, "bike_id": "15212642c06ae005a2287ac840876df5", "lat": 38.914297833333336, "fusion_lon": 0.0, "fusion_lat": 0.0, "type": "electric_scooter", "name": "15212642c06ae005a2287ac840876df5", "is_disabled": 0, "rental_uris": {"ios": "https://dc.lft.to/lastmile_qr_scan", "android": "https://dc.lft.to/lastmile_qr_scan"}, "is_reserved": 0}, {"lon": -77.00376183333333, "bike_id": "cc75db23c8d8294d1fe2cf548da9fab8", "lat": 38.897315166666665, "fusion_lon": 0.0, "fusion_lat": 0.0, "type": "electric_scooter", "name": "cc75db23c8d8294d1fe2cf548da9fab8", "is_disabled": 0, "rental_uris": {"ios": "https://dc.lft.to/lastmile_qr_scan", "android": "https://dc.lft.to/lastmile_qr_scan"}, "is_reserved": 0}, {"lon": -76.9219045, "bike_id": "faa909f8c01dede7599ca37d47d8e7ae", "lat": 38.895050833333336, "fusion_lon": 0.0, "fusion_lat": 0.0, "type": "electric_bike", "name": "faa909f8c01dede7599ca37d47d8e7ae", "is_disabled": 0, "rental_uris": {"ios": "https://dc.lft.to/lastmile_qr_scan", "android": "https://dc.lft.to/lastmile_qr_scan"}, "is_reserved": 0}, {"lon": -77.07904233333333, "bike_id": "3b57ddc5725ff72e6f2994e8e468a8de", "lat": 38.8393905, "fusion_lon": 0.0, "fusion_lat": 0.0, "type": "electric_bike", "name": "3b57ddc5725ff72e6f2994e8e468a8de", "is_disabled": 0, "rental_uris": {"ios": "https://dc.lft.to/lastmile_qr_scan", "android": "https://dc.lft.to/lastmile_qr_scan"}, "is_reserved": 0}, {"lon": -76.9835515, "bike_id": "46e2c81eafa7cb01c5025b5a15c7b35e", "lat": 38.8877315, "fusion_lon": 0.0, "fusion_lat": 0.0, "type": "electric_scooter", "name": "46e2c81eafa7cb01c5025b5a15c7b35e", "is_disabled": 0, "rental_uris": {"ios": "https://dc.lft.to/lastmile_qr_scan", "android": "https://dc.lft.to/lastmile_qr_scan"}, "is_reserved": 0}, {"lon": -77.0342345, "bike_id": "ea053229a0ccb8e455de443e7c5c7b55", "lat": 38.92241333333333, "fusion_lon": 0.0, "fusion_lat": 0.0, "type": "electric_scooter", "name": "ea053229a0ccb8e455de443e7c5c7b55", "is_disabled": 0, "rental_uris": {"ios": "https://dc.lft.to/lastmile_qr_scan", "android": "https://dc.lft.to/lastmile_qr_scan"}, "is_reserved": 0}, {"lon": -77.03401733333334, "bike_id": "1b062b9258703f39439f225eaed92469", "lat": 38.909751, "fusion_lon": 0.0, "fusion_lat": 0.0, "type": "electric_scooter", "name": "1b062b9258703f39439f225eaed92469", "is_disabled": 0, "rental_uris": {"ios": "https://dc.lft.to/lastmile_qr_scan", "android": "https://dc.lft.to/lastmile_qr_scan"}, "is_reserved": 0}, {"lon": -76.9739025, "bike_id": "5a7833d29da1bda1593b84a4bc0d5aea", "lat": 38.90553933333333, "fusion_lon": 0.0, "fusion_lat": 0.0, "type": "electric_scooter", "name": "5a7833d29da1bda1593b84a4bc0d5aea", "is_disabled": 0, "rental_uris": {"ios": "https://dc.lft.to/lastmile_qr_scan", "android": "https://dc.lft.to/lastmile_qr_scan"}, "is_reserved": 0}, {"lon": -77.04564033333334, "bike_id": "ed2d42dc4f7829d67b52a8db193aea5a", "lat": 38.91402183333334, "fusion_lon": 0.0, "fusion_lat": 0.0, "type": "electric_scooter", "name": "ed2d42dc4f7829d67b52a8db193aea5a", "is_disabled": 0, "rental_uris": {"ios": "https://dc.lft.to/lastmile_qr_scan", "android": "https://dc.lft.to/lastmile_qr_scan"}, "is_reserved": 0}, {"lon": -77.03501883333334, "bike_id": "13e962385e0ead615b86dce7f650c477", "lat": 38.93755016666667, "fusion_lon": 0.0, "fusion_lat": 0.0, "type": "electric_scooter", "name": "13e962385e0ead615b86dce7f650c477", "is_disabled": 0, "rental_uris": {"ios": "https://dc.lft.to/lastmile_qr_scan", "android": "https://dc.lft.to/lastmile_qr_scan"}, "is_reserved": 0}, {"lon": -77.02303416666666, "bike_id": "0e81160aeeef66e9fa6794594cdf9c95", "lat": 38.940894166666666, "fusion_lon": 0.0, "fusion_lat": 0.0, "type": "electric_scooter", "name": "0e81160aeeef66e9fa6794594cdf9c95", "is_disabled": 0, "rental_uris": {"ios": "https://dc.lft.to/lastmile_qr_scan", "android": "https://dc.lft.to/lastmile_qr_scan"}, "is_reserved": 0}, {"lon": -77.02706066666667, "bike_id": "b2ae42f11e499816a0674485198df1c1", "lat": 38.89723816666667, "fusion_lon": 0.0, "fusion_lat": 0.0, "type": "electric_scooter", "name": "b2ae42f11e499816a0674485198df1c1", "is_disabled": 0, "rental_uris": {"ios": "https://dc.lft.to/lastmile_qr_scan", "android": "https://dc.lft.to/lastmile_qr_scan"}, "is_reserved": 0}, {"lon": -76.946355, "bike_id": "dee22a4b424cf6c72feee5da0322d38d", "lat": 38.89833433333333, "fusion_lon": 0.0, "fusion_lat": 0.0, "type": "electric_scooter", "name": "dee22a4b424cf6c72feee5da0322d38d", "is_disabled": 0, "rental_uris": {"ios": "https://dc.lft.to/lastmile_qr_scan", "android": "https://dc.lft.to/lastmile_qr_scan"}, "is_reserved": 0}, {"lon": -76.97548883333333, "bike_id": "d23ee8ec1b92a417fd1a31d6dfc2c4cd", "lat": 38.90320916666667, "fusion_lon": 0.0, "fusion_lat": 0.0, "type": "electric_scooter", "name": "d23ee8ec1b92a417fd1a31d6dfc2c4cd", "is_disabled": 0, "rental_uris": {"ios": "https://dc.lft.to/lastmile_qr_scan", "android": "https://dc.lft.to/lastmile_qr_scan"}, "is_reserved": 0}, {"lon": -77.0633635, "bike_id": "82ba76b3bd5b7b9a47d84bc557e02d3a", "lat": 38.9067975, "fusion_lon": 0.0, "fusion_lat": 0.0, "type": "electric_scooter", "name": "82ba76b3bd5b7b9a47d84bc557e02d3a", "is_disabled": 0, "rental_uris": {"ios": "https://dc.lft.to/lastmile_qr_scan", "android": "https://dc.lft.to/lastmile_qr_scan"}, "is_reserved": 0}, {"lon": -77.0344745, "bike_id": "d79d9175e6f62ed50b3e2ac015104750", "lat": 38.908138666666666, "fusion_lon": 0.0, "fusion_lat": 0.0, "type": "electric_scooter", "name": "d79d9175e6f62ed50b3e2ac015104750", "is_disabled": 0, "rental_uris": {"ios": "https://dc.lft.to/lastmile_qr_scan", "android": "https://dc.lft.to/lastmile_qr_scan"}, "is_reserved": 0}, {"lon": -77.05706483333333, "bike_id": "ce05faac28e89b5e3e0f2421e607b9c4", "lat": 38.90544933333334, "fusion_lon": 0.0, "fusion_lat": 0.0, "type": "electric_scooter", "name": "ce05faac28e89b5e3e0f2421e607b9c4", "is_disabled": 0, "rental_uris": {"ios": "https://dc.lft.to/lastmile_qr_scan", "android": "https://dc.lft.to/lastmile_qr_scan"}, "is_reserved": 0}, {"lon": -77.034935, "bike_id": "bc8f714e7e7dd56359c0981f8dc92e67", "lat": 38.912546, "fusion_lon": 0.0, "fusion_lat": 0.0, "type": "electric_scooter", "name": "bc8f714e7e7dd56359c0981f8dc92e67", "is_disabled": 0, "rental_uris": {"ios": "https://dc.lft.to/lastmile_qr_scan", "android": "https://dc.lft.to/lastmile_qr_scan"}, "is_reserved": 0}, {"lon": -77.084582, "bike_id": "0c9c9002e11d4f4962c4155bd0fc308e", "lat": 38.84818716666667, "fusion_lon": 0.0, "fusion_lat": 0.0, "type": "electric_bike", "name": "0c9c9002e11d4f4962c4155bd0fc308e", "is_disabled": 0, "rental_uris": {"ios": "https://dc.lft.to/lastmile_qr_scan", "android": "https://dc.lft.to/lastmile_qr_scan"}, "is_reserved": 0}, {"lon": -77.04798216666667, "bike_id": "3c90741bc559f2a78ef8e11a155aa4c3", "lat": 38.914033, "fusion_lon": 0.0, "fusion_lat": 0.0, "type": "electric_scooter", "name": "3c90741bc559f2a78ef8e11a155aa4c3", "is_disabled": 0, "rental_uris": {"ios": "https://dc.lft.to/lastmile_qr_scan", "android": "https://dc.lft.to/lastmile_qr_scan"}, "is_reserved": 0}, {"lon": -77.02391733333333, "bike_id": "cc672e25d77a6c7ffd73e02168f0210c", "lat": 38.897428166666664, "fusion_lon": 0.0, "fusion_lat": 0.0, "type": "electric_scooter", "name": "cc672e25d77a6c7ffd73e02168f0210c", "is_disabled": 0, "rental_uris": {"ios": "https://dc.lft.to/lastmile_qr_scan", "android": "https://dc.lft.to/lastmile_qr_scan"}, "is_reserved": 0}, {"lon": -77.02438616666667, "bike_id": "7dadcb71eb7faa88cfebe9624e0ffa41", "lat": 38.884149666666666, "fusion_lon": 0.0, "fusion_lat": 0.0, "type": "electric_scooter", "name": "7dadcb71eb7faa88cfebe9624e0ffa41", "is_disabled": 0, "rental_uris": {"ios": "https://dc.lft.to/lastmile_qr_scan", "android": "https://dc.lft.to/lastmile_qr_scan"}, "is_reserved": 0}, {"lon": -77.00364116666667, "bike_id": "daa994e9aff262fbb2cec453e42e0afa", "lat": 38.898774333333336, "fusion_lon": 0.0, "fusion_lat": 0.0, "type": "electric_scooter", "name": "daa994e9aff262fbb2cec453e42e0afa", "is_disabled": 0, "rental_uris": {"ios": "https://dc.lft.to/lastmile_qr_scan", "android": "https://dc.lft.to/lastmile_qr_scan"}, "is_reserved": 0}, {"lon": -77.04148783333333, "bike_id": "b48f346889085c4f7a8ef233e4aecaf5", "lat": 38.89723883333333, "fusion_lon": 0.0, "fusion_lat": 0.0, "type": "electric_scooter", "name": "b48f346889085c4f7a8ef233e4aecaf5", "is_disabled": 0, "rental_uris": {"ios": "https://dc.lft.to/lastmile_qr_scan", "android": "https://dc.lft.to/lastmile_qr_scan"}, "is_reserved": 0}, {"lon": -77.02261416666667, "bike_id": "9c8626f09a994659b6994ca0f5748816", "lat": 38.90720183333333, "fusion_lon": 0.0, "fusion_lat": 0.0, "type": "electric_scooter", "name": "9c8626f09a994659b6994ca0f5748816", "is_disabled": 0, "rental_uris": {"ios": "https://dc.lft.to/lastmile_qr_scan", "android": "https://dc.lft.to/lastmile_qr_scan"}, "is_reserved": 0}, {"lon": -76.98236716666666, "bike_id": "75b752fece378e7217baabe6713c51cd", "lat": 38.888633166666665, "fusion_lon": 0.0, "fusion_lat": 0.0, "type": "electric_scooter", "name": "75b752fece378e7217baabe6713c51cd", "is_disabled": 0, "rental_uris": {"ios": "https://dc.lft.to/lastmile_qr_scan", "android": "https://dc.lft.to/lastmile_qr_scan"}, "is_reserved": 0}, {"lon": -77.06491166666666, "bike_id": "f1a901d7e763ad23170c07e9cdc7a719", "lat": 38.92904133333333, "fusion_lon": 0.0, "fusion_lat": 0.0, "type": "electric_scooter", "name": "f1a901d7e763ad23170c07e9cdc7a719", "is_disabled": 0, "rental_uris": {"ios": "https://dc.lft.to/lastmile_qr_scan", "android": "https://dc.lft.to/lastmile_qr_scan"}, "is_reserved": 0}, {"lon": -77.04157833333333, "bike_id": "1fcb427a51c4b409e71e947ae80d880b", "lat": 38.91248383333333, "fusion_lon": 0.0, "fusion_lat": 0.0, "type": "electric_scooter", "name": "1fcb427a51c4b409e71e947ae80d880b", "is_disabled": 0, "rental_uris": {"ios": "https://dc.lft.to/lastmile_qr_scan", "android": "https://dc.lft.to/lastmile_qr_scan"}, "is_reserved": 0}, {"lon": -77.040051, "bike_id": "61ada6ae58f714fea17ac8e1ac71ca5f", "lat": 38.91555016666667, "fusion_lon": 0.0, "fusion_lat": 0.0, "type": "electric_scooter", "name": "61ada6ae58f714fea17ac8e1ac71ca5f", "is_disabled": 0, "rental_uris": {"ios": "https://dc.lft.to/lastmile_qr_scan", "android": "https://dc.lft.to/lastmile_qr_scan"}, "is_reserved": 0}, {"lon": -77.00208283333333, "bike_id": "52645b75176f2ab062ced06927aeda0f", "lat": 38.90026366666667, "fusion_lon": 0.0, "fusion_lat": 0.0, "type": "electric_scooter", "name": "52645b75176f2ab062ced06927aeda0f", "is_disabled": 0, "rental_uris": {"ios": "https://dc.lft.to/lastmile_qr_scan", "android": "https://dc.lft.to/lastmile_qr_scan"}, "is_reserved": 0}, {"lon": -77.0334855, "bike_id": "3d4b1af0fb07d933c241aa792141757b", "lat": 38.923493666666666, "fusion_lon": 0.0, "fusion_lat": 0.0, "type": "electric_scooter", "name": "3d4b1af0fb07d933c241aa792141757b", "is_disabled": 0, "rental_uris": {"ios": "https://dc.lft.to/lastmile_qr_scan", "android": "https://dc.lft.to/lastmile_qr_scan"}, "is_reserved": 0}, {"lon": -76.99497033333333, "bike_id": "018778d3119b91653a0ff61f5129ec18", "lat": 38.932421833333336, "fusion_lon": 0.0, "fusion_lat": 0.0, "type": "electric_scooter", "name": "018778d3119b91653a0ff61f5129ec18", "is_disabled": 0, "rental_uris": {"ios": "https://dc.lft.to/lastmile_qr_scan", "android": "https://dc.lft.to/lastmile_qr_scan"}, "is_reserved": 0}, {"lon": -77.07922916666666, "bike_id": "96ee48f1cd4289a86dbdfa475337c4f4", "lat": 38.9311435, "fusion_lon": 0.0, "fusion_lat": 0.0, "type": "electric_scooter", "name": "96ee48f1cd4289a86dbdfa475337c4f4", "is_disabled": 0, "rental_uris": {"ios": "https://dc.lft.to/lastmile_qr_scan", "android": "https://dc.lft.to/lastmile_qr_scan"}, "is_reserved": 0}, {"lon": -77.02437966666666, "bike_id": "f64b581fbc7fca76548cd88aef9047c2", "lat": 38.92505833333333, "fusion_lon": 0.0, "fusion_lat": 0.0, "type": "electric_scooter", "name": "f64b581fbc7fca76548cd88aef9047c2", "is_disabled": 0, "rental_uris": {"ios": "https://dc.lft.to/lastmile_qr_scan", "android": "https://dc.lft.to/lastmile_qr_scan"}, "is_reserved": 0}, {"lon": -77.0292555, "bike_id": "a864357b99b0549f825d6306bce2ce31", "lat": 38.934591, "fusion_lon": 0.0, "fusion_lat": 0.0, "type": "electric_scooter", "name": "a864357b99b0549f825d6306bce2ce31", "is_disabled": 0, "rental_uris": {"ios": "https://dc.lft.to/lastmile_qr_scan", "android": "https://dc.lft.to/lastmile_qr_scan"}, "is_reserved": 0}, {"lon": -76.98167166666667, "bike_id": "c9721012cfbe1d41d1b569ed44860c4c", "lat": 38.90324566666666, "fusion_lon": 0.0, "fusion_lat": 0.0, "type": "electric_scooter", "name": "c9721012cfbe1d41d1b569ed44860c4c", "is_disabled": 0, "rental_uris": {"ios": "https://dc.lft.to/lastmile_qr_scan", "android": "https://dc.lft.to/lastmile_qr_scan"}, "is_reserved": 0}, {"lon": -77.03822816666667, "bike_id": "c28aaa63f722b4034edea5f4719a10ba", "lat": 38.906622166666665, "fusion_lon": 0.0, "fusion_lat": 0.0, "type": "electric_scooter", "name": "c28aaa63f722b4034edea5f4719a10ba", "is_disabled": 0, "rental_uris": {"ios": "https://dc.lft.to/lastmile_qr_scan", "android": "https://dc.lft.to/lastmile_qr_scan"}, "is_reserved": 0}, {"lon": -77.030655, "bike_id": "9c3979762048dab3a5958ae0ccc0206b", "lat": 38.92246733333333, "fusion_lon": 0.0, "fusion_lat": 0.0, "type": "electric_scooter", "name": "9c3979762048dab3a5958ae0ccc0206b", "is_disabled": 0, "rental_uris": {"ios": "https://dc.lft.to/lastmile_qr_scan", "android": "https://dc.lft.to/lastmile_qr_scan"}, "is_reserved": 0}, {"lon": -76.98856716666667, "bike_id": "5041ed59b8d21551bae69502b05cd1fe", "lat": 38.89173516666666, "fusion_lon": 0.0, "fusion_lat": 0.0, "type": "electric_scooter", "name": "5041ed59b8d21551bae69502b05cd1fe", "is_disabled": 0, "rental_uris": {"ios": "https://dc.lft.to/lastmile_qr_scan", "android": "https://dc.lft.to/lastmile_qr_scan"}, "is_reserved": 0}, {"lon": -77.02821333333333, "bike_id": "44253b9696c6157d8246298aaba006fa", "lat": 38.9327085, "fusion_lon": 0.0, "fusion_lat": 0.0, "type": "electric_scooter", "name": "44253b9696c6157d8246298aaba006fa", "is_disabled": 0, "rental_uris": {"ios": "https://dc.lft.to/lastmile_qr_scan", "android": "https://dc.lft.to/lastmile_qr_scan"}, "is_reserved": 0}, {"lon": -77.01971216666666, "bike_id": "a0fb7edba7534ae67fba8e15d405c7a8", "lat": 38.9023805, "fusion_lon": 0.0, "fusion_lat": 0.0, "type": "electric_scooter", "name": "a0fb7edba7534ae67fba8e15d405c7a8", "is_disabled": 0, "rental_uris": {"ios": "https://dc.lft.to/lastmile_qr_scan", "android": "https://dc.lft.to/lastmile_qr_scan"}, "is_reserved": 0}, {"lon": -76.98351983333333, "bike_id": "ca48a65297d7b2b86daf85adada87f83", "lat": 38.887668166666664, "fusion_lon": 0.0, "fusion_lat": 0.0, "type": "electric_scooter", "name": "ca48a65297d7b2b86daf85adada87f83", "is_disabled": 0, "rental_uris": {"ios": "https://dc.lft.to/lastmile_qr_scan", "android": "https://dc.lft.to/lastmile_qr_scan"}, "is_reserved": 0}, {"lon": -76.98803966666667, "bike_id": "fabc4eb30ff092ea07c9aef605016338", "lat": 38.86727616666667, "fusion_lon": 0.0, "fusion_lat": 0.0, "type": "electric_scooter", "name": "fabc4eb30ff092ea07c9aef605016338", "is_disabled": 0, "rental_uris": {"ios": "https://dc.lft.to/lastmile_qr_scan", "android": "https://dc.lft.to/lastmile_qr_scan"}, "is_reserved": 0}, {"lon": -77.031869, "bike_id": "70f506f964c3c1f4d50b011cb5b1b0ef", "lat": 38.913025833333336, "fusion_lon": 0.0, "fusion_lat": 0.0, "type": "electric_scooter", "name": "70f506f964c3c1f4d50b011cb5b1b0ef", "is_disabled": 0, "rental_uris": {"ios": "https://dc.lft.to/lastmile_qr_scan", "android": "https://dc.lft.to/lastmile_qr_scan"}, "is_reserved": 0}, {"lon": -76.97670766666667, "bike_id": "7265a531407cc56fc1210c4ffc69e68b", "lat": 38.952456166666664, "fusion_lon": 0.0, "fusion_lat": 0.0, "type": "electric_bike", "name": "7265a531407cc56fc1210c4ffc69e68b", "is_disabled": 0, "rental_uris": {"ios": "https://dc.lft.to/lastmile_qr_scan", "android": "https://dc.lft.to/lastmile_qr_scan"}, "is_reserved": 0}, {"lon": -77.07111516666667, "bike_id": "1b327051e2b8472a7bc34a563dd341bc", "lat": 38.91969983333333, "fusion_lon": 0.0, "fusion_lat": 0.0, "type": "electric_scooter", "name": "1b327051e2b8472a7bc34a563dd341bc", "is_disabled": 0, "rental_uris": {"ios": "https://dc.lft.to/lastmile_qr_scan", "android": "https://dc.lft.to/lastmile_qr_scan"}, "is_reserved": 0}, {"lon": -77.0117655, "bike_id": "63c595fd596e609ede235d7bc00cda88", "lat": 38.900412, "fusion_lon": 0.0, "fusion_lat": 0.0, "type": "electric_scooter", "name": "63c595fd596e609ede235d7bc00cda88", "is_disabled": 0, "rental_uris": {"ios": "https://dc.lft.to/lastmile_qr_scan", "android": "https://dc.lft.to/lastmile_qr_scan"}, "is_reserved": 0}, {"lon": -77.029555, "bike_id": "6fc25ed78b901ab24c5c78dc0b046a88", "lat": 38.91668933333333, "fusion_lon": 0.0, "fusion_lat": 0.0, "type": "electric_scooter", "name": "6fc25ed78b901ab24c5c78dc0b046a88", "is_disabled": 0, "rental_uris": {"ios": "https://dc.lft.to/lastmile_qr_scan", "android": "https://dc.lft.to/lastmile_qr_scan"}, "is_reserved": 0}, {"lon": -77.0310735, "bike_id": "fbbf1547d91bbd1bd0ce52b053f988b5", "lat": 38.915614833333336, "fusion_lon": 0.0, "fusion_lat": 0.0, "type": "electric_scooter", "name": "fbbf1547d91bbd1bd0ce52b053f988b5", "is_disabled": 0, "rental_uris": {"ios": "https://dc.lft.to/lastmile_qr_scan", "android": "https://dc.lft.to/lastmile_qr_scan"}, "is_reserved": 0}, {"lon": -76.99030083333334, "bike_id": "9d7b59c9367b74d3d31146e9c238a71d", "lat": 38.898785333333336, "fusion_lon": 0.0, "fusion_lat": 0.0, "type": "electric_scooter", "name": "9d7b59c9367b74d3d31146e9c238a71d", "is_disabled": 0, "rental_uris": {"ios": "https://dc.lft.to/lastmile_qr_scan", "android": "https://dc.lft.to/lastmile_qr_scan"}, "is_reserved": 0}, {"lon": -77.02538233333334, "bike_id": "9ba063c5190b0e08c9b4b66ee04d5b82", "lat": 38.9410265, "fusion_lon": 0.0, "fusion_lat": 0.0, "type": "electric_scooter", "name": "9ba063c5190b0e08c9b4b66ee04d5b82", "is_disabled": 0, "rental_uris": {"ios": "https://dc.lft.to/lastmile_qr_scan", "android": "https://dc.lft.to/lastmile_qr_scan"}, "is_reserved": 0}, {"lon": -77.03780583333334, "bike_id": "7aa849ed53e62ea8150dc016d58a5f50", "lat": 38.92962983333334, "fusion_lon": 0.0, "fusion_lat": 0.0, "type": "electric_scooter", "name": "7aa849ed53e62ea8150dc016d58a5f50", "is_disabled": 0, "rental_uris": {"ios": "https://dc.lft.to/lastmile_qr_scan", "android": "https://dc.lft.to/lastmile_qr_scan"}, "is_reserved": 0}, {"lon": -77.03959666666667, "bike_id": "b588433f4214780e83b19944c4d88c86", "lat": 38.9162185, "fusion_lon": 0.0, "fusion_lat": 0.0, "type": "electric_scooter", "name": "b588433f4214780e83b19944c4d88c86", "is_disabled": 0, "rental_uris": {"ios": "https://dc.lft.to/lastmile_qr_scan", "android": "https://dc.lft.to/lastmile_qr_scan"}, "is_reserved": 0}, {"lon": -76.9840345, "bike_id": "e7867ae792782d2da97eda9f28404eb2", "lat": 38.90627633333333, "fusion_lon": 0.0, "fusion_lat": 0.0, "type": "electric_scooter", "name": "e7867ae792782d2da97eda9f28404eb2", "is_disabled": 0, "rental_uris": {"ios": "https://dc.lft.to/lastmile_qr_scan", "android": "https://dc.lft.to/lastmile_qr_scan"}, "is_reserved": 0}, {"lon": -76.98941766666667, "bike_id": "4a2710574b8412e0639e0209d52cc7a5", "lat": 38.918354, "fusion_lon": 0.0, "fusion_lat": 0.0, "type": "electric_scooter", "name": "4a2710574b8412e0639e0209d52cc7a5", "is_disabled": 0, "rental_uris": {"ios": "https://dc.lft.to/lastmile_qr_scan", "android": "https://dc.lft.to/lastmile_qr_scan"}, "is_reserved": 0}, {"lon": -76.98768283333334, "bike_id": "221694711a78ec2e2d2c8c7b7e1c2263", "lat": 38.86607816666667, "fusion_lon": 0.0, "fusion_lat": 0.0, "type": "electric_bike", "name": "221694711a78ec2e2d2c8c7b7e1c2263", "is_disabled": 0, "rental_uris": {"ios": "https://dc.lft.to/lastmile_qr_scan", "android": "https://dc.lft.to/lastmile_qr_scan"}, "is_reserved": 0}, {"lon": -77.03956833333334, "bike_id": "371973158376d3232d39977a12413531", "lat": 38.89243, "fusion_lon": 0.0, "fusion_lat": 0.0, "type": "electric_scooter", "name": "371973158376d3232d39977a12413531", "is_disabled": 0, "rental_uris": {"ios": "https://dc.lft.to/lastmile_qr_scan", "android": "https://dc.lft.to/lastmile_qr_scan"}, "is_reserved": 0}, {"lon": -77.02568183333334, "bike_id": "7f547940fb0341c0ced70897e553be5d", "lat": 38.913394333333336, "fusion_lon": 0.0, "fusion_lat": 0.0, "type": "electric_scooter", "name": "7f547940fb0341c0ced70897e553be5d", "is_disabled": 0, "rental_uris": {"ios": "https://dc.lft.to/lastmile_qr_scan", "android": "https://dc.lft.to/lastmile_qr_scan"}, "is_reserved": 0}, {"lon": -77.02619033333333, "bike_id": "f81dcf1b609f99cd690149e1d7d30462", "lat": 38.933543666666665, "fusion_lon": 0.0, "fusion_lat": 0.0, "type": "electric_scooter", "name": "f81dcf1b609f99cd690149e1d7d30462", "is_disabled": 0, "rental_uris": {"ios": "https://dc.lft.to/lastmile_qr_scan", "android": "https://dc.lft.to/lastmile_qr_scan"}, "is_reserved": 0}, {"lon": -77.04322933333333, "bike_id": "e09b33f68afd26dd225470ceb5e1e7e9", "lat": 38.922556166666666, "fusion_lon": 0.0, "fusion_lat": 0.0, "type": "electric_scooter", "name": "e09b33f68afd26dd225470ceb5e1e7e9", "is_disabled": 0, "rental_uris": {"ios": "https://dc.lft.to/lastmile_qr_scan", "android": "https://dc.lft.to/lastmile_qr_scan"}, "is_reserved": 0}, {"lon": -77.04183566666667, "bike_id": "23be4d046c13a42f9eb85be98975a53c", "lat": 38.919887833333334, "fusion_lon": 0.0, "fusion_lat": 0.0, "type": "electric_scooter", "name": "23be4d046c13a42f9eb85be98975a53c", "is_disabled": 0, "rental_uris": {"ios": "https://dc.lft.to/lastmile_qr_scan", "android": "https://dc.lft.to/lastmile_qr_scan"}, "is_reserved": 0}, {"lon": -77.04873733333334, "bike_id": "803423b11ded4312e90b8da78b6791ea", "lat": 38.8923405, "fusion_lon": 0.0, "fusion_lat": 0.0, "type": "electric_scooter", "name": "803423b11ded4312e90b8da78b6791ea", "is_disabled": 0, "rental_uris": {"ios": "https://dc.lft.to/lastmile_qr_scan", "android": "https://dc.lft.to/lastmile_qr_scan"}, "is_reserved": 0}, {"lon": -77.03624083333334, "bike_id": "a407cea322b32f0c4c4e21edd8ef183f", "lat": 38.907865, "fusion_lon": 0.0, "fusion_lat": 0.0, "type": "electric_scooter", "name": "a407cea322b32f0c4c4e21edd8ef183f", "is_disabled": 0, "rental_uris": {"ios": "https://dc.lft.to/lastmile_qr_scan", "android": "https://dc.lft.to/lastmile_qr_scan"}, "is_reserved": 0}, {"lon": -77.02066416666666, "bike_id": "d34eb108b56d190c54ba6f758254be29", "lat": 38.927020666666664, "fusion_lon": 0.0, "fusion_lat": 0.0, "type": "electric_scooter", "name": "d34eb108b56d190c54ba6f758254be29", "is_disabled": 0, "rental_uris": {"ios": "https://dc.lft.to/lastmile_qr_scan", "android": "https://dc.lft.to/lastmile_qr_scan"}, "is_reserved": 0}, {"lon": -77.04156716666667, "bike_id": "030b773e63f0e7cacda68e98089d71ac", "lat": 38.917977, "fusion_lon": 0.0, "fusion_lat": 0.0, "type": "electric_scooter", "name": "030b773e63f0e7cacda68e98089d71ac", "is_disabled": 0, "rental_uris": {"ios": "https://dc.lft.to/lastmile_qr_scan", "android": "https://dc.lft.to/lastmile_qr_scan"}, "is_reserved": 0}, {"lon": -76.988318, "bike_id": "a80f5dd5562f2f85d3aca3dad68cb3c5", "lat": 38.901251333333335, "fusion_lon": 0.0, "fusion_lat": 0.0, "type": "electric_scooter", "name": "a80f5dd5562f2f85d3aca3dad68cb3c5", "is_disabled": 0, "rental_uris": {"ios": "https://dc.lft.to/lastmile_qr_scan", "android": "https://dc.lft.to/lastmile_qr_scan"}, "is_reserved": 0}, {"lon": -77.017634, "bike_id": "50b749e53adaf3c0175c56aa105fe732", "lat": 38.902681333333334, "fusion_lon": 0.0, "fusion_lat": 0.0, "type": "electric_scooter", "name": "50b749e53adaf3c0175c56aa105fe732", "is_disabled": 0, "rental_uris": {"ios": "https://dc.lft.to/lastmile_qr_scan", "android": "https://dc.lft.to/lastmile_qr_scan"}, "is_reserved": 0}, {"lon": -77.04490116666666, "bike_id": "2a84568f3bbc4950db28bca9128898f8", "lat": 38.903741333333336, "fusion_lon": 0.0, "fusion_lat": 0.0, "type": "electric_scooter", "name": "2a84568f3bbc4950db28bca9128898f8", "is_disabled": 0, "rental_uris": {"ios": "https://dc.lft.to/lastmile_qr_scan", "android": "https://dc.lft.to/lastmile_qr_scan"}, "is_reserved": 0}, {"lon": -77.09493166666667, "bike_id": "2d16f6c6917a40ec4cfbb09c0f8473c4", "lat": 38.807621, "fusion_lon": 0.0, "fusion_lat": 0.0, "type": "electric_bike", "name": "2d16f6c6917a40ec4cfbb09c0f8473c4", "is_disabled": 0, "rental_uris": {"ios": "https://dc.lft.to/lastmile_qr_scan", "android": "https://dc.lft.to/lastmile_qr_scan"}, "is_reserved": 0}, {"lon": -77.01842916666666, "bike_id": "9b5d20a5c2c74320e664962b97a72ab5", "lat": 38.94163616666667, "fusion_lon": 0.0, "fusion_lat": 0.0, "type": "electric_scooter", "name": "9b5d20a5c2c74320e664962b97a72ab5", "is_disabled": 0, "rental_uris": {"ios": "https://dc.lft.to/lastmile_qr_scan", "android": "https://dc.lft.to/lastmile_qr_scan"}, "is_reserved": 0}, {"lon": -77.0385315, "bike_id": "12bbf5a2bf07d9ac0a7d9124ec7c63b3", "lat": 38.91714316666667, "fusion_lon": 0.0, "fusion_lat": 0.0, "type": "electric_scooter", "name": "12bbf5a2bf07d9ac0a7d9124ec7c63b3", "is_disabled": 0, "rental_uris": {"ios": "https://dc.lft.to/lastmile_qr_scan", "android": "https://dc.lft.to/lastmile_qr_scan"}, "is_reserved": 0}, {"lon": -77.01478166666666, "bike_id": "308d2fa21cdaa0811742a581ccf3d406", "lat": 38.91917766666667, "fusion_lon": 0.0, "fusion_lat": 0.0, "type": "electric_scooter", "name": "308d2fa21cdaa0811742a581ccf3d406", "is_disabled": 0, "rental_uris": {"ios": "https://dc.lft.to/lastmile_qr_scan", "android": "https://dc.lft.to/lastmile_qr_scan"}, "is_reserved": 0}, {"lon": -77.00580516666666, "bike_id": "2e2d6ca12d37cfc0539338b9f05216bb", "lat": 38.87304566666667, "fusion_lon": 0.0, "fusion_lat": 0.0, "type": "electric_scooter", "name": "2e2d6ca12d37cfc0539338b9f05216bb", "is_disabled": 0, "rental_uris": {"ios": "https://dc.lft.to/lastmile_qr_scan", "android": "https://dc.lft.to/lastmile_qr_scan"}, "is_reserved": 0}, {"lon": -77.03633966666666, "bike_id": "ef512f9961f834ca9e384f3f576d0b2e", "lat": 38.9245985, "fusion_lon": 0.0, "fusion_lat": 0.0, "type": "electric_scooter", "name": "ef512f9961f834ca9e384f3f576d0b2e", "is_disabled": 0, "rental_uris": {"ios": "https://dc.lft.to/lastmile_qr_scan", "android": "https://dc.lft.to/lastmile_qr_scan"}, "is_reserved": 0}, {"lon": -77.03212933333333, "bike_id": "3077b5dc032f6b52599d20109074e66c", "lat": 38.892433833333335, "fusion_lon": 0.0, "fusion_lat": 0.0, "type": "electric_scooter", "name": "3077b5dc032f6b52599d20109074e66c", "is_disabled": 0, "rental_uris": {"ios": "https://dc.lft.to/lastmile_qr_scan", "android": "https://dc.lft.to/lastmile_qr_scan"}, "is_reserved": 0}, {"lon": -76.96906483333333, "bike_id": "4f54aa8bb885f2b74f3b368df686d58a", "lat": 38.84610683333333, "fusion_lon": 0.0, "fusion_lat": 0.0, "type": "electric_bike", "name": "4f54aa8bb885f2b74f3b368df686d58a", "is_disabled": 0, "rental_uris": {"ios": "https://dc.lft.to/lastmile_qr_scan", "android": "https://dc.lft.to/lastmile_qr_scan"}, "is_reserved": 0}, {"lon": -77.0311935, "bike_id": "6e82fa5b1284ef47c36635ea634dad0a", "lat": 38.91272, "fusion_lon": 0.0, "fusion_lat": 0.0, "type": "electric_scooter", "name": "6e82fa5b1284ef47c36635ea634dad0a", "is_disabled": 0, "rental_uris": {"ios": "https://dc.lft.to/lastmile_qr_scan", "android": "https://dc.lft.to/lastmile_qr_scan"}, "is_reserved": 0}, {"lon": -77.11589983333333, "bike_id": "f8d2f564f0f8bdcb0120eedd5226e2f6", "lat": 39.07494366666667, "fusion_lon": 0.0, "fusion_lat": 0.0, "type": "electric_bike", "name": "f8d2f564f0f8bdcb0120eedd5226e2f6", "is_disabled": 0, "rental_uris": {"ios": "https://dc.lft.to/lastmile_qr_scan", "android": "https://dc.lft.to/lastmile_qr_scan"}, "is_reserved": 0}, {"lon": -76.990284, "bike_id": "e147a6bc46bd0794efc463cb4cf167e7", "lat": 38.8640165, "fusion_lon": 0.0, "fusion_lat": 0.0, "type": "electric_scooter", "name": "e147a6bc46bd0794efc463cb4cf167e7", "is_disabled": 0, "rental_uris": {"ios": "https://dc.lft.to/lastmile_qr_scan", "android": "https://dc.lft.to/lastmile_qr_scan"}, "is_reserved": 0}, {"lon": -76.9906965, "bike_id": "c2c2008a0859d2bac661a33f0e6429b2", "lat": 38.92746283333334, "fusion_lon": 0.0, "fusion_lat": 0.0, "type": "electric_scooter", "name": "c2c2008a0859d2bac661a33f0e6429b2", "is_disabled": 0, "rental_uris": {"ios": "https://dc.lft.to/lastmile_qr_scan", "android": "https://dc.lft.to/lastmile_qr_scan"}, "is_reserved": 0}, {"lon": -77.06297883333333, "bike_id": "b596fe15ee99728b1f45110a2beafc37", "lat": 38.906089333333334, "fusion_lon": 0.0, "fusion_lat": 0.0, "type": "electric_scooter", "name": "b596fe15ee99728b1f45110a2beafc37", "is_disabled": 0, "rental_uris": {"ios": "https://dc.lft.to/lastmile_qr_scan", "android": "https://dc.lft.to/lastmile_qr_scan"}, "is_reserved": 0}, {"lon": -77.029776, "bike_id": "bbce9d49531f56625891fae9112e509a", "lat": 38.91626333333333, "fusion_lon": 0.0, "fusion_lat": 0.0, "type": "electric_scooter", "name": "bbce9d49531f56625891fae9112e509a", "is_disabled": 0, "rental_uris": {"ios": "https://dc.lft.to/lastmile_qr_scan", "android": "https://dc.lft.to/lastmile_qr_scan"}, "is_reserved": 0}, {"lon": -77.00443383333334, "bike_id": "85a64b903281fbf997faca27b7f9bfd6", "lat": 38.88045733333333, "fusion_lon": 0.0, "fusion_lat": 0.0, "type": "electric_scooter", "name": "85a64b903281fbf997faca27b7f9bfd6", "is_disabled": 0, "rental_uris": {"ios": "https://dc.lft.to/lastmile_qr_scan", "android": "https://dc.lft.to/lastmile_qr_scan"}, "is_reserved": 0}, {"lon": -77.03213066666666, "bike_id": "d3a408a22ab17e923535ccc5c848385d", "lat": 38.90898033333333, "fusion_lon": 0.0, "fusion_lat": 0.0, "type": "electric_scooter", "name": "d3a408a22ab17e923535ccc5c848385d", "is_disabled": 0, "rental_uris": {"ios": "https://dc.lft.to/lastmile_qr_scan", "android": "https://dc.lft.to/lastmile_qr_scan"}, "is_reserved": 0}, {"lon": -77.02707166666667, "bike_id": "10aafc07f2156cb31f686b91507abeb7", "lat": 38.920355666666666, "fusion_lon": 0.0, "fusion_lat": 0.0, "type": "electric_scooter", "name": "10aafc07f2156cb31f686b91507abeb7", "is_disabled": 0, "rental_uris": {"ios": "https://dc.lft.to/lastmile_qr_scan", "android": "https://dc.lft.to/lastmile_qr_scan"}, "is_reserved": 0}, {"lon": -76.98243, "bike_id": "fc3ddd82f5d3d1c85ff77f2e9383a0f2", "lat": 38.86456783333333, "fusion_lon": 0.0, "fusion_lat": 0.0, "type": "electric_scooter", "name": "fc3ddd82f5d3d1c85ff77f2e9383a0f2", "is_disabled": 0, "rental_uris": {"ios": "https://dc.lft.to/lastmile_qr_scan", "android": "https://dc.lft.to/lastmile_qr_scan"}, "is_reserved": 0}, {"lon": -77.03230033333334, "bike_id": "177d3687941ff0da7242b00a864a8615", "lat": 38.92984633333333, "fusion_lon": 0.0, "fusion_lat": 0.0, "type": "electric_scooter", "name": "177d3687941ff0da7242b00a864a8615", "is_disabled": 0, "rental_uris": {"ios": "https://dc.lft.to/lastmile_qr_scan", "android": "https://dc.lft.to/lastmile_qr_scan"}, "is_reserved": 0}, {"lon": -77.00062483333333, "bike_id": "6dae87ffaa9747c083ffcfee24884560", "lat": 38.8867825, "fusion_lon": 0.0, "fusion_lat": 0.0, "type": "electric_scooter", "name": "6dae87ffaa9747c083ffcfee24884560", "is_disabled": 0, "rental_uris": {"ios": "https://dc.lft.to/lastmile_qr_scan", "android": "https://dc.lft.to/lastmile_qr_scan"}, "is_reserved": 0}, {"lon": -76.997845, "bike_id": "da2f1a5b84c1742f6dce77fcb3b617a8", "lat": 38.890898166666666, "fusion_lon": 0.0, "fusion_lat": 0.0, "type": "electric_scooter", "name": "da2f1a5b84c1742f6dce77fcb3b617a8", "is_disabled": 0, "rental_uris": {"ios": "https://dc.lft.to/lastmile_qr_scan", "android": "https://dc.lft.to/lastmile_qr_scan"}, "is_reserved": 0}, {"lon": -77.02091516666667, "bike_id": "a1e7aaeffa8904fe86e0d443141b4340", "lat": 38.91121183333333, "fusion_lon": 0.0, "fusion_lat": 0.0, "type": "electric_scooter", "name": "a1e7aaeffa8904fe86e0d443141b4340", "is_disabled": 0, "rental_uris": {"ios": "https://dc.lft.to/lastmile_qr_scan", "android": "https://dc.lft.to/lastmile_qr_scan"}, "is_reserved": 0}, {"lon": -77.02310266666667, "bike_id": "2621c84a6213a4612237758ca2cdefc3", "lat": 38.91844566666666, "fusion_lon": 0.0, "fusion_lat": 0.0, "type": "electric_scooter", "name": "2621c84a6213a4612237758ca2cdefc3", "is_disabled": 0, "rental_uris": {"ios": "https://dc.lft.to/lastmile_qr_scan", "android": "https://dc.lft.to/lastmile_qr_scan"}, "is_reserved": 0}, {"lon": -77.024494, "bike_id": "67ce7fcadf9c1c1247bbfb27629d83ae", "lat": 38.90256083333333, "fusion_lon": 0.0, "fusion_lat": 0.0, "type": "electric_scooter", "name": "67ce7fcadf9c1c1247bbfb27629d83ae", "is_disabled": 0, "rental_uris": {"ios": "https://dc.lft.to/lastmile_qr_scan", "android": "https://dc.lft.to/lastmile_qr_scan"}, "is_reserved": 0}, {"lon": -77.03286483333333, "bike_id": "e7a1dcfa314bdc2c456e1e58ffcbb756", "lat": 38.9304095, "fusion_lon": 0.0, "fusion_lat": 0.0, "type": "electric_scooter", "name": "e7a1dcfa314bdc2c456e1e58ffcbb756", "is_disabled": 0, "rental_uris": {"ios": "https://dc.lft.to/lastmile_qr_scan", "android": "https://dc.lft.to/lastmile_qr_scan"}, "is_reserved": 0}, {"lon": -76.99916133333333, "bike_id": "069a9c0d729a459a6159aaf0df749df6", "lat": 38.889739, "fusion_lon": 0.0, "fusion_lat": 0.0, "type": "electric_scooter", "name": "069a9c0d729a459a6159aaf0df749df6", "is_disabled": 0, "rental_uris": {"ios": "https://dc.lft.to/lastmile_qr_scan", "android": "https://dc.lft.to/lastmile_qr_scan"}, "is_reserved": 0}, {"lon": -76.98105816666667, "bike_id": "b87db84093edaa3ce0775adcb04b8275", "lat": 38.8772785, "fusion_lon": 0.0, "fusion_lat": 0.0, "type": "electric_bike", "name": "b87db84093edaa3ce0775adcb04b8275", "is_disabled": 0, "rental_uris": {"ios": "https://dc.lft.to/lastmile_qr_scan", "android": "https://dc.lft.to/lastmile_qr_scan"}, "is_reserved": 0}, {"lon": -77.03662033333333, "bike_id": "8f27497da17c878a448ff0d86ae93726", "lat": 38.9334145, "fusion_lon": 0.0, "fusion_lat": 0.0, "type": "electric_scooter", "name": "8f27497da17c878a448ff0d86ae93726", "is_disabled": 0, "rental_uris": {"ios": "https://dc.lft.to/lastmile_qr_scan", "android": "https://dc.lft.to/lastmile_qr_scan"}, "is_reserved": 0}, {"lon": -77.03322716666666, "bike_id": "1d80b4369d83847cd44e35e883cb9098", "lat": 38.926504666666666, "fusion_lon": 0.0, "fusion_lat": 0.0, "type": "electric_scooter", "name": "1d80b4369d83847cd44e35e883cb9098", "is_disabled": 0, "rental_uris": {"ios": "https://dc.lft.to/lastmile_qr_scan", "android": "https://dc.lft.to/lastmile_qr_scan"}, "is_reserved": 0}, {"lon": -77.03855283333333, "bike_id": "ebbb9cac6cd99c8089af44a47a4372c1", "lat": 38.917133666666665, "fusion_lon": 0.0, "fusion_lat": 0.0, "type": "electric_scooter", "name": "ebbb9cac6cd99c8089af44a47a4372c1", "is_disabled": 0, "rental_uris": {"ios": "https://dc.lft.to/lastmile_qr_scan", "android": "https://dc.lft.to/lastmile_qr_scan"}, "is_reserved": 0}, {"lon": -77.03111033333333, "bike_id": "7124787872cefd375b3cd5df9fac0cc5", "lat": 38.897056166666665, "fusion_lon": 0.0, "fusion_lat": 0.0, "type": "electric_scooter", "name": "7124787872cefd375b3cd5df9fac0cc5", "is_disabled": 0, "rental_uris": {"ios": "https://dc.lft.to/lastmile_qr_scan", "android": "https://dc.lft.to/lastmile_qr_scan"}, "is_reserved": 0}, {"lon": -77.00954383333334, "bike_id": "74e69ffb670b14bab07c8b1956efedc9", "lat": 38.92129883333333, "fusion_lon": 0.0, "fusion_lat": 0.0, "type": "electric_scooter", "name": "74e69ffb670b14bab07c8b1956efedc9", "is_disabled": 0, "rental_uris": {"ios": "https://dc.lft.to/lastmile_qr_scan", "android": "https://dc.lft.to/lastmile_qr_scan"}, "is_reserved": 0}, {"lon": -77.03350516666667, "bike_id": "b57529c78b96146c67fd12503a47c943", "lat": 38.90967033333333, "fusion_lon": 0.0, "fusion_lat": 0.0, "type": "electric_scooter", "name": "b57529c78b96146c67fd12503a47c943", "is_disabled": 0, "rental_uris": {"ios": "https://dc.lft.to/lastmile_qr_scan", "android": "https://dc.lft.to/lastmile_qr_scan"}, "is_reserved": 0}, {"lon": -77.02774783333334, "bike_id": "7515847acdad356461e498918bf94f1f", "lat": 38.92769366666667, "fusion_lon": 0.0, "fusion_lat": 0.0, "type": "electric_scooter", "name": "7515847acdad356461e498918bf94f1f", "is_disabled": 0, "rental_uris": {"ios": "https://dc.lft.to/lastmile_qr_scan", "android": "https://dc.lft.to/lastmile_qr_scan"}, "is_reserved": 0}, {"lon": -77.05052183333333, "bike_id": "3d76a2f0b5af555bc1c982a63b0b9bc7", "lat": 38.90052583333333, "fusion_lon": 0.0, "fusion_lat": 0.0, "type": "electric_scooter", "name": "3d76a2f0b5af555bc1c982a63b0b9bc7", "is_disabled": 0, "rental_uris": {"ios": "https://dc.lft.to/lastmile_qr_scan", "android": "https://dc.lft.to/lastmile_qr_scan"}, "is_reserved": 0}, {"lon": -77.0320745, "bike_id": "a1d21bcb87ba3d18de1a8d00e58bbf6b", "lat": 38.94405166666667, "fusion_lon": 0.0, "fusion_lat": 0.0, "type": "electric_scooter", "name": "a1d21bcb87ba3d18de1a8d00e58bbf6b", "is_disabled": 0, "rental_uris": {"ios": "https://dc.lft.to/lastmile_qr_scan", "android": "https://dc.lft.to/lastmile_qr_scan"}, "is_reserved": 0}, {"lon": -77.032746, "bike_id": "cf57273508286d195949b02bb7755f4a", "lat": 38.928892166666664, "fusion_lon": 0.0, "fusion_lat": 0.0, "type": "electric_scooter", "name": "cf57273508286d195949b02bb7755f4a", "is_disabled": 0, "rental_uris": {"ios": "https://dc.lft.to/lastmile_qr_scan", "android": "https://dc.lft.to/lastmile_qr_scan"}, "is_reserved": 0}, {"lon": -77.03170683333333, "bike_id": "7dc0f5f9288ae113fe4f07c10d93be25", "lat": 38.915556333333335, "fusion_lon": 0.0, "fusion_lat": 0.0, "type": "electric_scooter", "name": "7dc0f5f9288ae113fe4f07c10d93be25", "is_disabled": 0, "rental_uris": {"ios": "https://dc.lft.to/lastmile_qr_scan", "android": "https://dc.lft.to/lastmile_qr_scan"}, "is_reserved": 0}, {"lon": -77.00031533333333, "bike_id": "c6dfe950219996df0e932149f5cc6a8f", "lat": 38.967789333333336, "fusion_lon": 0.0, "fusion_lat": 0.0, "type": "electric_bike", "name": "c6dfe950219996df0e932149f5cc6a8f", "is_disabled": 0, "rental_uris": {"ios": "https://dc.lft.to/lastmile_qr_scan", "android": "https://dc.lft.to/lastmile_qr_scan"}, "is_reserved": 0}, {"lon": -77.045585, "bike_id": "c3a470e22b7132e4a0cd732616213530", "lat": 38.896109833333334, "fusion_lon": 0.0, "fusion_lat": 0.0, "type": "electric_scooter", "name": "c3a470e22b7132e4a0cd732616213530", "is_disabled": 0, "rental_uris": {"ios": "https://dc.lft.to/lastmile_qr_scan", "android": "https://dc.lft.to/lastmile_qr_scan"}, "is_reserved": 0}, {"lon": -77.03760116666666, "bike_id": "0b02a8013e919940ced997c6127bb4ca", "lat": 38.92943233333333, "fusion_lon": 0.0, "fusion_lat": 0.0, "type": "electric_scooter", "name": "0b02a8013e919940ced997c6127bb4ca", "is_disabled": 0, "rental_uris": {"ios": "https://dc.lft.to/lastmile_qr_scan", "android": "https://dc.lft.to/lastmile_qr_scan"}, "is_reserved": 0}, {"lon": -77.03306716666667, "bike_id": "0c920ad644e50ca4b1a4ddb112c739f9", "lat": 38.90116166666667, "fusion_lon": 0.0, "fusion_lat": 0.0, "type": "electric_scooter", "name": "0c920ad644e50ca4b1a4ddb112c739f9", "is_disabled": 0, "rental_uris": {"ios": "https://dc.lft.to/lastmile_qr_scan", "android": "https://dc.lft.to/lastmile_qr_scan"}, "is_reserved": 0}, {"lon": -77.0326115, "bike_id": "1c89f5b2ff10149d1293902b805a09fa", "lat": 38.92859, "fusion_lon": 0.0, "fusion_lat": 0.0, "type": "electric_scooter", "name": "1c89f5b2ff10149d1293902b805a09fa", "is_disabled": 0, "rental_uris": {"ios": "https://dc.lft.to/lastmile_qr_scan", "android": "https://dc.lft.to/lastmile_qr_scan"}, "is_reserved": 0}, {"lon": -77.03798216666667, "bike_id": "70fd1e29bb829b8a0724b88ba5c61f55", "lat": 38.910341833333334, "fusion_lon": 0.0, "fusion_lat": 0.0, "type": "electric_scooter", "name": "70fd1e29bb829b8a0724b88ba5c61f55", "is_disabled": 0, "rental_uris": {"ios": "https://dc.lft.to/lastmile_qr_scan", "android": "https://dc.lft.to/lastmile_qr_scan"}, "is_reserved": 0}, {"lon": -77.06056133333334, "bike_id": "6e9721771ffd4f61ca38aaed9d803d1f", "lat": 38.808522333333336, "fusion_lon": 0.0, "fusion_lat": 0.0, "type": "electric_bike", "name": "6e9721771ffd4f61ca38aaed9d803d1f", "is_disabled": 0, "rental_uris": {"ios": "https://dc.lft.to/lastmile_qr_scan", "android": "https://dc.lft.to/lastmile_qr_scan"},