{"data": {"bikes": [{"rental_uris": {"android": "https://dc.lft.to/lastmile_qr_scan", "ios": "https://dc.lft.to/lastmile_qr_scan"}, "lat": 38.917776333333336, "type": "electric_scooter", "name": "b49215bb00cbebce8d7a99bfc9e5b526", "fusion_lon": 0.0, "fusion_lat": 0.0, "is_reserved": 0, "bike_id": "b49215bb00cbebce8d7a99bfc9e5b526", "lon": -77.03213966666667, "is_disabled": 0}, {"rental_uris": {"android": "https://dc.lft.to/lastmile_qr_scan", "ios": "https://dc.lft.to/lastmile_qr_scan"}, "lat": 38.878979, "type": "electric_scooter", "name": "28f58ce2be03e2fe0339652b3d3e960b", "fusion_lon": 0.0, "fusion_lat": 0.0, "is_reserved": 0, "bike_id": "28f58ce2be03e2fe0339652b3d3e960b", "lon": -77.01366566666667, "is_disabled": 0}, {"rental_uris": {"android": "https://dc.lft.to/lastmile_qr_scan", "ios": "https://dc.lft.to/lastmile_qr_scan"}, "lat": 38.90481033333333, "type": "electric_scooter", "name": "9e4c5cc96bbb20dd93a5ea7be35609c1", "fusion_lon": 0.0, "fusion_lat": 0.0, "is_reserved": 0, "bike_id": "9e4c5cc96bbb20dd93a5ea7be35609c1", "lon": -77.04602483333333, "is_disabled": 0}, {"rental_uris": {"android": "https://dc.lft.to/lastmile_qr_scan", "ios": "https://dc.lft.to/lastmile_qr_scan"}, "lat": 38.895202, "type": "electric_scooter", "name": "3b5ef79676e237a61868fa22c24c675b", "fusion_lon": 0.0, "fusion_lat": 0.0, "is_reserved": 0, "bike_id": "3b5ef79676e237a61868fa22c24c675b", "lon": -77.04481416666667, "is_disabled": 0}, {"rental_uris": {"android": "https://dc.lft.to/lastmile_qr_scan", "ios": "https://dc.lft.to/lastmile_qr_scan"}, "lat": 38.889672833333336, "type": "electric_scooter", "name": "0ac90fe26091d45739f6d365e39bf423", "fusion_lon": 0.0, "fusion_lat": 0.0, "is_reserved": 0, "bike_id": "0ac90fe26091d45739f6d365e39bf423", "lon": -76.98037233333334, "is_disabled": 0}, {"rental_uris": {"android": "https://dc.lft.to/lastmile_qr_scan", "ios": "https://dc.lft.to/lastmile_qr_scan"}, "lat": 38.89957166666667, "type": "electric_scooter", "name": "cfa853214c6c5934fc2c43d2f505c2ac", "fusion_lon": 0.0, "fusion_lat": 0.0, "is_reserved": 0, "bike_id": "cfa853214c6c5934fc2c43d2f505c2ac", "lon": -77.047535, "is_disabled": 0}, {"rental_uris": {"android": "https://dc.lft.to/lastmile_qr_scan", "ios": "https://dc.lft.to/lastmile_qr_scan"}, "lat": 38.931438666666665, "type": "electric_scooter", "name": "1e352bdf627e6876833164c7754311d5", "fusion_lon": 0.0, "fusion_lat": 0.0, "is_reserved": 0, "bike_id": "1e352bdf627e6876833164c7754311d5", "lon": -77.04305233333334, "is_disabled": 0}, {"rental_uris": {"android": "https://dc.lft.to/lastmile_qr_scan", "ios": "https://dc.lft.to/lastmile_qr_scan"}, "lat": 38.913288333333334, "type": "electric_scooter", "name": "2577f4641697699f9498e06da54c0174", "fusion_lon": 0.0, "fusion_lat": 0.0, "is_reserved": 0, "bike_id": "2577f4641697699f9498e06da54c0174", "lon": -77.04534416666667, "is_disabled": 0}, {"rental_uris": {"android": "https://dc.lft.to/lastmile_qr_scan", "ios": "https://dc.lft.to/lastmile_qr_scan"}, "lat": 38.91557316666667, "type": "electric_scooter", "name": "b5f62ad210522aa9048248a0cdee2b17", "fusion_lon": 0.0, "fusion_lat": 0.0, "is_reserved": 0, "bike_id": "b5f62ad210522aa9048248a0cdee2b17", "lon": -77.0510785, "is_disabled": 0}, {"rental_uris": {"android": "https://dc.lft.to/lastmile_qr_scan", "ios": "https://dc.lft.to/lastmile_qr_scan"}, "lat": 38.897948666666665, "type": "electric_scooter", "name": "9441e690f338ea3cd0154b782ae03c84", "fusion_lon": 0.0, "fusion_lat": 0.0, "is_reserved": 0, "bike_id": "9441e690f338ea3cd0154b782ae03c84", "lon": -77.01196733333333, "is_disabled": 0}, {"rental_uris": {"android": "https://dc.lft.to/lastmile_qr_scan", "ios": "https://dc.lft.to/lastmile_qr_scan"}, "lat": 38.84674666666667, "type": "electric_bike", "name": "43bdb5c992831d66afe765905448e0c3", "fusion_lon": 0.0, "fusion_lat": 0.0, "is_reserved": 0, "bike_id": "43bdb5c992831d66afe765905448e0c3", "lon": -77.13934366666666, "is_disabled": 0}, {"rental_uris": {"android": "https://dc.lft.to/lastmile_qr_scan", "ios": "https://dc.lft.to/lastmile_qr_scan"}, "lat": 38.904097166666666, "type": "electric_scooter", "name": "ed4814b99ddcde4f9a43f7cca2b55340", "fusion_lon": 0.0, "fusion_lat": 0.0, "is_reserved": 0, "bike_id": "ed4814b99ddcde4f9a43f7cca2b55340", "lon": -77.04336333333333, "is_disabled": 0}, {"rental_uris": {"android": "https://dc.lft.to/lastmile_qr_scan", "ios": "https://dc.lft.to/lastmile_qr_scan"}, "lat": 38.924862166666664, "type": "electric_scooter", "name": "6159a2a148707c2a4d08d005014059a5", "fusion_lon": 0.0, "fusion_lat": 0.0, "is_reserved": 0, "bike_id": "6159a2a148707c2a4d08d005014059a5", "lon": -77.02264366666667, "is_disabled": 0}, {"rental_uris": {"android": "https://dc.lft.to/lastmile_qr_scan", "ios": "https://dc.lft.to/lastmile_qr_scan"}, "lat": 38.91502783333333, "type": "electric_scooter", "name": "9a7c2a1cd13ab9785d548394b8b45a9e", "fusion_lon": 0.0, "fusion_lat": 0.0, "is_reserved": 0, "bike_id": "9a7c2a1cd13ab9785d548394b8b45a9e", "lon": -77.0177825, "is_disabled": 0}, {"rental_uris": {"android": "https://dc.lft.to/lastmile_qr_scan", "ios": "https://dc.lft.to/lastmile_qr_scan"}, "lat": 38.897611833333336, "type": "electric_scooter", "name": "c99c6909d05648190755db512154ef93", "fusion_lon": 0.0, "fusion_lat": 0.0, "is_reserved": 0, "bike_id": "c99c6909d05648190755db512154ef93", "lon": -77.02993116666667, "is_disabled": 0}, {"rental_uris": {"android": "https://dc.lft.to/lastmile_qr_scan", "ios": "https://dc.lft.to/lastmile_qr_scan"}, "lat": 38.905880333333336, "type": "electric_scooter", "name": "fab85624b9c47b1769ac5db81862303f", "fusion_lon": 0.0, "fusion_lat": 0.0, "is_reserved": 0, "bike_id": "fab85624b9c47b1769ac5db81862303f", "lon": -77.06964266666667, "is_disabled": 0}, {"rental_uris": {"android": "https://dc.lft.to/lastmile_qr_scan", "ios": "https://dc.lft.to/lastmile_qr_scan"}, "lat": 38.9125995, "type": "electric_scooter", "name": "b252056e1812ce1cc4e3ae6444967bb7", "fusion_lon": 0.0, "fusion_lat": 0.0, "is_reserved": 0, "bike_id": "b252056e1812ce1cc4e3ae6444967bb7", "lon": -77.07548, "is_disabled": 0}, {"rental_uris": {"android": "https://dc.lft.to/lastmile_qr_scan", "ios": "https://dc.lft.to/lastmile_qr_scan"}, "lat": 38.80402683333333, "type": "electric_bike", "name": "25ffc3c63b65064da5f597df6576d661", "fusion_lon": 0.0, "fusion_lat": 0.0, "is_reserved": 0, "bike_id": "25ffc3c63b65064da5f597df6576d661", "lon": -77.11332366666667, "is_disabled": 0}, {"rental_uris": {"android": "https://dc.lft.to/lastmile_qr_scan", "ios": "https://dc.lft.to/lastmile_qr_scan"}, "lat": 38.87222533333333, "type": "electric_scooter", "name": "98972a867f308d448fdb3554c6792d24", "fusion_lon": 0.0, "fusion_lat": 0.0, "is_reserved": 0, "bike_id": "98972a867f308d448fdb3554c6792d24", "lon": -77.01610983333333, "is_disabled": 0}, {"rental_uris": {"android": "https://dc.lft.to/lastmile_qr_scan", "ios": "https://dc.lft.to/lastmile_qr_scan"}, "lat": 38.91057516666667, "type": "electric_scooter", "name": "bcfe2e1d6ef3275b262e10dbd0babc8e", "fusion_lon": 0.0, "fusion_lat": 0.0, "is_reserved": 0, "bike_id": "bcfe2e1d6ef3275b262e10dbd0babc8e", "lon": -77.04098283333333, "is_disabled": 0}, {"rental_uris": {"android": "https://dc.lft.to/lastmile_qr_scan", "ios": "https://dc.lft.to/lastmile_qr_scan"}, "lat": 38.907289666666664, "type": "electric_scooter", "name": "816abe438ad4b1dce9a74c33d6f53385", "fusion_lon": 0.0, "fusion_lat": 0.0, "is_reserved": 0, "bike_id": "816abe438ad4b1dce9a74c33d6f53385", "lon": -77.04568616666667, "is_disabled": 0}, {"rental_uris": {"android": "https://dc.lft.to/lastmile_qr_scan", "ios": "https://dc.lft.to/lastmile_qr_scan"}, "lat": 38.900549, "type": "electric_scooter", "name": "a2ce516724dcaa8ff75ef27b9ddcb2e6", "fusion_lon": 0.0, "fusion_lat": 0.0, "is_reserved": 0, "bike_id": "a2ce516724dcaa8ff75ef27b9ddcb2e6", "lon": -76.98701683333333, "is_disabled": 0}, {"rental_uris": {"android": "https://dc.lft.to/lastmile_qr_scan", "ios": "https://dc.lft.to/lastmile_qr_scan"}, "lat": 38.9005005, "type": "electric_scooter", "name": "11023dfcd01d48787d28ad181c4c1009", "fusion_lon": 0.0, "fusion_lat": 0.0, "is_reserved": 0, "bike_id": "11023dfcd01d48787d28ad181c4c1009", "lon": -77.031881, "is_disabled": 0}, {"rental_uris": {"android": "https://dc.lft.to/lastmile_qr_scan", "ios": "https://dc.lft.to/lastmile_qr_scan"}, "lat": 38.92196, "type": "electric_scooter", "name": "bd79ce27b226db76f01ff30407fce534", "fusion_lon": 0.0, "fusion_lat": 0.0, "is_reserved": 0, "bike_id": "bd79ce27b226db76f01ff30407fce534", "lon": -77.042354, "is_disabled": 0}, {"rental_uris": {"android": "https://dc.lft.to/lastmile_qr_scan", "ios": "https://dc.lft.to/lastmile_qr_scan"}, "lat": 38.93305983333333, "type": "electric_scooter", "name": "8373733abc9a64aedb44d635a1571f48", "fusion_lon": 0.0, "fusion_lat": 0.0, "is_reserved": 0, "bike_id": "8373733abc9a64aedb44d635a1571f48", "lon": -77.030802, "is_disabled": 0}, {"rental_uris": {"android": "https://dc.lft.to/lastmile_qr_scan", "ios": "https://dc.lft.to/lastmile_qr_scan"}, "lat": 38.95614316666666, "type": "electric_bike", "name": "07e5b32a5ca188f2f64a05f5229553b0", "fusion_lon": 0.0, "fusion_lat": 0.0, "is_reserved": 0, "bike_id": "07e5b32a5ca188f2f64a05f5229553b0", "lon": -76.96267666666667, "is_disabled": 0}, {"rental_uris": {"android": "https://dc.lft.to/lastmile_qr_scan", "ios": "https://dc.lft.to/lastmile_qr_scan"}, "lat": 38.898519666666665, "type": "electric_bike", "name": "bda32277ed987592a88334a96d8908fd", "fusion_lon": 0.0, "fusion_lat": 0.0, "is_reserved": 0, "bike_id": "bda32277ed987592a88334a96d8908fd", "lon": -76.93185266666667, "is_disabled": 0}, {"rental_uris": {"android": "https://dc.lft.to/lastmile_qr_scan", "ios": "https://dc.lft.to/lastmile_qr_scan"}, "lat": 38.892242333333336, "type": "electric_scooter", "name": "9ec4caea030f35c6cccf05d945f1fe96", "fusion_lon": 0.0, "fusion_lat": 0.0, "is_reserved": 0, "bike_id": "9ec4caea030f35c6cccf05d945f1fe96", "lon": -77.024074, "is_disabled": 0}, {"rental_uris": {"android": "https://dc.lft.to/lastmile_qr_scan", "ios": "https://dc.lft.to/lastmile_qr_scan"}, "lat": 38.892247833333336, "type": "electric_scooter", "name": "54ba6c4eea2866330b4bb9130bd7d457", "fusion_lon": 0.0, "fusion_lat": 0.0, "is_reserved": 0, "bike_id": "54ba6c4eea2866330b4bb9130bd7d457", "lon": -77.04501, "is_disabled": 0}, {"rental_uris": {"android": "https://dc.lft.to/lastmile_qr_scan", "ios": "https://dc.lft.to/lastmile_qr_scan"}, "lat": 38.92312716666667, "type": "electric_scooter", "name": "5dba4f841ca8b20c2a5a05d311266c5b", "fusion_lon": 0.0, "fusion_lat": 0.0, "is_reserved": 0, "bike_id": "5dba4f841ca8b20c2a5a05d311266c5b", "lon": -77.03105, "is_disabled": 0}, {"rental_uris": {"android": "https://dc.lft.to/lastmile_qr_scan", "ios": "https://dc.lft.to/lastmile_qr_scan"}, "lat": 38.881432, "type": "electric_scooter", "name": "e52c133fa23b75e3f4c95c62436d6824", "fusion_lon": 0.0, "fusion_lat": 0.0, "is_reserved": 0, "bike_id": "e52c133fa23b75e3f4c95c62436d6824", "lon": -77.02269233333334, "is_disabled": 0}, {"rental_uris": {"android": "https://dc.lft.to/lastmile_qr_scan", "ios": "https://dc.lft.to/lastmile_qr_scan"}, "lat": 38.88790316666667, "type": "electric_scooter", "name": "fcbbe430e6ffd46b0a59196bdbc36b2d", "fusion_lon": 0.0, "fusion_lat": 0.0, "is_reserved": 0, "bike_id": "fcbbe430e6ffd46b0a59196bdbc36b2d", "lon": -77.01594983333334, "is_disabled": 0}, {"rental_uris": {"android": "https://dc.lft.to/lastmile_qr_scan", "ios": "https://dc.lft.to/lastmile_qr_scan"}, "lat": 38.8935595, "type": "electric_scooter", "name": "892ef6c0944d047597b4b179e6d8beb2", "fusion_lon": 0.0, "fusion_lat": 0.0, "is_reserved": 0, "bike_id": "892ef6c0944d047597b4b179e6d8beb2", "lon": -77.00335, "is_disabled": 0}, {"rental_uris": {"android": "https://dc.lft.to/lastmile_qr_scan", "ios": "https://dc.lft.to/lastmile_qr_scan"}, "lat": 38.9222265, "type": "electric_scooter", "name": "0477fa0781386bbdb45812bc75cf7e19", "fusion_lon": 0.0, "fusion_lat": 0.0, "is_reserved": 0, "bike_id": "0477fa0781386bbdb45812bc75cf7e19", "lon": -77.0423945, "is_disabled": 0}, {"rental_uris": {"android": "https://dc.lft.to/lastmile_qr_scan", "ios": "https://dc.lft.to/lastmile_qr_scan"}, "lat": 38.9244605, "type": "electric_scooter", "name": "f96b09d7c0887d71d61d77a96bb59762", "fusion_lon": 0.0, "fusion_lat": 0.0, "is_reserved": 0, "bike_id": "f96b09d7c0887d71d61d77a96bb59762", "lon": -77.033595, "is_disabled": 0}, {"rental_uris": {"android": "https://dc.lft.to/lastmile_qr_scan", "ios": "https://dc.lft.to/lastmile_qr_scan"}, "lat": 38.896110666666665, "type": "electric_scooter", "name": "ab60f979cea759c29afea26b713ef6bb", "fusion_lon": 0.0, "fusion_lat": 0.0, "is_reserved": 0, "bike_id": "ab60f979cea759c29afea26b713ef6bb", "lon": -76.948538, "is_disabled": 0}, {"rental_uris": {"android": "https://dc.lft.to/lastmile_qr_scan", "ios": "https://dc.lft.to/lastmile_qr_scan"}, "lat": 38.90113916666667, "type": "electric_scooter", "name": "4b05bd3b8f928d6d7cd6deff9c5fa612", "fusion_lon": 0.0, "fusion_lat": 0.0, "is_reserved": 0, "bike_id": "4b05bd3b8f928d6d7cd6deff9c5fa612", "lon": -77.03371166666666, "is_disabled": 0}, {"rental_uris": {"android": "https://dc.lft.to/lastmile_qr_scan", "ios": "https://dc.lft.to/lastmile_qr_scan"}, "lat": 38.9052325, "type": "electric_scooter", "name": "ec4fa1660bea8f1e41a7610dc7f43b2d", "fusion_lon": 0.0, "fusion_lat": 0.0, "is_reserved": 0, "bike_id": "ec4fa1660bea8f1e41a7610dc7f43b2d", "lon": -77.04127216666667, "is_disabled": 0}, {"rental_uris": {"android": "https://dc.lft.to/lastmile_qr_scan", "ios": "https://dc.lft.to/lastmile_qr_scan"}, "lat": 38.939961333333336, "type": "electric_scooter", "name": "b02871c156af1cf46314d5df72516515", "fusion_lon": 0.0, "fusion_lat": 0.0, "is_reserved": 0, "bike_id": "b02871c156af1cf46314d5df72516515", "lon": -76.97529833333333, "is_disabled": 0}, {"rental_uris": {"android": "https://dc.lft.to/lastmile_qr_scan", "ios": "https://dc.lft.to/lastmile_qr_scan"}, "lat": 38.927791, "type": "electric_scooter", "name": "108980f4b52ad487f4c619b5b7f8db06", "fusion_lon": 0.0, "fusion_lat": 0.0, "is_reserved": 0, "bike_id": "108980f4b52ad487f4c619b5b7f8db06", "lon": -77.05257383333333, "is_disabled": 0}, {"rental_uris": {"android": "https://dc.lft.to/lastmile_qr_scan", "ios": "https://dc.lft.to/lastmile_qr_scan"}, "lat": 38.916228833333335, "type": "electric_scooter", "name": "c2777ab9b1fb1acf04f74058db331da8", "fusion_lon": 0.0, "fusion_lat": 0.0, "is_reserved": 0, "bike_id": "c2777ab9b1fb1acf04f74058db331da8", "lon": -77.0506885, "is_disabled": 0}, {"rental_uris": {"android": "https://dc.lft.to/lastmile_qr_scan", "ios": "https://dc.lft.to/lastmile_qr_scan"}, "lat": 38.911228666666666, "type": "electric_scooter", "name": "23fab39f4637a578b03e1db48e862c46", "fusion_lon": 0.0, "fusion_lat": 0.0, "is_reserved": 0, "bike_id": "23fab39f4637a578b03e1db48e862c46", "lon": -77.0447555, "is_disabled": 0}, {"rental_uris": {"android": "https://dc.lft.to/lastmile_qr_scan", "ios": "https://dc.lft.to/lastmile_qr_scan"}, "lat": 38.8974095, "type": "electric_scooter", "name": "268ab9dd2df454458eb6afd81cbcbe80", "fusion_lon": 0.0, "fusion_lat": 0.0, "is_reserved": 0, "bike_id": "268ab9dd2df454458eb6afd81cbcbe80", "lon": -77.0092515, "is_disabled": 0}, {"rental_uris": {"android": "https://dc.lft.to/lastmile_qr_scan", "ios": "https://dc.lft.to/lastmile_qr_scan"}, "lat": 38.895695833333335, "type": "electric_bike", "name": "c31e38989c69a58246d62fb615aae08e", "fusion_lon": 0.0, "fusion_lat": 0.0, "is_reserved": 0, "bike_id": "c31e38989c69a58246d62fb615aae08e", "lon": -77.12736033333333, "is_disabled": 0}, {"rental_uris": {"android": "https://dc.lft.to/lastmile_qr_scan", "ios": "https://dc.lft.to/lastmile_qr_scan"}, "lat": 38.8717425, "type": "electric_scooter", "name": "c462c22620a2b03bad7b6ae4c04490b6", "fusion_lon": 0.0, "fusion_lat": 0.0, "is_reserved": 0, "bike_id": "c462c22620a2b03bad7b6ae4c04490b6", "lon": -77.006187, "is_disabled": 0}, {"rental_uris": {"android": "https://dc.lft.to/lastmile_qr_scan", "ios": "https://dc.lft.to/lastmile_qr_scan"}, "lat": 38.9429425, "type": "electric_scooter", "name": "c9bec8ad0a578203c2034a9162f2887d", "fusion_lon": 0.0, "fusion_lat": 0.0, "is_reserved": 0, "bike_id": "c9bec8ad0a578203c2034a9162f2887d", "lon": -77.07689116666667, "is_disabled": 0}, {"rental_uris": {"android": "https://dc.lft.to/lastmile_qr_scan", "ios": "https://dc.lft.to/lastmile_qr_scan"}, "lat": 38.919585833333336, "type": "electric_scooter", "name": "f691f74d0fdf9c7fbf816365d2692e99", "fusion_lon": 0.0, "fusion_lat": 0.0, "is_reserved": 0, "bike_id": "f691f74d0fdf9c7fbf816365d2692e99", "lon": -77.023842, "is_disabled": 0}, {"rental_uris": {"android": "https://dc.lft.to/lastmile_qr_scan", "ios": "https://dc.lft.to/lastmile_qr_scan"}, "lat": 38.9206085, "type": "electric_scooter", "name": "ee85c20c99a06156efba598d6dba73ad", "fusion_lon": 0.0, "fusion_lat": 0.0, "is_reserved": 0, "bike_id": "ee85c20c99a06156efba598d6dba73ad", "lon": -77.02948266666667, "is_disabled": 0}, {"rental_uris": {"android": "https://dc.lft.to/lastmile_qr_scan", "ios": "https://dc.lft.to/lastmile_qr_scan"}, "lat": 38.891903, "type": "electric_scooter", "name": "f9f8ff105f188339ec0ef9aa85eca60a", "fusion_lon": 0.0, "fusion_lat": 0.0, "is_reserved": 0, "bike_id": "f9f8ff105f188339ec0ef9aa85eca60a", "lon": -76.9985415, "is_disabled": 0}, {"rental_uris": {"android": "https://dc.lft.to/lastmile_qr_scan", "ios": "https://dc.lft.to/lastmile_qr_scan"}, "lat": 38.89726266666667, "type": "electric_scooter", "name": "858e0d7424cc9b26edc71c4455fd012d", "fusion_lon": 0.0, "fusion_lat": 0.0, "is_reserved": 0, "bike_id": "858e0d7424cc9b26edc71c4455fd012d", "lon": -77.04356766666666, "is_disabled": 0}, {"rental_uris": {"android": "https://dc.lft.to/lastmile_qr_scan", "ios": "https://dc.lft.to/lastmile_qr_scan"}, "lat": 38.920553166666664, "type": "electric_scooter", "name": "9304a798a46d2dd9629cff2a308140d6", "fusion_lon": 0.0, "fusion_lat": 0.0, "is_reserved": 0, "bike_id": "9304a798a46d2dd9629cff2a308140d6", "lon": -77.02297933333334, "is_disabled": 0}, {"rental_uris": {"android": "https://dc.lft.to/lastmile_qr_scan", "ios": "https://dc.lft.to/lastmile_qr_scan"}, "lat": 38.902727, "type": "electric_scooter", "name": "07846032cc6d32963ba273683050eed6", "fusion_lon": 0.0, "fusion_lat": 0.0, "is_reserved": 0, "bike_id": "07846032cc6d32963ba273683050eed6", "lon": -77.03840516666666, "is_disabled": 0}, {"rental_uris": {"android": "https://dc.lft.to/lastmile_qr_scan", "ios": "https://dc.lft.to/lastmile_qr_scan"}, "lat": 38.89733433333333, "type": "electric_scooter", "name": "272a286e2280075eb5372828284925b0", "fusion_lon": 0.0, "fusion_lat": 0.0, "is_reserved": 0, "bike_id": "272a286e2280075eb5372828284925b0", "lon": -77.02451383333333, "is_disabled": 0}, {"rental_uris": {"android": "https://dc.lft.to/lastmile_qr_scan", "ios": "https://dc.lft.to/lastmile_qr_scan"}, "lat": 38.89592483333333, "type": "electric_scooter", "name": "fe1e55c325e8a9dd7983915937549b36", "fusion_lon": 0.0, "fusion_lat": 0.0, "is_reserved": 0, "bike_id": "fe1e55c325e8a9dd7983915937549b36", "lon": -77.04808583333333, "is_disabled": 0}, {"rental_uris": {"android": "https://dc.lft.to/lastmile_qr_scan", "ios": "https://dc.lft.to/lastmile_qr_scan"}, "lat": 39.005332833333334, "type": "electric_bike", "name": "0bf57fcc1ad90a0c1494f800af1e7d64", "fusion_lon": 0.0, "fusion_lat": 0.0, "is_reserved": 0, "bike_id": "0bf57fcc1ad90a0c1494f800af1e7d64", "lon": -77.103992, "is_disabled": 0}, {"rental_uris": {"android": "https://dc.lft.to/lastmile_qr_scan", "ios": "https://dc.lft.to/lastmile_qr_scan"}, "lat": 38.905249166666664, "type": "electric_scooter", "name": "5ec24e583dff6f458a690c297283180e", "fusion_lon": 0.0, "fusion_lat": 0.0, "is_reserved": 0, "bike_id": "5ec24e583dff6f458a690c297283180e", "lon": -77.04747416666666, "is_disabled": 0}, {"rental_uris": {"android": "https://dc.lft.to/lastmile_qr_scan", "ios": "https://dc.lft.to/lastmile_qr_scan"}, "lat": 38.878502166666664, "type": "electric_bike", "name": "9b9379d8bd70d32792509426ae34ef88", "fusion_lon": 0.0, "fusion_lat": 0.0, "is_reserved": 0, "bike_id": "9b9379d8bd70d32792509426ae34ef88", "lon": -77.0079825, "is_disabled": 0}, {"rental_uris": {"android": "https://dc.lft.to/lastmile_qr_scan", "ios": "https://dc.lft.to/lastmile_qr_scan"}, "lat": 38.9107635, "type": "electric_scooter", "name": "d1896021b952862eae29bb6ad881106c", "fusion_lon": 0.0, "fusion_lat": 0.0, "is_reserved": 0, "bike_id": "d1896021b952862eae29bb6ad881106c", "lon": -77.03463916666666, "is_disabled": 0}, {"rental_uris": {"android": "https://dc.lft.to/lastmile_qr_scan", "ios": "https://dc.lft.to/lastmile_qr_scan"}, "lat": 38.924343, "type": "electric_scooter", "name": "420b9355147736d838fec258aa844278", "fusion_lon": 0.0, "fusion_lat": 0.0, "is_reserved": 0, "bike_id": "420b9355147736d838fec258aa844278", "lon": -77.00320233333333, "is_disabled": 0}, {"rental_uris": {"android": "https://dc.lft.to/lastmile_qr_scan", "ios": "https://dc.lft.to/lastmile_qr_scan"}, "lat": 38.893659, "type": "electric_scooter", "name": "50ed0c800422a4ed745890242cd62f86", "fusion_lon": 0.0, "fusion_lat": 0.0, "is_reserved": 0, "bike_id": "50ed0c800422a4ed745890242cd62f86", "lon": -77.04620666666666, "is_disabled": 0}, {"rental_uris": {"android": "https://dc.lft.to/lastmile_qr_scan", "ios": "https://dc.lft.to/lastmile_qr_scan"}, "lat": 38.91334716666667, "type": "electric_scooter", "name": "1fee7874ecef076f036018b2f9fce573", "fusion_lon": 0.0, "fusion_lat": 0.0, "is_reserved": 0, "bike_id": "1fee7874ecef076f036018b2f9fce573", "lon": -77.04818283333333, "is_disabled": 0}, {"rental_uris": {"android": "https://dc.lft.to/lastmile_qr_scan", "ios": "https://dc.lft.to/lastmile_qr_scan"}, "lat": 38.930184, "type": "electric_scooter", "name": "52bb0e1c3dedf8601fd01e8a093cb85a", "fusion_lon": 0.0, "fusion_lat": 0.0, "is_reserved": 0, "bike_id": "52bb0e1c3dedf8601fd01e8a093cb85a", "lon": -77.06191966666667, "is_disabled": 0}, {"rental_uris": {"android": "https://dc.lft.to/lastmile_qr_scan", "ios": "https://dc.lft.to/lastmile_qr_scan"}, "lat": 38.918563666666664, "type": "electric_scooter", "name": "b0cb6e0396033b9b0be9980c919a6d4b", "fusion_lon": 0.0, "fusion_lat": 0.0, "is_reserved": 0, "bike_id": "b0cb6e0396033b9b0be9980c919a6d4b", "lon": -77.04464433333334, "is_disabled": 0}, {"rental_uris": {"android": "https://dc.lft.to/lastmile_qr_scan", "ios": "https://dc.lft.to/lastmile_qr_scan"}, "lat": 38.89733616666667, "type": "electric_scooter", "name": "22da4063f0557f2b66d33f4eb2792692", "fusion_lon": 0.0, "fusion_lat": 0.0, "is_reserved": 0, "bike_id": "22da4063f0557f2b66d33f4eb2792692", "lon": -77.024753, "is_disabled": 0}, {"rental_uris": {"android": "https://dc.lft.to/lastmile_qr_scan", "ios": "https://dc.lft.to/lastmile_qr_scan"}, "lat": 38.8924535, "type": "electric_scooter", "name": "13a0c515e8dd939dddc1206ced39bba6", "fusion_lon": 0.0, "fusion_lat": 0.0, "is_reserved": 0, "bike_id": "13a0c515e8dd939dddc1206ced39bba6", "lon": -76.95215716666667, "is_disabled": 0}, {"rental_uris": {"android": "https://dc.lft.to/lastmile_qr_scan", "ios": "https://dc.lft.to/lastmile_qr_scan"}, "lat": 38.892231, "type": "electric_scooter", "name": "3598a01dbeacd7890bc3e8dba9cd593e", "fusion_lon": 0.0, "fusion_lat": 0.0, "is_reserved": 0, "bike_id": "3598a01dbeacd7890bc3e8dba9cd593e", "lon": -77.0314395, "is_disabled": 0}, {"rental_uris": {"android": "https://dc.lft.to/lastmile_qr_scan", "ios": "https://dc.lft.to/lastmile_qr_scan"}, "lat": 38.9285965, "type": "electric_scooter", "name": "e5d2728ca1f0c45bbfe1f601b51d68bd", "fusion_lon": 0.0, "fusion_lat": 0.0, "is_reserved": 0, "bike_id": "e5d2728ca1f0c45bbfe1f601b51d68bd", "lon": -77.03410283333334, "is_disabled": 0}, {"rental_uris": {"android": "https://dc.lft.to/lastmile_qr_scan", "ios": "https://dc.lft.to/lastmile_qr_scan"}, "lat": 38.91808983333333, "type": "electric_scooter", "name": "1a5a5643e44fda3b8d9bca24af8c8720", "fusion_lon": 0.0, "fusion_lat": 0.0, "is_reserved": 0, "bike_id": "1a5a5643e44fda3b8d9bca24af8c8720", "lon": -77.0250905, "is_disabled": 0}, {"rental_uris": {"android": "https://dc.lft.to/lastmile_qr_scan", "ios": "https://dc.lft.to/lastmile_qr_scan"}, "lat": 38.876620333333335, "type": "electric_scooter", "name": "c3c179fb16d82c9c0443396320f640d6", "fusion_lon": 0.0, "fusion_lat": 0.0, "is_reserved": 0, "bike_id": "c3c179fb16d82c9c0443396320f640d6", "lon": -77.01170866666666, "is_disabled": 0}, {"rental_uris": {"android": "https://dc.lft.to/lastmile_qr_scan", "ios": "https://dc.lft.to/lastmile_qr_scan"}, "lat": 38.89700783333333, "type": "electric_scooter", "name": "d4b6a367766f18ce422de4106b5bdd15", "fusion_lon": 0.0, "fusion_lat": 0.0, "is_reserved": 0, "bike_id": "d4b6a367766f18ce422de4106b5bdd15", "lon": -76.939065, "is_disabled": 0}, {"rental_uris": {"android": "https://dc.lft.to/lastmile_qr_scan", "ios": "https://dc.lft.to/lastmile_qr_scan"}, "lat": 38.80381766666667, "type": "electric_bike", "name": "ac8b81a8b2db8f5182afd7bf6bb77461", "fusion_lon": 0.0, "fusion_lat": 0.0, "is_reserved": 0, "bike_id": "ac8b81a8b2db8f5182afd7bf6bb77461", "lon": -76.98816533333333, "is_disabled": 0}, {"rental_uris": {"android": "https://dc.lft.to/lastmile_qr_scan", "ios": "https://dc.lft.to/lastmile_qr_scan"}, "lat": 38.88024266666667, "type": "electric_scooter", "name": "6e693d4fe105a71b61884e19fc677841", "fusion_lon": 0.0, "fusion_lat": 0.0, "is_reserved": 0, "bike_id": "6e693d4fe105a71b61884e19fc677841", "lon": -76.94325766666667, "is_disabled": 0}, {"rental_uris": {"android": "https://dc.lft.to/lastmile_qr_scan", "ios": "https://dc.lft.to/lastmile_qr_scan"}, "lat": 38.8940345, "type": "electric_scooter", "name": "df028f3400a1bf2feaa40d7097ad52a6", "fusion_lon": 0.0, "fusion_lat": 0.0, "is_reserved": 0, "bike_id": "df028f3400a1bf2feaa40d7097ad52a6", "lon": -77.021243, "is_disabled": 0}, {"rental_uris": {"android": "https://dc.lft.to/lastmile_qr_scan", "ios": "https://dc.lft.to/lastmile_qr_scan"}, "lat": 38.90042966666667, "type": "electric_scooter", "name": "6e4c49e32fc5bce7b10b73a5668998bb", "fusion_lon": 0.0, "fusion_lat": 0.0, "is_reserved": 0, "bike_id": "6e4c49e32fc5bce7b10b73a5668998bb", "lon": -77.01759183333333, "is_disabled": 0}, {"rental_uris": {"android": "https://dc.lft.to/lastmile_qr_scan", "ios": "https://dc.lft.to/lastmile_qr_scan"}, "lat": 38.918752, "type": "electric_scooter", "name": "32793d4cc34f774499c68e2bc7b0fd78", "fusion_lon": 0.0, "fusion_lat": 0.0, "is_reserved": 0, "bike_id": "32793d4cc34f774499c68e2bc7b0fd78", "lon": -77.0408735, "is_disabled": 0}, {"rental_uris": {"android": "https://dc.lft.to/lastmile_qr_scan", "ios": "https://dc.lft.to/lastmile_qr_scan"}, "lat": 38.8620915, "type": "electric_scooter", "name": "cf044464e669ad2a8c48a306108539a1", "fusion_lon": 0.0, "fusion_lat": 0.0, "is_reserved": 0, "bike_id": "cf044464e669ad2a8c48a306108539a1", "lon": -76.995413, "is_disabled": 0}, {"rental_uris": {"android": "https://dc.lft.to/lastmile_qr_scan", "ios": "https://dc.lft.to/lastmile_qr_scan"}, "lat": 38.9013665, "type": "electric_scooter", "name": "e4e12734f1c0f9c93966e928009f51f8", "fusion_lon": 0.0, "fusion_lat": 0.0, "is_reserved": 0, "bike_id": "e4e12734f1c0f9c93966e928009f51f8", "lon": -77.03249566666666, "is_disabled": 0}, {"rental_uris": {"android": "https://dc.lft.to/lastmile_qr_scan", "ios": "https://dc.lft.to/lastmile_qr_scan"}, "lat": 38.8982925, "type": "electric_scooter", "name": "09d53ad04bb639edd33592b2cc409303", "fusion_lon": 0.0, "fusion_lat": 0.0, "is_reserved": 0, "bike_id": "09d53ad04bb639edd33592b2cc409303", "lon": -77.04540166666666, "is_disabled": 0}, {"rental_uris": {"android": "https://dc.lft.to/lastmile_qr_scan", "ios": "https://dc.lft.to/lastmile_qr_scan"}, "lat": 38.92059033333334, "type": "electric_scooter", "name": "735a57cfe029628e2f3612202e6336cd", "fusion_lon": 0.0, "fusion_lat": 0.0, "is_reserved": 0, "bike_id": "735a57cfe029628e2f3612202e6336cd", "lon": -77.0251375, "is_disabled": 0}, {"rental_uris": {"android": "https://dc.lft.to/lastmile_qr_scan", "ios": "https://dc.lft.to/lastmile_qr_scan"}, "lat": 38.91884566666667, "type": "electric_scooter", "name": "df0752aac5ea1d6eca8a20e1d26898c7", "fusion_lon": 0.0, "fusion_lat": 0.0, "is_reserved": 0, "bike_id": "df0752aac5ea1d6eca8a20e1d26898c7", "lon": -77.024864, "is_disabled": 0}, {"rental_uris": {"android": "https://dc.lft.to/lastmile_qr_scan", "ios": "https://dc.lft.to/lastmile_qr_scan"}, "lat": 38.906822, "type": "electric_scooter", "name": "50d4ff2af80d7d48225763ef535e975b", "fusion_lon": 0.0, "fusion_lat": 0.0, "is_reserved": 0, "bike_id": "50d4ff2af80d7d48225763ef535e975b", "lon": -76.98364633333334, "is_disabled": 0}, {"rental_uris": {"android": "https://dc.lft.to/lastmile_qr_scan", "ios": "https://dc.lft.to/lastmile_qr_scan"}, "lat": 38.92711233333333, "type": "electric_scooter", "name": "4ea24ec80c7e70ae56ce296843b6b73b", "fusion_lon": 0.0, "fusion_lat": 0.0, "is_reserved": 0, "bike_id": "4ea24ec80c7e70ae56ce296843b6b73b", "lon": -77.059923, "is_disabled": 0}, {"rental_uris": {"android": "https://dc.lft.to/lastmile_qr_scan", "ios": "https://dc.lft.to/lastmile_qr_scan"}, "lat": 38.974402, "type": "electric_bike", "name": "2b5914ad2faa2f7558dcd8a9f22ccd41", "fusion_lon": 0.0, "fusion_lat": 0.0, "is_reserved": 0, "bike_id": "2b5914ad2faa2f7558dcd8a9f22ccd41", "lon": -77.095869, "is_disabled": 0}, {"rental_uris": {"android": "https://dc.lft.to/lastmile_qr_scan", "ios": "https://dc.lft.to/lastmile_qr_scan"}, "lat": 38.896728, "type": "electric_bike", "name": "14384abac872e29a16b7d6975051a70d", "fusion_lon": 0.0, "fusion_lat": 0.0, "is_reserved": 0, "bike_id": "14384abac872e29a16b7d6975051a70d", "lon": -76.932075, "is_disabled": 0}, {"rental_uris": {"android": "https://dc.lft.to/lastmile_qr_scan", "ios": "https://dc.lft.to/lastmile_qr_scan"}, "lat": 38.92129533333333, "type": "electric_scooter", "name": "5316716dcf24b4d0bad49fc8cccfcf5a", "fusion_lon": 0.0, "fusion_lat": 0.0, "is_reserved": 0, "bike_id": "5316716dcf24b4d0bad49fc8cccfcf5a", "lon": -77.02148833333334, "is_disabled": 0}, {"rental_uris": {"android": "https://dc.lft.to/lastmile_qr_scan", "ios": "https://dc.lft.to/lastmile_qr_scan"}, "lat": 38.94224583333333, "type": "electric_scooter", "name": "2538bc9a83cd7b257e3c61d9425871dc", "fusion_lon": 0.0, "fusion_lat": 0.0, "is_reserved": 0, "bike_id": "2538bc9a83cd7b257e3c61d9425871dc", "lon": -77.02966283333333, "is_disabled": 0}, {"rental_uris": {"android": "https://dc.lft.to/lastmile_qr_scan", "ios": "https://dc.lft.to/lastmile_qr_scan"}, "lat": 38.894842833333335, "type": "electric_scooter", "name": "78e3965cf6c8c1ae89f111ca3611453f", "fusion_lon": 0.0, "fusion_lat": 0.0, "is_reserved": 0, "bike_id": "78e3965cf6c8c1ae89f111ca3611453f", "lon": -77.02668816666667, "is_disabled": 0}, {"rental_uris": {"android": "https://dc.lft.to/lastmile_qr_scan", "ios": "https://dc.lft.to/lastmile_qr_scan"}, "lat": 38.92961833333333, "type": "electric_scooter", "name": "0ce0b3232b81664b65dc7b69a4f112f3", "fusion_lon": 0.0, "fusion_lat": 0.0, "is_reserved": 0, "bike_id": "0ce0b3232b81664b65dc7b69a4f112f3", "lon": -77.041289, "is_disabled": 0}, {"rental_uris": {"android": "https://dc.lft.to/lastmile_qr_scan", "ios": "https://dc.lft.to/lastmile_qr_scan"}, "lat": 38.928809666666666, "type": "electric_scooter", "name": "64fec469103bf57fea9c9a2d29226416", "fusion_lon": 0.0, "fusion_lat": 0.0, "is_reserved": 0, "bike_id": "64fec469103bf57fea9c9a2d29226416", "lon": -77.013656, "is_disabled": 0}, {"rental_uris": {"android": "https://dc.lft.to/lastmile_qr_scan", "ios": "https://dc.lft.to/lastmile_qr_scan"}, "lat": 38.9055695, "type": "electric_scooter", "name": "79f07281d7e98c6730f102990c714a00", "fusion_lon": 0.0, "fusion_lat": 0.0, "is_reserved": 0, "bike_id": "79f07281d7e98c6730f102990c714a00", "lon": -77.0021515, "is_disabled": 0}, {"rental_uris": {"android": "https://dc.lft.to/lastmile_qr_scan", "ios": "https://dc.lft.to/lastmile_qr_scan"}, "lat": 38.908386166666666, "type": "electric_scooter", "name": "5a403296f0f41decf911a10be4c82495", "fusion_lon": 0.0, "fusion_lat": 0.0, "is_reserved": 0, "bike_id": "5a403296f0f41decf911a10be4c82495", "lon": -77.00213233333334, "is_disabled": 0}, {"rental_uris": {"android": "https://dc.lft.to/lastmile_qr_scan", "ios": "https://dc.lft.to/lastmile_qr_scan"}, "lat": 38.9049125, "type": "electric_scooter", "name": "2cb1d614bfcc2780fb2e9f1aa02ed377", "fusion_lon": 0.0, "fusion_lat": 0.0, "is_reserved": 0, "bike_id": "2cb1d614bfcc2780fb2e9f1aa02ed377", "lon": -77.029597, "is_disabled": 0}, {"rental_uris": {"android": "https://dc.lft.to/lastmile_qr_scan", "ios": "https://dc.lft.to/lastmile_qr_scan"}, "lat": 38.92060333333333, "type": "electric_scooter", "name": "cd31024e4ada0bab1fa187d3d2fae5a0", "fusion_lon": 0.0, "fusion_lat": 0.0, "is_reserved": 0, "bike_id": "cd31024e4ada0bab1fa187d3d2fae5a0", "lon": -77.02510266666667, "is_disabled": 0}, {"rental_uris": {"android": "https://dc.lft.to/lastmile_qr_scan", "ios": "https://dc.lft.to/lastmile_qr_scan"}, "lat": 38.89618216666667, "type": "electric_bike", "name": "1be1abbdbfe21b57ac35e0e9a09aecb2", "fusion_lon": 0.0, "fusion_lat": 0.0, "is_reserved": 0, "bike_id": "1be1abbdbfe21b57ac35e0e9a09aecb2", "lon": -76.9075435, "is_disabled": 0}, {"rental_uris": {"android": "https://dc.lft.to/lastmile_qr_scan", "ios": "https://dc.lft.to/lastmile_qr_scan"}, "lat": 38.92149716666667, "type": "electric_scooter", "name": "5dffef34eeeee523ceb560798093195e", "fusion_lon": 0.0, "fusion_lat": 0.0, "is_reserved": 0, "bike_id": "5dffef34eeeee523ceb560798093195e", "lon": -77.02203266666666, "is_disabled": 0}, {"rental_uris": {"android": "https://dc.lft.to/lastmile_qr_scan", "ios": "https://dc.lft.to/lastmile_qr_scan"}, "lat": 38.887023666666664, "type": "electric_scooter", "name": "ef7cd287a18e6c434df3e3e794fc2e40", "fusion_lon": 0.0, "fusion_lat": 0.0, "is_reserved": 0, "bike_id": "ef7cd287a18e6c434df3e3e794fc2e40", "lon": -77.02172633333333, "is_disabled": 0}, {"rental_uris": {"android": "https://dc.lft.to/lastmile_qr_scan", "ios": "https://dc.lft.to/lastmile_qr_scan"}, "lat": 38.90759666666667, "type": "electric_scooter", "name": "01b90da5e18a7d86f74078a3d703a0dd", "fusion_lon": 0.0, "fusion_lat": 0.0, "is_reserved": 0, "bike_id": "01b90da5e18a7d86f74078a3d703a0dd", "lon": -77.04528183333333, "is_disabled": 0}, {"rental_uris": {"android": "https://dc.lft.to/lastmile_qr_scan", "ios": "https://dc.lft.to/lastmile_qr_scan"}, "lat": 38.897354666666665, "type": "electric_scooter", "name": "99153ae3e8a04aacac2276ec24d420ff", "fusion_lon": 0.0, "fusion_lat": 0.0, "is_reserved": 0, "bike_id": "99153ae3e8a04aacac2276ec24d420ff", "lon": -77.02184533333333, "is_disabled": 0}, {"rental_uris": {"android": "https://dc.lft.to/lastmile_qr_scan", "ios": "https://dc.lft.to/lastmile_qr_scan"}, "lat": 38.914032, "type": "electric_scooter", "name": "dfe12bb7b97b295f69f172ab75092f91", "fusion_lon": 0.0, "fusion_lat": 0.0, "is_reserved": 0, "bike_id": "dfe12bb7b97b295f69f172ab75092f91", "lon": -77.02378333333333, "is_disabled": 0}, {"rental_uris": {"android": "https://dc.lft.to/lastmile_qr_scan", "ios": "https://dc.lft.to/lastmile_qr_scan"}, "lat": 38.92136383333333, "type": "electric_scooter", "name": "f7f3bb894a9c253838e7ed462c354c8a", "fusion_lon": 0.0, "fusion_lat": 0.0, "is_reserved": 0, "bike_id": "f7f3bb894a9c253838e7ed462c354c8a", "lon": -77.0515795, "is_disabled": 0}, {"rental_uris": {"android": "https://dc.lft.to/lastmile_qr_scan", "ios": "https://dc.lft.to/lastmile_qr_scan"}, "lat": 38.88718033333333, "type": "electric_scooter", "name": "7ef3dd7e3e5e0286976e8dcf68238b8e", "fusion_lon": 0.0, "fusion_lat": 0.0, "is_reserved": 0, "bike_id": "7ef3dd7e3e5e0286976e8dcf68238b8e", "lon": -77.028255, "is_disabled": 0}, {"rental_uris": {"android": "https://dc.lft.to/lastmile_qr_scan", "ios": "https://dc.lft.to/lastmile_qr_scan"}, "lat": 38.924141666666664, "type": "electric_scooter", "name": "6ddbbf339103cf1d491190c7db112759", "fusion_lon": 0.0, "fusion_lat": 0.0, "is_reserved": 0, "bike_id": "6ddbbf339103cf1d491190c7db112759", "lon": -77.03552683333334, "is_disabled": 0}, {"rental_uris": {"android": "https://dc.lft.to/lastmile_qr_scan", "ios": "https://dc.lft.to/lastmile_qr_scan"}, "lat": 38.901455166666665, "type": "electric_scooter", "name": "db50f0c252784384103cc670de5c8b66", "fusion_lon": 0.0, "fusion_lat": 0.0, "is_reserved": 0, "bike_id": "db50f0c252784384103cc670de5c8b66", "lon": -77.033865, "is_disabled": 0}, {"rental_uris": {"android": "https://dc.lft.to/lastmile_qr_scan", "ios": "https://dc.lft.to/lastmile_qr_scan"}, "lat": 38.894611166666664, "type": "electric_scooter", "name": "93ac6b33049a8bd9143b2fa890c93ff6", "fusion_lon": 0.0, "fusion_lat": 0.0, "is_reserved": 0, "bike_id": "93ac6b33049a8bd9143b2fa890c93ff6", "lon": -77.02684183333334, "is_disabled": 0}, {"rental_uris": {"android": "https://dc.lft.to/lastmile_qr_scan", "ios": "https://dc.lft.to/lastmile_qr_scan"}, "lat": 38.932564666666664, "type": "electric_scooter", "name": "93c0c2c0fa585d7b894f2870883075fa", "fusion_lon": 0.0, "fusion_lat": 0.0, "is_reserved": 0, "bike_id": "93c0c2c0fa585d7b894f2870883075fa", "lon": -77.032734, "is_disabled": 0}, {"rental_uris": {"android": "https://dc.lft.to/lastmile_qr_scan", "ios": "https://dc.lft.to/lastmile_qr_scan"}, "lat": 38.924363666666665, "type": "electric_bike", "name": "17c6a8dffbc70b4de6aa564cc948bdf1", "fusion_lon": 0.0, "fusion_lat": 0.0, "is_reserved": 0, "bike_id": "17c6a8dffbc70b4de6aa564cc948bdf1", "lon": -76.97153283333333, "is_disabled": 0}, {"rental_uris": {"android": "https://dc.lft.to/lastmile_qr_scan", "ios": "https://dc.lft.to/lastmile_qr_scan"}, "lat": 38.897200833333336, "type": "electric_scooter", "name": "8a415ed4979889fbf3d2c63daeda6dee", "fusion_lon": 0.0, "fusion_lat": 0.0, "is_reserved": 0, "bike_id": "8a415ed4979889fbf3d2c63daeda6dee", "lon": -77.02708083333333, "is_disabled": 0}, {"rental_uris": {"android": "https://dc.lft.to/lastmile_qr_scan", "ios": "https://dc.lft.to/lastmile_qr_scan"}, "lat": 38.905817666666664, "type": "electric_scooter", "name": "956e7b9d3174ba61078f63b527981ed7", "fusion_lon": 0.0, "fusion_lat": 0.0, "is_reserved": 0, "bike_id": "956e7b9d3174ba61078f63b527981ed7", "lon": -77.006078, "is_disabled": 0}, {"rental_uris": {"android": "https://dc.lft.to/lastmile_qr_scan", "ios": "https://dc.lft.to/lastmile_qr_scan"}, "lat": 38.93795216666667, "type": "electric_scooter", "name": "8297456594355104cc45a1ebb6139f0c", "fusion_lon": 0.0, "fusion_lat": 0.0, "is_reserved": 0, "bike_id": "8297456594355104cc45a1ebb6139f0c", "lon": -77.0340635, "is_disabled": 0}, {"rental_uris": {"android": "https://dc.lft.to/lastmile_qr_scan", "ios": "https://dc.lft.to/lastmile_qr_scan"}, "lat": 38.92348166666667, "type": "electric_scooter", "name": "caa2c2cbedd1c847fba4c440b9d2d771", "fusion_lon": 0.0, "fusion_lat": 0.0, "is_reserved": 0, "bike_id": "caa2c2cbedd1c847fba4c440b9d2d771", "lon": -77.03496783333334, "is_disabled": 0}, {"rental_uris": {"android": "https://dc.lft.to/lastmile_qr_scan", "ios": "https://dc.lft.to/lastmile_qr_scan"}, "lat": 38.89228883333333, "type": "electric_scooter", "name": "19484e8acb831464826a5117b085dab0", "fusion_lon": 0.0, "fusion_lat": 0.0, "is_reserved": 0, "bike_id": "19484e8acb831464826a5117b085dab0", "lon": -77.04336616666667, "is_disabled": 0}, {"rental_uris": {"android": "https://dc.lft.to/lastmile_qr_scan", "ios": "https://dc.lft.to/lastmile_qr_scan"}, "lat": 38.89829966666667, "type": "electric_scooter", "name": "4e7375273f611db9d9ee06b205eff237", "fusion_lon": 0.0, "fusion_lat": 0.0, "is_reserved": 0, "bike_id": "4e7375273f611db9d9ee06b205eff237", "lon": -77.04573616666667, "is_disabled": 0}, {"rental_uris": {"android": "https://dc.lft.to/lastmile_qr_scan", "ios": "https://dc.lft.to/lastmile_qr_scan"}, "lat": 38.876585166666665, "type": "electric_scooter", "name": "949b13ef675b73a2402f56f9795f76ba", "fusion_lon": 0.0, "fusion_lat": 0.0, "is_reserved": 0, "bike_id": "949b13ef675b73a2402f56f9795f76ba", "lon": -77.00238783333333, "is_disabled": 0}, {"rental_uris": {"android": "https://dc.lft.to/lastmile_qr_scan", "ios": "https://dc.lft.to/lastmile_qr_scan"}, "lat": 38.822094166666666, "type": "electric_bike", "name": "71b670100863df24846584a290579f63", "fusion_lon": 0.0, "fusion_lat": 0.0, "is_reserved": 0, "bike_id": "71b670100863df24846584a290579f63", "lon": -76.97702683333333, "is_disabled": 0}, {"rental_uris": {"android": "https://dc.lft.to/lastmile_qr_scan", "ios": "https://dc.lft.to/lastmile_qr_scan"}, "lat": 38.90232316666667, "type": "electric_scooter", "name": "f9d94007ae2bba56fea3c7f6abe3b198", "fusion_lon": 0.0, "fusion_lat": 0.0, "is_reserved": 0, "bike_id": "f9d94007ae2bba56fea3c7f6abe3b198", "lon": -77.0396295, "is_disabled": 0}, {"rental_uris": {"android": "https://dc.lft.to/lastmile_qr_scan", "ios": "https://dc.lft.to/lastmile_qr_scan"}, "lat": 38.998094333333334, "type": "electric_bike", "name": "6d79643eebc0218c7d0b883df12961ea", "fusion_lon": 0.0, "fusion_lat": 0.0, "is_reserved": 0, "bike_id": "6d79643eebc0218c7d0b883df12961ea", "lon": -77.02873933333333, "is_disabled": 0}, {"rental_uris": {"android": "https://dc.lft.to/lastmile_qr_scan", "ios": "https://dc.lft.to/lastmile_qr_scan"}, "lat": 38.94184716666667, "type": "electric_scooter", "name": "4add83f41fc365d2094900bbfbef15e4", "fusion_lon": 0.0, "fusion_lat": 0.0, "is_reserved": 0, "bike_id": "4add83f41fc365d2094900bbfbef15e4", "lon": -77.024857, "is_disabled": 0}, {"rental_uris": {"android": "https://dc.lft.to/lastmile_qr_scan", "ios": "https://dc.lft.to/lastmile_qr_scan"}, "lat": 38.9223585, "type": "electric_scooter", "name": "bf52146b2d3a1eb8ca7dedb85d16fa24", "fusion_lon": 0.0, "fusion_lat": 0.0, "is_reserved": 0, "bike_id": "bf52146b2d3a1eb8ca7dedb85d16fa24", "lon": -77.03518283333334, "is_disabled": 0}, {"rental_uris": {"android": "https://dc.lft.to/lastmile_qr_scan", "ios": "https://dc.lft.to/lastmile_qr_scan"}, "lat": 38.9241585, "type": "electric_scooter", "name": "b32c2b6146d1657ac03cda06717c49bd", "fusion_lon": 0.0, "fusion_lat": 0.0, "is_reserved": 0, "bike_id": "b32c2b6146d1657ac03cda06717c49bd", "lon": -77.02276116666667, "is_disabled": 0}, {"rental_uris": {"android": "https://dc.lft.to/lastmile_qr_scan", "ios": "https://dc.lft.to/lastmile_qr_scan"}, "lat": 38.904845333333334, "type": "electric_scooter", "name": "666d6f5e6a25b3c6affd23606abaf683", "fusion_lon": 0.0, "fusion_lat": 0.0, "is_reserved": 0, "bike_id": "666d6f5e6a25b3c6affd23606abaf683", "lon": -77.03557166666667, "is_disabled": 0}, {"rental_uris": {"android": "https://dc.lft.to/lastmile_qr_scan", "ios": "https://dc.lft.to/lastmile_qr_scan"}, "lat": 38.935529, "type": "electric_scooter", "name": "53c8ccf8b1b41707878611ba8de82d29", "fusion_lon": 0.0, "fusion_lat": 0.0, "is_reserved": 0, "bike_id": "53c8ccf8b1b41707878611ba8de82d29", "lon": -77.07705666666666, "is_disabled": 0}, {"rental_uris": {"android": "https://dc.lft.to/lastmile_qr_scan", "ios": "https://dc.lft.to/lastmile_qr_scan"}, "lat": 38.8989385, "type": "electric_scooter", "name": "1fd5e0b86058027c803cd9675d1b7830", "fusion_lon": 0.0, "fusion_lat": 0.0, "is_reserved": 0, "bike_id": "1fd5e0b86058027c803cd9675d1b7830", "lon": -77.04077533333333, "is_disabled": 0}, {"rental_uris": {"android": "https://dc.lft.to/lastmile_qr_scan", "ios": "https://dc.lft.to/lastmile_qr_scan"}, "lat": 38.938533, "type": "electric_scooter", "name": "c35c4da43c30039358333f27bb39508a", "fusion_lon": 0.0, "fusion_lat": 0.0, "is_reserved": 0, "bike_id": "c35c4da43c30039358333f27bb39508a", "lon": -76.99434733333334, "is_disabled": 0}, {"rental_uris": {"android": "https://dc.lft.to/lastmile_qr_scan", "ios": "https://dc.lft.to/lastmile_qr_scan"}, "lat": 38.895154166666664, "type": "electric_scooter", "name": "f2fa8d5714dd8fab47ed189f64ff6659", "fusion_lon": 0.0, "fusion_lat": 0.0, "is_reserved": 0, "bike_id": "f2fa8d5714dd8fab47ed189f64ff6659", "lon": -77.04675216666666, "is_disabled": 0}, {"rental_uris": {"android": "https://dc.lft.to/lastmile_qr_scan", "ios": "https://dc.lft.to/lastmile_qr_scan"}, "lat": 38.91680733333333, "type": "electric_scooter", "name": "1d52bf47b03aa6f45b1db39bd88d312f", "fusion_lon": 0.0, "fusion_lat": 0.0, "is_reserved": 0, "bike_id": "1d52bf47b03aa6f45b1db39bd88d312f", "lon": -77.02975383333333, "is_disabled": 0}, {"rental_uris": {"android": "https://dc.lft.to/lastmile_qr_scan", "ios": "https://dc.lft.to/lastmile_qr_scan"}, "lat": 38.92326583333333, "type": "electric_scooter", "name": "bc12c34a0fa91bf89e1b3ca6525a980a", "fusion_lon": 0.0, "fusion_lat": 0.0, "is_reserved": 0, "bike_id": "bc12c34a0fa91bf89e1b3ca6525a980a", "lon": -77.05676933333334, "is_disabled": 0}, {"rental_uris": {"android": "https://dc.lft.to/lastmile_qr_scan", "ios": "https://dc.lft.to/lastmile_qr_scan"}, "lat": 38.90512733333333, "type": "electric_scooter", "name": "2cdff1bb8e9a992691a04e417518cf54", "fusion_lon": 0.0, "fusion_lat": 0.0, "is_reserved": 0, "bike_id": "2cdff1bb8e9a992691a04e417518cf54", "lon": -77.06050283333333, "is_disabled": 0}, {"rental_uris": {"android": "https://dc.lft.to/lastmile_qr_scan", "ios": "https://dc.lft.to/lastmile_qr_scan"}, "lat": 38.90598083333333, "type": "electric_scooter", "name": "49eead422b694fb7244f93ee8a5528b5", "fusion_lon": 0.0, "fusion_lat": 0.0, "is_reserved": 0, "bike_id": "49eead422b694fb7244f93ee8a5528b5", "lon": -76.99500116666667, "is_disabled": 0}, {"rental_uris": {"android": "https://dc.lft.to/lastmile_qr_scan", "ios": "https://dc.lft.to/lastmile_qr_scan"}, "lat": 38.9028445, "type": "electric_scooter", "name": "31fd9d276c7f98a049ffa1a8b72aaa92", "fusion_lon": 0.0, "fusion_lat": 0.0, "is_reserved": 0, "bike_id": "31fd9d276c7f98a049ffa1a8b72aaa92", "lon": -77.0405955, "is_disabled": 0}, {"rental_uris": {"android": "https://dc.lft.to/lastmile_qr_scan", "ios": "https://dc.lft.to/lastmile_qr_scan"}, "lat": 38.915778333333336, "type": "electric_scooter", "name": "623ffa7aa84e1520dbd523949e801414", "fusion_lon": 0.0, "fusion_lat": 0.0, "is_reserved": 0, "bike_id": "623ffa7aa84e1520dbd523949e801414", "lon": -77.02008116666667, "is_disabled": 0}, {"rental_uris": {"android": "https://dc.lft.to/lastmile_qr_scan", "ios": "https://dc.lft.to/lastmile_qr_scan"}, "lat": 38.87941466666667, "type": "electric_scooter", "name": "d4a5128d0d2be64bf3d3480dc98549a5", "fusion_lon": 0.0, "fusion_lat": 0.0, "is_reserved": 0, "bike_id": "d4a5128d0d2be64bf3d3480dc98549a5", "lon": -76.99369166666666, "is_disabled": 0}, {"rental_uris": {"android": "https://dc.lft.to/lastmile_qr_scan", "ios": "https://dc.lft.to/lastmile_qr_scan"}, "lat": 38.899748333333335, "type": "electric_scooter", "name": "73a8e831d121f254923f291745a64ea2", "fusion_lon": 0.0, "fusion_lat": 0.0, "is_reserved": 0, "bike_id": "73a8e831d121f254923f291745a64ea2", "lon": -77.0556825, "is_disabled": 0}, {"rental_uris": {"android": "https://dc.lft.to/lastmile_qr_scan", "ios": "https://dc.lft.to/lastmile_qr_scan"}, "lat": 38.885069, "type": "electric_scooter", "name": "1de0624316c9f1a07f81a6744f868201", "fusion_lon": 0.0, "fusion_lat": 0.0, "is_reserved": 0, "bike_id": "1de0624316c9f1a07f81a6744f868201", "lon": -77.00566983333333, "is_disabled": 0}, {"rental_uris": {"android": "https://dc.lft.to/lastmile_qr_scan", "ios": "https://dc.lft.to/lastmile_qr_scan"}, "lat": 38.95328883333333, "type": "electric_bike", "name": "95229ff7dca5c1f62f145c03cd792a0d", "fusion_lon": 0.0, "fusion_lat": 0.0, "is_reserved": 0, "bike_id": "95229ff7dca5c1f62f145c03cd792a0d", "lon": -76.9824635, "is_disabled": 0}, {"rental_uris": {"android": "https://dc.lft.to/lastmile_qr_scan", "ios": "https://dc.lft.to/lastmile_qr_scan"}, "lat": 38.86247316666667, "type": "electric_scooter", "name": "215273a64a02051617f951428201d6b4", "fusion_lon": 0.0, "fusion_lat": 0.0, "is_reserved": 0, "bike_id": "215273a64a02051617f951428201d6b4", "lon": -76.99500433333333, "is_disabled": 0}, {"rental_uris": {"android": "https://dc.lft.to/lastmile_qr_scan", "ios": "https://dc.lft.to/lastmile_qr_scan"}, "lat": 38.908736166666664, "type": "electric_scooter", "name": "6d76429f7149d0f0211a1ea7acb0312c", "fusion_lon": 0.0, "fusion_lat": 0.0, "is_reserved": 0, "bike_id": "6d76429f7149d0f0211a1ea7acb0312c", "lon": -77.0405515, "is_disabled": 0}, {"rental_uris": {"android": "https://dc.lft.to/lastmile_qr_scan", "ios": "https://dc.lft.to/lastmile_qr_scan"}, "lat": 38.920702, "type": "electric_scooter", "name": "f36dad2a7f1d6bd23fca8a9bb70011c8", "fusion_lon": 0.0, "fusion_lat": 0.0, "is_reserved": 0, "bike_id": "f36dad2a7f1d6bd23fca8a9bb70011c8", "lon": -77.03303166666667, "is_disabled": 0}, {"rental_uris": {"android": "https://dc.lft.to/lastmile_qr_scan", "ios": "https://dc.lft.to/lastmile_qr_scan"}, "lat": 38.95740133333334, "type": "electric_scooter", "name": "9d9739101a8075a478df221eb7362e00", "fusion_lon": 0.0, "fusion_lat": 0.0, "is_reserved": 0, "bike_id": "9d9739101a8075a478df221eb7362e00", "lon": -77.027535, "is_disabled": 0}, {"rental_uris": {"android": "https://dc.lft.to/lastmile_qr_scan", "ios": "https://dc.lft.to/lastmile_qr_scan"}, "lat": 38.8988635, "type": "electric_scooter", "name": "e504767645355afbe425a1d89b2bfeb4", "fusion_lon": 0.0, "fusion_lat": 0.0, "is_reserved": 0, "bike_id": "e504767645355afbe425a1d89b2bfeb4", "lon": -76.93174116666667, "is_disabled": 0}, {"rental_uris": {"android": "https://dc.lft.to/lastmile_qr_scan", "ios": "https://dc.lft.to/lastmile_qr_scan"}, "lat": 38.89690016666667, "type": "electric_scooter", "name": "74c9dfa625ba83ef87fac39c2ab14eb7", "fusion_lon": 0.0, "fusion_lat": 0.0, "is_reserved": 0, "bike_id": "74c9dfa625ba83ef87fac39c2ab14eb7", "lon": -77.02214683333334, "is_disabled": 0}, {"rental_uris": {"android": "https://dc.lft.to/lastmile_qr_scan", "ios": "https://dc.lft.to/lastmile_qr_scan"}, "lat": 38.923612, "type": "electric_scooter", "name": "a8da59dc669fd0ba4b7bad983967b9d3", "fusion_lon": 0.0, "fusion_lat": 0.0, "is_reserved": 0, "bike_id": "a8da59dc669fd0ba4b7bad983967b9d3", "lon": -77.05073666666667, "is_disabled": 0}, {"rental_uris": {"android": "https://dc.lft.to/lastmile_qr_scan", "ios": "https://dc.lft.to/lastmile_qr_scan"}, "lat": 38.905513666666664, "type": "electric_scooter", "name": "f3360dd67ea9b0e5e8900b269ed343eb", "fusion_lon": 0.0, "fusion_lat": 0.0, "is_reserved": 0, "bike_id": "f3360dd67ea9b0e5e8900b269ed343eb", "lon": -77.03251816666666, "is_disabled": 0}, {"rental_uris": {"android": "https://dc.lft.to/lastmile_qr_scan", "ios": "https://dc.lft.to/lastmile_qr_scan"}, "lat": 38.90621066666667, "type": "electric_scooter", "name": "bd8c4c9a76d382b4e2b5265c4a4ecfe1", "fusion_lon": 0.0, "fusion_lat": 0.0, "is_reserved": 0, "bike_id": "bd8c4c9a76d382b4e2b5265c4a4ecfe1", "lon": -77.06288816666667, "is_disabled": 0}, {"rental_uris": {"android": "https://dc.lft.to/lastmile_qr_scan", "ios": "https://dc.lft.to/lastmile_qr_scan"}, "lat": 38.922753666666665, "type": "electric_scooter", "name": "e5e7742f4d8cd7249c82e247b34b86ac", "fusion_lon": 0.0, "fusion_lat": 0.0, "is_reserved": 0, "bike_id": "e5e7742f4d8cd7249c82e247b34b86ac", "lon": -77.02130233333334, "is_disabled": 0}, {"rental_uris": {"android": "https://dc.lft.to/lastmile_qr_scan", "ios": "https://dc.lft.to/lastmile_qr_scan"}, "lat": 38.88109716666666, "type": "electric_scooter", "name": "cc81e5cd2482bbd9f0aca2db5cffd994", "fusion_lon": 0.0, "fusion_lat": 0.0, "is_reserved": 0, "bike_id": "cc81e5cd2482bbd9f0aca2db5cffd994", "lon": -77.01984066666667, "is_disabled": 0}, {"rental_uris": {"android": "https://dc.lft.to/lastmile_qr_scan", "ios": "https://dc.lft.to/lastmile_qr_scan"}, "lat": 38.90855916666667, "type": "electric_scooter", "name": "e8ec79f9ef2433ce197afa612da67246", "fusion_lon": 0.0, "fusion_lat": 0.0, "is_reserved": 0, "bike_id": "e8ec79f9ef2433ce197afa612da67246", "lon": -77.03185133333334, "is_disabled": 0}, {"rental_uris": {"android": "https://dc.lft.to/lastmile_qr_scan", "ios": "https://dc.lft.to/lastmile_qr_scan"}, "lat": 38.90502583333333, "type": "electric_bike", "name": "46db4e4e599eb2487bd75ac9151f09ea", "fusion_lon": 0.0, "fusion_lat": 0.0, "is_reserved": 0, "bike_id": "46db4e4e599eb2487bd75ac9151f09ea", "lon": -77.06741666666667, "is_disabled": 0}, {"rental_uris": {"android": "https://dc.lft.to/lastmile_qr_scan", "ios": "https://dc.lft.to/lastmile_qr_scan"}, "lat": 38.923263, "type": "electric_scooter", "name": "8d1f0bbf6b385b312b214dc1eca94cc5", "fusion_lon": 0.0, "fusion_lat": 0.0, "is_reserved": 0, "bike_id": "8d1f0bbf6b385b312b214dc1eca94cc5", "lon": -77.01960616666666, "is_disabled": 0}, {"rental_uris": {"android": "https://dc.lft.to/lastmile_qr_scan", "ios": "https://dc.lft.to/lastmile_qr_scan"}, "lat": 38.92051, "type": "electric_scooter", "name": "7e8e7256938d6855671a3a40726d2835", "fusion_lon": 0.0, "fusion_lat": 0.0, "is_reserved": 0, "bike_id": "7e8e7256938d6855671a3a40726d2835", "lon": -77.04184316666667, "is_disabled": 0}, {"rental_uris": {"android": "https://dc.lft.to/lastmile_qr_scan", "ios": "https://dc.lft.to/lastmile_qr_scan"}, "lat": 38.8932785, "type": "electric_scooter", "name": "eb62628f17995f0e55fc115f72075477", "fusion_lon": 0.0, "fusion_lat": 0.0, "is_reserved": 0, "bike_id": "eb62628f17995f0e55fc115f72075477", "lon": -77.02949633333333, "is_disabled": 0}, {"rental_uris": {"android": "https://dc.lft.to/lastmile_qr_scan", "ios": "https://dc.lft.to/lastmile_qr_scan"}, "lat": 38.927515166666666, "type": "electric_scooter", "name": "cabb6dd02abb1b7f884d3e7bb86d0931", "fusion_lon": 0.0, "fusion_lat": 0.0, "is_reserved": 0, "bike_id": "cabb6dd02abb1b7f884d3e7bb86d0931", "lon": -77.02113333333334, "is_disabled": 0}, {"rental_uris": {"android": "https://dc.lft.to/lastmile_qr_scan", "ios": "https://dc.lft.to/lastmile_qr_scan"}, "lat": 38.920313, "type": "electric_scooter", "name": "f310a517bb6f92ea5908ac4c6f56cc2a", "fusion_lon": 0.0, "fusion_lat": 0.0, "is_reserved": 0, "bike_id": "f310a517bb6f92ea5908ac4c6f56cc2a", "lon": -77.0372585, "is_disabled": 0}, {"rental_uris": {"android": "https://dc.lft.to/lastmile_qr_scan", "ios": "https://dc.lft.to/lastmile_qr_scan"}, "lat": 38.89223116666667, "type": "electric_scooter", "name": "c655d63cad6052f7aeef27f089e0c8a2", "fusion_lon": 0.0, "fusion_lat": 0.0, "is_reserved": 0, "bike_id": "c655d63cad6052f7aeef27f089e0c8a2", "lon": -77.046235, "is_disabled": 0}, {"rental_uris": {"android": "https://dc.lft.to/lastmile_qr_scan", "ios": "https://dc.lft.to/lastmile_qr_scan"}, "lat": 38.897499, "type": "electric_scooter", "name": "10331efc9000f16d34acf7e22ad5f8cc", "fusion_lon": 0.0, "fusion_lat": 0.0, "is_reserved": 0, "bike_id": "10331efc9000f16d34acf7e22ad5f8cc", "lon": -77.0251665, "is_disabled": 0}, {"rental_uris": {"android": "https://dc.lft.to/lastmile_qr_scan", "ios": "https://dc.lft.to/lastmile_qr_scan"}, "lat": 38.896320833333334, "type": "electric_scooter", "name": "4502f714c4952a0f2f18cac312475576", "fusion_lon": 0.0, "fusion_lat": 0.0, "is_reserved": 0, "bike_id": "4502f714c4952a0f2f18cac312475576", "lon": -77.023756, "is_disabled": 0}, {"rental_uris": {"android": "https://dc.lft.to/lastmile_qr_scan", "ios": "https://dc.lft.to/lastmile_qr_scan"}, "lat": 38.93467, "type": "electric_scooter", "name": "ce9a9a940b7ecc773befa496b29079fe", "fusion_lon": 0.0, "fusion_lat": 0.0, "is_reserved": 0, "bike_id": "ce9a9a940b7ecc773befa496b29079fe", "lon": -77.0580935, "is_disabled": 0}, {"rental_uris": {"android": "https://dc.lft.to/lastmile_qr_scan", "ios": "https://dc.lft.to/lastmile_qr_scan"}, "lat": 38.92651383333333, "type": "electric_scooter", "name": "245e1451241e3301902ebd9f4bcd1760", "fusion_lon": 0.0, "fusion_lat": 0.0, "is_reserved": 0, "bike_id": "245e1451241e3301902ebd9f4bcd1760", "lon": -77.03852733333333, "is_disabled": 0}, {"rental_uris": {"android": "https://dc.lft.to/lastmile_qr_scan", "ios": "https://dc.lft.to/lastmile_qr_scan"}, "lat": 38.93704233333333, "type": "electric_scooter", "name": "8691f5262f8027c5ae68aa1d718725f1", "fusion_lon": 0.0, "fusion_lat": 0.0, "is_reserved": 0, "bike_id": "8691f5262f8027c5ae68aa1d718725f1", "lon": -77.056144, "is_disabled": 0}, {"rental_uris": {"android": "https://dc.lft.to/lastmile_qr_scan", "ios": "https://dc.lft.to/lastmile_qr_scan"}, "lat": 38.900305333333336, "type": "electric_scooter", "name": "523d356e16acc298ae607b47ee842ae9", "fusion_lon": 0.0, "fusion_lat": 0.0, "is_reserved": 0, "bike_id": "523d356e16acc298ae607b47ee842ae9", "lon": -77.0320155, "is_disabled": 0}, {"rental_uris": {"android": "https://dc.lft.to/lastmile_qr_scan", "ios": "https://dc.lft.to/lastmile_qr_scan"}, "lat": 38.909705333333335, "type": "electric_scooter", "name": "a624a0fc8f811afc0a6050bdb0eb5be8", "fusion_lon": 0.0, "fusion_lat": 0.0, "is_reserved": 0, "bike_id": "a624a0fc8f811afc0a6050bdb0eb5be8", "lon": -77.04521416666667, "is_disabled": 0}, {"rental_uris": {"android": "https://dc.lft.to/lastmile_qr_scan", "ios": "https://dc.lft.to/lastmile_qr_scan"}, "lat": 38.9283835, "type": "electric_scooter", "name": "423cc731a035c6ff474179d0a65de681", "fusion_lon": 0.0, "fusion_lat": 0.0, "is_reserved": 0, "bike_id": "423cc731a035c6ff474179d0a65de681", "lon": -77.03729916666667, "is_disabled": 0}, {"rental_uris": {"android": "https://dc.lft.to/lastmile_qr_scan", "ios": "https://dc.lft.to/lastmile_qr_scan"}, "lat": 38.89489366666667, "type": "electric_scooter", "name": "ab273de9cfe55c3da40224c60508e1ef", "fusion_lon": 0.0, "fusion_lat": 0.0, "is_reserved": 0, "bike_id": "ab273de9cfe55c3da40224c60508e1ef", "lon": -76.948882, "is_disabled": 0}, {"rental_uris": {"android": "https://dc.lft.to/lastmile_qr_scan", "ios": "https://dc.lft.to/lastmile_qr_scan"}, "lat": 38.89847566666667, "type": "electric_scooter", "name": "616365c7cd166136c682cb3ad3e40c69", "fusion_lon": 0.0, "fusion_lat": 0.0, "is_reserved": 0, "bike_id": "616365c7cd166136c682cb3ad3e40c69", "lon": -77.0263075, "is_disabled": 0}, {"rental_uris": {"android": "https://dc.lft.to/lastmile_qr_scan", "ios": "https://dc.lft.to/lastmile_qr_scan"}, "lat": 38.911639666666666, "type": "electric_scooter", "name": "fb2068d629cceec0aeb3bab20a504fd7", "fusion_lon": 0.0, "fusion_lat": 0.0, "is_reserved": 0, "bike_id": "fb2068d629cceec0aeb3bab20a504fd7", "lon": -77.04874633333333, "is_disabled": 0}, {"rental_uris": {"android": "https://dc.lft.to/lastmile_qr_scan", "ios": "https://dc.lft.to/lastmile_qr_scan"}, "lat": 38.91959166666667, "type": "electric_scooter", "name": "869c3712c8c0aee5b2452fae6e913da4", "fusion_lon": 0.0, "fusion_lat": 0.0, "is_reserved": 0, "bike_id": "869c3712c8c0aee5b2452fae6e913da4", "lon": -77.025975, "is_disabled": 0}, {"rental_uris": {"android": "https://dc.lft.to/lastmile_qr_scan", "ios": "https://dc.lft.to/lastmile_qr_scan"}, "lat": 38.951127, "type": "electric_bike", "name": "c3b8ba727ddf6d08a19bcd752cc485d6", "fusion_lon": 0.0, "fusion_lat": 0.0, "is_reserved": 0, "bike_id": "c3b8ba727ddf6d08a19bcd752cc485d6", "lon": -77.08865433333334, "is_disabled": 0}, {"rental_uris": {"android": "https://dc.lft.to/lastmile_qr_scan", "ios": "https://dc.lft.to/lastmile_qr_scan"}, "lat": 38.92415333333334, "type": "electric_scooter", "name": "4aeff1245f16f488f3b81dd81bcc7bef", "fusion_lon": 0.0, "fusion_lat": 0.0, "is_reserved": 0, "bike_id": "4aeff1245f16f488f3b81dd81bcc7bef", "lon": -77.02031983333333, "is_disabled": 0}, {"rental_uris": {"android": "https://dc.lft.to/lastmile_qr_scan", "ios": "https://dc.lft.to/lastmile_qr_scan"}, "lat": 38.927882833333335, "type": "electric_scooter", "name": "1188c8c951da5b92bc18ac1614447bb8", "fusion_lon": 0.0, "fusion_lat": 0.0, "is_reserved": 0, "bike_id": "1188c8c951da5b92bc18ac1614447bb8", "lon": -77.05586683333334, "is_disabled": 0}, {"rental_uris": {"android": "https://dc.lft.to/lastmile_qr_scan", "ios": "https://dc.lft.to/lastmile_qr_scan"}, "lat": 38.9418375, "type": "electric_scooter", "name": "6b8842e0a7c10abdba23ac5c79c28a4d", "fusion_lon": 0.0, "fusion_lat": 0.0, "is_reserved": 0, "bike_id": "6b8842e0a7c10abdba23ac5c79c28a4d", "lon": -77.0249235, "is_disabled": 0}, {"rental_uris": {"android": "https://dc.lft.to/lastmile_qr_scan", "ios": "https://dc.lft.to/lastmile_qr_scan"}, "lat": 38.913932, "type": "electric_scooter", "name": "c42d3bdb67ebeb10ed57d9bb2555f2c3", "fusion_lon": 0.0, "fusion_lat": 0.0, "is_reserved": 0, "bike_id": "c42d3bdb67ebeb10ed57d9bb2555f2c3", "lon": -76.98416616666667, "is_disabled": 0}, {"rental_uris": {"android": "https://dc.lft.to/lastmile_qr_scan", "ios": "https://dc.lft.to/lastmile_qr_scan"}, "lat": 38.923292333333336, "type": "electric_scooter", "name": "5d60a161d8f6f69e544dc9f0b4d68557", "fusion_lon": 0.0, "fusion_lat": 0.0, "is_reserved": 0, "bike_id": "5d60a161d8f6f69e544dc9f0b4d68557", "lon": -77.01956733333333, "is_disabled": 0}, {"rental_uris": {"android": "https://dc.lft.to/lastmile_qr_scan", "ios": "https://dc.lft.to/lastmile_qr_scan"}, "lat": 38.9162575, "type": "electric_scooter", "name": "fb3d18c56c080523f1147b5295129d9a", "fusion_lon": 0.0, "fusion_lat": 0.0, "is_reserved": 0, "bike_id": "fb3d18c56c080523f1147b5295129d9a", "lon": -77.050614, "is_disabled": 0}, {"rental_uris": {"android": "https://dc.lft.to/lastmile_qr_scan", "ios": "https://dc.lft.to/lastmile_qr_scan"}, "lat": 38.89618883333333, "type": "electric_scooter", "name": "08291171df71d823d2eba398e568ec46", "fusion_lon": 0.0, "fusion_lat": 0.0, "is_reserved": 0, "bike_id": "08291171df71d823d2eba398e568ec46", "lon": -77.02785966666667, "is_disabled": 0}, {"rental_uris": {"android": "https://dc.lft.to/lastmile_qr_scan", "ios": "https://dc.lft.to/lastmile_qr_scan"}, "lat": 38.935247333333336, "type": "electric_scooter", "name": "79b4f09ddafaa837e41a9c9aa501efca", "fusion_lon": 0.0, "fusion_lat": 0.0, "is_reserved": 0, "bike_id": "79b4f09ddafaa837e41a9c9aa501efca", "lon": -77.03264066666667, "is_disabled": 0}, {"rental_uris": {"android": "https://dc.lft.to/lastmile_qr_scan", "ios": "https://dc.lft.to/lastmile_qr_scan"}, "lat": 38.876645, "type": "electric_scooter", "name": "7a71f59efd4d3902a9cefea62d1421b5", "fusion_lon": 0.0, "fusion_lat": 0.0, "is_reserved": 0, "bike_id": "7a71f59efd4d3902a9cefea62d1421b5", "lon": -77.00063433333334, "is_disabled": 0}, {"rental_uris": {"android": "https://dc.lft.to/lastmile_qr_scan", "ios": "https://dc.lft.to/lastmile_qr_scan"}, "lat": 38.914011333333335, "type": "electric_scooter", "name": "c0aca6749925eeaffe52d14f3a18cbbb", "fusion_lon": 0.0, "fusion_lat": 0.0, "is_reserved": 0, "bike_id": "c0aca6749925eeaffe52d14f3a18cbbb", "lon": -77.04883983333333, "is_disabled": 0}, {"rental_uris": {"android": "https://dc.lft.to/lastmile_qr_scan", "ios": "https://dc.lft.to/lastmile_qr_scan"}, "lat": 38.91633366666667, "type": "electric_scooter", "name": "fa4bb036e08602ba3376be2411f12cb3", "fusion_lon": 0.0, "fusion_lat": 0.0, "is_reserved": 0, "bike_id": "fa4bb036e08602ba3376be2411f12cb3", "lon": -77.02551783333334, "is_disabled": 0}, {"rental_uris": {"android": "https://dc.lft.to/lastmile_qr_scan", "ios": "https://dc.lft.to/lastmile_qr_scan"}, "lat": 38.9261255, "type": "electric_scooter", "name": "017a0b51a911249ad8df8b63b627b6dc", "fusion_lon": 0.0, "fusion_lat": 0.0, "is_reserved": 0, "bike_id": "017a0b51a911249ad8df8b63b627b6dc", "lon": -77.02161483333333, "is_disabled": 0}, {"rental_uris": {"android": "https://dc.lft.to/lastmile_qr_scan", "ios": "https://dc.lft.to/lastmile_qr_scan"}, "lat": 38.92575566666667, "type": "electric_scooter", "name": "9fe583640d3520c40bd23cf0c50f38a6", "fusion_lon": 0.0, "fusion_lat": 0.0, "is_reserved": 0, "bike_id": "9fe583640d3520c40bd23cf0c50f38a6", "lon": -77.0257125, "is_disabled": 0}, {"rental_uris": {"android": "https://dc.lft.to/lastmile_qr_scan", "ios": "https://dc.lft.to/lastmile_qr_scan"}, "lat": 38.928799, "type": "electric_scooter", "name": "526fd1c712b622b93046bfbc7876470b", "fusion_lon": 0.0, "fusion_lat": 0.0, "is_reserved": 0, "bike_id": "526fd1c712b622b93046bfbc7876470b", "lon": -77.032407, "is_disabled": 0}, {"rental_uris": {"android": "https://dc.lft.to/lastmile_qr_scan", "ios": "https://dc.lft.to/lastmile_qr_scan"}, "lat": 38.890974666666665, "type": "electric_bike", "name": "5adec5e00cf1f28a339087e0fe59a723", "fusion_lon": 0.0, "fusion_lat": 0.0, "is_reserved": 0, "bike_id": "5adec5e00cf1f28a339087e0fe59a723", "lon": -77.0174405, "is_disabled": 0}, {"rental_uris": {"android": "https://dc.lft.to/lastmile_qr_scan", "ios": "https://dc.lft.to/lastmile_qr_scan"}, "lat": 38.9004385, "type": "electric_scooter", "name": "41fb3a2c7a0f800c28eb1bf55f88025e", "fusion_lon": 0.0, "fusion_lat": 0.0, "is_reserved": 0, "bike_id": "41fb3a2c7a0f800c28eb1bf55f88025e", "lon": -77.04835233333333, "is_disabled": 0}, {"rental_uris": {"android": "https://dc.lft.to/lastmile_qr_scan", "ios": "https://dc.lft.to/lastmile_qr_scan"}, "lat": 38.959342666666664, "type": "electric_scooter", "name": "94afb4e8cc4c1555d5664ba10af551db", "fusion_lon": 0.0, "fusion_lat": 0.0, "is_reserved": 0, "bike_id": "94afb4e8cc4c1555d5664ba10af551db", "lon": -77.03125233333333, "is_disabled": 0}, {"rental_uris": {"android": "https://dc.lft.to/lastmile_qr_scan", "ios": "https://dc.lft.to/lastmile_qr_scan"}, "lat": 38.89224883333333, "type": "electric_scooter", "name": "cfb01898e5534d2032171d1d01d605b2", "fusion_lon": 0.0, "fusion_lat": 0.0, "is_reserved": 0, "bike_id": "cfb01898e5534d2032171d1d01d605b2", "lon": -77.04335333333333, "is_disabled": 0}, {"rental_uris": {"android": "https://dc.lft.to/lastmile_qr_scan", "ios": "https://dc.lft.to/lastmile_qr_scan"}, "lat": 38.89752216666667, "type": "electric_scooter", "name": "0ea529af4ba5c8b95f940a7184bf0c38", "fusion_lon": 0.0, "fusion_lat": 0.0, "is_reserved": 0, "bike_id": "0ea529af4ba5c8b95f940a7184bf0c38", "lon": -77.02652933333333, "is_disabled": 0}, {"rental_uris": {"android": "https://dc.lft.to/lastmile_qr_scan", "ios": "https://dc.lft.to/lastmile_qr_scan"}, "lat": 38.96562866666667, "type": "electric_bike", "name": "19ec0ce9399d8d7e3a606da79bee5798", "fusion_lon": 0.0, "fusion_lat": 0.0, "is_reserved": 0, "bike_id": "19ec0ce9399d8d7e3a606da79bee5798", "lon": -77.02298466666667, "is_disabled": 0}, {"rental_uris": {"android": "https://dc.lft.to/lastmile_qr_scan", "ios": "https://dc.lft.to/lastmile_qr_scan"}, "lat": 38.886074666666666, "type": "electric_scooter", "name": "bd6098e6882cbdaacb0c6d94f3516b04", "fusion_lon": 0.0, "fusion_lat": 0.0, "is_reserved": 0, "bike_id": "bd6098e6882cbdaacb0c6d94f3516b04", "lon": -77.00339266666667, "is_disabled": 0}, {"rental_uris": {"android": "https://dc.lft.to/lastmile_qr_scan", "ios": "https://dc.lft.to/lastmile_qr_scan"}, "lat": 38.897094833333334, "type": "electric_scooter", "name": "6c996d2e621ae06e2fb5db7455cf8b42", "fusion_lon": 0.0, "fusion_lat": 0.0, "is_reserved": 0, "bike_id": "6c996d2e621ae06e2fb5db7455cf8b42", "lon": -77.02680616666666, "is_disabled": 0}, {"rental_uris": {"android": "https://dc.lft.to/lastmile_qr_scan", "ios": "https://dc.lft.to/lastmile_qr_scan"}, "lat": 38.90382316666667, "type": "electric_scooter", "name": "4c774494a63c2138f55202dc2d05009b", "fusion_lon": 0.0, "fusion_lat": 0.0, "is_reserved": 0, "bike_id": "4c774494a63c2138f55202dc2d05009b", "lon": -77.04498366666667, "is_disabled": 0}, {"rental_uris": {"android": "https://dc.lft.to/lastmile_qr_scan", "ios": "https://dc.lft.to/lastmile_qr_scan"}, "lat": 38.90693183333333, "type": "electric_scooter", "name": "4ec9a1f4758783137ba077d56894a69f", "fusion_lon": 0.0, "fusion_lat": 0.0, "is_reserved": 0, "bike_id": "4ec9a1f4758783137ba077d56894a69f", "lon": -76.97934366666667, "is_disabled": 0}, {"rental_uris": {"android": "https://dc.lft.to/lastmile_qr_scan", "ios": "https://dc.lft.to/lastmile_qr_scan"}, "lat": 38.8968875, "type": "electric_scooter", "name": "b8ce8cfa348094d4ef8ccf32b9e7a4a0", "fusion_lon": 0.0, "fusion_lat": 0.0, "is_reserved": 0, "bike_id": "b8ce8cfa348094d4ef8ccf32b9e7a4a0", "lon": -77.00497866666667, "is_disabled": 0}, {"rental_uris": {"android": "https://dc.lft.to/lastmile_qr_scan", "ios": "https://dc.lft.to/lastmile_qr_scan"}, "lat": 38.8919955, "type": "electric_scooter", "name": "81e4a4c40838bc87a422eb0bc6d84e4d", "fusion_lon": 0.0, "fusion_lat": 0.0, "is_reserved": 0, "bike_id": "81e4a4c40838bc87a422eb0bc6d84e4d", "lon": -77.00294133333334, "is_disabled": 0}, {"rental_uris": {"android": "https://dc.lft.to/lastmile_qr_scan", "ios": "https://dc.lft.to/lastmile_qr_scan"}, "lat": 38.904847333333336, "type": "electric_scooter", "name": "e9d96e2ef6d34cdb56fb70f8b00a7deb", "fusion_lon": 0.0, "fusion_lat": 0.0, "is_reserved": 0, "bike_id": "e9d96e2ef6d34cdb56fb70f8b00a7deb", "lon": -77.02938783333333, "is_disabled": 0}, {"rental_uris": {"android": "https://dc.lft.to/lastmile_qr_scan", "ios": "https://dc.lft.to/lastmile_qr_scan"}, "lat": 38.895457, "type": "electric_scooter", "name": "276736d6cff28cdcfb6c77eb3f0775c9", "fusion_lon": 0.0, "fusion_lat": 0.0, "is_reserved": 0, "bike_id": "276736d6cff28cdcfb6c77eb3f0775c9", "lon": -76.9889095, "is_disabled": 0}, {"rental_uris": {"android": "https://dc.lft.to/lastmile_qr_scan", "ios": "https://dc.lft.to/lastmile_qr_scan"}, "lat": 38.92674783333333, "type": "electric_scooter", "name": "5b4f065f576f06ddc3a5ca3f2ab142be", "fusion_lon": 0.0, "fusion_lat": 0.0, "is_reserved": 0, "bike_id": "5b4f065f576f06ddc3a5ca3f2ab142be", "lon": -77.01498866666667, "is_disabled": 0}, {"rental_uris": {"android": "https://dc.lft.to/lastmile_qr_scan", "ios": "https://dc.lft.to/lastmile_qr_scan"}, "lat": 38.9101455, "type": "electric_scooter", "name": "41393f8ebc4e3e6269d759a82174bdbe", "fusion_lon": 0.0, "fusion_lat": 0.0, "is_reserved": 0, "bike_id": "41393f8ebc4e3e6269d759a82174bdbe", "lon": -77.05262866666666, "is_disabled": 0}, {"rental_uris": {"android": "https://dc.lft.to/lastmile_qr_scan", "ios": "https://dc.lft.to/lastmile_qr_scan"}, "lat": 38.937612333333334, "type": "electric_scooter", "name": "beeda03e3f9bc947def7d7c95a6987c1", "fusion_lon": 0.0, "fusion_lat": 0.0, "is_reserved": 0, "bike_id": "beeda03e3f9bc947def7d7c95a6987c1", "lon": -77.0235965, "is_disabled": 0}, {"rental_uris": {"android": "https://dc.lft.to/lastmile_qr_scan", "ios": "https://dc.lft.to/lastmile_qr_scan"}, "lat": 38.8923345, "type": "electric_scooter", "name": "7916af12cf78963cb0e36c36861a6cd8", "fusion_lon": 0.0, "fusion_lat": 0.0, "is_reserved": 0, "bike_id": "7916af12cf78963cb0e36c36861a6cd8", "lon": -77.02382616666667, "is_disabled": 0}, {"rental_uris": {"android": "https://dc.lft.to/lastmile_qr_scan", "ios": "https://dc.lft.to/lastmile_qr_scan"}, "lat": 38.9191685, "type": "electric_scooter", "name": "93d24eb3231e73264e6f2e6e79c78b53", "fusion_lon": 0.0, "fusion_lat": 0.0, "is_reserved": 0, "bike_id": "93d24eb3231e73264e6f2e6e79c78b53", "lon": -77.04808683333333, "is_disabled": 0}, {"rental_uris": {"android": "https://dc.lft.to/lastmile_qr_scan", "ios": "https://dc.lft.to/lastmile_qr_scan"}, "lat": 38.902725833333335, "type": "electric_scooter", "name": "9f91433e29a8bc2e56555a3c4437fee3", "fusion_lon": 0.0, "fusion_lat": 0.0, "is_reserved": 0, "bike_id": "9f91433e29a8bc2e56555a3c4437fee3", "lon": -77.03836816666667, "is_disabled": 0}, {"rental_uris": {"android": "https://dc.lft.to/lastmile_qr_scan", "ios": "https://dc.lft.to/lastmile_qr_scan"}, "lat": 38.88769533333333, "type": "electric_scooter", "name": "b8188351497bd8137b723fe847bd6291", "fusion_lon": 0.0, "fusion_lat": 0.0, "is_reserved": 0, "bike_id": "b8188351497bd8137b723fe847bd6291", "lon": -77.03455083333333, "is_disabled": 0}, {"rental_uris": {"android": "https://dc.lft.to/lastmile_qr_scan", "ios": "https://dc.lft.to/lastmile_qr_scan"}, "lat": 38.937036166666665, "type": "electric_scooter", "name": "f27189deee1fa654545be42a8654c2ab", "fusion_lon": 0.0, "fusion_lat": 0.0, "is_reserved": 0, "bike_id": "f27189deee1fa654545be42a8654c2ab", "lon": -77.0239845, "is_disabled": 0}, {"rental_uris": {"android": "https://dc.lft.to/lastmile_qr_scan", "ios": "https://dc.lft.to/lastmile_qr_scan"}, "lat": 38.88706916666667, "type": "electric_scooter", "name": "30e515d21646d29f3c09af327440f452", "fusion_lon": 0.0, "fusion_lat": 0.0, "is_reserved": 0, "bike_id": "30e515d21646d29f3c09af327440f452", "lon": -76.98342216666667, "is_disabled": 0}, {"rental_uris": {"android": "https://dc.lft.to/lastmile_qr_scan", "ios": "https://dc.lft.to/lastmile_qr_scan"}, "lat": 38.9045045, "type": "electric_scooter", "name": "6d9d1703a03b9ba20f7549ec1e076581", "fusion_lon": 0.0, "fusion_lat": 0.0, "is_reserved": 0, "bike_id": "6d9d1703a03b9ba20f7549ec1e076581", "lon": -77.01891433333333, "is_disabled": 0}, {"rental_uris": {"android": "https://dc.lft.to/lastmile_qr_scan", "ios": "https://dc.lft.to/lastmile_qr_scan"}, "lat": 38.9677895, "type": "electric_bike", "name": "3b5fce230e395ec01b74ffe5e6015106", "fusion_lon": 0.0, "fusion_lat": 0.0, "is_reserved": 0, "bike_id": "3b5fce230e395ec01b74ffe5e6015106", "lon": -76.99641516666667, "is_disabled": 0}, {"rental_uris": {"android": "https://dc.lft.to/lastmile_qr_scan", "ios": "https://dc.lft.to/lastmile_qr_scan"}, "lat": 38.920538, "type": "electric_scooter", "name": "402f7ea3e71e925cfcac300fa468500d", "fusion_lon": 0.0, "fusion_lat": 0.0, "is_reserved": 0, "bike_id": "402f7ea3e71e925cfcac300fa468500d", "lon": -77.0418175, "is_disabled": 0}, {"rental_uris": {"android": "https://dc.lft.to/lastmile_qr_scan", "ios": "https://dc.lft.to/lastmile_qr_scan"}, "lat": 38.92478466666667, "type": "electric_scooter", "name": "b299d2043e8a1de524d413b2cedc9c64", "fusion_lon": 0.0, "fusion_lat": 0.0, "is_reserved": 0, "bike_id": "b299d2043e8a1de524d413b2cedc9c64", "lon": -77.02204283333333, "is_disabled": 0}, {"rental_uris": {"android": "https://dc.lft.to/lastmile_qr_scan", "ios": "https://dc.lft.to/lastmile_qr_scan"}, "lat": 38.92613016666667, "type": "electric_scooter", "name": "3cf626c63d9f3cdc2cbf79acb0fbeba3", "fusion_lon": 0.0, "fusion_lat": 0.0, "is_reserved": 0, "bike_id": "3cf626c63d9f3cdc2cbf79acb0fbeba3", "lon": -77.02161466666666, "is_disabled": 0}, {"rental_uris": {"android": "https://dc.lft.to/lastmile_qr_scan", "ios": "https://dc.lft.to/lastmile_qr_scan"}, "lat": 38.905591666666666, "type": "electric_scooter", "name": "04ab50a1f08187b7df69e58c1d483e03", "fusion_lon": 0.0, "fusion_lat": 0.0, "is_reserved": 0, "bike_id": "04ab50a1f08187b7df69e58c1d483e03", "lon": -77.005845, "is_disabled": 0}, {"rental_uris": {"android": "https://dc.lft.to/lastmile_qr_scan", "ios": "https://dc.lft.to/lastmile_qr_scan"}, "lat": 38.90242583333333, "type": "electric_scooter", "name": "1c4b2eb17b47d1ca6ec7ce4805a6b7e0", "fusion_lon": 0.0, "fusion_lat": 0.0, "is_reserved": 0, "bike_id": "1c4b2eb17b47d1ca6ec7ce4805a6b7e0", "lon": -77.0192445, "is_disabled": 0}, {"rental_uris": {"android": "https://dc.lft.to/lastmile_qr_scan", "ios": "https://dc.lft.to/lastmile_qr_scan"}, "lat": 38.92692566666667, "type": "electric_scooter", "name": "c21ca5cf126fe6f09f61d80232eace2a", "fusion_lon": 0.0, "fusion_lat": 0.0, "is_reserved": 0, "bike_id": "c21ca5cf126fe6f09f61d80232eace2a", "lon": -77.0076765, "is_disabled": 0}, {"rental_uris": {"android": "https://dc.lft.to/lastmile_qr_scan", "ios": "https://dc.lft.to/lastmile_qr_scan"}, "lat": 38.89986066666667, "type": "electric_scooter", "name": "1cdf023b06bfb3ed1ed678b98a084a0e", "fusion_lon": 0.0, "fusion_lat": 0.0, "is_reserved": 0, "bike_id": "1cdf023b06bfb3ed1ed678b98a084a0e", "lon": -77.0158175, "is_disabled": 0}, {"rental_uris": {"android": "https://dc.lft.to/lastmile_qr_scan", "ios": "https://dc.lft.to/lastmile_qr_scan"}, "lat": 38.875162, "type": "electric_bike", "name": "aa7f1adedb708490109f1da3585e9b6a", "fusion_lon": 0.0, "fusion_lat": 0.0, "is_reserved": 0, "bike_id": "aa7f1adedb708490109f1da3585e9b6a", "lon": -77.1175635, "is_disabled": 0}, {"rental_uris": {"android": "https://dc.lft.to/lastmile_qr_scan", "ios": "https://dc.lft.to/lastmile_qr_scan"}, "lat": 38.89713116666667, "type": "electric_scooter", "name": "f529e662d92af93751eacdb82a89c0ea", "fusion_lon": 0.0, "fusion_lat": 0.0, "is_reserved": 0, "bike_id": "f529e662d92af93751eacdb82a89c0ea", "lon": -77.02295416666666, "is_disabled": 0}, {"rental_uris": {"android": "https://dc.lft.to/lastmile_qr_scan", "ios": "https://dc.lft.to/lastmile_qr_scan"}, "lat": 38.98567, "type": "electric_bike", "name": "0f21ecddd682e897020d1139de818e3b", "fusion_lon": 0.0, "fusion_lat": 0.0, "is_reserved": 0, "bike_id": "0f21ecddd682e897020d1139de818e3b", "lon": -77.08745433333333, "is_disabled": 0}, {"rental_uris": {"android": "https://dc.lft.to/lastmile_qr_scan", "ios": "https://dc.lft.to/lastmile_qr_scan"}, "lat": 38.9160195, "type": "electric_scooter", "name": "d4624f62135776e1f4cc97055ff80384", "fusion_lon": 0.0, "fusion_lat": 0.0, "is_reserved": 0, "bike_id": "d4624f62135776e1f4cc97055ff80384", "lon": -77.03845333333334, "is_disabled": 0}, {"rental_uris": {"android": "https://dc.lft.to/lastmile_qr_scan", "ios": "https://dc.lft.to/lastmile_qr_scan"}, "lat": 38.90410266666667, "type": "electric_scooter", "name": "9ea2f424b18bde3917a872f45c7ea91f", "fusion_lon": 0.0, "fusion_lat": 0.0, "is_reserved": 0, "bike_id": "9ea2f424b18bde3917a872f45c7ea91f", "lon": -77.02147216666667, "is_disabled": 0}, {"rental_uris": {"android": "https://dc.lft.to/lastmile_qr_scan", "ios": "https://dc.lft.to/lastmile_qr_scan"}, "lat": 38.91119183333333, "type": "electric_scooter", "name": "ed6d8bf8c1daca4369a4c85d05864bb8", "fusion_lon": 0.0, "fusion_lat": 0.0, "is_reserved": 0, "bike_id": "ed6d8bf8c1daca4369a4c85d05864bb8", "lon": -77.04466133333334, "is_disabled": 0}, {"rental_uris": {"android": "https://dc.lft.to/lastmile_qr_scan", "ios": "https://dc.lft.to/lastmile_qr_scan"}, "lat": 38.910964166666666, "type": "electric_scooter", "name": "8e4b84183e7909ccb231b6a64dc7e9d5", "fusion_lon": 0.0, "fusion_lat": 0.0, "is_reserved": 0, "bike_id": "8e4b84183e7909ccb231b6a64dc7e9d5", "lon": -77.04488666666667, "is_disabled": 0}, {"rental_uris": {"android": "https://dc.lft.to/lastmile_qr_scan", "ios": "https://dc.lft.to/lastmile_qr_scan"}, "lat": 38.902650666666666, "type": "electric_scooter", "name": "fedbf25fa37f967f71444ec9b716530b", "fusion_lon": 0.0, "fusion_lat": 0.0, "is_reserved": 0, "bike_id": "fedbf25fa37f967f71444ec9b716530b", "lon": -77.01773516666667, "is_disabled": 0}, {"rental_uris": {"android": "https://dc.lft.to/lastmile_qr_scan", "ios": "https://dc.lft.to/lastmile_qr_scan"}, "lat": 38.899066833333336, "type": "electric_scooter", "name": "397931e45d23c14505585dae6eb8d152", "fusion_lon": 0.0, "fusion_lat": 0.0, "is_reserved": 0, "bike_id": "397931e45d23c14505585dae6eb8d152", "lon": -76.9335755, "is_disabled": 0}, {"rental_uris": {"android": "https://dc.lft.to/lastmile_qr_scan", "ios": "https://dc.lft.to/lastmile_qr_scan"}, "lat": 38.92329466666666, "type": "electric_scooter", "name": "862dcff17532de686f2ce2ab6134482b", "fusion_lon": 0.0, "fusion_lat": 0.0, "is_reserved": 0, "bike_id": "862dcff17532de686f2ce2ab6134482b", "lon": -77.0567865, "is_disabled": 0}, {"rental_uris": {"android": "https://dc.lft.to/lastmile_qr_scan", "ios": "https://dc.lft.to/lastmile_qr_scan"}, "lat": 38.91555183333333, "type": "electric_scooter", "name": "5a72dbe70634e8e56c3eedf9e225689b", "fusion_lon": 0.0, "fusion_lat": 0.0, "is_reserved": 0, "bike_id": "5a72dbe70634e8e56c3eedf9e225689b", "lon": -77.02444683333333, "is_disabled": 0}, {"rental_uris": {"android": "https://dc.lft.to/lastmile_qr_scan", "ios": "https://dc.lft.to/lastmile_qr_scan"}, "lat": 38.9224205, "type": "electric_scooter", "name": "dea9233d66709181b6aea6d6c1db1511", "fusion_lon": 0.0, "fusion_lat": 0.0, "is_reserved": 0, "bike_id": "dea9233d66709181b6aea6d6c1db1511", "lon": -77.02116566666666, "is_disabled": 0}, {"rental_uris": {"android": "https://dc.lft.to/lastmile_qr_scan", "ios": "https://dc.lft.to/lastmile_qr_scan"}, "lat": 38.8955225, "type": "electric_scooter", "name": "5c6dff56b0b549af002eba2d24766d40", "fusion_lon": 0.0, "fusion_lat": 0.0, "is_reserved": 0, "bike_id": "5c6dff56b0b549af002eba2d24766d40", "lon": -77.00921416666667, "is_disabled": 0}, {"rental_uris": {"android": "https://dc.lft.to/lastmile_qr_scan", "ios": "https://dc.lft.to/lastmile_qr_scan"}, "lat": 38.904233, "type": "electric_scooter", "name": "b52e39078d41aa602384a193e1e4812f", "fusion_lon": 0.0, "fusion_lat": 0.0, "is_reserved": 0, "bike_id": "b52e39078d41aa602384a193e1e4812f", "lon": -77.046451, "is_disabled": 0}, {"rental_uris": {"android": "https://dc.lft.to/lastmile_qr_scan", "ios": "https://dc.lft.to/lastmile_qr_scan"}, "lat": 38.8543775, "type": "electric_bike", "name": "bbfde3642599027de30529d70391caaf", "fusion_lon": 0.0, "fusion_lat": 0.0, "is_reserved": 0, "bike_id": "bbfde3642599027de30529d70391caaf", "lon": -77.08320433333333, "is_disabled": 0}, {"rental_uris": {"android": "https://dc.lft.to/lastmile_qr_scan", "ios": "https://dc.lft.to/lastmile_qr_scan"}, "lat": 38.836091833333334, "type": "electric_bike", "name": "048d69e2520c12a078960bb3018f46cc", "fusion_lon": 0.0, "fusion_lat": 0.0, "is_reserved": 0, "bike_id": "048d69e2520c12a078960bb3018f46cc", "lon": -77.003835, "is_disabled": 0}, {"rental_uris": {"android": "https://dc.lft.to/lastmile_qr_scan", "ios": "https://dc.lft.to/lastmile_qr_scan"}, "lat": 38.903870166666664, "type": "electric_scooter", "name": "7446ae2967d1c86f165b55e914562ba9", "fusion_lon": 0.0, "fusion_lat": 0.0, "is_reserved": 0, "bike_id": "7446ae2967d1c86f165b55e914562ba9", "lon": -77.0451515, "is_disabled": 0}, {"rental_uris": {"android": "https://dc.lft.to/lastmile_qr_scan", "ios": "https://dc.lft.to/lastmile_qr_scan"}, "lat": 38.911173166666664, "type": "electric_scooter", "name": "a2d1c6cd78876afbf2d429f0719b02e4", "fusion_lon": 0.0, "fusion_lat": 0.0, "is_reserved": 0, "bike_id": "a2d1c6cd78876afbf2d429f0719b02e4", "lon": -77.0447635, "is_disabled": 0}, {"rental_uris": {"android": "https://dc.lft.to/lastmile_qr_scan", "ios": "https://dc.lft.to/lastmile_qr_scan"}, "lat": 38.92139916666667, "type": "electric_scooter", "name": "92d69e8c977e82e1ef4e3b4e273bb9f3", "fusion_lon": 0.0, "fusion_lat": 0.0, "is_reserved": 0, "bike_id": "92d69e8c977e82e1ef4e3b4e273bb9f3", "lon": -77.0180095, "is_disabled": 0}, {"rental_uris": {"android": "https://dc.lft.to/lastmile_qr_scan", "ios": "https://dc.lft.to/lastmile_qr_scan"}, "lat": 38.89356933333333, "type": "electric_scooter", "name": "16d6f45587a81457cbaad28046c7d092", "fusion_lon": 0.0, "fusion_lat": 0.0, "is_reserved": 0, "bike_id": "16d6f45587a81457cbaad28046c7d092", "lon": -77.0033555, "is_disabled": 0}, {"rental_uris": {"android": "https://dc.lft.to/lastmile_qr_scan", "ios": "https://dc.lft.to/lastmile_qr_scan"}, "lat": 38.92340166666666, "type": "electric_scooter", "name": "ac5893ee1b6ab17d847a385067d7edc8", "fusion_lon": 0.0, "fusion_lat": 0.0, "is_reserved": 0, "bike_id": "ac5893ee1b6ab17d847a385067d7edc8", "lon": -77.01909283333333, "is_disabled": 0}, {"rental_uris": {"android": "https://dc.lft.to/lastmile_qr_scan", "ios": "https://dc.lft.to/lastmile_qr_scan"}, "lat": 38.887055, "type": "electric_scooter", "name": "f2fb190a9b0d7c495b6d74fc60a36db4", "fusion_lon": 0.0, "fusion_lat": 0.0, "is_reserved": 0, "bike_id": "f2fb190a9b0d7c495b6d74fc60a36db4", "lon": -77.0137015, "is_disabled": 0}, {"rental_uris": {"android": "https://dc.lft.to/lastmile_qr_scan", "ios": "https://dc.lft.to/lastmile_qr_scan"}, "lat": 38.84296366666667, "type": "electric_bike", "name": "0fc5384d1597250d65f0480ea3ade94b", "fusion_lon": 0.0, "fusion_lat": 0.0, "is_reserved": 0, "bike_id": "0fc5384d1597250d65f0480ea3ade94b", "lon": -77.06380466666667, "is_disabled": 0}, {"rental_uris": {"android": "https://dc.lft.to/lastmile_qr_scan", "ios": "https://dc.lft.to/lastmile_qr_scan"}, "lat": 38.99235383333333, "type": "electric_bike", "name": "8e6f6e1eb7e9fbcd44742eb05ec76d00", "fusion_lon": 0.0, "fusion_lat": 0.0, "is_reserved": 0, "bike_id": "8e6f6e1eb7e9fbcd44742eb05ec76d00", "lon": -77.02383383333333, "is_disabled": 0}, {"rental_uris": {"android": "https://dc.lft.to/lastmile_qr_scan", "ios": "https://dc.lft.to/lastmile_qr_scan"}, "lat": 38.917015666666664, "type": "electric_scooter", "name": "7a1a4cbcf96ab21192bcbb962fa67809", "fusion_lon": 0.0, "fusion_lat": 0.0, "is_reserved": 0, "bike_id": "7a1a4cbcf96ab21192bcbb962fa67809", "lon": -77.03336916666666, "is_disabled": 0}, {"rental_uris": {"android": "https://dc.lft.to/lastmile_qr_scan", "ios": "https://dc.lft.to/lastmile_qr_scan"}, "lat": 38.92236233333333, "type": "electric_scooter", "name": "0a9dfd1ac3bf200817c751a61c47be23", "fusion_lon": 0.0, "fusion_lat": 0.0, "is_reserved": 0, "bike_id": "0a9dfd1ac3bf200817c751a61c47be23", "lon": -77.02828066666666, "is_disabled": 0}, {"rental_uris": {"android": "https://dc.lft.to/lastmile_qr_scan", "ios": "https://dc.lft.to/lastmile_qr_scan"}, "lat": 38.97238083333333, "type": "electric_scooter", "name": "63f881a2f64274baf4f63a35779660e2", "fusion_lon": 0.0, "fusion_lat": 0.0, "is_reserved": 0, "bike_id": "63f881a2f64274baf4f63a35779660e2", "lon": -77.026996, "is_disabled": 0}, {"rental_uris": {"android": "https://dc.lft.to/lastmile_qr_scan", "ios": "https://dc.lft.to/lastmile_qr_scan"}, "lat": 38.957520333333335, "type": "electric_bike", "name": "f14e2c9585bbcd041bf3f3022efe5c7d", "fusion_lon": 0.0, "fusion_lat": 0.0, "is_reserved": 0, "bike_id": "f14e2c9585bbcd041bf3f3022efe5c7d", "lon": -76.98023066666667, "is_disabled": 0}, {"rental_uris": {"android": "https://dc.lft.to/lastmile_qr_scan", "ios": "https://dc.lft.to/lastmile_qr_scan"}, "lat": 38.92272283333333, "type": "electric_scooter", "name": "f931172a51f2ee5172986aa0f1a9d00c", "fusion_lon": 0.0, "fusion_lat": 0.0, "is_reserved": 0, "bike_id": "f931172a51f2ee5172986aa0f1a9d00c", "lon": -77.01823566666667, "is_disabled": 0}, {"rental_uris": {"android": "https://dc.lft.to/lastmile_qr_scan", "ios": "https://dc.lft.to/lastmile_qr_scan"}, "lat": 38.85791233333333, "type": "electric_bike", "name": "09e32ee056d56e05354bac18d28756bc", "fusion_lon": 0.0, "fusion_lat": 0.0, "is_reserved": 0, "bike_id": "09e32ee056d56e05354bac18d28756bc", "lon": -77.09956383333333, "is_disabled": 0}, {"rental_uris": {"android": "https://dc.lft.to/lastmile_qr_scan", "ios": "https://dc.lft.to/lastmile_qr_scan"}, "lat": 38.90163833333333, "type": "electric_scooter", "name": "f69f91a79c60fe8b1e7fb21b71bb5383", "fusion_lon": 0.0, "fusion_lat": 0.0, "is_reserved": 0, "bike_id": "f69f91a79c60fe8b1e7fb21b71bb5383", "lon": -77.04856483333333, "is_disabled": 0}, {"rental_uris": {"android": "https://dc.lft.to/lastmile_qr_scan", "ios": "https://dc.lft.to/lastmile_qr_scan"}, "lat": 38.90801066666667, "type": "electric_scooter", "name": "ef711052af4a242ccd25c04d2236a8e7", "fusion_lon": 0.0, "fusion_lat": 0.0, "is_reserved": 0, "bike_id": "ef711052af4a242ccd25c04d2236a8e7", "lon": -77.03948816666667, "is_disabled": 0}, {"rental_uris": {"android": "https://dc.lft.to/lastmile_qr_scan", "ios": "https://dc.lft.to/lastmile_qr_scan"}, "lat": 38.955934166666665, "type": "electric_scooter", "name": "90835a3b354812979a404e3acf94c0f9", "fusion_lon": 0.0, "fusion_lat": 0.0, "is_reserved": 0, "bike_id": "90835a3b354812979a404e3acf94c0f9", "lon": -77.02809016666667, "is_disabled": 0}, {"rental_uris": {"android": "https://dc.lft.to/lastmile_qr_scan", "ios": "https://dc.lft.to/lastmile_qr_scan"}, "lat": 38.9159945, "type": "electric_scooter", "name": "7f849f139d6751ebaef1170c42b88537", "fusion_lon": 0.0, "fusion_lat": 0.0, "is_reserved": 0, "bike_id": "7f849f139d6751ebaef1170c42b88537", "lon": -77.04031066666667, "is_disabled": 0}, {"rental_uris": {"android": "https://dc.lft.to/lastmile_qr_scan", "ios": "https://dc.lft.to/lastmile_qr_scan"}, "lat": 38.932410833333336, "type": "electric_scooter", "name": "4d99f1d0cc3172c13a095c6e312f2305", "fusion_lon": 0.0, "fusion_lat": 0.0, "is_reserved": 0, "bike_id": "4d99f1d0cc3172c13a095c6e312f2305", "lon": -77.02825516666667, "is_disabled": 0}, {"rental_uris": {"android": "https://dc.lft.to/lastmile_qr_scan", "ios": "https://dc.lft.to/lastmile_qr_scan"}, "lat": 38.89829683333333, "type": "electric_scooter", "name": "f02e1f82e6c4eb8de423d5cb0739b44c", "fusion_lon": 0.0, "fusion_lat": 0.0, "is_reserved": 0, "bike_id": "f02e1f82e6c4eb8de423d5cb0739b44c", "lon": -77.0297445, "is_disabled": 0}, {"rental_uris": {"android": "https://dc.lft.to/lastmile_qr_scan", "ios": "https://dc.lft.to/lastmile_qr_scan"}, "lat": 38.9015925, "type": "electric_scooter", "name": "2a55be1734861a41fd00739c187a04f4", "fusion_lon": 0.0, "fusion_lat": 0.0, "is_reserved": 0, "bike_id": "2a55be1734861a41fd00739c187a04f4", "lon": -76.9823, "is_disabled": 0}, {"rental_uris": {"android": "https://dc.lft.to/lastmile_qr_scan", "ios": "https://dc.lft.to/lastmile_qr_scan"}, "lat": 38.899847666666666, "type": "electric_scooter", "name": "4f87421ac255f3621d90c2e468993d95", "fusion_lon": 0.0, "fusion_lat": 0.0, "is_reserved": 0, "bike_id": "4f87421ac255f3621d90c2e468993d95", "lon": -77.023911, "is_disabled": 0}, {"rental_uris": {"android": "https://dc.lft.to/lastmile_qr_scan", "ios": "https://dc.lft.to/lastmile_qr_scan"}, "lat": 38.864815666666665, "type": "electric_bike", "name": "bc927012b6da79a693a6f637dffb19a4", "fusion_lon": 0.0, "fusion_lat": 0.0, "is_reserved": 0, "bike_id": "bc927012b6da79a693a6f637dffb19a4", "lon": -76.97753383333334, "is_disabled": 0}, {"rental_uris": {"android": "https://dc.lft.to/lastmile_qr_scan", "ios": "https://dc.lft.to/lastmile_qr_scan"}, "lat": 38.919830166666664, "type": "electric_scooter", "name": "56aaad260cd7025235de36ceddeaebc2", "fusion_lon": 0.0, "fusion_lat": 0.0, "is_reserved": 0, "bike_id": "56aaad260cd7025235de36ceddeaebc2", "lon": -77.02759283333333, "is_disabled": 0}, {"rental_uris": {"android": "https://dc.lft.to/lastmile_qr_scan", "ios": "https://dc.lft.to/lastmile_qr_scan"}, "lat": 38.892239833333335, "type": "electric_scooter", "name": "3f4f4f7555109ec3dcdd7c2b5ccdd367", "fusion_lon": 0.0, "fusion_lat": 0.0, "is_reserved": 0, "bike_id": "3f4f4f7555109ec3dcdd7c2b5ccdd367", "lon": -77.04193433333333, "is_disabled": 0}, {"rental_uris": {"android": "https://dc.lft.to/lastmile_qr_scan", "ios": "https://dc.lft.to/lastmile_qr_scan"}, "lat": 38.89221283333333, "type": "electric_scooter", "name": "66e960d42f1a7396227bb835c94fe362", "fusion_lon": 0.0, "fusion_lat": 0.0, "is_reserved": 0, "bike_id": "66e960d42f1a7396227bb835c94fe362", "lon": -77.0222075, "is_disabled": 0}, {"rental_uris": {"android": "https://dc.lft.to/lastmile_qr_scan", "ios": "https://dc.lft.to/lastmile_qr_scan"}, "lat": 38.92623483333333, "type": "electric_scooter", "name": "5dad1787620077909e11c703f68f6463", "fusion_lon": 0.0, "fusion_lat": 0.0, "is_reserved": 0, "bike_id": "5dad1787620077909e11c703f68f6463", "lon": -77.07305016666666, "is_disabled": 0}, {"rental_uris": {"android": "https://dc.lft.to/lastmile_qr_scan", "ios": "https://dc.lft.to/lastmile_qr_scan"}, "lat": 38.918073166666666, "type": "electric_scooter", "name": "038be1e6c55e50ec7e16ce881d21575e", "fusion_lon": 0.0, "fusion_lat": 0.0, "is_reserved": 0, "bike_id": "038be1e6c55e50ec7e16ce881d21575e", "lon": -77.02506616666666, "is_disabled": 0}, {"rental_uris": {"android": "https://dc.lft.to/lastmile_qr_scan", "ios": "https://dc.lft.to/lastmile_qr_scan"}, "lat": 38.965456833333334, "type": "electric_scooter", "name": "afe54867c93f7f6f1fb165e10b3a023c", "fusion_lon": 0.0, "fusion_lat": 0.0, "is_reserved": 0, "bike_id": "afe54867c93f7f6f1fb165e10b3a023c", "lon": -77.0274445, "is_disabled": 0}, {"rental_uris": {"android": "https://dc.lft.to/lastmile_qr_scan", "ios": "https://dc.lft.to/lastmile_qr_scan"}, "lat": 38.925005166666665, "type": "electric_scooter", "name": "391b5b52b3ad29a5836a26b46094a1a6", "fusion_lon": 0.0, "fusion_lat": 0.0, "is_reserved": 0, "bike_id": "391b5b52b3ad29a5836a26b46094a1a6", "lon": -77.02173666666667, "is_disabled": 0}, {"rental_uris": {"android": "https://dc.lft.to/lastmile_qr_scan", "ios": "https://dc.lft.to/lastmile_qr_scan"}, "lat": 38.90266316666667, "type": "electric_scooter", "name": "48c60b7bbd4031d229ef835f7d74064b", "fusion_lon": 0.0, "fusion_lat": 0.0, "is_reserved": 0, "bike_id": "48c60b7bbd4031d229ef835f7d74064b", "lon": -77.04595333333333, "is_disabled": 0}, {"rental_uris": {"android": "https://dc.lft.to/lastmile_qr_scan", "ios": "https://dc.lft.to/lastmile_qr_scan"}, "lat": 38.902537333333335, "type": "electric_scooter", "name": "f08575e6a1c96b087e8dd613f1f8465c", "fusion_lon": 0.0, "fusion_lat": 0.0, "is_reserved": 0, "bike_id": "f08575e6a1c96b087e8dd613f1f8465c", "lon": -77.03439883333333, "is_disabled": 0}, {"rental_uris": {"android": "https://dc.lft.to/lastmile_qr_scan", "ios": "https://dc.lft.to/lastmile_qr_scan"}, "lat": 38.90501666666667, "type": "electric_scooter", "name": "e168f1bd182b54e874529eba4b9aded0", "fusion_lon": 0.0, "fusion_lat": 0.0, "is_reserved": 0, "bike_id": "e168f1bd182b54e874529eba4b9aded0", "lon": -77.04067983333333, "is_disabled": 0}, {"rental_uris": {"android": "https://dc.lft.to/lastmile_qr_scan", "ios": "https://dc.lft.to/lastmile_qr_scan"}, "lat": 38.898329833333335, "type": "electric_scooter", "name": "eb064ccae4c940ed93f7d8447dccfc47", "fusion_lon": 0.0, "fusion_lat": 0.0, "is_reserved": 0, "bike_id": "eb064ccae4c940ed93f7d8447dccfc47", "lon": -77.0239345, "is_disabled": 0}, {"rental_uris": {"android": "https://dc.lft.to/lastmile_qr_scan", "ios": "https://dc.lft.to/lastmile_qr_scan"}, "lat": 38.9171725, "type": "electric_scooter", "name": "e40425ce490ad09afb6476da619cea62", "fusion_lon": 0.0, "fusion_lat": 0.0, "is_reserved": 0, "bike_id": "e40425ce490ad09afb6476da619cea62", "lon": -77.02819816666667, "is_disabled": 0}, {"rental_uris": {"android": "https://dc.lft.to/lastmile_qr_scan", "ios": "https://dc.lft.to/lastmile_qr_scan"}, "lat": 38.8904875, "type": "electric_scooter", "name": "7eb4681ee614c07a2be43e80634928d2", "fusion_lon": 0.0, "fusion_lat": 0.0, "is_reserved": 0, "bike_id": "7eb4681ee614c07a2be43e80634928d2", "lon": -76.93753233333334, "is_disabled": 0}, {"rental_uris": {"android": "https://dc.lft.to/lastmile_qr_scan", "ios": "https://dc.lft.to/lastmile_qr_scan"}, "lat": 38.897134333333334, "type": "electric_scooter", "name": "85e03a7ecb2655a856664e88519705cd", "fusion_lon": 0.0, "fusion_lat": 0.0, "is_reserved": 0, "bike_id": "85e03a7ecb2655a856664e88519705cd", "lon": -77.008339, "is_disabled": 0}, {"rental_uris": {"android": "https://dc.lft.to/lastmile_qr_scan", "ios": "https://dc.lft.to/lastmile_qr_scan"}, "lat": 38.927031666666664, "type": "electric_scooter", "name": "9def0e18929098cd7b7c39f1fafa3ed7", "fusion_lon": 0.0, "fusion_lat": 0.0, "is_reserved": 0, "bike_id": "9def0e18929098cd7b7c39f1fafa3ed7", "lon": -76.960781, "is_disabled": 0}, {"rental_uris": {"android": "https://dc.lft.to/lastmile_qr_scan", "ios": "https://dc.lft.to/lastmile_qr_scan"}, "lat": 38.872878, "type": "electric_scooter", "name": "3457c4b4ad6ed9e6c07699191bbaf522", "fusion_lon": 0.0, "fusion_lat": 0.0, "is_reserved": 0, "bike_id": "3457c4b4ad6ed9e6c07699191bbaf522", "lon": -77.00988166666667, "is_disabled": 0}, {"rental_uris": {"android": "https://dc.lft.to/lastmile_qr_scan", "ios": "https://dc.lft.to/lastmile_qr_scan"}, "lat": 38.899918666666665, "type": "electric_scooter", "name": "16892195342a6a537499a210ef5c6935", "fusion_lon": 0.0, "fusion_lat": 0.0, "is_reserved": 0, "bike_id": "16892195342a6a537499a210ef5c6935", "lon": -77.03153116666667, "is_disabled": 0}, {"rental_uris": {"android": "https://dc.lft.to/lastmile_qr_scan", "ios": "https://dc.lft.to/lastmile_qr_scan"}, "lat": 38.93179633333333, "type": "electric_scooter", "name": "2be51771445673c70c2efd20c878c77c", "fusion_lon": 0.0, "fusion_lat": 0.0, "is_reserved": 0, "bike_id": "2be51771445673c70c2efd20c878c77c", "lon": -77.03668983333333, "is_disabled": 0}, {"rental_uris": {"android": "https://dc.lft.to/lastmile_qr_scan", "ios": "https://dc.lft.to/lastmile_qr_scan"}, "lat": 38.896631166666666, "type": "electric_scooter", "name": "d7c5cb1f49a11a8f919a7f2193b5eeb7", "fusion_lon": 0.0, "fusion_lat": 0.0, "is_reserved": 0, "bike_id": "d7c5cb1f49a11a8f919a7f2193b5eeb7", "lon": -77.02417166666666, "is_disabled": 0}, {"rental_uris": {"android": "https://dc.lft.to/lastmile_qr_scan", "ios": "https://dc.lft.to/lastmile_qr_scan"}, "lat": 38.87525883333333, "type": "electric_scooter", "name": "3e9ca7aaa1bda5f44af5dc33cd5be0ee", "fusion_lon": 0.0, "fusion_lat": 0.0, "is_reserved": 0, "bike_id": "3e9ca7aaa1bda5f44af5dc33cd5be0ee", "lon": -77.012304, "is_disabled": 0}, {"rental_uris": {"android": "https://dc.lft.to/lastmile_qr_scan", "ios": "https://dc.lft.to/lastmile_qr_scan"}, "lat": 38.94913316666667, "type": "electric_scooter", "name": "f7a6a6ecb932597ba382784b4f439b5e", "fusion_lon": 0.0, "fusion_lat": 0.0, "is_reserved": 0, "bike_id": "f7a6a6ecb932597ba382784b4f439b5e", "lon": -77.020825, "is_disabled": 0}, {"rental_uris": {"android": "https://dc.lft.to/lastmile_qr_scan", "ios": "https://dc.lft.to/lastmile_qr_scan"}, "lat": 38.920879666666664, "type": "electric_scooter", "name": "ceb1e082922e9dee0cba26cfb76e426e", "fusion_lon": 0.0, "fusion_lat": 0.0, "is_reserved": 0, "bike_id": "ceb1e082922e9dee0cba26cfb76e426e", "lon": -77.02526683333333, "is_disabled": 0}, {"rental_uris": {"android": "https://dc.lft.to/lastmile_qr_scan", "ios": "https://dc.lft.to/lastmile_qr_scan"}, "lat": 38.90312183333333, "type": "electric_scooter", "name": "35af3714c648f015e331318967a5e74e", "fusion_lon": 0.0, "fusion_lat": 0.0, "is_reserved": 0, "bike_id": "35af3714c648f015e331318967a5e74e", "lon": -77.03968366666666, "is_disabled": 0}, {"rental_uris": {"android": "https://dc.lft.to/lastmile_qr_scan", "ios": "https://dc.lft.to/lastmile_qr_scan"}, "lat": 38.90290916666667, "type": "electric_scooter", "name": "89275460de8f67d1cd8840b8941683e3", "fusion_lon": 0.0, "fusion_lat": 0.0, "is_reserved": 0, "bike_id": "89275460de8f67d1cd8840b8941683e3", "lon": -77.03426883333333, "is_disabled": 0}, {"rental_uris": {"android": "https://dc.lft.to/lastmile_qr_scan", "ios": "https://dc.lft.to/lastmile_qr_scan"}, "lat": 38.8839015, "type": "electric_scooter", "name": "63a970965b4fe151cb215c7a86676957", "fusion_lon": 0.0, "fusion_lat": 0.0, "is_reserved": 0, "bike_id": "63a970965b4fe151cb215c7a86676957", "lon": -76.9950345, "is_disabled": 0}, {"rental_uris": {"android": "https://dc.lft.to/lastmile_qr_scan", "ios": "https://dc.lft.to/lastmile_qr_scan"}, "lat": 38.90591333333333, "type": "electric_scooter", "name": "91698f0e62e7a7ca66a6f7f10a7dbb11", "fusion_lon": 0.0, "fusion_lat": 0.0, "is_reserved": 0, "bike_id": "91698f0e62e7a7ca66a6f7f10a7dbb11", "lon": -77.0468755, "is_disabled": 0}, {"rental_uris": {"android": "https://dc.lft.to/lastmile_qr_scan", "ios": "https://dc.lft.to/lastmile_qr_scan"}, "lat": 38.90887333333333, "type": "electric_scooter", "name": "40ea6d524b3bfbf621e157d61a616279", "fusion_lon": 0.0, "fusion_lat": 0.0, "is_reserved": 0, "bike_id": "40ea6d524b3bfbf621e157d61a616279", "lon": -77.06454366666667, "is_disabled": 0}, {"rental_uris": {"android": "https://dc.lft.to/lastmile_qr_scan", "ios": "https://dc.lft.to/lastmile_qr_scan"}, "lat": 38.89333466666667, "type": "electric_scooter", "name": "3dc61fc29a2002186bef11f00a6422b4", "fusion_lon": 0.0, "fusion_lat": 0.0, "is_reserved": 0, "bike_id": "3dc61fc29a2002186bef11f00a6422b4", "lon": -76.93926366666666, "is_disabled": 0}, {"rental_uris": {"android": "https://dc.lft.to/lastmile_qr_scan", "ios": "https://dc.lft.to/lastmile_qr_scan"}, "lat": 38.89989283333333, "type": "electric_scooter", "name": "4d6f8b9aef496419a32bb15979607079", "fusion_lon": 0.0, "fusion_lat": 0.0, "is_reserved": 0, "bike_id": "4d6f8b9aef496419a32bb15979607079", "lon": -77.03167733333333, "is_disabled": 0}, {"rental_uris": {"android": "https://dc.lft.to/lastmile_qr_scan", "ios": "https://dc.lft.to/lastmile_qr_scan"}, "lat": 38.92367466666666, "type": "electric_scooter", "name": "0a58b9f2ba9b196bcf03639856a7f663", "fusion_lon": 0.0, "fusion_lat": 0.0, "is_reserved": 0, "bike_id": "0a58b9f2ba9b196bcf03639856a7f663", "lon": -77.0513035, "is_disabled": 0}, {"rental_uris": {"android": "https://dc.lft.to/lastmile_qr_scan", "ios": "https://dc.lft.to/lastmile_qr_scan"}, "lat": 38.923665166666666, "type": "electric_scooter", "name": "a908f25ee6de81425ea747ba60e5e3f6", "fusion_lon": 0.0, "fusion_lat": 0.0, "is_reserved": 0, "bike_id": "a908f25ee6de81425ea747ba60e5e3f6", "lon": -77.019498, "is_disabled": 0}, {"rental_uris": {"android": "https://dc.lft.to/lastmile_qr_scan", "ios": "https://dc.lft.to/lastmile_qr_scan"},