{"data": {"bikes": [{"lat": 38.94554383333333, "is_disabled": 0, "type": "electric_bike", "lon": -76.8954065, "bike_id": "23405b7cd19a9f6dd41990d6576188eb", "fusion_lat": 0.0, "name": "23405b7cd19a9f6dd41990d6576188eb", "is_reserved": 0, "rental_uris": {"android": "https://dc.lft.to/lastmile_qr_scan", "ios": "https://dc.lft.to/lastmile_qr_scan"}, "fusion_lon": 0.0}, {"lat": 38.917086833333336, "is_disabled": 0, "type": "electric_scooter", "lon": -77.02632866666667, "bike_id": "70ae3ebdd7f8439737ce153fb92fa451", "fusion_lat": 0.0, "name": "70ae3ebdd7f8439737ce153fb92fa451", "is_reserved": 0, "rental_uris": {"android": "https://dc.lft.to/lastmile_qr_scan", "ios": "https://dc.lft.to/lastmile_qr_scan"}, "fusion_lon": 0.0}, {"lat": 38.91183, "is_disabled": 0, "type": "electric_scooter", "lon": -77.0383915, "bike_id": "2d0a717513d4f80f88a706a4a14321b0", "fusion_lat": 0.0, "name": "2d0a717513d4f80f88a706a4a14321b0", "is_reserved": 0, "rental_uris": {"android": "https://dc.lft.to/lastmile_qr_scan", "ios": "https://dc.lft.to/lastmile_qr_scan"}, "fusion_lon": 0.0}, {"lat": 38.915389833333336, "is_disabled": 0, "type": "electric_scooter", "lon": -77.03203783333333, "bike_id": "8d15830e1458fc68145ceaa093fca257", "fusion_lat": 0.0, "name": "8d15830e1458fc68145ceaa093fca257", "is_reserved": 0, "rental_uris": {"android": "https://dc.lft.to/lastmile_qr_scan", "ios": "https://dc.lft.to/lastmile_qr_scan"}, "fusion_lon": 0.0}, {"lat": 38.907759166666665, "is_disabled": 0, "type": "electric_scooter", "lon": -77.04444583333333, "bike_id": "a169274ea61d73a05688180b6f5d7b01", "fusion_lat": 0.0, "name": "a169274ea61d73a05688180b6f5d7b01", "is_reserved": 0, "rental_uris": {"android": "https://dc.lft.to/lastmile_qr_scan", "ios": "https://dc.lft.to/lastmile_qr_scan"}, "fusion_lon": 0.0}, {"lat": 38.897357166666666, "is_disabled": 0, "type": "electric_scooter", "lon": -77.0306315, "bike_id": "1f61bdda5cddaa9a22d41c4b158ffe51", "fusion_lat": 0.0, "name": "1f61bdda5cddaa9a22d41c4b158ffe51", "is_reserved": 0, "rental_uris": {"android": "https://dc.lft.to/lastmile_qr_scan", "ios": "https://dc.lft.to/lastmile_qr_scan"}, "fusion_lon": 0.0}, {"lat": 38.905690166666666, "is_disabled": 0, "type": "electric_scooter", "lon": -77.06284816666667, "bike_id": "e59fc775d96040052fa05e38f32037e3", "fusion_lat": 0.0, "name": "e59fc775d96040052fa05e38f32037e3", "is_reserved": 0, "rental_uris": {"android": "https://dc.lft.to/lastmile_qr_scan", "ios": "https://dc.lft.to/lastmile_qr_scan"}, "fusion_lon": 0.0}, {"lat": 38.92503816666667, "is_disabled": 0, "type": "electric_scooter", "lon": -77.03883516666667, "bike_id": "f6aaee7f07e4fd94727fa5632110c970", "fusion_lat": 0.0, "name": "f6aaee7f07e4fd94727fa5632110c970", "is_reserved": 0, "rental_uris": {"android": "https://dc.lft.to/lastmile_qr_scan", "ios": "https://dc.lft.to/lastmile_qr_scan"}, "fusion_lon": 0.0}, {"lat": 38.92177983333333, "is_disabled": 0, "type": "electric_scooter", "lon": -77.032318, "bike_id": "67aa0ccd4e5fe65e3eff90102f450c24", "fusion_lat": 0.0, "name": "67aa0ccd4e5fe65e3eff90102f450c24", "is_reserved": 0, "rental_uris": {"android": "https://dc.lft.to/lastmile_qr_scan", "ios": "https://dc.lft.to/lastmile_qr_scan"}, "fusion_lon": 0.0}, {"lat": 38.93658083333333, "is_disabled": 0, "type": "electric_bike", "lon": -76.95219466666667, "bike_id": "59d863700de0c13af0a6fa07ba882e71", "fusion_lat": 0.0, "name": "59d863700de0c13af0a6fa07ba882e71", "is_reserved": 0, "rental_uris": {"android": "https://dc.lft.to/lastmile_qr_scan", "ios": "https://dc.lft.to/lastmile_qr_scan"}, "fusion_lon": 0.0}, {"lat": 38.880934, "is_disabled": 0, "type": "electric_scooter", "lon": -76.99252916666667, "bike_id": "e6abf4ac2e628149484076fec4ce2228", "fusion_lat": 0.0, "name": "e6abf4ac2e628149484076fec4ce2228", "is_reserved": 0, "rental_uris": {"android": "https://dc.lft.to/lastmile_qr_scan", "ios": "https://dc.lft.to/lastmile_qr_scan"}, "fusion_lon": 0.0}, {"lat": 38.91849583333333, "is_disabled": 0, "type": "electric_scooter", "lon": -77.04494266666667, "bike_id": "e26a216739c9bf9d1a3c0ccea6b859c2", "fusion_lat": 0.0, "name": "e26a216739c9bf9d1a3c0ccea6b859c2", "is_reserved": 0, "rental_uris": {"android": "https://dc.lft.to/lastmile_qr_scan", "ios": "https://dc.lft.to/lastmile_qr_scan"}, "fusion_lon": 0.0}, {"lat": 38.89771616666667, "is_disabled": 0, "type": "electric_scooter", "lon": -77.03210683333333, "bike_id": "ed2ee9da045a4ab413f75fae70f651de", "fusion_lat": 0.0, "name": "ed2ee9da045a4ab413f75fae70f651de", "is_reserved": 0, "rental_uris": {"android": "https://dc.lft.to/lastmile_qr_scan", "ios": "https://dc.lft.to/lastmile_qr_scan"}, "fusion_lon": 0.0}, {"lat": 38.8442645, "is_disabled": 0, "type": "electric_scooter", "lon": -76.997771, "bike_id": "6d92c64a9d56c96c72b793836f926f20", "fusion_lat": 0.0, "name": "6d92c64a9d56c96c72b793836f926f20", "is_reserved": 0, "rental_uris": {"android": "https://dc.lft.to/lastmile_qr_scan", "ios": "https://dc.lft.to/lastmile_qr_scan"}, "fusion_lon": 0.0}, {"lat": 38.909379333333334, "is_disabled": 0, "type": "electric_scooter", "lon": -77.0447895, "bike_id": "366ce62a45e6d6d519f71348036d2cca", "fusion_lat": 0.0, "name": "366ce62a45e6d6d519f71348036d2cca", "is_reserved": 0, "rental_uris": {"android": "https://dc.lft.to/lastmile_qr_scan", "ios": "https://dc.lft.to/lastmile_qr_scan"}, "fusion_lon": 0.0}, {"lat": 38.943729, "is_disabled": 0, "type": "electric_bike", "lon": -77.07746966666667, "bike_id": "f8308d520fc466d7abac20720c54dd44", "fusion_lat": 0.0, "name": "f8308d520fc466d7abac20720c54dd44", "is_reserved": 0, "rental_uris": {"android": "https://dc.lft.to/lastmile_qr_scan", "ios": "https://dc.lft.to/lastmile_qr_scan"}, "fusion_lon": 0.0}, {"lat": 38.92786666666667, "is_disabled": 0, "type": "electric_scooter", "lon": -77.03585766666667, "bike_id": "cf22bb1c85caba0dc2f4d389b1ce1445", "fusion_lat": 0.0, "name": "cf22bb1c85caba0dc2f4d389b1ce1445", "is_reserved": 0, "rental_uris": {"android": "https://dc.lft.to/lastmile_qr_scan", "ios": "https://dc.lft.to/lastmile_qr_scan"}, "fusion_lon": 0.0}, {"lat": 38.97324366666667, "is_disabled": 0, "type": "electric_bike", "lon": -77.02147666666667, "bike_id": "04eb72da3259fb41d4c20980a624c1b5", "fusion_lat": 0.0, "name": "04eb72da3259fb41d4c20980a624c1b5", "is_reserved": 0, "rental_uris": {"android": "https://dc.lft.to/lastmile_qr_scan", "ios": "https://dc.lft.to/lastmile_qr_scan"}, "fusion_lon": 0.0}, {"lat": 38.935284833333334, "is_disabled": 0, "type": "electric_scooter", "lon": -77.02355683333333, "bike_id": "5d1d615bb9cc03a2054ae89e5c0c79b0", "fusion_lat": 0.0, "name": "5d1d615bb9cc03a2054ae89e5c0c79b0", "is_reserved": 0, "rental_uris": {"android": "https://dc.lft.to/lastmile_qr_scan", "ios": "https://dc.lft.to/lastmile_qr_scan"}, "fusion_lon": 0.0}, {"lat": 38.870639833333335, "is_disabled": 0, "type": "electric_scooter", "lon": -77.00840633333334, "bike_id": "a4686953ab4566779a6d7e2cdc95514c", "fusion_lat": 0.0, "name": "a4686953ab4566779a6d7e2cdc95514c", "is_reserved": 0, "rental_uris": {"android": "https://dc.lft.to/lastmile_qr_scan", "ios": "https://dc.lft.to/lastmile_qr_scan"}, "fusion_lon": 0.0}, {"lat": 38.90704066666667, "is_disabled": 0, "type": "electric_scooter", "lon": -77.03450283333333, "bike_id": "b1136db2d1603788d736acd99bdfc692", "fusion_lat": 0.0, "name": "b1136db2d1603788d736acd99bdfc692", "is_reserved": 0, "rental_uris": {"android": "https://dc.lft.to/lastmile_qr_scan", "ios": "https://dc.lft.to/lastmile_qr_scan"}, "fusion_lon": 0.0}, {"lat": 38.902409, "is_disabled": 0, "type": "electric_scooter", "lon": -77.01751983333334, "bike_id": "853dd380d1bd264431b9b16dc0b06878", "fusion_lat": 0.0, "name": "853dd380d1bd264431b9b16dc0b06878", "is_reserved": 0, "rental_uris": {"android": "https://dc.lft.to/lastmile_qr_scan", "ios": "https://dc.lft.to/lastmile_qr_scan"}, "fusion_lon": 0.0}, {"lat": 38.9160445, "is_disabled": 0, "type": "electric_scooter", "lon": -77.0487655, "bike_id": "c51ef3f94f1a3b8d2157ca4aef810dda", "fusion_lat": 0.0, "name": "c51ef3f94f1a3b8d2157ca4aef810dda", "is_reserved": 0, "rental_uris": {"android": "https://dc.lft.to/lastmile_qr_scan", "ios": "https://dc.lft.to/lastmile_qr_scan"}, "fusion_lon": 0.0}, {"lat": 38.89737616666667, "is_disabled": 0, "type": "electric_scooter", "lon": -77.04470816666667, "bike_id": "ece5aa30a5229a212c739064f8f7e5c5", "fusion_lat": 0.0, "name": "ece5aa30a5229a212c739064f8f7e5c5", "is_reserved": 0, "rental_uris": {"android": "https://dc.lft.to/lastmile_qr_scan", "ios": "https://dc.lft.to/lastmile_qr_scan"}, "fusion_lon": 0.0}, {"lat": 38.85521383333333, "is_disabled": 0, "type": "electric_bike", "lon": -77.120296, "bike_id": "48b6888e4e55c57a61e3c2ed5ca95477", "fusion_lat": 0.0, "name": "48b6888e4e55c57a61e3c2ed5ca95477", "is_reserved": 0, "rental_uris": {"android": "https://dc.lft.to/lastmile_qr_scan", "ios": "https://dc.lft.to/lastmile_qr_scan"}, "fusion_lon": 0.0}, {"lat": 38.916644833333336, "is_disabled": 0, "type": "electric_scooter", "lon": -77.0346635, "bike_id": "3f0bf7881a7c48e4b15984fe7d11714f", "fusion_lat": 0.0, "name": "3f0bf7881a7c48e4b15984fe7d11714f", "is_reserved": 0, "rental_uris": {"android": "https://dc.lft.to/lastmile_qr_scan", "ios": "https://dc.lft.to/lastmile_qr_scan"}, "fusion_lon": 0.0}, {"lat": 38.89747716666667, "is_disabled": 0, "type": "electric_scooter", "lon": -77.0459345, "bike_id": "51dd588de77c835a6b6c640cde938af8", "fusion_lat": 0.0, "name": "51dd588de77c835a6b6c640cde938af8", "is_reserved": 0, "rental_uris": {"android": "https://dc.lft.to/lastmile_qr_scan", "ios": "https://dc.lft.to/lastmile_qr_scan"}, "fusion_lon": 0.0}, {"lat": 38.82872716666667, "is_disabled": 0, "type": "electric_bike", "lon": -77.11221183333333, "bike_id": "c149241b11f1d71c55721f2fef79162e", "fusion_lat": 0.0, "name": "c149241b11f1d71c55721f2fef79162e", "is_reserved": 0, "rental_uris": {"android": "https://dc.lft.to/lastmile_qr_scan", "ios": "https://dc.lft.to/lastmile_qr_scan"}, "fusion_lon": 0.0}, {"lat": 38.89221916666666, "is_disabled": 0, "type": "electric_scooter", "lon": -77.02417866666667, "bike_id": "d7d0c287adef428ca4fbd005e64170d7", "fusion_lat": 0.0, "name": "d7d0c287adef428ca4fbd005e64170d7", "is_reserved": 0, "rental_uris": {"android": "https://dc.lft.to/lastmile_qr_scan", "ios": "https://dc.lft.to/lastmile_qr_scan"}, "fusion_lon": 0.0}, {"lat": 38.903794, "is_disabled": 0, "type": "electric_scooter", "lon": -77.0217275, "bike_id": "1856c6712d4ae6e9ed0c929635f3ca8f", "fusion_lat": 0.0, "name": "1856c6712d4ae6e9ed0c929635f3ca8f", "is_reserved": 0, "rental_uris": {"android": "https://dc.lft.to/lastmile_qr_scan", "ios": "https://dc.lft.to/lastmile_qr_scan"}, "fusion_lon": 0.0}, {"lat": 38.89967716666666, "is_disabled": 0, "type": "electric_scooter", "lon": -77.01994066666667, "bike_id": "15ade792c23b79f2be72c284ce36b973", "fusion_lat": 0.0, "name": "15ade792c23b79f2be72c284ce36b973", "is_reserved": 0, "rental_uris": {"android": "https://dc.lft.to/lastmile_qr_scan", "ios": "https://dc.lft.to/lastmile_qr_scan"}, "fusion_lon": 0.0}, {"lat": 38.909755, "is_disabled": 0, "type": "electric_scooter", "lon": -76.9972605, "bike_id": "6cea5e72edaaa351afe3cb2ecb558756", "fusion_lat": 0.0, "name": "6cea5e72edaaa351afe3cb2ecb558756", "is_reserved": 0, "rental_uris": {"android": "https://dc.lft.to/lastmile_qr_scan", "ios": "https://dc.lft.to/lastmile_qr_scan"}, "fusion_lon": 0.0}, {"lat": 39.00476966666667, "is_disabled": 0, "type": "electric_bike", "lon": -76.90372866666667, "bike_id": "dfac4440765df0f24397390d73a27650", "fusion_lat": 0.0, "name": "dfac4440765df0f24397390d73a27650", "is_reserved": 0, "rental_uris": {"android": "https://dc.lft.to/lastmile_qr_scan", "ios": "https://dc.lft.to/lastmile_qr_scan"}, "fusion_lon": 0.0}, {"lat": 38.95624983333333, "is_disabled": 0, "type": "electric_scooter", "lon": -77.02784266666667, "bike_id": "76e0c4c33c1b7eed71a5ff5b3b6c0038", "fusion_lat": 0.0, "name": "76e0c4c33c1b7eed71a5ff5b3b6c0038", "is_reserved": 0, "rental_uris": {"android": "https://dc.lft.to/lastmile_qr_scan", "ios": "https://dc.lft.to/lastmile_qr_scan"}, "fusion_lon": 0.0}, {"lat": 38.87373016666667, "is_disabled": 0, "type": "electric_scooter", "lon": -77.000926, "bike_id": "2a35652da9c4f917c3e0305f3186de01", "fusion_lat": 0.0, "name": "2a35652da9c4f917c3e0305f3186de01", "is_reserved": 0, "rental_uris": {"android": "https://dc.lft.to/lastmile_qr_scan", "ios": "https://dc.lft.to/lastmile_qr_scan"}, "fusion_lon": 0.0}, {"lat": 38.914193, "is_disabled": 0, "type": "electric_scooter", "lon": -77.04542016666667, "bike_id": "024d4de43671bbbd0cdef71533e25303", "fusion_lat": 0.0, "name": "024d4de43671bbbd0cdef71533e25303", "is_reserved": 0, "rental_uris": {"android": "https://dc.lft.to/lastmile_qr_scan", "ios": "https://dc.lft.to/lastmile_qr_scan"}, "fusion_lon": 0.0}, {"lat": 38.9230975, "is_disabled": 0, "type": "electric_scooter", "lon": -77.03946683333334, "bike_id": "cd024e5af5f1aa4bf31cde9699a87258", "fusion_lat": 0.0, "name": "cd024e5af5f1aa4bf31cde9699a87258", "is_reserved": 0, "rental_uris": {"android": "https://dc.lft.to/lastmile_qr_scan", "ios": "https://dc.lft.to/lastmile_qr_scan"}, "fusion_lon": 0.0}, {"lat": 38.918867166666665, "is_disabled": 0, "type": "electric_scooter", "lon": -77.03912333333334, "bike_id": "ea819e776b41b9636743d72be3724962", "fusion_lat": 0.0, "name": "ea819e776b41b9636743d72be3724962", "is_reserved": 0, "rental_uris": {"android": "https://dc.lft.to/lastmile_qr_scan", "ios": "https://dc.lft.to/lastmile_qr_scan"}, "fusion_lon": 0.0}, {"lat": 38.919901, "is_disabled": 0, "type": "electric_scooter", "lon": -77.04767983333333, "bike_id": "c268ca24899f87061976712724c05148", "fusion_lat": 0.0, "name": "c268ca24899f87061976712724c05148", "is_reserved": 0, "rental_uris": {"android": "https://dc.lft.to/lastmile_qr_scan", "ios": "https://dc.lft.to/lastmile_qr_scan"}, "fusion_lon": 0.0}, {"lat": 38.902242, "is_disabled": 0, "type": "electric_scooter", "lon": -77.04686383333333, "bike_id": "65456df444c5d51044a62879b47c1e40", "fusion_lat": 0.0, "name": "65456df444c5d51044a62879b47c1e40", "is_reserved": 0, "rental_uris": {"android": "https://dc.lft.to/lastmile_qr_scan", "ios": "https://dc.lft.to/lastmile_qr_scan"}, "fusion_lon": 0.0}, {"lat": 38.92140366666667, "is_disabled": 0, "type": "electric_scooter", "lon": -77.04356883333334, "bike_id": "6659f2f355fddd445756807bdea5b3f2", "fusion_lat": 0.0, "name": "6659f2f355fddd445756807bdea5b3f2", "is_reserved": 0, "rental_uris": {"android": "https://dc.lft.to/lastmile_qr_scan", "ios": "https://dc.lft.to/lastmile_qr_scan"}, "fusion_lon": 0.0}, {"lat": 38.93737083333333, "is_disabled": 0, "type": "electric_scooter", "lon": -77.032696, "bike_id": "a6812002f0e599980c9276cb2098a745", "fusion_lat": 0.0, "name": "a6812002f0e599980c9276cb2098a745", "is_reserved": 0, "rental_uris": {"android": "https://dc.lft.to/lastmile_qr_scan", "ios": "https://dc.lft.to/lastmile_qr_scan"}, "fusion_lon": 0.0}, {"lat": 38.90108633333333, "is_disabled": 0, "type": "electric_scooter", "lon": -77.02597866666666, "bike_id": "d6dd3a4c4c1b7bb94b9eda2b4ab2b1ec", "fusion_lat": 0.0, "name": "d6dd3a4c4c1b7bb94b9eda2b4ab2b1ec", "is_reserved": 0, "rental_uris": {"android": "https://dc.lft.to/lastmile_qr_scan", "ios": "https://dc.lft.to/lastmile_qr_scan"}, "fusion_lon": 0.0}, {"lat": 38.8961805, "is_disabled": 0, "type": "electric_scooter", "lon": -76.95590466666667, "bike_id": "31d2850fb9708a1748814d28d09095ed", "fusion_lat": 0.0, "name": "31d2850fb9708a1748814d28d09095ed", "is_reserved": 0, "rental_uris": {"android": "https://dc.lft.to/lastmile_qr_scan", "ios": "https://dc.lft.to/lastmile_qr_scan"}, "fusion_lon": 0.0}, {"lat": 38.91406116666667, "is_disabled": 0, "type": "electric_scooter", "lon": -77.03062016666667, "bike_id": "1fdb4a4e142a1c6bb33f6af9950c8daf", "fusion_lat": 0.0, "name": "1fdb4a4e142a1c6bb33f6af9950c8daf", "is_reserved": 0, "rental_uris": {"android": "https://dc.lft.to/lastmile_qr_scan", "ios": "https://dc.lft.to/lastmile_qr_scan"}, "fusion_lon": 0.0}, {"lat": 38.92105933333333, "is_disabled": 0, "type": "electric_scooter", "lon": -77.0175825, "bike_id": "4683d6efd7fce47b668d7d8b2fd02194", "fusion_lat": 0.0, "name": "4683d6efd7fce47b668d7d8b2fd02194", "is_reserved": 0, "rental_uris": {"android": "https://dc.lft.to/lastmile_qr_scan", "ios": "https://dc.lft.to/lastmile_qr_scan"}, "fusion_lon": 0.0}, {"lat": 38.90485533333333, "is_disabled": 0, "type": "electric_scooter", "lon": -77.00774033333333, "bike_id": "b2ac782279660e87247bebb94a5d3aed", "fusion_lat": 0.0, "name": "b2ac782279660e87247bebb94a5d3aed", "is_reserved": 0, "rental_uris": {"android": "https://dc.lft.to/lastmile_qr_scan", "ios": "https://dc.lft.to/lastmile_qr_scan"}, "fusion_lon": 0.0}, {"lat": 38.9275995, "is_disabled": 0, "type": "electric_scooter", "lon": -77.03217866666667, "bike_id": "cf0921fa79834fa958a57c7b737b4160", "fusion_lat": 0.0, "name": "cf0921fa79834fa958a57c7b737b4160", "is_reserved": 0, "rental_uris": {"android": "https://dc.lft.to/lastmile_qr_scan", "ios": "https://dc.lft.to/lastmile_qr_scan"}, "fusion_lon": 0.0}, {"lat": 38.915644666666665, "is_disabled": 0, "type": "electric_scooter", "lon": -77.0217845, "bike_id": "b9b148086b40cc5c1dba341d3e52bbf2", "fusion_lat": 0.0, "name": "b9b148086b40cc5c1dba341d3e52bbf2", "is_reserved": 0, "rental_uris": {"android": "https://dc.lft.to/lastmile_qr_scan", "ios": "https://dc.lft.to/lastmile_qr_scan"}, "fusion_lon": 0.0}, {"lat": 38.90341983333333, "is_disabled": 0, "type": "electric_scooter", "lon": -77.01999816666667, "bike_id": "937280d70d8c2cf3922c5a81f1b2c5a9", "fusion_lat": 0.0, "name": "937280d70d8c2cf3922c5a81f1b2c5a9", "is_reserved": 0, "rental_uris": {"android": "https://dc.lft.to/lastmile_qr_scan", "ios": "https://dc.lft.to/lastmile_qr_scan"}, "fusion_lon": 0.0}, {"lat": 38.88654983333333, "is_disabled": 0, "type": "electric_bike", "lon": -77.1623725, "bike_id": "a181084016e0f55593b97cc5e45b3caf", "fusion_lat": 0.0, "name": "a181084016e0f55593b97cc5e45b3caf", "is_reserved": 0, "rental_uris": {"android": "https://dc.lft.to/lastmile_qr_scan", "ios": "https://dc.lft.to/lastmile_qr_scan"}, "fusion_lon": 0.0}, {"lat": 38.901498833333335, "is_disabled": 0, "type": "electric_scooter", "lon": -77.04182433333334, "bike_id": "02d5b12864f65b6c705e378b8bfa34a1", "fusion_lat": 0.0, "name": "02d5b12864f65b6c705e378b8bfa34a1", "is_reserved": 0, "rental_uris": {"android": "https://dc.lft.to/lastmile_qr_scan", "ios": "https://dc.lft.to/lastmile_qr_scan"}, "fusion_lon": 0.0}, {"lat": 38.92146866666667, "is_disabled": 0, "type": "electric_scooter", "lon": -77.04224583333334, "bike_id": "dacd16e5856bf23866adfe50e2d81d75", "fusion_lat": 0.0, "name": "dacd16e5856bf23866adfe50e2d81d75", "is_reserved": 0, "rental_uris": {"android": "https://dc.lft.to/lastmile_qr_scan", "ios": "https://dc.lft.to/lastmile_qr_scan"}, "fusion_lon": 0.0}, {"lat": 39.000198166666664, "is_disabled": 0, "type": "electric_bike", "lon": -76.9107835, "bike_id": "b26890fc88793efa398c58df3826914c", "fusion_lat": 0.0, "name": "b26890fc88793efa398c58df3826914c", "is_reserved": 0, "rental_uris": {"android": "https://dc.lft.to/lastmile_qr_scan", "ios": "https://dc.lft.to/lastmile_qr_scan"}, "fusion_lon": 0.0}, {"lat": 38.86390766666667, "is_disabled": 0, "type": "electric_bike", "lon": -76.98990483333333, "bike_id": "500e775fe14512b668fedc901ac03352", "fusion_lat": 0.0, "name": "500e775fe14512b668fedc901ac03352", "is_reserved": 0, "rental_uris": {"android": "https://dc.lft.to/lastmile_qr_scan", "ios": "https://dc.lft.to/lastmile_qr_scan"}, "fusion_lon": 0.0}, {"lat": 38.9185605, "is_disabled": 0, "type": "electric_scooter", "lon": -77.04493983333333, "bike_id": "0f167de62e0645ff2879b0a18704c25b", "fusion_lat": 0.0, "name": "0f167de62e0645ff2879b0a18704c25b", "is_reserved": 0, "rental_uris": {"android": "https://dc.lft.to/lastmile_qr_scan", "ios": "https://dc.lft.to/lastmile_qr_scan"}, "fusion_lon": 0.0}, {"lat": 38.93315616666667, "is_disabled": 0, "type": "electric_scooter", "lon": -77.03291083333333, "bike_id": "4ff55a40f13edd2882a582b4e8344a4d", "fusion_lat": 0.0, "name": "4ff55a40f13edd2882a582b4e8344a4d", "is_reserved": 0, "rental_uris": {"android": "https://dc.lft.to/lastmile_qr_scan", "ios": "https://dc.lft.to/lastmile_qr_scan"}, "fusion_lon": 0.0}, {"lat": 38.8952935, "is_disabled": 0, "type": "electric_scooter", "lon": -77.03211083333333, "bike_id": "f49016d3357989ffdb82e1728efd608b", "fusion_lat": 0.0, "name": "f49016d3357989ffdb82e1728efd608b", "is_reserved": 0, "rental_uris": {"android": "https://dc.lft.to/lastmile_qr_scan", "ios": "https://dc.lft.to/lastmile_qr_scan"}, "fusion_lon": 0.0}, {"lat": 38.9000905, "is_disabled": 0, "type": "electric_scooter", "lon": -76.99078583333333, "bike_id": "6232997fbab88ac33873b13029f918fc", "fusion_lat": 0.0, "name": "6232997fbab88ac33873b13029f918fc", "is_reserved": 0, "rental_uris": {"android": "https://dc.lft.to/lastmile_qr_scan", "ios": "https://dc.lft.to/lastmile_qr_scan"}, "fusion_lon": 0.0}, {"lat": 38.93078416666667, "is_disabled": 0, "type": "electric_scooter", "lon": -77.02794566666667, "bike_id": "45ded8220ca288968962bd17c31d91f4", "fusion_lat": 0.0, "name": "45ded8220ca288968962bd17c31d91f4", "is_reserved": 0, "rental_uris": {"android": "https://dc.lft.to/lastmile_qr_scan", "ios": "https://dc.lft.to/lastmile_qr_scan"}, "fusion_lon": 0.0}, {"lat": 38.916766833333334, "is_disabled": 0, "type": "electric_scooter", "lon": -77.03210033333333, "bike_id": "6dc89f36f6b99e490f1abb6372dd6796", "fusion_lat": 0.0, "name": "6dc89f36f6b99e490f1abb6372dd6796", "is_reserved": 0, "rental_uris": {"android": "https://dc.lft.to/lastmile_qr_scan", "ios": "https://dc.lft.to/lastmile_qr_scan"}, "fusion_lon": 0.0}, {"lat": 38.86820683333333, "is_disabled": 0, "type": "electric_bike", "lon": -76.980301, "bike_id": "f844feb0c54cc6d0f58956154792f4e9", "fusion_lat": 0.0, "name": "f844feb0c54cc6d0f58956154792f4e9", "is_reserved": 0, "rental_uris": {"android": "https://dc.lft.to/lastmile_qr_scan", "ios": "https://dc.lft.to/lastmile_qr_scan"}, "fusion_lon": 0.0}, {"lat": 38.9519395, "is_disabled": 0, "type": "electric_bike", "lon": -76.96721683333334, "bike_id": "6e3e2de9c4401732b23434b695f443ea", "fusion_lat": 0.0, "name": "6e3e2de9c4401732b23434b695f443ea", "is_reserved": 0, "rental_uris": {"android": "https://dc.lft.to/lastmile_qr_scan", "ios": "https://dc.lft.to/lastmile_qr_scan"}, "fusion_lon": 0.0}, {"lat": 38.915, "is_disabled": 0, "type": "electric_scooter", "lon": -77.02659933333334, "bike_id": "aa0259d66fd51fe2f444d03c567676d0", "fusion_lat": 0.0, "name": "aa0259d66fd51fe2f444d03c567676d0", "is_reserved": 0, "rental_uris": {"android": "https://dc.lft.to/lastmile_qr_scan", "ios": "https://dc.lft.to/lastmile_qr_scan"}, "fusion_lon": 0.0}, {"lat": 38.90352433333334, "is_disabled": 0, "type": "electric_scooter", "lon": -77.01088916666667, "bike_id": "86bce35aba7f5e1d968cd6f5bff340da", "fusion_lat": 0.0, "name": "86bce35aba7f5e1d968cd6f5bff340da", "is_reserved": 0, "rental_uris": {"android": "https://dc.lft.to/lastmile_qr_scan", "ios": "https://dc.lft.to/lastmile_qr_scan"}, "fusion_lon": 0.0}, {"lat": 38.927943166666665, "is_disabled": 0, "type": "electric_scooter", "lon": -77.05534533333334, "bike_id": "36c13e279ce315461923f5c683aeaec4", "fusion_lat": 0.0, "name": "36c13e279ce315461923f5c683aeaec4", "is_reserved": 0, "rental_uris": {"android": "https://dc.lft.to/lastmile_qr_scan", "ios": "https://dc.lft.to/lastmile_qr_scan"}, "fusion_lon": 0.0}, {"lat": 38.90683716666667, "is_disabled": 0, "type": "electric_scooter", "lon": -77.06358083333333, "bike_id": "e141aa8b347ab1dd7db4112c6d730c6e", "fusion_lat": 0.0, "name": "e141aa8b347ab1dd7db4112c6d730c6e", "is_reserved": 0, "rental_uris": {"android": "https://dc.lft.to/lastmile_qr_scan", "ios": "https://dc.lft.to/lastmile_qr_scan"}, "fusion_lon": 0.0}, {"lat": 38.96494283333333, "is_disabled": 0, "type": "electric_bike", "lon": -76.9384985, "bike_id": "7fb18d63b79af0868da984b6a0bc8275", "fusion_lat": 0.0, "name": "7fb18d63b79af0868da984b6a0bc8275", "is_reserved": 0, "rental_uris": {"android": "https://dc.lft.to/lastmile_qr_scan", "ios": "https://dc.lft.to/lastmile_qr_scan"}, "fusion_lon": 0.0}, {"lat": 38.9053425, "is_disabled": 0, "type": "electric_scooter", "lon": -77.02246483333333, "bike_id": "336d22d761a06e1fb476ffb10e0b1f85", "fusion_lat": 0.0, "name": "336d22d761a06e1fb476ffb10e0b1f85", "is_reserved": 0, "rental_uris": {"android": "https://dc.lft.to/lastmile_qr_scan", "ios": "https://dc.lft.to/lastmile_qr_scan"}, "fusion_lon": 0.0}, {"lat": 38.906097833333334, "is_disabled": 0, "type": "electric_scooter", "lon": -77.06298033333333, "bike_id": "3a41a72c760eba32d496de57ad6db52b", "fusion_lat": 0.0, "name": "3a41a72c760eba32d496de57ad6db52b", "is_reserved": 0, "rental_uris": {"android": "https://dc.lft.to/lastmile_qr_scan", "ios": "https://dc.lft.to/lastmile_qr_scan"}, "fusion_lon": 0.0}, {"lat": 38.935340833333335, "is_disabled": 0, "type": "electric_scooter", "lon": -77.02359083333333, "bike_id": "32737c22e751fda39c40aeeccc8e1410", "fusion_lat": 0.0, "name": "32737c22e751fda39c40aeeccc8e1410", "is_reserved": 0, "rental_uris": {"android": "https://dc.lft.to/lastmile_qr_scan", "ios": "https://dc.lft.to/lastmile_qr_scan"}, "fusion_lon": 0.0}, {"lat": 39.03044766666667, "is_disabled": 0, "type": "electric_bike", "lon": -77.09484783333333, "bike_id": "82bd7a6d9677e473b751901ba16e614c", "fusion_lat": 0.0, "name": "82bd7a6d9677e473b751901ba16e614c", "is_reserved": 0, "rental_uris": {"android": "https://dc.lft.to/lastmile_qr_scan", "ios": "https://dc.lft.to/lastmile_qr_scan"}, "fusion_lon": 0.0}, {"lat": 38.936138166666666, "is_disabled": 0, "type": "electric_scooter", "lon": -77.032191, "bike_id": "30ab8224e046d10d9563a6674c4d57e7", "fusion_lat": 0.0, "name": "30ab8224e046d10d9563a6674c4d57e7", "is_reserved": 0, "rental_uris": {"android": "https://dc.lft.to/lastmile_qr_scan", "ios": "https://dc.lft.to/lastmile_qr_scan"}, "fusion_lon": 0.0}, {"lat": 38.88583333333333, "is_disabled": 0, "type": "electric_scooter", "lon": -77.01231683333333, "bike_id": "a3ab01fc87af7cdaa916ab31b07b79a0", "fusion_lat": 0.0, "name": "a3ab01fc87af7cdaa916ab31b07b79a0", "is_reserved": 0, "rental_uris": {"android": "https://dc.lft.to/lastmile_qr_scan", "ios": "https://dc.lft.to/lastmile_qr_scan"}, "fusion_lon": 0.0}, {"lat": 38.910552833333334, "is_disabled": 0, "type": "electric_scooter", "lon": -77.0410905, "bike_id": "0c61c740b799989c3e2ab6656326e315", "fusion_lat": 0.0, "name": "0c61c740b799989c3e2ab6656326e315", "is_reserved": 0, "rental_uris": {"android": "https://dc.lft.to/lastmile_qr_scan", "ios": "https://dc.lft.to/lastmile_qr_scan"}, "fusion_lon": 0.0}, {"lat": 38.91415333333333, "is_disabled": 0, "type": "electric_scooter", "lon": -77.03258516666666, "bike_id": "1f0700fcca7a9f4b6cf79465003d3e2b", "fusion_lat": 0.0, "name": "1f0700fcca7a9f4b6cf79465003d3e2b", "is_reserved": 0, "rental_uris": {"android": "https://dc.lft.to/lastmile_qr_scan", "ios": "https://dc.lft.to/lastmile_qr_scan"}, "fusion_lon": 0.0}, {"lat": 38.9308725, "is_disabled": 0, "type": "electric_scooter", "lon": -76.967208, "bike_id": "6609ef8e4ac7cbdc8141c7fce18ee6a0", "fusion_lat": 0.0, "name": "6609ef8e4ac7cbdc8141c7fce18ee6a0", "is_reserved": 0, "rental_uris": {"android": "https://dc.lft.to/lastmile_qr_scan", "ios": "https://dc.lft.to/lastmile_qr_scan"}, "fusion_lon": 0.0}, {"lat": 39.024301666666666, "is_disabled": 0, "type": "electric_bike", "lon": -77.13107983333333, "bike_id": "aa5f0faf94f125760cd9d5d9867c41b1", "fusion_lat": 0.0, "name": "aa5f0faf94f125760cd9d5d9867c41b1", "is_reserved": 0, "rental_uris": {"android": "https://dc.lft.to/lastmile_qr_scan", "ios": "https://dc.lft.to/lastmile_qr_scan"}, "fusion_lon": 0.0}, {"lat": 38.909492666666665, "is_disabled": 0, "type": "electric_scooter", "lon": -77.03211316666666, "bike_id": "fc0a3961012955adb450d57430d3fd90", "fusion_lat": 0.0, "name": "fc0a3961012955adb450d57430d3fd90", "is_reserved": 0, "rental_uris": {"android": "https://dc.lft.to/lastmile_qr_scan", "ios": "https://dc.lft.to/lastmile_qr_scan"}, "fusion_lon": 0.0}, {"lat": 38.934707833333334, "is_disabled": 0, "type": "electric_scooter", "lon": -77.01931516666667, "bike_id": "2f6dead25438d8933ca5ea9ab7f9b2de", "fusion_lat": 0.0, "name": "2f6dead25438d8933ca5ea9ab7f9b2de", "is_reserved": 0, "rental_uris": {"android": "https://dc.lft.to/lastmile_qr_scan", "ios": "https://dc.lft.to/lastmile_qr_scan"}, "fusion_lon": 0.0}, {"lat": 38.88622866666667, "is_disabled": 0, "type": "electric_scooter", "lon": -77.02168683333333, "bike_id": "ff6d98704aecff4cbdad8e303e6dfb50", "fusion_lat": 0.0, "name": "ff6d98704aecff4cbdad8e303e6dfb50", "is_reserved": 0, "rental_uris": {"android": "https://dc.lft.to/lastmile_qr_scan", "ios": "https://dc.lft.to/lastmile_qr_scan"}, "fusion_lon": 0.0}, {"lat": 38.907824166666664, "is_disabled": 0, "type": "electric_scooter", "lon": -77.0320125, "bike_id": "524f175f9b1531abaf99323df7b5e100", "fusion_lat": 0.0, "name": "524f175f9b1531abaf99323df7b5e100", "is_reserved": 0, "rental_uris": {"android": "https://dc.lft.to/lastmile_qr_scan", "ios": "https://dc.lft.to/lastmile_qr_scan"}, "fusion_lon": 0.0}, {"lat": 38.909574666666664, "is_disabled": 0, "type": "electric_scooter", "lon": -77.03741416666666, "bike_id": "b71618655adec74f3adf59ffb4d71ff2", "fusion_lat": 0.0, "name": "b71618655adec74f3adf59ffb4d71ff2", "is_reserved": 0, "rental_uris": {"android": "https://dc.lft.to/lastmile_qr_scan", "ios": "https://dc.lft.to/lastmile_qr_scan"}, "fusion_lon": 0.0}, {"lat": 38.90598833333333, "is_disabled": 0, "type": "electric_scooter", "lon": -77.04189583333333, "bike_id": "4ff9c95ba7f290d1b60ef4e81c5f2682", "fusion_lat": 0.0, "name": "4ff9c95ba7f290d1b60ef4e81c5f2682", "is_reserved": 0, "rental_uris": {"android": "https://dc.lft.to/lastmile_qr_scan", "ios": "https://dc.lft.to/lastmile_qr_scan"}, "fusion_lon": 0.0}, {"lat": 38.881221833333335, "is_disabled": 0, "type": "electric_scooter", "lon": -77.00101316666667, "bike_id": "b67c7acfa9086e39a5cfa5ce2b2e1342", "fusion_lat": 0.0, "name": "b67c7acfa9086e39a5cfa5ce2b2e1342", "is_reserved": 0, "rental_uris": {"android": "https://dc.lft.to/lastmile_qr_scan", "ios": "https://dc.lft.to/lastmile_qr_scan"}, "fusion_lon": 0.0}, {"lat": 38.89347, "is_disabled": 0, "type": "electric_scooter", "lon": -76.94937166666666, "bike_id": "af8ba66a3f66b032b98d766b7e4b7fd4", "fusion_lat": 0.0, "name": "af8ba66a3f66b032b98d766b7e4b7fd4", "is_reserved": 0, "rental_uris": {"android": "https://dc.lft.to/lastmile_qr_scan", "ios": "https://dc.lft.to/lastmile_qr_scan"}, "fusion_lon": 0.0}, {"lat": 38.912629, "is_disabled": 0, "type": "electric_scooter", "lon": -77.04462533333333, "bike_id": "765b6f05e8324586135319adb3654f1f", "fusion_lat": 0.0, "name": "765b6f05e8324586135319adb3654f1f", "is_reserved": 0, "rental_uris": {"android": "https://dc.lft.to/lastmile_qr_scan", "ios": "https://dc.lft.to/lastmile_qr_scan"}, "fusion_lon": 0.0}, {"lat": 38.89505466666667, "is_disabled": 0, "type": "electric_bike", "lon": -77.07376333333333, "bike_id": "abccf34c1aa218bdc6ab2f7282881c97", "fusion_lat": 0.0, "name": "abccf34c1aa218bdc6ab2f7282881c97", "is_reserved": 0, "rental_uris": {"android": "https://dc.lft.to/lastmile_qr_scan", "ios": "https://dc.lft.to/lastmile_qr_scan"}, "fusion_lon": 0.0}, {"lat": 38.89420366666667, "is_disabled": 0, "type": "electric_scooter", "lon": -76.99387666666667, "bike_id": "733f5a57485ee88f3c866a96ecfa5e60", "fusion_lat": 0.0, "name": "733f5a57485ee88f3c866a96ecfa5e60", "is_reserved": 0, "rental_uris": {"android": "https://dc.lft.to/lastmile_qr_scan", "ios": "https://dc.lft.to/lastmile_qr_scan"}, "fusion_lon": 0.0}, {"lat": 38.94433683333333, "is_disabled": 0, "type": "electric_scooter", "lon": -76.9921905, "bike_id": "71f31f9af7cca012048e7f3af8724308", "fusion_lat": 0.0, "name": "71f31f9af7cca012048e7f3af8724308", "is_reserved": 0, "rental_uris": {"android": "https://dc.lft.to/lastmile_qr_scan", "ios": "https://dc.lft.to/lastmile_qr_scan"}, "fusion_lon": 0.0}, {"lat": 38.9169055, "is_disabled": 0, "type": "electric_scooter", "lon": -77.02306083333333, "bike_id": "d61d83aeea176dc477edf8c92a7f2528", "fusion_lat": 0.0, "name": "d61d83aeea176dc477edf8c92a7f2528", "is_reserved": 0, "rental_uris": {"android": "https://dc.lft.to/lastmile_qr_scan", "ios": "https://dc.lft.to/lastmile_qr_scan"}, "fusion_lon": 0.0}, {"lat": 38.9168655, "is_disabled": 0, "type": "electric_scooter", "lon": -77.02955966666667, "bike_id": "85e2b70d092a5594d248934711a43788", "fusion_lat": 0.0, "name": "85e2b70d092a5594d248934711a43788", "is_reserved": 0, "rental_uris": {"android": "https://dc.lft.to/lastmile_qr_scan", "ios": "https://dc.lft.to/lastmile_qr_scan"}, "fusion_lon": 0.0}, {"lat": 38.90286, "is_disabled": 0, "type": "electric_scooter", "lon": -77.0402215, "bike_id": "638ba8c3426004eda9d0f0d373df4a06", "fusion_lat": 0.0, "name": "638ba8c3426004eda9d0f0d373df4a06", "is_reserved": 0, "rental_uris": {"android": "https://dc.lft.to/lastmile_qr_scan", "ios": "https://dc.lft.to/lastmile_qr_scan"}, "fusion_lon": 0.0}, {"lat": 38.860233, "is_disabled": 0, "type": "electric_scooter", "lon": -76.99478983333333, "bike_id": "19138fdf49d10a9fea83e8575fe7a7fd", "fusion_lat": 0.0, "name": "19138fdf49d10a9fea83e8575fe7a7fd", "is_reserved": 0, "rental_uris": {"android": "https://dc.lft.to/lastmile_qr_scan", "ios": "https://dc.lft.to/lastmile_qr_scan"}, "fusion_lon": 0.0}, {"lat": 38.92745516666667, "is_disabled": 0, "type": "electric_bike", "lon": -77.0249705, "bike_id": "b75bcd390a8bbf5de8f6a21cc80f7c40", "fusion_lat": 0.0, "name": "b75bcd390a8bbf5de8f6a21cc80f7c40", "is_reserved": 0, "rental_uris": {"android": "https://dc.lft.to/lastmile_qr_scan", "ios": "https://dc.lft.to/lastmile_qr_scan"}, "fusion_lon": 0.0}, {"lat": 38.944472833333336, "is_disabled": 0, "type": "electric_scooter", "lon": -77.02344783333334, "bike_id": "0bba5d89856d0d10999c683c1741a944", "fusion_lat": 0.0, "name": "0bba5d89856d0d10999c683c1741a944", "is_reserved": 0, "rental_uris": {"android": "https://dc.lft.to/lastmile_qr_scan", "ios": "https://dc.lft.to/lastmile_qr_scan"}, "fusion_lon": 0.0}, {"lat": 38.901526, "is_disabled": 0, "type": "electric_scooter", "lon": -77.04138116666667, "bike_id": "fb1963fe9951bffc32e508e3765b2013", "fusion_lat": 0.0, "name": "fb1963fe9951bffc32e508e3765b2013", "is_reserved": 0, "rental_uris": {"android": "https://dc.lft.to/lastmile_qr_scan", "ios": "https://dc.lft.to/lastmile_qr_scan"}, "fusion_lon": 0.0}, {"lat": 38.905377333333334, "is_disabled": 0, "type": "electric_bike", "lon": -77.0570785, "bike_id": "52d80a3f1a6b5032390e3453e5610093", "fusion_lat": 0.0, "name": "52d80a3f1a6b5032390e3453e5610093", "is_reserved": 0, "rental_uris": {"android": "https://dc.lft.to/lastmile_qr_scan", "ios": "https://dc.lft.to/lastmile_qr_scan"}, "fusion_lon": 0.0}, {"lat": 38.902387833333336, "is_disabled": 0, "type": "electric_scooter", "lon": -77.01744566666666, "bike_id": "f28409f05d77ce3e147c27a722387ee1", "fusion_lat": 0.0, "name": "f28409f05d77ce3e147c27a722387ee1", "is_reserved": 0, "rental_uris": {"android": "https://dc.lft.to/lastmile_qr_scan", "ios": "https://dc.lft.to/lastmile_qr_scan"}, "fusion_lon": 0.0}, {"lat": 39.058124166666666, "is_disabled": 0, "type": "electric_bike", "lon": -77.126288, "bike_id": "043433583ca87fab69ecacbe4cae9a2d", "fusion_lat": 0.0, "name": "043433583ca87fab69ecacbe4cae9a2d", "is_reserved": 0, "rental_uris": {"android": "https://dc.lft.to/lastmile_qr_scan", "ios": "https://dc.lft.to/lastmile_qr_scan"}, "fusion_lon": 0.0}, {"lat": 38.84615983333333, "is_disabled": 0, "type": "electric_bike", "lon": -76.97825083333333, "bike_id": "9cfb3ac1c1252dedeeae694f4f676035", "fusion_lat": 0.0, "name": "9cfb3ac1c1252dedeeae694f4f676035", "is_reserved": 0, "rental_uris": {"android": "https://dc.lft.to/lastmile_qr_scan", "ios": "https://dc.lft.to/lastmile_qr_scan"}, "fusion_lon": 0.0}, {"lat": 38.89188883333333, "is_disabled": 0, "type": "electric_scooter", "lon": -76.996336, "bike_id": "4a9b4f875737e02ac57a71b570d3d4c0", "fusion_lat": 0.0, "name": "4a9b4f875737e02ac57a71b570d3d4c0", "is_reserved": 0, "rental_uris": {"android": "https://dc.lft.to/lastmile_qr_scan", "ios": "https://dc.lft.to/lastmile_qr_scan"}, "fusion_lon": 0.0}, {"lat": 38.91105733333333, "is_disabled": 0, "type": "electric_scooter", "lon": -77.00215133333333, "bike_id": "0f28872f01a99f84118438a4c6400778", "fusion_lat": 0.0, "name": "0f28872f01a99f84118438a4c6400778", "is_reserved": 0, "rental_uris": {"android": "https://dc.lft.to/lastmile_qr_scan", "ios": "https://dc.lft.to/lastmile_qr_scan"}, "fusion_lon": 0.0}, {"lat": 38.9095755, "is_disabled": 0, "type": "electric_scooter", "lon": -77.03211283333333, "bike_id": "1ad505a37ed8b53686787ca918574f4d", "fusion_lat": 0.0, "name": "1ad505a37ed8b53686787ca918574f4d", "is_reserved": 0, "rental_uris": {"android": "https://dc.lft.to/lastmile_qr_scan", "ios": "https://dc.lft.to/lastmile_qr_scan"}, "fusion_lon": 0.0}, {"lat": 38.903120333333334, "is_disabled": 0, "type": "electric_scooter", "lon": -77.03477033333333, "bike_id": "dd5e54183debc0e5f0d0e85735b6c5d9", "fusion_lat": 0.0, "name": "dd5e54183debc0e5f0d0e85735b6c5d9", "is_reserved": 0, "rental_uris": {"android": "https://dc.lft.to/lastmile_qr_scan", "ios": "https://dc.lft.to/lastmile_qr_scan"}, "fusion_lon": 0.0}, {"lat": 38.92043366666667, "is_disabled": 0, "type": "electric_scooter", "lon": -77.024287, "bike_id": "5a018fd53d13cf6771c48e50a9c7422c", "fusion_lat": 0.0, "name": "5a018fd53d13cf6771c48e50a9c7422c", "is_reserved": 0, "rental_uris": {"android": "https://dc.lft.to/lastmile_qr_scan", "ios": "https://dc.lft.to/lastmile_qr_scan"}, "fusion_lon": 0.0}, {"lat": 38.86109183333333, "is_disabled": 0, "type": "electric_scooter", "lon": -76.9837535, "bike_id": "e74fe96542473379d3605d1182f13a69", "fusion_lat": 0.0, "name": "e74fe96542473379d3605d1182f13a69", "is_reserved": 0, "rental_uris": {"android": "https://dc.lft.to/lastmile_qr_scan", "ios": "https://dc.lft.to/lastmile_qr_scan"}, "fusion_lon": 0.0}, {"lat": 38.912491833333334, "is_disabled": 0, "type": "electric_bike", "lon": -77.00120733333333, "bike_id": "88ce18b1cf20cca1e76ce79d0d3cd6e3", "fusion_lat": 0.0, "name": "88ce18b1cf20cca1e76ce79d0d3cd6e3", "is_reserved": 0, "rental_uris": {"android": "https://dc.lft.to/lastmile_qr_scan", "ios": "https://dc.lft.to/lastmile_qr_scan"}, "fusion_lon": 0.0}, {"lat": 38.8955585, "is_disabled": 0, "type": "electric_scooter", "lon": -76.93044666666667, "bike_id": "355cee39578658b0b0a6f88d9e5f231c", "fusion_lat": 0.0, "name": "355cee39578658b0b0a6f88d9e5f231c", "is_reserved": 0, "rental_uris": {"android": "https://dc.lft.to/lastmile_qr_scan", "ios": "https://dc.lft.to/lastmile_qr_scan"}, "fusion_lon": 0.0}, {"lat": 38.87394183333333, "is_disabled": 0, "type": "electric_scooter", "lon": -77.00042183333333, "bike_id": "1fa39a907175524478188d7540eca1de", "fusion_lat": 0.0, "name": "1fa39a907175524478188d7540eca1de", "is_reserved": 0, "rental_uris": {"android": "https://dc.lft.to/lastmile_qr_scan", "ios": "https://dc.lft.to/lastmile_qr_scan"}, "fusion_lon": 0.0}, {"lat": 38.846088, "is_disabled": 0, "type": "electric_bike", "lon": -76.969069, "bike_id": "be119929e3b6a9529f4d7914e0ceaf5e", "fusion_lat": 0.0, "name": "be119929e3b6a9529f4d7914e0ceaf5e", "is_reserved": 0, "rental_uris": {"android": "https://dc.lft.to/lastmile_qr_scan", "ios": "https://dc.lft.to/lastmile_qr_scan"}, "fusion_lon": 0.0}, {"lat": 38.9001985, "is_disabled": 0, "type": "electric_scooter", "lon": -77.0404065, "bike_id": "d6b217080c6a3f7a6e194b204b97b08f", "fusion_lat": 0.0, "name": "d6b217080c6a3f7a6e194b204b97b08f", "is_reserved": 0, "rental_uris": {"android": "https://dc.lft.to/lastmile_qr_scan", "ios": "https://dc.lft.to/lastmile_qr_scan"}, "fusion_lon": 0.0}, {"lat": 38.910501, "is_disabled": 0, "type": "electric_scooter", "lon": -77.0239675, "bike_id": "25502a2eaa93407d5015a4b236429cd6", "fusion_lat": 0.0, "name": "25502a2eaa93407d5015a4b236429cd6", "is_reserved": 0, "rental_uris": {"android": "https://dc.lft.to/lastmile_qr_scan", "ios": "https://dc.lft.to/lastmile_qr_scan"}, "fusion_lon": 0.0}, {"lat": 38.900378, "is_disabled": 0, "type": "electric_scooter", "lon": -76.99013183333334, "bike_id": "e53251cf5ff5f619f01b2306c3827597", "fusion_lat": 0.0, "name": "e53251cf5ff5f619f01b2306c3827597", "is_reserved": 0, "rental_uris": {"android": "https://dc.lft.to/lastmile_qr_scan", "ios": "https://dc.lft.to/lastmile_qr_scan"}, "fusion_lon": 0.0}, {"lat": 38.9172865, "is_disabled": 0, "type": "electric_scooter", "lon": -77.02302816666666, "bike_id": "f66215ce535fc0b5f82d55a815b9c5f3", "fusion_lat": 0.0, "name": "f66215ce535fc0b5f82d55a815b9c5f3", "is_reserved": 0, "rental_uris": {"android": "https://dc.lft.to/lastmile_qr_scan", "ios": "https://dc.lft.to/lastmile_qr_scan"}, "fusion_lon": 0.0}, {"lat": 38.93185233333333, "is_disabled": 0, "type": "electric_bike", "lon": -77.0235315, "bike_id": "30818972cb033e1309008441f9f2ddb0", "fusion_lat": 0.0, "name": "30818972cb033e1309008441f9f2ddb0", "is_reserved": 0, "rental_uris": {"android": "https://dc.lft.to/lastmile_qr_scan", "ios": "https://dc.lft.to/lastmile_qr_scan"}, "fusion_lon": 0.0}, {"lat": 38.83683583333333, "is_disabled": 0, "type": "electric_scooter", "lon": -77.00576766666667, "bike_id": "3e216cd204d3332af54ea5e19f9005f6", "fusion_lat": 0.0, "name": "3e216cd204d3332af54ea5e19f9005f6", "is_reserved": 0, "rental_uris": {"android": "https://dc.lft.to/lastmile_qr_scan", "ios": "https://dc.lft.to/lastmile_qr_scan"}, "fusion_lon": 0.0}, {"lat": 38.92998683333333, "is_disabled": 0, "type": "electric_scooter", "lon": -77.03231533333333, "bike_id": "b0e3ec1d0abd89f7b5f2d716fcc527dd", "fusion_lat": 0.0, "name": "b0e3ec1d0abd89f7b5f2d716fcc527dd", "is_reserved": 0, "rental_uris": {"android": "https://dc.lft.to/lastmile_qr_scan", "ios": "https://dc.lft.to/lastmile_qr_scan"}, "fusion_lon": 0.0}, {"lat": 38.93628866666667, "is_disabled": 0, "type": "electric_scooter", "lon": -77.0817325, "bike_id": "24455cd7e083cc57550ac0cb1c3c53aa", "fusion_lat": 0.0, "name": "24455cd7e083cc57550ac0cb1c3c53aa", "is_reserved": 0, "rental_uris": {"android": "https://dc.lft.to/lastmile_qr_scan", "ios": "https://dc.lft.to/lastmile_qr_scan"}, "fusion_lon": 0.0}, {"lat": 38.91915783333334, "is_disabled": 0, "type": "electric_scooter", "lon": -77.024405, "bike_id": "b18412215ee682b23b5a20465471570c", "fusion_lat": 0.0, "name": "b18412215ee682b23b5a20465471570c", "is_reserved": 0, "rental_uris": {"android": "https://dc.lft.to/lastmile_qr_scan", "ios": "https://dc.lft.to/lastmile_qr_scan"}, "fusion_lon": 0.0}, {"lat": 38.90860933333333, "is_disabled": 0, "type": "electric_scooter", "lon": -77.045945, "bike_id": "73f102d050b0680733fda74639818f8d", "fusion_lat": 0.0, "name": "73f102d050b0680733fda74639818f8d", "is_reserved": 0, "rental_uris": {"android": "https://dc.lft.to/lastmile_qr_scan", "ios": "https://dc.lft.to/lastmile_qr_scan"}, "fusion_lon": 0.0}, {"lat": 38.9349815, "is_disabled": 0, "type": "electric_scooter", "lon": -77.0580415, "bike_id": "df97c67c3ae63479fc19bdb74e113fb6", "fusion_lat": 0.0, "name": "df97c67c3ae63479fc19bdb74e113fb6", "is_reserved": 0, "rental_uris": {"android": "https://dc.lft.to/lastmile_qr_scan", "ios": "https://dc.lft.to/lastmile_qr_scan"}, "fusion_lon": 0.0}, {"lat": 38.91697166666667, "is_disabled": 0, "type": "electric_scooter", "lon": -77.03332333333333, "bike_id": "cca2c141b84cca9fad450fd6d3d667cb", "fusion_lat": 0.0, "name": "cca2c141b84cca9fad450fd6d3d667cb", "is_reserved": 0, "rental_uris": {"android": "https://dc.lft.to/lastmile_qr_scan", "ios": "https://dc.lft.to/lastmile_qr_scan"}, "fusion_lon": 0.0}, {"lat": 38.87688466666667, "is_disabled": 0, "type": "electric_scooter", "lon": -77.00738533333333, "bike_id": "e6762290e28a68b091c872841d4eba06", "fusion_lat": 0.0, "name": "e6762290e28a68b091c872841d4eba06", "is_reserved": 0, "rental_uris": {"android": "https://dc.lft.to/lastmile_qr_scan", "ios": "https://dc.lft.to/lastmile_qr_scan"}, "fusion_lon": 0.0}, {"lat": 38.92385616666667, "is_disabled": 0, "type": "electric_scooter", "lon": -77.03661133333334, "bike_id": "e199982378d87db2ad5aea139c4452bf", "fusion_lat": 0.0, "name": "e199982378d87db2ad5aea139c4452bf", "is_reserved": 0, "rental_uris": {"android": "https://dc.lft.to/lastmile_qr_scan", "ios": "https://dc.lft.to/lastmile_qr_scan"}, "fusion_lon": 0.0}, {"lat": 38.922429, "is_disabled": 0, "type": "electric_scooter", "lon": -77.04271466666667, "bike_id": "efb17ae421ad3a18e96558d9b7d01840", "fusion_lat": 0.0, "name": "efb17ae421ad3a18e96558d9b7d01840", "is_reserved": 0, "rental_uris": {"android": "https://dc.lft.to/lastmile_qr_scan", "ios": "https://dc.lft.to/lastmile_qr_scan"}, "fusion_lon": 0.0}, {"lat": 38.87014683333334, "is_disabled": 0, "type": "electric_bike", "lon": -76.96025133333333, "bike_id": "14783cd3a26efbadecc2dd97a3d8bcc9", "fusion_lat": 0.0, "name": "14783cd3a26efbadecc2dd97a3d8bcc9", "is_reserved": 0, "rental_uris": {"android": "https://dc.lft.to/lastmile_qr_scan", "ios": "https://dc.lft.to/lastmile_qr_scan"}, "fusion_lon": 0.0}, {"lat": 38.906898166666664, "is_disabled": 0, "type": "electric_bike", "lon": -76.9518605, "bike_id": "e5f52cd8a6befa5cea26efdebf9211b3", "fusion_lat": 0.0, "name": "e5f52cd8a6befa5cea26efdebf9211b3", "is_reserved": 0, "rental_uris": {"android": "https://dc.lft.to/lastmile_qr_scan", "ios": "https://dc.lft.to/lastmile_qr_scan"}, "fusion_lon": 0.0}, {"lat": 38.909448, "is_disabled": 0, "type": "electric_scooter", "lon": -77.04431133333334, "bike_id": "256425d1d00e29c6f175ba56236e2561", "fusion_lat": 0.0, "name": "256425d1d00e29c6f175ba56236e2561", "is_reserved": 0, "rental_uris": {"android": "https://dc.lft.to/lastmile_qr_scan", "ios": "https://dc.lft.to/lastmile_qr_scan"}, "fusion_lon": 0.0}, {"lat": 38.956658, "is_disabled": 0, "type": "electric_bike", "lon": -77.027871, "bike_id": "714e9e625dfe709952ddc4efa8c0955d", "fusion_lat": 0.0, "name": "714e9e625dfe709952ddc4efa8c0955d", "is_reserved": 0, "rental_uris": {"android": "https://dc.lft.to/lastmile_qr_scan", "ios": "https://dc.lft.to/lastmile_qr_scan"}, "fusion_lon": 0.0}, {"lat": 38.937634833333334, "is_disabled": 0, "type": "electric_scooter", "lon": -77.03284066666667, "bike_id": "0911cc6df1310b878acde4e4f1436437", "fusion_lat": 0.0, "name": "0911cc6df1310b878acde4e4f1436437", "is_reserved": 0, "rental_uris": {"android": "https://dc.lft.to/lastmile_qr_scan", "ios": "https://dc.lft.to/lastmile_qr_scan"}, "fusion_lon": 0.0}, {"lat": 38.9532925, "is_disabled": 0, "type": "electric_bike", "lon": -76.98820933333333, "bike_id": "c9207fb9f68c5e726c2dffd4058bf776", "fusion_lat": 0.0, "name": "c9207fb9f68c5e726c2dffd4058bf776", "is_reserved": 0, "rental_uris": {"android": "https://dc.lft.to/lastmile_qr_scan", "ios": "https://dc.lft.to/lastmile_qr_scan"}, "fusion_lon": 0.0}, {"lat": 38.912696333333336, "is_disabled": 0, "type": "electric_scooter", "lon": -77.02223, "bike_id": "f3c32f93f5ffa615ece009dc0c93cd3d", "fusion_lat": 0.0, "name": "f3c32f93f5ffa615ece009dc0c93cd3d", "is_reserved": 0, "rental_uris": {"android": "https://dc.lft.to/lastmile_qr_scan", "ios": "https://dc.lft.to/lastmile_qr_scan"}, "fusion_lon": 0.0}, {"lat": 38.862529, "is_disabled": 0, "type": "electric_scooter", "lon": -76.98705433333333, "bike_id": "0208527821f3a65011a48bfb9eeeae1a", "fusion_lat": 0.0, "name": "0208527821f3a65011a48bfb9eeeae1a", "is_reserved": 0, "rental_uris": {"android": "https://dc.lft.to/lastmile_qr_scan", "ios": "https://dc.lft.to/lastmile_qr_scan"}, "fusion_lon": 0.0}, {"lat": 38.88586383333333, "is_disabled": 0, "type": "electric_scooter", "lon": -77.02000733333334, "bike_id": "6350f029e1e59eb8dcee57229c1efea8", "fusion_lat": 0.0, "name": "6350f029e1e59eb8dcee57229c1efea8", "is_reserved": 0, "rental_uris": {"android": "https://dc.lft.to/lastmile_qr_scan", "ios": "https://dc.lft.to/lastmile_qr_scan"}, "fusion_lon": 0.0}, {"lat": 38.8442105, "is_disabled": 0, "type": "electric_scooter", "lon": -76.99784566666666, "bike_id": "8c7ffca23c773ec70a92e4fff308e7d6", "fusion_lat": 0.0, "name": "8c7ffca23c773ec70a92e4fff308e7d6", "is_reserved": 0, "rental_uris": {"android": "https://dc.lft.to/lastmile_qr_scan", "ios": "https://dc.lft.to/lastmile_qr_scan"}, "fusion_lon": 0.0}, {"lat": 38.866171333333334, "is_disabled": 0, "type": "electric_scooter", "lon": -76.98654183333333, "bike_id": "052314f5a11ff5a28b436d5bb604a0fa", "fusion_lat": 0.0, "name": "052314f5a11ff5a28b436d5bb604a0fa", "is_reserved": 0, "rental_uris": {"android": "https://dc.lft.to/lastmile_qr_scan", "ios": "https://dc.lft.to/lastmile_qr_scan"}, "fusion_lon": 0.0}, {"lat": 38.807536166666665, "is_disabled": 0, "type": "electric_bike", "lon": -77.0945135, "bike_id": "61308fc2563cd535244e73f051000762", "fusion_lat": 0.0, "name": "61308fc2563cd535244e73f051000762", "is_reserved": 0, "rental_uris": {"android": "https://dc.lft.to/lastmile_qr_scan", "ios": "https://dc.lft.to/lastmile_qr_scan"}, "fusion_lon": 0.0}, {"lat": 38.90765616666667, "is_disabled": 0, "type": "electric_scooter", "lon": -77.020676, "bike_id": "00547b3859e7be29cbcdf039b40b070e", "fusion_lat": 0.0, "name": "00547b3859e7be29cbcdf039b40b070e", "is_reserved": 0, "rental_uris": {"android": "https://dc.lft.to/lastmile_qr_scan", "ios": "https://dc.lft.to/lastmile_qr_scan"}, "fusion_lon": 0.0}, {"lat": 38.889330333333334, "is_disabled": 0, "type": "electric_scooter", "lon": -77.01508733333333, "bike_id": "3d50d4fb9847f468336bf34ada22504a", "fusion_lat": 0.0, "name": "3d50d4fb9847f468336bf34ada22504a", "is_reserved": 0, "rental_uris": {"android": "https://dc.lft.to/lastmile_qr_scan", "ios": "https://dc.lft.to/lastmile_qr_scan"}, "fusion_lon": 0.0}, {"lat": 38.915568666666665, "is_disabled": 0, "type": "electric_scooter", "lon": -77.0324125, "bike_id": "40c18bd76c753c60e11135b7bfffa48e", "fusion_lat": 0.0, "name": "40c18bd76c753c60e11135b7bfffa48e", "is_reserved": 0, "rental_uris": {"android": "https://dc.lft.to/lastmile_qr_scan", "ios": "https://dc.lft.to/lastmile_qr_scan"}, "fusion_lon": 0.0}, {"lat": 38.9149425, "is_disabled": 0, "type": "electric_scooter", "lon": -77.019964, "bike_id": "6a0dd00deb683b6f13cac0c14df7d837", "fusion_lat": 0.0, "name": "6a0dd00deb683b6f13cac0c14df7d837", "is_reserved": 0, "rental_uris": {"android": "https://dc.lft.to/lastmile_qr_scan", "ios": "https://dc.lft.to/lastmile_qr_scan"}, "fusion_lon": 0.0}, {"lat": 38.8865325, "is_disabled": 0, "type": "electric_scooter", "lon": -76.98229683333334, "bike_id": "7e8a7eabd1be6c830aec27a1d341aa03", "fusion_lat": 0.0, "name": "7e8a7eabd1be6c830aec27a1d341aa03", "is_reserved": 0, "rental_uris": {"android": "https://dc.lft.to/lastmile_qr_scan", "ios": "https://dc.lft.to/lastmile_qr_scan"}, "fusion_lon": 0.0}, {"lat": 38.83236516666667, "is_disabled": 0, "type": "electric_bike", "lon": -76.94627116666666, "bike_id": "35028767f064d2a8784baa67eb561c5e", "fusion_lat": 0.0, "name": "35028767f064d2a8784baa67eb561c5e", "is_reserved": 0, "rental_uris": {"android": "https://dc.lft.to/lastmile_qr_scan", "ios": "https://dc.lft.to/lastmile_qr_scan"}, "fusion_lon": 0.0}, {"lat": 38.97885466666666, "is_disabled": 0, "type": "electric_scooter", "lon": -77.02550333333333, "bike_id": "6a467dcf1dc231b39de4b7c2f6c0c372", "fusion_lat": 0.0, "name": "6a467dcf1dc231b39de4b7c2f6c0c372", "is_reserved": 0, "rental_uris": {"android": "https://dc.lft.to/lastmile_qr_scan", "ios": "https://dc.lft.to/lastmile_qr_scan"}, "fusion_lon": 0.0}, {"lat": 38.91131683333333, "is_disabled": 0, "type": "electric_scooter", "lon": -77.03216716666667, "bike_id": "d22cf8748568c2882a1abb205242f44d", "fusion_lat": 0.0, "name": "d22cf8748568c2882a1abb205242f44d", "is_reserved": 0, "rental_uris": {"android": "https://dc.lft.to/lastmile_qr_scan", "ios": "https://dc.lft.to/lastmile_qr_scan"}, "fusion_lon": 0.0}, {"lat": 38.912773333333334, "is_disabled": 0, "type": "electric_scooter", "lon": -77.04509583333333, "bike_id": "c4a3a139f08df02c57d488726faf2c76", "fusion_lat": 0.0, "name": "c4a3a139f08df02c57d488726faf2c76", "is_reserved": 0, "rental_uris": {"android": "https://dc.lft.to/lastmile_qr_scan", "ios": "https://dc.lft.to/lastmile_qr_scan"}, "fusion_lon": 0.0}, {"lat": 38.86388633333333, "is_disabled": 0, "type": "electric_scooter", "lon": -76.99252533333333, "bike_id": "d52bdd4c50ee9b34489ede4b97753288", "fusion_lat": 0.0, "name": "d52bdd4c50ee9b34489ede4b97753288", "is_reserved": 0, "rental_uris": {"android": "https://dc.lft.to/lastmile_qr_scan", "ios": "https://dc.lft.to/lastmile_qr_scan"}, "fusion_lon": 0.0}, {"lat": 38.9430665, "is_disabled": 0, "type": "electric_scooter", "lon": -77.05928366666667, "bike_id": "cd79f00abf44185ffec845fd05ebeb74", "fusion_lat": 0.0, "name": "cd79f00abf44185ffec845fd05ebeb74", "is_reserved": 0, "rental_uris": {"android": "https://dc.lft.to/lastmile_qr_scan", "ios": "https://dc.lft.to/lastmile_qr_scan"}, "fusion_lon": 0.0}, {"lat": 38.924470666666664, "is_disabled": 0, "type": "electric_scooter", "lon": -77.02042533333334, "bike_id": "c606229ca97ea30aa77500206ec31fa8", "fusion_lat": 0.0, "name": "c606229ca97ea30aa77500206ec31fa8", "is_reserved": 0, "rental_uris": {"android": "https://dc.lft.to/lastmile_qr_scan", "ios": "https://dc.lft.to/lastmile_qr_scan"}, "fusion_lon": 0.0}, {"lat": 38.922399666666664, "is_disabled": 0, "type": "electric_bike", "lon": -77.02242133333333, "bike_id": "8c996b8568eaeca7fc1c520277112e3c", "fusion_lat": 0.0, "name": "8c996b8568eaeca7fc1c520277112e3c", "is_reserved": 0, "rental_uris": {"android": "https://dc.lft.to/lastmile_qr_scan", "ios": "https://dc.lft.to/lastmile_qr_scan"}, "fusion_lon": 0.0}, {"lat": 38.978606666666664, "is_disabled": 0, "type": "electric_bike", "lon": -77.02660033333333, "bike_id": "5b86a7e56749cda62dbc5b3bea8bbb6a", "fusion_lat": 0.0, "name": "5b86a7e56749cda62dbc5b3bea8bbb6a", "is_reserved": 0, "rental_uris": {"android": "https://dc.lft.to/lastmile_qr_scan", "ios": "https://dc.lft.to/lastmile_qr_scan"}, "fusion_lon": 0.0}, {"lat": 38.973265166666664, "is_disabled": 0, "type": "electric_bike", "lon": -77.02149883333334, "bike_id": "cffded4a3a8e49f5a88e9a83fcddd94c", "fusion_lat": 0.0, "name": "cffded4a3a8e49f5a88e9a83fcddd94c", "is_reserved": 0, "rental_uris": {"android": "https://dc.lft.to/lastmile_qr_scan", "ios": "https://dc.lft.to/lastmile_qr_scan"}, "fusion_lon": 0.0}, {"lat": 38.8830855, "is_disabled": 0, "type": "electric_bike", "lon": -77.03164783333334, "bike_id": "2dafbdf18316444281b1d48b58cfba83", "fusion_lat": 0.0, "name": "2dafbdf18316444281b1d48b58cfba83", "is_reserved": 0, "rental_uris": {"android": "https://dc.lft.to/lastmile_qr_scan", "ios": "https://dc.lft.to/lastmile_qr_scan"}, "fusion_lon": 0.0}, {"lat": 38.91897733333333, "is_disabled": 0, "type": "electric_scooter", "lon": -77.02483333333333, "bike_id": "f38b6221b0a62066de3485b0868566fb", "fusion_lat": 0.0, "name": "f38b6221b0a62066de3485b0868566fb", "is_reserved": 0, "rental_uris": {"android": "https://dc.lft.to/lastmile_qr_scan", "ios": "https://dc.lft.to/lastmile_qr_scan"}, "fusion_lon": 0.0}, {"lat": 38.95890216666667, "is_disabled": 0, "type": "electric_bike", "lon": -76.9249605, "bike_id": "2096586fccb69374e427000c7003fdcc", "fusion_lat": 0.0, "name": "2096586fccb69374e427000c7003fdcc", "is_reserved": 0, "rental_uris": {"android": "https://dc.lft.to/lastmile_qr_scan", "ios": "https://dc.lft.to/lastmile_qr_scan"}, "fusion_lon": 0.0}, {"lat": 38.921898, "is_disabled": 0, "type": "electric_scooter", "lon": -76.996758, "bike_id": "3d1a8bbbccadda8f1546fa223a72aacc", "fusion_lat": 0.0, "name": "3d1a8bbbccadda8f1546fa223a72aacc", "is_reserved": 0, "rental_uris": {"android": "https://dc.lft.to/lastmile_qr_scan", "ios": "https://dc.lft.to/lastmile_qr_scan"}, "fusion_lon": 0.0}, {"lat": 38.903201, "is_disabled": 0, "type": "electric_scooter", "lon": -77.0385835, "bike_id": "74636a0deb49dbc4a923e3393be7f085", "fusion_lat": 0.0, "name": "74636a0deb49dbc4a923e3393be7f085", "is_reserved": 0, "rental_uris": {"android": "https://dc.lft.to/lastmile_qr_scan", "ios": "https://dc.lft.to/lastmile_qr_scan"}, "fusion_lon": 0.0}, {"lat": 38.95750916666667, "is_disabled": 0, "type": "electric_scooter", "lon": -77.020772, "bike_id": "800309ca5f8cd33198c69a4b02f62c80", "fusion_lat": 0.0, "name": "800309ca5f8cd33198c69a4b02f62c80", "is_reserved": 0, "rental_uris": {"android": "https://dc.lft.to/lastmile_qr_scan", "ios": "https://dc.lft.to/lastmile_qr_scan"}, "fusion_lon": 0.0}, {"lat": 38.9366875, "is_disabled": 0, "type": "electric_scooter", "lon": -77.0359425, "bike_id": "f29e78be5e294c6dfbbacb960b129484", "fusion_lat": 0.0, "name": "f29e78be5e294c6dfbbacb960b129484", "is_reserved": 0, "rental_uris": {"android": "https://dc.lft.to/lastmile_qr_scan", "ios": "https://dc.lft.to/lastmile_qr_scan"}, "fusion_lon": 0.0}, {"lat": 38.9220105, "is_disabled": 0, "type": "electric_scooter", "lon": -76.98370916666667, "bike_id": "fccfd58f73a3d0c854a42cb935c28256", "fusion_lat": 0.0, "name": "fccfd58f73a3d0c854a42cb935c28256", "is_reserved": 0, "rental_uris": {"android": "https://dc.lft.to/lastmile_qr_scan", "ios": "https://dc.lft.to/lastmile_qr_scan"}, "fusion_lon": 0.0}, {"lat": 38.91817783333333, "is_disabled": 0, "type": "electric_scooter", "lon": -77.04172916666667, "bike_id": "52c5cc2da812d8a16b4a9b8f89482142", "fusion_lat": 0.0, "name": "52c5cc2da812d8a16b4a9b8f89482142", "is_reserved": 0, "rental_uris": {"android": "https://dc.lft.to/lastmile_qr_scan", "ios": "https://dc.lft.to/lastmile_qr_scan"}, "fusion_lon": 0.0}, {"lat": 38.8995435, "is_disabled": 0, "type": "electric_scooter", "lon": -77.03365333333333, "bike_id": "80d2d1f195f01ba4a881e146ca426626", "fusion_lat": 0.0, "name": "80d2d1f195f01ba4a881e146ca426626", "is_reserved": 0, "rental_uris": {"android": "https://dc.lft.to/lastmile_qr_scan", "ios": "https://dc.lft.to/lastmile_qr_scan"}, "fusion_lon": 0.0}, {"lat": 38.893706, "is_disabled": 0, "type": "electric_scooter", "lon": -76.950035, "bike_id": "9870b827adb1f60c76b907832fbd62db", "fusion_lat": 0.0, "name": "9870b827adb1f60c76b907832fbd62db", "is_reserved": 0, "rental_uris": {"android": "https://dc.lft.to/lastmile_qr_scan", "ios": "https://dc.lft.to/lastmile_qr_scan"}, "fusion_lon": 0.0}, {"lat": 38.96703733333333, "is_disabled": 0, "type": "electric_bike", "lon": -77.10223466666666, "bike_id": "2775634db91d277a8829c94d4a115c03", "fusion_lat": 0.0, "name": "2775634db91d277a8829c94d4a115c03", "is_reserved": 0, "rental_uris": {"android": "https://dc.lft.to/lastmile_qr_scan", "ios": "https://dc.lft.to/lastmile_qr_scan"}, "fusion_lon": 0.0}, {"lat": 38.861595, "is_disabled": 0, "type": "electric_bike", "lon": -77.1309465, "bike_id": "ac6ec0e3092bb27930ab48fc8aac7076", "fusion_lat": 0.0, "name": "ac6ec0e3092bb27930ab48fc8aac7076", "is_reserved": 0, "rental_uris": {"android": "https://dc.lft.to/lastmile_qr_scan", "ios": "https://dc.lft.to/lastmile_qr_scan"}, "fusion_lon": 0.0}, {"lat": 38.91404333333333, "is_disabled": 0, "type": "electric_scooter", "lon": -77.020494, "bike_id": "9ab64a601530a6f129246d292f97a3ab", "fusion_lat": 0.0, "name": "9ab64a601530a6f129246d292f97a3ab", "is_reserved": 0, "rental_uris": {"android": "https://dc.lft.to/lastmile_qr_scan", "ios": "https://dc.lft.to/lastmile_qr_scan"}, "fusion_lon": 0.0}, {"lat": 38.914087333333335, "is_disabled": 0, "type": "electric_scooter", "lon": -77.025805, "bike_id": "ae53e0e644d72681b9bd0275a58b6cd0", "fusion_lat": 0.0, "name": "ae53e0e644d72681b9bd0275a58b6cd0", "is_reserved": 0, "rental_uris": {"android": "https://dc.lft.to/lastmile_qr_scan", "ios": "https://dc.lft.to/lastmile_qr_scan"}, "fusion_lon": 0.0}, {"lat": 38.903653, "is_disabled": 0, "type": "electric_scooter", "lon": -77.04186316666667, "bike_id": "d6eba1428d3283dedb2a58323073a532", "fusion_lat": 0.0, "name": "d6eba1428d3283dedb2a58323073a532", "is_reserved": 0, "rental_uris": {"android": "https://dc.lft.to/lastmile_qr_scan", "ios": "https://dc.lft.to/lastmile_qr_scan"}, "fusion_lon": 0.0}, {"lat": 38.88723233333333, "is_disabled": 0, "type": "electric_scooter", "lon": -77.01380316666666, "bike_id": "2669f2d3a7f5edb4f91138c2521ad23a", "fusion_lat": 0.0, "name": "2669f2d3a7f5edb4f91138c2521ad23a", "is_reserved": 0, "rental_uris": {"android": "https://dc.lft.to/lastmile_qr_scan", "ios": "https://dc.lft.to/lastmile_qr_scan"}, "fusion_lon": 0.0}, {"lat": 38.9149685, "is_disabled": 0, "type": "electric_scooter", "lon": -77.02184416666667, "bike_id": "66f5ad302ac5ae7f9ffb85098945795a", "fusion_lat": 0.0, "name": "66f5ad302ac5ae7f9ffb85098945795a", "is_reserved": 0, "rental_uris": {"android": "https://dc.lft.to/lastmile_qr_scan", "ios": "https://dc.lft.to/lastmile_qr_scan"}, "fusion_lon": 0.0}, {"lat": 38.8892725, "is_disabled": 0, "type": "electric_scooter", "lon": -76.97375633333333, "bike_id": "4b6ea8c27d3c5b85f76a689c72613508", "fusion_lat": 0.0, "name": "4b6ea8c27d3c5b85f76a689c72613508", "is_reserved": 0, "rental_uris": {"android": "https://dc.lft.to/lastmile_qr_scan", "ios": "https://dc.lft.to/lastmile_qr_scan"}, "fusion_lon": 0.0}, {"lat": 38.9326595, "is_disabled": 0, "type": "electric_scooter", "lon": -77.0326025, "bike_id": "37aa71591eeaba17204a96930662e6c3", "fusion_lat": 0.0, "name": "37aa71591eeaba17204a96930662e6c3", "is_reserved": 0, "rental_uris": {"android": "https://dc.lft.to/lastmile_qr_scan", "ios": "https://dc.lft.to/lastmile_qr_scan"}, "fusion_lon": 0.0}, {"lat": 38.942009, "is_disabled": 0, "type": "electric_scooter", "lon": -77.01829366666666, "bike_id": "d285e81c16ec3abd36ae705782973e58", "fusion_lat": 0.0, "name": "d285e81c16ec3abd36ae705782973e58", "is_reserved": 0, "rental_uris": {"android": "https://dc.lft.to/lastmile_qr_scan", "ios": "https://dc.lft.to/lastmile_qr_scan"}, "fusion_lon": 0.0}, {"lat": 38.92074083333333, "is_disabled": 0, "type": "electric_scooter", "lon": -77.0328385, "bike_id": "6dcc463fa8ad38b6ce442fae08c66d9a", "fusion_lat": 0.0, "name": "6dcc463fa8ad38b6ce442fae08c66d9a", "is_reserved": 0, "rental_uris": {"android": "https://dc.lft.to/lastmile_qr_scan", "ios": "https://dc.lft.to/lastmile_qr_scan"}, "fusion_lon": 0.0}, {"lat": 38.92112, "is_disabled": 0, "type": "electric_scooter", "lon": -77.04228166666667, "bike_id": "638aafce52f5a80aadc6e449972cced1", "fusion_lat": 0.0, "name": "638aafce52f5a80aadc6e449972cced1", "is_reserved": 0, "rental_uris": {"android": "https://dc.lft.to/lastmile_qr_scan", "ios": "https://dc.lft.to/lastmile_qr_scan"}, "fusion_lon": 0.0}, {"lat": 38.9063185, "is_disabled": 0, "type": "electric_scooter", "lon": -77.06288983333333, "bike_id": "49d761a885172a06629029094d6cea89", "fusion_lat": 0.0, "name": "49d761a885172a06629029094d6cea89", "is_reserved": 0, "rental_uris": {"android": "https://dc.lft.to/lastmile_qr_scan", "ios": "https://dc.lft.to/lastmile_qr_scan"}, "fusion_lon": 0.0}, {"lat": 38.918203166666665, "is_disabled": 0, "type": "electric_scooter", "lon": -77.03191616666666, "bike_id": "e98443699c14237d4382a7fcac7dba40", "fusion_lat": 0.0, "name": "e98443699c14237d4382a7fcac7dba40", "is_reserved": 0, "rental_uris": {"android": "https://dc.lft.to/lastmile_qr_scan", "ios": "https://dc.lft.to/lastmile_qr_scan"}, "fusion_lon": 0.0}, {"lat": 38.9191475, "is_disabled": 0, "type": "electric_scooter", "lon": -77.0240605, "bike_id": "e03b5ef6379405c4479e7aed71cf1775", "fusion_lat": 0.0, "name": "e03b5ef6379405c4479e7aed71cf1775", "is_reserved": 0, "rental_uris": {"android": "https://dc.lft.to/lastmile_qr_scan", "ios": "https://dc.lft.to/lastmile_qr_scan"}, "fusion_lon": 0.0}, {"lat": 38.864508666666666, "is_disabled": 0, "type": "electric_bike", "lon": -76.945505, "bike_id": "58226d36e76516b3b67e3ff369cb4da1", "fusion_lat": 0.0, "name": "58226d36e76516b3b67e3ff369cb4da1", "is_reserved": 0, "rental_uris": {"android": "https://dc.lft.to/lastmile_qr_scan", "ios": "https://dc.lft.to/lastmile_qr_scan"}, "fusion_lon": 0.0}, {"lat": 38.9174015, "is_disabled": 0, "type": "electric_scooter", "lon": -77.02118866666666, "bike_id": "77f93be3d93421b509ffa30522f25803", "fusion_lat": 0.0, "name": "77f93be3d93421b509ffa30522f25803", "is_reserved": 0, "rental_uris": {"android": "https://dc.lft.to/lastmile_qr_scan", "ios": "https://dc.lft.to/lastmile_qr_scan"}, "fusion_lon": 0.0}, {"lat": 38.871432, "is_disabled": 0, "type": "electric_bike", "lon": -76.93705716666666, "bike_id": "c52ed00b93c06d122810e4320ca25add", "fusion_lat": 0.0, "name": "c52ed00b93c06d122810e4320ca25add", "is_reserved": 0, "rental_uris": {"android": "https://dc.lft.to/lastmile_qr_scan", "ios": "https://dc.lft.to/lastmile_qr_scan"}, "fusion_lon": 0.0}, {"lat": 38.91681766666667, "is_disabled": 0, "type": "electric_scooter", "lon": -77.02955333333334, "bike_id": "63616dc39c61630aff4bcfa488a75057", "fusion_lat": 0.0, "name": "63616dc39c61630aff4bcfa488a75057", "is_reserved": 0, "rental_uris": {"android": "https://dc.lft.to/lastmile_qr_scan", "ios": "https://dc.lft.to/lastmile_qr_scan"}, "fusion_lon": 0.0}, {"lat": 38.874586666666666, "is_disabled": 0, "type": "electric_scooter", "lon": -77.0054655, "bike_id": "ac9c351ef815dd3701c598e2ec8fad3e", "fusion_lat": 0.0, "name": "ac9c351ef815dd3701c598e2ec8fad3e", "is_reserved": 0, "rental_uris": {"android": "https://dc.lft.to/lastmile_qr_scan", "ios": "https://dc.lft.to/lastmile_qr_scan"}, "fusion_lon": 0.0}, {"lat": 38.956316666666666, "is_disabled": 0, "type": "electric_scooter", "lon": -77.033088, "bike_id": "2d9400022749764d9d58b86497379545", "fusion_lat": 0.0, "name": "2d9400022749764d9d58b86497379545", "is_reserved": 0, "rental_uris": {"android": "https://dc.lft.to/lastmile_qr_scan", "ios": "https://dc.lft.to/lastmile_qr_scan"}, "fusion_lon": 0.0}, {"lat": 38.9131655, "is_disabled": 0, "type": "electric_scooter", "lon": -77.01438416666667, "bike_id": "e993796c3a94c13d8c0bce4272e347a6", "fusion_lat": 0.0, "name": "e993796c3a94c13d8c0bce4272e347a6", "is_reserved": 0, "rental_uris": {"android": "https://dc.lft.to/lastmile_qr_scan", "ios": "https://dc.lft.to/lastmile_qr_scan"}, "fusion_lon": 0.0}, {"lat": 38.873913, "is_disabled": 0, "type": "electric_scooter", "lon": -77.00031883333334, "bike_id": "b8b5c92a0823781d80ff23ab7bc7a5c4", "fusion_lat": 0.0, "name": "b8b5c92a0823781d80ff23ab7bc7a5c4", "is_reserved": 0, "rental_uris": {"android": "https://dc.lft.to/lastmile_qr_scan", "ios": "https://dc.lft.to/lastmile_qr_scan"}, "fusion_lon": 0.0}, {"lat": 38.89857516666667, "is_disabled": 0, "type": "electric_scooter", "lon": -77.03966883333334, "bike_id": "ae5b0f6d450ac931e1b08036a0a1e3e2", "fusion_lat": 0.0, "name": "ae5b0f6d450ac931e1b08036a0a1e3e2", "is_reserved": 0, "rental_uris": {"android": "https://dc.lft.to/lastmile_qr_scan", "ios": "https://dc.lft.to/lastmile_qr_scan"}, "fusion_lon": 0.0}, {"lat": 38.915578, "is_disabled": 0, "type": "electric_scooter", "lon": -77.00976666666666, "bike_id": "1e2803efa5f3e13dbfc7877df7642104", "fusion_lat": 0.0, "name": "1e2803efa5f3e13dbfc7877df7642104", "is_reserved": 0, "rental_uris": {"android": "https://dc.lft.to/lastmile_qr_scan", "ios": "https://dc.lft.to/lastmile_qr_scan"}, "fusion_lon": 0.0}, {"lat": 38.903936333333334, "is_disabled": 0, "type": "electric_scooter", "lon": -77.05324483333334, "bike_id": "064b058ab0cd37113c2285effa48c41d", "fusion_lat": 0.0, "name": "064b058ab0cd37113c2285effa48c41d", "is_reserved": 0, "rental_uris": {"android": "https://dc.lft.to/lastmile_qr_scan", "ios": "https://dc.lft.to/lastmile_qr_scan"}, "fusion_lon": 0.0}, {"lat": 38.81049066666667, "is_disabled": 0, "type": "electric_bike", "lon": -77.08511416666667, "bike_id": "c421c4065028784f747ac9633cad0faf", "fusion_lat": 0.0, "name": "c421c4065028784f747ac9633cad0faf", "is_reserved": 0, "rental_uris": {"android": "https://dc.lft.to/lastmile_qr_scan", "ios": "https://dc.lft.to/lastmile_qr_scan"}, "fusion_lon": 0.0}, {"lat": 38.896549666666665, "is_disabled": 0, "type": "electric_scooter", "lon": -76.99010066666666, "bike_id": "843de55611581d6b74b1eb632943b0ad", "fusion_lat": 0.0, "name": "843de55611581d6b74b1eb632943b0ad", "is_reserved": 0, "rental_uris": {"android": "https://dc.lft.to/lastmile_qr_scan", "ios": "https://dc.lft.to/lastmile_qr_scan"}, "fusion_lon": 0.0}, {"lat": 38.89974266666667, "is_disabled": 0, "type": "electric_scooter", "lon": -76.99486716666667, "bike_id": "921eb270ec56bd5d8f6834a8eee622d2", "fusion_lat": 0.0, "name": "921eb270ec56bd5d8f6834a8eee622d2", "is_reserved": 0, "rental_uris": {"android": "https://dc.lft.to/lastmile_qr_scan", "ios": "https://dc.lft.to/lastmile_qr_scan"}, "fusion_lon": 0.0}, {"lat": 38.90563233333334, "is_disabled": 0, "type": "electric_scooter", "lon": -77.04489683333334, "bike_id": "224c89591aa5f6f704f97f4f031a58ec", "fusion_lat": 0.0, "name": "224c89591aa5f6f704f97f4f031a58ec", "is_reserved": 0, "rental_uris": {"android": "https://dc.lft.to/lastmile_qr_scan", "ios": "https://dc.lft.to/lastmile_qr_scan"}, "fusion_lon": 0.0}, {"lat": 38.92113633333334, "is_disabled": 0, "type": "electric_scooter", "lon": -77.04232516666667, "bike_id": "d5bb00d8614acf40f8cd17100dab57c7", "fusion_lat": 0.0, "name": "d5bb00d8614acf40f8cd17100dab57c7", "is_reserved": 0, "rental_uris": {"android": "https://dc.lft.to/lastmile_qr_scan", "ios": "https://dc.lft.to/lastmile_qr_scan"}, "fusion_lon": 0.0}, {"lat": 38.934249666666666, "is_disabled": 0, "type": "electric_scooter", "lon": -77.02846133333334, "bike_id": "44b6276718e9d3ef47807847a24d9cd1", "fusion_lat": 0.0, "name": "44b6276718e9d3ef47807847a24d9cd1", "is_reserved": 0, "rental_uris": {"android": "https://dc.lft.to/lastmile_qr_scan", "ios": "https://dc.lft.to/lastmile_qr_scan"}, "fusion_lon": 0.0}, {"lat": 38.89899416666667, "is_disabled": 0, "type": "electric_scooter", "lon": -77.03931216666666, "bike_id": "20d3658eb6d05c7cf255f2bba092eb98", "fusion_lat": 0.0, "name": "20d3658eb6d05c7cf255f2bba092eb98", "is_reserved": 0, "rental_uris": {"android": "https://dc.lft.to/lastmile_qr_scan", "ios": "https://dc.lft.to/lastmile_qr_scan"}, "fusion_lon": 0.0}, {"lat": 38.892228833333334, "is_disabled": 0, "type": "electric_scooter", "lon": -77.04861333333334, "bike_id": "b1f4b7498a92fce1b812b220de6fcca1", "fusion_lat": 0.0, "name": "b1f4b7498a92fce1b812b220de6fcca1", "is_reserved": 0, "rental_uris": {"android": "https://dc.lft.to/lastmile_qr_scan", "ios": "https://dc.lft.to/lastmile_qr_scan"}, "fusion_lon": 0.0}, {"lat": 38.9260845, "is_disabled": 0, "type": "electric_scooter", "lon": -77.05693566666666, "bike_id": "568e0a2590d0ab050ac2a1337528cc80", "fusion_lat": 0.0, "name": "568e0a2590d0ab050ac2a1337528cc80", "is_reserved": 0, "rental_uris": {"android": "https://dc.lft.to/lastmile_qr_scan", "ios": "https://dc.lft.to/lastmile_qr_scan"}, "fusion_lon": 0.0}, {"lat": 38.899578, "is_disabled": 0, "type": "electric_scooter", "lon": -77.05133716666667, "bike_id": "7f5e55f5b8b1d3887ebd24b48cb48337", "fusion_lat": 0.0, "name": "7f5e55f5b8b1d3887ebd24b48cb48337", "is_reserved": 0, "rental_uris": {"android": "https://dc.lft.to/lastmile_qr_scan", "ios": "https://dc.lft.to/lastmile_qr_scan"}, "fusion_lon": 0.0}, {"lat": 38.844249, "is_disabled": 0, "type": "electric_scooter", "lon": -76.99778316666666, "bike_id": "232329a4b9ed2c53c1ce2b446744606e", "fusion_lat": 0.0, "name": "232329a4b9ed2c53c1ce2b446744606e", "is_reserved": 0, "rental_uris": {"android": "https://dc.lft.to/lastmile_qr_scan", "ios": "https://dc.lft.to/lastmile_qr_scan"}, "fusion_lon": 0.0}, {"lat": 38.92380816666667, "is_disabled": 0, "type": "electric_scooter", "lon": -77.02765966666666, "bike_id": "b5e6b804d832b0b1a7aa9576b275a28e", "fusion_lat": 0.0, "name": "b5e6b804d832b0b1a7aa9576b275a28e", "is_reserved": 0, "rental_uris": {"android": "https://dc.lft.to/lastmile_qr_scan", "ios": "https://dc.lft.to/lastmile_qr_scan"}, "fusion_lon": 0.0}, {"lat": 38.85428516666666, "is_disabled": 0, "type": "electric_bike", "lon": -76.909757, "bike_id": "1dda0e7259b3508777ca427a288afddb", "fusion_lat": 0.0, "name": "1dda0e7259b3508777ca427a288afddb", "is_reserved": 0, "rental_uris": {"android": "https://dc.lft.to/lastmile_qr_scan", "ios": "https://dc.lft.to/lastmile_qr_scan"}, "fusion_lon": 0.0}, {"lat": 38.90948216666666, "is_disabled": 0, "type": "electric_scooter", "lon": -77.04657016666667, "bike_id": "351fe7eb8a4786cd41ef006b7b206cd5", "fusion_lat": 0.0, "name": "351fe7eb8a4786cd41ef006b7b206cd5", "is_reserved": 0, "rental_uris": {"android": "https://dc.lft.to/lastmile_qr_scan", "ios": "https://dc.lft.to/lastmile_qr_scan"}, "fusion_lon": 0.0}, {"lat": 38.91470833333333, "is_disabled": 0, "type": "electric_scooter", "lon": -77.03218483333333, "bike_id": "c717061cf26acd081adf568a3249cab8", "fusion_lat": 0.0, "name": "c717061cf26acd081adf568a3249cab8", "is_reserved": 0, "rental_uris": {"android": "https://dc.lft.to/lastmile_qr_scan", "ios": "https://dc.lft.to/lastmile_qr_scan"}, "fusion_lon": 0.0}, {"lat": 38.9287455, "is_disabled": 0, "type": "electric_scooter", "lon": -77.02705083333333, "bike_id": "f4e32fc66a2c94abb7da609bb45f4ccc", "fusion_lat": 0.0, "name": "f4e32fc66a2c94abb7da609bb45f4ccc", "is_reserved": 0, "rental_uris": {"android": "https://dc.lft.to/lastmile_qr_scan", "ios": "https://dc.lft.to/lastmile_qr_scan"}, "fusion_lon": 0.0}, {"lat": 38.928541833333334, "is_disabled": 0, "type": "electric_bike", "lon": -77.22230816666666, "bike_id": "2fcfc9c4adb15f9664c2bdc573ed5454", "fusion_lat": 0.0, "name": "2fcfc9c4adb15f9664c2bdc573ed5454", "is_reserved": 0, "rental_uris": {"android": "https://dc.lft.to/lastmile_qr_scan", "ios": "https://dc.lft.to/lastmile_qr_scan"}, "fusion_lon": 0.0}, {"lat": 38.916866166666665, "is_disabled": 0, "type": "electric_scooter", "lon": -77.02694033333333, "bike_id": "17c7e54086d6dfc3b60e150a120995e7", "fusion_lat": 0.0, "name": "17c7e54086d6dfc3b60e150a120995e7", "is_reserved": 0, "rental_uris": {"android": "https://dc.lft.to/lastmile_qr_scan", "ios": "https://dc.lft.to/lastmile_qr_scan"}, "fusion_lon": 0.0}, {"lat": 38.905010833333336, "is_disabled": 0, "type": "electric_scooter", "lon": -77.043397, "bike_id": "d9652a8b83fb73315ff1decab2cec759", "fusion_lat": 0.0, "name": "d9652a8b83fb73315ff1decab2cec759", "is_reserved": 0, "rental_uris": {"android": "https://dc.lft.to/lastmile_qr_scan", "ios": "https://dc.lft.to/lastmile_qr_scan"}, "fusion_lon": 0.0}, {"lat": 38.8790645, "is_disabled": 0, "type": "electric_scooter", "lon": -77.02230416666667, "bike_id": "8ee5546158b5335e71d8eff3c8a3a3c5", "fusion_lat": 0.0, "name": "8ee5546158b5335e71d8eff3c8a3a3c5", "is_reserved": 0, "rental_uris": {"android": "https://dc.lft.to/lastmile_qr_scan", "ios": "https://dc.lft.to/lastmile_qr_scan"}, "fusion_lon": 0.0}, {"lat": 38.922168666666664, "is_disabled": 0, "type": "electric_scooter", "lon": -77.0328945, "bike_id": "79500fb64a40302e294d61b0566788b6", "fusion_lat": 0.0, "name": "79500fb64a40302e294d61b0566788b6", "is_reserved": 0, "rental_uris": {"android": "https://dc.lft.to/lastmile_qr_scan", "ios": "https://dc.lft.to/lastmile_qr_scan"}, "fusion_lon": 0.0}, {"lat": 38.907271, "is_disabled": 0, "type": "electric_scooter", "lon": -77.04015466666667, "bike_id": "76ab86b6fbed6c651b3d90f6b27b9f9c", "fusion_lat": 0.0, "name": "76ab86b6fbed6c651b3d90f6b27b9f9c", "is_reserved": 0, "rental_uris": {"android": "https://dc.lft.to/lastmile_qr_scan", "ios": "https://dc.lft.to/lastmile_qr_scan"}, "fusion_lon": 0.0}, {"lat": 38.895983, "is_disabled": 0, "type": "electric_scooter", "lon": -77.028992, "bike_id": "261b20cf450740fa3e29ea3428390280", "fusion_lat": 0.0, "name": "261b20cf450740fa3e29ea3428390280", "is_reserved": 0, "rental_uris": {"android": "https://dc.lft.to/lastmile_qr_scan", "ios": "https://dc.lft.to/lastmile_qr_scan"}, "fusion_lon": 0.0}, {"lat": 38.908903, "is_disabled": 0, "type": "electric_bike", "lon": -77.02987766666666, "bike_id": "6bc5fa8b501909f8bcb0c1b905ac5cad", "fusion_lat": 0.0, "name": "6bc5fa8b501909f8bcb0c1b905ac5cad", "is_reserved": 0, "rental_uris": {"android": "https://dc.lft.to/lastmile_qr_scan", "ios": "https://dc.lft.to/lastmile_qr_scan"}, "fusion_lon": 0.0}, {"lat": 38.98366633333333, "is_disabled": 0, "type": "electric_scooter", "lon": -77.02647916666666, "bike_id": "3bdba52e9033571d8767f7b4cfd4a832", "fusion_lat": 0.0, "name": "3bdba52e9033571d8767f7b4cfd4a832", "is_reserved": 0, "rental_uris": {"android": "https://dc.lft.to/lastmile_qr_scan", "ios": "https://dc.lft.to/lastmile_qr_scan"}, "fusion_lon": 0.0}, {"lat": 39.088575, "is_disabled": 0, "type": "electric_bike", "lon": -77.17845966666667, "bike_id": "3e410c7b074087edc6c473f699ddeafe", "fusion_lat": 0.0, "name": "3e410c7b074087edc6c473f699ddeafe", "is_reserved": 0, "rental_uris": {"android": "https://dc.lft.to/lastmile_qr_scan", "ios": "https://dc.lft.to/lastmile_qr_scan"}, "fusion_lon": 0.0}, {"lat": 38.849332, "is_disabled": 0, "type": "electric_bike", "lon": -77.10017483333333, "bike_id": "d77949f9ca73110690f7056bf7cbcde4", "fusion_lat": 0.0, "name": "d77949f9ca73110690f7056bf7cbcde4", "is_reserved": 0, "rental_uris": {"android": "https://dc.lft.to/lastmile_qr_scan", "ios": "https://dc.lft.to/lastmile_qr_scan"}, "fusion_lon": 0.0}, {"lat": 38.914056, "is_disabled": 0, "type": "electric_scooter", "lon": -77.032204, "bike_id": "d24bb1d193a6200687b93001a69d5508", "fusion_lat": 0.0, "name": "d24bb1d193a6200687b93001a69d5508", "is_reserved": 0, "rental_uris": {"android": "https://dc.lft.to/lastmile_qr_scan", "ios": "https://dc.lft.to/lastmile_qr_scan"}, "fusion_lon": 0.0}, {"lat": 38.8427465, "is_disabled": 0, "type": "electric_bike", "lon": -76.98845533333333, "bike_id": "8ddb5ff69ed677e04acd769dcb016200", "fusion_lat": 0.0, "name": "8ddb5ff69ed677e04acd769dcb016200", "is_reserved": 0, "rental_uris": {"android": "https://dc.lft.to/lastmile_qr_scan", "ios": "https://dc.lft.to/lastmile_qr_scan"}, "fusion_lon": 0.0}, {"lat": 38.923931333333336, "is_disabled": 0, "type": "electric_scooter", "lon": -77.0409315, "bike_id": "f63d223b42c994927b1ef0189aac91e3", "fusion_lat": 0.0, "name": "f63d223b42c994927b1ef0189aac91e3", "is_reserved": 0, "rental_uris": {"android": "https://dc.lft.to/lastmile_qr_scan", "ios": "https://dc.lft.to/lastmile_qr_scan"}, "fusion_lon": 0.0}, {"lat": 38.909637333333336, "is_disabled": 0, "type": "electric_scooter", "lon": -76.9844335, "bike_id": "61b689acaa8f06bfac0c26bc423e7a5e", "fusion_lat": 0.0, "name": "61b689acaa8f06bfac0c26bc423e7a5e", "is_reserved": 0, "rental_uris": {"android": "https://dc.lft.to/lastmile_qr_scan", "ios": "https://dc.lft.to/lastmile_qr_scan"}, "fusion_lon": 0.0}, {"lat": 38.89371366666666, "is_disabled": 0, "type": "electric_scooter", "lon": -76.94997516666666, "bike_id": "37df4cd0986836bf6240e950e41b55cf", "fusion_lat": 0.0, "name": "37df4cd0986836bf6240e950e41b55cf", "is_reserved": 0, "rental_uris": {"android": "https://dc.lft.to/lastmile_qr_scan", "ios": "https://dc.lft.to/lastmile_qr_scan"}, "fusion_lon": 0.0}, {"lat": 38.884804833333334, "is_disabled": 0, "type": "electric_scooter", "lon": -77.01540616666666, "bike_id": "ef9c50eab4c37081ec2a36646630c1e7", "fusion_lat": 0.0, "name": "ef9c50eab4c37081ec2a36646630c1e7", "is_reserved": 0, "rental_uris": {"android": "https://dc.lft.to/lastmile_qr_scan", "ios": "https://dc.lft.to/lastmile_qr_scan"}, "fusion_lon": 0.0}, {"lat": 38.924731333333334, "is_disabled": 0, "type": "electric_scooter", "lon": -77.028941, "bike_id": "2ee1a3d9b8ae20523f3fbc398a026530", "fusion_lat": 0.0, "name": "2ee1a3d9b8ae20523f3fbc398a026530", "is_reserved": 0, "rental_uris": {"android": "https://dc.lft.to/lastmile_qr_scan", "ios": "https://dc.lft.to/lastmile_qr_scan"}, "fusion_lon": 0.0}, {"lat": 38.921820333333336, "is_disabled": 0, "type": "electric_scooter", "lon": -77.0241855, "bike_id": "166184599fc46c8298398b32b509cfd9", "fusion_lat": 0.0, "name": "166184599fc46c8298398b32b509cfd9", "is_reserved": 0, "rental_uris": {"android": "https://dc.lft.to/lastmile_qr_scan", "ios": "https://dc.lft.to/lastmile_qr_scan"}, "fusion_lon": 0.0}, {"lat": 38.931121833333336, "is_disabled": 0, "type": "electric_scooter", "lon": -77.03808933333333, "bike_id": "c49e5da7e77eaba172bde5515de018a1", "fusion_lat": 0.0, "name": "c49e5da7e77eaba172bde5515de018a1", "is_reserved": 0, "rental_uris": {"android": "https://dc.lft.to/lastmile_qr_scan", "ios": "https://dc.lft.to/lastmile_qr_scan"}, "fusion_lon": 0.0}, {"lat": 38.9213415, "is_disabled": 0, "type": "electric_scooter", "lon": -77.0179455, "bike_id": "69b32300cd4a67eeca3cde8de90fbea7", "fusion_lat": 0.0, "name": "69b32300cd4a67eeca3cde8de90fbea7", "is_reserved": 0, "rental_uris": {"android": "https://dc.lft.to/lastmile_qr_scan", "ios": "https://dc.lft.to/lastmile_qr_scan"}, "fusion_lon": 0.0}, {"lat": 38.92223633333333, "is_disabled": 0, "type": "electric_scooter", "lon": -77.04303583333333, "bike_id": "0a14828515519d537a237631d37c0d58", "fusion_lat": 0.0, "name": "0a14828515519d537a237631d37c0d58", "is_reserved": 0, "rental_uris": {"android": "https://dc.lft.to/lastmile_qr_scan", "ios": "https://dc.lft.to/lastmile_qr_scan"}, "fusion_lon": 0.0}, {"lat": 38.8662185, "is_disabled": 0, "type": "electric_scooter", "lon": -76.98702283333333, "bike_id": "73357dc10ce08a0c4918449f3678510b", "fusion_lat": 0.0, "name": "73357dc10ce08a0c4918449f3678510b", "is_reserved": 0, "rental_uris": {"android": "https://dc.lft.to/lastmile_qr_scan", "ios": "https://dc.lft.to/lastmile_qr_scan"}, "fusion_lon": 0.0}, {"lat": 38.91112433333333, "is_disabled": 0, "type": "electric_scooter", "lon": -77.04466066666667, "bike_id": "4701d09b01cb8ed55a49c6cee15cd2dd", "fusion_lat": 0.0, "name": "4701d09b01cb8ed55a49c6cee15cd2dd", "is_reserved": 0, "rental_uris": {"android": "https://dc.lft.to/lastmile_qr_scan", "ios": "https://dc.lft.to/lastmile_qr_scan"}, "fusion_lon": 0.0}, {"lat": 38.918852666666666, "is_disabled": 0, "type": "electric_scooter", "lon": -77.0297575, "bike_id": "b9f2bd2a313805e92e4b7ccf7f48de8c", "fusion_lat": 0.0, "name": "b9f2bd2a313805e92e4b7ccf7f48de8c", "is_reserved": 0, "rental_uris": {"android": "https://dc.lft.to/lastmile_qr_scan", "ios": "https://dc.lft.to/lastmile_qr_scan"}, "fusion_lon": 0.0}, {"lat": 38.84292466666667, "is_disabled": 0, "type": "electric_scooter", "lon": -76.99949066666667, "bike_id": "94dbaa09f94c1f08dad6226eb729eda1", "fusion_lat": 0.0, "name": "94dbaa09f94c1f08dad6226eb729eda1", "is_reserved": 0, "rental_uris": {"android": "https://dc.lft.to/lastmile_qr_scan", "ios": "https://dc.lft.to/lastmile_qr_scan"}, "fusion_lon": 0.0}, {"lat": 38.87064216666667, "is_disabled": 0, "type": "electric_scooter", "lon": -77.0084345, "bike_id": "9d5e49e2cee2459555bc81df6f5b6254", "fusion_lat": 0.0, "name": "9d5e49e2cee2459555bc81df6f5b6254", "is_reserved": 0, "rental_uris": {"android": "https://dc.lft.to/lastmile_qr_scan", "ios": "https://dc.lft.to/lastmile_qr_scan"}, "fusion_lon": 0.0}, {"lat": 38.862113666666666, "is_disabled": 0, "type": "electric_bike", "lon": -76.99782016666667, "bike_id": "53b9f80bc031a4966dd0e0bea7f2ac5a", "fusion_lat": 0.0, "name": "53b9f80bc031a4966dd0e0bea7f2ac5a", "is_reserved": 0, "rental_uris": {"android": "https://dc.lft.to/lastmile_qr_scan", "ios": "https://dc.lft.to/lastmile_qr_scan"}, "fusion_lon": 0.0}, {"lat": 38.93941916666667, "is_disabled": 0, "type": "electric_scooter", "lon": -77.06105533333333, "bike_id": "a1ff02d5576810ebb32661ad9744dcd5", "fusion_lat": 0.0, "name": "a1ff02d5576810ebb32661ad9744dcd5", "is_reserved": 0, "rental_uris": {"android": "https://dc.lft.to/lastmile_qr_scan", "ios": "https://dc.lft.to/lastmile_qr_scan"}, "fusion_lon": 0.0}, {"lat": 38.865147, "is_disabled": 0, "type": "electric_scooter", "lon": -76.9903745, "bike_id": "fc58bddd5d8a0207b0a47b598be53952", "fusion_lat": 0.0, "name": "fc58bddd5d8a0207b0a47b598be53952", "is_reserved": 0, "rental_uris": {"android": "https://dc.lft.to/lastmile_qr_scan", "ios": "https://dc.lft.to/lastmile_qr_scan"}, "fusion_lon": 0.0}, {"lat": 38.90466933333333, "is_disabled": 0, "type": "electric_scooter", "lon": -77.04873633333334, "bike_id": "1add9a4912ac4accc6451a08edf78b67", "fusion_lat": 0.0, "name": "1add9a4912ac4accc6451a08edf78b67", "is_reserved": 0, "rental_uris": {"android": "https://dc.lft.to/lastmile_qr_scan", "ios": "https://dc.lft.to/lastmile_qr_scan"}, "fusion_lon": 0.0}, {"lat": 38.89728066666667, "is_disabled": 0, "type": "electric_scooter", "lon": -77.04994383333333, "bike_id": "4ac653a484b9ab43f8487b64d49bba5d", "fusion_lat": 0.0, "name": "4ac653a484b9ab43f8487b64d49bba5d", "is_reserved": 0, "rental_uris": {"android": "https://dc.lft.to/lastmile_qr_scan", "ios": "https://dc.lft.to/lastmile_qr_scan"}, "fusion_lon": 0.0}, {"lat": 38.901707, "is_disabled": 0, "type": "electric_scooter", "lon": -77.04834116666666, "bike_id": "84cbebe194478eec769d38557eaf4271", "fusion_lat": 0.0, "name": "84cbebe194478eec769d38557eaf4271", "is_reserved": 0, "rental_uris": {"android": "https://dc.lft.to/lastmile_qr_scan", "ios": "https://dc.lft.to/lastmile_qr_scan"}, "fusion_lon": 0.0}, {"lat": 38.896194666666666, "is_disabled": 0, "type": "electric_scooter", "lon": -77.03221383333333, "bike_id": "0fd4150af98ced8db23e9e309afb2dc1", "fusion_lat": 0.0, "name": "0fd4150af98ced8db23e9e309afb2dc1", "is_reserved": 0, "rental_uris": {"android": "https://dc.lft.to/lastmile_qr_scan", "ios": "https://dc.lft.to/lastmile_qr_scan"}, "fusion_lon": 0.0}, {"lat": 38.892497166666665, "is_disabled": 0, "type": "electric_scooter", "lon": -77.04877916666666, "bike_id": "4713473ecc4f31731ed6097fe3aa6c1b", "fusion_lat": 0.0, "name": "4713473ecc4f31731ed6097fe3aa6c1b", "is_reserved": 0, "rental_uris": {"android": "https://dc.lft.to/lastmile_qr_scan", "ios": "https://dc.lft.to/lastmile_qr_scan"}, "fusion_lon": 0.0}, {"lat": 38.8974575, "is_disabled": 0, "type": "electric_scooter", "lon": -77.00871116666667, "bike_id": "7a1a8f74704ae5a5df3aaef7d66512e2", "fusion_lat": 0.0, "name": "7a1a8f74704ae5a5df3aaef7d66512e2", "is_reserved": 0, "rental_uris": {"android": "https://dc.lft.to/lastmile_qr_scan", "ios": "https://dc.lft.to/lastmile_qr_scan"}, "fusion_lon": 0.0}, {"lat": 38.88460116666667, "is_disabled": 0, "type": "electric_scooter", "lon": -77.01538666666667, "bike_id": "f961dc7ed81de451d83e00a157c82324", "fusion_lat": 0.0, "name": "f961dc7ed81de451d83e00a157c82324", "is_reserved": 0, "rental_uris": {"android": "https://dc.lft.to/lastmile_qr_scan", "ios": "https://dc.lft.to/lastmile_qr_scan"}, "fusion_lon": 0.0}, {"lat": 38.89144916666667, "is_disabled": 0, "type": "electric_bike", "lon": -77.11307366666666, "bike_id": "8d3b3f847775a3c1c6cb4b8632e2ba24", "fusion_lat": 0.0, "name": "8d3b3f847775a3c1c6cb4b8632e2ba24", "is_reserved": 0, "rental_uris": {"android": "https://dc.lft.to/lastmile_qr_scan", "ios": "https://dc.lft.to/lastmile_qr_scan"}, "fusion_lon": 0.0}, {"lat": 38.9141785, "is_disabled": 0, "type": "electric_scooter", "lon": -77.031768, "bike_id": "009b6a78522d1cc72f74e32f15603826", "fusion_lat": 0.0, "name": "009b6a78522d1cc72f74e32f15603826", "is_reserved": 0, "rental_uris": {"android": "https://dc.lft.to/lastmile_qr_scan", "ios": "https://dc.lft.to/lastmile_qr_scan"}, "fusion_lon": 0.0}, {"lat": 38.906239166666666, "is_disabled": 0, "type": "electric_scooter", "lon": -77.04336583333334, "bike_id": "382a48fd5115fc8fbadf777f0b61f30d", "fusion_lat": 0.0, "name": "382a48fd5115fc8fbadf777f0b61f30d", "is_reserved": 0, "rental_uris": {"android": "https://dc.lft.to/lastmile_qr_scan", "ios": "https://dc.lft.to/lastmile_qr_scan"}, "fusion_lon": 0.0}, {"lat": 38.90567733333334, "is_disabled": 0, "type": "electric_scooter", "lon": -77.006064, "bike_id": "eacd37afb458345e6687132f618f8254", "fusion_lat": 0.0, "name": "eacd37afb458345e6687132f618f8254", "is_reserved": 0, "rental_uris": {"android": "https://dc.lft.to/lastmile_qr_scan", "ios": "https://dc.lft.to/lastmile_qr_scan"}, "fusion_lon": 0.0}, {"lat": 38.91682216666667, "is_disabled": 0, "type": "electric_scooter", "lon": -77.041428, "bike_id": "cd57dd9b383f09c86b97e9fb9f8b14b9", "fusion_lat": 0.0, "name": "cd57dd9b383f09c86b97e9fb9f8b14b9", "is_reserved": 0, "rental_uris": {"android": "https://dc.lft.to/lastmile_qr_scan", "ios": "https://dc.lft.to/lastmile_qr_scan"}, "fusion_lon": 0.0}, {"lat": 38.91641, "is_disabled": 0, "type": "electric_scooter", "lon": -77.0423755, "bike_id": "a43ef8321da2ab9c7eef61aefbcdc902", "fusion_lat": 0.0, "name": "a43ef8321da2ab9c7eef61aefbcdc902", "is_reserved": 0, "rental_uris": {"android": "https://dc.lft.to/lastmile_qr_scan", "ios": "https://dc.lft.to/lastmile_qr_scan"}, "fusion_lon": 0.0}, {"lat": 38.892201, "is_disabled": 0, "type": "electric_bike", "lon": -77.107855, "bike_id": "74b73baffb5889fb7777a6b9dd637916", "fusion_lat": 0.0, "name": "74b73baffb5889fb7777a6b9dd637916", "is_reserved": 0, "rental_uris": {"android": "https://dc.lft.to/lastmile_qr_scan", "ios": "https://dc.lft.to/lastmile_qr_scan"}, "fusion_lon": 0.0}, {"lat": 38.897284, "is_disabled": 0, "type": "electric_scooter", "lon": -77.04892183333334, "bike_id": "942d671e0dd34d9b90f332d4336b87f0", "fusion_lat": 0.0, "name": "942d671e0dd34d9b90f332d4336b87f0", "is_reserved": 0, "rental_uris": {"android": "https://dc.lft.to/lastmile_qr_scan", "ios": "https://dc.lft.to/lastmile_qr_scan"}, "fusion_lon": 0.0}, {"lat": 38.911264833333334, "is_disabled": 0, "type": "electric_scooter", "lon": -77.0218155, "bike_id": "1b3a8b1a5d86ae365cdb97158cf9a780", "fusion_lat": 0.0, "name": "1b3a8b1a5d86ae365cdb97158cf9a780", "is_reserved": 0, "rental_uris": {"android": "https://dc.lft.to/lastmile_qr_scan", "ios": "https://dc.lft.to/lastmile_qr_scan"}, "fusion_lon": 0.0}, {"lat": 38.900355, "is_disabled": 0, "type": "electric_scooter", "lon": -77.00540683333334, "bike_id": "1aa643870655c8f9bf4f7e05d53d8529", "fusion_lat": 0.0, "name": "1aa643870655c8f9bf4f7e05d53d8529", "is_reserved": 0, "rental_uris": {"android": "https://dc.lft.to/lastmile_qr_scan", "ios": "https://dc.lft.to/lastmile_qr_scan"}, "fusion_lon": 0.0}, {"lat": 38.91604483333333, "is_disabled": 0, "type": "electric_scooter", "lon": -77.023145, "bike_id": "292a6a1e48083430e29c8c8242a0e6c4", "fusion_lat": 0.0, "name": "292a6a1e48083430e29c8c8242a0e6c4", "is_reserved": 0, "rental_uris": {"android": "https://dc.lft.to/lastmile_qr_scan", "ios": "https://dc.lft.to/lastmile_qr_scan"}, "fusion_lon": 0.0}, {"lat": 38.91107366666667, "is_disabled": 0, "type": "electric_scooter", "lon": -77.045049, "bike_id": "6c3a76cfa873524ac82e3d04913c51c2", "fusion_lat": 0.0, "name": "6c3a76cfa873524ac82e3d04913c51c2", "is_reserved": 0, "rental_uris": {"android": "https://dc.lft.to/lastmile_qr_scan", "ios": "https://dc.lft.to/lastmile_qr_scan"}, "fusion_lon": 0.0}, {"lat": 38.92970233333333, "is_disabled": 0, "type": "electric_scooter", "lon": -77.0329495, "bike_id": "998a99e58fd507af7755b6fa5d24938b", "fusion_lat": 0.0, "name": "998a99e58fd507af7755b6fa5d24938b", "is_reserved": 0, "rental_uris": {"android": "https://dc.lft.to/lastmile_qr_scan", "ios": "https://dc.lft.to/lastmile_qr_scan"}, "fusion_lon": 0.0}, {"lat": 38.90375816666667, "is_disabled": 0, "type": "electric_scooter", "lon": -77.0466375, "bike_id": "9143bc6dfb50947c4d762e2adfa12e40", "fusion_lat": 0.0, "name": "9143bc6dfb50947c4d762e2adfa12e40", "is_reserved": 0, "rental_uris": {"android": "https://dc.lft.to/lastmile_qr_scan", "ios": "https://dc.lft.to/lastmile_qr_scan"}, "fusion_lon": 0.0}, {"lat": 38.90369183333333, "is_disabled": 0, "type": "electric_scooter", "lon": -77.04552466666667, "bike_id": "ad51250bb9fb03daf6b251503d89775c", "fusion_lat": 0.0, "name": "ad51250bb9fb03daf6b251503d89775c", "is_reserved": 0, "rental_uris": {"android": "https://dc.lft.to/lastmile_qr_scan", "ios": "https://dc.lft.to/lastmile_qr_scan"}, "fusion_lon": 0.0}, {"lat": 38.901455166666665, "is_disabled": 0, "type": "electric_scooter", "lon": -77.003491, "bike_id": "049c4504292828474df422164d429468", "fusion_lat": 0.0, "name": "049c4504292828474df422164d429468", "is_reserved": 0, "rental_uris": {"android": "https://dc.lft.to/lastmile_qr_scan", "ios": "https://dc.lft.to/lastmile_qr_scan"}, "fusion_lon": 0.0}, {"lat": 38.91328933333333, "is_disabled": 0, "type": "electric_scooter", "lon": -77.04495683333333, "bike_id": "34dde9b01b077067f9a6eb564b5e1c7e", "fusion_lat": 0.0, "name": "34dde9b01b077067f9a6eb564b5e1c7e", "is_reserved": 0, "rental_uris": {"android": "https://dc.lft.to/lastmile_qr_scan", "ios": "https://dc.lft.to/lastmile_qr_scan"}, "fusion_lon": 0.0}, {"lat": 38.9398175, "is_disabled": 0, "type": "electric_scooter", "lon": -77.03264116666666, "bike_id": "9ad835e2ab36415b611e102bcdcc27ff", "fusion_lat": 0.0, "name": "9ad835e2ab36415b611e102bcdcc27ff", "is_reserved": 0, "rental_uris": {"android": "https://dc.lft.to/lastmile_qr_scan", "ios": "https://dc.lft.to/lastmile_qr_scan"}, "fusion_lon": 0.0}, {"lat": 38.90732, "is_disabled": 0, "type": "electric_scooter", "lon": -77.039856, "bike_id": "e554e1e48844d7e7e6aeabbe8b792b3e", "fusion_lat": 0.0, "name": "e554e1e48844d7e7e6aeabbe8b792b3e", "is_reserved": 0, "rental_uris": {"android": "https://dc.lft.to/lastmile_qr_scan", "ios": "https://dc.lft.to/lastmile_qr_scan"}, "fusion_lon": 0.0}, {"lat": 38.89616483333333, "is_disabled": 0, "type": "electric_scooter", "lon": -76.956526, "bike_id": "973732f415e7e908e7008f968ff2406e", "fusion_lat": 0.0, "name": "973732f415e7e908e7008f968ff2406e", "is_reserved": 0, "rental_uris": {"android": "https://dc.lft.to/lastmile_qr_scan", "ios": "https://dc.lft.to/lastmile_qr_scan"}, "fusion_lon": 0.0}, {"lat": 38.914189, "is_disabled": 0, "type": "electric_scooter", "lon": -77.03260283333333, "bike_id": "ddee16b44619e160ce8781a4780d1c7c", "fusion_lat": 0.0, "name": "ddee16b44619e160ce8781a4780d1c7c", "is_reserved": 0, "rental_uris": {"android": "https://dc.lft.to/lastmile_qr_scan", "ios": "https://dc.lft.to/lastmile_qr_scan"}, "fusion_lon": 0.0}, {"lat": 38.8874865, "is_disabled": 0, "type": "electric_scooter", "lon": -77.02075166666667, "bike_id": "92ffd45544f4342dfe81497f5647e619", "fusion_lat": 0.0, "name": "92ffd45544f4342dfe81497f5647e619", "is_reserved": 0, "rental_uris": {"android": "https://dc.lft.to/lastmile_qr_scan", "ios": "https://dc.lft.to/lastmile_qr_scan"}, "fusion_lon": 0.0}, {"lat": 38.938623166666666, "is_disabled": 0, "type": "electric_scooter", "lon": -77.0265215, "bike_id": "fb797907617e37771bb12b42909ec685", "fusion_lat": 0.0, "name": "fb797907617e37771bb12b42909ec685", "is_reserved": 0, "rental_uris": {"android": "https://dc.lft.to/lastmile_qr_scan", "ios": "https://dc.lft.to/lastmile_qr_scan"}, "fusion_lon": 0.0}, {"lat": 38.8763915, "is_disabled": 0, "type": "electric_scooter", "lon": -77.01936, "bike_id": "ed70aea31a5f70274ccb44bf36d0723a", "fusion_lat": 0.0, "name": "ed70aea31a5f70274ccb44bf36d0723a", "is_reserved": 0, "rental_uris": {"android": "https://dc.lft.to/lastmile_qr_scan", "ios": "https://dc.lft.to/lastmile_qr_scan"}, "fusion_lon": 0.0}, {"lat": 38.87243016666667, "is_disabled": 0, "type": "electric_scooter", "lon": -77.01211733333334, "bike_id": "5b151fb37d1bc86569eeb85c3252e856", "fusion_lat": 0.0, "name": "5b151fb37d1bc86569eeb85c3252e856", "is_reserved": 0, "rental_uris": {"android": "https://dc.lft.to/lastmile_qr_scan", "ios": "https://dc.lft.to/lastmile_qr_scan"}, "fusion_lon": 0.0}, {"lat": 38.92616433333333, "is_disabled": 0, "type": "electric_scooter", "lon": -77.04421483333333, "bike_id": "49cb521d23afa5b88b6b6289532267a3", "fusion_lat": 0.0, "name": "49cb521d23afa5b88b6b6289532267a3", "is_reserved": 0, "rental_uris": {"android": "https://dc.lft.to/lastmile_qr_scan", "ios": "https://dc.lft.to/lastmile_qr_scan"}, "fusion_lon": 0.0}, {"lat": 38.914163, "is_disabled": 0, "type": "electric_scooter", "lon": -77.03211216666666, "bike_id": "397ca40e50462479328abb1a39e84b0b", "fusion_lat": 0.0, "name": "397ca40e50462479328abb1a39e84b0b", "is_reserved": 0, "rental_uris": {"android": "https://dc.lft.to/lastmile_qr_scan", "ios": "https://dc.lft.to/lastmile_qr_scan"}, "fusion_lon": 0.0}, {"lat": 38.92113066666667, "is_disabled": 0, "type": "electric_scooter", "lon": -77.04208566666667, "bike_id": "814cabcae61cb85006da5f3fc2e7310c", "fusion_lat": 0.0, "name": "814cabcae61cb85006da5f3fc2e7310c", "is_reserved": 0, "rental_uris": {"android": "https://dc.lft.to/lastmile_qr_scan", "ios": "https://dc.lft.to/lastmile_qr_scan"}, "fusion_lon": 0.0}, {"lat": 38.8922425, "is_disabled": 0, "type": "electric_scooter", "lon": -77.0486435, "bike_id": "7922d75884f110bae1174f744bf87167", "fusion_lat": 0.0, "name": "7922d75884f110bae1174f744bf87167", "is_reserved": 0, "rental_uris": {"android": "https://dc.lft.to/lastmile_qr_scan", "ios": "https://dc.lft.to/lastmile_qr_scan"}, "fusion_lon": 0.0}, {"lat": 38.9119285, "is_disabled": 0, "type": "electric_scooter", "lon": -77.06097783333334, "bike_id": "099ced9cfb8191e486197cd1920fe4d2", "fusion_lat": 0.0, "name": "099ced9cfb8191e486197cd1920fe4d2", "is_reserved": 0, "rental_uris": {"android": "https://dc.lft.to/lastmile_qr_scan", "ios": "https://dc.lft.to/lastmile_qr_scan"}, "fusion_lon": 0.0}, {"lat": 38.921869, "is_disabled": 0, "type": "electric_scooter", "lon": -76.99751133333334, "bike_id": "05571e6b265f50d2e45695545daa55a1", "fusion_lat": 0.0, "name": "05571e6b265f50d2e45695545daa55a1", "is_reserved": 0, "rental_uris": {"android": "https://dc.lft.to/lastmile_qr_scan", "ios": "https://dc.lft.to/lastmile_qr_scan"}, "fusion_lon": 0.0}, {"lat": 38.887670666666665, "is_disabled": 0, "type": "electric_scooter", "lon": -76.95596166666667, "bike_id": "db964eb099f2e753a511177031a80963", "fusion_lat": 0.0, "name": "db964eb099f2e753a511177031a80963", "is_reserved": 0, "rental_uris": {"android": "https://dc.lft.to/lastmile_qr_scan", "ios": "https://dc.lft.to/lastmile_qr_scan"}, "fusion_lon": 0.0}, {"lat": 38.89221383333334, "is_disabled": 0, "type": "electric_scooter", "lon": -77.048606, "bike_id": "00a3df951dafef354129ae4c5254df8a", "fusion_lat": 0.0, "name": "00a3df951dafef354129ae4c5254df8a", "is_reserved": 0, "rental_uris": {"android": "https://dc.lft.to/lastmile_qr_scan", "ios": "https://dc.lft.to/lastmile_qr_scan"}, "fusion_lon": 0.0}, {"lat": 38.939034666666664, "is_disabled": 0, "type": "electric_scooter", "lon": -77.02480783333333, "bike_id": "88fd784e9f782b7755f16a731f2431c9", "fusion_lat": 0.0, "name": "88fd784e9f782b7755f16a731f2431c9", "is_reserved": 0, "rental_uris": {"android": "https://dc.lft.to/lastmile_qr_scan", "ios": "https://dc.lft.to/lastmile_qr_scan"}, "fusion_lon": 0.0}, {"lat": 38.896162833333335, "is_disabled": 0, "type": "electric_scooter", "lon": -77.03017866666667, "bike_id": "e07d6cfcd4c5789f2423d8d697c737c4", "fusion_lat": 0.0, "name": "e07d6cfcd4c5789f2423d8d697c737c4", "is_reserved": 0, "rental_uris": {"android": "https://dc.lft.to/lastmile_qr_scan", "ios": "https://dc.lft.to/lastmile_qr_scan"}, "fusion_lon": 0.0}, {"lat": 38.917070833333334, "is_disabled": 0, "type": "electric_scooter", "lon": -77.02809483333333, "bike_id": "daa18e7091f04238f530af07a1fde677", "fusion_lat": 0.0, "name": "daa18e7091f04238f530af07a1fde677", "is_reserved": 0, "rental_uris": {"android": "https://dc.lft.to/lastmile_qr_scan", "ios": "https://dc.lft.to/lastmile_qr_scan"}, "fusion_lon": 0.0}, {"lat": 38.8919525, "is_disabled": 0, "type": "electric_scooter", "lon": -77.02455483333334, "bike_id": "816e9a74e94cce617566205d8894716a", "fusion_lat": 0.0, "name": "816e9a74e94cce617566205d8894716a", "is_reserved": 0, "rental_uris": {"android": "https://dc.lft.to/lastmile_qr_scan", "ios": "https://dc.lft.to/lastmile_qr_scan"}, "fusion_lon": 0.0}, {"lat": 38.912143666666665, "is_disabled": 0, "type": "electric_scooter", "lon": -77.03846933333334, "bike_id": "ab5b6527b87d4eb3f4a14cbb91a57e20", "fusion_lat": 0.0, "name": "ab5b6527b87d4eb3f4a14cbb91a57e20", "is_reserved": 0, "rental_uris": {"android": "https://dc.lft.to/lastmile_qr_scan", "ios": "https://dc.lft.to/lastmile_qr_scan"}, "fusion_lon": 0.0}, {"lat": 38.92321233333333, "is_disabled": 0, "type": "electric_scooter", "lon": -77.043761, "bike_id": "5bbc1b8f5f917e1456eec2905eb70703", "fusion_lat": 0.0, "name": "5bbc1b8f5f917e1456eec2905eb70703", "is_reserved": 0, "rental_uris": {"android": "https://dc.lft.to/lastmile_qr_scan", "ios": "https://dc.lft.to/lastmile_qr_scan"}, "fusion_lon": 0.0},