{"data": {"bikes": [{"type": "electric_scooter", "name": "69a69c3c35bee7b55af2e2a173089803", "rental_uris": {"ios": "https://dc.lft.to/lastmile_qr_scan", "android": "https://dc.lft.to/lastmile_qr_scan"}, "fusion_lon": 0.0, "lat": 38.895503, "is_disabled": 0, "bike_id": "69a69c3c35bee7b55af2e2a173089803", "fusion_lat": 0.0, "is_reserved": 0, "lon": -76.99842483333333}, {"type": "electric_scooter", "name": "163c6fc8efec61876efb120dfcf56c2b", "rental_uris": {"ios": "https://dc.lft.to/lastmile_qr_scan", "android": "https://dc.lft.to/lastmile_qr_scan"}, "fusion_lon": 0.0, "lat": 38.914274666666664, "is_disabled": 0, "bike_id": "163c6fc8efec61876efb120dfcf56c2b", "fusion_lat": 0.0, "is_reserved": 0, "lon": -77.064195}, {"type": "electric_scooter", "name": "f5cea9566359cc083ae3b2d25e3a310b", "rental_uris": {"ios": "https://dc.lft.to/lastmile_qr_scan", "android": "https://dc.lft.to/lastmile_qr_scan"}, "fusion_lon": 0.0, "lat": 38.90128433333334, "is_disabled": 0, "bike_id": "f5cea9566359cc083ae3b2d25e3a310b", "fusion_lat": 0.0, "is_reserved": 0, "lon": -77.046307}, {"type": "electric_scooter", "name": "8bd6ee6af26cc60b3329af0672ec224a", "rental_uris": {"ios": "https://dc.lft.to/lastmile_qr_scan", "android": "https://dc.lft.to/lastmile_qr_scan"}, "fusion_lon": 0.0, "lat": 38.8849415, "is_disabled": 0, "bike_id": "8bd6ee6af26cc60b3329af0672ec224a", "fusion_lat": 0.0, "is_reserved": 0, "lon": -77.007308}, {"type": "electric_scooter", "name": "26f9676b8258071eb99ca3ba6d357fad", "rental_uris": {"ios": "https://dc.lft.to/lastmile_qr_scan", "android": "https://dc.lft.to/lastmile_qr_scan"}, "fusion_lon": 0.0, "lat": 38.88528, "is_disabled": 0, "bike_id": "26f9676b8258071eb99ca3ba6d357fad", "fusion_lat": 0.0, "is_reserved": 0, "lon": -77.0153415}, {"type": "electric_scooter", "name": "f3f75f616422f4528e130c0b6f8a3eb2", "rental_uris": {"ios": "https://dc.lft.to/lastmile_qr_scan", "android": "https://dc.lft.to/lastmile_qr_scan"}, "fusion_lon": 0.0, "lat": 38.87460033333333, "is_disabled": 0, "bike_id": "f3f75f616422f4528e130c0b6f8a3eb2", "fusion_lat": 0.0, "is_reserved": 0, "lon": -77.00966933333333}, {"type": "electric_scooter", "name": "21a6a49c39252cfc9a8ed977e065bf80", "rental_uris": {"ios": "https://dc.lft.to/lastmile_qr_scan", "android": "https://dc.lft.to/lastmile_qr_scan"}, "fusion_lon": 0.0, "lat": 38.91471216666667, "is_disabled": 0, "bike_id": "21a6a49c39252cfc9a8ed977e065bf80", "fusion_lat": 0.0, "is_reserved": 0, "lon": -77.02967833333334}, {"type": "electric_scooter", "name": "1b2c3ec88f101726bcdf8049701522bd", "rental_uris": {"ios": "https://dc.lft.to/lastmile_qr_scan", "android": "https://dc.lft.to/lastmile_qr_scan"}, "fusion_lon": 0.0, "lat": 38.9032525, "is_disabled": 0, "bike_id": "1b2c3ec88f101726bcdf8049701522bd", "fusion_lat": 0.0, "is_reserved": 0, "lon": -77.02475466666667}, {"type": "electric_scooter", "name": "641f730b33fa6f44974bb6ccc5aead6b", "rental_uris": {"ios": "https://dc.lft.to/lastmile_qr_scan", "android": "https://dc.lft.to/lastmile_qr_scan"}, "fusion_lon": 0.0, "lat": 38.93839883333333, "is_disabled": 0, "bike_id": "641f730b33fa6f44974bb6ccc5aead6b", "fusion_lat": 0.0, "is_reserved": 0, "lon": -77.03389883333334}, {"type": "electric_scooter", "name": "aaa6844961bd08cc07d4cec91a65ea5a", "rental_uris": {"ios": "https://dc.lft.to/lastmile_qr_scan", "android": "https://dc.lft.to/lastmile_qr_scan"}, "fusion_lon": 0.0, "lat": 38.86061183333333, "is_disabled": 0, "bike_id": "aaa6844961bd08cc07d4cec91a65ea5a", "fusion_lat": 0.0, "is_reserved": 0, "lon": -76.98499966666667}, {"type": "electric_scooter", "name": "ff95ceae94c2f9d46bc28c2477d34fe6", "rental_uris": {"ios": "https://dc.lft.to/lastmile_qr_scan", "android": "https://dc.lft.to/lastmile_qr_scan"}, "fusion_lon": 0.0, "lat": 38.92874366666667, "is_disabled": 0, "bike_id": "ff95ceae94c2f9d46bc28c2477d34fe6", "fusion_lat": 0.0, "is_reserved": 0, "lon": -77.03304033333333}, {"type": "electric_bike", "name": "7d3fa08b46be091a5fc582fbce5db32a", "rental_uris": {"ios": "https://dc.lft.to/lastmile_qr_scan", "android": "https://dc.lft.to/lastmile_qr_scan"}, "fusion_lon": 0.0, "lat": 38.98502333333333, "is_disabled": 0, "bike_id": "7d3fa08b46be091a5fc582fbce5db32a", "fusion_lat": 0.0, "is_reserved": 0, "lon": -76.9820825}, {"type": "electric_scooter", "name": "32bdb8f443c35c63454efac8bdc2843f", "rental_uris": {"ios": "https://dc.lft.to/lastmile_qr_scan", "android": "https://dc.lft.to/lastmile_qr_scan"}, "fusion_lon": 0.0, "lat": 38.917649, "is_disabled": 0, "bike_id": "32bdb8f443c35c63454efac8bdc2843f", "fusion_lat": 0.0, "is_reserved": 0, "lon": -77.01218833333333}, {"type": "electric_scooter", "name": "24ad5a45ec336bfd12a0f2a16d888f11", "rental_uris": {"ios": "https://dc.lft.to/lastmile_qr_scan", "android": "https://dc.lft.to/lastmile_qr_scan"}, "fusion_lon": 0.0, "lat": 38.904479, "is_disabled": 0, "bike_id": "24ad5a45ec336bfd12a0f2a16d888f11", "fusion_lat": 0.0, "is_reserved": 0, "lon": -76.9962575}, {"type": "electric_scooter", "name": "357c1223097d4fc2c950a55ced6ed467", "rental_uris": {"ios": "https://dc.lft.to/lastmile_qr_scan", "android": "https://dc.lft.to/lastmile_qr_scan"}, "fusion_lon": 0.0, "lat": 38.88487466666667, "is_disabled": 0, "bike_id": "357c1223097d4fc2c950a55ced6ed467", "fusion_lat": 0.0, "is_reserved": 0, "lon": -77.00712233333333}, {"type": "electric_scooter", "name": "b11b4ad388ae54d0531a0c1e5e259fe6", "rental_uris": {"ios": "https://dc.lft.to/lastmile_qr_scan", "android": "https://dc.lft.to/lastmile_qr_scan"}, "fusion_lon": 0.0, "lat": 38.8874255, "is_disabled": 0, "bike_id": "b11b4ad388ae54d0531a0c1e5e259fe6", "fusion_lat": 0.0, "is_reserved": 0, "lon": -77.01731983333333}, {"type": "electric_scooter", "name": "66a33cb4a5b3c80df50baab0f60aabe3", "rental_uris": {"ios": "https://dc.lft.to/lastmile_qr_scan", "android": "https://dc.lft.to/lastmile_qr_scan"}, "fusion_lon": 0.0, "lat": 38.92410616666667, "is_disabled": 0, "bike_id": "66a33cb4a5b3c80df50baab0f60aabe3", "fusion_lat": 0.0, "is_reserved": 0, "lon": -77.05180666666666}, {"type": "electric_scooter", "name": "e1f9ad33883b5af7543a2befc94d55b2", "rental_uris": {"ios": "https://dc.lft.to/lastmile_qr_scan", "android": "https://dc.lft.to/lastmile_qr_scan"}, "fusion_lon": 0.0, "lat": 38.91711816666667, "is_disabled": 0, "bike_id": "e1f9ad33883b5af7543a2befc94d55b2", "fusion_lat": 0.0, "is_reserved": 0, "lon": -77.041574}, {"type": "electric_scooter", "name": "4d1e97ae1bfa19df798b0aafa402a96d", "rental_uris": {"ios": "https://dc.lft.to/lastmile_qr_scan", "android": "https://dc.lft.to/lastmile_qr_scan"}, "fusion_lon": 0.0, "lat": 38.883951833333334, "is_disabled": 0, "bike_id": "4d1e97ae1bfa19df798b0aafa402a96d", "fusion_lat": 0.0, "is_reserved": 0, "lon": -76.98585716666666}, {"type": "electric_scooter", "name": "18d5791ca608392c90481e3b09805b5b", "rental_uris": {"ios": "https://dc.lft.to/lastmile_qr_scan", "android": "https://dc.lft.to/lastmile_qr_scan"}, "fusion_lon": 0.0, "lat": 38.913198333333334, "is_disabled": 0, "bike_id": "18d5791ca608392c90481e3b09805b5b", "fusion_lat": 0.0, "is_reserved": 0, "lon": -77.01750916666667}, {"type": "electric_scooter", "name": "203ff22380baa76436502f29281f23d2", "rental_uris": {"ios": "https://dc.lft.to/lastmile_qr_scan", "android": "https://dc.lft.to/lastmile_qr_scan"}, "fusion_lon": 0.0, "lat": 38.877133666666666, "is_disabled": 0, "bike_id": "203ff22380baa76436502f29281f23d2", "fusion_lat": 0.0, "is_reserved": 0, "lon": -77.00448083333333}, {"type": "electric_scooter", "name": "c412c53ac98be67238d40c93f7aafaac", "rental_uris": {"ios": "https://dc.lft.to/lastmile_qr_scan", "android": "https://dc.lft.to/lastmile_qr_scan"}, "fusion_lon": 0.0, "lat": 38.895216, "is_disabled": 0, "bike_id": "c412c53ac98be67238d40c93f7aafaac", "fusion_lat": 0.0, "is_reserved": 0, "lon": -77.04849866666666}, {"type": "electric_scooter", "name": "b71ae99a0d47403ef018660e1f1ac6af", "rental_uris": {"ios": "https://dc.lft.to/lastmile_qr_scan", "android": "https://dc.lft.to/lastmile_qr_scan"}, "fusion_lon": 0.0, "lat": 38.908657, "is_disabled": 0, "bike_id": "b71ae99a0d47403ef018660e1f1ac6af", "fusion_lat": 0.0, "is_reserved": 0, "lon": -77.02696316666666}, {"type": "electric_scooter", "name": "abe97e5e6b47c473557780a919735ab8", "rental_uris": {"ios": "https://dc.lft.to/lastmile_qr_scan", "android": "https://dc.lft.to/lastmile_qr_scan"}, "fusion_lon": 0.0, "lat": 38.88746833333333, "is_disabled": 0, "bike_id": "abe97e5e6b47c473557780a919735ab8", "fusion_lat": 0.0, "is_reserved": 0, "lon": -77.02844883333333}, {"type": "electric_scooter", "name": "a2998218de09bb81c7af2594096bb5f1", "rental_uris": {"ios": "https://dc.lft.to/lastmile_qr_scan", "android": "https://dc.lft.to/lastmile_qr_scan"}, "fusion_lon": 0.0, "lat": 38.941595, "is_disabled": 0, "bike_id": "a2998218de09bb81c7af2594096bb5f1", "fusion_lat": 0.0, "is_reserved": 0, "lon": -77.09270766666667}, {"type": "electric_scooter", "name": "4032ffa2562ce7bb4091918119067c42", "rental_uris": {"ios": "https://dc.lft.to/lastmile_qr_scan", "android": "https://dc.lft.to/lastmile_qr_scan"}, "fusion_lon": 0.0, "lat": 38.919244166666665, "is_disabled": 0, "bike_id": "4032ffa2562ce7bb4091918119067c42", "fusion_lat": 0.0, "is_reserved": 0, "lon": -77.00985383333334}, {"type": "electric_scooter", "name": "e3058be322ea812faa91a5dddafe6ab7", "rental_uris": {"ios": "https://dc.lft.to/lastmile_qr_scan", "android": "https://dc.lft.to/lastmile_qr_scan"}, "fusion_lon": 0.0, "lat": 38.928584, "is_disabled": 0, "bike_id": "e3058be322ea812faa91a5dddafe6ab7", "fusion_lat": 0.0, "is_reserved": 0, "lon": -77.029073}, {"type": "electric_bike", "name": "3fa14197347e4ad772709a15cdd0dca0", "rental_uris": {"ios": "https://dc.lft.to/lastmile_qr_scan", "android": "https://dc.lft.to/lastmile_qr_scan"}, "fusion_lon": 0.0, "lat": 38.864443666666666, "is_disabled": 0, "bike_id": "3fa14197347e4ad772709a15cdd0dca0", "fusion_lat": 0.0, "is_reserved": 0, "lon": -77.10685633333334}, {"type": "electric_scooter", "name": "c35d7af623036d0ac63853f934a88652", "rental_uris": {"ios": "https://dc.lft.to/lastmile_qr_scan", "android": "https://dc.lft.to/lastmile_qr_scan"}, "fusion_lon": 0.0, "lat": 38.87725583333334, "is_disabled": 0, "bike_id": "c35d7af623036d0ac63853f934a88652", "fusion_lat": 0.0, "is_reserved": 0, "lon": -77.00430333333334}, {"type": "electric_scooter", "name": "6d7f59a5371d0e1cbe580dddae2390fb", "rental_uris": {"ios": "https://dc.lft.to/lastmile_qr_scan", "android": "https://dc.lft.to/lastmile_qr_scan"}, "fusion_lon": 0.0, "lat": 38.93929216666667, "is_disabled": 0, "bike_id": "6d7f59a5371d0e1cbe580dddae2390fb", "fusion_lat": 0.0, "is_reserved": 0, "lon": -77.02791916666666}, {"type": "electric_scooter", "name": "d4d03670e4ef19d36c876f07399dce3e", "rental_uris": {"ios": "https://dc.lft.to/lastmile_qr_scan", "android": "https://dc.lft.to/lastmile_qr_scan"}, "fusion_lon": 0.0, "lat": 38.906336833333334, "is_disabled": 0, "bike_id": "d4d03670e4ef19d36c876f07399dce3e", "fusion_lat": 0.0, "is_reserved": 0, "lon": -77.009961}, {"type": "electric_scooter", "name": "1a3101500384d2dc57998f711efd79f6", "rental_uris": {"ios": "https://dc.lft.to/lastmile_qr_scan", "android": "https://dc.lft.to/lastmile_qr_scan"}, "fusion_lon": 0.0, "lat": 38.93430016666667, "is_disabled": 0, "bike_id": "1a3101500384d2dc57998f711efd79f6", "fusion_lat": 0.0, "is_reserved": 0, "lon": -77.05586366666667}, {"type": "electric_scooter", "name": "6a97f4f96e368829bfe46fab515df84c", "rental_uris": {"ios": "https://dc.lft.to/lastmile_qr_scan", "android": "https://dc.lft.to/lastmile_qr_scan"}, "fusion_lon": 0.0, "lat": 38.87656783333333, "is_disabled": 0, "bike_id": "6a97f4f96e368829bfe46fab515df84c", "fusion_lat": 0.0, "is_reserved": 0, "lon": -77.01587083333334}, {"type": "electric_scooter", "name": "5541aab70c3abf50843c426b0ce7d762", "rental_uris": {"ios": "https://dc.lft.to/lastmile_qr_scan", "android": "https://dc.lft.to/lastmile_qr_scan"}, "fusion_lon": 0.0, "lat": 38.918125333333336, "is_disabled": 0, "bike_id": "5541aab70c3abf50843c426b0ce7d762", "fusion_lat": 0.0, "is_reserved": 0, "lon": -77.02718033333333}, {"type": "electric_scooter", "name": "dc391cd102f77883eab1dd9a6e13728b", "rental_uris": {"ios": "https://dc.lft.to/lastmile_qr_scan", "android": "https://dc.lft.to/lastmile_qr_scan"}, "fusion_lon": 0.0, "lat": 38.93002833333333, "is_disabled": 0, "bike_id": "dc391cd102f77883eab1dd9a6e13728b", "fusion_lat": 0.0, "is_reserved": 0, "lon": -77.02089616666666}, {"type": "electric_scooter", "name": "5e2707ce6d16bfb13a0ed91406cb9359", "rental_uris": {"ios": "https://dc.lft.to/lastmile_qr_scan", "android": "https://dc.lft.to/lastmile_qr_scan"}, "fusion_lon": 0.0, "lat": 38.941305, "is_disabled": 0, "bike_id": "5e2707ce6d16bfb13a0ed91406cb9359", "fusion_lat": 0.0, "is_reserved": 0, "lon": -77.015448}, {"type": "electric_scooter", "name": "1d6a899f76302699f9ea76676df80801", "rental_uris": {"ios": "https://dc.lft.to/lastmile_qr_scan", "android": "https://dc.lft.to/lastmile_qr_scan"}, "fusion_lon": 0.0, "lat": 38.93903483333333, "is_disabled": 0, "bike_id": "1d6a899f76302699f9ea76676df80801", "fusion_lat": 0.0, "is_reserved": 0, "lon": -77.0331565}, {"type": "electric_scooter", "name": "b366c8cf5ca07cccbf176951391d075b", "rental_uris": {"ios": "https://dc.lft.to/lastmile_qr_scan", "android": "https://dc.lft.to/lastmile_qr_scan"}, "fusion_lon": 0.0, "lat": 38.92515183333333, "is_disabled": 0, "bike_id": "b366c8cf5ca07cccbf176951391d075b", "fusion_lat": 0.0, "is_reserved": 0, "lon": -77.0513}, {"type": "electric_scooter", "name": "4c82971770b06f9482de60097e68a656", "rental_uris": {"ios": "https://dc.lft.to/lastmile_qr_scan", "android": "https://dc.lft.to/lastmile_qr_scan"}, "fusion_lon": 0.0, "lat": 38.927458, "is_disabled": 0, "bike_id": "4c82971770b06f9482de60097e68a656", "fusion_lat": 0.0, "is_reserved": 0, "lon": -77.02534933333334}, {"type": "electric_scooter", "name": "ca0f81d4a8f40dd7f025e6fdfe4a01de", "rental_uris": {"ios": "https://dc.lft.to/lastmile_qr_scan", "android": "https://dc.lft.to/lastmile_qr_scan"}, "fusion_lon": 0.0, "lat": 38.896746666666665, "is_disabled": 0, "bike_id": "ca0f81d4a8f40dd7f025e6fdfe4a01de", "fusion_lat": 0.0, "is_reserved": 0, "lon": -77.032079}, {"type": "electric_scooter", "name": "02adbc048b23c10ebba416e6b2ea5fc1", "rental_uris": {"ios": "https://dc.lft.to/lastmile_qr_scan", "android": "https://dc.lft.to/lastmile_qr_scan"}, "fusion_lon": 0.0, "lat": 38.893772166666665, "is_disabled": 0, "bike_id": "02adbc048b23c10ebba416e6b2ea5fc1", "fusion_lat": 0.0, "is_reserved": 0, "lon": -77.019789}, {"type": "electric_scooter", "name": "1027217d1fb48ac2c0c25ec4ceb89e77", "rental_uris": {"ios": "https://dc.lft.to/lastmile_qr_scan", "android": "https://dc.lft.to/lastmile_qr_scan"}, "fusion_lon": 0.0, "lat": 38.90025833333333, "is_disabled": 0, "bike_id": "1027217d1fb48ac2c0c25ec4ceb89e77", "fusion_lat": 0.0, "is_reserved": 0, "lon": -76.9875255}, {"type": "electric_scooter", "name": "94b903ef7c6860695b53090d04b3a476", "rental_uris": {"ios": "https://dc.lft.to/lastmile_qr_scan", "android": "https://dc.lft.to/lastmile_qr_scan"}, "fusion_lon": 0.0, "lat": 38.88433916666666, "is_disabled": 0, "bike_id": "94b903ef7c6860695b53090d04b3a476", "fusion_lat": 0.0, "is_reserved": 0, "lon": -77.01529066666667}, {"type": "electric_scooter", "name": "345828e00bdce7a613664dd64191caff", "rental_uris": {"ios": "https://dc.lft.to/lastmile_qr_scan", "android": "https://dc.lft.to/lastmile_qr_scan"}, "fusion_lon": 0.0, "lat": 38.9342485, "is_disabled": 0, "bike_id": "345828e00bdce7a613664dd64191caff", "fusion_lat": 0.0, "is_reserved": 0, "lon": -77.04413766666667}, {"type": "electric_scooter", "name": "7ae0d65a73ab652471359ea2667f13e3", "rental_uris": {"ios": "https://dc.lft.to/lastmile_qr_scan", "android": "https://dc.lft.to/lastmile_qr_scan"}, "fusion_lon": 0.0, "lat": 38.90728083333333, "is_disabled": 0, "bike_id": "7ae0d65a73ab652471359ea2667f13e3", "fusion_lat": 0.0, "is_reserved": 0, "lon": -77.02961066666667}, {"type": "electric_scooter", "name": "79d0f188346a4c944464343628db5db4", "rental_uris": {"ios": "https://dc.lft.to/lastmile_qr_scan", "android": "https://dc.lft.to/lastmile_qr_scan"}, "fusion_lon": 0.0, "lat": 38.896691833333335, "is_disabled": 0, "bike_id": "79d0f188346a4c944464343628db5db4", "fusion_lat": 0.0, "is_reserved": 0, "lon": -77.054682}, {"type": "electric_scooter", "name": "c79251023fe618975c02f554cc40026a", "rental_uris": {"ios": "https://dc.lft.to/lastmile_qr_scan", "android": "https://dc.lft.to/lastmile_qr_scan"}, "fusion_lon": 0.0, "lat": 38.900331666666666, "is_disabled": 0, "bike_id": "c79251023fe618975c02f554cc40026a", "fusion_lat": 0.0, "is_reserved": 0, "lon": -77.010327}, {"type": "electric_scooter", "name": "70bb77341f983f1f73f2b10a8f8c7a02", "rental_uris": {"ios": "https://dc.lft.to/lastmile_qr_scan", "android": "https://dc.lft.to/lastmile_qr_scan"}, "fusion_lon": 0.0, "lat": 38.90414, "is_disabled": 0, "bike_id": "70bb77341f983f1f73f2b10a8f8c7a02", "fusion_lat": 0.0, "is_reserved": 0, "lon": -77.05331766666667}, {"type": "electric_scooter", "name": "ac3e9e81bc4b3dc96a9ffa263eeece7d", "rental_uris": {"ios": "https://dc.lft.to/lastmile_qr_scan", "android": "https://dc.lft.to/lastmile_qr_scan"}, "fusion_lon": 0.0, "lat": 38.911085, "is_disabled": 0, "bike_id": "ac3e9e81bc4b3dc96a9ffa263eeece7d", "fusion_lat": 0.0, "is_reserved": 0, "lon": -77.00403233333333}, {"type": "electric_scooter", "name": "29b2e1137dc115ff2150f9ef338c0de2", "rental_uris": {"ios": "https://dc.lft.to/lastmile_qr_scan", "android": "https://dc.lft.to/lastmile_qr_scan"}, "fusion_lon": 0.0, "lat": 38.907901833333334, "is_disabled": 0, "bike_id": "29b2e1137dc115ff2150f9ef338c0de2", "fusion_lat": 0.0, "is_reserved": 0, "lon": -76.99433116666667}, {"type": "electric_scooter", "name": "ce952e7dd0e7a3664f663b4b05bc36c7", "rental_uris": {"ios": "https://dc.lft.to/lastmile_qr_scan", "android": "https://dc.lft.to/lastmile_qr_scan"}, "fusion_lon": 0.0, "lat": 38.9353465, "is_disabled": 0, "bike_id": "ce952e7dd0e7a3664f663b4b05bc36c7", "fusion_lat": 0.0, "is_reserved": 0, "lon": -77.02348616666667}, {"type": "electric_scooter", "name": "be25f6e77d9e3547830eedac971b29b7", "rental_uris": {"ios": "https://dc.lft.to/lastmile_qr_scan", "android": "https://dc.lft.to/lastmile_qr_scan"}, "fusion_lon": 0.0, "lat": 38.89822433333333, "is_disabled": 0, "bike_id": "be25f6e77d9e3547830eedac971b29b7", "fusion_lat": 0.0, "is_reserved": 0, "lon": -77.03329166666667}, {"type": "electric_scooter", "name": "67d85156b1493fff13bce62348db86a2", "rental_uris": {"ios": "https://dc.lft.to/lastmile_qr_scan", "android": "https://dc.lft.to/lastmile_qr_scan"}, "fusion_lon": 0.0, "lat": 38.90149616666667, "is_disabled": 0, "bike_id": "67d85156b1493fff13bce62348db86a2", "fusion_lat": 0.0, "is_reserved": 0, "lon": -76.9902995}, {"type": "electric_scooter", "name": "d91ba4cedf955c0f6e27fb76edbe7828", "rental_uris": {"ios": "https://dc.lft.to/lastmile_qr_scan", "android": "https://dc.lft.to/lastmile_qr_scan"}, "fusion_lon": 0.0, "lat": 38.92338633333333, "is_disabled": 0, "bike_id": "d91ba4cedf955c0f6e27fb76edbe7828", "fusion_lat": 0.0, "is_reserved": 0, "lon": -77.05236683333334}, {"type": "electric_scooter", "name": "07d0745ede7cc33acb2970e156739329", "rental_uris": {"ios": "https://dc.lft.to/lastmile_qr_scan", "android": "https://dc.lft.to/lastmile_qr_scan"}, "fusion_lon": 0.0, "lat": 38.895356, "is_disabled": 0, "bike_id": "07d0745ede7cc33acb2970e156739329", "fusion_lat": 0.0, "is_reserved": 0, "lon": -76.94881966666667}, {"type": "electric_scooter", "name": "50a12fe45d2008867d72ae15bc8cca49", "rental_uris": {"ios": "https://dc.lft.to/lastmile_qr_scan", "android": "https://dc.lft.to/lastmile_qr_scan"}, "fusion_lon": 0.0, "lat": 38.9429635, "is_disabled": 0, "bike_id": "50a12fe45d2008867d72ae15bc8cca49", "fusion_lat": 0.0, "is_reserved": 0, "lon": -77.02944633333334}, {"type": "electric_scooter", "name": "97e0e1a54f19db005f55348eb55766ab", "rental_uris": {"ios": "https://dc.lft.to/lastmile_qr_scan", "android": "https://dc.lft.to/lastmile_qr_scan"}, "fusion_lon": 0.0, "lat": 38.91783366666667, "is_disabled": 0, "bike_id": "97e0e1a54f19db005f55348eb55766ab", "fusion_lat": 0.0, "is_reserved": 0, "lon": -77.02314716666666}, {"type": "electric_scooter", "name": "a965ee5a658c30d01adf568b21303860", "rental_uris": {"ios": "https://dc.lft.to/lastmile_qr_scan", "android": "https://dc.lft.to/lastmile_qr_scan"}, "fusion_lon": 0.0, "lat": 38.92112516666667, "is_disabled": 0, "bike_id": "a965ee5a658c30d01adf568b21303860", "fusion_lat": 0.0, "is_reserved": 0, "lon": -77.00933016666667}, {"type": "electric_scooter", "name": "76630f9e57c8695957f52f2fdb4c67ea", "rental_uris": {"ios": "https://dc.lft.to/lastmile_qr_scan", "android": "https://dc.lft.to/lastmile_qr_scan"}, "fusion_lon": 0.0, "lat": 38.88522116666667, "is_disabled": 0, "bike_id": "76630f9e57c8695957f52f2fdb4c67ea", "fusion_lat": 0.0, "is_reserved": 0, "lon": -76.97706183333334}, {"type": "electric_bike", "name": "feb1320c3012881739fbd0b66ebb9335", "rental_uris": {"ios": "https://dc.lft.to/lastmile_qr_scan", "android": "https://dc.lft.to/lastmile_qr_scan"}, "fusion_lon": 0.0, "lat": 38.90955566666667, "is_disabled": 0, "bike_id": "feb1320c3012881739fbd0b66ebb9335", "fusion_lat": 0.0, "is_reserved": 0, "lon": -77.228907}, {"type": "electric_scooter", "name": "fc8995af6e00d70909a15dda0f126195", "rental_uris": {"ios": "https://dc.lft.to/lastmile_qr_scan", "android": "https://dc.lft.to/lastmile_qr_scan"}, "fusion_lon": 0.0, "lat": 38.89826883333333, "is_disabled": 0, "bike_id": "fc8995af6e00d70909a15dda0f126195", "fusion_lat": 0.0, "is_reserved": 0, "lon": -77.00737333333333}, {"type": "electric_bike", "name": "2881c5c14c0b1ab470f24cf8b4028918", "rental_uris": {"ios": "https://dc.lft.to/lastmile_qr_scan", "android": "https://dc.lft.to/lastmile_qr_scan"}, "fusion_lon": 0.0, "lat": 39.00384016666667, "is_disabled": 0, "bike_id": "2881c5c14c0b1ab470f24cf8b4028918", "fusion_lat": 0.0, "is_reserved": 0, "lon": -77.01287533333333}, {"type": "electric_scooter", "name": "024fed253c0a8114d211e9557acae3ba", "rental_uris": {"ios": "https://dc.lft.to/lastmile_qr_scan", "android": "https://dc.lft.to/lastmile_qr_scan"}, "fusion_lon": 0.0, "lat": 38.944713666666665, "is_disabled": 0, "bike_id": "024fed253c0a8114d211e9557acae3ba", "fusion_lat": 0.0, "is_reserved": 0, "lon": -77.06384833333334}, {"type": "electric_scooter", "name": "0fe89363d308a5418e933fcfed4f7ae8", "rental_uris": {"ios": "https://dc.lft.to/lastmile_qr_scan", "android": "https://dc.lft.to/lastmile_qr_scan"}, "fusion_lon": 0.0, "lat": 38.904505666666665, "is_disabled": 0, "bike_id": "0fe89363d308a5418e933fcfed4f7ae8", "fusion_lat": 0.0, "is_reserved": 0, "lon": -77.02911783333333}, {"type": "electric_scooter", "name": "60f38c1d89ffd2a165fbb7032b43d4c2", "rental_uris": {"ios": "https://dc.lft.to/lastmile_qr_scan", "android": "https://dc.lft.to/lastmile_qr_scan"}, "fusion_lon": 0.0, "lat": 38.9564145, "is_disabled": 0, "bike_id": "60f38c1d89ffd2a165fbb7032b43d4c2", "fusion_lat": 0.0, "is_reserved": 0, "lon": -77.02378516666667}, {"type": "electric_bike", "name": "49a991cdb011e9a2b1f387e940bf2f18", "rental_uris": {"ios": "https://dc.lft.to/lastmile_qr_scan", "android": "https://dc.lft.to/lastmile_qr_scan"}, "fusion_lon": 0.0, "lat": 39.01221483333333, "is_disabled": 0, "bike_id": "49a991cdb011e9a2b1f387e940bf2f18", "fusion_lat": 0.0, "is_reserved": 0, "lon": -77.11071216666667}, {"type": "electric_scooter", "name": "320da79da287585d8144b1a8759b8b14", "rental_uris": {"ios": "https://dc.lft.to/lastmile_qr_scan", "android": "https://dc.lft.to/lastmile_qr_scan"}, "fusion_lon": 0.0, "lat": 38.91175533333333, "is_disabled": 0, "bike_id": "320da79da287585d8144b1a8759b8b14", "fusion_lat": 0.0, "is_reserved": 0, "lon": -77.01136733333334}, {"type": "electric_scooter", "name": "503d8262641a0b4d818a08ea3cbba806", "rental_uris": {"ios": "https://dc.lft.to/lastmile_qr_scan", "android": "https://dc.lft.to/lastmile_qr_scan"}, "fusion_lon": 0.0, "lat": 38.884739833333335, "is_disabled": 0, "bike_id": "503d8262641a0b4d818a08ea3cbba806", "fusion_lat": 0.0, "is_reserved": 0, "lon": -77.01531833333334}, {"type": "electric_scooter", "name": "5def97fc6601c8bba651ba7a48b0452f", "rental_uris": {"ios": "https://dc.lft.to/lastmile_qr_scan", "android": "https://dc.lft.to/lastmile_qr_scan"}, "fusion_lon": 0.0, "lat": 38.909245166666665, "is_disabled": 0, "bike_id": "5def97fc6601c8bba651ba7a48b0452f", "fusion_lat": 0.0, "is_reserved": 0, "lon": -77.03204316666667}, {"type": "electric_scooter", "name": "5080cb9c267c603057cb47d63997b014", "rental_uris": {"ios": "https://dc.lft.to/lastmile_qr_scan", "android": "https://dc.lft.to/lastmile_qr_scan"}, "fusion_lon": 0.0, "lat": 38.912804333333334, "is_disabled": 0, "bike_id": "5080cb9c267c603057cb47d63997b014", "fusion_lat": 0.0, "is_reserved": 0, "lon": -76.98461416666666}, {"type": "electric_scooter", "name": "2c6e17f8a12863aefd060ec871271e8e", "rental_uris": {"ios": "https://dc.lft.to/lastmile_qr_scan", "android": "https://dc.lft.to/lastmile_qr_scan"}, "fusion_lon": 0.0, "lat": 38.923721, "is_disabled": 0, "bike_id": "2c6e17f8a12863aefd060ec871271e8e", "fusion_lat": 0.0, "is_reserved": 0, "lon": -77.01906916666667}, {"type": "electric_scooter", "name": "485627f79dd65bec6a16c7158e5c2a6d", "rental_uris": {"ios": "https://dc.lft.to/lastmile_qr_scan", "android": "https://dc.lft.to/lastmile_qr_scan"}, "fusion_lon": 0.0, "lat": 38.92363733333333, "is_disabled": 0, "bike_id": "485627f79dd65bec6a16c7158e5c2a6d", "fusion_lat": 0.0, "is_reserved": 0, "lon": -77.05030383333333}, {"type": "electric_scooter", "name": "686e9d274db70e97e62966f8a6ad549f", "rental_uris": {"ios": "https://dc.lft.to/lastmile_qr_scan", "android": "https://dc.lft.to/lastmile_qr_scan"}, "fusion_lon": 0.0, "lat": 38.919375333333335, "is_disabled": 0, "bike_id": "686e9d274db70e97e62966f8a6ad549f", "fusion_lat": 0.0, "is_reserved": 0, "lon": -77.020722}, {"type": "electric_scooter", "name": "35bc93cc1763f8479f4a9c92eee9f636", "rental_uris": {"ios": "https://dc.lft.to/lastmile_qr_scan", "android": "https://dc.lft.to/lastmile_qr_scan"}, "fusion_lon": 0.0, "lat": 38.88491716666667, "is_disabled": 0, "bike_id": "35bc93cc1763f8479f4a9c92eee9f636", "fusion_lat": 0.0, "is_reserved": 0, "lon": -77.0108415}, {"type": "electric_scooter", "name": "4bd11c5f9984a6a7873879a1d8fc6f4a", "rental_uris": {"ios": "https://dc.lft.to/lastmile_qr_scan", "android": "https://dc.lft.to/lastmile_qr_scan"}, "fusion_lon": 0.0, "lat": 38.90362533333333, "is_disabled": 0, "bike_id": "4bd11c5f9984a6a7873879a1d8fc6f4a", "fusion_lat": 0.0, "is_reserved": 0, "lon": -77.00345333333334}, {"type": "electric_scooter", "name": "6b156da7d0ba71abbf9e87e400cdd27c", "rental_uris": {"ios": "https://dc.lft.to/lastmile_qr_scan", "android": "https://dc.lft.to/lastmile_qr_scan"}, "fusion_lon": 0.0, "lat": 38.908657833333336, "is_disabled": 0, "bike_id": "6b156da7d0ba71abbf9e87e400cdd27c", "fusion_lat": 0.0, "is_reserved": 0, "lon": -76.93337166666667}, {"type": "electric_scooter", "name": "e929fc5398e8e830d0f95f3b0f69eb5f", "rental_uris": {"ios": "https://dc.lft.to/lastmile_qr_scan", "android": "https://dc.lft.to/lastmile_qr_scan"}, "fusion_lon": 0.0, "lat": 38.90785983333333, "is_disabled": 0, "bike_id": "e929fc5398e8e830d0f95f3b0f69eb5f", "fusion_lat": 0.0, "is_reserved": 0, "lon": -76.99427783333333}, {"type": "electric_scooter", "name": "cec4f640e0a197e5f9cd3c29d1d9bb47", "rental_uris": {"ios": "https://dc.lft.to/lastmile_qr_scan", "android": "https://dc.lft.to/lastmile_qr_scan"}, "fusion_lon": 0.0, "lat": 38.91175483333333, "is_disabled": 0, "bike_id": "cec4f640e0a197e5f9cd3c29d1d9bb47", "fusion_lat": 0.0, "is_reserved": 0, "lon": -77.06091716666667}, {"type": "electric_scooter", "name": "322bb71399c29727b25f52ae7054e472", "rental_uris": {"ios": "https://dc.lft.to/lastmile_qr_scan", "android": "https://dc.lft.to/lastmile_qr_scan"}, "fusion_lon": 0.0, "lat": 38.92144016666666, "is_disabled": 0, "bike_id": "322bb71399c29727b25f52ae7054e472", "fusion_lat": 0.0, "is_reserved": 0, "lon": -77.03496633333333}, {"type": "electric_scooter", "name": "e934a3913bb702b2e9a6f23126651ff0", "rental_uris": {"ios": "https://dc.lft.to/lastmile_qr_scan", "android": "https://dc.lft.to/lastmile_qr_scan"}, "fusion_lon": 0.0, "lat": 38.90639783333334, "is_disabled": 0, "bike_id": "e934a3913bb702b2e9a6f23126651ff0", "fusion_lat": 0.0, "is_reserved": 0, "lon": -77.035767}, {"type": "electric_scooter", "name": "b8641ce76222dcc5dd2a11dbeb8d2f3a", "rental_uris": {"ios": "https://dc.lft.to/lastmile_qr_scan", "android": "https://dc.lft.to/lastmile_qr_scan"}, "fusion_lon": 0.0, "lat": 38.944635166666664, "is_disabled": 0, "bike_id": "b8641ce76222dcc5dd2a11dbeb8d2f3a", "fusion_lat": 0.0, "is_reserved": 0, "lon": -77.00657233333334}, {"type": "electric_scooter", "name": "2df50705932ffa128bb76cd42dc8b560", "rental_uris": {"ios": "https://dc.lft.to/lastmile_qr_scan", "android": "https://dc.lft.to/lastmile_qr_scan"}, "fusion_lon": 0.0, "lat": 38.88518033333333, "is_disabled": 0, "bike_id": "2df50705932ffa128bb76cd42dc8b560", "fusion_lat": 0.0, "is_reserved": 0, "lon": -77.01517983333333}, {"type": "electric_scooter", "name": "a1bf0af2a638a50a5a11a486d29fe12d", "rental_uris": {"ios": "https://dc.lft.to/lastmile_qr_scan", "android": "https://dc.lft.to/lastmile_qr_scan"}, "fusion_lon": 0.0, "lat": 38.93633583333333, "is_disabled": 0, "bike_id": "a1bf0af2a638a50a5a11a486d29fe12d", "fusion_lat": 0.0, "is_reserved": 0, "lon": -77.0366}, {"type": "electric_scooter", "name": "e89c889c45b62df8b20f3cf017bc7ca3", "rental_uris": {"ios": "https://dc.lft.to/lastmile_qr_scan", "android": "https://dc.lft.to/lastmile_qr_scan"}, "fusion_lon": 0.0, "lat": 38.916979, "is_disabled": 0, "bike_id": "e89c889c45b62df8b20f3cf017bc7ca3", "fusion_lat": 0.0, "is_reserved": 0, "lon": -77.03070433333333}, {"type": "electric_scooter", "name": "b7886810fc433464724820328ff9666a", "rental_uris": {"ios": "https://dc.lft.to/lastmile_qr_scan", "android": "https://dc.lft.to/lastmile_qr_scan"}, "fusion_lon": 0.0, "lat": 38.9277025, "is_disabled": 0, "bike_id": "b7886810fc433464724820328ff9666a", "fusion_lat": 0.0, "is_reserved": 0, "lon": -77.02677916666667}, {"type": "electric_scooter", "name": "9cecf320d665cf28a613d952776b7d01", "rental_uris": {"ios": "https://dc.lft.to/lastmile_qr_scan", "android": "https://dc.lft.to/lastmile_qr_scan"}, "fusion_lon": 0.0, "lat": 38.9015295, "is_disabled": 0, "bike_id": "9cecf320d665cf28a613d952776b7d01", "fusion_lat": 0.0, "is_reserved": 0, "lon": -77.03571883333333}, {"type": "electric_scooter", "name": "d8ccd4d290a3fb2e6cfc7e5e5cef4370", "rental_uris": {"ios": "https://dc.lft.to/lastmile_qr_scan", "android": "https://dc.lft.to/lastmile_qr_scan"}, "fusion_lon": 0.0, "lat": 38.921631166666664, "is_disabled": 0, "bike_id": "d8ccd4d290a3fb2e6cfc7e5e5cef4370", "fusion_lat": 0.0, "is_reserved": 0, "lon": -77.03380383333334}, {"type": "electric_scooter", "name": "1dc9b377669741ae0ff804b3a3804dde", "rental_uris": {"ios": "https://dc.lft.to/lastmile_qr_scan", "android": "https://dc.lft.to/lastmile_qr_scan"}, "fusion_lon": 0.0, "lat": 38.905709333333334, "is_disabled": 0, "bike_id": "1dc9b377669741ae0ff804b3a3804dde", "fusion_lat": 0.0, "is_reserved": 0, "lon": -77.02420366666666}, {"type": "electric_scooter", "name": "e14cbf57c107ce8cb8c73e432bc39eef", "rental_uris": {"ios": "https://dc.lft.to/lastmile_qr_scan", "android": "https://dc.lft.to/lastmile_qr_scan"}, "fusion_lon": 0.0, "lat": 38.91704, "is_disabled": 0, "bike_id": "e14cbf57c107ce8cb8c73e432bc39eef", "fusion_lat": 0.0, "is_reserved": 0, "lon": -77.04149666666666}, {"type": "electric_scooter", "name": "b6766d0611e48139d17a01204ee440d8", "rental_uris": {"ios": "https://dc.lft.to/lastmile_qr_scan", "android": "https://dc.lft.to/lastmile_qr_scan"}, "fusion_lon": 0.0, "lat": 38.913606333333334, "is_disabled": 0, "bike_id": "b6766d0611e48139d17a01204ee440d8", "fusion_lat": 0.0, "is_reserved": 0, "lon": -77.03439616666667}, {"type": "electric_bike", "name": "3a5fdaf0d03b507b272f3cbc9fd0e3a8", "rental_uris": {"ios": "https://dc.lft.to/lastmile_qr_scan", "android": "https://dc.lft.to/lastmile_qr_scan"}, "fusion_lon": 0.0, "lat": 38.81332283333333, "is_disabled": 0, "bike_id": "3a5fdaf0d03b507b272f3cbc9fd0e3a8", "fusion_lat": 0.0, "is_reserved": 0, "lon": -77.05094983333333}, {"type": "electric_bike", "name": "e38676678c791db9e0a7242fffcb8d07", "rental_uris": {"ios": "https://dc.lft.to/lastmile_qr_scan", "android": "https://dc.lft.to/lastmile_qr_scan"}, "fusion_lon": 0.0, "lat": 38.931928166666665, "is_disabled": 0, "bike_id": "e38676678c791db9e0a7242fffcb8d07", "fusion_lat": 0.0, "is_reserved": 0, "lon": -77.2293045}, {"type": "electric_bike", "name": "a0e03bcc38201efb1c0a601d4073feda", "rental_uris": {"ios": "https://dc.lft.to/lastmile_qr_scan", "android": "https://dc.lft.to/lastmile_qr_scan"}, "fusion_lon": 0.0, "lat": 38.8498945, "is_disabled": 0, "bike_id": "a0e03bcc38201efb1c0a601d4073feda", "fusion_lat": 0.0, "is_reserved": 0, "lon": -77.097618}, {"type": "electric_scooter", "name": "8df6267dbeffceefa2b603e50158eb92", "rental_uris": {"ios": "https://dc.lft.to/lastmile_qr_scan", "android": "https://dc.lft.to/lastmile_qr_scan"}, "fusion_lon": 0.0, "lat": 38.90083416666667, "is_disabled": 0, "bike_id": "8df6267dbeffceefa2b603e50158eb92", "fusion_lat": 0.0, "is_reserved": 0, "lon": -76.983393}, {"type": "electric_scooter", "name": "71b850b5c5bf457e5da4738646f37d82", "rental_uris": {"ios": "https://dc.lft.to/lastmile_qr_scan", "android": "https://dc.lft.to/lastmile_qr_scan"}, "fusion_lon": 0.0, "lat": 38.91919266666667, "is_disabled": 0, "bike_id": "71b850b5c5bf457e5da4738646f37d82", "fusion_lat": 0.0, "is_reserved": 0, "lon": -77.03178416666667}, {"type": "electric_scooter", "name": "fafad9965ccfd9e4d39d89b8160a7213", "rental_uris": {"ios": "https://dc.lft.to/lastmile_qr_scan", "android": "https://dc.lft.to/lastmile_qr_scan"}, "fusion_lon": 0.0, "lat": 38.88363316666667, "is_disabled": 0, "bike_id": "fafad9965ccfd9e4d39d89b8160a7213", "fusion_lat": 0.0, "is_reserved": 0, "lon": -77.0198835}, {"type": "electric_scooter", "name": "6ae47668920addd83d5fabcd152191d0", "rental_uris": {"ios": "https://dc.lft.to/lastmile_qr_scan", "android": "https://dc.lft.to/lastmile_qr_scan"}, "fusion_lon": 0.0, "lat": 38.92711333333333, "is_disabled": 0, "bike_id": "6ae47668920addd83d5fabcd152191d0", "fusion_lat": 0.0, "is_reserved": 0, "lon": -77.01594233333333}, {"type": "electric_scooter", "name": "29b066b6a2327c673e6cc90b365ab7c1", "rental_uris": {"ios": "https://dc.lft.to/lastmile_qr_scan", "android": "https://dc.lft.to/lastmile_qr_scan"}, "fusion_lon": 0.0, "lat": 38.88295466666667, "is_disabled": 0, "bike_id": "29b066b6a2327c673e6cc90b365ab7c1", "fusion_lat": 0.0, "is_reserved": 0, "lon": -77.02482216666667}, {"type": "electric_scooter", "name": "a4bddaae7d1ebeaaed19214788338db7", "rental_uris": {"ios": "https://dc.lft.to/lastmile_qr_scan", "android": "https://dc.lft.to/lastmile_qr_scan"}, "fusion_lon": 0.0, "lat": 38.91712483333333, "is_disabled": 0, "bike_id": "a4bddaae7d1ebeaaed19214788338db7", "fusion_lat": 0.0, "is_reserved": 0, "lon": -77.02887733333333}, {"type": "electric_scooter", "name": "cd81320bba16f23737a8fc263803bb46", "rental_uris": {"ios": "https://dc.lft.to/lastmile_qr_scan", "android": "https://dc.lft.to/lastmile_qr_scan"}, "fusion_lon": 0.0, "lat": 38.898524333333334, "is_disabled": 0, "bike_id": "cd81320bba16f23737a8fc263803bb46", "fusion_lat": 0.0, "is_reserved": 0, "lon": -76.99033966666667}, {"type": "electric_scooter", "name": "cbe33e21cb61bf2d5e9a148c945f5c06", "rental_uris": {"ios": "https://dc.lft.to/lastmile_qr_scan", "android": "https://dc.lft.to/lastmile_qr_scan"}, "fusion_lon": 0.0, "lat": 38.9286, "is_disabled": 0, "bike_id": "cbe33e21cb61bf2d5e9a148c945f5c06", "fusion_lat": 0.0, "is_reserved": 0, "lon": -77.0351885}, {"type": "electric_scooter", "name": "648bd6d3244586f8947eb4227c1550ee", "rental_uris": {"ios": "https://dc.lft.to/lastmile_qr_scan", "android": "https://dc.lft.to/lastmile_qr_scan"}, "fusion_lon": 0.0, "lat": 38.9153205, "is_disabled": 0, "bike_id": "648bd6d3244586f8947eb4227c1550ee", "fusion_lat": 0.0, "is_reserved": 0, "lon": -77.01225333333333}, {"type": "electric_scooter", "name": "bdc9e3eef7e3dcfd271bcdc74a2604b5", "rental_uris": {"ios": "https://dc.lft.to/lastmile_qr_scan", "android": "https://dc.lft.to/lastmile_qr_scan"}, "fusion_lon": 0.0, "lat": 38.938737833333334, "is_disabled": 0, "bike_id": "bdc9e3eef7e3dcfd271bcdc74a2604b5", "fusion_lat": 0.0, "is_reserved": 0, "lon": -77.0246515}, {"type": "electric_scooter", "name": "27a16951abecde81b5e9e1f375bb05f6", "rental_uris": {"ios": "https://dc.lft.to/lastmile_qr_scan", "android": "https://dc.lft.to/lastmile_qr_scan"}, "fusion_lon": 0.0, "lat": 38.85713916666667, "is_disabled": 0, "bike_id": "27a16951abecde81b5e9e1f375bb05f6", "fusion_lat": 0.0, "is_reserved": 0, "lon": -76.99594116666667}, {"type": "electric_scooter", "name": "f091e9ea499a24256539f2c6312df080", "rental_uris": {"ios": "https://dc.lft.to/lastmile_qr_scan", "android": "https://dc.lft.to/lastmile_qr_scan"}, "fusion_lon": 0.0, "lat": 38.9361615, "is_disabled": 0, "bike_id": "f091e9ea499a24256539f2c6312df080", "fusion_lat": 0.0, "is_reserved": 0, "lon": -77.037942}, {"type": "electric_scooter", "name": "62c93ccb9194dd043895918df81e3b5b", "rental_uris": {"ios": "https://dc.lft.to/lastmile_qr_scan", "android": "https://dc.lft.to/lastmile_qr_scan"}, "fusion_lon": 0.0, "lat": 38.89797766666667, "is_disabled": 0, "bike_id": "62c93ccb9194dd043895918df81e3b5b", "fusion_lat": 0.0, "is_reserved": 0, "lon": -77.02712066666666}, {"type": "electric_scooter", "name": "d7cf6d3a1ae29c5683bf5a96123115f7", "rental_uris": {"ios": "https://dc.lft.to/lastmile_qr_scan", "android": "https://dc.lft.to/lastmile_qr_scan"}, "fusion_lon": 0.0, "lat": 38.9039735, "is_disabled": 0, "bike_id": "d7cf6d3a1ae29c5683bf5a96123115f7", "fusion_lat": 0.0, "is_reserved": 0, "lon": -76.9846405}, {"type": "electric_scooter", "name": "df97b5764c30ece2075c373a370377cb", "rental_uris": {"ios": "https://dc.lft.to/lastmile_qr_scan", "android": "https://dc.lft.to/lastmile_qr_scan"}, "fusion_lon": 0.0, "lat": 38.91985583333334, "is_disabled": 0, "bike_id": "df97b5764c30ece2075c373a370377cb", "fusion_lat": 0.0, "is_reserved": 0, "lon": -76.97310483333334}, {"type": "electric_scooter", "name": "7f7461d887e965c8dbb1aed0aa119e2c", "rental_uris": {"ios": "https://dc.lft.to/lastmile_qr_scan", "android": "https://dc.lft.to/lastmile_qr_scan"}, "fusion_lon": 0.0, "lat": 38.924303, "is_disabled": 0, "bike_id": "7f7461d887e965c8dbb1aed0aa119e2c", "fusion_lat": 0.0, "is_reserved": 0, "lon": -77.04246666666667}, {"type": "electric_scooter", "name": "a3fcc1d95c9db2b946e11182ffab4369", "rental_uris": {"ios": "https://dc.lft.to/lastmile_qr_scan", "android": "https://dc.lft.to/lastmile_qr_scan"}, "fusion_lon": 0.0, "lat": 38.921390833333334, "is_disabled": 0, "bike_id": "a3fcc1d95c9db2b946e11182ffab4369", "fusion_lat": 0.0, "is_reserved": 0, "lon": -77.019274}, {"type": "electric_scooter", "name": "6f7e5d1cd7b55777df873b1b67b1d453", "rental_uris": {"ios": "https://dc.lft.to/lastmile_qr_scan", "android": "https://dc.lft.to/lastmile_qr_scan"}, "fusion_lon": 0.0, "lat": 38.904226666666666, "is_disabled": 0, "bike_id": "6f7e5d1cd7b55777df873b1b67b1d453", "fusion_lat": 0.0, "is_reserved": 0, "lon": -77.0436665}, {"type": "electric_scooter", "name": "30a5931b84fb3b98576abadbcb6b9cba", "rental_uris": {"ios": "https://dc.lft.to/lastmile_qr_scan", "android": "https://dc.lft.to/lastmile_qr_scan"}, "fusion_lon": 0.0, "lat": 38.919883666666664, "is_disabled": 0, "bike_id": "30a5931b84fb3b98576abadbcb6b9cba", "fusion_lat": 0.0, "is_reserved": 0, "lon": -77.01797616666667}, {"type": "electric_scooter", "name": "0820ea78f8e95f93a08e2ab0c18eab11", "rental_uris": {"ios": "https://dc.lft.to/lastmile_qr_scan", "android": "https://dc.lft.to/lastmile_qr_scan"}, "fusion_lon": 0.0, "lat": 38.8817525, "is_disabled": 0, "bike_id": "0820ea78f8e95f93a08e2ab0c18eab11", "fusion_lat": 0.0, "is_reserved": 0, "lon": -76.959}, {"type": "electric_scooter", "name": "0dbe26b6d32ec82602d12a16bc4b57fd", "rental_uris": {"ios": "https://dc.lft.to/lastmile_qr_scan", "android": "https://dc.lft.to/lastmile_qr_scan"}, "fusion_lon": 0.0, "lat": 38.931794333333336, "is_disabled": 0, "bike_id": "0dbe26b6d32ec82602d12a16bc4b57fd", "fusion_lat": 0.0, "is_reserved": 0, "lon": -77.04308966666666}, {"type": "electric_scooter", "name": "76f8527ea180d99b885cf91c58fa4493", "rental_uris": {"ios": "https://dc.lft.to/lastmile_qr_scan", "android": "https://dc.lft.to/lastmile_qr_scan"}, "fusion_lon": 0.0, "lat": 38.918059, "is_disabled": 0, "bike_id": "76f8527ea180d99b885cf91c58fa4493", "fusion_lat": 0.0, "is_reserved": 0, "lon": -77.02820316666667}, {"type": "electric_scooter", "name": "e3e37a0fa3bfe0d0c433f1fddad8475e", "rental_uris": {"ios": "https://dc.lft.to/lastmile_qr_scan", "android": "https://dc.lft.to/lastmile_qr_scan"}, "fusion_lon": 0.0, "lat": 38.92727466666667, "is_disabled": 0, "bike_id": "e3e37a0fa3bfe0d0c433f1fddad8475e", "fusion_lat": 0.0, "is_reserved": 0, "lon": -77.03686783333333}, {"type": "electric_scooter", "name": "3a3095c9d91334f5c745dafd3384c90d", "rental_uris": {"ios": "https://dc.lft.to/lastmile_qr_scan", "android": "https://dc.lft.to/lastmile_qr_scan"}, "fusion_lon": 0.0, "lat": 38.92824566666667, "is_disabled": 0, "bike_id": "3a3095c9d91334f5c745dafd3384c90d", "fusion_lat": 0.0, "is_reserved": 0, "lon": -77.0543825}, {"type": "electric_scooter", "name": "7aae0e1af48d9f1c7c8e0a8f707663f7", "rental_uris": {"ios": "https://dc.lft.to/lastmile_qr_scan", "android": "https://dc.lft.to/lastmile_qr_scan"}, "fusion_lon": 0.0, "lat": 38.9125275, "is_disabled": 0, "bike_id": "7aae0e1af48d9f1c7c8e0a8f707663f7", "fusion_lat": 0.0, "is_reserved": 0, "lon": -77.0383355}, {"type": "electric_scooter", "name": "66f3222660d30bffdce06f16337faf95", "rental_uris": {"ios": "https://dc.lft.to/lastmile_qr_scan", "android": "https://dc.lft.to/lastmile_qr_scan"}, "fusion_lon": 0.0, "lat": 38.9057615, "is_disabled": 0, "bike_id": "66f3222660d30bffdce06f16337faf95", "fusion_lat": 0.0, "is_reserved": 0, "lon": -76.98433533333333}, {"type": "electric_scooter", "name": "6bcbf1c0d3d128d4796b607bf8148386", "rental_uris": {"ios": "https://dc.lft.to/lastmile_qr_scan", "android": "https://dc.lft.to/lastmile_qr_scan"}, "fusion_lon": 0.0, "lat": 38.89832666666667, "is_disabled": 0, "bike_id": "6bcbf1c0d3d128d4796b607bf8148386", "fusion_lat": 0.0, "is_reserved": 0, "lon": -77.03164583333333}, {"type": "electric_bike", "name": "c5b49d871536f1d0b0e5aac6eb0c688f", "rental_uris": {"ios": "https://dc.lft.to/lastmile_qr_scan", "android": "https://dc.lft.to/lastmile_qr_scan"}, "fusion_lon": 0.0, "lat": 38.880023, "is_disabled": 0, "bike_id": "c5b49d871536f1d0b0e5aac6eb0c688f", "fusion_lat": 0.0, "is_reserved": 0, "lon": -77.107713}, {"type": "electric_scooter", "name": "a9fc558e4106278bcf8b3a03f2f1fbb9", "rental_uris": {"ios": "https://dc.lft.to/lastmile_qr_scan", "android": "https://dc.lft.to/lastmile_qr_scan"}, "fusion_lon": 0.0, "lat": 38.917782833333334, "is_disabled": 0, "bike_id": "a9fc558e4106278bcf8b3a03f2f1fbb9", "fusion_lat": 0.0, "is_reserved": 0, "lon": -77.041003}, {"type": "electric_scooter", "name": "172322a9c20e9110f133e1e2948ecedb", "rental_uris": {"ios": "https://dc.lft.to/lastmile_qr_scan", "android": "https://dc.lft.to/lastmile_qr_scan"}, "fusion_lon": 0.0, "lat": 38.876581, "is_disabled": 0, "bike_id": "172322a9c20e9110f133e1e2948ecedb", "fusion_lat": 0.0, "is_reserved": 0, "lon": -77.01715266666666}, {"type": "electric_bike", "name": "ce01293513ada69a94cb70c99548560d", "rental_uris": {"ios": "https://dc.lft.to/lastmile_qr_scan", "android": "https://dc.lft.to/lastmile_qr_scan"}, "fusion_lon": 0.0, "lat": 38.92453483333333, "is_disabled": 0, "bike_id": "ce01293513ada69a94cb70c99548560d", "fusion_lat": 0.0, "is_reserved": 0, "lon": -77.06734133333333}, {"type": "electric_scooter", "name": "eaa59950d6f673e61e9f5c8626522989", "rental_uris": {"ios": "https://dc.lft.to/lastmile_qr_scan", "android": "https://dc.lft.to/lastmile_qr_scan"}, "fusion_lon": 0.0, "lat": 38.88733533333333, "is_disabled": 0, "bike_id": "eaa59950d6f673e61e9f5c8626522989", "fusion_lat": 0.0, "is_reserved": 0, "lon": -77.02579483333334}, {"type": "electric_scooter", "name": "56e1609575c9ec588dc60a602455223e", "rental_uris": {"ios": "https://dc.lft.to/lastmile_qr_scan", "android": "https://dc.lft.to/lastmile_qr_scan"}, "fusion_lon": 0.0, "lat": 38.88325866666667, "is_disabled": 0, "bike_id": "56e1609575c9ec588dc60a602455223e", "fusion_lat": 0.0, "is_reserved": 0, "lon": -77.01782283333333}, {"type": "electric_scooter", "name": "bca0286b125c98e9f006ca3382f8ffb8", "rental_uris": {"ios": "https://dc.lft.to/lastmile_qr_scan", "android": "https://dc.lft.to/lastmile_qr_scan"}, "fusion_lon": 0.0, "lat": 38.91064, "is_disabled": 0, "bike_id": "bca0286b125c98e9f006ca3382f8ffb8", "fusion_lat": 0.0, "is_reserved": 0, "lon": -77.0529245}, {"type": "electric_scooter", "name": "525f52d045c204d1a1c9684f215494dd", "rental_uris": {"ios": "https://dc.lft.to/lastmile_qr_scan", "android": "https://dc.lft.to/lastmile_qr_scan"}, "fusion_lon": 0.0, "lat": 38.921155166666665, "is_disabled": 0, "bike_id": "525f52d045c204d1a1c9684f215494dd", "fusion_lat": 0.0, "is_reserved": 0, "lon": -77.04687383333334}, {"type": "electric_scooter", "name": "28ed11cf1982764a923056dafa13e89d", "rental_uris": {"ios": "https://dc.lft.to/lastmile_qr_scan", "android": "https://dc.lft.to/lastmile_qr_scan"}, "fusion_lon": 0.0, "lat": 38.89387133333334, "is_disabled": 0, "bike_id": "28ed11cf1982764a923056dafa13e89d", "fusion_lat": 0.0, "is_reserved": 0, "lon": -76.92307366666667}, {"type": "electric_scooter", "name": "ba0c9d64ce2379fc1453cb848a7e8a9e", "rental_uris": {"ios": "https://dc.lft.to/lastmile_qr_scan", "android": "https://dc.lft.to/lastmile_qr_scan"}, "fusion_lon": 0.0, "lat": 38.931068, "is_disabled": 0, "bike_id": "ba0c9d64ce2379fc1453cb848a7e8a9e", "fusion_lat": 0.0, "is_reserved": 0, "lon": -77.02980533333333}, {"type": "electric_scooter", "name": "1c11b176dd5e1bef107d09c1fdbbc755", "rental_uris": {"ios": "https://dc.lft.to/lastmile_qr_scan", "android": "https://dc.lft.to/lastmile_qr_scan"}, "fusion_lon": 0.0, "lat": 38.89860683333333, "is_disabled": 0, "bike_id": "1c11b176dd5e1bef107d09c1fdbbc755", "fusion_lat": 0.0, "is_reserved": 0, "lon": -76.94641}, {"type": "electric_scooter", "name": "b6482839a6a7f946f3bf7b6c2bf2f1b0", "rental_uris": {"ios": "https://dc.lft.to/lastmile_qr_scan", "android": "https://dc.lft.to/lastmile_qr_scan"}, "fusion_lon": 0.0, "lat": 38.86174883333333, "is_disabled": 0, "bike_id": "b6482839a6a7f946f3bf7b6c2bf2f1b0", "fusion_lat": 0.0, "is_reserved": 0, "lon": -76.96910083333333}, {"type": "electric_scooter", "name": "66f155db9f2ece7690940bdad7544c95", "rental_uris": {"ios": "https://dc.lft.to/lastmile_qr_scan", "android": "https://dc.lft.to/lastmile_qr_scan"}, "fusion_lon": 0.0, "lat": 38.93606966666667, "is_disabled": 0, "bike_id": "66f155db9f2ece7690940bdad7544c95", "fusion_lat": 0.0, "is_reserved": 0, "lon": -77.05863183333334}, {"type": "electric_bike", "name": "a79188a4afbdae901a62c08d2fd6a3ba", "rental_uris": {"ios": "https://dc.lft.to/lastmile_qr_scan", "android": "https://dc.lft.to/lastmile_qr_scan"}, "fusion_lon": 0.0, "lat": 39.056375833333334, "is_disabled": 0, "bike_id": "a79188a4afbdae901a62c08d2fd6a3ba", "fusion_lat": 0.0, "is_reserved": 0, "lon": -77.1252675}, {"type": "electric_scooter", "name": "8d5bc4f03617740f195cb92fa78b76b0", "rental_uris": {"ios": "https://dc.lft.to/lastmile_qr_scan", "android": "https://dc.lft.to/lastmile_qr_scan"}, "fusion_lon": 0.0, "lat": 38.90865, "is_disabled": 0, "bike_id": "8d5bc4f03617740f195cb92fa78b76b0", "fusion_lat": 0.0, "is_reserved": 0, "lon": -76.9979415}, {"type": "electric_scooter", "name": "1a2a39aacf64520c01d8b20cd64a165f", "rental_uris": {"ios": "https://dc.lft.to/lastmile_qr_scan", "android": "https://dc.lft.to/lastmile_qr_scan"}, "fusion_lon": 0.0, "lat": 38.9273775, "is_disabled": 0, "bike_id": "1a2a39aacf64520c01d8b20cd64a165f", "fusion_lat": 0.0, "is_reserved": 0, "lon": -77.0230855}, {"type": "electric_scooter", "name": "cdc0f063d2d7389cef82f6e029bc501e", "rental_uris": {"ios": "https://dc.lft.to/lastmile_qr_scan", "android": "https://dc.lft.to/lastmile_qr_scan"}, "fusion_lon": 0.0, "lat": 38.916945, "is_disabled": 0, "bike_id": "cdc0f063d2d7389cef82f6e029bc501e", "fusion_lat": 0.0, "is_reserved": 0, "lon": -77.03124}, {"type": "electric_scooter", "name": "3be20e3a812720d159160bd5fa4ad46b", "rental_uris": {"ios": "https://dc.lft.to/lastmile_qr_scan", "android": "https://dc.lft.to/lastmile_qr_scan"}, "fusion_lon": 0.0, "lat": 38.9337955, "is_disabled": 0, "bike_id": "3be20e3a812720d159160bd5fa4ad46b", "fusion_lat": 0.0, "is_reserved": 0, "lon": -77.02688566666667}, {"type": "electric_scooter", "name": "d91ddbf9d3f0f40e4278cccc9d24d558", "rental_uris": {"ios": "https://dc.lft.to/lastmile_qr_scan", "android": "https://dc.lft.to/lastmile_qr_scan"}, "fusion_lon": 0.0, "lat": 38.949488833333334, "is_disabled": 0, "bike_id": "d91ddbf9d3f0f40e4278cccc9d24d558", "fusion_lat": 0.0, "is_reserved": 0, "lon": -77.023125}, {"type": "electric_scooter", "name": "752875ab615aea15c6d4ceba927ca6be", "rental_uris": {"ios": "https://dc.lft.to/lastmile_qr_scan", "android": "https://dc.lft.to/lastmile_qr_scan"}, "fusion_lon": 0.0, "lat": 38.89860983333333, "is_disabled": 0, "bike_id": "752875ab615aea15c6d4ceba927ca6be", "fusion_lat": 0.0, "is_reserved": 0, "lon": -77.02821133333333}, {"type": "electric_scooter", "name": "efb926197ee118a097314f47f0908fe3", "rental_uris": {"ios": "https://dc.lft.to/lastmile_qr_scan", "android": "https://dc.lft.to/lastmile_qr_scan"}, "fusion_lon": 0.0, "lat": 38.89614, "is_disabled": 0, "bike_id": "efb926197ee118a097314f47f0908fe3", "fusion_lat": 0.0, "is_reserved": 0, "lon": -77.04502466666666}, {"type": "electric_scooter", "name": "545fa1b14f8a976956c7232b5387c4bd", "rental_uris": {"ios": "https://dc.lft.to/lastmile_qr_scan", "android": "https://dc.lft.to/lastmile_qr_scan"}, "fusion_lon": 0.0, "lat": 38.89283066666667, "is_disabled": 0, "bike_id": "545fa1b14f8a976956c7232b5387c4bd", "fusion_lat": 0.0, "is_reserved": 0, "lon": -77.05042633333333}, {"type": "electric_scooter", "name": "6591ef826a38f21b73af25a60f251035", "rental_uris": {"ios": "https://dc.lft.to/lastmile_qr_scan", "android": "https://dc.lft.to/lastmile_qr_scan"}, "fusion_lon": 0.0, "lat": 38.88530033333333, "is_disabled": 0, "bike_id": "6591ef826a38f21b73af25a60f251035", "fusion_lat": 0.0, "is_reserved": 0, "lon": -76.929192}, {"type": "electric_scooter", "name": "dc0b83d84d5b993c303f9f7ae3760780", "rental_uris": {"ios": "https://dc.lft.to/lastmile_qr_scan", "android": "https://dc.lft.to/lastmile_qr_scan"}, "fusion_lon": 0.0, "lat": 38.91733166666667, "is_disabled": 0, "bike_id": "dc0b83d84d5b993c303f9f7ae3760780", "fusion_lat": 0.0, "is_reserved": 0, "lon": -77.02800233333333}, {"type": "electric_scooter", "name": "fedb19b582d4a2c6870e8af6da3214ce", "rental_uris": {"ios": "https://dc.lft.to/lastmile_qr_scan", "android": "https://dc.lft.to/lastmile_qr_scan"}, "fusion_lon": 0.0, "lat": 38.896138666666666, "is_disabled": 0, "bike_id": "fedb19b582d4a2c6870e8af6da3214ce", "fusion_lat": 0.0, "is_reserved": 0, "lon": -77.02603133333334}, {"type": "electric_scooter", "name": "6ef08e24ef8dae7d9e20b4cbcd36e317", "rental_uris": {"ios": "https://dc.lft.to/lastmile_qr_scan", "android": "https://dc.lft.to/lastmile_qr_scan"}, "fusion_lon": 0.0, "lat": 38.91609233333333, "is_disabled": 0, "bike_id": "6ef08e24ef8dae7d9e20b4cbcd36e317", "fusion_lat": 0.0, "is_reserved": 0, "lon": -77.03126566666667}, {"type": "electric_scooter", "name": "53ab5feb65a34fb912045390a9419e36", "rental_uris": {"ios": "https://dc.lft.to/lastmile_qr_scan", "android": "https://dc.lft.to/lastmile_qr_scan"}, "fusion_lon": 0.0, "lat": 38.902604333333336, "is_disabled": 0, "bike_id": "53ab5feb65a34fb912045390a9419e36", "fusion_lat": 0.0, "is_reserved": 0, "lon": -77.0176175}, {"type": "electric_scooter", "name": "c961716b730bbf210453f8894349a9a4", "rental_uris": {"ios": "https://dc.lft.to/lastmile_qr_scan", "android": "https://dc.lft.to/lastmile_qr_scan"}, "fusion_lon": 0.0, "lat": 38.91404, "is_disabled": 0, "bike_id": "c961716b730bbf210453f8894349a9a4", "fusion_lat": 0.0, "is_reserved": 0, "lon": -77.0334485}, {"type": "electric_scooter", "name": "fe37a6f0f77f8128d8aed443b4e5b423", "rental_uris": {"ios": "https://dc.lft.to/lastmile_qr_scan", "android": "https://dc.lft.to/lastmile_qr_scan"}, "fusion_lon": 0.0, "lat": 38.91397333333333, "is_disabled": 0, "bike_id": "fe37a6f0f77f8128d8aed443b4e5b423", "fusion_lat": 0.0, "is_reserved": 0, "lon": -77.04169183333333}, {"type": "electric_bike", "name": "0b335badce35d4912df654675dd88e04", "rental_uris": {"ios": "https://dc.lft.to/lastmile_qr_scan", "android": "https://dc.lft.to/lastmile_qr_scan"}, "fusion_lon": 0.0, "lat": 38.8757915, "is_disabled": 0, "bike_id": "0b335badce35d4912df654675dd88e04", "fusion_lat": 0.0, "is_reserved": 0, "lon": -77.2341375}, {"type": "electric_scooter", "name": "7314a0adf233725061d4f92fadc9b9f6", "rental_uris": {"ios": "https://dc.lft.to/lastmile_qr_scan", "android": "https://dc.lft.to/lastmile_qr_scan"}, "fusion_lon": 0.0, "lat": 38.90729, "is_disabled": 0, "bike_id": "7314a0adf233725061d4f92fadc9b9f6", "fusion_lat": 0.0, "is_reserved": 0, "lon": -77.02372333333334}, {"type": "electric_scooter", "name": "093b326be3f1177f54f1f28bda2b0730", "rental_uris": {"ios": "https://dc.lft.to/lastmile_qr_scan", "android": "https://dc.lft.to/lastmile_qr_scan"}, "fusion_lon": 0.0, "lat": 38.92996216666667, "is_disabled": 0, "bike_id": "093b326be3f1177f54f1f28bda2b0730", "fusion_lat": 0.0, "is_reserved": 0, "lon": -77.03802116666667}, {"type": "electric_bike", "name": "fc31eb49e6023869e3ea5c31ec502fc2", "rental_uris": {"ios": "https://dc.lft.to/lastmile_qr_scan", "android": "https://dc.lft.to/lastmile_qr_scan"}, "fusion_lon": 0.0, "lat": 38.941541666666666, "is_disabled": 0, "bike_id": "fc31eb49e6023869e3ea5c31ec502fc2", "fusion_lat": 0.0, "is_reserved": 0, "lon": -77.002056}, {"type": "electric_scooter", "name": "28415e1bacfb5cbaa0edd95f1a3bcf19", "rental_uris": {"ios": "https://dc.lft.to/lastmile_qr_scan", "android": "https://dc.lft.to/lastmile_qr_scan"}, "fusion_lon": 0.0, "lat": 38.9091755, "is_disabled": 0, "bike_id": "28415e1bacfb5cbaa0edd95f1a3bcf19", "fusion_lat": 0.0, "is_reserved": 0, "lon": -76.9991895}, {"type": "electric_scooter", "name": "6800e2f36f53c42954c5184d85cb887e", "rental_uris": {"ios": "https://dc.lft.to/lastmile_qr_scan", "android": "https://dc.lft.to/lastmile_qr_scan"}, "fusion_lon": 0.0, "lat": 38.92194583333333, "is_disabled": 0, "bike_id": "6800e2f36f53c42954c5184d85cb887e", "fusion_lat": 0.0, "is_reserved": 0, "lon": -77.04127166666666}, {"type": "electric_scooter", "name": "dd14d119594f5b9ea8781a753d40b376", "rental_uris": {"ios": "https://dc.lft.to/lastmile_qr_scan", "android": "https://dc.lft.to/lastmile_qr_scan"}, "fusion_lon": 0.0, "lat": 38.901246666666665, "is_disabled": 0, "bike_id": "dd14d119594f5b9ea8781a753d40b376", "fusion_lat": 0.0, "is_reserved": 0, "lon": -77.03703483333334}, {"type": "electric_scooter", "name": "4ec2aceabdd9dbf4ba0b9b389f27f7dd", "rental_uris": {"ios": "https://dc.lft.to/lastmile_qr_scan", "android": "https://dc.lft.to/lastmile_qr_scan"}, "fusion_lon": 0.0, "lat": 38.97631783333333, "is_disabled": 0, "bike_id": "4ec2aceabdd9dbf4ba0b9b389f27f7dd", "fusion_lat": 0.0, "is_reserved": 0, "lon": -77.01566883333334}, {"type": "electric_scooter", "name": "19d8ef8833987d181720e251bc957cb0", "rental_uris": {"ios": "https://dc.lft.to/lastmile_qr_scan", "android": "https://dc.lft.to/lastmile_qr_scan"}, "fusion_lon": 0.0, "lat": 38.89718583333333, "is_disabled": 0, "bike_id": "19d8ef8833987d181720e251bc957cb0", "fusion_lat": 0.0, "is_reserved": 0, "lon": -77.00798616666667}, {"type": "electric_scooter", "name": "10231d24d15fffa92461165753bb3dd0", "rental_uris": {"ios": "https://dc.lft.to/lastmile_qr_scan", "android": "https://dc.lft.to/lastmile_qr_scan"}, "fusion_lon": 0.0, "lat": 38.865064, "is_disabled": 0, "bike_id": "10231d24d15fffa92461165753bb3dd0", "fusion_lat": 0.0, "is_reserved": 0, "lon": -76.990039}, {"type": "electric_scooter", "name": "f51dabb85c6815cd4d5953d906eac1c5", "rental_uris": {"ios": "https://dc.lft.to/lastmile_qr_scan", "android": "https://dc.lft.to/lastmile_qr_scan"}, "fusion_lon": 0.0, "lat": 38.916836, "is_disabled": 0, "bike_id": "f51dabb85c6815cd4d5953d906eac1c5", "fusion_lat": 0.0, "is_reserved": 0, "lon": -77.0414215}, {"type": "electric_bike", "name": "8b2509c081cb5ec1e97ae4cdbfa5ed64", "rental_uris": {"ios": "https://dc.lft.to/lastmile_qr_scan", "android": "https://dc.lft.to/lastmile_qr_scan"}, "fusion_lon": 0.0, "lat": 38.96534033333333, "is_disabled": 0, "bike_id": "8b2509c081cb5ec1e97ae4cdbfa5ed64", "fusion_lat": 0.0, "is_reserved": 0, "lon": -77.02819966666667}, {"type": "electric_scooter", "name": "bec3ea1efd1229523d7c0a1ebca84067", "rental_uris": {"ios": "https://dc.lft.to/lastmile_qr_scan", "android": "https://dc.lft.to/lastmile_qr_scan"}, "fusion_lon": 0.0, "lat": 38.907254, "is_disabled": 0, "bike_id": "bec3ea1efd1229523d7c0a1ebca84067", "fusion_lat": 0.0, "is_reserved": 0, "lon": -77.029676}, {"type": "electric_scooter", "name": "9f8deaa8ea58f6e181e6e1422e465149", "rental_uris": {"ios": "https://dc.lft.to/lastmile_qr_scan", "android": "https://dc.lft.to/lastmile_qr_scan"}, "fusion_lon": 0.0, "lat": 38.92105516666667, "is_disabled": 0, "bike_id": "9f8deaa8ea58f6e181e6e1422e465149", "fusion_lat": 0.0, "is_reserved": 0, "lon": -77.074721}, {"type": "electric_scooter", "name": "da1a8f2c8b76662b0e9a25d25543579c", "rental_uris": {"ios": "https://dc.lft.to/lastmile_qr_scan", "android": "https://dc.lft.to/lastmile_qr_scan"}, "fusion_lon": 0.0, "lat": 38.88771766666667, "is_disabled": 0, "bike_id": "da1a8f2c8b76662b0e9a25d25543579c", "fusion_lat": 0.0, "is_reserved": 0, "lon": -76.97747216666667}, {"type": "electric_scooter", "name": "4a844df36f2b0c54e1043d1fb058a7d9", "rental_uris": {"ios": "https://dc.lft.to/lastmile_qr_scan", "android": "https://dc.lft.to/lastmile_qr_scan"}, "fusion_lon": 0.0, "lat": 38.93269, "is_disabled": 0, "bike_id": "4a844df36f2b0c54e1043d1fb058a7d9", "fusion_lat": 0.0, "is_reserved": 0, "lon": -77.04540933333334}, {"type": "electric_scooter", "name": "7b96d6e25682c85f6f0deca200099e89", "rental_uris": {"ios": "https://dc.lft.to/lastmile_qr_scan", "android": "https://dc.lft.to/lastmile_qr_scan"}, "fusion_lon": 0.0, "lat": 38.9263345, "is_disabled": 0, "bike_id": "7b96d6e25682c85f6f0deca200099e89", "fusion_lat": 0.0, "is_reserved": 0, "lon": -77.03504183333334}, {"type": "electric_scooter", "name": "94e5fc374978b5b19b5250f1c86281c3", "rental_uris": {"ios": "https://dc.lft.to/lastmile_qr_scan", "android": "https://dc.lft.to/lastmile_qr_scan"}, "fusion_lon": 0.0, "lat": 38.94455033333333, "is_disabled": 0, "bike_id": "94e5fc374978b5b19b5250f1c86281c3", "fusion_lat": 0.0, "is_reserved": 0, "lon": -77.02342516666667}, {"type": "electric_bike", "name": "4430722349216bc599710039fc9b0528", "rental_uris": {"ios": "https://dc.lft.to/lastmile_qr_scan", "android": "https://dc.lft.to/lastmile_qr_scan"}, "fusion_lon": 0.0, "lat": 38.897322333333335, "is_disabled": 0, "bike_id": "4430722349216bc599710039fc9b0528", "fusion_lat": 0.0, "is_reserved": 0, "lon": -76.92046}, {"type": "electric_scooter", "name": "215ca8692b6f7b47fca39235bcdcfb42", "rental_uris": {"ios": "https://dc.lft.to/lastmile_qr_scan", "android": "https://dc.lft.to/lastmile_qr_scan"}, "fusion_lon": 0.0, "lat": 38.956412, "is_disabled": 0, "bike_id": "215ca8692b6f7b47fca39235bcdcfb42", "fusion_lat": 0.0, "is_reserved": 0, "lon": -76.9979755}, {"type": "electric_scooter", "name": "4ca24ba6a6205b0e31b38f5d5dd8dc2c", "rental_uris": {"ios": "https://dc.lft.to/lastmile_qr_scan", "android": "https://dc.lft.to/lastmile_qr_scan"}, "fusion_lon": 0.0, "lat": 38.90375183333333, "is_disabled": 0, "bike_id": "4ca24ba6a6205b0e31b38f5d5dd8dc2c", "fusion_lat": 0.0, "is_reserved": 0, "lon": -77.00736416666666}, {"type": "electric_scooter", "name": "0ff44a1ff32caafa0a7720c8b5013dc3", "rental_uris": {"ios": "https://dc.lft.to/lastmile_qr_scan", "android": "https://dc.lft.to/lastmile_qr_scan"}, "fusion_lon": 0.0, "lat": 38.856497, "is_disabled": 0, "bike_id": "0ff44a1ff32caafa0a7720c8b5013dc3", "fusion_lat": 0.0, "is_reserved": 0, "lon": -76.99677666666666}, {"type": "electric_scooter", "name": "69ef807e6c15fd62af2e2ac98294bffe", "rental_uris": {"ios": "https://dc.lft.to/lastmile_qr_scan", "android": "https://dc.lft.to/lastmile_qr_scan"}, "fusion_lon": 0.0, "lat": 38.9199235, "is_disabled": 0, "bike_id": "69ef807e6c15fd62af2e2ac98294bffe", "fusion_lat": 0.0, "is_reserved": 0, "lon": -77.03221066666667}, {"type": "electric_scooter", "name": "1c184c65369588ca1db1f366d22b6207", "rental_uris": {"ios": "https://dc.lft.to/lastmile_qr_scan", "android": "https://dc.lft.to/lastmile_qr_scan"}, "fusion_lon": 0.0, "lat": 38.95686466666667, "is_disabled": 0, "bike_id": "1c184c65369588ca1db1f366d22b6207", "fusion_lat": 0.0, "is_reserved": 0, "lon": -77.01928216666667}, {"type": "electric_scooter", "name": "538d36e1a29553092c982d9bfbd1aff7", "rental_uris": {"ios": "https://dc.lft.to/lastmile_qr_scan", "android": "https://dc.lft.to/lastmile_qr_scan"}, "fusion_lon": 0.0, "lat": 38.87470966666667, "is_disabled": 0, "bike_id": "538d36e1a29553092c982d9bfbd1aff7", "fusion_lat": 0.0, "is_reserved": 0, "lon": -77.005606}, {"type": "electric_bike", "name": "156d17bf4d92088ff9f1ec9d99bb9b15", "rental_uris": {"ios": "https://dc.lft.to/lastmile_qr_scan", "android": "https://dc.lft.to/lastmile_qr_scan"}, "fusion_lon": 0.0, "lat": 38.98846566666667, "is_disabled": 0, "bike_id": "156d17bf4d92088ff9f1ec9d99bb9b15", "fusion_lat": 0.0, "is_reserved": 0, "lon": -77.00204066666667}, {"type": "electric_scooter", "name": "a70a7aacbb345334e790937cc5d95b81", "rental_uris": {"ios": "https://dc.lft.to/lastmile_qr_scan", "android": "https://dc.lft.to/lastmile_qr_scan"}, "fusion_lon": 0.0, "lat": 38.916317166666666, "is_disabled": 0, "bike_id": "a70a7aacbb345334e790937cc5d95b81", "fusion_lat": 0.0, "is_reserved": 0, "lon": -77.00134633333333}, {"type": "electric_scooter", "name": "798429b7595ebd3f32ccfe3d1d575b87", "rental_uris": {"ios": "https://dc.lft.to/lastmile_qr_scan", "android": "https://dc.lft.to/lastmile_qr_scan"}, "fusion_lon": 0.0, "lat": 38.90112366666666, "is_disabled": 0, "bike_id": "798429b7595ebd3f32ccfe3d1d575b87", "fusion_lat": 0.0, "is_reserved": 0, "lon": -77.04481183333333}, {"type": "electric_scooter", "name": "04199a13fe8216096548ec340071326c", "rental_uris": {"ios": "https://dc.lft.to/lastmile_qr_scan", "android": "https://dc.lft.to/lastmile_qr_scan"}, "fusion_lon": 0.0, "lat": 38.90832, "is_disabled": 0, "bike_id": "04199a13fe8216096548ec340071326c", "fusion_lat": 0.0, "is_reserved": 0, "lon": -77.03207716666667}, {"type": "electric_scooter", "name": "05f80ff77033457ef023bd9dd602055d", "rental_uris": {"ios": "https://dc.lft.to/lastmile_qr_scan", "android": "https://dc.lft.to/lastmile_qr_scan"}, "fusion_lon": 0.0, "lat": 38.90974966666667, "is_disabled": 0, "bike_id": "05f80ff77033457ef023bd9dd602055d", "fusion_lat": 0.0, "is_reserved": 0, "lon": -77.03221833333333}, {"type": "electric_scooter", "name": "4395d2cd2b72563c9fffeb6ef875d885", "rental_uris": {"ios": "https://dc.lft.to/lastmile_qr_scan", "android": "https://dc.lft.to/lastmile_qr_scan"}, "fusion_lon": 0.0, "lat": 38.9312615, "is_disabled": 0, "bike_id": "4395d2cd2b72563c9fffeb6ef875d885", "fusion_lat": 0.0, "is_reserved": 0, "lon": -77.0387895}, {"type": "electric_scooter", "name": "8c5b8e1af7ca33057884f90bea6a4f99", "rental_uris": {"ios": "https://dc.lft.to/lastmile_qr_scan", "android": "https://dc.lft.to/lastmile_qr_scan"}, "fusion_lon": 0.0, "lat": 38.897315, "is_disabled": 0, "bike_id": "8c5b8e1af7ca33057884f90bea6a4f99", "fusion_lat": 0.0, "is_reserved": 0, "lon": -77.00372066666667}, {"type": "electric_scooter", "name": "a5c2e8aeed98653b199b855e41cf029a", "rental_uris": {"ios": "https://dc.lft.to/lastmile_qr_scan", "android": "https://dc.lft.to/lastmile_qr_scan"}, "fusion_lon": 0.0, "lat": 38.917786, "is_disabled": 0, "bike_id": "a5c2e8aeed98653b199b855e41cf029a", "fusion_lat": 0.0, "is_reserved": 0, "lon": -77.02310916666667}, {"type": "electric_scooter", "name": "6cc140de956112edfa59de730e413e90", "rental_uris": {"ios": "https://dc.lft.to/lastmile_qr_scan", "android": "https://dc.lft.to/lastmile_qr_scan"}, "fusion_lon": 0.0, "lat": 38.90624316666667, "is_disabled": 0, "bike_id": "6cc140de956112edfa59de730e413e90", "fusion_lat": 0.0, "is_reserved": 0, "lon": -76.98703766666667}, {"type": "electric_scooter", "name": "d2cf0a291c958e91e3bd6ef442c4fd5e", "rental_uris": {"ios": "https://dc.lft.to/lastmile_qr_scan", "android": "https://dc.lft.to/lastmile_qr_scan"}, "fusion_lon": 0.0, "lat": 38.899051666666665, "is_disabled": 0, "bike_id": "d2cf0a291c958e91e3bd6ef442c4fd5e", "fusion_lat": 0.0, "is_reserved": 0, "lon": -76.9336685}, {"type": "electric_scooter", "name": "24a791be269d458d91aa02d8de0588f4", "rental_uris": {"ios": "https://dc.lft.to/lastmile_qr_scan", "android": "https://dc.lft.to/lastmile_qr_scan"}, "fusion_lon": 0.0, "lat": 38.924538, "is_disabled": 0, "bike_id": "24a791be269d458d91aa02d8de0588f4", "fusion_lat": 0.0, "is_reserved": 0, "lon": -77.0332315}, {"type": "electric_scooter", "name": "39f9bb8f3530d39e2d541832e813be91", "rental_uris": {"ios": "https://dc.lft.to/lastmile_qr_scan", "android": "https://dc.lft.to/lastmile_qr_scan"}, "fusion_lon": 0.0, "lat": 38.934439833333336, "is_disabled": 0, "bike_id": "39f9bb8f3530d39e2d541832e813be91", "fusion_lat": 0.0, "is_reserved": 0, "lon": -77.02982233333333}, {"type": "electric_scooter", "name": "597726944862eacc413a63f59c3ca001", "rental_uris": {"ios": "https://dc.lft.to/lastmile_qr_scan", "android": "https://dc.lft.to/lastmile_qr_scan"}, "fusion_lon": 0.0, "lat": 38.9105175, "is_disabled": 0, "bike_id": "597726944862eacc413a63f59c3ca001", "fusion_lat": 0.0, "is_reserved": 0, "lon": -76.985158}, {"type": "electric_scooter", "name": "2156f9aecfc6ab60a3616d3a7eaf46de", "rental_uris": {"ios": "https://dc.lft.to/lastmile_qr_scan", "android": "https://dc.lft.to/lastmile_qr_scan"}, "fusion_lon": 0.0, "lat": 38.904198666666666, "is_disabled": 0, "bike_id": "2156f9aecfc6ab60a3616d3a7eaf46de", "fusion_lat": 0.0, "is_reserved": 0, "lon": -77.043466}, {"type": "electric_scooter", "name": "d1691a12d743ddd16fa2c57aba5b3fc1", "rental_uris": {"ios": "https://dc.lft.to/lastmile_qr_scan", "android": "https://dc.lft.to/lastmile_qr_scan"}, "fusion_lon": 0.0, "lat": 38.891328333333334, "is_disabled": 0, "bike_id": "d1691a12d743ddd16fa2c57aba5b3fc1", "fusion_lat": 0.0, "is_reserved": 0, "lon": -76.99091383333334}, {"type": "electric_bike", "name": "d1e97c62ebfb0115dc8c7c3ffaf1f2e9", "rental_uris": {"ios": "https://dc.lft.to/lastmile_qr_scan", "android": "https://dc.lft.to/lastmile_qr_scan"}, "fusion_lon": 0.0, "lat": 38.85321716666667, "is_disabled": 0, "bike_id": "d1e97c62ebfb0115dc8c7c3ffaf1f2e9", "fusion_lat": 0.0, "is_reserved": 0, "lon": -76.98012083333333}, {"type": "electric_scooter", "name": "c6c65d7f9761467ef813aacd19bed9bc", "rental_uris": {"ios": "https://dc.lft.to/lastmile_qr_scan", "android": "https://dc.lft.to/lastmile_qr_scan"}, "fusion_lon": 0.0, "lat": 38.906304, "is_disabled": 0, "bike_id": "c6c65d7f9761467ef813aacd19bed9bc", "fusion_lat": 0.0, "is_reserved": 0, "lon": -77.04136766666667}, {"type": "electric_scooter", "name": "005d8a3a751f5fe5acaf6a849706e0d7", "rental_uris": {"ios": "https://dc.lft.to/lastmile_qr_scan", "android": "https://dc.lft.to/lastmile_qr_scan"}, "fusion_lon": 0.0, "lat": 38.938611, "is_disabled": 0, "bike_id": "005d8a3a751f5fe5acaf6a849706e0d7", "fusion_lat": 0.0, "is_reserved": 0, "lon": -77.02630466666666}, {"type": "electric_scooter", "name": "aedc0db550ebe9fbbcbd7c40b2b4757a", "rental_uris": {"ios": "https://dc.lft.to/lastmile_qr_scan", "android": "https://dc.lft.to/lastmile_qr_scan"}, "fusion_lon": 0.0, "lat": 38.918427666666666, "is_disabled": 0, "bike_id": "aedc0db550ebe9fbbcbd7c40b2b4757a", "fusion_lat": 0.0, "is_reserved": 0, "lon": -77.02290166666667}, {"type": "electric_bike", "name": "7eff0a9202c39fc323562e9abcb10ba8", "rental_uris": {"ios": "https://dc.lft.to/lastmile_qr_scan", "android": "https://dc.lft.to/lastmile_qr_scan"}, "fusion_lon": 0.0, "lat": 38.984618166666664, "is_disabled": 0, "bike_id": "7eff0a9202c39fc323562e9abcb10ba8", "fusion_lat": 0.0, "is_reserved": 0, "lon": -76.97055066666667}, {"type": "electric_scooter", "name": "bdf4c8bfb00de265c860571bd2311131", "rental_uris": {"ios": "https://dc.lft.to/lastmile_qr_scan", "android": "https://dc.lft.to/lastmile_qr_scan"}, "fusion_lon": 0.0, "lat": 38.9399025, "is_disabled": 0, "bike_id": "bdf4c8bfb00de265c860571bd2311131", "fusion_lat": 0.0, "is_reserved": 0, "lon": -77.03262866666667}, {"type": "electric_scooter", "name": "d85f6e4d92473b68c0a3bc262b098ec3", "rental_uris": {"ios": "https://dc.lft.to/lastmile_qr_scan", "android": "https://dc.lft.to/lastmile_qr_scan"}, "fusion_lon": 0.0, "lat": 38.8876835, "is_disabled": 0, "bike_id": "d85f6e4d92473b68c0a3bc262b098ec3", "fusion_lat": 0.0, "is_reserved": 0, "lon": -76.97751216666667}, {"type": "electric_bike", "name": "b4b20590a0a48ec8a71fe5cfebc828e2", "rental_uris": {"ios": "https://dc.lft.to/lastmile_qr_scan", "android": "https://dc.lft.to/lastmile_qr_scan"}, "fusion_lon": 0.0, "lat": 38.88259733333334, "is_disabled": 0, "bike_id": "b4b20590a0a48ec8a71fe5cfebc828e2", "fusion_lat": 0.0, "is_reserved": 0, "lon": -76.9103655}, {"type": "electric_scooter", "name": "efacb4cb32550b295eef0657cc3d3607", "rental_uris": {"ios": "https://dc.lft.to/lastmile_qr_scan", "android": "https://dc.lft.to/lastmile_qr_scan"}, "fusion_lon": 0.0, "lat": 38.90664116666667, "is_disabled": 0, "bike_id": "efacb4cb32550b295eef0657cc3d3607", "fusion_lat": 0.0, "is_reserved": 0, "lon": -77.01085683333334}, {"type": "electric_scooter", "name": "ed1546695c33c4762c18315f781cff31", "rental_uris": {"ios": "https://dc.lft.to/lastmile_qr_scan", "android": "https://dc.lft.to/lastmile_qr_scan"}, "fusion_lon": 0.0, "lat": 38.9038025, "is_disabled": 0, "bike_id": "ed1546695c33c4762c18315f781cff31", "fusion_lat": 0.0, "is_reserved": 0, "lon": -77.04815183333334}, {"type": "electric_scooter", "name": "f22d7029551df88ebf336e5a115d59b7", "rental_uris": {"ios": "https://dc.lft.to/lastmile_qr_scan", "android": "https://dc.lft.to/lastmile_qr_scan"}, "fusion_lon": 0.0, "lat": 38.919434333333335, "is_disabled": 0, "bike_id": "f22d7029551df88ebf336e5a115d59b7", "fusion_lat": 0.0, "is_reserved": 0, "lon": -77.02390616666666}, {"type": "electric_scooter", "name": "1dbfd8e1264e9412639496e730424593", "rental_uris": {"ios": "https://dc.lft.to/lastmile_qr_scan", "android": "https://dc.lft.to/lastmile_qr_scan"}, "fusion_lon": 0.0, "lat": 38.959303166666665, "is_disabled": 0, "bike_id": "1dbfd8e1264e9412639496e730424593", "fusion_lat": 0.0, "is_reserved": 0, "lon": -77.03118883333333}, {"type": "electric_scooter", "name": "ffa71a71c22d3d680d72496a780a4b91", "rental_uris": {"ios": "https://dc.lft.to/lastmile_qr_scan", "android": "https://dc.lft.to/lastmile_qr_scan"}, "fusion_lon": 0.0, "lat": 38.90971183333333, "is_disabled": 0, "bike_id": "ffa71a71c22d3d680d72496a780a4b91", "fusion_lat": 0.0, "is_reserved": 0, "lon": -77.01943533333333}, {"type": "electric_bike", "name": "3368d2d48892d794afa3fa812661e475", "rental_uris": {"ios": "https://dc.lft.to/lastmile_qr_scan", "android": "https://dc.lft.to/lastmile_qr_scan"}, "fusion_lon": 0.0, "lat": 38.84507516666667, "is_disabled": 0, "bike_id": "3368d2d48892d794afa3fa812661e475", "fusion_lat": 0.0, "is_reserved": 0, "lon": -76.99355183333333}, {"type": "electric_scooter", "name": "e1e754c9a734e044d57e76e9eb2f23dc", "rental_uris": {"ios": "https://dc.lft.to/lastmile_qr_scan", "android": "https://dc.lft.to/lastmile_qr_scan"}, "fusion_lon": 0.0, "lat": 38.92108, "is_disabled": 0, "bike_id": "e1e754c9a734e044d57e76e9eb2f23dc", "fusion_lat": 0.0, "is_reserved": 0, "lon": -77.0253135}, {"type": "electric_scooter", "name": "f90de618b6043ed262e65e00665351a2", "rental_uris": {"ios": "https://dc.lft.to/lastmile_qr_scan", "android": "https://dc.lft.to/lastmile_qr_scan"}, "fusion_lon": 0.0, "lat": 38.9307595, "is_disabled": 0, "bike_id": "f90de618b6043ed262e65e00665351a2", "fusion_lat": 0.0, "is_reserved": 0, "lon": -77.02618766666667}, {"type": "electric_scooter", "name": "acefe98f872b8cc11553528a72f9a0b3", "rental_uris": {"ios": "https://dc.lft.to/lastmile_qr_scan", "android": "https://dc.lft.to/lastmile_qr_scan"}, "fusion_lon": 0.0, "lat": 38.91628083333333, "is_disabled": 0, "bike_id": "acefe98f872b8cc11553528a72f9a0b3", "fusion_lat": 0.0, "is_reserved": 0, "lon": -77.03173916666667}, {"type": "electric_scooter", "name": "f652807623f9aee4b60dbd9101e01cc7", "rental_uris": {"ios": "https://dc.lft.to/lastmile_qr_scan", "android": "https://dc.lft.to/lastmile_qr_scan"}, "fusion_lon": 0.0, "lat": 38.929611333333334, "is_disabled": 0, "bike_id": "f652807623f9aee4b60dbd9101e01cc7", "fusion_lat": 0.0, "is_reserved": 0, "lon": -77.03184333333333}, {"type": "electric_scooter", "name": "c9587bf78d9db3da343f484146c2c6c2", "rental_uris": {"ios": "https://dc.lft.to/lastmile_qr_scan", "android": "https://dc.lft.to/lastmile_qr_scan"}, "fusion_lon": 0.0, "lat": 38.9244495, "is_disabled": 0, "bike_id": "c9587bf78d9db3da343f484146c2c6c2", "fusion_lat": 0.0, "is_reserved": 0, "lon": -77.033748}, {"type": "electric_scooter", "name": "6dda842f3dcf88b8810a7007ecb745d8", "rental_uris": {"ios": "https://dc.lft.to/lastmile_qr_scan", "android": "https://dc.lft.to/lastmile_qr_scan"}, "fusion_lon": 0.0, "lat": 38.922999, "is_disabled": 0, "bike_id": "6dda842f3dcf88b8810a7007ecb745d8", "fusion_lat": 0.0, "is_reserved": 0, "lon": -77.04179016666667}, {"type": "electric_bike", "name": "44dffe042439504b39486d0e961d894f", "rental_uris": {"ios": "https://dc.lft.to/lastmile_qr_scan", "android": "https://dc.lft.to/lastmile_qr_scan"}, "fusion_lon": 0.0, "lat": 38.951647333333334, "is_disabled": 0, "bike_id": "44dffe042439504b39486d0e961d894f", "fusion_lat": 0.0, "is_reserved": 0, "lon": -77.0316565}, {"type": "electric_scooter", "name": "a2714c4d395edd574d09f7fdd1b3595b", "rental_uris": {"ios": "https://dc.lft.to/lastmile_qr_scan", "android": "https://dc.lft.to/lastmile_qr_scan"}, "fusion_lon": 0.0, "lat": 38.936727833333336, "is_disabled": 0, "bike_id": "a2714c4d395edd574d09f7fdd1b3595b", "fusion_lat": 0.0, "is_reserved": 0, "lon": -77.03591083333333}, {"type": "electric_scooter", "name": "72da245ff2466623c9e45370976d94a7", "rental_uris": {"ios": "https://dc.lft.to/lastmile_qr_scan", "android": "https://dc.lft.to/lastmile_qr_scan"}, "fusion_lon": 0.0, "lat": 38.917033, "is_disabled": 0, "bike_id": "72da245ff2466623c9e45370976d94a7", "fusion_lat": 0.0, "is_reserved": 0, "lon": -77.03182566666666}, {"type": "electric_scooter", "name": "74491425d4701debbeba9e1f6d25440c", "rental_uris": {"ios": "https://dc.lft.to/lastmile_qr_scan", "android": "https://dc.lft.to/lastmile_qr_scan"}, "fusion_lon": 0.0, "lat": 38.82219533333333, "is_disabled": 0, "bike_id": "74491425d4701debbeba9e1f6d25440c", "fusion_lat": 0.0, "is_reserved": 0, "lon": -77.00184733333333}, {"type": "electric_scooter", "name": "1ead910c959c749186f9ee6b12195d3d", "rental_uris": {"ios": "https://dc.lft.to/lastmile_qr_scan", "android": "https://dc.lft.to/lastmile_qr_scan"}, "fusion_lon": 0.0, "lat": 38.92829866666667, "is_disabled": 0, "bike_id": "1ead910c959c749186f9ee6b12195d3d", "fusion_lat": 0.0, "is_reserved": 0, "lon": -77.05969833333333}, {"type": "electric_bike", "name": "7ee6e3e114c22b3171dbd7e7e8fb045f", "rental_uris": {"ios": "https://dc.lft.to/lastmile_qr_scan", "android": "https://dc.lft.to/lastmile_qr_scan"}, "fusion_lon": 0.0, "lat": 38.99417433333333, "is_disabled": 0, "bike_id": "7ee6e3e114c22b3171dbd7e7e8fb045f", "fusion_lat": 0.0, "is_reserved": 0, "lon": -77.07698666666667}, {"type": "electric_scooter", "name": "b5ae12d0f3998677ad5fa4c23d8a7a24", "rental_uris": {"ios": "https://dc.lft.to/lastmile_qr_scan", "android": "https://dc.lft.to/lastmile_qr_scan"}, "fusion_lon": 0.0, "lat": 38.919086166666666, "is_disabled": 0, "bike_id": "b5ae12d0f3998677ad5fa4c23d8a7a24", "fusion_lat": 0.0, "is_reserved": 0, "lon": -77.03180383333333}, {"type": "electric_scooter", "name": "70aaf7ef466f7f4443bcd301aaba9689", "rental_uris": {"ios": "https://dc.lft.to/lastmile_qr_scan", "android": "https://dc.lft.to/lastmile_qr_scan"}, "fusion_lon": 0.0, "lat": 38.92372, "is_disabled": 0, "bike_id": "70aaf7ef466f7f4443bcd301aaba9689", "fusion_lat": 0.0, "is_reserved": 0, "lon": -77.03133283333334}, {"type": "electric_scooter", "name": "7fe160deee2ff696e2ba0292ef2e3065", "rental_uris": {"ios": "https://dc.lft.to/lastmile_qr_scan", "android": "https://dc.lft.to/lastmile_qr_scan"}, "fusion_lon": 0.0, "lat": 38.9242465, "is_disabled": 0, "bike_id": "7fe160deee2ff696e2ba0292ef2e3065", "fusion_lat": 0.0, "is_reserved": 0, "lon": -77.02238416666667}, {"type": "electric_scooter", "name": "a6124c078f9a4412203570b6a05b8198", "rental_uris": {"ios": "https://dc.lft.to/lastmile_qr_scan", "android": "https://dc.lft.to/lastmile_qr_scan"}, "fusion_lon": 0.0, "lat": 38.89986733333333, "is_disabled": 0, "bike_id": "a6124c078f9a4412203570b6a05b8198", "fusion_lat": 0.0, "is_reserved": 0, "lon": -76.98437283333334}, {"type": "electric_bike", "name": "e92dbf87a7c8b4e7fe3e9a526336ea9f", "rental_uris": {"ios": "https://dc.lft.to/lastmile_qr_scan", "android": "https://dc.lft.to/lastmile_qr_scan"}, "fusion_lon": 0.0, "lat": 39.03603733333333, "is_disabled": 0, "bike_id": "e92dbf87a7c8b4e7fe3e9a526336ea9f", "fusion_lat": 0.0, "is_reserved": 0, "lon": -77.0554245}, {"type": "electric_bike", "name": "fc65e311cb25aaa86ee5c29e483e805d", "rental_uris": {"ios": "https://dc.lft.to/lastmile_qr_scan", "android": "https://dc.lft.to/lastmile_qr_scan"}, "fusion_lon": 0.0, "lat": 38.83157333333333, "is_disabled": 0, "bike_id": "fc65e311cb25aaa86ee5c29e483e805d", "fusion_lat": 0.0, "is_reserved": 0, "lon": -76.99544516666667}, {"type": "electric_bike", "name": "f8600a613ab8f1b81cfef36af65d4298", "rental_uris": {"ios": "https://dc.lft.to/lastmile_qr_scan", "android": "https://dc.lft.to/lastmile_qr_scan"}, "fusion_lon": 0.0, "lat": 38.90034, "is_disabled": 0, "bike_id": "f8600a613ab8f1b81cfef36af65d4298", "fusion_lat": 0.0, "is_reserved": 0, "lon": -76.97224333333334}, {"type": "electric_scooter", "name": "4cd97729e86f4187a224f58eb426f85a", "rental_uris": {"ios": "https://dc.lft.to/lastmile_qr_scan", "android": "https://dc.lft.to/lastmile_qr_scan"}, "fusion_lon": 0.0, "lat": 38.877041, "is_disabled": 0, "bike_id": "4cd97729e86f4187a224f58eb426f85a", "fusion_lat": 0.0, "is_reserved": 0, "lon": -77.003939}, {"type": "electric_scooter", "name": "bf3672e4550482cae58f556fab731ebe", "rental_uris": {"ios": "https://dc.lft.to/lastmile_qr_scan", "android": "https://dc.lft.to/lastmile_qr_scan"}, "fusion_lon": 0.0, "lat": 38.9172195, "is_disabled": 0, "bike_id": "bf3672e4550482cae58f556fab731ebe", "fusion_lat": 0.0, "is_reserved": 0, "lon": -77.02975316666667}, {"type": "electric_scooter", "name": "cc7eb227a2f6eeb0cc448dd6a65116d5", "rental_uris": {"ios": "https://dc.lft.to/lastmile_qr_scan", "android": "https://dc.lft.to/lastmile_qr_scan"}, "fusion_lon": 0.0, "lat": 38.915302, "is_disabled": 0, "bike_id": "cc7eb227a2f6eeb0cc448dd6a65116d5", "fusion_lat": 0.0, "is_reserved": 0, "lon": -77.01225266666667}, {"type": "electric_scooter", "name": "e6a01af417d619f1d3c361d183b55310", "rental_uris": {"ios": "https://dc.lft.to/lastmile_qr_scan", "android": "https://dc.lft.to/lastmile_qr_scan"}, "fusion_lon": 0.0, "lat": 38.91395833333333, "is_disabled": 0, "bike_id": "e6a01af417d619f1d3c361d183b55310", "fusion_lat": 0.0, "is_reserved": 0, "lon": -77.04173866666666}, {"type": "electric_scooter", "name": "50f3a7636dca480f127c8887521de73a", "rental_uris": {"ios": "https://dc.lft.to/lastmile_qr_scan", "android": "https://dc.lft.to/lastmile_qr_scan"}, "fusion_lon": 0.0, "lat": 38.934098166666665, "is_disabled": 0, "bike_id": "50f3a7636dca480f127c8887521de73a", "fusion_lat": 0.0, "is_reserved": 0, "lon": -77.02037833333333}, {"type": "electric_scooter", "name": "e6713dcf84d8516398dd73aa72ac4bba", "rental_uris": {"ios": "https://dc.lft.to/lastmile_qr_scan", "android": "https://dc.lft.to/lastmile_qr_scan"}, "fusion_lon": 0.0, "lat": 38.88012166666667, "is_disabled": 0, "bike_id": "e6713dcf84d8516398dd73aa72ac4bba", "fusion_lat": 0.0, "is_reserved": 0, "lon": -77.02513566666667}, {"type": "electric_scooter", "name": "d8e175c16e92faecff4c7e12baeddbad", "rental_uris": {"ios": "https://dc.lft.to/lastmile_qr_scan", "android": "https://dc.lft.to/lastmile_qr_scan"}, "fusion_lon": 0.0, "lat": 38.922551166666665, "is_disabled": 0, "bike_id": "d8e175c16e92faecff4c7e12baeddbad", "fusion_lat": 0.0, "is_reserved": 0, "lon": -77.00914566666667}, {"type": "electric_scooter", "name": "b14091d0d59eadcd937dd3c54070e556", "rental_uris": {"ios": "https://dc.lft.to/lastmile_qr_scan", "android": "https://dc.lft.to/lastmile_qr_scan"}, "fusion_lon": 0.0, "lat": 38.92168783333334, "is_disabled": 0, "bike_id": "b14091d0d59eadcd937dd3c54070e556", "fusion_lat": 0.0, "is_reserved": 0, "lon": -76.99699183333334}, {"type": "electric_bike", "name": "72e8755f578d8c22389a8174d2b0bf03", "rental_uris": {"ios": "https://dc.lft.to/lastmile_qr_scan", "android": "https://dc.lft.to/lastmile_qr_scan"}, "fusion_lon": 0.0, "lat": 38.884198166666664, "is_disabled": 0, "bike_id": "72e8755f578d8c22389a8174d2b0bf03", "fusion_lat": 0.0, "is_reserved": 0, "lon": -76.9541035}, {"type": "electric_scooter", "name": "564d6250cb8d212da463ae9d9afa5734", "rental_uris": {"ios": "https://dc.lft.to/lastmile_qr_scan", "android": "https://dc.lft.to/lastmile_qr_scan"}, "fusion_lon": 0.0, "lat": 38.90139333333333, "is_disabled": 0, "bike_id": "564d6250cb8d212da463ae9d9afa5734", "fusion_lat": 0.0, "is_reserved": 0, "lon": -77.06073233333333}, {"type": "electric_scooter", "name": "39ac12dc9f8491d3289de92e41318b71", "rental_uris": {"ios": "https://dc.lft.to/lastmile_qr_scan", "android": "https://dc.lft.to/lastmile_qr_scan"}, "fusion_lon": 0.0, "lat": 38.905756333333336, "is_disabled": 0, "bike_id": "39ac12dc9f8491d3289de92e41318b71", "fusion_lat": 0.0, "is_reserved": 0, "lon": -77.00394883333334}, {"type": "electric_scooter", "name": "50bdbd53ddf87849233ce9263a313f62", "rental_uris": {"ios": "https://dc.lft.to/lastmile_qr_scan", "android": "https://dc.lft.to/lastmile_qr_scan"}, "fusion_lon": 0.0, "lat": 38.914476, "is_disabled": 0, "bike_id": "50bdbd53ddf87849233ce9263a313f62", "fusion_lat": 0.0, "is_reserved": 0, "lon": -77.04583033333333}, {"type": "electric_scooter", "name": "3f3c128a133d2a527b1bad991b0633c9", "rental_uris": {"ios": "https://dc.lft.to/lastmile_qr_scan", "android": "https://dc.lft.to/lastmile_qr_scan"}, "fusion_lon": 0.0, "lat": 38.90678533333333, "is_disabled": 0, "bike_id": "3f3c128a133d2a527b1bad991b0633c9", "fusion_lat": 0.0, "is_reserved": 0, "lon": -77.07186516666667}, {"type": "electric_scooter", "name": "0da0abd55f1be851cf5686694430a206", "rental_uris": {"ios": "https://dc.lft.to/lastmile_qr_scan", "android": "https://dc.lft.to/lastmile_qr_scan"}, "fusion_lon": 0.0, "lat": 38.8779595, "is_disabled": 0, "bike_id": "0da0abd55f1be851cf5686694430a206", "fusion_lat": 0.0, "is_reserved": 0, "lon": -77.00124033333333}, {"type": "electric_scooter", "name": "e57e7cb6bfb13853fd69f190d5d3f7c8", "rental_uris": {"ios": "https://dc.lft.to/lastmile_qr_scan", "android": "https://dc.lft.to/lastmile_qr_scan"}, "fusion_lon": 0.0, "lat": 38.9085145, "is_disabled": 0, "bike_id": "e57e7cb6bfb13853fd69f190d5d3f7c8", "fusion_lat": 0.0, "is_reserved": 0, "lon": -76.9980545}, {"type": "electric_scooter", "name": "fd1f1e88722fc7e16bf228757edd05d5", "rental_uris": {"ios": "https://dc.lft.to/lastmile_qr_scan", "android": "https://dc.lft.to/lastmile_qr_scan"}, "fusion_lon": 0.0, "lat": 38.913135, "is_disabled": 0, "bike_id": "fd1f1e88722fc7e16bf228757edd05d5", "fusion_lat": 0.0, "is_reserved": 0, "lon": -77.03208266666667}, {"type": "electric_bike", "name": "b0dd45d627c7d45359ca352eebf3e9e1", "rental_uris": {"ios": "https://dc.lft.to/lastmile_qr_scan", "android": "https://dc.lft.to/lastmile_qr_scan"}, "fusion_lon": 0.0, "lat": 38.9562765, "is_disabled": 0, "bike_id": "b0dd45d627c7d45359ca352eebf3e9e1", "fusion_lat": 0.0, "is_reserved": 0, "lon": -77.02323683333333}, {"type": "electric_scooter", "name": "ad5eddac8628968c6476f37d99ee2a19", "rental_uris": {"ios": "https://dc.lft.to/lastmile_qr_scan", "android": "https://dc.lft.to/lastmile_qr_scan"}, "fusion_lon": 0.0, "lat": 38.88743266666667, "is_disabled": 0, "bike_id": "ad5eddac8628968c6476f37d99ee2a19", "fusion_lat": 0.0, "is_reserved": 0, "lon": -77.02124316666666}, {"type": "electric_scooter", "name": "5b3d3a11348c5899bb31162ddc91cbe3", "rental_uris": {"ios": "https://dc.lft.to/lastmile_qr_scan", "android": "https://dc.lft.to/lastmile_qr_scan"}, "fusion_lon": 0.0, "lat": 38.91713, "is_disabled": 0, "bike_id": "5b3d3a11348c5899bb31162ddc91cbe3", "fusion_lat": 0.0, "is_reserved": 0, "lon": -77.008889}, {"type": "electric_scooter", "name": "2539edf9993985b27bd90c9c78898acb", "rental_uris": {"ios": "https://dc.lft.to/lastmile_qr_scan", "android": "https://dc.lft.to/lastmile_qr_scan"}, "fusion_lon": 0.0, "lat": 38.920654666666664, "is_disabled": 0, "bike_id": "2539edf9993985b27bd90c9c78898acb", "fusion_lat": 0.0, "is_reserved": 0, "lon": -77.02462666666666}, {"type": "electric_scooter", "name": "273a4f60f21fa975d9f18fda66e1e6c3", "rental_uris": {"ios": "https://dc.lft.to/lastmile_qr_scan", "android": "https://dc.lft.to/lastmile_qr_scan"}, "fusion_lon": 0.0, "lat": 38.919312, "is_disabled": 0, "bike_id": "273a4f60f21fa975d9f18fda66e1e6c3", "fusion_lat": 0.0, "is_reserved": 0, "lon": -77.03185666666667}, {"type": "electric_scooter", "name": "636cab92d76ea8721fb8f0e072006c6b", "rental_uris": {"ios": "https://dc.lft.to/lastmile_qr_scan", "android": "https://dc.lft.to/lastmile_qr_scan"}, "fusion_lon": 0.0, "lat": 38.918279166666665, "is_disabled": 0, "bike_id": "636cab92d76ea8721fb8f0e072006c6b", "fusion_lat": 0.0, "is_reserved": 0, "lon": -77.04021133333333}, {"type": "electric_scooter", "name": "da89d701028511ea39815e5b2637da38", "rental_uris": {"ios": "https://dc.lft.to/lastmile_qr_scan", "android": "https://dc.lft.to/lastmile_qr_scan"}, "fusion_lon": 0.0, "lat": 38.926248333333334, "is_disabled": 0, "bike_id": "da89d701028511ea39815e5b2637da38", "fusion_lat": 0.0, "is_reserved": 0, "lon": -77.03534683333334}, {"type": "electric_scooter", "name": "00a2cb8158f85f1b8a4945c057a946fc", "rental_uris": {"ios": "https://dc.lft.to/lastmile_qr_scan", "android": "https://dc.lft.to/lastmile_qr_scan"}, "fusion_lon": 0.0, "lat": 38.8924865, "is_disabled": 0, "bike_id": "00a2cb8158f85f1b8a4945c057a946fc", "fusion_lat": 0.0, "is_reserved": 0, "lon": -77.03955633333334}, {"type": "electric_scooter", "name": "907f696317c00c4bce17a0b0d8248c9c", "rental_uris": {"ios": "https://dc.lft.to/lastmile_qr_scan", "android": "https://dc.lft.to/lastmile_qr_scan"}, "fusion_lon": 0.0, "lat": 38.9178895, "is_disabled": 0, "bike_id": "907f696317c00c4bce17a0b0d8248c9c", "fusion_lat": 0.0, "is_reserved": 0, "lon": -77.02310516666667}, {"type": "electric_bike", "name": "aa2398c666cd66127d83a33875682f70", "rental_uris": {"ios": "https://dc.lft.to/lastmile_qr_scan", "android": "https://dc.lft.to/lastmile_qr_scan"}, "fusion_lon": 0.0, "lat": 38.97235516666667, "is_disabled": 0, "bike_id": "aa2398c666cd66127d83a33875682f70", "fusion_lat": 0.0, "is_reserved": 0, "lon": -77.02711883333333}, {"type": "electric_scooter", "name": "e99578e41e4c59876f361099a2566933", "rental_uris": {"ios": "https://dc.lft.to/lastmile_qr_scan", "android": "https://dc.lft.to/lastmile_qr_scan"}, "fusion_lon": 0.0, "lat": 38.9141305, "is_disabled": 0, "bike_id": "e99578e41e4c59876f361099a2566933", "fusion_lat": 0.0, "is_reserved": 0, "lon": -77.02447616666667}, {"type": "electric_scooter", "name": "fe395e23f3575562fe6dc3d49b55bba9", "rental_uris": {"ios": "https://dc.lft.to/lastmile_qr_scan", "android": "https://dc.lft.to/lastmile_qr_scan"}, "fusion_lon": 0.0, "lat": 38.92285183333333, "is_disabled": 0, "bike_id": "fe395e23f3575562fe6dc3d49b55bba9", "fusion_lat": 0.0, "is_reserved": 0, "lon": -77.029697}, {"type": "electric_bike", "name": "cdd9d472e329121bd5c1dae36be6a035", "rental_uris": {"ios": "https://dc.lft.to/lastmile_qr_scan", "android": "https://dc.lft.to/lastmile_qr_scan"}, "fusion_lon": 0.0, "lat": 38.9944485, "is_disabled": 0, "bike_id": "cdd9d472e329121bd5c1dae36be6a035", "fusion_lat": 0.0, "is_reserved": 0, "lon": -76.99593316666666}, {"type": "electric_scooter", "name": "63af85505993d049d40597b1695e8ae3", "rental_uris": {"ios": "https://dc.lft.to/lastmile_qr_scan", "android": "https://dc.lft.to/lastmile_qr_scan"}, "fusion_lon": 0.0, "lat": 38.902672333333335, "is_disabled": 0, "bike_id": "63af85505993d049d40597b1695e8ae3", "fusion_lat": 0.0, "is_reserved": 0, "lon": -77.04025866666667}, {"type": "electric_scooter", "name": "1f837bc8d51f124be061de5dcf149f4c", "rental_uris": {"ios": "https://dc.lft.to/lastmile_qr_scan", "android": "https://dc.lft.to/lastmile_qr_scan"}, "fusion_lon": 0.0, "lat": 38.87996233333333, "is_disabled": 0, "bike_id": "1f837bc8d51f124be061de5dcf149f4c", "fusion_lat": 0.0, "is_reserved": 0, "lon": -76.9950845}, {"type": "electric_scooter", "name": "3628539230567e75c5bd2313bb750e40", "rental_uris": {"ios": "https://dc.lft.to/lastmile_qr_scan", "android": "https://dc.lft.to/lastmile_qr_scan"}, "fusion_lon": 0.0, "lat": 38.8871415, "is_disabled": 0, "bike_id": "3628539230567e75c5bd2313bb750e40", "fusion_lat": 0.0, "is_reserved": 0, "lon": -76.9834835}, {"type": "electric_bike", "name": "4af07e9d54c5811762627d8ea2ef453d", "rental_uris": {"ios": "https://dc.lft.to/lastmile_qr_scan", "android": "https://dc.lft.to/lastmile_qr_scan"}, "fusion_lon": 0.0, "lat": 38.940522333333334, "is_disabled": 0, "bike_id": "4af07e9d54c5811762627d8ea2ef453d", "fusion_lat": 0.0, "is_reserved": 0, "lon": -76.90418483333333}, {"type": "electric_scooter", "name": "617f0ef55bb02e6ec7444aebedabe257", "rental_uris": {"ios": "https://dc.lft.to/lastmile_qr_scan", "android": "https://dc.lft.to/lastmile_qr_scan"}, "fusion_lon": 0.0, "lat": 38.9035195, "is_disabled": 0, "bike_id": "617f0ef55bb02e6ec7444aebedabe257", "fusion_lat": 0.0, "is_reserved": 0, "lon": -76.97476033333334}, {"type": "electric_scooter", "name": "a7e865e1c7df47a7be48946c956ef045", "rental_uris": {"ios": "https://dc.lft.to/lastmile_qr_scan", "android": "https://dc.lft.to/lastmile_qr_scan"}, "fusion_lon": 0.0, "lat": 38.936711333333335, "is_disabled": 0, "bike_id": "a7e865e1c7df47a7be48946c956ef045", "fusion_lat": 0.0, "is_reserved": 0, "lon": -77.03592233333333}, {"type": "electric_scooter", "name": "a6c043799cc957d30f0fc5fb7d9e6009", "rental_uris": {"ios": "https://dc.lft.to/lastmile_qr_scan", "android": "https://dc.lft.to/lastmile_qr_scan"}, "fusion_lon": 0.0, "lat": 38.916612666666666, "is_disabled": 0, "bike_id": "a6c043799cc957d30f0fc5fb7d9e6009", "fusion_lat": 0.0, "is_reserved": 0, "lon": -77.00649266666667}, {"type": "electric_scooter", "name": "d19ceadf6296689a74ffa8f4d1d4e9da", "rental_uris": {"ios": "https://dc.lft.to/lastmile_qr_scan", "android": "https://dc.lft.to/lastmile_qr_scan"}, "fusion_lon": 0.0, "lat": 38.917839, "is_disabled": 0, "bike_id": "d19ceadf6296689a74ffa8f4d1d4e9da", "fusion_lat": 0.0, "is_reserved": 0, "lon": -77.032017}, {"type": "electric_scooter", "name": "7010d2dec39ae7f43072df9b8631462d", "rental_uris": {"ios": "https://dc.lft.to/lastmile_qr_scan", "android": "https://dc.lft.to/lastmile_qr_scan"}, "fusion_lon": 0.0, "lat": 38.9302545, "is_disabled": 0, "bike_id": "7010d2dec39ae7f43072df9b8631462d", "fusion_lat": 0.0, "is_reserved": 0, "lon": -77.03802783333333}, {"type": "electric_scooter", "name": "eeefdbe2ac42b1a017a9976908f9155d", "rental_uris": {"ios": "https://dc.lft.to/lastmile_qr_scan", "android": "https://dc.lft.to/lastmile_qr_scan"}, "fusion_lon": 0.0, "lat": 38.896677333333336, "is_disabled": 0, "bike_id": "eeefdbe2ac42b1a017a9976908f9155d", "fusion_lat": 0.0, "is_reserved": 0, "lon": -76.93210033333334}, {"type": "electric_scooter", "name": "ac48f81f8db367bd1d29a307fd99fbf7", "rental_uris": {"ios": "https://dc.lft.to/lastmile_qr_scan", "android": "https://dc.lft.to/lastmile_qr_scan"}, "fusion_lon": 0.0, "lat": 38.896168, "is_disabled": 0, "bike_id": "ac48f81f8db367bd1d29a307fd99fbf7", "fusion_lat": 0.0, "is_reserved": 0, "lon": -77.040746}, {"type": "electric_scooter", "name": "0b88edfc7665efaa2aab9e4868257bc4", "rental_uris": {"ios": "https://dc.lft.to/lastmile_qr_scan", "android": "https://dc.lft.to/lastmile_qr_scan"}, "fusion_lon": 0.0, "lat": 38.917079666666666, "is_disabled": 0, "bike_id": "0b88edfc7665efaa2aab9e4868257bc4", "fusion_lat": 0.0, "is_reserved": 0, "lon": -77.02583066666666}, {"type": "electric_scooter", "name": "a9c52cf7e48cab802bfd1cbb649a3ced", "rental_uris": {"ios": "https://dc.lft.to/lastmile_qr_scan", "android": "https://dc.lft.to/lastmile_qr_scan"}, "fusion_lon": 0.0, "lat": 38.916300166666666, "is_disabled": 0, "bike_id": "a9c52cf7e48cab802bfd1cbb649a3ced", "fusion_lat": 0.0, "is_reserved": 0, "lon": -77.041268}, {"type": "electric_scooter", "name": "47395d0eea3d9439518c474125fa71b9", "rental_uris": {"ios": "https://dc.lft.to/lastmile_qr_scan", "android": "https://dc.lft.to/lastmile_qr_scan"}, "fusion_lon": 0.0, "lat": 38.883235166666665, "is_disabled": 0, "bike_id": "47395d0eea3d9439518c474125fa71b9", "fusion_lat": 0.0, "is_reserved": 0, "lon": -77.01390333333333}, {"type": "electric_scooter", "name": "3ac86cb79469ac0d0bbe133096a28132", "rental_uris": {"ios": "https://dc.lft.to/lastmile_qr_scan", "android": "https://dc.lft.to/lastmile_qr_scan"}, "fusion_lon": 0.0, "lat": 38.93054466666667, "is_disabled": 0, "bike_id": "3ac86cb79469ac0d0bbe133096a28132", "fusion_lat": 0.0, "is_reserved": 0, "lon": -77.01864666666667}, {"type": "electric_scooter", "name": "7487670aa7c0fb59019d391495081380", "rental_uris": {"ios": "https://dc.lft.to/lastmile_qr_scan", "android": "https://dc.lft.to/lastmile_qr_scan"}, "fusion_lon": 0.0, "lat": 38.901404, "is_disabled": 0, "bike_id": "7487670aa7c0fb59019d391495081380", "fusion_lat": 0.0, "is_reserved": 0, "lon": -77.06077933333333}, {"type": "electric_scooter", "name": "162406bacdcbe1072a4108abb00ac042", "rental_uris": {"ios": "https://dc.lft.to/lastmile_qr_scan", "android": "https://dc.lft.to/lastmile_qr_scan"}, "fusion_lon": 0.0, "lat": 38.89882766666667, "is_disabled": 0, "bike_id": "162406bacdcbe1072a4108abb00ac042", "fusion_lat": 0.0, "is_reserved": 0, "lon": -77.00737}, {"type": "electric_bike", "name": "5407db9b7ec1da0e96d04bc9653007fb", "rental_uris": {"ios": "https://dc.lft.to/lastmile_qr_scan", "android": "https://dc.lft.to/lastmile_qr_scan"}, "fusion_lon": 0.0, "lat": 38.9905405, "is_disabled": 0, "bike_id": "5407db9b7ec1da0e96d04bc9653007fb", "fusion_lat": 0.0, "is_reserved": 0, "lon": -77.03867433333333}, {"type": "electric_scooter", "name": "f14d306526d81420f9440afa893986d2", "rental_uris": {"ios": "https://dc.lft.to/lastmile_qr_scan", "android": "https://dc.lft.to/lastmile_qr_scan"}, "fusion_lon": 0.0, "lat": 38.928472666666664, "is_disabled": 0, "bike_id": "f14d306526d81420f9440afa893986d2", "fusion_lat": 0.0, "is_reserved": 0, "lon": -77.03662233333333}, {"type": "electric_bike", "name": "8cf7676c34f661be0f7dc087f898045e", "rental_uris": {"ios": "https://dc.lft.to/lastmile_qr_scan", "android": "https://dc.lft.to/lastmile_qr_scan"}, "fusion_lon": 0.0, "lat": 38.83547383333333, "is_disabled": 0, "bike_id": "8cf7676c34f661be0f7dc087f898045e", "fusion_lat": 0.0, "is_reserved": 0, "lon": -76.98734583333334}, {"type": "electric_scooter", "name": "65f6d5dde3cdf02f5d4e2c5ea90e6c6b", "rental_uris": {"ios": "https://dc.lft.to/lastmile_qr_scan", "android": "https://dc.lft.to/lastmile_qr_scan"}, "fusion_lon": 0.0, "lat": 38.907813166666664, "is_disabled": 0, "bike_id": "65f6d5dde3cdf02f5d4e2c5ea90e6c6b", "fusion_lat": 0.0, "is_reserved": 0, "lon": -77.04232}, {"type": "electric_scooter", "name": "356fa61f6c6454e724560c0ff4195f7f", "rental_uris": {"ios": "https://dc.lft.to/lastmile_qr_scan", "android": "https://dc.lft.to/lastmile_qr_scan"}, "fusion_lon": 0.0, "lat": 38.8973965, "is_disabled": 0, "bike_id": "356fa61f6c6454e724560c0ff4195f7f", "fusion_lat": 0.0, "is_reserved": 0, "lon": -77.04558016666667}, {"type": "electric_scooter", "name": "d0aab8fde5385613f34635b4d22bee30", "rental_uris": {"ios": "https://dc.lft.to/lastmile_qr_scan", "android": "https://dc.lft.to/lastmile_qr_scan"}, "fusion_lon": 0.0, "lat": 38.886164666666666, "is_disabled": 0, "bike_id": "d0aab8fde5385613f34635b4d22bee30", "fusion_lat": 0.0, "is_reserved": 0, "lon": -77.01527883333333}, {"type": "electric_scooter", "name": "14a1802d476447d88b4d18dbfdac580f", "rental_uris": {"ios": "https://dc.lft.to/lastmile_qr_scan", "android": "https://dc.lft.to/lastmile_qr_scan"}, "fusion_lon": 0.0, "lat": 38.91671733333333, "is_disabled": 0, "bike_id": "14a1802d476447d88b4d18dbfdac580f", "fusion_lat": 0.0, "is_reserved": 0, "lon": -77.02719716666667}, {"type": "electric_scooter", "name": "6bdfd463dfb726798c80e3c0cecdb734", "rental_uris": {"ios": "https://dc.lft.to/lastmile_qr_scan", "android": "https://dc.lft.to/lastmile_qr_scan"}, "fusion_lon": 0.0, "lat": 38.9231935, "is_disabled": 0, "bike_id": "6bdfd463dfb726798c80e3c0cecdb734", "fusion_lat": 0.0, "is_reserved": 0, "lon": -77.0297}, {"type": "electric_scooter", "name": "544e343b9fca0506c3f2a8616bab0d99", "rental_uris": {"ios": "https://dc.lft.to/lastmile_qr_scan", "android": "https://dc.lft.to/lastmile_qr_scan"}, "fusion_lon": 0.0, "lat": 38.8439195, "is_disabled": 0, "bike_id": "544e343b9fca0506c3f2a8616bab0d99", "fusion_lat": 0.0, "is_reserved": 0, "lon": -76.98949083333333}, {"type": "electric_scooter", "name": "ff60da0a249c86b55484bea225d61b3a", "rental_uris": {"ios": "https://dc.lft.to/lastmile_qr_scan", "android": "https://dc.lft.to/lastmile_qr_scan"}, "fusion_lon": 0.0, "lat": 38.9164485, "is_disabled": 0, "bike_id": "ff60da0a249c86b55484bea225d61b3a", "fusion_lat": 0.0, "is_reserved": 0, "lon": -77.04787966666666}, {"type": "electric_bike", "name": "3f18b35bee9574e1b093750d87ec27a0", "rental_uris": {"ios": "https://dc.lft.to/lastmile_qr_scan", "android": "https://dc.lft.to/lastmile_qr_scan"}, "fusion_lon": 0.0, "lat": 38.96126433333333, "is_disabled": 0, "bike_id": "3f18b35bee9574e1b093750d87ec27a0", "fusion_lat": 0.0, "is_reserved": 0, "lon": -77.03279233333333}, {"type": "electric_scooter", "name": "849fbf8eed34d396dcbf1f86b971b4d3", "rental_uris": {"ios": "https://dc.lft.to/lastmile_qr_scan", "android": "https://dc.lft.to/lastmile_qr_scan"}, "fusion_lon": 0.0, "lat": 38.92123133333333, "is_disabled": 0, "bike_id": "849fbf8eed34d396dcbf1f86b971b4d3", "fusion_lat": 0.0, "is_reserved": 0, "lon": -77.04392266666666}, {"type": "electric_scooter", "name": "21a8ea3edd191164f59eaaab18b97790", "rental_uris": {"ios": "https://dc.lft.to/lastmile_qr_scan", "android": "https://dc.lft.to/lastmile_qr_scan"}, "fusion_lon": 0.0, "lat": 38.884608, "is_disabled": 0, "bike_id": "21a8ea3edd191164f59eaaab18b97790", "fusion_lat": 0.0, "is_reserved": 0, "lon": -76.94977483333334}, {"type": "electric_scooter", "name": "1f39edc0660b1faab126f62f87d60678", "rental_uris": {"ios": "https://dc.lft.to/lastmile_qr_scan", "android": "https://dc.lft.to/lastmile_qr_scan"}, "fusion_lon": 0.0, "lat": 38.89655533333333, "is_disabled": 0, "bike_id": "1f39edc0660b1faab126f62f87d60678", "fusion_lat": 0.0, "is_reserved": 0, "lon": -77.0464875},