{"data": {"bikes": [{"lon": -77.00207883333333, "bike_id": "3d5eb268a21bd764c77aae956a791926", "lat": 38.9003565, "fusion_lon": 0.0, "fusion_lat": 0.0, "type": "electric_scooter", "name": "3d5eb268a21bd764c77aae956a791926", "is_disabled": 0, "rental_uris": {"ios": "https://dc.lft.to/lastmile_qr_scan", "android": "https://dc.lft.to/lastmile_qr_scan"}, "is_reserved": 0}, {"lon": -77.02401566666667, "bike_id": "2f84efe39456123ff0db48cd9df74b15", "lat": 38.909866, "fusion_lon": 0.0, "fusion_lat": 0.0, "type": "electric_scooter", "name": "2f84efe39456123ff0db48cd9df74b15", "is_disabled": 0, "rental_uris": {"ios": "https://dc.lft.to/lastmile_qr_scan", "android": "https://dc.lft.to/lastmile_qr_scan"}, "is_reserved": 0}, {"lon": -77.00721933333334, "bike_id": "cc255abd91aed839c2d522ba8161cfe3", "lat": 38.950643666666664, "fusion_lon": 0.0, "fusion_lat": 0.0, "type": "electric_bike", "name": "cc255abd91aed839c2d522ba8161cfe3", "is_disabled": 0, "rental_uris": {"ios": "https://dc.lft.to/lastmile_qr_scan", "android": "https://dc.lft.to/lastmile_qr_scan"}, "is_reserved": 0}, {"lon": -76.992716, "bike_id": "54bb6ad336a46469f600ccc3179afdd8", "lat": 38.897707, "fusion_lon": 0.0, "fusion_lat": 0.0, "type": "electric_scooter", "name": "54bb6ad336a46469f600ccc3179afdd8", "is_disabled": 0, "rental_uris": {"ios": "https://dc.lft.to/lastmile_qr_scan", "android": "https://dc.lft.to/lastmile_qr_scan"}, "is_reserved": 0}, {"lon": -76.9833245, "bike_id": "462a747a64185bf9cf63aaf9424a653a", "lat": 38.90087416666667, "fusion_lon": 0.0, "fusion_lat": 0.0, "type": "electric_scooter", "name": "462a747a64185bf9cf63aaf9424a653a", "is_disabled": 0, "rental_uris": {"ios": "https://dc.lft.to/lastmile_qr_scan", "android": "https://dc.lft.to/lastmile_qr_scan"}, "is_reserved": 0}, {"lon": -77.03191083333333, "bike_id": "50f1c90428f47fdd04dafb38e5fb1c67", "lat": 38.919013166666666, "fusion_lon": 0.0, "fusion_lat": 0.0, "type": "electric_scooter", "name": "50f1c90428f47fdd04dafb38e5fb1c67", "is_disabled": 0, "rental_uris": {"ios": "https://dc.lft.to/lastmile_qr_scan", "android": "https://dc.lft.to/lastmile_qr_scan"}, "is_reserved": 0}, {"lon": -76.94898083333334, "bike_id": "ee11a70d0d65355862d80a2a6d818ed9", "lat": 38.89532066666666, "fusion_lon": 0.0, "fusion_lat": 0.0, "type": "electric_scooter", "name": "ee11a70d0d65355862d80a2a6d818ed9", "is_disabled": 0, "rental_uris": {"ios": "https://dc.lft.to/lastmile_qr_scan", "android": "https://dc.lft.to/lastmile_qr_scan"}, "is_reserved": 0}, {"lon": -77.01834833333334, "bike_id": "16a454b0d034385d6a10d51da40f8149", "lat": 38.9014855, "fusion_lon": 0.0, "fusion_lat": 0.0, "type": "electric_scooter", "name": "16a454b0d034385d6a10d51da40f8149", "is_disabled": 0, "rental_uris": {"ios": "https://dc.lft.to/lastmile_qr_scan", "android": "https://dc.lft.to/lastmile_qr_scan"}, "is_reserved": 0}, {"lon": -77.08820816666666, "bike_id": "28032ee9d5357b151b445668c7486a7c", "lat": 38.909757666666664, "fusion_lon": 0.0, "fusion_lat": 0.0, "type": "electric_scooter", "name": "28032ee9d5357b151b445668c7486a7c", "is_disabled": 0, "rental_uris": {"ios": "https://dc.lft.to/lastmile_qr_scan", "android": "https://dc.lft.to/lastmile_qr_scan"}, "is_reserved": 0}, {"lon": -77.01246716666667, "bike_id": "167b67b2f2727c387fdbac9a920c1d26", "lat": 38.931053166666665, "fusion_lon": 0.0, "fusion_lat": 0.0, "type": "electric_scooter", "name": "167b67b2f2727c387fdbac9a920c1d26", "is_disabled": 0, "rental_uris": {"ios": "https://dc.lft.to/lastmile_qr_scan", "android": "https://dc.lft.to/lastmile_qr_scan"}, "is_reserved": 0}, {"lon": -77.03656166666667, "bike_id": "6b2fc4043b3f63ad987bba1332b1f77c", "lat": 38.93626966666667, "fusion_lon": 0.0, "fusion_lat": 0.0, "type": "electric_scooter", "name": "6b2fc4043b3f63ad987bba1332b1f77c", "is_disabled": 0, "rental_uris": {"ios": "https://dc.lft.to/lastmile_qr_scan", "android": "https://dc.lft.to/lastmile_qr_scan"}, "is_reserved": 0}, {"lon": -77.047437, "bike_id": "1b5b07013a169d526462d6d48e25376e", "lat": 38.90184383333333, "fusion_lon": 0.0, "fusion_lat": 0.0, "type": "electric_scooter", "name": "1b5b07013a169d526462d6d48e25376e", "is_disabled": 0, "rental_uris": {"ios": "https://dc.lft.to/lastmile_qr_scan", "android": "https://dc.lft.to/lastmile_qr_scan"}, "is_reserved": 0}, {"lon": -76.98934116666666, "bike_id": "a3f78fd53f777790916adfb8bb8fe9d7", "lat": 38.867093833333335, "fusion_lon": 0.0, "fusion_lat": 0.0, "type": "electric_bike", "name": "a3f78fd53f777790916adfb8bb8fe9d7", "is_disabled": 0, "rental_uris": {"ios": "https://dc.lft.to/lastmile_qr_scan", "android": "https://dc.lft.to/lastmile_qr_scan"}, "is_reserved": 0}, {"lon": -76.99457666666666, "bike_id": "e14fded4cace8d67afc56a6425901df0", "lat": 38.862154833333335, "fusion_lon": 0.0, "fusion_lat": 0.0, "type": "electric_scooter", "name": "e14fded4cace8d67afc56a6425901df0", "is_disabled": 0, "rental_uris": {"ios": "https://dc.lft.to/lastmile_qr_scan", "android": "https://dc.lft.to/lastmile_qr_scan"}, "is_reserved": 0}, {"lon": -76.98465, "bike_id": "bb15f8be52f9e760e24271b05d5b6e26", "lat": 38.904006333333335, "fusion_lon": 0.0, "fusion_lat": 0.0, "type": "electric_scooter", "name": "bb15f8be52f9e760e24271b05d5b6e26", "is_disabled": 0, "rental_uris": {"ios": "https://dc.lft.to/lastmile_qr_scan", "android": "https://dc.lft.to/lastmile_qr_scan"}, "is_reserved": 0}, {"lon": -77.00202233333333, "bike_id": "45b01569fe3a2443ae53d1e6c93330a6", "lat": 38.902407833333335, "fusion_lon": 0.0, "fusion_lat": 0.0, "type": "electric_scooter", "name": "45b01569fe3a2443ae53d1e6c93330a6", "is_disabled": 0, "rental_uris": {"ios": "https://dc.lft.to/lastmile_qr_scan", "android": "https://dc.lft.to/lastmile_qr_scan"}, "is_reserved": 0}, {"lon": -77.027505, "bike_id": "7850a0f1ead4c651beb59ea6becd5fd3", "lat": 38.941809666666664, "fusion_lon": 0.0, "fusion_lat": 0.0, "type": "electric_scooter", "name": "7850a0f1ead4c651beb59ea6becd5fd3", "is_disabled": 0, "rental_uris": {"ios": "https://dc.lft.to/lastmile_qr_scan", "android": "https://dc.lft.to/lastmile_qr_scan"}, "is_reserved": 0}, {"lon": -77.0305215, "bike_id": "5db75c78554c790b6ba0a146c8e6bdbc", "lat": 38.88411283333333, "fusion_lon": 0.0, "fusion_lat": 0.0, "type": "electric_scooter", "name": "5db75c78554c790b6ba0a146c8e6bdbc", "is_disabled": 0, "rental_uris": {"ios": "https://dc.lft.to/lastmile_qr_scan", "android": "https://dc.lft.to/lastmile_qr_scan"}, "is_reserved": 0}, {"lon": -77.0448235, "bike_id": "ef7bf40302b7e4212218ebfdcf7b39e4", "lat": 38.9242405, "fusion_lon": 0.0, "fusion_lat": 0.0, "type": "electric_scooter", "name": "ef7bf40302b7e4212218ebfdcf7b39e4", "is_disabled": 0, "rental_uris": {"ios": "https://dc.lft.to/lastmile_qr_scan", "android": "https://dc.lft.to/lastmile_qr_scan"}, "is_reserved": 0}, {"lon": -77.052008, "bike_id": "442acd45ed6da40b58ae560b1f46978a", "lat": 38.899503333333335, "fusion_lon": 0.0, "fusion_lat": 0.0, "type": "electric_scooter", "name": "442acd45ed6da40b58ae560b1f46978a", "is_disabled": 0, "rental_uris": {"ios": "https://dc.lft.to/lastmile_qr_scan", "android": "https://dc.lft.to/lastmile_qr_scan"}, "is_reserved": 0}, {"lon": -77.0351595, "bike_id": "f81ebcc18c8f7fe4a68a029c94265bf7", "lat": 38.92199983333333, "fusion_lon": 0.0, "fusion_lat": 0.0, "type": "electric_scooter", "name": "f81ebcc18c8f7fe4a68a029c94265bf7", "is_disabled": 0, "rental_uris": {"ios": "https://dc.lft.to/lastmile_qr_scan", "android": "https://dc.lft.to/lastmile_qr_scan"}, "is_reserved": 0}, {"lon": -77.022273, "bike_id": "0497201088598d9c283db9309c7855a1", "lat": 38.962042833333335, "fusion_lon": 0.0, "fusion_lat": 0.0, "type": "electric_scooter", "name": "0497201088598d9c283db9309c7855a1", "is_disabled": 0, "rental_uris": {"ios": "https://dc.lft.to/lastmile_qr_scan", "android": "https://dc.lft.to/lastmile_qr_scan"}, "is_reserved": 0}, {"lon": -77.029485, "bike_id": "caff4fed82aa722493f249c690e689b7", "lat": 38.9064875, "fusion_lon": 0.0, "fusion_lat": 0.0, "type": "electric_scooter", "name": "caff4fed82aa722493f249c690e689b7", "is_disabled": 0, "rental_uris": {"ios": "https://dc.lft.to/lastmile_qr_scan", "android": "https://dc.lft.to/lastmile_qr_scan"}, "is_reserved": 0}, {"lon": -77.02828066666666, "bike_id": "a0dde07e626b81f5486fb247a982981c", "lat": 38.89519116666666, "fusion_lon": 0.0, "fusion_lat": 0.0, "type": "electric_scooter", "name": "a0dde07e626b81f5486fb247a982981c", "is_disabled": 0, "rental_uris": {"ios": "https://dc.lft.to/lastmile_qr_scan", "android": "https://dc.lft.to/lastmile_qr_scan"}, "is_reserved": 0}, {"lon": -77.03824733333333, "bike_id": "c4743e14a9a7a297de0ce2e4f01e13b0", "lat": 38.90360416666667, "fusion_lon": 0.0, "fusion_lat": 0.0, "type": "electric_scooter", "name": "c4743e14a9a7a297de0ce2e4f01e13b0", "is_disabled": 0, "rental_uris": {"ios": "https://dc.lft.to/lastmile_qr_scan", "android": "https://dc.lft.to/lastmile_qr_scan"}, "is_reserved": 0}, {"lon": -76.99883083333333, "bike_id": "a62b0017bf79b1e1971af22be2491098", "lat": 38.909523666666665, "fusion_lon": 0.0, "fusion_lat": 0.0, "type": "electric_scooter", "name": "a62b0017bf79b1e1971af22be2491098", "is_disabled": 0, "rental_uris": {"ios": "https://dc.lft.to/lastmile_qr_scan", "android": "https://dc.lft.to/lastmile_qr_scan"}, "is_reserved": 0}, {"lon": -76.99229716666666, "bike_id": "694efa3181bfaf156c6ced2fb14bb581", "lat": 38.922167, "fusion_lon": 0.0, "fusion_lat": 0.0, "type": "electric_scooter", "name": "694efa3181bfaf156c6ced2fb14bb581", "is_disabled": 0, "rental_uris": {"ios": "https://dc.lft.to/lastmile_qr_scan", "android": "https://dc.lft.to/lastmile_qr_scan"}, "is_reserved": 0}, {"lon": -77.04873383333333, "bike_id": "c79cdf24743bc76ba36cebc139f9a3a9", "lat": 38.8923325, "fusion_lon": 0.0, "fusion_lat": 0.0, "type": "electric_scooter", "name": "c79cdf24743bc76ba36cebc139f9a3a9", "is_disabled": 0, "rental_uris": {"ios": "https://dc.lft.to/lastmile_qr_scan", "android": "https://dc.lft.to/lastmile_qr_scan"}, "is_reserved": 0}, {"lon": -77.04757633333334, "bike_id": "64d4b4de25cbf8fac5699535f53c250a", "lat": 38.917714333333336, "fusion_lon": 0.0, "fusion_lat": 0.0, "type": "electric_scooter", "name": "64d4b4de25cbf8fac5699535f53c250a", "is_disabled": 0, "rental_uris": {"ios": "https://dc.lft.to/lastmile_qr_scan", "android": "https://dc.lft.to/lastmile_qr_scan"}, "is_reserved": 0}, {"lon": -76.98234866666667, "bike_id": "737ca9905eb9dd09082d24e5841ffd9b", "lat": 38.91656533333333, "fusion_lon": 0.0, "fusion_lat": 0.0, "type": "electric_scooter", "name": "737ca9905eb9dd09082d24e5841ffd9b", "is_disabled": 0, "rental_uris": {"ios": "https://dc.lft.to/lastmile_qr_scan", "android": "https://dc.lft.to/lastmile_qr_scan"}, "is_reserved": 0}, {"lon": -77.0316725, "bike_id": "e79626da66f161ba12f7fba8f98b8b8e", "lat": 38.897550333333335, "fusion_lon": 0.0, "fusion_lat": 0.0, "type": "electric_scooter", "name": "e79626da66f161ba12f7fba8f98b8b8e", "is_disabled": 0, "rental_uris": {"ios": "https://dc.lft.to/lastmile_qr_scan", "android": "https://dc.lft.to/lastmile_qr_scan"}, "is_reserved": 0}, {"lon": -77.02316483333334, "bike_id": "b5f9bfcb41eca727d893449fbf15a5c6", "lat": 38.8949555, "fusion_lon": 0.0, "fusion_lat": 0.0, "type": "electric_scooter", "name": "b5f9bfcb41eca727d893449fbf15a5c6", "is_disabled": 0, "rental_uris": {"ios": "https://dc.lft.to/lastmile_qr_scan", "android": "https://dc.lft.to/lastmile_qr_scan"}, "is_reserved": 0}, {"lon": -77.00048483333333, "bike_id": "672a989a55dda433db028279d445cce5", "lat": 38.9239335, "fusion_lon": 0.0, "fusion_lat": 0.0, "type": "electric_scooter", "name": "672a989a55dda433db028279d445cce5", "is_disabled": 0, "rental_uris": {"ios": "https://dc.lft.to/lastmile_qr_scan", "android": "https://dc.lft.to/lastmile_qr_scan"}, "is_reserved": 0}, {"lon": -77.04766616666667, "bike_id": "46cde5d151518abf671a4a0f5adab3a0", "lat": 38.91764766666667, "fusion_lon": 0.0, "fusion_lat": 0.0, "type": "electric_scooter", "name": "46cde5d151518abf671a4a0f5adab3a0", "is_disabled": 0, "rental_uris": {"ios": "https://dc.lft.to/lastmile_qr_scan", "android": "https://dc.lft.to/lastmile_qr_scan"}, "is_reserved": 0}, {"lon": -77.012006, "bike_id": "e0d38d89707ad39cdc943854a1e80443", "lat": 38.824073, "fusion_lon": 0.0, "fusion_lat": 0.0, "type": "electric_bike", "name": "e0d38d89707ad39cdc943854a1e80443", "is_disabled": 0, "rental_uris": {"ios": "https://dc.lft.to/lastmile_qr_scan", "android": "https://dc.lft.to/lastmile_qr_scan"}, "is_reserved": 0}, {"lon": -77.001499, "bike_id": "0ea3f85d393834535e4c14ebedc96375", "lat": 38.91078666666667, "fusion_lon": 0.0, "fusion_lat": 0.0, "type": "electric_scooter", "name": "0ea3f85d393834535e4c14ebedc96375", "is_disabled": 0, "rental_uris": {"ios": "https://dc.lft.to/lastmile_qr_scan", "android": "https://dc.lft.to/lastmile_qr_scan"}, "is_reserved": 0}, {"lon": -76.98540033333333, "bike_id": "32170b03a4ea15b4c7ac59b21dba53d7", "lat": 38.904587666666664, "fusion_lon": 0.0, "fusion_lat": 0.0, "type": "electric_scooter", "name": "32170b03a4ea15b4c7ac59b21dba53d7", "is_disabled": 0, "rental_uris": {"ios": "https://dc.lft.to/lastmile_qr_scan", "android": "https://dc.lft.to/lastmile_qr_scan"}, "is_reserved": 0}, {"lon": -77.03214166666666, "bike_id": "a967cbb0713137e0e272a29734f4bc9e", "lat": 38.919177, "fusion_lon": 0.0, "fusion_lat": 0.0, "type": "electric_scooter", "name": "a967cbb0713137e0e272a29734f4bc9e", "is_disabled": 0, "rental_uris": {"ios": "https://dc.lft.to/lastmile_qr_scan", "android": "https://dc.lft.to/lastmile_qr_scan"}, "is_reserved": 0}, {"lon": -77.04600816666667, "bike_id": "ab01934436c59906a19b5d2734c25639", "lat": 38.913638166666665, "fusion_lon": 0.0, "fusion_lat": 0.0, "type": "electric_scooter", "name": "ab01934436c59906a19b5d2734c25639", "is_disabled": 0, "rental_uris": {"ios": "https://dc.lft.to/lastmile_qr_scan", "android": "https://dc.lft.to/lastmile_qr_scan"}, "is_reserved": 0}, {"lon": -76.95749166666667, "bike_id": "17ee291123f4000f4da7e70169393dcd", "lat": 38.88427, "fusion_lon": 0.0, "fusion_lat": 0.0, "type": "electric_scooter", "name": "17ee291123f4000f4da7e70169393dcd", "is_disabled": 0, "rental_uris": {"ios": "https://dc.lft.to/lastmile_qr_scan", "android": "https://dc.lft.to/lastmile_qr_scan"}, "is_reserved": 0}, {"lon": -77.1170985, "bike_id": "41e4c713ca2457e3a6496b315b2434f8", "lat": 38.86746266666667, "fusion_lon": 0.0, "fusion_lat": 0.0, "type": "electric_bike", "name": "41e4c713ca2457e3a6496b315b2434f8", "is_disabled": 0, "rental_uris": {"ios": "https://dc.lft.to/lastmile_qr_scan", "android": "https://dc.lft.to/lastmile_qr_scan"}, "is_reserved": 0}, {"lon": -77.00337283333333, "bike_id": "efda319482982f72a236dd97e33ffb29", "lat": 38.89189783333333, "fusion_lon": 0.0, "fusion_lat": 0.0, "type": "electric_scooter", "name": "efda319482982f72a236dd97e33ffb29", "is_disabled": 0, "rental_uris": {"ios": "https://dc.lft.to/lastmile_qr_scan", "android": "https://dc.lft.to/lastmile_qr_scan"}, "is_reserved": 0}, {"lon": -77.02358666666667, "bike_id": "3d9fbf4010a42ee4832858185a66d5e1", "lat": 38.92224366666667, "fusion_lon": 0.0, "fusion_lat": 0.0, "type": "electric_scooter", "name": "3d9fbf4010a42ee4832858185a66d5e1", "is_disabled": 0, "rental_uris": {"ios": "https://dc.lft.to/lastmile_qr_scan", "android": "https://dc.lft.to/lastmile_qr_scan"}, "is_reserved": 0}, {"lon": -77.02652616666667, "bike_id": "fda884bd02ded264b8b7750b00f8d5fa", "lat": 38.881206666666664, "fusion_lon": 0.0, "fusion_lat": 0.0, "type": "electric_scooter", "name": "fda884bd02ded264b8b7750b00f8d5fa", "is_disabled": 0, "rental_uris": {"ios": "https://dc.lft.to/lastmile_qr_scan", "android": "https://dc.lft.to/lastmile_qr_scan"}, "is_reserved": 0}, {"lon": -77.0405085, "bike_id": "69182542ea73558aa62efe235c2dd832", "lat": 38.92877933333333, "fusion_lon": 0.0, "fusion_lat": 0.0, "type": "electric_scooter", "name": "69182542ea73558aa62efe235c2dd832", "is_disabled": 0, "rental_uris": {"ios": "https://dc.lft.to/lastmile_qr_scan", "android": "https://dc.lft.to/lastmile_qr_scan"}, "is_reserved": 0}, {"lon": -77.032167, "bike_id": "92363812972e99b83fa76b78c04f3792", "lat": 38.907298, "fusion_lon": 0.0, "fusion_lat": 0.0, "type": "electric_scooter", "name": "92363812972e99b83fa76b78c04f3792", "is_disabled": 0, "rental_uris": {"ios": "https://dc.lft.to/lastmile_qr_scan", "android": "https://dc.lft.to/lastmile_qr_scan"}, "is_reserved": 0}, {"lon": -77.0319615, "bike_id": "a3032bbf2aa10935ebbf6cc3a8dd29f3", "lat": 38.9097325, "fusion_lon": 0.0, "fusion_lat": 0.0, "type": "electric_scooter", "name": "a3032bbf2aa10935ebbf6cc3a8dd29f3", "is_disabled": 0, "rental_uris": {"ios": "https://dc.lft.to/lastmile_qr_scan", "android": "https://dc.lft.to/lastmile_qr_scan"}, "is_reserved": 0}, {"lon": -76.93537233333333, "bike_id": "375a346943bd50995aefc9d4029ea737", "lat": 38.896853, "fusion_lon": 0.0, "fusion_lat": 0.0, "type": "electric_scooter", "name": "375a346943bd50995aefc9d4029ea737", "is_disabled": 0, "rental_uris": {"ios": "https://dc.lft.to/lastmile_qr_scan", "android": "https://dc.lft.to/lastmile_qr_scan"}, "is_reserved": 0}, {"lon": -76.98095383333333, "bike_id": "b146920c1bff5acb71ddcb1a172f11c7", "lat": 38.895521333333335, "fusion_lon": 0.0, "fusion_lat": 0.0, "type": "electric_scooter", "name": "b146920c1bff5acb71ddcb1a172f11c7", "is_disabled": 0, "rental_uris": {"ios": "https://dc.lft.to/lastmile_qr_scan", "android": "https://dc.lft.to/lastmile_qr_scan"}, "is_reserved": 0}, {"lon": -77.02712033333333, "bike_id": "6890143fec251a1fde295e2f26accb3b", "lat": 38.92466133333333, "fusion_lon": 0.0, "fusion_lat": 0.0, "type": "electric_scooter", "name": "6890143fec251a1fde295e2f26accb3b", "is_disabled": 0, "rental_uris": {"ios": "https://dc.lft.to/lastmile_qr_scan", "android": "https://dc.lft.to/lastmile_qr_scan"}, "is_reserved": 0}, {"lon": -76.961519, "bike_id": "077ba6430b27d27548a57e8b6b665e6a", "lat": 38.883587166666665, "fusion_lon": 0.0, "fusion_lat": 0.0, "type": "electric_scooter", "name": "077ba6430b27d27548a57e8b6b665e6a", "is_disabled": 0, "rental_uris": {"ios": "https://dc.lft.to/lastmile_qr_scan", "android": "https://dc.lft.to/lastmile_qr_scan"}, "is_reserved": 0}, {"lon": -77.03181883333333, "bike_id": "1c0bd953e06f6c5e3416c9f92605c60e", "lat": 38.919282833333334, "fusion_lon": 0.0, "fusion_lat": 0.0, "type": "electric_scooter", "name": "1c0bd953e06f6c5e3416c9f92605c60e", "is_disabled": 0, "rental_uris": {"ios": "https://dc.lft.to/lastmile_qr_scan", "android": "https://dc.lft.to/lastmile_qr_scan"}, "is_reserved": 0}, {"lon": -76.99052816666666, "bike_id": "63c3eb4ee0f7787f9d7681d4f343628f", "lat": 38.88758816666667, "fusion_lon": 0.0, "fusion_lat": 0.0, "type": "electric_scooter", "name": "63c3eb4ee0f7787f9d7681d4f343628f", "is_disabled": 0, "rental_uris": {"ios": "https://dc.lft.to/lastmile_qr_scan", "android": "https://dc.lft.to/lastmile_qr_scan"}, "is_reserved": 0}, {"lon": -76.96781183333333, "bike_id": "3b32bf19a7f03575941a8035f56d5118", "lat": 38.86842016666667, "fusion_lon": 0.0, "fusion_lat": 0.0, "type": "electric_scooter", "name": "3b32bf19a7f03575941a8035f56d5118", "is_disabled": 0, "rental_uris": {"ios": "https://dc.lft.to/lastmile_qr_scan", "android": "https://dc.lft.to/lastmile_qr_scan"}, "is_reserved": 0}, {"lon": -77.00815083333333, "bike_id": "b56e7bfac035dfa3030567af19320b24", "lat": 38.905609, "fusion_lon": 0.0, "fusion_lat": 0.0, "type": "electric_scooter", "name": "b56e7bfac035dfa3030567af19320b24", "is_disabled": 0, "rental_uris": {"ios": "https://dc.lft.to/lastmile_qr_scan", "android": "https://dc.lft.to/lastmile_qr_scan"}, "is_reserved": 0}, {"lon": -77.03865916666666, "bike_id": "95559658d98cb72e945da9bf0112f881", "lat": 38.9450155, "fusion_lon": 0.0, "fusion_lat": 0.0, "type": "electric_scooter", "name": "95559658d98cb72e945da9bf0112f881", "is_disabled": 0, "rental_uris": {"ios": "https://dc.lft.to/lastmile_qr_scan", "android": "https://dc.lft.to/lastmile_qr_scan"}, "is_reserved": 0}, {"lon": -77.03442916666667, "bike_id": "de59e7d5664152445ffa22feb1ebf3e1", "lat": 38.90245616666667, "fusion_lon": 0.0, "fusion_lat": 0.0, "type": "electric_scooter", "name": "de59e7d5664152445ffa22feb1ebf3e1", "is_disabled": 0, "rental_uris": {"ios": "https://dc.lft.to/lastmile_qr_scan", "android": "https://dc.lft.to/lastmile_qr_scan"}, "is_reserved": 0}, {"lon": -77.02503083333333, "bike_id": "bceb2a6350256b4a174152a465e1ee97", "lat": 38.92074483333333, "fusion_lon": 0.0, "fusion_lat": 0.0, "type": "electric_scooter", "name": "bceb2a6350256b4a174152a465e1ee97", "is_disabled": 0, "rental_uris": {"ios": "https://dc.lft.to/lastmile_qr_scan", "android": "https://dc.lft.to/lastmile_qr_scan"}, "is_reserved": 0}, {"lon": -77.0558985, "bike_id": "c2a204f9f529ab18edc1d246ff9dda7d", "lat": 38.893095333333335, "fusion_lon": 0.0, "fusion_lat": 0.0, "type": "electric_scooter", "name": "c2a204f9f529ab18edc1d246ff9dda7d", "is_disabled": 0, "rental_uris": {"ios": "https://dc.lft.to/lastmile_qr_scan", "android": "https://dc.lft.to/lastmile_qr_scan"}, "is_reserved": 0}, {"lon": -76.98407233333333, "bike_id": "e228ab944e9db78ce9502fb907058b0c", "lat": 38.906259, "fusion_lon": 0.0, "fusion_lat": 0.0, "type": "electric_scooter", "name": "e228ab944e9db78ce9502fb907058b0c", "is_disabled": 0, "rental_uris": {"ios": "https://dc.lft.to/lastmile_qr_scan", "android": "https://dc.lft.to/lastmile_qr_scan"}, "is_reserved": 0}, {"lon": -76.98768883333334, "bike_id": "9dac2f4f1ded3939f7c1eaf101ffb78b", "lat": 38.866089833333334, "fusion_lon": 0.0, "fusion_lat": 0.0, "type": "electric_bike", "name": "9dac2f4f1ded3939f7c1eaf101ffb78b", "is_disabled": 0, "rental_uris": {"ios": "https://dc.lft.to/lastmile_qr_scan", "android": "https://dc.lft.to/lastmile_qr_scan"}, "is_reserved": 0}, {"lon": -77.04028, "bike_id": "721ce3c62c2b7dc905216b0f84b1798f", "lat": 38.903853833333336, "fusion_lon": 0.0, "fusion_lat": 0.0, "type": "electric_scooter", "name": "721ce3c62c2b7dc905216b0f84b1798f", "is_disabled": 0, "rental_uris": {"ios": "https://dc.lft.to/lastmile_qr_scan", "android": "https://dc.lft.to/lastmile_qr_scan"}, "is_reserved": 0}, {"lon": -77.039269, "bike_id": "7d3a3fa0d332c936b1c5eb9771c4b0ca", "lat": 38.921013333333335, "fusion_lon": 0.0, "fusion_lat": 0.0, "type": "electric_scooter", "name": "7d3a3fa0d332c936b1c5eb9771c4b0ca", "is_disabled": 0, "rental_uris": {"ios": "https://dc.lft.to/lastmile_qr_scan", "android": "https://dc.lft.to/lastmile_qr_scan"}, "is_reserved": 0}, {"lon": -77.03770966666667, "bike_id": "fe449c6da89ad79ced4c58178ef90ee9", "lat": 38.929655, "fusion_lon": 0.0, "fusion_lat": 0.0, "type": "electric_scooter", "name": "fe449c6da89ad79ced4c58178ef90ee9", "is_disabled": 0, "rental_uris": {"ios": "https://dc.lft.to/lastmile_qr_scan", "android": "https://dc.lft.to/lastmile_qr_scan"}, "is_reserved": 0}, {"lon": -77.02987033333333, "bike_id": "1ddf71777daa2908f15a45ae77df2769", "lat": 38.91254166666667, "fusion_lon": 0.0, "fusion_lat": 0.0, "type": "electric_scooter", "name": "1ddf71777daa2908f15a45ae77df2769", "is_disabled": 0, "rental_uris": {"ios": "https://dc.lft.to/lastmile_qr_scan", "android": "https://dc.lft.to/lastmile_qr_scan"}, "is_reserved": 0}, {"lon": -76.98934033333333, "bike_id": "37443965810448e0430a3d1eaa40379e", "lat": 38.918402666666665, "fusion_lon": 0.0, "fusion_lat": 0.0, "type": "electric_scooter", "name": "37443965810448e0430a3d1eaa40379e", "is_disabled": 0, "rental_uris": {"ios": "https://dc.lft.to/lastmile_qr_scan", "android": "https://dc.lft.to/lastmile_qr_scan"}, "is_reserved": 0}, {"lon": -77.02573966666667, "bike_id": "4100ed03a96285939ba59f40ef046504", "lat": 38.91335633333333, "fusion_lon": 0.0, "fusion_lat": 0.0, "type": "electric_scooter", "name": "4100ed03a96285939ba59f40ef046504", "is_disabled": 0, "rental_uris": {"ios": "https://dc.lft.to/lastmile_qr_scan", "android": "https://dc.lft.to/lastmile_qr_scan"}, "is_reserved": 0}, {"lon": -77.03701266666667, "bike_id": "cc894bf335c33a285abdd74146f7535f", "lat": 38.93522866666667, "fusion_lon": 0.0, "fusion_lat": 0.0, "type": "electric_scooter", "name": "cc894bf335c33a285abdd74146f7535f", "is_disabled": 0, "rental_uris": {"ios": "https://dc.lft.to/lastmile_qr_scan", "android": "https://dc.lft.to/lastmile_qr_scan"}, "is_reserved": 0}, {"lon": -76.98108766666667, "bike_id": "46f2f32ab7187080124bd45351f1f55a", "lat": 38.877309, "fusion_lon": 0.0, "fusion_lat": 0.0, "type": "electric_bike", "name": "46f2f32ab7187080124bd45351f1f55a", "is_disabled": 0, "rental_uris": {"ios": "https://dc.lft.to/lastmile_qr_scan", "android": "https://dc.lft.to/lastmile_qr_scan"}, "is_reserved": 0}, {"lon": -77.03198133333333, "bike_id": "cbe9d7957e84a8034356b69deae05d90", "lat": 38.909792833333334, "fusion_lon": 0.0, "fusion_lat": 0.0, "type": "electric_scooter", "name": "cbe9d7957e84a8034356b69deae05d90", "is_disabled": 0, "rental_uris": {"ios": "https://dc.lft.to/lastmile_qr_scan", "android": "https://dc.lft.to/lastmile_qr_scan"}, "is_reserved": 0}, {"lon": -77.00956733333334, "bike_id": "9544587bd144a115f0c7d124a3f74588", "lat": 38.92132516666667, "fusion_lon": 0.0, "fusion_lat": 0.0, "type": "electric_scooter", "name": "9544587bd144a115f0c7d124a3f74588", "is_disabled": 0, "rental_uris": {"ios": "https://dc.lft.to/lastmile_qr_scan", "android": "https://dc.lft.to/lastmile_qr_scan"}, "is_reserved": 0}, {"lon": -76.99920933333334, "bike_id": "4a40c491203b846621ec90e48a0219ad", "lat": 38.8897275, "fusion_lon": 0.0, "fusion_lat": 0.0, "type": "electric_scooter", "name": "4a40c491203b846621ec90e48a0219ad", "is_disabled": 0, "rental_uris": {"ios": "https://dc.lft.to/lastmile_qr_scan", "android": "https://dc.lft.to/lastmile_qr_scan"}, "is_reserved": 0}, {"lon": -77.027032, "bike_id": "de56a42de2ab98f8736e60c3e87035af", "lat": 38.8976515, "fusion_lon": 0.0, "fusion_lat": 0.0, "type": "electric_scooter", "name": "de56a42de2ab98f8736e60c3e87035af", "is_disabled": 0, "rental_uris": {"ios": "https://dc.lft.to/lastmile_qr_scan", "android": "https://dc.lft.to/lastmile_qr_scan"}, "is_reserved": 0}, {"lon": -77.036537, "bike_id": "6f3c7213f596b19311ff6118da1d8254", "lat": 38.933256666666665, "fusion_lon": 0.0, "fusion_lat": 0.0, "type": "electric_scooter", "name": "6f3c7213f596b19311ff6118da1d8254", "is_disabled": 0, "rental_uris": {"ios": "https://dc.lft.to/lastmile_qr_scan", "android": "https://dc.lft.to/lastmile_qr_scan"}, "is_reserved": 0}, {"lon": -77.03344316666667, "bike_id": "102708231c0817a3079bad26285318bb", "lat": 38.935194, "fusion_lon": 0.0, "fusion_lat": 0.0, "type": "electric_scooter", "name": "102708231c0817a3079bad26285318bb", "is_disabled": 0, "rental_uris": {"ios": "https://dc.lft.to/lastmile_qr_scan", "android": "https://dc.lft.to/lastmile_qr_scan"}, "is_reserved": 0}, {"lon": -76.982487, "bike_id": "72bb7ace97c194deabc799ebfed95f9f", "lat": 38.86457133333333, "fusion_lon": 0.0, "fusion_lat": 0.0, "type": "electric_scooter", "name": "72bb7ace97c194deabc799ebfed95f9f", "is_disabled": 0, "rental_uris": {"ios": "https://dc.lft.to/lastmile_qr_scan", "android": "https://dc.lft.to/lastmile_qr_scan"}, "is_reserved": 0}, {"lon": -77.04693633333333, "bike_id": "cf65fd8044619ecb545f33053bdd59a3", "lat": 38.918946, "fusion_lon": 0.0, "fusion_lat": 0.0, "type": "electric_scooter", "name": "cf65fd8044619ecb545f33053bdd59a3", "is_disabled": 0, "rental_uris": {"ios": "https://dc.lft.to/lastmile_qr_scan", "android": "https://dc.lft.to/lastmile_qr_scan"}, "is_reserved": 0}, {"lon": -77.03666783333334, "bike_id": "ed4b54539b736720087407772ea6e9e6", "lat": 38.933394666666665, "fusion_lon": 0.0, "fusion_lat": 0.0, "type": "electric_scooter", "name": "ed4b54539b736720087407772ea6e9e6", "is_disabled": 0, "rental_uris": {"ios": "https://dc.lft.to/lastmile_qr_scan", "android": "https://dc.lft.to/lastmile_qr_scan"}, "is_reserved": 0}, {"lon": -77.046958, "bike_id": "d52ea9354c15e6b33606c3f4ed4a939a", "lat": 38.92055416666667, "fusion_lon": 0.0, "fusion_lat": 0.0, "type": "electric_scooter", "name": "d52ea9354c15e6b33606c3f4ed4a939a", "is_disabled": 0, "rental_uris": {"ios": "https://dc.lft.to/lastmile_qr_scan", "android": "https://dc.lft.to/lastmile_qr_scan"}, "is_reserved": 0}, {"lon": -76.94939833333333, "bike_id": "5ed999493b9641ba79ce1b3243ddd0f8", "lat": 38.90366916666667, "fusion_lon": 0.0, "fusion_lat": 0.0, "type": "electric_scooter", "name": "5ed999493b9641ba79ce1b3243ddd0f8", "is_disabled": 0, "rental_uris": {"ios": "https://dc.lft.to/lastmile_qr_scan", "android": "https://dc.lft.to/lastmile_qr_scan"}, "is_reserved": 0}, {"lon": -77.0326905, "bike_id": "c4bd785165b06cebc8ccb27a329c655b", "lat": 38.932252, "fusion_lon": 0.0, "fusion_lat": 0.0, "type": "electric_scooter", "name": "c4bd785165b06cebc8ccb27a329c655b", "is_disabled": 0, "rental_uris": {"ios": "https://dc.lft.to/lastmile_qr_scan", "android": "https://dc.lft.to/lastmile_qr_scan"}, "is_reserved": 0}, {"lon": -76.99866966666667, "bike_id": "5b33d6c0096003ee5ce22d3e883e9242", "lat": 38.9002585, "fusion_lon": 0.0, "fusion_lat": 0.0, "type": "electric_scooter", "name": "5b33d6c0096003ee5ce22d3e883e9242", "is_disabled": 0, "rental_uris": {"ios": "https://dc.lft.to/lastmile_qr_scan", "android": "https://dc.lft.to/lastmile_qr_scan"}, "is_reserved": 0}, {"lon": -77.026888, "bike_id": "1b328e24e395f41df38c1e70e53e007c", "lat": 38.90395616666667, "fusion_lon": 0.0, "fusion_lat": 0.0, "type": "electric_scooter", "name": "1b328e24e395f41df38c1e70e53e007c", "is_disabled": 0, "rental_uris": {"ios": "https://dc.lft.to/lastmile_qr_scan", "android": "https://dc.lft.to/lastmile_qr_scan"}, "is_reserved": 0}, {"lon": -77.00189116666667, "bike_id": "e6e52169c45db0678e12e6e7c1b24f4d", "lat": 38.894741833333335, "fusion_lon": 0.0, "fusion_lat": 0.0, "type": "electric_scooter", "name": "e6e52169c45db0678e12e6e7c1b24f4d", "is_disabled": 0, "rental_uris": {"ios": "https://dc.lft.to/lastmile_qr_scan", "android": "https://dc.lft.to/lastmile_qr_scan"}, "is_reserved": 0}, {"lon": -77.01476083333333, "bike_id": "8480524e1f79cb76d3324fe11249f0f0", "lat": 38.919263, "fusion_lon": 0.0, "fusion_lat": 0.0, "type": "electric_scooter", "name": "8480524e1f79cb76d3324fe11249f0f0", "is_disabled": 0, "rental_uris": {"ios": "https://dc.lft.to/lastmile_qr_scan", "android": "https://dc.lft.to/lastmile_qr_scan"}, "is_reserved": 0}, {"lon": -76.99791216666667, "bike_id": "69b9e4c7e60c81817753593109b66cdd", "lat": 38.89095533333333, "fusion_lon": 0.0, "fusion_lat": 0.0, "type": "electric_scooter", "name": "69b9e4c7e60c81817753593109b66cdd", "is_disabled": 0, "rental_uris": {"ios": "https://dc.lft.to/lastmile_qr_scan", "android": "https://dc.lft.to/lastmile_qr_scan"}, "is_reserved": 0}, {"lon": -77.0290605, "bike_id": "d6221b8eac274296c7b8ec22b0d2c65d", "lat": 38.9168805, "fusion_lon": 0.0, "fusion_lat": 0.0, "type": "electric_scooter", "name": "d6221b8eac274296c7b8ec22b0d2c65d", "is_disabled": 0, "rental_uris": {"ios": "https://dc.lft.to/lastmile_qr_scan", "android": "https://dc.lft.to/lastmile_qr_scan"}, "is_reserved": 0}, {"lon": -77.0738435, "bike_id": "adf0da34530d429dfd61c7ca1afdfae5", "lat": 38.962189, "fusion_lon": 0.0, "fusion_lat": 0.0, "type": "electric_scooter", "name": "adf0da34530d429dfd61c7ca1afdfae5", "is_disabled": 0, "rental_uris": {"ios": "https://dc.lft.to/lastmile_qr_scan", "android": "https://dc.lft.to/lastmile_qr_scan"}, "is_reserved": 0}, {"lon": -77.02726016666666, "bike_id": "aefbd2300b2e1040b61098d0565f960c", "lat": 38.902764166666664, "fusion_lon": 0.0, "fusion_lat": 0.0, "type": "electric_scooter", "name": "aefbd2300b2e1040b61098d0565f960c", "is_disabled": 0, "rental_uris": {"ios": "https://dc.lft.to/lastmile_qr_scan", "android": "https://dc.lft.to/lastmile_qr_scan"}, "is_reserved": 0}, {"lon": -77.03449416666666, "bike_id": "413312a2f03f9af6b85003dbff21e72b", "lat": 38.93611116666667, "fusion_lon": 0.0, "fusion_lat": 0.0, "type": "electric_scooter", "name": "413312a2f03f9af6b85003dbff21e72b", "is_disabled": 0, "rental_uris": {"ios": "https://dc.lft.to/lastmile_qr_scan", "android": "https://dc.lft.to/lastmile_qr_scan"}, "is_reserved": 0}, {"lon": -76.98527566666667, "bike_id": "eb31e7dd8b60f08d0ed4235d4c8aa862", "lat": 38.866879833333336, "fusion_lon": 0.0, "fusion_lat": 0.0, "type": "electric_scooter", "name": "eb31e7dd8b60f08d0ed4235d4c8aa862", "is_disabled": 0, "rental_uris": {"ios": "https://dc.lft.to/lastmile_qr_scan", "android": "https://dc.lft.to/lastmile_qr_scan"}, "is_reserved": 0}, {"lon": -77.01480533333333, "bike_id": "73073796482ed6e897ecc62df863f1f7", "lat": 38.958694666666666, "fusion_lon": 0.0, "fusion_lat": 0.0, "type": "electric_scooter", "name": "73073796482ed6e897ecc62df863f1f7", "is_disabled": 0, "rental_uris": {"ios": "https://dc.lft.to/lastmile_qr_scan", "android": "https://dc.lft.to/lastmile_qr_scan"}, "is_reserved": 0}, {"lon": -77.0413455, "bike_id": "c196d247405f6cff9e5a8f8ff732218c", "lat": 38.90635916666667, "fusion_lon": 0.0, "fusion_lat": 0.0, "type": "electric_scooter", "name": "c196d247405f6cff9e5a8f8ff732218c", "is_disabled": 0, "rental_uris": {"ios": "https://dc.lft.to/lastmile_qr_scan", "android": "https://dc.lft.to/lastmile_qr_scan"}, "is_reserved": 0}, {"lon": -77.115779, "bike_id": "89e5ed3f77fda22905a7134c719d9016", "lat": 38.993441, "fusion_lon": 0.0, "fusion_lat": 0.0, "type": "electric_bike", "name": "89e5ed3f77fda22905a7134c719d9016", "is_disabled": 0, "rental_uris": {"ios": "https://dc.lft.to/lastmile_qr_scan", "android": "https://dc.lft.to/lastmile_qr_scan"}, "is_reserved": 0}, {"lon": -77.05933466666667, "bike_id": "ef971ace143d6909b0ef1a53e9bd45ae", "lat": 38.90532183333333, "fusion_lon": 0.0, "fusion_lat": 0.0, "type": "electric_bike", "name": "ef971ace143d6909b0ef1a53e9bd45ae", "is_disabled": 0, "rental_uris": {"ios": "https://dc.lft.to/lastmile_qr_scan", "android": "https://dc.lft.to/lastmile_qr_scan"}, "is_reserved": 0}, {"lon": -77.00200216666667, "bike_id": "67fc20125eefce3ef3ad7b48c2ebbe47", "lat": 38.9024385, "fusion_lon": 0.0, "fusion_lat": 0.0, "type": "electric_scooter", "name": "67fc20125eefce3ef3ad7b48c2ebbe47", "is_disabled": 0, "rental_uris": {"ios": "https://dc.lft.to/lastmile_qr_scan", "android": "https://dc.lft.to/lastmile_qr_scan"}, "is_reserved": 0}, {"lon": -77.03648266666667, "bike_id": "907dc566ec760002e9dc444e5a71ffe7", "lat": 38.91821816666667, "fusion_lon": 0.0, "fusion_lat": 0.0, "type": "electric_scooter", "name": "907dc566ec760002e9dc444e5a71ffe7", "is_disabled": 0, "rental_uris": {"ios": "https://dc.lft.to/lastmile_qr_scan", "android": "https://dc.lft.to/lastmile_qr_scan"}, "is_reserved": 0}, {"lon": -76.97924616666667, "bike_id": "a76a475a137d80b2e3ba72b229d7fb5f", "lat": 38.904991833333334, "fusion_lon": 0.0, "fusion_lat": 0.0, "type": "electric_scooter", "name": "a76a475a137d80b2e3ba72b229d7fb5f", "is_disabled": 0, "rental_uris": {"ios": "https://dc.lft.to/lastmile_qr_scan", "android": "https://dc.lft.to/lastmile_qr_scan"}, "is_reserved": 0}, {"lon": -76.9900145, "bike_id": "b9f7d8dfbc259a94bae1dbc315aae585", "lat": 38.86508233333333, "fusion_lon": 0.0, "fusion_lat": 0.0, "type": "electric_scooter", "name": "b9f7d8dfbc259a94bae1dbc315aae585", "is_disabled": 0, "rental_uris": {"ios": "https://dc.lft.to/lastmile_qr_scan", "android": "https://dc.lft.to/lastmile_qr_scan"}, "is_reserved": 0}, {"lon": -76.99369233333333, "bike_id": "1d4fa1677157d5e05e3873c17f04c88c", "lat": 38.879731166666666, "fusion_lon": 0.0, "fusion_lat": 0.0, "type": "electric_scooter", "name": "1d4fa1677157d5e05e3873c17f04c88c", "is_disabled": 0, "rental_uris": {"ios": "https://dc.lft.to/lastmile_qr_scan", "android": "https://dc.lft.to/lastmile_qr_scan"}, "is_reserved": 0}, {"lon": -77.098632, "bike_id": "9f1cf9edbd085f1760c0e56a99c02270", "lat": 38.9496375, "fusion_lon": 0.0, "fusion_lat": 0.0, "type": "electric_scooter", "name": "9f1cf9edbd085f1760c0e56a99c02270", "is_disabled": 0, "rental_uris": {"ios": "https://dc.lft.to/lastmile_qr_scan", "android": "https://dc.lft.to/lastmile_qr_scan"}, "is_reserved": 0}, {"lon": -77.01312816666666, "bike_id": "90339e53a3f43ffc47aeac3efd6c7919", "lat": 38.871523333333336, "fusion_lon": 0.0, "fusion_lat": 0.0, "type": "electric_scooter", "name": "90339e53a3f43ffc47aeac3efd6c7919", "is_disabled": 0, "rental_uris": {"ios": "https://dc.lft.to/lastmile_qr_scan", "android": "https://dc.lft.to/lastmile_qr_scan"}, "is_reserved": 0}, {"lon": -77.037439, "bike_id": "5f05d3cb038316fd392da521c47cec66", "lat": 38.918088, "fusion_lon": 0.0, "fusion_lat": 0.0, "type": "electric_scooter", "name": "5f05d3cb038316fd392da521c47cec66", "is_disabled": 0, "rental_uris": {"ios": "https://dc.lft.to/lastmile_qr_scan", "android": "https://dc.lft.to/lastmile_qr_scan"}, "is_reserved": 0}, {"lon": -77.02737133333333, "bike_id": "5611e9b095ecbc658b3b63043ee32443", "lat": 38.897208666666664, "fusion_lon": 0.0, "fusion_lat": 0.0, "type": "electric_scooter", "name": "5611e9b095ecbc658b3b63043ee32443", "is_disabled": 0, "rental_uris": {"ios": "https://dc.lft.to/lastmile_qr_scan", "android": "https://dc.lft.to/lastmile_qr_scan"}, "is_reserved": 0}, {"lon": -77.02724, "bike_id": "259b1a7f24c54d79adf1ee08eeef30e2", "lat": 38.913370666666665, "fusion_lon": 0.0, "fusion_lat": 0.0, "type": "electric_scooter", "name": "259b1a7f24c54d79adf1ee08eeef30e2", "is_disabled": 0, "rental_uris": {"ios": "https://dc.lft.to/lastmile_qr_scan", "android": "https://dc.lft.to/lastmile_qr_scan"}, "is_reserved": 0}, {"lon": -77.01153833333333, "bike_id": "f688ae82c400e442ebe1d4ad31cc4c5f", "lat": 38.90011366666667, "fusion_lon": 0.0, "fusion_lat": 0.0, "type": "electric_scooter", "name": "f688ae82c400e442ebe1d4ad31cc4c5f", "is_disabled": 0, "rental_uris": {"ios": "https://dc.lft.to/lastmile_qr_scan", "android": "https://dc.lft.to/lastmile_qr_scan"}, "is_reserved": 0}, {"lon": -76.99458116666666, "bike_id": "67e0b6b4b3113b581ece0d301bf3298a", "lat": 38.96619716666667, "fusion_lon": 0.0, "fusion_lat": 0.0, "type": "electric_bike", "name": "67e0b6b4b3113b581ece0d301bf3298a", "is_disabled": 0, "rental_uris": {"ios": "https://dc.lft.to/lastmile_qr_scan", "android": "https://dc.lft.to/lastmile_qr_scan"}, "is_reserved": 0}, {"lon": -77.0432755, "bike_id": "52138f051fc2b87057d9c0872567ea34", "lat": 38.907233166666664, "fusion_lon": 0.0, "fusion_lat": 0.0, "type": "electric_scooter", "name": "52138f051fc2b87057d9c0872567ea34", "is_disabled": 0, "rental_uris": {"ios": "https://dc.lft.to/lastmile_qr_scan", "android": "https://dc.lft.to/lastmile_qr_scan"}, "is_reserved": 0}, {"lon": -76.99035816666667, "bike_id": "bdd508729508b0e012bcb27f87d9efd1", "lat": 38.8985295, "fusion_lon": 0.0, "fusion_lat": 0.0, "type": "electric_scooter", "name": "bdd508729508b0e012bcb27f87d9efd1", "is_disabled": 0, "rental_uris": {"ios": "https://dc.lft.to/lastmile_qr_scan", "android": "https://dc.lft.to/lastmile_qr_scan"}, "is_reserved": 0}, {"lon": -77.027976, "bike_id": "3378aad35e965f59319e2654c43266b5", "lat": 38.93083166666667, "fusion_lon": 0.0, "fusion_lat": 0.0, "type": "electric_scooter", "name": "3378aad35e965f59319e2654c43266b5", "is_disabled": 0, "rental_uris": {"ios": "https://dc.lft.to/lastmile_qr_scan", "android": "https://dc.lft.to/lastmile_qr_scan"}, "is_reserved": 0}, {"lon": -77.01631616666667, "bike_id": "effd9baff14fe4bba9f29d9ac1f13e7d", "lat": 38.902358666666665, "fusion_lon": 0.0, "fusion_lat": 0.0, "type": "electric_scooter", "name": "effd9baff14fe4bba9f29d9ac1f13e7d", "is_disabled": 0, "rental_uris": {"ios": "https://dc.lft.to/lastmile_qr_scan", "android": "https://dc.lft.to/lastmile_qr_scan"}, "is_reserved": 0}, {"lon": -77.048493, "bike_id": "4c2072aaaefc7bddf1a7dce3a4f20def", "lat": 38.9043555, "fusion_lon": 0.0, "fusion_lat": 0.0, "type": "electric_scooter", "name": "4c2072aaaefc7bddf1a7dce3a4f20def", "is_disabled": 0, "rental_uris": {"ios": "https://dc.lft.to/lastmile_qr_scan", "android": "https://dc.lft.to/lastmile_qr_scan"}, "is_reserved": 0}, {"lon": -76.984914, "bike_id": "0fe18064b8a753be16bd808c74a842c8", "lat": 38.878372666666664, "fusion_lon": 0.0, "fusion_lat": 0.0, "type": "electric_scooter", "name": "0fe18064b8a753be16bd808c74a842c8", "is_disabled": 0, "rental_uris": {"ios": "https://dc.lft.to/lastmile_qr_scan", "android": "https://dc.lft.to/lastmile_qr_scan"}, "is_reserved": 0}, {"lon": -77.0325915, "bike_id": "407913421170082f12a3d6ca3715c9bd", "lat": 38.937760833333336, "fusion_lon": 0.0, "fusion_lat": 0.0, "type": "electric_scooter", "name": "407913421170082f12a3d6ca3715c9bd", "is_disabled": 0, "rental_uris": {"ios": "https://dc.lft.to/lastmile_qr_scan", "android": "https://dc.lft.to/lastmile_qr_scan"}, "is_reserved": 0}, {"lon": -77.02556, "bike_id": "1bc561d74b32c96a8a9e2067d49f7b43", "lat": 38.920897333333336, "fusion_lon": 0.0, "fusion_lat": 0.0, "type": "electric_scooter", "name": "1bc561d74b32c96a8a9e2067d49f7b43", "is_disabled": 0, "rental_uris": {"ios": "https://dc.lft.to/lastmile_qr_scan", "android": "https://dc.lft.to/lastmile_qr_scan"}, "is_reserved": 0}, {"lon": -77.0521945, "bike_id": "30c293bdf5a871a1b8514a331a493efb", "lat": 38.915682333333336, "fusion_lon": 0.0, "fusion_lat": 0.0, "type": "electric_scooter", "name": "30c293bdf5a871a1b8514a331a493efb", "is_disabled": 0, "rental_uris": {"ios": "https://dc.lft.to/lastmile_qr_scan", "android": "https://dc.lft.to/lastmile_qr_scan"}, "is_reserved": 0}, {"lon": -76.96522483333334, "bike_id": "33ba4a4b2ec7ccb3f635483074315de3", "lat": 38.876294, "fusion_lon": 0.0, "fusion_lat": 0.0, "type": "electric_scooter", "name": "33ba4a4b2ec7ccb3f635483074315de3", "is_disabled": 0, "rental_uris": {"ios": "https://dc.lft.to/lastmile_qr_scan", "android": "https://dc.lft.to/lastmile_qr_scan"}, "is_reserved": 0}, {"lon": -77.05699583333333, "bike_id": "02344ea59e885223182636bad3afd397", "lat": 38.905512, "fusion_lon": 0.0, "fusion_lat": 0.0, "type": "electric_scooter", "name": "02344ea59e885223182636bad3afd397", "is_disabled": 0, "rental_uris": {"ios": "https://dc.lft.to/lastmile_qr_scan", "android": "https://dc.lft.to/lastmile_qr_scan"}, "is_reserved": 0}, {"lon": -77.036794, "bike_id": "5897c51c94afd5ffeeb9d3f43de6ed92", "lat": 38.920964166666664, "fusion_lon": 0.0, "fusion_lat": 0.0, "type": "electric_scooter", "name": "5897c51c94afd5ffeeb9d3f43de6ed92", "is_disabled": 0, "rental_uris": {"ios": "https://dc.lft.to/lastmile_qr_scan", "android": "https://dc.lft.to/lastmile_qr_scan"}, "is_reserved": 0}, {"lon": -77.0473525, "bike_id": "ce55fa14ac0720d8366b1899b3c9014d", "lat": 38.90719083333333, "fusion_lon": 0.0, "fusion_lat": 0.0, "type": "electric_scooter", "name": "ce55fa14ac0720d8366b1899b3c9014d", "is_disabled": 0, "rental_uris": {"ios": "https://dc.lft.to/lastmile_qr_scan", "android": "https://dc.lft.to/lastmile_qr_scan"}, "is_reserved": 0}, {"lon": -76.94113966666667, "bike_id": "e9a2c5ad5e418bc35f70e201271bb024", "lat": 38.886485, "fusion_lon": 0.0, "fusion_lat": 0.0, "type": "electric_scooter", "name": "e9a2c5ad5e418bc35f70e201271bb024", "is_disabled": 0, "rental_uris": {"ios": "https://dc.lft.to/lastmile_qr_scan", "android": "https://dc.lft.to/lastmile_qr_scan"}, "is_reserved": 0}, {"lon": -76.97625466666666, "bike_id": "f1f36d127acbeb6d9d83a93c13317c7c", "lat": 38.905726666666666, "fusion_lon": 0.0, "fusion_lat": 0.0, "type": "electric_scooter", "name": "f1f36d127acbeb6d9d83a93c13317c7c", "is_disabled": 0, "rental_uris": {"ios": "https://dc.lft.to/lastmile_qr_scan", "android": "https://dc.lft.to/lastmile_qr_scan"}, "is_reserved": 0}, {"lon": -77.02508016666667, "bike_id": "87bfec091e0dbb2a4f3e734b17889d61", "lat": 38.939630666666666, "fusion_lon": 0.0, "fusion_lat": 0.0, "type": "electric_scooter", "name": "87bfec091e0dbb2a4f3e734b17889d61", "is_disabled": 0, "rental_uris": {"ios": "https://dc.lft.to/lastmile_qr_scan", "android": "https://dc.lft.to/lastmile_qr_scan"}, "is_reserved": 0}, {"lon": -77.034368, "bike_id": "f188032e456fc08b7fdc7a4a7f1e60d6", "lat": 38.90973866666667, "fusion_lon": 0.0, "fusion_lat": 0.0, "type": "electric_scooter", "name": "f188032e456fc08b7fdc7a4a7f1e60d6", "is_disabled": 0, "rental_uris": {"ios": "https://dc.lft.to/lastmile_qr_scan", "android": "https://dc.lft.to/lastmile_qr_scan"}, "is_reserved": 0}, {"lon": -77.0745305, "bike_id": "cca4b763d503d02752e58d71796c1353", "lat": 38.945094, "fusion_lon": 0.0, "fusion_lat": 0.0, "type": "electric_scooter", "name": "cca4b763d503d02752e58d71796c1353", "is_disabled": 0, "rental_uris": {"ios": "https://dc.lft.to/lastmile_qr_scan", "android": "https://dc.lft.to/lastmile_qr_scan"}, "is_reserved": 0}, {"lon": -76.99934066666667, "bike_id": "03a0dec4387b17a9ea2e644afb6d8709", "lat": 38.843130333333335, "fusion_lon": 0.0, "fusion_lat": 0.0, "type": "electric_scooter", "name": "03a0dec4387b17a9ea2e644afb6d8709", "is_disabled": 0, "rental_uris": {"ios": "https://dc.lft.to/lastmile_qr_scan", "android": "https://dc.lft.to/lastmile_qr_scan"}, "is_reserved": 0}, {"lon": -77.02707266666667, "bike_id": "21e1561f0905d1ee5ceffca607a7a1e7", "lat": 38.90671366666667, "fusion_lon": 0.0, "fusion_lat": 0.0, "type": "electric_scooter", "name": "21e1561f0905d1ee5ceffca607a7a1e7", "is_disabled": 0, "rental_uris": {"ios": "https://dc.lft.to/lastmile_qr_scan", "android": "https://dc.lft.to/lastmile_qr_scan"}, "is_reserved": 0}, {"lon": -77.12526483333333, "bike_id": "16b665304c29a811588149268661d2cd", "lat": 39.056359666666665, "fusion_lon": 0.0, "fusion_lat": 0.0, "type": "electric_bike", "name": "16b665304c29a811588149268661d2cd", "is_disabled": 0, "rental_uris": {"ios": "https://dc.lft.to/lastmile_qr_scan", "android": "https://dc.lft.to/lastmile_qr_scan"}, "is_reserved": 0}, {"lon": -77.036569, "bike_id": "802dac9648de7d77194e721f048673ee", "lat": 38.91747433333333, "fusion_lon": 0.0, "fusion_lat": 0.0, "type": "electric_scooter", "name": "802dac9648de7d77194e721f048673ee", "is_disabled": 0, "rental_uris": {"ios": "https://dc.lft.to/lastmile_qr_scan", "android": "https://dc.lft.to/lastmile_qr_scan"}, "is_reserved": 0}, {"lon": -77.03631033333333, "bike_id": "90559a1a1174c8bd5d0fa8e68f7fe0fc", "lat": 38.93295883333333, "fusion_lon": 0.0, "fusion_lat": 0.0, "type": "electric_scooter", "name": "90559a1a1174c8bd5d0fa8e68f7fe0fc", "is_disabled": 0, "rental_uris": {"ios": "https://dc.lft.to/lastmile_qr_scan", "android": "https://dc.lft.to/lastmile_qr_scan"}, "is_reserved": 0}, {"lon": -77.0285925, "bike_id": "eb477a97359d3e6639c2cdb4e3069580", "lat": 38.887534, "fusion_lon": 0.0, "fusion_lat": 0.0, "type": "electric_scooter", "name": "eb477a97359d3e6639c2cdb4e3069580", "is_disabled": 0, "rental_uris": {"ios": "https://dc.lft.to/lastmile_qr_scan", "android": "https://dc.lft.to/lastmile_qr_scan"}, "is_reserved": 0}, {"lon": -77.02169016666667, "bike_id": "4b3e1173be9689ce79a354af739a35a0", "lat": 38.8973905, "fusion_lon": 0.0, "fusion_lat": 0.0, "type": "electric_scooter", "name": "4b3e1173be9689ce79a354af739a35a0", "is_disabled": 0, "rental_uris": {"ios": "https://dc.lft.to/lastmile_qr_scan", "android": "https://dc.lft.to/lastmile_qr_scan"}, "is_reserved": 0}, {"lon": -77.02897766666666, "bike_id": "d8aad94c67650400ad4830036cfe8744", "lat": 38.92815866666667, "fusion_lon": 0.0, "fusion_lat": 0.0, "type": "electric_scooter", "name": "d8aad94c67650400ad4830036cfe8744", "is_disabled": 0, "rental_uris": {"ios": "https://dc.lft.to/lastmile_qr_scan", "android": "https://dc.lft.to/lastmile_qr_scan"}, "is_reserved": 0}, {"lon": -77.00952983333333, "bike_id": "1a2f67e84ca7bda7068c10628d95eca9", "lat": 38.9533865, "fusion_lon": 0.0, "fusion_lat": 0.0, "type": "electric_bike", "name": "1a2f67e84ca7bda7068c10628d95eca9", "is_disabled": 0, "rental_uris": {"ios": "https://dc.lft.to/lastmile_qr_scan", "android": "https://dc.lft.to/lastmile_qr_scan"}, "is_reserved": 0}, {"lon": -77.03259883333334, "bike_id": "3407e99b0edcc5a6a8a1bcfe350c9275", "lat": 38.93766183333334, "fusion_lon": 0.0, "fusion_lat": 0.0, "type": "electric_scooter", "name": "3407e99b0edcc5a6a8a1bcfe350c9275", "is_disabled": 0, "rental_uris": {"ios": "https://dc.lft.to/lastmile_qr_scan", "android": "https://dc.lft.to/lastmile_qr_scan"}, "is_reserved": 0}, {"lon": -77.04573766666667, "bike_id": "13d02013375df31fc97484af16d40d90", "lat": 38.913321833333335, "fusion_lon": 0.0, "fusion_lat": 0.0, "type": "electric_scooter", "name": "13d02013375df31fc97484af16d40d90", "is_disabled": 0, "rental_uris": {"ios": "https://dc.lft.to/lastmile_qr_scan", "android": "https://dc.lft.to/lastmile_qr_scan"}, "is_reserved": 0}, {"lon": -77.02585266666667, "bike_id": "512d62dfa50b3104a777bf9a4b418c29", "lat": 38.90487866666667, "fusion_lon": 0.0, "fusion_lat": 0.0, "type": "electric_scooter", "name": "512d62dfa50b3104a777bf9a4b418c29", "is_disabled": 0, "rental_uris": {"ios": "https://dc.lft.to/lastmile_qr_scan", "android": "https://dc.lft.to/lastmile_qr_scan"}, "is_reserved": 0}, {"lon": -77.031741, "bike_id": "7a6481afda8574c04fcc426d3067f50c", "lat": 38.887348333333335, "fusion_lon": 0.0, "fusion_lat": 0.0, "type": "electric_scooter", "name": "7a6481afda8574c04fcc426d3067f50c", "is_disabled": 0, "rental_uris": {"ios": "https://dc.lft.to/lastmile_qr_scan", "android": "https://dc.lft.to/lastmile_qr_scan"}, "is_reserved": 0}, {"lon": -76.98647716666666, "bike_id": "cad9a4b27cb00ae52d48d840b6a2485a", "lat": 38.898338333333335, "fusion_lon": 0.0, "fusion_lat": 0.0, "type": "electric_scooter", "name": "cad9a4b27cb00ae52d48d840b6a2485a", "is_disabled": 0, "rental_uris": {"ios": "https://dc.lft.to/lastmile_qr_scan", "android": "https://dc.lft.to/lastmile_qr_scan"}, "is_reserved": 0}, {"lon": -77.03578466666667, "bike_id": "60ca11ef8e25a0d9af4a91b7fe145f35", "lat": 38.93654766666667, "fusion_lon": 0.0, "fusion_lat": 0.0, "type": "electric_scooter", "name": "60ca11ef8e25a0d9af4a91b7fe145f35", "is_disabled": 0, "rental_uris": {"ios": "https://dc.lft.to/lastmile_qr_scan", "android": "https://dc.lft.to/lastmile_qr_scan"}, "is_reserved": 0}, {"lon": -77.01948616666667, "bike_id": "a051b2443112203c657365c6705114a4", "lat": 38.922594833333335, "fusion_lon": 0.0, "fusion_lat": 0.0, "type": "electric_scooter", "name": "a051b2443112203c657365c6705114a4", "is_disabled": 0, "rental_uris": {"ios": "https://dc.lft.to/lastmile_qr_scan", "android": "https://dc.lft.to/lastmile_qr_scan"}, "is_reserved": 0}, {"lon": -77.02797616666666, "bike_id": "02ae9f274b93482310fe279b9f2854ea", "lat": 38.929615166666665, "fusion_lon": 0.0, "fusion_lat": 0.0, "type": "electric_scooter", "name": "02ae9f274b93482310fe279b9f2854ea", "is_disabled": 0, "rental_uris": {"ios": "https://dc.lft.to/lastmile_qr_scan", "android": "https://dc.lft.to/lastmile_qr_scan"}, "is_reserved": 0}, {"lon": -76.98262733333334, "bike_id": "ac054d650684fe2d7feedff16403d02c", "lat": 38.908570833333336, "fusion_lon": 0.0, "fusion_lat": 0.0, "type": "electric_scooter", "name": "ac054d650684fe2d7feedff16403d02c", "is_disabled": 0, "rental_uris": {"ios": "https://dc.lft.to/lastmile_qr_scan", "android": "https://dc.lft.to/lastmile_qr_scan"}, "is_reserved": 0}, {"lon": -77.03863733333333, "bike_id": "4518708f8290b8324f9a195ceb60fa9b", "lat": 38.91686516666667, "fusion_lon": 0.0, "fusion_lat": 0.0, "type": "electric_scooter", "name": "4518708f8290b8324f9a195ceb60fa9b", "is_disabled": 0, "rental_uris": {"ios": "https://dc.lft.to/lastmile_qr_scan", "android": "https://dc.lft.to/lastmile_qr_scan"}, "is_reserved": 0}, {"lon": -77.03577116666666, "bike_id": "947f9e6fc511e73d4b2c7bac980733af", "lat": 38.936781833333335, "fusion_lon": 0.0, "fusion_lat": 0.0, "type": "electric_scooter", "name": "947f9e6fc511e73d4b2c7bac980733af", "is_disabled": 0, "rental_uris": {"ios": "https://dc.lft.to/lastmile_qr_scan", "android": "https://dc.lft.to/lastmile_qr_scan"}, "is_reserved": 0}, {"lon": -76.98001716666667, "bike_id": "23fd0b930b55f37c32c367fbd9df75f0", "lat": 38.906816666666664, "fusion_lon": 0.0, "fusion_lat": 0.0, "type": "electric_scooter", "name": "23fd0b930b55f37c32c367fbd9df75f0", "is_disabled": 0, "rental_uris": {"ios": "https://dc.lft.to/lastmile_qr_scan", "android": "https://dc.lft.to/lastmile_qr_scan"}, "is_reserved": 0}, {"lon": -76.98717083333334, "bike_id": "d18429381cfa83a7ecbcbeadf903bfe0", "lat": 38.866257166666664, "fusion_lon": 0.0, "fusion_lat": 0.0, "type": "electric_scooter", "name": "d18429381cfa83a7ecbcbeadf903bfe0", "is_disabled": 0, "rental_uris": {"ios": "https://dc.lft.to/lastmile_qr_scan", "android": "https://dc.lft.to/lastmile_qr_scan"}, "is_reserved": 0}, {"lon": -77.0876885, "bike_id": "e7efb969dc5cdf89a85cfc91a0e7ef5d", "lat": 38.88949866666667, "fusion_lon": 0.0, "fusion_lat": 0.0, "type": "electric_bike", "name": "e7efb969dc5cdf89a85cfc91a0e7ef5d", "is_disabled": 0, "rental_uris": {"ios": "https://dc.lft.to/lastmile_qr_scan", "android": "https://dc.lft.to/lastmile_qr_scan"}, "is_reserved": 0}, {"lon": -77.07896366666667, "bike_id": "a5069b528572beca26b7b4c43b847a45", "lat": 38.83933716666667, "fusion_lon": 0.0, "fusion_lat": 0.0, "type": "electric_bike", "name": "a5069b528572beca26b7b4c43b847a45", "is_disabled": 0, "rental_uris": {"ios": "https://dc.lft.to/lastmile_qr_scan", "android": "https://dc.lft.to/lastmile_qr_scan"}, "is_reserved": 0}, {"lon": -76.95185466666666, "bike_id": "395ce24e35248814327e3b9d9fdf2927", "lat": 38.90738783333333, "fusion_lon": 0.0, "fusion_lat": 0.0, "type": "electric_scooter", "name": "395ce24e35248814327e3b9d9fdf2927", "is_disabled": 0, "rental_uris": {"ios": "https://dc.lft.to/lastmile_qr_scan", "android": "https://dc.lft.to/lastmile_qr_scan"}, "is_reserved": 0}, {"lon": -77.017401, "bike_id": "51ed57cc75a959ab4ce99c45694aea84", "lat": 38.87801283333334, "fusion_lon": 0.0, "fusion_lat": 0.0, "type": "electric_scooter", "name": "51ed57cc75a959ab4ce99c45694aea84", "is_disabled": 0, "rental_uris": {"ios": "https://dc.lft.to/lastmile_qr_scan", "android": "https://dc.lft.to/lastmile_qr_scan"}, "is_reserved": 0}, {"lon": -76.98192633333333, "bike_id": "45ff9f82a45c29e5c37fc7e7993ea63c", "lat": 38.89946966666667, "fusion_lon": 0.0, "fusion_lat": 0.0, "type": "electric_scooter", "name": "45ff9f82a45c29e5c37fc7e7993ea63c", "is_disabled": 0, "rental_uris": {"ios": "https://dc.lft.to/lastmile_qr_scan", "android": "https://dc.lft.to/lastmile_qr_scan"}, "is_reserved": 0}, {"lon": -77.0272255, "bike_id": "53a401d5f48b7ec52789dd7f4af0f49c", "lat": 38.91339833333333, "fusion_lon": 0.0, "fusion_lat": 0.0, "type": "electric_scooter", "name": "53a401d5f48b7ec52789dd7f4af0f49c", "is_disabled": 0, "rental_uris": {"ios": "https://dc.lft.to/lastmile_qr_scan", "android": "https://dc.lft.to/lastmile_qr_scan"}, "is_reserved": 0}, {"lon": -77.02271833333333, "bike_id": "a8c87e2a7f2053b8b823887f65a3a352", "lat": 38.93767833333333, "fusion_lon": 0.0, "fusion_lat": 0.0, "type": "electric_scooter", "name": "a8c87e2a7f2053b8b823887f65a3a352", "is_disabled": 0, "rental_uris": {"ios": "https://dc.lft.to/lastmile_qr_scan", "android": "https://dc.lft.to/lastmile_qr_scan"}, "is_reserved": 0}, {"lon": -77.05413, "bike_id": "af252b160546f31c764accd4907f6340", "lat": 38.95047066666667, "fusion_lon": 0.0, "fusion_lat": 0.0, "type": "electric_scooter", "name": "af252b160546f31c764accd4907f6340", "is_disabled": 0, "rental_uris": {"ios": "https://dc.lft.to/lastmile_qr_scan", "android": "https://dc.lft.to/lastmile_qr_scan"}, "is_reserved": 0}, {"lon": -77.02944766666667, "bike_id": "52199c92143aa5fa5586fe7aa7b6fcd6", "lat": 38.8874315, "fusion_lon": 0.0, "fusion_lat": 0.0, "type": "electric_scooter", "name": "52199c92143aa5fa5586fe7aa7b6fcd6", "is_disabled": 0, "rental_uris": {"ios": "https://dc.lft.to/lastmile_qr_scan", "android": "https://dc.lft.to/lastmile_qr_scan"}, "is_reserved": 0}, {"lon": -77.0147185, "bike_id": "f0d667ebec1d7bcab1ac49765058e5a5", "lat": 38.940647, "fusion_lon": 0.0, "fusion_lat": 0.0, "type": "electric_bike", "name": "f0d667ebec1d7bcab1ac49765058e5a5", "is_disabled": 0, "rental_uris": {"ios": "https://dc.lft.to/lastmile_qr_scan", "android": "https://dc.lft.to/lastmile_qr_scan"}, "is_reserved": 0}, {"lon": -77.02976166666667, "bike_id": "ef3a03a87bd18d8b151c98513c127750", "lat": 38.939334833333334, "fusion_lon": 0.0, "fusion_lat": 0.0, "type": "electric_scooter", "name": "ef3a03a87bd18d8b151c98513c127750", "is_disabled": 0, "rental_uris": {"ios": "https://dc.lft.to/lastmile_qr_scan", "android": "https://dc.lft.to/lastmile_qr_scan"}, "is_reserved": 0}, {"lon": -76.98275166666667, "bike_id": "48a73b16fc78b43cc1b6aecf125544ef", "lat": 38.88527666666667, "fusion_lon": 0.0, "fusion_lat": 0.0, "type": "electric_scooter", "name": "48a73b16fc78b43cc1b6aecf125544ef", "is_disabled": 0, "rental_uris": {"ios": "https://dc.lft.to/lastmile_qr_scan", "android": "https://dc.lft.to/lastmile_qr_scan"}, "is_reserved": 0}, {"lon": -76.9834325, "bike_id": "55a24ebc9349e1260bbf9266f00bf911", "lat": 38.900994833333336, "fusion_lon": 0.0, "fusion_lat": 0.0, "type": "electric_scooter", "name": "55a24ebc9349e1260bbf9266f00bf911", "is_disabled": 0, "rental_uris": {"ios": "https://dc.lft.to/lastmile_qr_scan", "android": "https://dc.lft.to/lastmile_qr_scan"}, "is_reserved": 0}, {"lon": -77.03181033333334, "bike_id": "32f1f80be6d42e415a576655d0ae7d97", "lat": 38.8841225, "fusion_lon": 0.0, "fusion_lat": 0.0, "type": "electric_scooter", "name": "32f1f80be6d42e415a576655d0ae7d97", "is_disabled": 0, "rental_uris": {"ios": "https://dc.lft.to/lastmile_qr_scan", "android": "https://dc.lft.to/lastmile_qr_scan"}, "is_reserved": 0}, {"lon": -77.00199666666667, "bike_id": "da1165060f5cb7191f251d203195f07d", "lat": 38.895463666666664, "fusion_lon": 0.0, "fusion_lat": 0.0, "type": "electric_scooter", "name": "da1165060f5cb7191f251d203195f07d", "is_disabled": 0, "rental_uris": {"ios": "https://dc.lft.to/lastmile_qr_scan", "android": "https://dc.lft.to/lastmile_qr_scan"}, "is_reserved": 0}, {"lon": -77.02039783333333, "bike_id": "5b02d64bbda99dba805d3c5ad323c534", "lat": 38.908611666666665, "fusion_lon": 0.0, "fusion_lat": 0.0, "type": "electric_scooter", "name": "5b02d64bbda99dba805d3c5ad323c534", "is_disabled": 0, "rental_uris": {"ios": "https://dc.lft.to/lastmile_qr_scan", "android": "https://dc.lft.to/lastmile_qr_scan"}, "is_reserved": 0}, {"lon": -77.00526433333333, "bike_id": "0a87f0faf97945e69cb5ed5f33326497", "lat": 38.92978183333334, "fusion_lon": 0.0, "fusion_lat": 0.0, "type": "electric_scooter", "name": "0a87f0faf97945e69cb5ed5f33326497", "is_disabled": 0, "rental_uris": {"ios": "https://dc.lft.to/lastmile_qr_scan", "android": "https://dc.lft.to/lastmile_qr_scan"}, "is_reserved": 0}, {"lon": -76.92620816666667, "bike_id": "347257d6c686796d5635a3e28ea0ca5c", "lat": 38.88459733333333, "fusion_lon": 0.0, "fusion_lat": 0.0, "type": "electric_scooter", "name": "347257d6c686796d5635a3e28ea0ca5c", "is_disabled": 0, "rental_uris": {"ios": "https://dc.lft.to/lastmile_qr_scan", "android": "https://dc.lft.to/lastmile_qr_scan"}, "is_reserved": 0}, {"lon": -77.02799416666667, "bike_id": "18f801c59a0cd672c22916778b76f4a1", "lat": 38.9168215, "fusion_lon": 0.0, "fusion_lat": 0.0, "type": "electric_scooter", "name": "18f801c59a0cd672c22916778b76f4a1", "is_disabled": 0, "rental_uris": {"ios": "https://dc.lft.to/lastmile_qr_scan", "android": "https://dc.lft.to/lastmile_qr_scan"}, "is_reserved": 0}, {"lon": -76.9760305, "bike_id": "56564526ee08f922fcfad9227ccb50a2", "lat": 38.90568233333333, "fusion_lon": 0.0, "fusion_lat": 0.0, "type": "electric_scooter", "name": "56564526ee08f922fcfad9227ccb50a2", "is_disabled": 0, "rental_uris": {"ios": "https://dc.lft.to/lastmile_qr_scan", "android": "https://dc.lft.to/lastmile_qr_scan"}, "is_reserved": 0}, {"lon": -77.02212516666667, "bike_id": "2bc8a51c335595177d35bdf28cb922b1", "lat": 38.893579, "fusion_lon": 0.0, "fusion_lat": 0.0, "type": "electric_scooter", "name": "2bc8a51c335595177d35bdf28cb922b1", "is_disabled": 0, "rental_uris": {"ios": "https://dc.lft.to/lastmile_qr_scan", "android": "https://dc.lft.to/lastmile_qr_scan"}, "is_reserved": 0}, {"lon": -77.05412583333333, "bike_id": "58e7fd9540c9074c8acbc174a5992a46", "lat": 38.90150366666667, "fusion_lon": 0.0, "fusion_lat": 0.0, "type": "electric_scooter", "name": "58e7fd9540c9074c8acbc174a5992a46", "is_disabled": 0, "rental_uris": {"ios": "https://dc.lft.to/lastmile_qr_scan", "android": "https://dc.lft.to/lastmile_qr_scan"}, "is_reserved": 0}, {"lon": -77.00038166666667, "bike_id": "504d4a2ad9e62dbea83670ab225ad6a6", "lat": 38.9680555, "fusion_lon": 0.0, "fusion_lat": 0.0, "type": "electric_bike", "name": "504d4a2ad9e62dbea83670ab225ad6a6", "is_disabled": 0, "rental_uris": {"ios": "https://dc.lft.to/lastmile_qr_scan", "android": "https://dc.lft.to/lastmile_qr_scan"}, "is_reserved": 0}, {"lon": -77.03441266666667, "bike_id": "930d457a87355309fd2143d9766052d2", "lat": 38.91805633333333, "fusion_lon": 0.0, "fusion_lat": 0.0, "type": "electric_scooter", "name": "930d457a87355309fd2143d9766052d2", "is_disabled": 0, "rental_uris": {"ios": "https://dc.lft.to/lastmile_qr_scan", "android": "https://dc.lft.to/lastmile_qr_scan"}, "is_reserved": 0}, {"lon": -77.0344125, "bike_id": "23daeb3744372214393ab44eaba35aed", "lat": 38.9180365, "fusion_lon": 0.0, "fusion_lat": 0.0, "type": "electric_scooter", "name": "23daeb3744372214393ab44eaba35aed", "is_disabled": 0, "rental_uris": {"ios": "https://dc.lft.to/lastmile_qr_scan", "android": "https://dc.lft.to/lastmile_qr_scan"}, "is_reserved": 0}, {"lon": -77.03344983333334, "bike_id": "8ca04245c7439f7f4a86aa7beb4780a0", "lat": 38.89722583333333, "fusion_lon": 0.0, "fusion_lat": 0.0, "type": "electric_scooter", "name": "8ca04245c7439f7f4a86aa7beb4780a0", "is_disabled": 0, "rental_uris": {"ios": "https://dc.lft.to/lastmile_qr_scan", "android": "https://dc.lft.to/lastmile_qr_scan"}, "is_reserved": 0}, {"lon": -77.01623216666667, "bike_id": "f90e74993226db2e634d083b1a82612b", "lat": 38.9009945, "fusion_lon": 0.0, "fusion_lat": 0.0, "type": "electric_scooter", "name": "f90e74993226db2e634d083b1a82612b", "is_disabled": 0, "rental_uris": {"ios": "https://dc.lft.to/lastmile_qr_scan", "android": "https://dc.lft.to/lastmile_qr_scan"}, "is_reserved": 0}, {"lon": -77.03205733333333, "bike_id": "1a9bf82a0fec6053b850816c31c28f8c", "lat": 38.94409916666667, "fusion_lon": 0.0, "fusion_lat": 0.0, "type": "electric_scooter", "name": "1a9bf82a0fec6053b850816c31c28f8c", "is_disabled": 0, "rental_uris": {"ios": "https://dc.lft.to/lastmile_qr_scan", "android": "https://dc.lft.to/lastmile_qr_scan"}, "is_reserved": 0}, {"lon": -77.036539, "bike_id": "5f2eb7b2af6a2f1a3943b5ef25ff7a6c", "lat": 38.920888833333336, "fusion_lon": 0.0, "fusion_lat": 0.0, "type": "electric_scooter", "name": "5f2eb7b2af6a2f1a3943b5ef25ff7a6c", "is_disabled": 0, "rental_uris": {"ios": "https://dc.lft.to/lastmile_qr_scan", "android": "https://dc.lft.to/lastmile_qr_scan"}, "is_reserved": 0}, {"lon": -77.04345016666667, "bike_id": "64d7825e8dd17642e6a929dc527b024a", "lat": 38.900529, "fusion_lon": 0.0, "fusion_lat": 0.0, "type": "electric_scooter", "name": "64d7825e8dd17642e6a929dc527b024a", "is_disabled": 0, "rental_uris": {"ios": "https://dc.lft.to/lastmile_qr_scan", "android": "https://dc.lft.to/lastmile_qr_scan"}, "is_reserved": 0}, {"lon": -77.03773, "bike_id": "926293b99a7184d0241ea595d35f0bc3", "lat": 38.9294385, "fusion_lon": 0.0, "fusion_lat": 0.0, "type": "electric_scooter", "name": "926293b99a7184d0241ea595d35f0bc3", "is_disabled": 0, "rental_uris": {"ios": "https://dc.lft.to/lastmile_qr_scan", "android": "https://dc.lft.to/lastmile_qr_scan"}, "is_reserved": 0}, {"lon": -77.0237465, "bike_id": "f3b759d8bea1989a8bf79458d6064313", "lat": 38.90204283333333, "fusion_lon": 0.0, "fusion_lat": 0.0, "type": "electric_scooter", "name": "f3b759d8bea1989a8bf79458d6064313", "is_disabled": 0, "rental_uris": {"ios": "https://dc.lft.to/lastmile_qr_scan", "android": "https://dc.lft.to/lastmile_qr_scan"}, "is_reserved": 0}, {"lon": -77.00072733333333, "bike_id": "04821e62333dfbb33de65df687bc062e", "lat": 38.89732433333333, "fusion_lon": 0.0, "fusion_lat": 0.0, "type": "electric_scooter", "name": "04821e62333dfbb33de65df687bc062e", "is_disabled": 0, "rental_uris": {"ios": "https://dc.lft.to/lastmile_qr_scan", "android": "https://dc.lft.to/lastmile_qr_scan"}, "is_reserved": 0}, {"lon": -77.00545066666666, "bike_id": "c51f71de3c91ec35b276b1c6c1672ce0", "lat": 38.8745735, "fusion_lon": 0.0, "fusion_lat": 0.0, "type": "electric_scooter", "name": "c51f71de3c91ec35b276b1c6c1672ce0", "is_disabled": 0, "rental_uris": {"ios": "https://dc.lft.to/lastmile_qr_scan", "android": "https://dc.lft.to/lastmile_qr_scan"}, "is_reserved": 0}, {"lon": -76.93642216666667, "bike_id": "694b6e1048be64de8a38992db76dab38", "lat": 38.900620333333336, "fusion_lon": 0.0, "fusion_lat": 0.0, "type": "electric_scooter", "name": "694b6e1048be64de8a38992db76dab38", "is_disabled": 0, "rental_uris": {"ios": "https://dc.lft.to/lastmile_qr_scan", "android": "https://dc.lft.to/lastmile_qr_scan"}, "is_reserved": 0}, {"lon": -77.03291933333334, "bike_id": "ebf1e9cef9ac18bd1f9dadd73f49a7b8", "lat": 38.95650533333333, "fusion_lon": 0.0, "fusion_lat": 0.0, "type": "electric_scooter", "name": "ebf1e9cef9ac18bd1f9dadd73f49a7b8", "is_disabled": 0, "rental_uris": {"ios": "https://dc.lft.to/lastmile_qr_scan", "android": "https://dc.lft.to/lastmile_qr_scan"}, "is_reserved": 0}, {"lon": -76.95751033333333, "bike_id": "d6491ef037a648518bae58b674ddfd08", "lat": 38.88430916666667, "fusion_lon": 0.0, "fusion_lat": 0.0, "type": "electric_scooter", "name": "d6491ef037a648518bae58b674ddfd08", "is_disabled": 0, "rental_uris": {"ios": "https://dc.lft.to/lastmile_qr_scan", "android": "https://dc.lft.to/lastmile_qr_scan"}, "is_reserved": 0}, {"lon": -77.02437183333333, "bike_id": "2cceb282fc8d491c02074f9e59319994", "lat": 38.937469666666665, "fusion_lon": 0.0, "fusion_lat": 0.0, "type": "electric_scooter", "name": "2cceb282fc8d491c02074f9e59319994", "is_disabled": 0, "rental_uris": {"ios": "https://dc.lft.to/lastmile_qr_scan", "android": "https://dc.lft.to/lastmile_qr_scan"}, "is_reserved": 0}, {"lon": -77.006509, "bike_id": "b9c05964ae7f9b02303f248c2b9ef987", "lat": 38.838918666666665, "fusion_lon": 0.0, "fusion_lat": 0.0, "type": "electric_scooter", "name": "b9c05964ae7f9b02303f248c2b9ef987", "is_disabled": 0, "rental_uris": {"ios": "https://dc.lft.to/lastmile_qr_scan", "android": "https://dc.lft.to/lastmile_qr_scan"}, "is_reserved": 0}, {"lon": -77.03879033333334, "bike_id": "871e9e62ca073b7e3b401651e00f2ce5", "lat": 38.91558766666667, "fusion_lon": 0.0, "fusion_lat": 0.0, "type": "electric_scooter", "name": "871e9e62ca073b7e3b401651e00f2ce5", "is_disabled": 0, "rental_uris": {"ios": "https://dc.lft.to/lastmile_qr_scan", "android": "https://dc.lft.to/lastmile_qr_scan"}, "is_reserved": 0}, {"lon": -76.87497616666667, "bike_id": "e80a78e4f9b27640f6da2ba835c42599", "lat": 38.99092616666667, "fusion_lon": 0.0, "fusion_lat": 0.0, "type": "electric_bike", "name": "e80a78e4f9b27640f6da2ba835c42599", "is_disabled": 0, "rental_uris": {"ios": "https://dc.lft.to/lastmile_qr_scan", "android": "https://dc.lft.to/lastmile_qr_scan"}, "is_reserved": 0}, {"lon": -76.93010016666666, "bike_id": "ff9a38232acbbe17bacd8edeb9f4e7c0", "lat": 38.896559833333335, "fusion_lon": 0.0, "fusion_lat": 0.0, "type": "electric_bike", "name": "ff9a38232acbbe17bacd8edeb9f4e7c0", "is_disabled": 0, "rental_uris": {"ios": "https://dc.lft.to/lastmile_qr_scan", "android": "https://dc.lft.to/lastmile_qr_scan"}, "is_reserved": 0}, {"lon": -77.04049883333333, "bike_id": "636ae7d8117b47409d78237477b5b0df", "lat": 38.889925166666664, "fusion_lon": 0.0, "fusion_lat": 0.0, "type": "electric_scooter", "name": "636ae7d8117b47409d78237477b5b0df", "is_disabled": 0, "rental_uris": {"ios": "https://dc.lft.to/lastmile_qr_scan", "android": "https://dc.lft.to/lastmile_qr_scan"}, "is_reserved": 0}, {"lon": -76.931742, "bike_id": "2f2fafebb62ef9b147be6b551333aef7", "lat": 38.8988195, "fusion_lon": 0.0, "fusion_lat": 0.0, "type": "electric_scooter", "name": "2f2fafebb62ef9b147be6b551333aef7", "is_disabled": 0, "rental_uris": {"ios": "https://dc.lft.to/lastmile_qr_scan", "android": "https://dc.lft.to/lastmile_qr_scan"}, "is_reserved": 0}, {"lon": -77.03813766666667, "bike_id": "1bb9d7355a4790cf48fa27473668dfa1", "lat": 38.92061483333333, "fusion_lon": 0.0, "fusion_lat": 0.0, "type": "electric_scooter", "name": "1bb9d7355a4790cf48fa27473668dfa1", "is_disabled": 0, "rental_uris": {"ios": "https://dc.lft.to/lastmile_qr_scan", "android": "https://dc.lft.to/lastmile_qr_scan"}, "is_reserved": 0}, {"lon": -77.03424533333333, "bike_id": "04d728afd9b818af9ba748ba764c4647", "lat": 38.933626833333335, "fusion_lon": 0.0, "fusion_lat": 0.0, "type": "electric_scooter", "name": "04d728afd9b818af9ba748ba764c4647", "is_disabled": 0, "rental_uris": {"ios": "https://dc.lft.to/lastmile_qr_scan", "android": "https://dc.lft.to/lastmile_qr_scan"}, "is_reserved": 0}, {"lon": -76.94897783333333, "bike_id": "07cd7f7d1d285eab143e4d283c257ab8", "lat": 38.89533683333333, "fusion_lon": 0.0, "fusion_lat": 0.0, "type": "electric_scooter", "name": "07cd7f7d1d285eab143e4d283c257ab8", "is_disabled": 0, "rental_uris": {"ios": "https://dc.lft.to/lastmile_qr_scan", "android": "https://dc.lft.to/lastmile_qr_scan"}, "is_reserved": 0}, {"lon": -77.03893566666666, "bike_id": "8a429163a0cb34452a80c59ee7932934", "lat": 38.9233355, "fusion_lon": 0.0, "fusion_lat": 0.0, "type": "electric_scooter", "name": "8a429163a0cb34452a80c59ee7932934", "is_disabled": 0, "rental_uris": {"ios": "https://dc.lft.to/lastmile_qr_scan", "android": "https://dc.lft.to/lastmile_qr_scan"}, "is_reserved": 0}, {"lon": -76.97008983333333, "bike_id": "42249ebbeb334c04a320422d3cad9a5a", "lat": 38.8637345, "fusion_lon": 0.0, "fusion_lat": 0.0, "type": "electric_bike", "name": "42249ebbeb334c04a320422d3cad9a5a", "is_disabled": 0, "rental_uris": {"ios": "https://dc.lft.to/lastmile_qr_scan", "android": "https://dc.lft.to/lastmile_qr_scan"}, "is_reserved": 0}, {"lon": -77.02443566666666, "bike_id": "faf0f03c1e000d49e93db885223b67ed", "lat": 38.93597416666667, "fusion_lon": 0.0, "fusion_lat": 0.0, "type": "electric_scooter", "name": "faf0f03c1e000d49e93db885223b67ed", "is_disabled": 0, "rental_uris": {"ios": "https://dc.lft.to/lastmile_qr_scan", "android": "https://dc.lft.to/lastmile_qr_scan"}, "is_reserved": 0}, {"lon": -77.0247395, "bike_id": "89b23a942d352992d3dd511e4f82fd0a", "lat": 38.9259105, "fusion_lon": 0.0, "fusion_lat": 0.0, "type": "electric_scooter", "name": "89b23a942d352992d3dd511e4f82fd0a", "is_disabled": 0, "rental_uris": {"ios": "https://dc.lft.to/lastmile_qr_scan", "android": "https://dc.lft.to/lastmile_qr_scan"}, "is_reserved": 0}, {"lon": -77.028113, "bike_id": "44c4cdad696c11e96acc3445761fdd3e", "lat": 38.94192616666667, "fusion_lon": 0.0, "fusion_lat": 0.0, "type": "electric_scooter", "name": "44c4cdad696c11e96acc3445761fdd3e", "is_disabled": 0, "rental_uris": {"ios": "https://dc.lft.to/lastmile_qr_scan", "android": "https://dc.lft.to/lastmile_qr_scan"}, "is_reserved": 0}, {"lon": -77.02721733333334, "bike_id": "962e8fae3914268928a736c3f5e1d2e9", "lat": 38.897263333333335, "fusion_lon": 0.0, "fusion_lat": 0.0, "type": "electric_scooter", "name": "962e8fae3914268928a736c3f5e1d2e9", "is_disabled": 0, "rental_uris": {"ios": "https://dc.lft.to/lastmile_qr_scan", "android": "https://dc.lft.to/lastmile_qr_scan"}, "is_reserved": 0}, {"lon": -77.036068, "bike_id": "0db7373f6832627858e210bad91df315", "lat": 38.9177675, "fusion_lon": 0.0, "fusion_lat": 0.0, "type": "electric_scooter", "name": "0db7373f6832627858e210bad91df315", "is_disabled": 0, "rental_uris": {"ios": "https://dc.lft.to/lastmile_qr_scan", "android": "https://dc.lft.to/lastmile_qr_scan"}, "is_reserved": 0}, {"lon": -77.02384316666667, "bike_id": "924a9072a9485fc602af9124c1b16e0c", "lat": 38.90733566666667, "fusion_lon": 0.0, "fusion_lat": 0.0, "type": "electric_scooter", "name": "924a9072a9485fc602af9124c1b16e0c", "is_disabled": 0, "rental_uris": {"ios": "https://dc.lft.to/lastmile_qr_scan", "android": "https://dc.lft.to/lastmile_qr_scan"}, "is_reserved": 0}, {"lon": -76.97842466666667, "bike_id": "46829120be0a425a44b925f1885e047c", "lat": 38.865692, "fusion_lon": 0.0, "fusion_lat": 0.0, "type": "electric_scooter", "name": "46829120be0a425a44b925f1885e047c", "is_disabled": 0, "rental_uris": {"ios": "https://dc.lft.to/lastmile_qr_scan", "android": "https://dc.lft.to/lastmile_qr_scan"}, "is_reserved": 0}, {"lon": -77.0341085, "bike_id": "35c452d12e6056b7223beb3aff0458ab", "lat": 38.93418333333334, "fusion_lon": 0.0, "fusion_lat": 0.0, "type": "electric_scooter", "name": "35c452d12e6056b7223beb3aff0458ab", "is_disabled": 0, "rental_uris": {"ios": "https://dc.lft.to/lastmile_qr_scan", "android": "https://dc.lft.to/lastmile_qr_scan"}, "is_reserved": 0}, {"lon": -77.03484216666666, "bike_id": "33fb4f2f876060878787132311e21de7", "lat": 38.916994833333334, "fusion_lon": 0.0, "fusion_lat": 0.0, "type": "electric_scooter", "name": "33fb4f2f876060878787132311e21de7", "is_disabled": 0, "rental_uris": {"ios": "https://dc.lft.to/lastmile_qr_scan", "android": "https://dc.lft.to/lastmile_qr_scan"}, "is_reserved": 0}, {"lon": -77.04650966666667, "bike_id": "f58fc5c5fab1167d4680bb2877523fca", "lat": 38.9211495, "fusion_lon": 0.0, "fusion_lat": 0.0, "type": "electric_scooter", "name": "f58fc5c5fab1167d4680bb2877523fca", "is_disabled": 0, "rental_uris": {"ios": "https://dc.lft.to/lastmile_qr_scan", "android": "https://dc.lft.to/lastmile_qr_scan"}, "is_reserved": 0}, {"lon": -77.0500735, "bike_id": "0984bc17219b807be191f8550e355cae", "lat": 38.8998905, "fusion_lon": 0.0, "fusion_lat": 0.0, "type": "electric_scooter", "name": "0984bc17219b807be191f8550e355cae", "is_disabled": 0, "rental_uris": {"ios": "https://dc.lft.to/lastmile_qr_scan", "android": "https://dc.lft.to/lastmile_qr_scan"}, "is_reserved": 0}, {"lon": -76.9853665, "bike_id": "9e5f946506eb8f277720bb708cb2f6be", "lat": 38.91023216666667, "fusion_lon": 0.0, "fusion_lat": 0.0, "type": "electric_scooter", "name": "9e5f946506eb8f277720bb708cb2f6be", "is_disabled": 0, "rental_uris": {"ios": "https://dc.lft.to/lastmile_qr_scan", "android": "https://dc.lft.to/lastmile_qr_scan"}, "is_reserved": 0}, {"lon": -77.03371116666666, "bike_id": "3431bf768e873463670163432498b628", "lat": 38.921576, "fusion_lon": 0.0, "fusion_lat": 0.0, "type": "electric_scooter", "name": "3431bf768e873463670163432498b628", "is_disabled": 0, "rental_uris": {"ios": "https://dc.lft.to/lastmile_qr_scan", "android": "https://dc.lft.to/lastmile_qr_scan"}, "is_reserved": 0}, {"lon": -77.02713483333333, "bike_id": "150bf005fb64d54640a3d2b2a66c49aa", "lat": 38.9277385, "fusion_lon": 0.0, "fusion_lat": 0.0, "type": "electric_scooter", "name": "150bf005fb64d54640a3d2b2a66c49aa", "is_disabled": 0, "rental_uris": {"ios": "https://dc.lft.to/lastmile_qr_scan", "android": "https://dc.lft.to/lastmile_qr_scan"}, "is_reserved": 0}, {"lon": -77.06108383333333, "bike_id": "e74057b97eae5bedf7771f212ef81d8d", "lat": 38.9370415, "fusion_lon": 0.0, "fusion_lat": 0.0, "type": "electric_scooter", "name": "e74057b97eae5bedf7771f212ef81d8d", "is_disabled": 0, "rental_uris": {"ios": "https://dc.lft.to/lastmile_qr_scan", "android": "https://dc.lft.to/lastmile_qr_scan"}, "is_reserved": 0}, {"lon": -77.00370866666667, "bike_id": "ef88806c9f08badeac4ecd5c67c7deb9", "lat": 38.89736116666667, "fusion_lon": 0.0, "fusion_lat": 0.0, "type": "electric_scooter", "name": "ef88806c9f08badeac4ecd5c67c7deb9", "is_disabled": 0, "rental_uris": {"ios": "https://dc.lft.to/lastmile_qr_scan", "android": "https://dc.lft.to/lastmile_qr_scan"}, "is_reserved": 0}, {"lon": -77.02364416666667, "bike_id": "8abfeaf0da0e0afccabe0b4c2676edf3", "lat": 38.89221966666667, "fusion_lon": 0.0, "fusion_lat": 0.0, "type": "electric_scooter", "name": "8abfeaf0da0e0afccabe0b4c2676edf3", "is_disabled": 0, "rental_uris": {"ios": "https://dc.lft.to/lastmile_qr_scan", "android": "https://dc.lft.to/lastmile_qr_scan"}, "is_reserved": 0}, {"lon": -77.02611383333333, "bike_id": "4a26d75382b4ef5aff633d500822ab8f", "lat": 38.928778333333334, "fusion_lon": 0.0, "fusion_lat": 0.0, "type": "electric_scooter", "name": "4a26d75382b4ef5aff633d500822ab8f", "is_disabled": 0, "rental_uris": {"ios": "https://dc.lft.to/lastmile_qr_scan", "android": "https://dc.lft.to/lastmile_qr_scan"}, "is_reserved": 0}, {"lon": -77.03265233333333, "bike_id": "feb206ed1c3ec20210bac232eb1cebb9", "lat": 38.919943333333336, "fusion_lon": 0.0, "fusion_lat": 0.0, "type": "electric_scooter", "name": "feb206ed1c3ec20210bac232eb1cebb9", "is_disabled": 0, "rental_uris": {"ios": "https://dc.lft.to/lastmile_qr_scan", "android": "https://dc.lft.to/lastmile_qr_scan"}, "is_reserved": 0}, {"lon": -77.06416983333334, "bike_id": "d7ab62e1b48d195d74d945f04964eebc", "lat": 38.99333416666666, "fusion_lon": 0.0, "fusion_lat": 0.0, "type": "electric_scooter", "name": "d7ab62e1b48d195d74d945f04964eebc", "is_disabled": 0, "rental_uris": {"ios": "https://dc.lft.to/lastmile_qr_scan", "android": "https://dc.lft.to/lastmile_qr_scan"}, "is_reserved": 0}, {"lon": -76.96519883333333, "bike_id": "a9c425ff86d870c191a2cdd08e640615", "lat": 38.87627533333333, "fusion_lon": 0.0, "fusion_lat": 0.0, "type": "electric_scooter", "name": "a9c425ff86d870c191a2cdd08e640615", "is_disabled": 0, "rental_uris": {"ios": "https://dc.lft.to/lastmile_qr_scan", "android": "https://dc.lft.to/lastmile_qr_scan"}, "is_reserved": 0}, {"lon": -77.05544216666667, "bike_id": "2c7fa5d0ceee12291cb3daace8024ec4", "lat": 38.9300895, "fusion_lon": 0.0, "fusion_lat": 0.0, "type": "electric_scooter", "name": "2c7fa5d0ceee12291cb3daace8024ec4", "is_disabled": 0, "rental_uris": {"ios": "https://dc.lft.to/lastmile_qr_scan", "android": "https://dc.lft.to/lastmile_qr_scan"}, "is_reserved": 0}, {"lon": -77.0363115, "bike_id": "a8c61b021007bc5fbc5ea21cb523096e", "lat": 38.94497066666667, "fusion_lon": 0.0, "fusion_lat": 0.0, "type": "electric_scooter", "name": "a8c61b021007bc5fbc5ea21cb523096e", "is_disabled": 0, "rental_uris": {"ios": "https://dc.lft.to/lastmile_qr_scan", "android": "https://dc.lft.to/lastmile_qr_scan"}, "is_reserved": 0}, {"lon": -77.02321716666667, "bike_id": "0a9cadfff3f1ae9a7ee7effe25c50a41", "lat": 38.9240605, "fusion_lon": 0.0, "fusion_lat": 0.0, "type": "electric_scooter", "name": "0a9cadfff3f1ae9a7ee7effe25c50a41", "is_disabled": 0, "rental_uris": {"ios": "https://dc.lft.to/lastmile_qr_scan", "android": "https://dc.lft.to/lastmile_qr_scan"}, "is_reserved": 0}, {"lon": -77.03681533333334, "bike_id": "48f38be881e61f28a01b45b27406416c", "lat": 38.93928066666667, "fusion_lon": 0.0, "fusion_lat": 0.0, "type": "electric_scooter", "name": "48f38be881e61f28a01b45b27406416c", "is_disabled": 0, "rental_uris": {"ios": "https://dc.lft.to/lastmile_qr_scan", "android": "https://dc.lft.to/lastmile_qr_scan"}, "is_reserved": 0}, {"lon": -77.0351955, "bike_id": "d91c8f3196e8005a13845aa2b3f94983", "lat": 38.92724916666667, "fusion_lon": 0.0, "fusion_lat": 0.0, "type": "electric_scooter", "name": "d91c8f3196e8005a13845aa2b3f94983", "is_disabled": 0, "rental_uris": {"ios": "https://dc.lft.to/lastmile_qr_scan", "android": "https://dc.lft.to/lastmile_qr_scan"}, "is_reserved": 0}, {"lon": -76.975453, "bike_id": "c0aa1f7434e212ff4f5738c797b02f68", "lat": 38.90317916666667, "fusion_lon": 0.0, "fusion_lat": 0.0, "type": "electric_scooter", "name": "c0aa1f7434e212ff4f5738c797b02f68", "is_disabled": 0, "rental_uris": {"ios": "https://dc.lft.to/lastmile_qr_scan", "android": "https://dc.lft.to/lastmile_qr_scan"}, "is_reserved": 0}, {"lon": -77.0395505, "bike_id": "a64bdb60b49a900eda9301b60961cbe4", "lat": 38.915551666666666, "fusion_lon": 0.0, "fusion_lat": 0.0, "type": "electric_scooter", "name": "a64bdb60b49a900eda9301b60961cbe4", "is_disabled": 0, "rental_uris": {"ios": "https://dc.lft.to/lastmile_qr_scan", "android": "https://dc.lft.to/lastmile_qr_scan"}, "is_reserved": 0}, {"lon": -76.9873595, "bike_id": "59ef17ca6e1a56dc69e009e6bad30841", "lat": 38.86580566666667, "fusion_lon": 0.0, "fusion_lat": 0.0, "type": "electric_bike", "name": "59ef17ca6e1a56dc69e009e6bad30841", "is_disabled": 0, "rental_uris": {"ios": "https://dc.lft.to/lastmile_qr_scan", "android": "https://dc.lft.to/lastmile_qr_scan"}, "is_reserved": 0}, {"lon": -77.037928, "bike_id": "cc4fb211004085e4e3108b2da1e3a929", "lat": 38.925671333333334, "fusion_lon": 0.0, "fusion_lat": 0.0, "type": "electric_scooter", "name": "cc4fb211004085e4e3108b2da1e3a929", "is_disabled": 0, "rental_uris": {"ios": "https://dc.lft.to/lastmile_qr_scan", "android": "https://dc.lft.to/lastmile_qr_scan"}, "is_reserved": 0}, {"lon": -77.02974066666667, "bike_id": "0188b1aa02014b475639072f51b57a7b", "lat": 38.93931033333333, "fusion_lon": 0.0, "fusion_lat": 0.0, "type": "electric_scooter", "name": "0188b1aa02014b475639072f51b57a7b", "is_disabled": 0, "rental_uris": {"ios": "https://dc.lft.to/lastmile_qr_scan", "android": "https://dc.lft.to/lastmile_qr_scan"}, "is_reserved": 0}, {"lon": -77.02106933333333, "bike_id": "8c0a526fe541a54357912e1667151649", "lat": 38.90563783333333, "fusion_lon": 0.0, "fusion_lat": 0.0, "type": "electric_scooter", "name": "8c0a526fe541a54357912e1667151649", "is_disabled": 0, "rental_uris": {"ios": "https://dc.lft.to/lastmile_qr_scan", "android": "https://dc.lft.to/lastmile_qr_scan"}, "is_reserved": 0}, {"lon": -77.03823283333334, "bike_id": "95173031f4ad35c46e460414f3b0f8cf", "lat": 38.9035615, "fusion_lon": 0.0, "fusion_lat": 0.0, "type": "electric_scooter", "name": "95173031f4ad35c46e460414f3b0f8cf", "is_disabled": 0, "rental_uris": {"ios": "https://dc.lft.to/lastmile_qr_scan", "android": "https://dc.lft.to/lastmile_qr_scan"}, "is_reserved": 0}, {"lon": -76.988823, "bike_id": "052430810daf7284db1dcb1cab1bfeb7", "lat": 38.8665255, "fusion_lon": 0.0, "fusion_lat": 0.0, "type": "electric_scooter", "name": "052430810daf7284db1dcb1cab1bfeb7", "is_disabled": 0, "rental_uris": {"ios": "https://dc.lft.to/lastmile_qr_scan", "android": "https://dc.lft.to/lastmile_qr_scan"}, "is_reserved": 0}, {"lon": -77.02122333333334, "bike_id": "dc63a331c510322400ff072c9bc30a1e", "lat": 38.935785833333334, "fusion_lon": 0.0, "fusion_lat": 0.0, "type": "electric_bike", "name": "dc63a331c510322400ff072c9bc30a1e", "is_disabled": 0, "rental_uris": {"ios": "https://dc.lft.to/lastmile_qr_scan", "android": "https://dc.lft.to/lastmile_qr_scan"}, "is_reserved": 0}, {"lon": -77.04021616666667, "bike_id": "74b1993e3e26ae69a69edefe118b3d01", "lat": 38.92451283333333, "fusion_lon": 0.0, "fusion_lat": 0.0, "type": "electric_scooter", "name": "74b1993e3e26ae69a69edefe118b3d01", "is_disabled": 0, "rental_uris": {"ios": "https://dc.lft.to/lastmile_qr_scan", "android": "https://dc.lft.to/lastmile_qr_scan"}, "is_reserved": 0}, {"lon": -77.022108, "bike_id": "3813d08cec32730123b98338b82d1330", "lat": 38.8950735, "fusion_lon": 0.0, "fusion_lat": 0.0, "type": "electric_scooter", "name": "3813d08cec32730123b98338b82d1330", "is_disabled": 0, "rental_uris": {"ios": "https://dc.lft.to/lastmile_qr_scan", "android": "https://dc.lft.to/lastmile_qr_scan"}, "is_reserved": 0}, {"lon": -76.98707566666667, "bike_id": "6ad1c7eadcca6936860f1be0123c0b23", "lat": 38.86701933333333, "fusion_lon": 0.0, "fusion_lat": 0.0, "type": "electric_scooter", "name": "6ad1c7eadcca6936860f1be0123c0b23", "is_disabled": 0, "rental_uris": {"ios": "https://dc.lft.to/lastmile_qr_scan", "android": "https://dc.lft.to/lastmile_qr_scan"}, "is_reserved": 0}, {"lon": -77.01727, "bike_id": "8e8114574906184c9827f0533fd2e1d0", "lat": 38.90225733333333, "fusion_lon": 0.0, "fusion_lat": 0.0, "type": "electric_scooter", "name": "8e8114574906184c9827f0533fd2e1d0", "is_disabled": 0, "rental_uris": {"ios": "https://dc.lft.to/lastmile_qr_scan", "android": "https://dc.lft.to/lastmile_qr_scan"}, "is_reserved": 0}, {"lon": -77.01204183333333, "bike_id": "3902dc38528de04f2a9f9cedede0f2cc", "lat": 38.91595216666666, "fusion_lon": 0.0, "fusion_lat": 0.0, "type": "electric_scooter", "name": "3902dc38528de04f2a9f9cedede0f2cc", "is_disabled": 0, "rental_uris": {"ios": "https://dc.lft.to/lastmile_qr_scan", "android": "https://dc.lft.to/lastmile_qr_scan"}, "is_reserved": 0}, {"lon": -76.97669516666667, "bike_id": "120f46fedcf828dfa1cd2b40dc24da69", "lat": 38.94520266666667, "fusion_lon": 0.0, "fusion_lat": 0.0, "type": "electric_bike", "name": "120f46fedcf828dfa1cd2b40dc24da69", "is_disabled": 0, "rental_uris": {"ios": "https://dc.lft.to/lastmile_qr_scan", "android": "https://dc.lft.to/lastmile_qr_scan"}, "is_reserved": 0}, {"lon": -77.03047116666667, "bike_id": "187787b231d49bbb277abb33e73726a9", "lat": 38.916975666666666, "fusion_lon": 0.0, "fusion_lat": 0.0, "type": "electric_scooter", "name": "187787b231d49bbb277abb33e73726a9", "is_disabled": 0, "rental_uris": {"ios": "https://dc.lft.to/lastmile_qr_scan", "android": "https://dc.lft.to/lastmile_qr_scan"}, "is_reserved": 0}, {"lon": -77.03167416666666, "bike_id": "d91cc729c187d8ef9b3cc8aa881b7a12", "lat": 38.92110433333333, "fusion_lon": 0.0, "fusion_lat": 0.0, "type": "electric_scooter", "name": "d91cc729c187d8ef9b3cc8aa881b7a12", "is_disabled": 0, "rental_uris": {"ios": "https://dc.lft.to/lastmile_qr_scan", "android": "https://dc.lft.to/lastmile_qr_scan"}, "is_reserved": 0}, {"lon": -77.050397, "bike_id": "f4e4fb3c5cf6d6d7941e338b4d218e2d", "lat": 38.90156316666667, "fusion_lon": 0.0, "fusion_lat": 0.0, "type": "electric_scooter", "name": "f4e4fb3c5cf6d6d7941e338b4d218e2d", "is_disabled": 0, "rental_uris": {"ios": "https://dc.lft.to/lastmile_qr_scan", "android": "https://dc.lft.to/lastmile_qr_scan"}, "is_reserved": 0}, {"lon": -77.01971133333333, "bike_id": "aaebb548d2e19bf409a3672f33f21bc2", "lat": 38.93579733333333, "fusion_lon": 0.0, "fusion_lat": 0.0, "type": "electric_scooter", "name": "aaebb548d2e19bf409a3672f33f21bc2", "is_disabled": 0, "rental_uris": {"ios": "https://dc.lft.to/lastmile_qr_scan", "android": "https://dc.lft.to/lastmile_qr_scan"}, "is_reserved": 0}, {"lon": -76.98556716666667, "bike_id": "4e4a89c052158f0e57c4a54c1719218d", "lat": 38.896186666666665, "fusion_lon": 0.0, "fusion_lat": 0.0, "type": "electric_scooter", "name": "4e4a89c052158f0e57c4a54c1719218d", "is_disabled": 0, "rental_uris": {"ios": "https://dc.lft.to/lastmile_qr_scan", "android": "https://dc.lft.to/lastmile_qr_scan"}, "is_reserved": 0}, {"lon": -77.025941, "bike_id": "71ad3893693b62d192b4cb328d761c51", "lat": 38.90561683333333, "fusion_lon": 0.0, "fusion_lat": 0.0, "type": "electric_scooter", "name": "71ad3893693b62d192b4cb328d761c51", "is_disabled": 0, "rental_uris": {"ios": "https://dc.lft.to/lastmile_qr_scan", "android": "https://dc.lft.to/lastmile_qr_scan"}, "is_reserved": 0}, {"lon": -77.03043633333333, "bike_id": "3d51071408766312bc15b02cbd1f200d", "lat": 38.87840766666667, "fusion_lon": 0.0, "fusion_lat": 0.0, "type": "electric_scooter", "name": "3d51071408766312bc15b02cbd1f200d", "is_disabled": 0, "rental_uris": {"ios": "https://dc.lft.to/lastmile_qr_scan", "android": "https://dc.lft.to/lastmile_qr_scan"}, "is_reserved": 0}, {"lon": -77.02012733333333, "bike_id": "34ff94adc829360aebbd760757bd644d", "lat": 38.92415833333333, "fusion_lon": 0.0, "fusion_lat": 0.0, "type": "electric_scooter", "name": "34ff94adc829360aebbd760757bd644d", "is_disabled": 0, "rental_uris": {"ios": "https://dc.lft.to/lastmile_qr_scan", "android": "https://dc.lft.to/lastmile_qr_scan"}, "is_reserved": 0}, {"lon": -77.0258225, "bike_id": "7663f800ff44a402cd55f12a673873e6", "lat": 38.8873125, "fusion_lon": 0.0, "fusion_lat": 0.0, "type": "electric_scooter", "name": "7663f800ff44a402cd55f12a673873e6", "is_disabled": 0, "rental_uris": {"ios": "https://dc.lft.to/lastmile_qr_scan", "android": "https://dc.lft.to/lastmile_qr_scan"}, "is_reserved": 0}, {"lon": -76.99002983333334, "bike_id": "1c8e91ddbeb96103f687403acffc1941", "lat": 38.865044833333336, "fusion_lon": 0.0, "fusion_lat": 0.0, "type": "electric_scooter", "name": "1c8e91ddbeb96103f687403acffc1941", "is_disabled": 0, "rental_uris": {"ios": "https://dc.lft.to/lastmile_qr_scan", "android": "https://dc.lft.to/lastmile_qr_scan"}, "is_reserved": 0}, {"lon": -76.93732866666667, "bike_id": "0f353d370b17b8bc86cdcc33e18db9fe", "lat": 38.8901585, "fusion_lon": 0.0, "fusion_lat": 0.0, "type": "electric_scooter", "name": "0f353d370b17b8bc86cdcc33e18db9fe", "is_disabled": 0, "rental_uris": {"ios": "https://dc.lft.to/lastmile_qr_scan", "android": "https://dc.lft.to/lastmile_qr_scan"}, "is_reserved": 0}, {"lon": -76.98951166666667, "bike_id": "7e1db2ba0cd0e9405ce647a4fef63e48", "lat": 38.901951, "fusion_lon": 0.0, "fusion_lat": 0.0, "type": "electric_scooter", "name": "7e1db2ba0cd0e9405ce647a4fef63e48", "is_disabled": 0, "rental_uris": {"ios": "https://dc.lft.to/lastmile_qr_scan", "android": "https://dc.lft.to/lastmile_qr_scan"}, "is_reserved": 0}, {"lon": -77.026953, "bike_id": "0cb39bee990364791eef21845f83e5a3", "lat": 38.897733, "fusion_lon": 0.0, "fusion_lat": 0.0, "type": "electric_scooter", "name": "0cb39bee990364791eef21845f83e5a3", "is_disabled": 0, "rental_uris": {"ios": "https://dc.lft.to/lastmile_qr_scan", "android": "https://dc.lft.to/lastmile_qr_scan"}, "is_reserved": 0}, {"lon": -77.02184633333333, "bike_id": "a5c7acded812b64ab1292ef244c61caa", "lat": 38.89737933333333, "fusion_lon": 0.0, "fusion_lat": 0.0, "type": "electric_scooter", "name": "a5c7acded812b64ab1292ef244c61caa", "is_disabled": 0, "rental_uris": {"ios": "https://dc.lft.to/lastmile_qr_scan", "android": "https://dc.lft.to/lastmile_qr_scan"}, "is_reserved": 0}, {"lon": -77.05274633333333, "bike_id": "ee3d7fc21934269a7e44771cd5c4475c", "lat": 38.9256775, "fusion_lon": 0.0, "fusion_lat": 0.0, "type": "electric_scooter", "name": "ee3d7fc21934269a7e44771cd5c4475c", "is_disabled": 0, "rental_uris": {"ios": "https://dc.lft.to/lastmile_qr_scan", "android": "https://dc.lft.to/lastmile_qr_scan"}, "is_reserved": 0}, {"lon": -77.02215066666666, "bike_id": "74f1a581302958360da2749913041838", "lat": 38.8935255, "fusion_lon": 0.0, "fusion_lat": 0.0, "type": "electric_scooter", "name": "74f1a581302958360da2749913041838", "is_disabled": 0, "rental_uris": {"ios": "https://dc.lft.to/lastmile_qr_scan", "android": "https://dc.lft.to/lastmile_qr_scan"}, "is_reserved": 0}, {"lon": -76.957478, "bike_id": "e8d3f4f23ff602d34853eefee3655040", "lat": 38.884280333333336, "fusion_lon": 0.0, "fusion_lat": 0.0, "type": "electric_scooter", "name": "e8d3f4f23ff602d34853eefee3655040", "is_disabled": 0, "rental_uris": {"ios": "https://dc.lft.to/lastmile_qr_scan", "android": "https://dc.lft.to/lastmile_qr_scan"}, "is_reserved": 0}, {"lon": -76.9651765, "bike_id": "7e4b5a41647e28136b9dc09c49a43522", "lat": 38.87484666666667, "fusion_lon": 0.0, "fusion_lat": 0.0, "type": "electric_scooter", "name": "7e4b5a41647e28136b9dc09c49a43522", "is_disabled": 0, "rental_uris": {"ios": "https://dc.lft.to/lastmile_qr_scan", "android": "https://dc.lft.to/lastmile_qr_scan"}, "is_reserved": 0}, {"lon": -77.02563783333333, "bike_id": "ccd8ede4d26af6a3b1ce709d07123a85", "lat": 38.93352133333333, "fusion_lon": 0.0, "fusion_lat": 0.0, "type": "electric_scooter", "name": "ccd8ede4d26af6a3b1ce709d07123a85", "is_disabled": 0, "rental_uris": {"ios": "https://dc.lft.to/lastmile_qr_scan", "android": "https://dc.lft.to/lastmile_qr_scan"}, "is_reserved": 0}, {"lon": -77.04015033333333, "bike_id": "db8fbbc847c8b0adbd265fa30cd848da", "lat": 38.923837, "fusion_lon": 0.0, "fusion_lat": 0.0, "type": "electric_scooter", "name": "db8fbbc847c8b0adbd265fa30cd848da", "is_disabled": 0, "rental_uris": {"ios": "https://dc.lft.to/lastmile_qr_scan", "android": "https://dc.lft.to/lastmile_qr_scan"}, "is_reserved": 0}, {"lon": -77.0216805, "bike_id": "edb1f0fcee9d9b0ecfb9369c20127a1a", "lat": 38.942944, "fusion_lon": 0.0, "fusion_lat": 0.0, "type": "electric_scooter", "name": "edb1f0fcee9d9b0ecfb9369c20127a1a", "is_disabled": 0, "rental_uris": {"ios": "https://dc.lft.to/lastmile_qr_scan", "android": "https://dc.lft.to/lastmile_qr_scan"}, "is_reserved": 0}, {"lon": -77.02110183333333, "bike_id": "a1c82ccc30a2f6cf37a2596d731c6bec", "lat": 38.89494916666666, "fusion_lon": 0.0, "fusion_lat": 0.0, "type": "electric_scooter", "name": "a1c82ccc30a2f6cf37a2596d731c6bec", "is_disabled": 0, "rental_uris": {"ios": "https://dc.lft.to/lastmile_qr_scan", "android": "https://dc.lft.to/lastmile_qr_scan"}, "is_reserved": 0}, {"lon": -77.0319865, "bike_id": "4f6e94d3fd2a579cf93523b04d1549e1", "lat": 38.919149833333336, "fusion_lon": 0.0, "fusion_lat": 0.0, "type": "electric_scooter", "name": "4f6e94d3fd2a579cf93523b04d1549e1", "is_disabled": 0, "rental_uris": {"ios": "https://dc.lft.to/lastmile_qr_scan", "android": "https://dc.lft.to/lastmile_qr_scan"}, "is_reserved": 0}, {"lon": -77.0006235, "bike_id": "75e4acd087c5d904ceb7a045894fe48b", "lat": 38.874116, "fusion_lon": 0.0, "fusion_lat": 0.0, "type": "electric_scooter", "name": "75e4acd087c5d904ceb7a045894fe48b", "is_disabled": 0, "rental_uris": {"ios": "https://dc.lft.to/lastmile_qr_scan", "android": "https://dc.lft.to/lastmile_qr_scan"}, "is_reserved": 0}, {"lon": -76.94634333333333, "bike_id": "4a5c2978a2809493dc1c344cc3ed9d3d", "lat": 38.89833083333333, "fusion_lon": 0.0, "fusion_lat": 0.0, "type": "electric_scooter", "name": "4a5c2978a2809493dc1c344cc3ed9d3d", "is_disabled": 0, "rental_uris": {"ios": "https://dc.lft.to/lastmile_qr_scan", "android": "https://dc.lft.to/lastmile_qr_scan"}, "is_reserved": 0}, {"lon": -76.9920405, "bike_id": "3e475a296a84385dd6b137530cfebfd6", "lat": 38.89830633333333, "fusion_lon": 0.0, "fusion_lat": 0.0, "type": "electric_scooter", "name": "3e475a296a84385dd6b137530cfebfd6", "is_disabled": 0, "rental_uris": {"ios": "https://dc.lft.to/lastmile_qr_scan", "android": "https://dc.lft.to/lastmile_qr_scan"}, "is_reserved": 0}, {"lon": -77.02240883333333, "bike_id": "eeb8ebd5730c478a1f91ed104d6822f1", "lat": 38.928968166666664, "fusion_lon": 0.0, "fusion_lat": 0.0, "type": "electric_scooter", "name": "eeb8ebd5730c478a1f91ed104d6822f1", "is_disabled": 0, "rental_uris": {"ios": "https://dc.lft.to/lastmile_qr_scan", "android": "https://dc.lft.to/lastmile_qr_scan"}, "is_reserved": 0}, {"lon": -77.020538, "bike_id": "8cfbe68d8492e83252c616c3a821692e", "lat": 38.92389433333334, "fusion_lon": 0.0, "fusion_lat": 0.0, "type": "electric_scooter", "name": "8cfbe68d8492e83252c616c3a821692e", "is_disabled": 0, "rental_uris": {"ios": "https://dc.lft.to/lastmile_qr_scan", "android": "https://dc.lft.to/lastmile_qr_scan"}, "is_reserved": 0}, {"lon": -77.07300783333334, "bike_id": "a68312effdca8b1d90b1a6d25efb8998", "lat": 38.93056683333333, "fusion_lon": 0.0, "fusion_lat": 0.0, "type": "electric_scooter", "name": "a68312effdca8b1d90b1a6d25efb8998", "is_disabled": 0, "rental_uris": {"ios": "https://dc.lft.to/lastmile_qr_scan", "android": "https://dc.lft.to/lastmile_qr_scan"}, "is_reserved": 0}, {"lon": -77.04983383333334, "bike_id": "814e4230f59b7be7d9c199589479a308", "lat": 39.062954833333336, "fusion_lon": 0.0, "fusion_lat": 0.0, "type": "electric_bike", "name": "814e4230f59b7be7d9c199589479a308", "is_disabled": 0, "rental_uris": {"ios": "https://dc.lft.to/lastmile_qr_scan", "android": "https://dc.lft.to/lastmile_qr_scan"}, "is_reserved": 0}, {"lon": -77.02441783333333, "bike_id": "88d51975ae6055811f15ba32be236889", "lat": 38.922617833333334, "fusion_lon": 0.0, "fusion_lat": 0.0, "type": "electric_scooter", "name": "88d51975ae6055811f15ba32be236889", "is_disabled": 0, "rental_uris": {"ios": "https://dc.lft.to/lastmile_qr_scan", "android": "https://dc.lft.to/lastmile_qr_scan"}, "is_reserved": 0}, {"lon": -77.07658633333334, "bike_id": "2bbd46c26d318516ca5ac17cbfe8e1e4", "lat": 38.86279416666667, "fusion_lon": 0.0, "fusion_lat": 0.0, "type": "electric_bike", "name": "2bbd46c26d318516ca5ac17cbfe8e1e4", "is_disabled": 0, "rental_uris": {"ios": "https://dc.lft.to/lastmile_qr_scan", "android": "https://dc.lft.to/lastmile_qr_scan"}, "is_reserved": 0}, {"lon": -76.99365966666667, "bike_id": "dfd6aae6a8ba579ee022d6554b899347", "lat": 38.94022966666667, "fusion_lon": 0.0, "fusion_lat": 0.0, "type": "electric_scooter", "name": "dfd6aae6a8ba579ee022d6554b899347", "is_disabled": 0, "rental_uris": {"ios": "https://dc.lft.to/lastmile_qr_scan", "android": "https://dc.lft.to/lastmile_qr_scan"}, "is_reserved": 0}, {"lon": -76.99014633333333, "bike_id": "1c0785ddcc1b7c432ba9af4d23ac0fa8", "lat": 38.945989, "fusion_lon": 0.0, "fusion_lat": 0.0, "type": "electric_scooter", "name": "1c0785ddcc1b7c432ba9af4d23ac0fa8", "is_disabled": 0, "rental_uris": {"ios": "https://dc.lft.to/lastmile_qr_scan", "android": "https://dc.lft.to/lastmile_qr_scan"}, "is_reserved": 0}, {"lon": -77.03867566666666, "bike_id": "897635d1c9be26cf196ba335bf76b6a1", "lat": 38.92015333333333, "fusion_lon": 0.0, "fusion_lat": 0.0, "type": "electric_scooter", "name": "897635d1c9be26cf196ba335bf76b6a1", "is_disabled": 0, "rental_uris": {"ios": "https://dc.lft.to/lastmile_qr_scan", "android": "https://dc.lft.to/lastmile_qr_scan"}, "is_reserved": 0}, {"lon": -76.994833, "bike_id": "a2bf575e473df806b594b8bd1b284cfc", "lat": 38.879529, "fusion_lon": 0.0, "fusion_lat": 0.0, "type": "electric_scooter", "name": "a2bf575e473df806b594b8bd1b284cfc", "is_disabled": 0, "rental_uris": {"ios": "https://dc.lft.to/lastmile_qr_scan", "android": "https://dc.lft.to/lastmile_qr_scan"}, "is_reserved": 0}, {"lon": -76.9984905, "bike_id": "38a4877bfd9eea3ee557c92e75520cfa", "lat": 38.901012, "fusion_lon": 0.0, "fusion_lat": 0.0, "type": "electric_scooter", "name": "38a4877bfd9eea3ee557c92e75520cfa", "is_disabled": 0, "rental_uris": {"ios": "https://dc.lft.to/lastmile_qr_scan", "android": "https://dc.lft.to/lastmile_qr_scan"}, "is_reserved": 0}, {"lon": -77.03198983333333, "bike_id": "8e02c38ea67409c3d9b91c1a41a22a02", "lat": 38.919216, "fusion_lon": 0.0, "fusion_lat": 0.0, "type": "electric_scooter", "name": "8e02c38ea67409c3d9b91c1a41a22a02", "is_disabled": 0, "rental_uris": {"ios": "https://dc.lft.to/lastmile_qr_scan", "android": "https://dc.lft.to/lastmile_qr_scan"}, "is_reserved": 0}, {"lon": -77.036568, "bike_id": "8507d6dcd2f0e8c078c7bf599cffb394", "lat": 38.92992366666667, "fusion_lon": 0.0, "fusion_lat": 0.0, "type": "electric_scooter", "name": "8507d6dcd2f0e8c078c7bf599cffb394", "is_disabled": 0, "rental_uris": {"ios": "https://dc.lft.to/lastmile_qr_scan", "android": "https://dc.lft.to/lastmile_qr_scan"}, "is_reserved": 0}, {"lon": -77.025963, "bike_id": "6985c70b6ba01d207811a7e00b934b8e", "lat": 38.9001555, "fusion_lon": 0.0, "fusion_lat": 0.0, "type": "electric_scooter", "name": "6985c70b6ba01d207811a7e00b934b8e", "is_disabled": 0, "rental_uris": {"ios": "https://dc.lft.to/lastmile_qr_scan", "android": "https://dc.lft.to/lastmile_qr_scan"}, "is_reserved": 0}, {"lon": -77.0514895, "bike_id": "2bd30a983aa936380dc3b8036ac7b8ca", "lat": 38.89857416666667, "fusion_lon": 0.0, "fusion_lat": 0.0, "type": "electric_scooter", "name": "2bd30a983aa936380dc3b8036ac7b8ca", "is_disabled": 0, "rental_uris": {"ios": "https://dc.lft.to/lastmile_qr_scan", "android": "https://dc.lft.to/lastmile_qr_scan"}, "is_reserved": 0}, {"lon": -76.99507783333334, "bike_id": "78af303dfc727f39f35a9ef97299aa66", "lat": 38.8791555, "fusion_lon": 0.0, "fusion_lat": 0.0, "type": "electric_scooter", "name": "78af303dfc727f39f35a9ef97299aa66", "is_disabled": 0, "rental_uris": {"ios": "https://dc.lft.to/lastmile_qr_scan", "android": "https://dc.lft.to/lastmile_qr_scan"}, "is_reserved": 0}, {"lon": -77.0437625, "bike_id": "18052077157723856fbfb213ab6fe585", "lat": 38.886487833333334, "fusion_lon": 0.0, "fusion_lat": 0.0, "type": "electric_scooter", "name": "18052077157723856fbfb213ab6fe585", "is_disabled": 0, "rental_uris": {"ios": "https://dc.lft.to/lastmile_qr_scan", "android": "https://dc.lft.to/lastmile_qr_scan"}, "is_reserved": 0}, {"lon": -77.00203783333333, "bike_id": "88e599b34230039c412df2b95f355c36", "lat": 38.900311333333335, "fusion_lon": 0.0, "fusion_lat": 0.0, "type": "electric_scooter", "name": "88e599b34230039c412df2b95f355c36", "is_disabled": 0, "rental_uris": {"ios": "https://dc.lft.to/lastmile_qr_scan", "android": "https://dc.lft.to/lastmile_qr_scan"}, "is_reserved": 0}, {"lon": -76.960617, "bike_id": "226013bac9c1ace78336d60a26234477", "lat": 38.88403733333333, "fusion_lon": 0.0, "fusion_lat": 0.0, "type": "electric_bike", "name": "226013bac9c1ace78336d60a26234477", "is_disabled": 0, "rental_uris": {"ios": "https://dc.lft.to/lastmile_qr_scan", "android": "https://dc.lft.to/lastmile_qr_scan"}, "is_reserved": 0},