{"data": {"bikes": [{"type": "electric_scooter", "name": "85388e0889d3a5682f4bea40b88642b8", "fusion_lon": 0.0, "is_reserved": 0, "lon": -76.98512216666667, "fusion_lat": 0.0, "is_disabled": 0, "bike_id": "85388e0889d3a5682f4bea40b88642b8", "lat": 38.880829, "rental_uris": {"ios": "https://dc.lft.to/lastmile_qr_scan", "android": "https://dc.lft.to/lastmile_qr_scan"}}, {"type": "electric_scooter", "name": "67f7993215691850ee5a80cd911df02f", "fusion_lon": 0.0, "is_reserved": 0, "lon": -77.05321933333333, "fusion_lat": 0.0, "is_disabled": 0, "bike_id": "67f7993215691850ee5a80cd911df02f", "lat": 38.9155175, "rental_uris": {"ios": "https://dc.lft.to/lastmile_qr_scan", "android": "https://dc.lft.to/lastmile_qr_scan"}}, {"type": "electric_scooter", "name": "6846dbac947eaf87689d9cbea4e864b0", "fusion_lon": 0.0, "is_reserved": 0, "lon": -77.04334016666667, "fusion_lat": 0.0, "is_disabled": 0, "bike_id": "6846dbac947eaf87689d9cbea4e864b0", "lat": 38.89221883333333, "rental_uris": {"ios": "https://dc.lft.to/lastmile_qr_scan", "android": "https://dc.lft.to/lastmile_qr_scan"}}, {"type": "electric_bike", "name": "e30307dbf9c6ec21b812a0832003b6b9", "fusion_lon": 0.0, "is_reserved": 0, "lon": -77.06451116666666, "fusion_lat": 0.0, "is_disabled": 0, "bike_id": "e30307dbf9c6ec21b812a0832003b6b9", "lat": 38.97396633333334, "rental_uris": {"ios": "https://dc.lft.to/lastmile_qr_scan", "android": "https://dc.lft.to/lastmile_qr_scan"}}, {"type": "electric_scooter", "name": "3156aa0b81e6aac486c62338b0ba9943", "fusion_lon": 0.0, "is_reserved": 0, "lon": -77.0338995, "fusion_lat": 0.0, "is_disabled": 0, "bike_id": "3156aa0b81e6aac486c62338b0ba9943", "lat": 38.919145666666665, "rental_uris": {"ios": "https://dc.lft.to/lastmile_qr_scan", "android": "https://dc.lft.to/lastmile_qr_scan"}}, {"type": "electric_scooter", "name": "757dd54a41a005b8ef69bc01e1fe554c", "fusion_lon": 0.0, "is_reserved": 0, "lon": -77.01177983333334, "fusion_lat": 0.0, "is_disabled": 0, "bike_id": "757dd54a41a005b8ef69bc01e1fe554c", "lat": 38.91569616666666, "rental_uris": {"ios": "https://dc.lft.to/lastmile_qr_scan", "android": "https://dc.lft.to/lastmile_qr_scan"}}, {"type": "electric_scooter", "name": "7942ea2983cd87a71b58a975ba294fdc", "fusion_lon": 0.0, "is_reserved": 0, "lon": -76.92983983333333, "fusion_lat": 0.0, "is_disabled": 0, "bike_id": "7942ea2983cd87a71b58a975ba294fdc", "lat": 38.901424666666664, "rental_uris": {"ios": "https://dc.lft.to/lastmile_qr_scan", "android": "https://dc.lft.to/lastmile_qr_scan"}}, {"type": "electric_scooter", "name": "4f5c7b9759219ed6e3eb4f24c45bcd25", "fusion_lon": 0.0, "is_reserved": 0, "lon": -77.05970133333334, "fusion_lat": 0.0, "is_disabled": 0, "bike_id": "4f5c7b9759219ed6e3eb4f24c45bcd25", "lat": 38.928334666666665, "rental_uris": {"ios": "https://dc.lft.to/lastmile_qr_scan", "android": "https://dc.lft.to/lastmile_qr_scan"}}, {"type": "electric_scooter", "name": "8cd2b453a80e4b930eafff98f0c681bb", "fusion_lon": 0.0, "is_reserved": 0, "lon": -76.9873465, "fusion_lat": 0.0, "is_disabled": 0, "bike_id": "8cd2b453a80e4b930eafff98f0c681bb", "lat": 38.908068666666665, "rental_uris": {"ios": "https://dc.lft.to/lastmile_qr_scan", "android": "https://dc.lft.to/lastmile_qr_scan"}}, {"type": "electric_scooter", "name": "0662b981de92a7d03cf7836e6b5e2997", "fusion_lon": 0.0, "is_reserved": 0, "lon": -77.03663516666667, "fusion_lat": 0.0, "is_disabled": 0, "bike_id": "0662b981de92a7d03cf7836e6b5e2997", "lat": 38.922384666666666, "rental_uris": {"ios": "https://dc.lft.to/lastmile_qr_scan", "android": "https://dc.lft.to/lastmile_qr_scan"}}, {"type": "electric_scooter", "name": "56734abdcc09c997c52d2f23a078247d", "fusion_lon": 0.0, "is_reserved": 0, "lon": -77.049051, "fusion_lat": 0.0, "is_disabled": 0, "bike_id": "56734abdcc09c997c52d2f23a078247d", "lat": 38.888391666666664, "rental_uris": {"ios": "https://dc.lft.to/lastmile_qr_scan", "android": "https://dc.lft.to/lastmile_qr_scan"}}, {"type": "electric_scooter", "name": "cf44f15e8890c7645bcf396f26eb9826", "fusion_lon": 0.0, "is_reserved": 0, "lon": -77.04268333333333, "fusion_lat": 0.0, "is_disabled": 0, "bike_id": "cf44f15e8890c7645bcf396f26eb9826", "lat": 38.92295983333333, "rental_uris": {"ios": "https://dc.lft.to/lastmile_qr_scan", "android": "https://dc.lft.to/lastmile_qr_scan"}}, {"type": "electric_scooter", "name": "f43cf6d9f613c29fd968da6cf4f56efc", "fusion_lon": 0.0, "is_reserved": 0, "lon": -77.00543033333334, "fusion_lat": 0.0, "is_disabled": 0, "bike_id": "f43cf6d9f613c29fd968da6cf4f56efc", "lat": 38.874607, "rental_uris": {"ios": "https://dc.lft.to/lastmile_qr_scan", "android": "https://dc.lft.to/lastmile_qr_scan"}}, {"type": "electric_scooter", "name": "ce3c02e835617cfc05e9ad0e4b65488a", "fusion_lon": 0.0, "is_reserved": 0, "lon": -76.97308166666667, "fusion_lat": 0.0, "is_disabled": 0, "bike_id": "ce3c02e835617cfc05e9ad0e4b65488a", "lat": 38.91996483333333, "rental_uris": {"ios": "https://dc.lft.to/lastmile_qr_scan", "android": "https://dc.lft.to/lastmile_qr_scan"}}, {"type": "electric_scooter", "name": "b156e251d603455db73621cf4ab5d4fc", "fusion_lon": 0.0, "is_reserved": 0, "lon": -77.0321665, "fusion_lat": 0.0, "is_disabled": 0, "bike_id": "b156e251d603455db73621cf4ab5d4fc", "lat": 38.92009983333333, "rental_uris": {"ios": "https://dc.lft.to/lastmile_qr_scan", "android": "https://dc.lft.to/lastmile_qr_scan"}}, {"type": "electric_scooter", "name": "6709cdfdd31aef5428c186e03996f9cf", "fusion_lon": 0.0, "is_reserved": 0, "lon": -77.03834033333334, "fusion_lat": 0.0, "is_disabled": 0, "bike_id": "6709cdfdd31aef5428c186e03996f9cf", "lat": 38.908033833333334, "rental_uris": {"ios": "https://dc.lft.to/lastmile_qr_scan", "android": "https://dc.lft.to/lastmile_qr_scan"}}, {"type": "electric_scooter", "name": "bf9fb29253438f7fc85c157706a68322", "fusion_lon": 0.0, "is_reserved": 0, "lon": -77.04292816666667, "fusion_lat": 0.0, "is_disabled": 0, "bike_id": "bf9fb29253438f7fc85c157706a68322", "lat": 38.92290416666667, "rental_uris": {"ios": "https://dc.lft.to/lastmile_qr_scan", "android": "https://dc.lft.to/lastmile_qr_scan"}}, {"type": "electric_scooter", "name": "7d9ac8b12d8be6d9724ce8b5037640bc", "fusion_lon": 0.0, "is_reserved": 0, "lon": -77.04043333333334, "fusion_lat": 0.0, "is_disabled": 0, "bike_id": "7d9ac8b12d8be6d9724ce8b5037640bc", "lat": 38.903871, "rental_uris": {"ios": "https://dc.lft.to/lastmile_qr_scan", "android": "https://dc.lft.to/lastmile_qr_scan"}}, {"type": "electric_scooter", "name": "b6fe6d84e7000231a646a6695f398d05", "fusion_lon": 0.0, "is_reserved": 0, "lon": -77.03208916666667, "fusion_lat": 0.0, "is_disabled": 0, "bike_id": "b6fe6d84e7000231a646a6695f398d05", "lat": 38.92164916666667, "rental_uris": {"ios": "https://dc.lft.to/lastmile_qr_scan", "android": "https://dc.lft.to/lastmile_qr_scan"}}, {"type": "electric_scooter", "name": "f989435b1c83520801a35bf8d25f6794", "fusion_lon": 0.0, "is_reserved": 0, "lon": -77.03339283333334, "fusion_lat": 0.0, "is_disabled": 0, "bike_id": "f989435b1c83520801a35bf8d25f6794", "lat": 38.9210365, "rental_uris": {"ios": "https://dc.lft.to/lastmile_qr_scan", "android": "https://dc.lft.to/lastmile_qr_scan"}}, {"type": "electric_scooter", "name": "1d9ba23490a54bdc0f75bf75d27e5b59", "fusion_lon": 0.0, "is_reserved": 0, "lon": -77.05073233333333, "fusion_lat": 0.0, "is_disabled": 0, "bike_id": "1d9ba23490a54bdc0f75bf75d27e5b59", "lat": 38.923587833333336, "rental_uris": {"ios": "https://dc.lft.to/lastmile_qr_scan", "android": "https://dc.lft.to/lastmile_qr_scan"}}, {"type": "electric_scooter", "name": "beeb31c3a8010f7a90e6d629035d7599", "fusion_lon": 0.0, "is_reserved": 0, "lon": -77.01306766666667, "fusion_lat": 0.0, "is_disabled": 0, "bike_id": "beeb31c3a8010f7a90e6d629035d7599", "lat": 38.93008733333333, "rental_uris": {"ios": "https://dc.lft.to/lastmile_qr_scan", "android": "https://dc.lft.to/lastmile_qr_scan"}}, {"type": "electric_scooter", "name": "86277d96520bb2e10f6ee7ad72d26d66", "fusion_lon": 0.0, "is_reserved": 0, "lon": -77.03830316666667, "fusion_lat": 0.0, "is_disabled": 0, "bike_id": "86277d96520bb2e10f6ee7ad72d26d66", "lat": 38.902574333333334, "rental_uris": {"ios": "https://dc.lft.to/lastmile_qr_scan", "android": "https://dc.lft.to/lastmile_qr_scan"}}, {"type": "electric_scooter", "name": "1b8a9252db18628e6f2d49914e765c19", "fusion_lon": 0.0, "is_reserved": 0, "lon": -77.04372783333334, "fusion_lat": 0.0, "is_disabled": 0, "bike_id": "1b8a9252db18628e6f2d49914e765c19", "lat": 38.89222816666667, "rental_uris": {"ios": "https://dc.lft.to/lastmile_qr_scan", "android": "https://dc.lft.to/lastmile_qr_scan"}}, {"type": "electric_scooter", "name": "ee27b3d59e1d5b1c2be242b965bb1187", "fusion_lon": 0.0, "is_reserved": 0, "lon": -77.02689783333334, "fusion_lat": 0.0, "is_disabled": 0, "bike_id": "ee27b3d59e1d5b1c2be242b965bb1187", "lat": 38.900971, "rental_uris": {"ios": "https://dc.lft.to/lastmile_qr_scan", "android": "https://dc.lft.to/lastmile_qr_scan"}}, {"type": "electric_scooter", "name": "f7b232f63c01c26767be6e7f3f2a50b7", "fusion_lon": 0.0, "is_reserved": 0, "lon": -76.99780333333334, "fusion_lat": 0.0, "is_disabled": 0, "bike_id": "f7b232f63c01c26767be6e7f3f2a50b7", "lat": 38.84435366666666, "rental_uris": {"ios": "https://dc.lft.to/lastmile_qr_scan", "android": "https://dc.lft.to/lastmile_qr_scan"}}, {"type": "electric_scooter", "name": "2b6de7d2c9daeb9a1e912e25d811df29", "fusion_lon": 0.0, "is_reserved": 0, "lon": -77.0198375, "fusion_lat": 0.0, "is_disabled": 0, "bike_id": "2b6de7d2c9daeb9a1e912e25d811df29", "lat": 38.885020833333336, "rental_uris": {"ios": "https://dc.lft.to/lastmile_qr_scan", "android": "https://dc.lft.to/lastmile_qr_scan"}}, {"type": "electric_scooter", "name": "f465855de061283a14fda9e0f687210a", "fusion_lon": 0.0, "is_reserved": 0, "lon": -77.054199, "fusion_lat": 0.0, "is_disabled": 0, "bike_id": "f465855de061283a14fda9e0f687210a", "lat": 38.928177, "rental_uris": {"ios": "https://dc.lft.to/lastmile_qr_scan", "android": "https://dc.lft.to/lastmile_qr_scan"}}, {"type": "electric_scooter", "name": "e066ae8d994cfd976e952aaa63c6ead8", "fusion_lon": 0.0, "is_reserved": 0, "lon": -77.03315783333333, "fusion_lat": 0.0, "is_disabled": 0, "bike_id": "e066ae8d994cfd976e952aaa63c6ead8", "lat": 38.90843666666667, "rental_uris": {"ios": "https://dc.lft.to/lastmile_qr_scan", "android": "https://dc.lft.to/lastmile_qr_scan"}}, {"type": "electric_scooter", "name": "9c710de66d48ebe78bef7c5787c8a63f", "fusion_lon": 0.0, "is_reserved": 0, "lon": -77.0448125, "fusion_lat": 0.0, "is_disabled": 0, "bike_id": "9c710de66d48ebe78bef7c5787c8a63f", "lat": 38.91193616666666, "rental_uris": {"ios": "https://dc.lft.to/lastmile_qr_scan", "android": "https://dc.lft.to/lastmile_qr_scan"}}, {"type": "electric_bike", "name": "19680acf4a463c2520e86886d9692976", "fusion_lon": 0.0, "is_reserved": 0, "lon": -77.01943383333334, "fusion_lat": 0.0, "is_disabled": 0, "bike_id": "19680acf4a463c2520e86886d9692976", "lat": 38.92263883333333, "rental_uris": {"ios": "https://dc.lft.to/lastmile_qr_scan", "android": "https://dc.lft.to/lastmile_qr_scan"}}, {"type": "electric_bike", "name": "9bb7225a2af6221d9a4dee39a78f422b", "fusion_lon": 0.0, "is_reserved": 0, "lon": -77.019815, "fusion_lat": 0.0, "is_disabled": 0, "bike_id": "9bb7225a2af6221d9a4dee39a78f422b", "lat": 38.911209166666666, "rental_uris": {"ios": "https://dc.lft.to/lastmile_qr_scan", "android": "https://dc.lft.to/lastmile_qr_scan"}}, {"type": "electric_scooter", "name": "f1adc1891c76690c12568ed52ea922ee", "fusion_lon": 0.0, "is_reserved": 0, "lon": -77.04137516666667, "fusion_lat": 0.0, "is_disabled": 0, "bike_id": "f1adc1891c76690c12568ed52ea922ee", "lat": 38.90908133333333, "rental_uris": {"ios": "https://dc.lft.to/lastmile_qr_scan", "android": "https://dc.lft.to/lastmile_qr_scan"}}, {"type": "electric_scooter", "name": "26315a1c1620439dcb4f48717df01399", "fusion_lon": 0.0, "is_reserved": 0, "lon": -76.99154133333333, "fusion_lat": 0.0, "is_disabled": 0, "bike_id": "26315a1c1620439dcb4f48717df01399", "lat": 38.8911715, "rental_uris": {"ios": "https://dc.lft.to/lastmile_qr_scan", "android": "https://dc.lft.to/lastmile_qr_scan"}}, {"type": "electric_scooter", "name": "806d5f5f50dc6ead5517bafb0cfb2b18", "fusion_lon": 0.0, "is_reserved": 0, "lon": -77.00569416666667, "fusion_lat": 0.0, "is_disabled": 0, "bike_id": "806d5f5f50dc6ead5517bafb0cfb2b18", "lat": 38.837078166666664, "rental_uris": {"ios": "https://dc.lft.to/lastmile_qr_scan", "android": "https://dc.lft.to/lastmile_qr_scan"}}, {"type": "electric_scooter", "name": "e563409f8c24c37be3a9bca516313005", "fusion_lon": 0.0, "is_reserved": 0, "lon": -77.03340066666667, "fusion_lat": 0.0, "is_disabled": 0, "bike_id": "e563409f8c24c37be3a9bca516313005", "lat": 38.89227233333333, "rental_uris": {"ios": "https://dc.lft.to/lastmile_qr_scan", "android": "https://dc.lft.to/lastmile_qr_scan"}}, {"type": "electric_scooter", "name": "a15382f95d4f30e62f080d658ff75fee", "fusion_lon": 0.0, "is_reserved": 0, "lon": -77.03408933333333, "fusion_lat": 0.0, "is_disabled": 0, "bike_id": "a15382f95d4f30e62f080d658ff75fee", "lat": 38.9169005, "rental_uris": {"ios": "https://dc.lft.to/lastmile_qr_scan", "android": "https://dc.lft.to/lastmile_qr_scan"}}, {"type": "electric_scooter", "name": "364b7c2f73f6f84cc41fd359cf7f36ee", "fusion_lon": 0.0, "is_reserved": 0, "lon": -77.02585583333334, "fusion_lat": 0.0, "is_disabled": 0, "bike_id": "364b7c2f73f6f84cc41fd359cf7f36ee", "lat": 38.920462, "rental_uris": {"ios": "https://dc.lft.to/lastmile_qr_scan", "android": "https://dc.lft.to/lastmile_qr_scan"}}, {"type": "electric_scooter", "name": "2ccf0644fe04d47867d440aeaffde1c9", "fusion_lon": 0.0, "is_reserved": 0, "lon": -77.038315, "fusion_lat": 0.0, "is_disabled": 0, "bike_id": "2ccf0644fe04d47867d440aeaffde1c9", "lat": 38.9061985, "rental_uris": {"ios": "https://dc.lft.to/lastmile_qr_scan", "android": "https://dc.lft.to/lastmile_qr_scan"}}, {"type": "electric_scooter", "name": "214177275f833f46782c8a997dbf8f06", "fusion_lon": 0.0, "is_reserved": 0, "lon": -77.0363765, "fusion_lat": 0.0, "is_disabled": 0, "bike_id": "214177275f833f46782c8a997dbf8f06", "lat": 38.90258583333333, "rental_uris": {"ios": "https://dc.lft.to/lastmile_qr_scan", "android": "https://dc.lft.to/lastmile_qr_scan"}}, {"type": "electric_scooter", "name": "0044b869fd857daf976846aa161f3b22", "fusion_lon": 0.0, "is_reserved": 0, "lon": -77.029875, "fusion_lat": 0.0, "is_disabled": 0, "bike_id": "0044b869fd857daf976846aa161f3b22", "lat": 38.89619283333333, "rental_uris": {"ios": "https://dc.lft.to/lastmile_qr_scan", "android": "https://dc.lft.to/lastmile_qr_scan"}}, {"type": "electric_scooter", "name": "4c000974ceaa35d3823c245e57d54767", "fusion_lon": 0.0, "is_reserved": 0, "lon": -77.02724433333333, "fusion_lat": 0.0, "is_disabled": 0, "bike_id": "4c000974ceaa35d3823c245e57d54767", "lat": 38.95183083333333, "rental_uris": {"ios": "https://dc.lft.to/lastmile_qr_scan", "android": "https://dc.lft.to/lastmile_qr_scan"}}, {"type": "electric_bike", "name": "d4d22cf2f932856dbc368f99bdf91e09", "fusion_lon": 0.0, "is_reserved": 0, "lon": -77.02642783333333, "fusion_lat": 0.0, "is_disabled": 0, "bike_id": "d4d22cf2f932856dbc368f99bdf91e09", "lat": 38.994422, "rental_uris": {"ios": "https://dc.lft.to/lastmile_qr_scan", "android": "https://dc.lft.to/lastmile_qr_scan"}}, {"type": "electric_scooter", "name": "a714ff1be55f53bb67e7caaad426a274", "fusion_lon": 0.0, "is_reserved": 0, "lon": -77.02692316666666, "fusion_lat": 0.0, "is_disabled": 0, "bike_id": "a714ff1be55f53bb67e7caaad426a274", "lat": 38.916831333333334, "rental_uris": {"ios": "https://dc.lft.to/lastmile_qr_scan", "android": "https://dc.lft.to/lastmile_qr_scan"}}, {"type": "electric_scooter", "name": "02ddbbd165e7b5a9cb633339f8f5c9cc", "fusion_lon": 0.0, "is_reserved": 0, "lon": -77.03857616666667, "fusion_lat": 0.0, "is_disabled": 0, "bike_id": "02ddbbd165e7b5a9cb633339f8f5c9cc", "lat": 38.91714433333333, "rental_uris": {"ios": "https://dc.lft.to/lastmile_qr_scan", "android": "https://dc.lft.to/lastmile_qr_scan"}}, {"type": "electric_scooter", "name": "e209814fe3ae15c6e3e70902f6f95ec3", "fusion_lon": 0.0, "is_reserved": 0, "lon": -77.05088183333334, "fusion_lat": 0.0, "is_disabled": 0, "bike_id": "e209814fe3ae15c6e3e70902f6f95ec3", "lat": 38.92349516666667, "rental_uris": {"ios": "https://dc.lft.to/lastmile_qr_scan", "android": "https://dc.lft.to/lastmile_qr_scan"}}, {"type": "electric_scooter", "name": "ea0f016fdae15924473586932007b128", "fusion_lon": 0.0, "is_reserved": 0, "lon": -77.052265, "fusion_lat": 0.0, "is_disabled": 0, "bike_id": "ea0f016fdae15924473586932007b128", "lat": 38.924691, "rental_uris": {"ios": "https://dc.lft.to/lastmile_qr_scan", "android": "https://dc.lft.to/lastmile_qr_scan"}}, {"type": "electric_scooter", "name": "051ffc4bb5234b743824701db0a4d47f", "fusion_lon": 0.0, "is_reserved": 0, "lon": -76.984895, "fusion_lat": 0.0, "is_disabled": 0, "bike_id": "051ffc4bb5234b743824701db0a4d47f", "lat": 38.90444866666667, "rental_uris": {"ios": "https://dc.lft.to/lastmile_qr_scan", "android": "https://dc.lft.to/lastmile_qr_scan"}}, {"type": "electric_scooter", "name": "0ad1307611b3d6580292b1fd0d4c1803", "fusion_lon": 0.0, "is_reserved": 0, "lon": -77.03166766666666, "fusion_lat": 0.0, "is_disabled": 0, "bike_id": "0ad1307611b3d6580292b1fd0d4c1803", "lat": 38.91626983333333, "rental_uris": {"ios": "https://dc.lft.to/lastmile_qr_scan", "android": "https://dc.lft.to/lastmile_qr_scan"}}, {"type": "electric_scooter", "name": "7bdf2d6b84c48f30d2f98c35594e3ff2", "fusion_lon": 0.0, "is_reserved": 0, "lon": -76.99694033333333, "fusion_lat": 0.0, "is_disabled": 0, "bike_id": "7bdf2d6b84c48f30d2f98c35594e3ff2", "lat": 38.908308166666664, "rental_uris": {"ios": "https://dc.lft.to/lastmile_qr_scan", "android": "https://dc.lft.to/lastmile_qr_scan"}}, {"type": "electric_scooter", "name": "9b6066a802487252d4fb5af011f19b00", "fusion_lon": 0.0, "is_reserved": 0, "lon": -77.005687, "fusion_lat": 0.0, "is_disabled": 0, "bike_id": "9b6066a802487252d4fb5af011f19b00", "lat": 38.905596, "rental_uris": {"ios": "https://dc.lft.to/lastmile_qr_scan", "android": "https://dc.lft.to/lastmile_qr_scan"}}, {"type": "electric_scooter", "name": "a20df261d9cd9cb13d0339dfc66179fd", "fusion_lon": 0.0, "is_reserved": 0, "lon": -76.98038783333334, "fusion_lat": 0.0, "is_disabled": 0, "bike_id": "a20df261d9cd9cb13d0339dfc66179fd", "lat": 38.900426833333334, "rental_uris": {"ios": "https://dc.lft.to/lastmile_qr_scan", "android": "https://dc.lft.to/lastmile_qr_scan"}}, {"type": "electric_scooter", "name": "ec626dfa783df2c944bf051aec3f1635", "fusion_lon": 0.0, "is_reserved": 0, "lon": -76.99926833333333, "fusion_lat": 0.0, "is_disabled": 0, "bike_id": "ec626dfa783df2c944bf051aec3f1635", "lat": 38.8431395, "rental_uris": {"ios": "https://dc.lft.to/lastmile_qr_scan", "android": "https://dc.lft.to/lastmile_qr_scan"}}, {"type": "electric_scooter", "name": "4a84942bf386514b4ce0cae7b4c15d16", "fusion_lon": 0.0, "is_reserved": 0, "lon": -77.067547, "fusion_lat": 0.0, "is_disabled": 0, "bike_id": "4a84942bf386514b4ce0cae7b4c15d16", "lat": 38.93619133333333, "rental_uris": {"ios": "https://dc.lft.to/lastmile_qr_scan", "android": "https://dc.lft.to/lastmile_qr_scan"}}, {"type": "electric_scooter", "name": "3ae462606c755061bc4263cb2151faae", "fusion_lon": 0.0, "is_reserved": 0, "lon": -77.02693716666667, "fusion_lat": 0.0, "is_disabled": 0, "bike_id": "3ae462606c755061bc4263cb2151faae", "lat": 38.916811333333335, "rental_uris": {"ios": "https://dc.lft.to/lastmile_qr_scan", "android": "https://dc.lft.to/lastmile_qr_scan"}}, {"type": "electric_scooter", "name": "cabdb49dd96fde2d2e8dc542822e7a14", "fusion_lon": 0.0, "is_reserved": 0, "lon": -77.0441035, "fusion_lat": 0.0, "is_disabled": 0, "bike_id": "cabdb49dd96fde2d2e8dc542822e7a14", "lat": 38.8975265, "rental_uris": {"ios": "https://dc.lft.to/lastmile_qr_scan", "android": "https://dc.lft.to/lastmile_qr_scan"}}, {"type": "electric_scooter", "name": "1a683f013f48dd5cf69943e4512adb7b", "fusion_lon": 0.0, "is_reserved": 0, "lon": -77.04478133333333, "fusion_lat": 0.0, "is_disabled": 0, "bike_id": "1a683f013f48dd5cf69943e4512adb7b", "lat": 38.910916, "rental_uris": {"ios": "https://dc.lft.to/lastmile_qr_scan", "android": "https://dc.lft.to/lastmile_qr_scan"}}, {"type": "electric_scooter", "name": "2617084465a84870b237c33f5866af88", "fusion_lon": 0.0, "is_reserved": 0, "lon": -77.03416416666667, "fusion_lat": 0.0, "is_disabled": 0, "bike_id": "2617084465a84870b237c33f5866af88", "lat": 38.904126833333336, "rental_uris": {"ios": "https://dc.lft.to/lastmile_qr_scan", "android": "https://dc.lft.to/lastmile_qr_scan"}}, {"type": "electric_scooter", "name": "d7c96469da3a80383ee82c4940bdf3ec", "fusion_lon": 0.0, "is_reserved": 0, "lon": -77.03059516666667, "fusion_lat": 0.0, "is_disabled": 0, "bike_id": "d7c96469da3a80383ee82c4940bdf3ec", "lat": 38.904617333333334, "rental_uris": {"ios": "https://dc.lft.to/lastmile_qr_scan", "android": "https://dc.lft.to/lastmile_qr_scan"}}, {"type": "electric_scooter", "name": "b8457c380da1fd608908e70b9ff9f67e", "fusion_lon": 0.0, "is_reserved": 0, "lon": -77.04803016666666, "fusion_lat": 0.0, "is_disabled": 0, "bike_id": "b8457c380da1fd608908e70b9ff9f67e", "lat": 38.89229783333333, "rental_uris": {"ios": "https://dc.lft.to/lastmile_qr_scan", "android": "https://dc.lft.to/lastmile_qr_scan"}}, {"type": "electric_bike", "name": "593dd62af5f3a237c32070fc90fc5a7e", "fusion_lon": 0.0, "is_reserved": 0, "lon": -77.13931366666667, "fusion_lat": 0.0, "is_disabled": 0, "bike_id": "593dd62af5f3a237c32070fc90fc5a7e", "lat": 38.873005666666664, "rental_uris": {"ios": "https://dc.lft.to/lastmile_qr_scan", "android": "https://dc.lft.to/lastmile_qr_scan"}}, {"type": "electric_bike", "name": "3f24243e3fbb86c0e13eb596d015bc72", "fusion_lon": 0.0, "is_reserved": 0, "lon": -77.12467966666667, "fusion_lat": 0.0, "is_disabled": 0, "bike_id": "3f24243e3fbb86c0e13eb596d015bc72", "lat": 38.85379483333333, "rental_uris": {"ios": "https://dc.lft.to/lastmile_qr_scan", "android": "https://dc.lft.to/lastmile_qr_scan"}}, {"type": "electric_scooter", "name": "913bb889685a4a07f3aba45d5308481c", "fusion_lon": 0.0, "is_reserved": 0, "lon": -77.0366485, "fusion_lat": 0.0, "is_disabled": 0, "bike_id": "913bb889685a4a07f3aba45d5308481c", "lat": 38.922391, "rental_uris": {"ios": "https://dc.lft.to/lastmile_qr_scan", "android": "https://dc.lft.to/lastmile_qr_scan"}}, {"type": "electric_bike", "name": "4bdd93c117b7d2d4e15fc303f5419740", "fusion_lon": 0.0, "is_reserved": 0, "lon": -77.06173983333333, "fusion_lat": 0.0, "is_disabled": 0, "bike_id": "4bdd93c117b7d2d4e15fc303f5419740", "lat": 38.807105, "rental_uris": {"ios": "https://dc.lft.to/lastmile_qr_scan", "android": "https://dc.lft.to/lastmile_qr_scan"}}, {"type": "electric_scooter", "name": "c1946f5be80447f8ee3b48e2e1d7ed87", "fusion_lon": 0.0, "is_reserved": 0, "lon": -76.95579533333333, "fusion_lat": 0.0, "is_disabled": 0, "bike_id": "c1946f5be80447f8ee3b48e2e1d7ed87", "lat": 38.886225833333334, "rental_uris": {"ios": "https://dc.lft.to/lastmile_qr_scan", "android": "https://dc.lft.to/lastmile_qr_scan"}}, {"type": "electric_scooter", "name": "639c09c2697791a8c5a6b3c2b56bf72c", "fusion_lon": 0.0, "is_reserved": 0, "lon": -76.99044133333334, "fusion_lat": 0.0, "is_disabled": 0, "bike_id": "639c09c2697791a8c5a6b3c2b56bf72c", "lat": 38.863897333333334, "rental_uris": {"ios": "https://dc.lft.to/lastmile_qr_scan", "android": "https://dc.lft.to/lastmile_qr_scan"}}, {"type": "electric_bike", "name": "e1c04fdf78510fb146cd7f45b62207d0", "fusion_lon": 0.0, "is_reserved": 0, "lon": -77.09461266666666, "fusion_lat": 0.0, "is_disabled": 0, "bike_id": "e1c04fdf78510fb146cd7f45b62207d0", "lat": 38.8075885, "rental_uris": {"ios": "https://dc.lft.to/lastmile_qr_scan", "android": "https://dc.lft.to/lastmile_qr_scan"}}, {"type": "electric_bike", "name": "519f076203049894104e31197a263593", "fusion_lon": 0.0, "is_reserved": 0, "lon": -77.003307, "fusion_lat": 0.0, "is_disabled": 0, "bike_id": "519f076203049894104e31197a263593", "lat": 38.899501, "rental_uris": {"ios": "https://dc.lft.to/lastmile_qr_scan", "android": "https://dc.lft.to/lastmile_qr_scan"}}, {"type": "electric_scooter", "name": "b04499f8ff5794c0b370e3050a3cf8fd", "fusion_lon": 0.0, "is_reserved": 0, "lon": -77.04660216666667, "fusion_lat": 0.0, "is_disabled": 0, "bike_id": "b04499f8ff5794c0b370e3050a3cf8fd", "lat": 38.89762, "rental_uris": {"ios": "https://dc.lft.to/lastmile_qr_scan", "android": "https://dc.lft.to/lastmile_qr_scan"}}, {"type": "electric_scooter", "name": "1a8eecadb65fbc6ca620aca87bfe8ddc", "fusion_lon": 0.0, "is_reserved": 0, "lon": -77.0282685, "fusion_lat": 0.0, "is_disabled": 0, "bike_id": "1a8eecadb65fbc6ca620aca87bfe8ddc", "lat": 38.8873405, "rental_uris": {"ios": "https://dc.lft.to/lastmile_qr_scan", "android": "https://dc.lft.to/lastmile_qr_scan"}}, {"type": "electric_scooter", "name": "27916beede1a5020b5a11bf473ab4ad4", "fusion_lon": 0.0, "is_reserved": 0, "lon": -77.03831416666667, "fusion_lat": 0.0, "is_disabled": 0, "bike_id": "27916beede1a5020b5a11bf473ab4ad4", "lat": 38.91192516666667, "rental_uris": {"ios": "https://dc.lft.to/lastmile_qr_scan", "android": "https://dc.lft.to/lastmile_qr_scan"}}, {"type": "electric_scooter", "name": "7c5fa97b27ac03dd361fd54a6789a3b1", "fusion_lon": 0.0, "is_reserved": 0, "lon": -77.03782283333334, "fusion_lat": 0.0, "is_disabled": 0, "bike_id": "7c5fa97b27ac03dd361fd54a6789a3b1", "lat": 38.9252405, "rental_uris": {"ios": "https://dc.lft.to/lastmile_qr_scan", "android": "https://dc.lft.to/lastmile_qr_scan"}}, {"type": "electric_scooter", "name": "c383326d604636d206fc34a151da6787", "fusion_lon": 0.0, "is_reserved": 0, "lon": -77.03259716666666, "fusion_lat": 0.0, "is_disabled": 0, "bike_id": "c383326d604636d206fc34a151da6787", "lat": 38.89545966666667, "rental_uris": {"ios": "https://dc.lft.to/lastmile_qr_scan", "android": "https://dc.lft.to/lastmile_qr_scan"}}, {"type": "electric_scooter", "name": "600396fc8ce98e51ea4bfad3cf327be5", "fusion_lon": 0.0, "is_reserved": 0, "lon": -77.03199966666666, "fusion_lat": 0.0, "is_disabled": 0, "bike_id": "600396fc8ce98e51ea4bfad3cf327be5", "lat": 38.88467466666667, "rental_uris": {"ios": "https://dc.lft.to/lastmile_qr_scan", "android": "https://dc.lft.to/lastmile_qr_scan"}}, {"type": "electric_scooter", "name": "871e43edc27b891d8fe8c841c8c4ff69", "fusion_lon": 0.0, "is_reserved": 0, "lon": -77.0127955, "fusion_lat": 0.0, "is_disabled": 0, "bike_id": "871e43edc27b891d8fe8c841c8c4ff69", "lat": 38.900683666666666, "rental_uris": {"ios": "https://dc.lft.to/lastmile_qr_scan", "android": "https://dc.lft.to/lastmile_qr_scan"}}, {"type": "electric_scooter", "name": "e31a4b8e13e5fe60f8dbfd4c25e43a97", "fusion_lon": 0.0, "is_reserved": 0, "lon": -76.975462, "fusion_lat": 0.0, "is_disabled": 0, "bike_id": "e31a4b8e13e5fe60f8dbfd4c25e43a97", "lat": 38.903238, "rental_uris": {"ios": "https://dc.lft.to/lastmile_qr_scan", "android": "https://dc.lft.to/lastmile_qr_scan"}}, {"type": "electric_scooter", "name": "97bd07a39e763e53030df30f8f6f31a8", "fusion_lon": 0.0, "is_reserved": 0, "lon": -76.98591666666667, "fusion_lat": 0.0, "is_disabled": 0, "bike_id": "97bd07a39e763e53030df30f8f6f31a8", "lat": 38.866997833333336, "rental_uris": {"ios": "https://dc.lft.to/lastmile_qr_scan", "android": "https://dc.lft.to/lastmile_qr_scan"}}, {"type": "electric_scooter", "name": "c0fb928a8126bfffb3b6ea565318df23", "fusion_lon": 0.0, "is_reserved": 0, "lon": -77.043583, "fusion_lat": 0.0, "is_disabled": 0, "bike_id": "c0fb928a8126bfffb3b6ea565318df23", "lat": 38.90126983333333, "rental_uris": {"ios": "https://dc.lft.to/lastmile_qr_scan", "android": "https://dc.lft.to/lastmile_qr_scan"}}, {"type": "electric_scooter", "name": "6cbd179854e3caa85a5a7504cad4d81f", "fusion_lon": 0.0, "is_reserved": 0, "lon": -77.01403516666667, "fusion_lat": 0.0, "is_disabled": 0, "bike_id": "6cbd179854e3caa85a5a7504cad4d81f", "lat": 38.92844816666667, "rental_uris": {"ios": "https://dc.lft.to/lastmile_qr_scan", "android": "https://dc.lft.to/lastmile_qr_scan"}}, {"type": "electric_scooter", "name": "60774af0c89e1da4adb777e4ef4c672e", "fusion_lon": 0.0, "is_reserved": 0, "lon": -76.9816955, "fusion_lat": 0.0, "is_disabled": 0, "bike_id": "60774af0c89e1da4adb777e4ef4c672e", "lat": 38.8985845, "rental_uris": {"ios": "https://dc.lft.to/lastmile_qr_scan", "android": "https://dc.lft.to/lastmile_qr_scan"}}, {"type": "electric_scooter", "name": "20086c197b51423ea412e35a686905ea", "fusion_lon": 0.0, "is_reserved": 0, "lon": -77.043249, "fusion_lat": 0.0, "is_disabled": 0, "bike_id": "20086c197b51423ea412e35a686905ea", "lat": 38.9262195, "rental_uris": {"ios": "https://dc.lft.to/lastmile_qr_scan", "android": "https://dc.lft.to/lastmile_qr_scan"}}, {"type": "electric_scooter", "name": "beaae1f5a30b1bf1043980fc8e1d50a6", "fusion_lon": 0.0, "is_reserved": 0, "lon": -77.04329883333334, "fusion_lat": 0.0, "is_disabled": 0, "bike_id": "beaae1f5a30b1bf1043980fc8e1d50a6", "lat": 38.90036883333333, "rental_uris": {"ios": "https://dc.lft.to/lastmile_qr_scan", "android": "https://dc.lft.to/lastmile_qr_scan"}}, {"type": "electric_bike", "name": "8ba4a692336324ca8c7f2539594ee18a", "fusion_lon": 0.0, "is_reserved": 0, "lon": -77.0694315, "fusion_lat": 0.0, "is_disabled": 0, "bike_id": "8ba4a692336324ca8c7f2539594ee18a", "lat": 38.99535983333333, "rental_uris": {"ios": "https://dc.lft.to/lastmile_qr_scan", "android": "https://dc.lft.to/lastmile_qr_scan"}}, {"type": "electric_bike", "name": "387a3f26c0343407ceb5e7dd131b2c5b", "fusion_lon": 0.0, "is_reserved": 0, "lon": -76.98751066666667, "fusion_lat": 0.0, "is_disabled": 0, "bike_id": "387a3f26c0343407ceb5e7dd131b2c5b", "lat": 38.8446435, "rental_uris": {"ios": "https://dc.lft.to/lastmile_qr_scan", "android": "https://dc.lft.to/lastmile_qr_scan"}}, {"type": "electric_scooter", "name": "e4ae6b8bc414dde0d208ddd0e7be2fd3", "fusion_lon": 0.0, "is_reserved": 0, "lon": -77.03859866666667, "fusion_lat": 0.0, "is_disabled": 0, "bike_id": "e4ae6b8bc414dde0d208ddd0e7be2fd3", "lat": 38.909802166666665, "rental_uris": {"ios": "https://dc.lft.to/lastmile_qr_scan", "android": "https://dc.lft.to/lastmile_qr_scan"}}, {"type": "electric_bike", "name": "67009bc32f289b353841aa898a8b5ffd", "fusion_lon": 0.0, "is_reserved": 0, "lon": -77.11760883333334, "fusion_lat": 0.0, "is_disabled": 0, "bike_id": "67009bc32f289b353841aa898a8b5ffd", "lat": 38.881910166666664, "rental_uris": {"ios": "https://dc.lft.to/lastmile_qr_scan", "android": "https://dc.lft.to/lastmile_qr_scan"}}, {"type": "electric_scooter", "name": "6863a9eb016410340abe2bba5bff0a1e", "fusion_lon": 0.0, "is_reserved": 0, "lon": -76.93474166666667, "fusion_lat": 0.0, "is_disabled": 0, "bike_id": "6863a9eb016410340abe2bba5bff0a1e", "lat": 38.8950495, "rental_uris": {"ios": "https://dc.lft.to/lastmile_qr_scan", "android": "https://dc.lft.to/lastmile_qr_scan"}}, {"type": "electric_scooter", "name": "c88828380c901adaf27ee43bbee8592d", "fusion_lon": 0.0, "is_reserved": 0, "lon": -77.03187466666667, "fusion_lat": 0.0, "is_disabled": 0, "bike_id": "c88828380c901adaf27ee43bbee8592d", "lat": 38.9172735, "rental_uris": {"ios": "https://dc.lft.to/lastmile_qr_scan", "android": "https://dc.lft.to/lastmile_qr_scan"}}, {"type": "electric_scooter", "name": "64d3d44f93f59b6d3fec1236ffb5eb69", "fusion_lon": 0.0, "is_reserved": 0, "lon": -77.0330205, "fusion_lat": 0.0, "is_disabled": 0, "bike_id": "64d3d44f93f59b6d3fec1236ffb5eb69", "lat": 38.927535, "rental_uris": {"ios": "https://dc.lft.to/lastmile_qr_scan", "android": "https://dc.lft.to/lastmile_qr_scan"}}, {"type": "electric_scooter", "name": "932de7f9e076dae2b7cbbf0a40c0bd90", "fusion_lon": 0.0, "is_reserved": 0, "lon": -77.0168425, "fusion_lat": 0.0, "is_disabled": 0, "bike_id": "932de7f9e076dae2b7cbbf0a40c0bd90", "lat": 38.91423133333333, "rental_uris": {"ios": "https://dc.lft.to/lastmile_qr_scan", "android": "https://dc.lft.to/lastmile_qr_scan"}}, {"type": "electric_scooter", "name": "be24a589be14c8105ff65367df7d3fbd", "fusion_lon": 0.0, "is_reserved": 0, "lon": -77.02384383333333, "fusion_lat": 0.0, "is_disabled": 0, "bike_id": "be24a589be14c8105ff65367df7d3fbd", "lat": 38.91946083333333, "rental_uris": {"ios": "https://dc.lft.to/lastmile_qr_scan", "android": "https://dc.lft.to/lastmile_qr_scan"}}, {"type": "electric_scooter", "name": "bff681240d68e5748c24d564f0369591", "fusion_lon": 0.0, "is_reserved": 0, "lon": -77.03210333333334, "fusion_lat": 0.0, "is_disabled": 0, "bike_id": "bff681240d68e5748c24d564f0369591", "lat": 38.91608433333333, "rental_uris": {"ios": "https://dc.lft.to/lastmile_qr_scan", "android": "https://dc.lft.to/lastmile_qr_scan"}}, {"type": "electric_scooter", "name": "9ae38129c25e136efe3dcd4408280bf6", "fusion_lon": 0.0, "is_reserved": 0, "lon": -77.00736216666667, "fusion_lat": 0.0, "is_disabled": 0, "bike_id": "9ae38129c25e136efe3dcd4408280bf6", "lat": 38.91189716666667, "rental_uris": {"ios": "https://dc.lft.to/lastmile_qr_scan", "android": "https://dc.lft.to/lastmile_qr_scan"}}, {"type": "electric_scooter", "name": "9901553cebee6cc82bb8bfa6fd8004d4", "fusion_lon": 0.0, "is_reserved": 0, "lon": -76.98893266666667, "fusion_lat": 0.0, "is_disabled": 0, "bike_id": "9901553cebee6cc82bb8bfa6fd8004d4", "lat": 38.86621983333333, "rental_uris": {"ios": "https://dc.lft.to/lastmile_qr_scan", "android": "https://dc.lft.to/lastmile_qr_scan"}}, {"type": "electric_scooter", "name": "55d6284818250ecdae2e9372dbe08121", "fusion_lon": 0.0, "is_reserved": 0, "lon": -76.93001316666667, "fusion_lat": 0.0, "is_disabled": 0, "bike_id": "55d6284818250ecdae2e9372dbe08121", "lat": 38.8970625, "rental_uris": {"ios": "https://dc.lft.to/lastmile_qr_scan", "android": "https://dc.lft.to/lastmile_qr_scan"}}, {"type": "electric_scooter", "name": "e1f32a1473afd07e878ff28b80688abb", "fusion_lon": 0.0, "is_reserved": 0, "lon": -77.03522633333333, "fusion_lat": 0.0, "is_disabled": 0, "bike_id": "e1f32a1473afd07e878ff28b80688abb", "lat": 38.92317666666667, "rental_uris": {"ios": "https://dc.lft.to/lastmile_qr_scan", "android": "https://dc.lft.to/lastmile_qr_scan"}}, {"type": "electric_scooter", "name": "4d1ab1a18c37a4e87dcc9f2b2ac3ff7b", "fusion_lon": 0.0, "is_reserved": 0, "lon": -77.03182683333333, "fusion_lat": 0.0, "is_disabled": 0, "bike_id": "4d1ab1a18c37a4e87dcc9f2b2ac3ff7b", "lat": 38.909766166666664, "rental_uris": {"ios": "https://dc.lft.to/lastmile_qr_scan", "android": "https://dc.lft.to/lastmile_qr_scan"}}, {"type": "electric_scooter", "name": "7000ae7f2ed701ea93b182a9abad741d", "fusion_lon": 0.0, "is_reserved": 0, "lon": -77.04035583333334, "fusion_lat": 0.0, "is_disabled": 0, "bike_id": "7000ae7f2ed701ea93b182a9abad741d", "lat": 38.8999745, "rental_uris": {"ios": "https://dc.lft.to/lastmile_qr_scan", "android": "https://dc.lft.to/lastmile_qr_scan"}}, {"type": "electric_scooter", "name": "e40c8cf2f840dffb5446f5c61f6bb604", "fusion_lon": 0.0, "is_reserved": 0, "lon": -77.049998, "fusion_lat": 0.0, "is_disabled": 0, "bike_id": "e40c8cf2f840dffb5446f5c61f6bb604", "lat": 38.903614, "rental_uris": {"ios": "https://dc.lft.to/lastmile_qr_scan", "android": "https://dc.lft.to/lastmile_qr_scan"}}, {"type": "electric_scooter", "name": "579d9dfff5bbb6b6c89d5ebd1046be8e", "fusion_lon": 0.0, "is_reserved": 0, "lon": -77.03225116666667, "fusion_lat": 0.0, "is_disabled": 0, "bike_id": "579d9dfff5bbb6b6c89d5ebd1046be8e", "lat": 38.92009483333333, "rental_uris": {"ios": "https://dc.lft.to/lastmile_qr_scan", "android": "https://dc.lft.to/lastmile_qr_scan"}}, {"type": "electric_scooter", "name": "40a279e90714c64d0d3b4602a897a950", "fusion_lon": 0.0, "is_reserved": 0, "lon": -77.04512016666666, "fusion_lat": 0.0, "is_disabled": 0, "bike_id": "40a279e90714c64d0d3b4602a897a950", "lat": 38.903794833333336, "rental_uris": {"ios": "https://dc.lft.to/lastmile_qr_scan", "android": "https://dc.lft.to/lastmile_qr_scan"}}, {"type": "electric_scooter", "name": "57bb2af15a187ced92d23366e881048f", "fusion_lon": 0.0, "is_reserved": 0, "lon": -77.00081816666666, "fusion_lat": 0.0, "is_disabled": 0, "bike_id": "57bb2af15a187ced92d23366e881048f", "lat": 38.90714766666667, "rental_uris": {"ios": "https://dc.lft.to/lastmile_qr_scan", "android": "https://dc.lft.to/lastmile_qr_scan"}}, {"type": "electric_scooter", "name": "197275c815c89a040d8e1b5381e136cb", "fusion_lon": 0.0, "is_reserved": 0, "lon": -76.937294, "fusion_lat": 0.0, "is_disabled": 0, "bike_id": "197275c815c89a040d8e1b5381e136cb", "lat": 38.8901285, "rental_uris": {"ios": "https://dc.lft.to/lastmile_qr_scan", "android": "https://dc.lft.to/lastmile_qr_scan"}}, {"type": "electric_scooter", "name": "5af3a65f9f3909b6ecb18a3d92ccc999", "fusion_lon": 0.0, "is_reserved": 0, "lon": -77.00857016666667, "fusion_lat": 0.0, "is_disabled": 0, "bike_id": "5af3a65f9f3909b6ecb18a3d92ccc999", "lat": 38.90142566666667, "rental_uris": {"ios": "https://dc.lft.to/lastmile_qr_scan", "android": "https://dc.lft.to/lastmile_qr_scan"}}, {"type": "electric_scooter", "name": "cd460f37fb618a2b06f26b53c1c912a7", "fusion_lon": 0.0, "is_reserved": 0, "lon": -77.040166, "fusion_lat": 0.0, "is_disabled": 0, "bike_id": "cd460f37fb618a2b06f26b53c1c912a7", "lat": 38.897736333333334, "rental_uris": {"ios": "https://dc.lft.to/lastmile_qr_scan", "android": "https://dc.lft.to/lastmile_qr_scan"}}, {"type": "electric_scooter", "name": "3d0969d34b56393fc4a7222f6519e416", "fusion_lon": 0.0, "is_reserved": 0, "lon": -77.04249666666666, "fusion_lat": 0.0, "is_disabled": 0, "bike_id": "3d0969d34b56393fc4a7222f6519e416", "lat": 38.92266733333334, "rental_uris": {"ios": "https://dc.lft.to/lastmile_qr_scan", "android": "https://dc.lft.to/lastmile_qr_scan"}}, {"type": "electric_scooter", "name": "48ea42d8e6e0871ff2c0ce0ec9d01b4d", "fusion_lon": 0.0, "is_reserved": 0, "lon": -77.06480283333333, "fusion_lat": 0.0, "is_disabled": 0, "bike_id": "48ea42d8e6e0871ff2c0ce0ec9d01b4d", "lat": 38.9348335, "rental_uris": {"ios": "https://dc.lft.to/lastmile_qr_scan", "android": "https://dc.lft.to/lastmile_qr_scan"}}, {"type": "electric_scooter", "name": "8e3bbec655126ae0eaa7bd3819e7ac35", "fusion_lon": 0.0, "is_reserved": 0, "lon": -77.021421, "fusion_lat": 0.0, "is_disabled": 0, "bike_id": "8e3bbec655126ae0eaa7bd3819e7ac35", "lat": 38.927488, "rental_uris": {"ios": "https://dc.lft.to/lastmile_qr_scan", "android": "https://dc.lft.to/lastmile_qr_scan"}}, {"type": "electric_scooter", "name": "d54378fc08c18f799637c5a0292c7e53", "fusion_lon": 0.0, "is_reserved": 0, "lon": -77.02735816666667, "fusion_lat": 0.0, "is_disabled": 0, "bike_id": "d54378fc08c18f799637c5a0292c7e53", "lat": 38.9520185, "rental_uris": {"ios": "https://dc.lft.to/lastmile_qr_scan", "android": "https://dc.lft.to/lastmile_qr_scan"}}, {"type": "electric_scooter", "name": "b3b42918335c35320483855e12973aa1", "fusion_lon": 0.0, "is_reserved": 0, "lon": -77.04165133333333, "fusion_lat": 0.0, "is_disabled": 0, "bike_id": "b3b42918335c35320483855e12973aa1", "lat": 38.9050545, "rental_uris": {"ios": "https://dc.lft.to/lastmile_qr_scan", "android": "https://dc.lft.to/lastmile_qr_scan"}}, {"type": "electric_scooter", "name": "b4c0e86d894126b7e2d38e242dc9152f", "fusion_lon": 0.0, "is_reserved": 0, "lon": -77.00603783333334, "fusion_lat": 0.0, "is_disabled": 0, "bike_id": "b4c0e86d894126b7e2d38e242dc9152f", "lat": 38.87540883333333, "rental_uris": {"ios": "https://dc.lft.to/lastmile_qr_scan", "android": "https://dc.lft.to/lastmile_qr_scan"}}, {"type": "electric_scooter", "name": "ab30def5b643db0d3b8eb0aad8b11c8f", "fusion_lon": 0.0, "is_reserved": 0, "lon": -77.04197283333333, "fusion_lat": 0.0, "is_disabled": 0, "bike_id": "ab30def5b643db0d3b8eb0aad8b11c8f", "lat": 38.90700266666666, "rental_uris": {"ios": "https://dc.lft.to/lastmile_qr_scan", "android": "https://dc.lft.to/lastmile_qr_scan"}}, {"type": "electric_scooter", "name": "50a6fb3f6aada925c06749ce0ea9c131", "fusion_lon": 0.0, "is_reserved": 0, "lon": -77.04425866666666, "fusion_lat": 0.0, "is_disabled": 0, "bike_id": "50a6fb3f6aada925c06749ce0ea9c131", "lat": 38.910785, "rental_uris": {"ios": "https://dc.lft.to/lastmile_qr_scan", "android": "https://dc.lft.to/lastmile_qr_scan"}}, {"type": "electric_scooter", "name": "ceb94c2f0ac90cf150d07db41b18dfa7", "fusion_lon": 0.0, "is_reserved": 0, "lon": -77.03835016666666, "fusion_lat": 0.0, "is_disabled": 0, "bike_id": "ceb94c2f0ac90cf150d07db41b18dfa7", "lat": 38.90610616666667, "rental_uris": {"ios": "https://dc.lft.to/lastmile_qr_scan", "android": "https://dc.lft.to/lastmile_qr_scan"}}, {"type": "electric_scooter", "name": "9a54a0a8df4d45f018aed1d1648ea462", "fusion_lon": 0.0, "is_reserved": 0, "lon": -77.044181, "fusion_lat": 0.0, "is_disabled": 0, "bike_id": "9a54a0a8df4d45f018aed1d1648ea462", "lat": 38.90902466666667, "rental_uris": {"ios": "https://dc.lft.to/lastmile_qr_scan", "android": "https://dc.lft.to/lastmile_qr_scan"}}, {"type": "electric_scooter", "name": "60d6e49d771cbfbb02c60a01a34d16ec", "fusion_lon": 0.0, "is_reserved": 0, "lon": -77.01132033333333, "fusion_lat": 0.0, "is_disabled": 0, "bike_id": "60d6e49d771cbfbb02c60a01a34d16ec", "lat": 38.907331, "rental_uris": {"ios": "https://dc.lft.to/lastmile_qr_scan", "android": "https://dc.lft.to/lastmile_qr_scan"}}, {"type": "electric_scooter", "name": "862e393befd8857293cdfe5be3f6fbc2", "fusion_lon": 0.0, "is_reserved": 0, "lon": -76.9574515, "fusion_lat": 0.0, "is_disabled": 0, "bike_id": "862e393befd8857293cdfe5be3f6fbc2", "lat": 38.884598833333335, "rental_uris": {"ios": "https://dc.lft.to/lastmile_qr_scan", "android": "https://dc.lft.to/lastmile_qr_scan"}}, {"type": "electric_bike", "name": "180c204a7698adcbdab00803d197c85c", "fusion_lon": 0.0, "is_reserved": 0, "lon": -77.1186445, "fusion_lat": 0.0, "is_disabled": 0, "bike_id": "180c204a7698adcbdab00803d197c85c", "lat": 38.85897216666667, "rental_uris": {"ios": "https://dc.lft.to/lastmile_qr_scan", "android": "https://dc.lft.to/lastmile_qr_scan"}}, {"type": "electric_scooter", "name": "952d781083de9dc36e40236acaff4255", "fusion_lon": 0.0, "is_reserved": 0, "lon": -77.03153433333334, "fusion_lat": 0.0, "is_disabled": 0, "bike_id": "952d781083de9dc36e40236acaff4255", "lat": 38.91119033333333, "rental_uris": {"ios": "https://dc.lft.to/lastmile_qr_scan", "android": "https://dc.lft.to/lastmile_qr_scan"}}, {"type": "electric_scooter", "name": "b3a3096e6aa311f3723b15a6820d5c5e", "fusion_lon": 0.0, "is_reserved": 0, "lon": -76.978045, "fusion_lat": 0.0, "is_disabled": 0, "bike_id": "b3a3096e6aa311f3723b15a6820d5c5e", "lat": 38.903153833333334, "rental_uris": {"ios": "https://dc.lft.to/lastmile_qr_scan", "android": "https://dc.lft.to/lastmile_qr_scan"}}, {"type": "electric_scooter", "name": "d579014427242216016751e3728abc90", "fusion_lon": 0.0, "is_reserved": 0, "lon": -77.03353016666667, "fusion_lat": 0.0, "is_disabled": 0, "bike_id": "d579014427242216016751e3728abc90", "lat": 38.901405, "rental_uris": {"ios": "https://dc.lft.to/lastmile_qr_scan", "android": "https://dc.lft.to/lastmile_qr_scan"}}, {"type": "electric_scooter", "name": "b875fddf5aacb3a53dda4cda7107ee90", "fusion_lon": 0.0, "is_reserved": 0, "lon": -77.0386755, "fusion_lat": 0.0, "is_disabled": 0, "bike_id": "b875fddf5aacb3a53dda4cda7107ee90", "lat": 38.907943333333336, "rental_uris": {"ios": "https://dc.lft.to/lastmile_qr_scan", "android": "https://dc.lft.to/lastmile_qr_scan"}}, {"type": "electric_scooter", "name": "0948330407ddce076fc2e3a3ffb00898", "fusion_lon": 0.0, "is_reserved": 0, "lon": -76.99292716666666, "fusion_lat": 0.0, "is_disabled": 0, "bike_id": "0948330407ddce076fc2e3a3ffb00898", "lat": 38.90617916666667, "rental_uris": {"ios": "https://dc.lft.to/lastmile_qr_scan", "android": "https://dc.lft.to/lastmile_qr_scan"}}, {"type": "electric_scooter", "name": "3af503b99a6d85ade445630925ba94c4", "fusion_lon": 0.0, "is_reserved": 0, "lon": -77.04215716666667, "fusion_lat": 0.0, "is_disabled": 0, "bike_id": "3af503b99a6d85ade445630925ba94c4", "lat": 38.90278216666667, "rental_uris": {"ios": "https://dc.lft.to/lastmile_qr_scan", "android": "https://dc.lft.to/lastmile_qr_scan"}}, {"type": "electric_scooter", "name": "765e0323a85a3885f299e4a1e1c5365a", "fusion_lon": 0.0, "is_reserved": 0, "lon": -77.03820383333333, "fusion_lat": 0.0, "is_disabled": 0, "bike_id": "765e0323a85a3885f299e4a1e1c5365a", "lat": 38.907179666666664, "rental_uris": {"ios": "https://dc.lft.to/lastmile_qr_scan", "android": "https://dc.lft.to/lastmile_qr_scan"}}, {"type": "electric_scooter", "name": "c2fc1d74277b08a204fc71091325b69b", "fusion_lon": 0.0, "is_reserved": 0, "lon": -77.03317683333333, "fusion_lat": 0.0, "is_disabled": 0, "bike_id": "c2fc1d74277b08a204fc71091325b69b", "lat": 38.9451235, "rental_uris": {"ios": "https://dc.lft.to/lastmile_qr_scan", "android": "https://dc.lft.to/lastmile_qr_scan"}}, {"type": "electric_scooter", "name": "c631ef453f8a29d92b4125c2980b8f19", "fusion_lon": 0.0, "is_reserved": 0, "lon": -77.0333605, "fusion_lat": 0.0, "is_disabled": 0, "bike_id": "c631ef453f8a29d92b4125c2980b8f19", "lat": 38.921587333333335, "rental_uris": {"ios": "https://dc.lft.to/lastmile_qr_scan", "android": "https://dc.lft.to/lastmile_qr_scan"}}, {"type": "electric_bike", "name": "7434e07fe11e4fe28fee47e49928ce04", "fusion_lon": 0.0, "is_reserved": 0, "lon": -76.98754983333333, "fusion_lat": 0.0, "is_disabled": 0, "bike_id": "7434e07fe11e4fe28fee47e49928ce04", "lat": 38.9456615, "rental_uris": {"ios": "https://dc.lft.to/lastmile_qr_scan", "android": "https://dc.lft.to/lastmile_qr_scan"}}, {"type": "electric_scooter", "name": "4f68d7a41ca9dfaa88f44f0809e67f3c", "fusion_lon": 0.0, "is_reserved": 0, "lon": -76.9975565, "fusion_lat": 0.0, "is_disabled": 0, "bike_id": "4f68d7a41ca9dfaa88f44f0809e67f3c", "lat": 38.885129166666665, "rental_uris": {"ios": "https://dc.lft.to/lastmile_qr_scan", "android": "https://dc.lft.to/lastmile_qr_scan"}}, {"type": "electric_scooter", "name": "cbce81cad6eeaa915045f0c2efb5bfc4", "fusion_lon": 0.0, "is_reserved": 0, "lon": -76.95395533333334, "fusion_lat": 0.0, "is_disabled": 0, "bike_id": "cbce81cad6eeaa915045f0c2efb5bfc4", "lat": 38.88404883333333, "rental_uris": {"ios": "https://dc.lft.to/lastmile_qr_scan", "android": "https://dc.lft.to/lastmile_qr_scan"}}, {"type": "electric_scooter", "name": "4a16c4f6dda96f479ee9c02ffea1a7a0", "fusion_lon": 0.0, "is_reserved": 0, "lon": -77.00355566666667, "fusion_lat": 0.0, "is_disabled": 0, "bike_id": "4a16c4f6dda96f479ee9c02ffea1a7a0", "lat": 38.892732, "rental_uris": {"ios": "https://dc.lft.to/lastmile_qr_scan", "android": "https://dc.lft.to/lastmile_qr_scan"}}, {"type": "electric_scooter", "name": "1b3c881c272a25b36ae24048cc367bb4", "fusion_lon": 0.0, "is_reserved": 0, "lon": -77.0071035, "fusion_lat": 0.0, "is_disabled": 0, "bike_id": "1b3c881c272a25b36ae24048cc367bb4", "lat": 38.88490933333333, "rental_uris": {"ios": "https://dc.lft.to/lastmile_qr_scan", "android": "https://dc.lft.to/lastmile_qr_scan"}}, {"type": "electric_scooter", "name": "4ab637029454bec5480b23b6bd742980", "fusion_lon": 0.0, "is_reserved": 0, "lon": -77.04324333333334, "fusion_lat": 0.0, "is_disabled": 0, "bike_id": "4ab637029454bec5480b23b6bd742980", "lat": 38.901627, "rental_uris": {"ios": "https://dc.lft.to/lastmile_qr_scan", "android": "https://dc.lft.to/lastmile_qr_scan"}}, {"type": "electric_scooter", "name": "b8a197c617bced6cfb0f809c07072cc3", "fusion_lon": 0.0, "is_reserved": 0, "lon": -77.00214783333334, "fusion_lat": 0.0, "is_disabled": 0, "bike_id": "b8a197c617bced6cfb0f809c07072cc3", "lat": 38.9006865, "rental_uris": {"ios": "https://dc.lft.to/lastmile_qr_scan", "android": "https://dc.lft.to/lastmile_qr_scan"}}, {"type": "electric_scooter", "name": "3c25b8ea9fa1a41afd13cdd08e9b96c6", "fusion_lon": 0.0, "is_reserved": 0, "lon": -76.977387, "fusion_lat": 0.0, "is_disabled": 0, "bike_id": "3c25b8ea9fa1a41afd13cdd08e9b96c6", "lat": 38.864649, "rental_uris": {"ios": "https://dc.lft.to/lastmile_qr_scan", "android": "https://dc.lft.to/lastmile_qr_scan"}}, {"type": "electric_bike", "name": "907f68cbbe251adcdbfe442daa1a9433", "fusion_lon": 0.0, "is_reserved": 0, "lon": -76.93315733333333, "fusion_lat": 0.0, "is_disabled": 0, "bike_id": "907f68cbbe251adcdbfe442daa1a9433", "lat": 38.908348, "rental_uris": {"ios": "https://dc.lft.to/lastmile_qr_scan", "android": "https://dc.lft.to/lastmile_qr_scan"}}, {"type": "electric_bike", "name": "ad1bb74172748598dae662864a870a67", "fusion_lon": 0.0, "is_reserved": 0, "lon": -76.91214083333334, "fusion_lat": 0.0, "is_disabled": 0, "bike_id": "ad1bb74172748598dae662864a870a67", "lat": 38.903143666666665, "rental_uris": {"ios": "https://dc.lft.to/lastmile_qr_scan", "android": "https://dc.lft.to/lastmile_qr_scan"}}, {"type": "electric_scooter", "name": "0f2d76b3b6be157c6bb544d304b1fae2", "fusion_lon": 0.0, "is_reserved": 0, "lon": -77.06525033333334, "fusion_lat": 0.0, "is_disabled": 0, "bike_id": "0f2d76b3b6be157c6bb544d304b1fae2", "lat": 38.90584483333333, "rental_uris": {"ios": "https://dc.lft.to/lastmile_qr_scan", "android": "https://dc.lft.to/lastmile_qr_scan"}}, {"type": "electric_bike", "name": "25e2894953520f67fbb36d4b2ea9c2a6", "fusion_lon": 0.0, "is_reserved": 0, "lon": -77.07912616666667, "fusion_lat": 0.0, "is_disabled": 0, "bike_id": "25e2894953520f67fbb36d4b2ea9c2a6", "lat": 38.83834016666667, "rental_uris": {"ios": "https://dc.lft.to/lastmile_qr_scan", "android": "https://dc.lft.to/lastmile_qr_scan"}}, {"type": "electric_scooter", "name": "e0903069beb907569fc3b2b3c78aaf3d", "fusion_lon": 0.0, "is_reserved": 0, "lon": -77.04448316666667, "fusion_lat": 0.0, "is_disabled": 0, "bike_id": "e0903069beb907569fc3b2b3c78aaf3d", "lat": 38.918751666666665, "rental_uris": {"ios": "https://dc.lft.to/lastmile_qr_scan", "android": "https://dc.lft.to/lastmile_qr_scan"}}, {"type": "electric_scooter", "name": "d205443b37f656c7e37673bd402fc88e", "fusion_lon": 0.0, "is_reserved": 0, "lon": -77.00890683333333, "fusion_lat": 0.0, "is_disabled": 0, "bike_id": "d205443b37f656c7e37673bd402fc88e", "lat": 38.88502283333333, "rental_uris": {"ios": "https://dc.lft.to/lastmile_qr_scan", "android": "https://dc.lft.to/lastmile_qr_scan"}}, {"type": "electric_scooter", "name": "6f0adb69731983b0b6ab471f547adb79", "fusion_lon": 0.0, "is_reserved": 0, "lon": -76.91194066666667, "fusion_lat": 0.0, "is_disabled": 0, "bike_id": "6f0adb69731983b0b6ab471f547adb79", "lat": 38.89181816666667, "rental_uris": {"ios": "https://dc.lft.to/lastmile_qr_scan", "android": "https://dc.lft.to/lastmile_qr_scan"}}, {"type": "electric_scooter", "name": "90a31c773f3a674ce3179fdcaa9273d7", "fusion_lon": 0.0, "is_reserved": 0, "lon": -77.032116, "fusion_lat": 0.0, "is_disabled": 0, "bike_id": "90a31c773f3a674ce3179fdcaa9273d7", "lat": 38.9180975, "rental_uris": {"ios": "https://dc.lft.to/lastmile_qr_scan", "android": "https://dc.lft.to/lastmile_qr_scan"}}, {"type": "electric_scooter", "name": "a4fd3ab4e609cceac8412daa1985d2d7", "fusion_lon": 0.0, "is_reserved": 0, "lon": -77.04360683333333, "fusion_lat": 0.0, "is_disabled": 0, "bike_id": "a4fd3ab4e609cceac8412daa1985d2d7", "lat": 38.900922333333334, "rental_uris": {"ios": "https://dc.lft.to/lastmile_qr_scan", "android": "https://dc.lft.to/lastmile_qr_scan"}}, {"type": "electric_scooter", "name": "30e340a4972c848f74bef7d56fdb68e9", "fusion_lon": 0.0, "is_reserved": 0, "lon": -77.03838766666667, "fusion_lat": 0.0, "is_disabled": 0, "bike_id": "30e340a4972c848f74bef7d56fdb68e9", "lat": 38.91150366666667, "rental_uris": {"ios": "https://dc.lft.to/lastmile_qr_scan", "android": "https://dc.lft.to/lastmile_qr_scan"}}, {"type": "electric_scooter", "name": "d5149d2a12f43a2f81b98c4d4429fdca", "fusion_lon": 0.0, "is_reserved": 0, "lon": -76.97742816666667, "fusion_lat": 0.0, "is_disabled": 0, "bike_id": "d5149d2a12f43a2f81b98c4d4429fdca", "lat": 38.87166283333333, "rental_uris": {"ios": "https://dc.lft.to/lastmile_qr_scan", "android": "https://dc.lft.to/lastmile_qr_scan"}}, {"type": "electric_scooter", "name": "262da3dcc57433daba8e3a4cd44ff442", "fusion_lon": 0.0, "is_reserved": 0, "lon": -77.00785516666667, "fusion_lat": 0.0, "is_disabled": 0, "bike_id": "262da3dcc57433daba8e3a4cd44ff442", "lat": 38.9268685, "rental_uris": {"ios": "https://dc.lft.to/lastmile_qr_scan", "android": "https://dc.lft.to/lastmile_qr_scan"}}, {"type": "electric_scooter", "name": "8a7d406c5e17121320493726222b8651", "fusion_lon": 0.0, "is_reserved": 0, "lon": -77.03462083333334, "fusion_lat": 0.0, "is_disabled": 0, "bike_id": "8a7d406c5e17121320493726222b8651", "lat": 38.915497, "rental_uris": {"ios": "https://dc.lft.to/lastmile_qr_scan", "android": "https://dc.lft.to/lastmile_qr_scan"}}, {"type": "electric_scooter", "name": "2d94673b7ea4064226e9a3ef5f2933ef", "fusion_lon": 0.0, "is_reserved": 0, "lon": -77.0179515, "fusion_lat": 0.0, "is_disabled": 0, "bike_id": "2d94673b7ea4064226e9a3ef5f2933ef", "lat": 38.92088233333333, "rental_uris": {"ios": "https://dc.lft.to/lastmile_qr_scan", "android": "https://dc.lft.to/lastmile_qr_scan"}}, {"type": "electric_scooter", "name": "1803a0bbf04323743d8a580b16ea37a7", "fusion_lon": 0.0, "is_reserved": 0, "lon": -77.0250105, "fusion_lat": 0.0, "is_disabled": 0, "bike_id": "1803a0bbf04323743d8a580b16ea37a7", "lat": 38.9420435, "rental_uris": {"ios": "https://dc.lft.to/lastmile_qr_scan", "android": "https://dc.lft.to/lastmile_qr_scan"}}, {"type": "electric_scooter", "name": "65262d87995151a5d37ac9da743affa5", "fusion_lon": 0.0, "is_reserved": 0, "lon": -76.92741283333334, "fusion_lat": 0.0, "is_disabled": 0, "bike_id": "65262d87995151a5d37ac9da743affa5", "lat": 38.9006405, "rental_uris": {"ios": "https://dc.lft.to/lastmile_qr_scan", "android": "https://dc.lft.to/lastmile_qr_scan"}}, {"type": "electric_scooter", "name": "c5aee91defa8f8e3fda900b1ade2d1aa", "fusion_lon": 0.0, "is_reserved": 0, "lon": -77.0306855, "fusion_lat": 0.0, "is_disabled": 0, "bike_id": "c5aee91defa8f8e3fda900b1ade2d1aa", "lat": 38.9226525, "rental_uris": {"ios": "https://dc.lft.to/lastmile_qr_scan", "android": "https://dc.lft.to/lastmile_qr_scan"}}, {"type": "electric_scooter", "name": "108a2b60205bcd7f7e9bc78891c97f2f", "fusion_lon": 0.0, "is_reserved": 0, "lon": -77.0150395, "fusion_lat": 0.0, "is_disabled": 0, "bike_id": "108a2b60205bcd7f7e9bc78891c97f2f", "lat": 38.926737833333334, "rental_uris": {"ios": "https://dc.lft.to/lastmile_qr_scan", "android": "https://dc.lft.to/lastmile_qr_scan"}}, {"type": "electric_scooter", "name": "0b94b84aa887766b57b811d9cbc141e3", "fusion_lon": 0.0, "is_reserved": 0, "lon": -77.03498183333333, "fusion_lat": 0.0, "is_disabled": 0, "bike_id": "0b94b84aa887766b57b811d9cbc141e3", "lat": 38.94504416666667, "rental_uris": {"ios": "https://dc.lft.to/lastmile_qr_scan", "android": "https://dc.lft.to/lastmile_qr_scan"}}, {"type": "electric_bike", "name": "83ac635ea539fb9613641313b5051c52", "fusion_lon": 0.0, "is_reserved": 0, "lon": -77.06938366666667, "fusion_lat": 0.0, "is_disabled": 0, "bike_id": "83ac635ea539fb9613641313b5051c52", "lat": 38.960977666666665, "rental_uris": {"ios": "https://dc.lft.to/lastmile_qr_scan", "android": "https://dc.lft.to/lastmile_qr_scan"}}, {"type": "electric_bike", "name": "d91235dffa0d20489af9aff07dc0257f", "fusion_lon": 0.0, "is_reserved": 0, "lon": -77.069324, "fusion_lat": 0.0, "is_disabled": 0, "bike_id": "d91235dffa0d20489af9aff07dc0257f", "lat": 38.95551566666666, "rental_uris": {"ios": "https://dc.lft.to/lastmile_qr_scan", "android": "https://dc.lft.to/lastmile_qr_scan"}}, {"type": "electric_scooter", "name": "3a5e3293b90e336a6480363a9859fe65", "fusion_lon": 0.0, "is_reserved": 0, "lon": -77.02210466666666, "fusion_lat": 0.0, "is_disabled": 0, "bike_id": "3a5e3293b90e336a6480363a9859fe65", "lat": 38.9223485, "rental_uris": {"ios": "https://dc.lft.to/lastmile_qr_scan", "android": "https://dc.lft.to/lastmile_qr_scan"}}, {"type": "electric_scooter", "name": "2f311b2bb87a824f2adc34a9280cad6b", "fusion_lon": 0.0, "is_reserved": 0, "lon": -77.0240885, "fusion_lat": 0.0, "is_disabled": 0, "bike_id": "2f311b2bb87a824f2adc34a9280cad6b", "lat": 38.906167833333335, "rental_uris": {"ios": "https://dc.lft.to/lastmile_qr_scan", "android": "https://dc.lft.to/lastmile_qr_scan"}}, {"type": "electric_scooter", "name": "c0b45a5f7046caf27cf0615a60f15fe1", "fusion_lon": 0.0, "is_reserved": 0, "lon": -76.93026616666667, "fusion_lat": 0.0, "is_disabled": 0, "bike_id": "c0b45a5f7046caf27cf0615a60f15fe1", "lat": 38.90086516666667, "rental_uris": {"ios": "https://dc.lft.to/lastmile_qr_scan", "android": "https://dc.lft.to/lastmile_qr_scan"}}, {"type": "electric_scooter", "name": "0ecedba5412f7b219ef8761aa5f5813a", "fusion_lon": 0.0, "is_reserved": 0, "lon": -77.0088165, "fusion_lat": 0.0, "is_disabled": 0, "bike_id": "0ecedba5412f7b219ef8761aa5f5813a", "lat": 38.88498233333333, "rental_uris": {"ios": "https://dc.lft.to/lastmile_qr_scan", "android": "https://dc.lft.to/lastmile_qr_scan"}}, {"type": "electric_scooter", "name": "35aa235daf71ec14c214fb6a498d3f75", "fusion_lon": 0.0, "is_reserved": 0, "lon": -77.04500866666666, "fusion_lat": 0.0, "is_disabled": 0, "bike_id": "35aa235daf71ec14c214fb6a498d3f75", "lat": 38.914532333333334, "rental_uris": {"ios": "https://dc.lft.to/lastmile_qr_scan", "android": "https://dc.lft.to/lastmile_qr_scan"}}, {"type": "electric_scooter", "name": "97dc5d305c475f4674db4d046e144969", "fusion_lon": 0.0, "is_reserved": 0, "lon": -77.06872616666666, "fusion_lat": 0.0, "is_disabled": 0, "bike_id": "97dc5d305c475f4674db4d046e144969", "lat": 38.918289333333334, "rental_uris": {"ios": "https://dc.lft.to/lastmile_qr_scan", "android": "https://dc.lft.to/lastmile_qr_scan"}}, {"type": "electric_scooter", "name": "682238fe5d034f21342424ef0d27f19b", "fusion_lon": 0.0, "is_reserved": 0, "lon": -77.02860616666666, "fusion_lat": 0.0, "is_disabled": 0, "bike_id": "682238fe5d034f21342424ef0d27f19b", "lat": 38.8951835, "rental_uris": {"ios": "https://dc.lft.to/lastmile_qr_scan", "android": "https://dc.lft.to/lastmile_qr_scan"}}, {"type": "electric_scooter", "name": "72cae57b8b5c898d847556cdd29ca4b9", "fusion_lon": 0.0, "is_reserved": 0, "lon": -77.03140566666667, "fusion_lat": 0.0, "is_disabled": 0, "bike_id": "72cae57b8b5c898d847556cdd29ca4b9", "lat": 38.91113466666667, "rental_uris": {"ios": "https://dc.lft.to/lastmile_qr_scan", "android": "https://dc.lft.to/lastmile_qr_scan"}}, {"type": "electric_scooter", "name": "26070c224f2af3af55bb71bfd29ea346", "fusion_lon": 0.0, "is_reserved": 0, "lon": -77.01869816666667, "fusion_lat": 0.0, "is_disabled": 0, "bike_id": "26070c224f2af3af55bb71bfd29ea346", "lat": 38.92137833333334, "rental_uris": {"ios": "https://dc.lft.to/lastmile_qr_scan", "android": "https://dc.lft.to/lastmile_qr_scan"}}, {"type": "electric_scooter", "name": "e9940eaf802bf3f390a0c1c6cc7928f2", "fusion_lon": 0.0, "is_reserved": 0, "lon": -77.073117, "fusion_lat": 0.0, "is_disabled": 0, "bike_id": "e9940eaf802bf3f390a0c1c6cc7928f2", "lat": 38.9356825, "rental_uris": {"ios": "https://dc.lft.to/lastmile_qr_scan", "android": "https://dc.lft.to/lastmile_qr_scan"}}, {"type": "electric_scooter", "name": "c1591fc84ac8b2fd26e5c6f934082e79", "fusion_lon": 0.0, "is_reserved": 0, "lon": -77.03082716666667, "fusion_lat": 0.0, "is_disabled": 0, "bike_id": "c1591fc84ac8b2fd26e5c6f934082e79", "lat": 38.938645333333334, "rental_uris": {"ios": "https://dc.lft.to/lastmile_qr_scan", "android": "https://dc.lft.to/lastmile_qr_scan"}}, {"type": "electric_scooter", "name": "fede11667123449d9ef5deb9b75c0db2", "fusion_lon": 0.0, "is_reserved": 0, "lon": -77.0018895, "fusion_lat": 0.0, "is_disabled": 0, "bike_id": "fede11667123449d9ef5deb9b75c0db2", "lat": 38.906375833333335, "rental_uris": {"ios": "https://dc.lft.to/lastmile_qr_scan", "android": "https://dc.lft.to/lastmile_qr_scan"}}, {"type": "electric_scooter", "name": "3f60cfdaeb7e506e9029ffc9c4e5928d", "fusion_lon": 0.0, "is_reserved": 0, "lon": -77.00808, "fusion_lat": 0.0, "is_disabled": 0, "bike_id": "3f60cfdaeb7e506e9029ffc9c4e5928d", "lat": 38.8964065, "rental_uris": {"ios": "https://dc.lft.to/lastmile_qr_scan", "android": "https://dc.lft.to/lastmile_qr_scan"}}, {"type": "electric_scooter", "name": "aeba320fa778fa794667e984cf1fb39a", "fusion_lon": 0.0, "is_reserved": 0, "lon": -77.06777033333333, "fusion_lat": 0.0, "is_disabled": 0, "bike_id": "aeba320fa778fa794667e984cf1fb39a", "lat": 38.903848333333336, "rental_uris": {"ios": "https://dc.lft.to/lastmile_qr_scan", "android": "https://dc.lft.to/lastmile_qr_scan"}}, {"type": "electric_scooter", "name": "a302520174425c45ed598c49f8f18534", "fusion_lon": 0.0, "is_reserved": 0, "lon": -77.04632416666666, "fusion_lat": 0.0, "is_disabled": 0, "bike_id": "a302520174425c45ed598c49f8f18534", "lat": 38.90967, "rental_uris": {"ios": "https://dc.lft.to/lastmile_qr_scan", "android": "https://dc.lft.to/lastmile_qr_scan"}}, {"type": "electric_scooter", "name": "043f76c725453f7b6300b2204b118c2c", "fusion_lon": 0.0, "is_reserved": 0, "lon": -77.056283, "fusion_lat": 0.0, "is_disabled": 0, "bike_id": "043f76c725453f7b6300b2204b118c2c", "lat": 38.93153916666667, "rental_uris": {"ios": "https://dc.lft.to/lastmile_qr_scan", "android": "https://dc.lft.to/lastmile_qr_scan"}}, {"type": "electric_scooter", "name": "a5453492a4f26e71dd34f0f6d818818a", "fusion_lon": 0.0, "is_reserved": 0, "lon": -77.032385, "fusion_lat": 0.0, "is_disabled": 0, "bike_id": "a5453492a4f26e71dd34f0f6d818818a", "lat": 38.89919616666667, "rental_uris": {"ios": "https://dc.lft.to/lastmile_qr_scan", "android": "https://dc.lft.to/lastmile_qr_scan"}}, {"type": "electric_scooter", "name": "1d265b6947fba151fa80aeb5826a3cf4", "fusion_lon": 0.0, "is_reserved": 0, "lon": -77.0511245, "fusion_lat": 0.0, "is_disabled": 0, "bike_id": "1d265b6947fba151fa80aeb5826a3cf4", "lat": 38.905713166666665, "rental_uris": {"ios": "https://dc.lft.to/lastmile_qr_scan", "android": "https://dc.lft.to/lastmile_qr_scan"}}, {"type": "electric_scooter", "name": "9ff16a1240e34882c994d5d11445f629", "fusion_lon": 0.0, "is_reserved": 0, "lon": -77.01953583333334, "fusion_lat": 0.0, "is_disabled": 0, "bike_id": "9ff16a1240e34882c994d5d11445f629", "lat": 38.91931366666667, "rental_uris": {"ios": "https://dc.lft.to/lastmile_qr_scan", "android": "https://dc.lft.to/lastmile_qr_scan"}}, {"type": "electric_scooter", "name": "201b2c6218e1f84d76df91465fcb549e", "fusion_lon": 0.0, "is_reserved": 0, "lon": -77.02411833333333, "fusion_lat": 0.0, "is_disabled": 0, "bike_id": "201b2c6218e1f84d76df91465fcb549e", "lat": 38.920892, "rental_uris": {"ios": "https://dc.lft.to/lastmile_qr_scan", "android": "https://dc.lft.to/lastmile_qr_scan"}}, {"type": "electric_scooter", "name": "7b0634b819d7a9bdfd71dffec96854b9", "fusion_lon": 0.0, "is_reserved": 0, "lon": -76.99043383333333, "fusion_lat": 0.0, "is_disabled": 0, "bike_id": "7b0634b819d7a9bdfd71dffec96854b9", "lat": 38.863882, "rental_uris": {"ios": "https://dc.lft.to/lastmile_qr_scan", "android": "https://dc.lft.to/lastmile_qr_scan"}}, {"type": "electric_scooter", "name": "26d44a8b0fb2f7e15001974cb8704458", "fusion_lon": 0.0, "is_reserved": 0, "lon": -77.025308, "fusion_lat": 0.0, "is_disabled": 0, "bike_id": "26d44a8b0fb2f7e15001974cb8704458", "lat": 38.92751533333333, "rental_uris": {"ios": "https://dc.lft.to/lastmile_qr_scan", "android": "https://dc.lft.to/lastmile_qr_scan"}}, {"type": "electric_scooter", "name": "2eaaf4aead6db365da4bafc403a23f81", "fusion_lon": 0.0, "is_reserved": 0, "lon": -77.012761, "fusion_lat": 0.0, "is_disabled": 0, "bike_id": "2eaaf4aead6db365da4bafc403a23f81", "lat": 38.95662866666667, "rental_uris": {"ios": "https://dc.lft.to/lastmile_qr_scan", "android": "https://dc.lft.to/lastmile_qr_scan"}}, {"type": "electric_bike", "name": "ce243fdb06c918c99a3ce9aea9813d18", "fusion_lon": 0.0, "is_reserved": 0, "lon": -76.99781466666667, "fusion_lat": 0.0, "is_disabled": 0, "bike_id": "ce243fdb06c918c99a3ce9aea9813d18", "lat": 38.82917183333333, "rental_uris": {"ios": "https://dc.lft.to/lastmile_qr_scan", "android": "https://dc.lft.to/lastmile_qr_scan"}}, {"type": "electric_scooter", "name": "52273a32741a8c9dc363abbc7792876c", "fusion_lon": 0.0, "is_reserved": 0, "lon": -77.03758316666666, "fusion_lat": 0.0, "is_disabled": 0, "bike_id": "52273a32741a8c9dc363abbc7792876c", "lat": 38.930817, "rental_uris": {"ios": "https://dc.lft.to/lastmile_qr_scan", "android": "https://dc.lft.to/lastmile_qr_scan"}}, {"type": "electric_scooter", "name": "b272ec2dd7bba73fa2d6d386fa513483", "fusion_lon": 0.0, "is_reserved": 0, "lon": -77.029691, "fusion_lat": 0.0, "is_disabled": 0, "bike_id": "b272ec2dd7bba73fa2d6d386fa513483", "lat": 38.9166045, "rental_uris": {"ios": "https://dc.lft.to/lastmile_qr_scan", "android": "https://dc.lft.to/lastmile_qr_scan"}}, {"type": "electric_scooter", "name": "0a5580ffd029590490130b6de1435c82", "fusion_lon": 0.0, "is_reserved": 0, "lon": -77.03187316666667, "fusion_lat": 0.0, "is_disabled": 0, "bike_id": "0a5580ffd029590490130b6de1435c82", "lat": 38.9142375, "rental_uris": {"ios": "https://dc.lft.to/lastmile_qr_scan", "android": "https://dc.lft.to/lastmile_qr_scan"}}, {"type": "electric_scooter", "name": "0fd489a996b02070a421fc34c0f3276b", "fusion_lon": 0.0, "is_reserved": 0, "lon": -77.03232766666666, "fusion_lat": 0.0, "is_disabled": 0, "bike_id": "0fd489a996b02070a421fc34c0f3276b", "lat": 38.92175066666667, "rental_uris": {"ios": "https://dc.lft.to/lastmile_qr_scan", "android": "https://dc.lft.to/lastmile_qr_scan"}}, {"type": "electric_bike", "name": "9ed03cc08d14a01fc157d08b84e32625", "fusion_lon": 0.0, "is_reserved": 0, "lon": -77.0959215, "fusion_lat": 0.0, "is_disabled": 0, "bike_id": "9ed03cc08d14a01fc157d08b84e32625", "lat": 38.861040333333335, "rental_uris": {"ios": "https://dc.lft.to/lastmile_qr_scan", "android": "https://dc.lft.to/lastmile_qr_scan"}}, {"type": "electric_scooter", "name": "2ed2c213dfc5043f972b26bc5658953b", "fusion_lon": 0.0, "is_reserved": 0, "lon": -77.02218533333334, "fusion_lat": 0.0, "is_disabled": 0, "bike_id": "2ed2c213dfc5043f972b26bc5658953b", "lat": 38.9208675, "rental_uris": {"ios": "https://dc.lft.to/lastmile_qr_scan", "android": "https://dc.lft.to/lastmile_qr_scan"}}, {"type": "electric_scooter", "name": "7076b572fe4fe914bc262850aebfb78e", "fusion_lon": 0.0, "is_reserved": 0, "lon": -77.0322485, "fusion_lat": 0.0, "is_disabled": 0, "bike_id": "7076b572fe4fe914bc262850aebfb78e", "lat": 38.91806116666667, "rental_uris": {"ios": "https://dc.lft.to/lastmile_qr_scan", "android": "https://dc.lft.to/lastmile_qr_scan"}}, {"type": "electric_scooter", "name": "30616631918bd5154ed4e19a0b1b3516", "fusion_lon": 0.0, "is_reserved": 0, "lon": -76.933424, "fusion_lat": 0.0, "is_disabled": 0, "bike_id": "30616631918bd5154ed4e19a0b1b3516", "lat": 38.8881075, "rental_uris": {"ios": "https://dc.lft.to/lastmile_qr_scan", "android": "https://dc.lft.to/lastmile_qr_scan"}}, {"type": "electric_scooter", "name": "e3bb743ddaa0841dc46dbb86685e588e", "fusion_lon": 0.0, "is_reserved": 0, "lon": -77.03993033333333, "fusion_lat": 0.0, "is_disabled": 0, "bike_id": "e3bb743ddaa0841dc46dbb86685e588e", "lat": 38.934257, "rental_uris": {"ios": "https://dc.lft.to/lastmile_qr_scan", "android": "https://dc.lft.to/lastmile_qr_scan"}}, {"type": "electric_scooter", "name": "80ca45dbf08d9237f44b169e3adb9108", "fusion_lon": 0.0, "is_reserved": 0, "lon": -77.02214266666667, "fusion_lat": 0.0, "is_disabled": 0, "bike_id": "80ca45dbf08d9237f44b169e3adb9108", "lat": 38.898118, "rental_uris": {"ios": "https://dc.lft.to/lastmile_qr_scan", "android": "https://dc.lft.to/lastmile_qr_scan"}}, {"type": "electric_scooter", "name": "8cd855de02b3fc94a633659e5795e5fa", "fusion_lon": 0.0, "is_reserved": 0, "lon": -77.01777066666666, "fusion_lat": 0.0, "is_disabled": 0, "bike_id": "8cd855de02b3fc94a633659e5795e5fa", "lat": 38.902503333333335, "rental_uris": {"ios": "https://dc.lft.to/lastmile_qr_scan", "android": "https://dc.lft.to/lastmile_qr_scan"}}, {"type": "electric_scooter", "name": "d23a9b2a6f25a65a7385a32390cbc046", "fusion_lon": 0.0, "is_reserved": 0, "lon": -77.02335416666666, "fusion_lat": 0.0, "is_disabled": 0, "bike_id": "d23a9b2a6f25a65a7385a32390cbc046", "lat": 38.92234166666667, "rental_uris": {"ios": "https://dc.lft.to/lastmile_qr_scan", "android": "https://dc.lft.to/lastmile_qr_scan"}}, {"type": "electric_bike", "name": "411a1928b78591493bca3b2ceae1d926", "fusion_lon": 0.0, "is_reserved": 0, "lon": -77.13101216666666, "fusion_lat": 0.0, "is_disabled": 0, "bike_id": "411a1928b78591493bca3b2ceae1d926", "lat": 39.024396833333334, "rental_uris": {"ios": "https://dc.lft.to/lastmile_qr_scan", "android": "https://dc.lft.to/lastmile_qr_scan"}}, {"type": "electric_scooter", "name": "8e6dee59219b02d501c4ef50d4de73ad", "fusion_lon": 0.0, "is_reserved": 0, "lon": -77.04468533333333, "fusion_lat": 0.0, "is_disabled": 0, "bike_id": "8e6dee59219b02d501c4ef50d4de73ad", "lat": 38.905752, "rental_uris": {"ios": "https://dc.lft.to/lastmile_qr_scan", "android": "https://dc.lft.to/lastmile_qr_scan"}}, {"type": "electric_scooter", "name": "5d030e68ed9d4aab07b6fce30f7fe4a0", "fusion_lon": 0.0, "is_reserved": 0, "lon": -76.97438, "fusion_lat": 0.0, "is_disabled": 0, "bike_id": "5d030e68ed9d4aab07b6fce30f7fe4a0", "lat": 38.8640005, "rental_uris": {"ios": "https://dc.lft.to/lastmile_qr_scan", "android": "https://dc.lft.to/lastmile_qr_scan"}}, {"type": "electric_scooter", "name": "896c8b86443def0a74473d8fdefb791c", "fusion_lon": 0.0, "is_reserved": 0, "lon": -77.04547333333333, "fusion_lat": 0.0, "is_disabled": 0, "bike_id": "896c8b86443def0a74473d8fdefb791c", "lat": 38.9141715, "rental_uris": {"ios": "https://dc.lft.to/lastmile_qr_scan", "android": "https://dc.lft.to/lastmile_qr_scan"}}, {"type": "electric_scooter", "name": "4363c556a9d77d76c835dbfb10d3df8b", "fusion_lon": 0.0, "is_reserved": 0, "lon": -76.95521016666666, "fusion_lat": 0.0, "is_disabled": 0, "bike_id": "4363c556a9d77d76c835dbfb10d3df8b", "lat": 38.88770383333333, "rental_uris": {"ios": "https://dc.lft.to/lastmile_qr_scan", "android": "https://dc.lft.to/lastmile_qr_scan"}}, {"type": "electric_scooter", "name": "5f8dd8f922aa974345e0ee2d427c7925", "fusion_lon": 0.0, "is_reserved": 0, "lon": -76.96889416666667, "fusion_lat": 0.0, "is_disabled": 0, "bike_id": "5f8dd8f922aa974345e0ee2d427c7925", "lat": 38.860739, "rental_uris": {"ios": "https://dc.lft.to/lastmile_qr_scan", "android": "https://dc.lft.to/lastmile_qr_scan"}}, {"type": "electric_scooter", "name": "d871a902a3017e43b60603acc2d27aac", "fusion_lon": 0.0, "is_reserved": 0, "lon": -77.04501066666667, "fusion_lat": 0.0, "is_disabled": 0, "bike_id": "d871a902a3017e43b60603acc2d27aac", "lat": 38.89224566666667, "rental_uris": {"ios": "https://dc.lft.to/lastmile_qr_scan", "android": "https://dc.lft.to/lastmile_qr_scan"}}, {"type": "electric_bike", "name": "1de155b3550c3026ab94f7c6cc6b4aa0", "fusion_lon": 0.0, "is_reserved": 0, "lon": -76.972113, "fusion_lat": 0.0, "is_disabled": 0, "bike_id": "1de155b3550c3026ab94f7c6cc6b4aa0", "lat": 38.947852833333336, "rental_uris": {"ios": "https://dc.lft.to/lastmile_qr_scan", "android": "https://dc.lft.to/lastmile_qr_scan"}}, {"type": "electric_scooter", "name": "28304b615bdc5d9fc42464699ec5f771", "fusion_lon": 0.0, "is_reserved": 0, "lon": -77.0465075, "fusion_lat": 0.0, "is_disabled": 0, "bike_id": "28304b615bdc5d9fc42464699ec5f771", "lat": 38.90552566666667, "rental_uris": {"ios": "https://dc.lft.to/lastmile_qr_scan", "android": "https://dc.lft.to/lastmile_qr_scan"}}, {"type": "electric_scooter", "name": "0d6e90086ff114aae7fc495095f67bfc", "fusion_lon": 0.0, "is_reserved": 0, "lon": -77.02207833333334, "fusion_lat": 0.0, "is_disabled": 0, "bike_id": "0d6e90086ff114aae7fc495095f67bfc", "lat": 38.9142935, "rental_uris": {"ios": "https://dc.lft.to/lastmile_qr_scan", "android": "https://dc.lft.to/lastmile_qr_scan"}}, {"type": "electric_scooter", "name": "5fa2df47d5b7c52607a8f59287bacb0c", "fusion_lon": 0.0, "is_reserved": 0, "lon": -77.03438233333334, "fusion_lat": 0.0, "is_disabled": 0, "bike_id": "5fa2df47d5b7c52607a8f59287bacb0c", "lat": 38.91695083333333, "rental_uris": {"ios": "https://dc.lft.to/lastmile_qr_scan", "android": "https://dc.lft.to/lastmile_qr_scan"}}, {"type": "electric_scooter", "name": "d77111a125e7a76706660b1b87ad6be0", "fusion_lon": 0.0, "is_reserved": 0, "lon": -77.03996683333334, "fusion_lat": 0.0, "is_disabled": 0, "bike_id": "d77111a125e7a76706660b1b87ad6be0", "lat": 38.907778666666665, "rental_uris": {"ios": "https://dc.lft.to/lastmile_qr_scan", "android": "https://dc.lft.to/lastmile_qr_scan"}}, {"type": "electric_scooter", "name": "ce2fbe7ed08a33b0c0a16ec0e1341843", "fusion_lon": 0.0, "is_reserved": 0, "lon": -76.94575816666666, "fusion_lat": 0.0, "is_disabled": 0, "bike_id": "ce2fbe7ed08a33b0c0a16ec0e1341843", "lat": 38.899348833333335, "rental_uris": {"ios": "https://dc.lft.to/lastmile_qr_scan", "android": "https://dc.lft.to/lastmile_qr_scan"}}, {"type": "electric_scooter", "name": "55aecc237242dbcbbdb8192933440233", "fusion_lon": 0.0, "is_reserved": 0, "lon": -76.93382383333334, "fusion_lat": 0.0, "is_disabled": 0, "bike_id": "55aecc237242dbcbbdb8192933440233", "lat": 38.8991535, "rental_uris": {"ios": "https://dc.lft.to/lastmile_qr_scan", "android": "https://dc.lft.to/lastmile_qr_scan"}}, {"type": "electric_scooter", "name": "46b0a5ecc2ec3c4d6a2d09b73c8d4ce7", "fusion_lon": 0.0, "is_reserved": 0, "lon": -77.03852166666667, "fusion_lat": 0.0, "is_disabled": 0, "bike_id": "46b0a5ecc2ec3c4d6a2d09b73c8d4ce7", "lat": 38.932486, "rental_uris": {"ios": "https://dc.lft.to/lastmile_qr_scan", "android": "https://dc.lft.to/lastmile_qr_scan"}}, {"type": "electric_scooter", "name": "d18c47caf89eb7f836599881e9b2efc0", "fusion_lon": 0.0, "is_reserved": 0, "lon": -77.04636633333334, "fusion_lat": 0.0, "is_disabled": 0, "bike_id": "d18c47caf89eb7f836599881e9b2efc0", "lat": 38.9007155, "rental_uris": {"ios": "https://dc.lft.to/lastmile_qr_scan", "android": "https://dc.lft.to/lastmile_qr_scan"}}, {"type": "electric_scooter", "name": "18a7a8823d06924eaa755f406b99a3b4", "fusion_lon": 0.0, "is_reserved": 0, "lon": -77.0347175, "fusion_lat": 0.0, "is_disabled": 0, "bike_id": "18a7a8823d06924eaa755f406b99a3b4", "lat": 38.917054666666665, "rental_uris": {"ios": "https://dc.lft.to/lastmile_qr_scan", "android": "https://dc.lft.to/lastmile_qr_scan"}}, {"type": "electric_bike", "name": "74c40e76deb24d9fb26543297add686a", "fusion_lon": 0.0, "is_reserved": 0, "lon": -77.1198765, "fusion_lat": 0.0, "is_disabled": 0, "bike_id": "74c40e76deb24d9fb26543297add686a", "lat": 38.84731, "rental_uris": {"ios": "https://dc.lft.to/lastmile_qr_scan", "android": "https://dc.lft.to/lastmile_qr_scan"}}, {"type": "electric_scooter", "name": "509daab71a70b3c452b7d937658fa00f", "fusion_lon": 0.0, "is_reserved": 0, "lon": -77.022088, "fusion_lat": 0.0, "is_disabled": 0, "bike_id": "509daab71a70b3c452b7d937658fa00f", "lat": 38.905341, "rental_uris": {"ios": "https://dc.lft.to/lastmile_qr_scan", "android": "https://dc.lft.to/lastmile_qr_scan"}}, {"type": "electric_scooter", "name": "9a9ddda334da1c94821541bc737e66cf", "fusion_lon": 0.0, "is_reserved": 0, "lon": -77.07346116666666, "fusion_lat": 0.0, "is_disabled": 0, "bike_id": "9a9ddda334da1c94821541bc737e66cf", "lat": 38.91264416666667, "rental_uris": {"ios": "https://dc.lft.to/lastmile_qr_scan", "android": "https://dc.lft.to/lastmile_qr_scan"}}, {"type": "electric_scooter", "name": "05cff8305f8c123640e059013b9a9ea6", "fusion_lon": 0.0, "is_reserved": 0, "lon": -77.0163685, "fusion_lat": 0.0, "is_disabled": 0, "bike_id": "05cff8305f8c123640e059013b9a9ea6", "lat": 38.9039735, "rental_uris": {"ios": "https://dc.lft.to/lastmile_qr_scan", "android": "https://dc.lft.to/lastmile_qr_scan"}}, {"type": "electric_scooter", "name": "f3d3615bdb9a2c096923b15486d23bff", "fusion_lon": 0.0, "is_reserved": 0, "lon": -77.00014483333334, "fusion_lat": 0.0, "is_disabled": 0, "bike_id": "f3d3615bdb9a2c096923b15486d23bff", "lat": 38.87400183333333, "rental_uris": {"ios": "https://dc.lft.to/lastmile_qr_scan", "android": "https://dc.lft.to/lastmile_qr_scan"}}, {"type": "electric_scooter", "name": "f58abca71a01051ea4acd7f0a07f2077", "fusion_lon": 0.0, "is_reserved": 0, "lon": -76.975831, "fusion_lat": 0.0, "is_disabled": 0, "bike_id": "f58abca71a01051ea4acd7f0a07f2077", "lat": 38.90337866666667, "rental_uris": {"ios": "https://dc.lft.to/lastmile_qr_scan", "android": "https://dc.lft.to/lastmile_qr_scan"}}, {"type": "electric_bike", "name": "a2db4d136e09dab444c8e30661b72f9a", "fusion_lon": 0.0, "is_reserved": 0, "lon": -77.12077433333333, "fusion_lat": 0.0, "is_disabled": 0, "bike_id": "a2db4d136e09dab444c8e30661b72f9a", "lat": 38.85419783333333, "rental_uris": {"ios": "https://dc.lft.to/lastmile_qr_scan", "android": "https://dc.lft.to/lastmile_qr_scan"}}, {"type": "electric_scooter", "name": "4a3b3e6de7ba8678b9528aa7b1c63a97", "fusion_lon": 0.0, "is_reserved": 0, "lon": -77.04266716666666, "fusion_lat": 0.0, "is_disabled": 0, "bike_id": "4a3b3e6de7ba8678b9528aa7b1c63a97", "lat": 38.92296316666667, "rental_uris": {"ios": "https://dc.lft.to/lastmile_qr_scan", "android": "https://dc.lft.to/lastmile_qr_scan"}}, {"type": "electric_scooter", "name": "f77e0e9cd06dd123cc23d4c0cb6d94a7", "fusion_lon": 0.0, "is_reserved": 0, "lon": -77.031875, "fusion_lat": 0.0, "is_disabled": 0, "bike_id": "f77e0e9cd06dd123cc23d4c0cb6d94a7", "lat": 38.90791766666667, "rental_uris": {"ios": "https://dc.lft.to/lastmile_qr_scan", "android": "https://dc.lft.to/lastmile_qr_scan"}}, {"type": "electric_scooter", "name": "710ac1c5c3ca87aa7ea66948900a1afd", "fusion_lon": 0.0, "is_reserved": 0, "lon": -77.04450766666666, "fusion_lat": 0.0, "is_disabled": 0, "bike_id": "710ac1c5c3ca87aa7ea66948900a1afd", "lat": 38.918747333333336, "rental_uris": {"ios": "https://dc.lft.to/lastmile_qr_scan", "android": "https://dc.lft.to/lastmile_qr_scan"}}, {"type": "electric_scooter", "name": "8834510cc0482e9ec941a6b8d4ebc6be", "fusion_lon": 0.0, "is_reserved": 0, "lon": -77.03341183333333, "fusion_lat": 0.0, "is_disabled": 0, "bike_id": "8834510cc0482e9ec941a6b8d4ebc6be", "lat": 38.89956133333333, "rental_uris": {"ios": "https://dc.lft.to/lastmile_qr_scan", "android": "https://dc.lft.to/lastmile_qr_scan"}}, {"type": "electric_scooter", "name": "53f0f0d8640972ca469cffda41cb5b84", "fusion_lon": 0.0, "is_reserved": 0, "lon": -77.0334705, "fusion_lat": 0.0, "is_disabled": 0, "bike_id": "53f0f0d8640972ca469cffda41cb5b84", "lat": 38.899716, "rental_uris": {"ios": "https://dc.lft.to/lastmile_qr_scan", "android": "https://dc.lft.to/lastmile_qr_scan"}}, {"type": "electric_bike", "name": "134f68a30d05255650fbc2f8caeb4611", "fusion_lon": 0.0, "is_reserved": 0, "lon": -77.1719, "fusion_lat": 0.0, "is_disabled": 0, "bike_id": "134f68a30d05255650fbc2f8caeb4611", "lat": 38.882866, "rental_uris": {"ios": "https://dc.lft.to/lastmile_qr_scan", "android": "https://dc.lft.to/lastmile_qr_scan"}}, {"type": "electric_scooter", "name": "4ba41d96721056bcfa0fecfd79fd21a6", "fusion_lon": 0.0, "is_reserved": 0, "lon": -77.01283733333334, "fusion_lat": 0.0, "is_disabled": 0, "bike_id": "4ba41d96721056bcfa0fecfd79fd21a6", "lat": 38.892300666666664, "rental_uris": {"ios": "https://dc.lft.to/lastmile_qr_scan", "android": "https://dc.lft.to/lastmile_qr_scan"}}, {"type": "electric_scooter", "name": "4282e18de818fdd5dce5a2006d73ed0f", "fusion_lon": 0.0, "is_reserved": 0, "lon": -77.029526, "fusion_lat": 0.0, "is_disabled": 0, "bike_id": "4282e18de818fdd5dce5a2006d73ed0f", "lat": 38.916868666666666, "rental_uris": {"ios": "https://dc.lft.to/lastmile_qr_scan", "android": "https://dc.lft.to/lastmile_qr_scan"}}, {"type": "electric_scooter", "name": "f8689166c3e8e6ea5b293d5b75a14e19", "fusion_lon": 0.0, "is_reserved": 0, "lon": -77.02818083333334, "fusion_lat": 0.0, "is_disabled": 0, "bike_id": "f8689166c3e8e6ea5b293d5b75a14e19", "lat": 38.91752433333333, "rental_uris": {"ios": "https://dc.lft.to/lastmile_qr_scan", "android": "https://dc.lft.to/lastmile_qr_scan"}}, {"type": "electric_scooter", "name": "5c40aa181b48efed3db9c413964c51fa", "fusion_lon": 0.0, "is_reserved": 0, "lon": -77.0399555, "fusion_lat": 0.0, "is_disabled": 0, "bike_id": "5c40aa181b48efed3db9c413964c51fa", "lat": 38.934257, "rental_uris": {"ios": "https://dc.lft.to/lastmile_qr_scan", "android": "https://dc.lft.to/lastmile_qr_scan"}}, {"type": "electric_scooter", "name": "f260b036112f3930704185d77c0a79fa", "fusion_lon": 0.0, "is_reserved": 0, "lon": -76.99927916666667, "fusion_lat": 0.0, "is_disabled": 0, "bike_id": "f260b036112f3930704185d77c0a79fa", "lat": 38.8431885, "rental_uris": {"ios": "https://dc.lft.to/lastmile_qr_scan", "android": "https://dc.lft.to/lastmile_qr_scan"}}, {"type": "electric_scooter", "name": "0af864632a6cfe39498cd0cd064ce06c", "fusion_lon": 0.0, "is_reserved": 0, "lon": -77.03183683333333, "fusion_lat": 0.0, "is_disabled": 0, "bike_id": "0af864632a6cfe39498cd0cd064ce06c", "lat": 38.91353133333333, "rental_uris": {"ios": "https://dc.lft.to/lastmile_qr_scan", "android": "https://dc.lft.to/lastmile_qr_scan"}}, {"type": "electric_scooter", "name": "c16ce2c09538849746e80dfc2301ce9a", "fusion_lon": 0.0, "is_reserved": 0, "lon": -76.9969315, "fusion_lat": 0.0, "is_disabled": 0, "bike_id": "c16ce2c09538849746e80dfc2301ce9a", "lat": 38.884262666666665, "rental_uris": {"ios": "https://dc.lft.to/lastmile_qr_scan", "android": "https://dc.lft.to/lastmile_qr_scan"}}, {"type": "electric_scooter", "name": "e303db249be2567d9bfed06b57fde028", "fusion_lon": 0.0, "is_reserved": 0, "lon": -77.03857766666667, "fusion_lat": 0.0, "is_disabled": 0, "bike_id": "e303db249be2567d9bfed06b57fde028", "lat": 38.903657333333335, "rental_uris": {"ios": "https://dc.lft.to/lastmile_qr_scan", "android": "https://dc.lft.to/lastmile_qr_scan"}}, {"type": "electric_scooter", "name": "2643ae584464eadfac1745a20d9fedc4", "fusion_lon": 0.0, "is_reserved": 0, "lon": -77.0005185, "fusion_lat": 0.0, "is_disabled": 0, "bike_id": "2643ae584464eadfac1745a20d9fedc4", "lat": 38.883132333333336, "rental_uris": {"ios": "https://dc.lft.to/lastmile_qr_scan", "android": "https://dc.lft.to/lastmile_qr_scan"}}, {"type": "electric_scooter", "name": "ba2ffc309ddf3b5d444efe80e5cf40b7", "fusion_lon": 0.0, "is_reserved": 0, "lon": -77.03819266666666, "fusion_lat": 0.0, "is_disabled": 0, "bike_id": "ba2ffc309ddf3b5d444efe80e5cf40b7", "lat": 38.90712716666667, "rental_uris": {"ios": "https://dc.lft.to/lastmile_qr_scan", "android": "https://dc.lft.to/lastmile_qr_scan"}}, {"type": "electric_scooter", "name": "d915ea2c6658fa7a4c4fc65c188b51a1", "fusion_lon": 0.0, "is_reserved": 0, "lon": -77.0094445, "fusion_lat": 0.0, "is_disabled": 0, "bike_id": "d915ea2c6658fa7a4c4fc65c188b51a1", "lat": 38.8747055, "rental_uris": {"ios": "https://dc.lft.to/lastmile_qr_scan", "android": "https://dc.lft.to/lastmile_qr_scan"}}, {"type": "electric_scooter", "name": "42e58f62cbedb80678716302d8bfb48e", "fusion_lon": 0.0, "is_reserved": 0, "lon": -77.02006766666666, "fusion_lat": 0.0, "is_disabled": 0, "bike_id": "42e58f62cbedb80678716302d8bfb48e", "lat": 38.91104283333333, "rental_uris": {"ios": "https://dc.lft.to/lastmile_qr_scan", "android": "https://dc.lft.to/lastmile_qr_scan"}}, {"type": "electric_scooter", "name": "f9124db4bf9d61764d29af2a4b889219", "fusion_lon": 0.0, "is_reserved": 0, "lon": -77.01219433333333, "fusion_lat": 0.0, "is_disabled": 0, "bike_id": "f9124db4bf9d61764d29af2a4b889219", "lat": 38.86974933333333, "rental_uris": {"ios": "https://dc.lft.to/lastmile_qr_scan", "android": "https://dc.lft.to/lastmile_qr_scan"}}, {"type": "electric_bike", "name": "faffe670f0b68a36daa12dc6ced2cb94", "fusion_lon": 0.0, "is_reserved": 0, "lon": -76.99354283333334, "fusion_lat": 0.0, "is_disabled": 0, "bike_id": "faffe670f0b68a36daa12dc6ced2cb94", "lat": 38.955058666666666, "rental_uris": {"ios": "https://dc.lft.to/lastmile_qr_scan", "android": "https://dc.lft.to/lastmile_qr_scan"}}, {"type": "electric_scooter", "name": "55aba4ab0840fc044f87623c0df06414", "fusion_lon": 0.0, "is_reserved": 0, "lon": -76.99957733333333, "fusion_lat": 0.0, "is_disabled": 0, "bike_id": "55aba4ab0840fc044f87623c0df06414", "lat": 38.90331033333333, "rental_uris": {"ios": "https://dc.lft.to/lastmile_qr_scan", "android": "https://dc.lft.to/lastmile_qr_scan"}}, {"type": "electric_scooter", "name": "3a266c0eaf3bdd99ca7deb85469d7367", "fusion_lon": 0.0, "is_reserved": 0, "lon": -77.0201895, "fusion_lat": 0.0, "is_disabled": 0, "bike_id": "3a266c0eaf3bdd99ca7deb85469d7367", "lat": 38.924388666666665, "rental_uris": {"ios": "https://dc.lft.to/lastmile_qr_scan", "android": "https://dc.lft.to/lastmile_qr_scan"}}, {"type": "electric_scooter", "name": "5b98cd56851c51d6936b84b1c03d4fa2", "fusion_lon": 0.0, "is_reserved": 0, "lon": -77.02887483333333, "fusion_lat": 0.0, "is_disabled": 0, "bike_id": "5b98cd56851c51d6936b84b1c03d4fa2", "lat": 38.91949983333333, "rental_uris": {"ios": "https://dc.lft.to/lastmile_qr_scan", "android": "https://dc.lft.to/lastmile_qr_scan"}}, {"type": "electric_scooter", "name": "ce84031da3a67a085727a134b840740e", "fusion_lon": 0.0, "is_reserved": 0, "lon": -77.0430765, "fusion_lat": 0.0, "is_disabled": 0, "bike_id": "ce84031da3a67a085727a134b840740e", "lat": 38.892241166666665, "rental_uris": {"ios": "https://dc.lft.to/lastmile_qr_scan", "android": "https://dc.lft.to/lastmile_qr_scan"}}, {"type": "electric_scooter", "name": "cf6b95aaf793bf7c2c45a960cf8449b1", "fusion_lon": 0.0, "is_reserved": 0, "lon": -77.01516366666667, "fusion_lat": 0.0, "is_disabled": 0, "bike_id": "cf6b95aaf793bf7c2c45a960cf8449b1", "lat": 38.95833966666667, "rental_uris": {"ios": "https://dc.lft.to/lastmile_qr_scan", "android": "https://dc.lft.to/lastmile_qr_scan"}}, {"type": "electric_scooter", "name": "e84f39c1e57cc9637defe8bac8e8c5ce", "fusion_lon": 0.0, "is_reserved": 0, "lon": -77.0252045, "fusion_lat": 0.0, "is_disabled": 0, "bike_id": "e84f39c1e57cc9637defe8bac8e8c5ce", "lat": 38.92137966666667, "rental_uris": {"ios": "https://dc.lft.to/lastmile_qr_scan", "android": "https://dc.lft.to/lastmile_qr_scan"}}, {"type": "electric_scooter", "name": "7363e21c944033329a160212cbfa0b99", "fusion_lon": 0.0, "is_reserved": 0, "lon": -77.0271935, "fusion_lat": 0.0, "is_disabled": 0, "bike_id": "7363e21c944033329a160212cbfa0b99", "lat": 38.95134633333333, "rental_uris": {"ios": "https://dc.lft.to/lastmile_qr_scan", "android": "https://dc.lft.to/lastmile_qr_scan"}}, {"type": "electric_bike", "name": "2b4230383e80ad84f4f9dbdc192973cb", "fusion_lon": 0.0, "is_reserved": 0, "lon": -77.030771, "fusion_lat": 0.0, "is_disabled": 0, "bike_id": "2b4230383e80ad84f4f9dbdc192973cb", "lat": 39.042328166666664, "rental_uris": {"ios": "https://dc.lft.to/lastmile_qr_scan", "android": "https://dc.lft.to/lastmile_qr_scan"}}, {"type": "electric_scooter", "name": "52b3dba87579e880cb7bf08f78a23e04", "fusion_lon": 0.0, "is_reserved": 0, "lon": -77.02760966666666, "fusion_lat": 0.0, "is_disabled": 0, "bike_id": "52b3dba87579e880cb7bf08f78a23e04", "lat": 38.956118833333335, "rental_uris": {"ios": "https://dc.lft.to/lastmile_qr_scan", "android": "https://dc.lft.to/lastmile_qr_scan"}}, {"type": "electric_scooter", "name": "64e4adec55a6e219291a24b9ff17c1c4", "fusion_lon": 0.0, "is_reserved": 0, "lon": -77.03199866666667, "fusion_lat": 0.0, "is_disabled": 0, "bike_id": "64e4adec55a6e219291a24b9ff17c1c4", "lat": 38.93055233333333, "rental_uris": {"ios": "https://dc.lft.to/lastmile_qr_scan", "android": "https://dc.lft.to/lastmile_qr_scan"}}, {"type": "electric_scooter", "name": "8e389c8434f34d17a468914750f0d613", "fusion_lon": 0.0, "is_reserved": 0, "lon": -77.03882733333333, "fusion_lat": 0.0, "is_disabled": 0, "bike_id": "8e389c8434f34d17a468914750f0d613", "lat": 38.90272866666667, "rental_uris": {"ios": "https://dc.lft.to/lastmile_qr_scan", "android": "https://dc.lft.to/lastmile_qr_scan"}}, {"type": "electric_scooter", "name": "2dab014b085ffb50b08f7d9e15219fb4", "fusion_lon": 0.0, "is_reserved": 0, "lon": -77.0342985, "fusion_lat": 0.0, "is_disabled": 0, "bike_id": "2dab014b085ffb50b08f7d9e15219fb4", "lat": 38.9036745, "rental_uris": {"ios": "https://dc.lft.to/lastmile_qr_scan", "android": "https://dc.lft.to/lastmile_qr_scan"}}, {"type": "electric_scooter", "name": "a72c5a3b49c77cb8eb6260295cd89ed2", "fusion_lon": 0.0, "is_reserved": 0, "lon": -77.0430865, "fusion_lat": 0.0, "is_disabled": 0, "bike_id": "a72c5a3b49c77cb8eb6260295cd89ed2", "lat": 38.892211, "rental_uris": {"ios": "https://dc.lft.to/lastmile_qr_scan", "android": "https://dc.lft.to/lastmile_qr_scan"}}, {"type": "electric_scooter", "name": "3d9b358a0323837a0b0656d457dabe0a", "fusion_lon": 0.0, "is_reserved": 0, "lon": -77.04506483333333, "fusion_lat": 0.0, "is_disabled": 0, "bike_id": "3d9b358a0323837a0b0656d457dabe0a", "lat": 38.89228166666667, "rental_uris": {"ios": "https://dc.lft.to/lastmile_qr_scan", "android": "https://dc.lft.to/lastmile_qr_scan"}}, {"type": "electric_scooter", "name": "3f1c329de4f2aeb738249d0d29ba2e3d", "fusion_lon": 0.0, "is_reserved": 0, "lon": -77.02215733333334, "fusion_lat": 0.0, "is_disabled": 0, "bike_id": "3f1c329de4f2aeb738249d0d29ba2e3d", "lat": 38.955292666666665, "rental_uris": {"ios": "https://dc.lft.to/lastmile_qr_scan", "android": "https://dc.lft.to/lastmile_qr_scan"}}, {"type": "electric_scooter", "name": "f15f947de65e1c4d2a989ca3d02fe6f9", "fusion_lon": 0.0, "is_reserved": 0, "lon": -77.028102, "fusion_lat": 0.0, "is_disabled": 0, "bike_id": "f15f947de65e1c4d2a989ca3d02fe6f9", "lat": 38.915425, "rental_uris": {"ios": "https://dc.lft.to/lastmile_qr_scan", "android": "https://dc.lft.to/lastmile_qr_scan"}}, {"type": "electric_scooter", "name": "e9a0883e84162c2a5f6c19379e5c9409", "fusion_lon": 0.0, "is_reserved": 0, "lon": -77.03796816666667, "fusion_lat": 0.0, "is_disabled": 0, "bike_id": "e9a0883e84162c2a5f6c19379e5c9409", "lat": 38.93050733333333, "rental_uris": {"ios": "https://dc.lft.to/lastmile_qr_scan", "android": "https://dc.lft.to/lastmile_qr_scan"}}, {"type": "electric_scooter", "name": "6c9697461e7210cc3bc57c4fe2021f00", "fusion_lon": 0.0, "is_reserved": 0, "lon": -77.03185916666666, "fusion_lat": 0.0, "is_disabled": 0, "bike_id": "6c9697461e7210cc3bc57c4fe2021f00", "lat": 38.90832366666667, "rental_uris": {"ios": "https://dc.lft.to/lastmile_qr_scan", "android": "https://dc.lft.to/lastmile_qr_scan"}}, {"type": "electric_scooter", "name": "d948a1f71c2747ee20e28967e2518740", "fusion_lon": 0.0, "is_reserved": 0, "lon": -76.98931133333333, "fusion_lat": 0.0, "is_disabled": 0, "bike_id": "d948a1f71c2747ee20e28967e2518740", "lat": 38.90222466666667, "rental_uris": {"ios": "https://dc.lft.to/lastmile_qr_scan", "android": "https://dc.lft.to/lastmile_qr_scan"}}, {"type": "electric_scooter", "name": "ae29a2d31ea563224f2d070777f52ce9", "fusion_lon": 0.0, "is_reserved": 0, "lon": -77.0002585, "fusion_lat": 0.0, "is_disabled": 0, "bike_id": "ae29a2d31ea563224f2d070777f52ce9", "lat": 38.87398016666667, "rental_uris": {"ios": "https://dc.lft.to/lastmile_qr_scan", "android": "https://dc.lft.to/lastmile_qr_scan"}}, {"type": "electric_scooter", "name": "fa0dccdd1202c5dfe5c9f7c0267c4f28", "fusion_lon": 0.0, "is_reserved": 0, "lon": -77.00709983333333, "fusion_lat": 0.0, "is_disabled": 0, "bike_id": "fa0dccdd1202c5dfe5c9f7c0267c4f28", "lat": 38.88491366666667, "rental_uris": {"ios": "https://dc.lft.to/lastmile_qr_scan", "android": "https://dc.lft.to/lastmile_qr_scan"}}, {"type": "electric_scooter", "name": "35c286be9e84a4475b1cda4018ce068c", "fusion_lon": 0.0, "is_reserved": 0, "lon": -77.00306533333334, "fusion_lat": 0.0, "is_disabled": 0, "bike_id": "35c286be9e84a4475b1cda4018ce068c", "lat": 38.900110833333336, "rental_uris": {"ios": "https://dc.lft.to/lastmile_qr_scan", "android": "https://dc.lft.to/lastmile_qr_scan"}}, {"type": "electric_scooter", "name": "54c3eedfc90c5966384d1d7e6f674865", "fusion_lon": 0.0, "is_reserved": 0, "lon": -77.03836116666666, "fusion_lat": 0.0, "is_disabled": 0, "bike_id": "54c3eedfc90c5966384d1d7e6f674865", "lat": 38.90364833333334, "rental_uris": {"ios": "https://dc.lft.to/lastmile_qr_scan", "android": "https://dc.lft.to/lastmile_qr_scan"}}, {"type": "electric_scooter", "name": "eb82e0f1433ae2d87b69487742d4a7ae", "fusion_lon": 0.0, "is_reserved": 0, "lon": -77.0369275, "fusion_lat": 0.0, "is_disabled": 0, "bike_id": "eb82e0f1433ae2d87b69487742d4a7ae", "lat": 38.9202965, "rental_uris": {"ios": "https://dc.lft.to/lastmile_qr_scan", "android": "https://dc.lft.to/lastmile_qr_scan"}}, {"type": "electric_scooter", "name": "3fb992a28c5adf4b073f27ab50c5cba0", "fusion_lon": 0.0, "is_reserved": 0, "lon": -77.03665616666666, "fusion_lat": 0.0, "is_disabled": 0, "bike_id": "3fb992a28c5adf4b073f27ab50c5cba0", "lat": 38.922371166666665, "rental_uris": {"ios": "https://dc.lft.to/lastmile_qr_scan", "android": "https://dc.lft.to/lastmile_qr_scan"}}, {"type": "electric_scooter", "name": "8ca1daa3d132efaa5029888c92105dbf", "fusion_lon": 0.0, "is_reserved": 0, "lon": -77.027789, "fusion_lat": 0.0, "is_disabled": 0, "bike_id": "8ca1daa3d132efaa5029888c92105dbf", "lat": 38.95536416666667, "rental_uris": {"ios": "https://dc.lft.to/lastmile_qr_scan", "android": "https://dc.lft.to/lastmile_qr_scan"}}, {"type": "electric_scooter", "name": "4ff2b05f7a5113cca61d5119d78fccc3", "fusion_lon": 0.0, "is_reserved": 0, "lon": -77.01684016666667, "fusion_lat": 0.0, "is_disabled": 0, "bike_id": "4ff2b05f7a5113cca61d5119d78fccc3", "lat": 38.971246, "rental_uris": {"ios": "https://dc.lft.to/lastmile_qr_scan", "android": "https://dc.lft.to/lastmile_qr_scan"}}, {"type": "electric_scooter", "name": "d235cd8e9c0650a862229ebc88184533", "fusion_lon": 0.0, "is_reserved": 0, "lon": -77.05822683333334, "fusion_lat": 0.0, "is_disabled": 0, "bike_id": "d235cd8e9c0650a862229ebc88184533", "lat": 38.935280666666664, "rental_uris": {"ios": "https://dc.lft.to/lastmile_qr_scan", "android": "https://dc.lft.to/lastmile_qr_scan"}}, {"type": "electric_bike", "name": "27940d6de4d04418422ea3addba26520", "fusion_lon": 0.0, "is_reserved": 0, "lon": -77.0952245, "fusion_lat": 0.0, "is_disabled": 0, "bike_id": "27940d6de4d04418422ea3addba26520", "lat": 38.838142500000004, "rental_uris": {"ios": "https://dc.lft.to/lastmile_qr_scan", "android": "https://dc.lft.to/lastmile_qr_scan"}}, {"type": "electric_scooter", "name": "4967a69c80e31b7434f4d5beba64f7fa", "fusion_lon": 0.0, "is_reserved": 0, "lon": -77.06091716666667, "fusion_lat": 0.0, "is_disabled": 0, "bike_id": "4967a69c80e31b7434f4d5beba64f7fa", "lat": 38.93024233333333, "rental_uris": {"ios": "https://dc.lft.to/lastmile_qr_scan", "android": "https://dc.lft.to/lastmile_qr_scan"}}, {"type": "electric_scooter", "name": "16c46c471bc66a133540eeb93fec7099", "fusion_lon": 0.0, "is_reserved": 0, "lon": -77.03665416666666, "fusion_lat": 0.0, "is_disabled": 0, "bike_id": "16c46c471bc66a133540eeb93fec7099", "lat": 38.907737166666664, "rental_uris": {"ios": "https://dc.lft.to/lastmile_qr_scan", "android": "https://dc.lft.to/lastmile_qr_scan"}}, {"type": "electric_scooter", "name": "6f88faddb3d04742ab0b54bdd79a76c5", "fusion_lon": 0.0, "is_reserved": 0, "lon": -77.01716416666666, "fusion_lat": 0.0, "is_disabled": 0, "bike_id": "6f88faddb3d04742ab0b54bdd79a76c5", "lat": 38.893442, "rental_uris": {"ios": "https://dc.lft.to/lastmile_qr_scan", "android": "https://dc.lft.to/lastmile_qr_scan"}}, {"type": "electric_scooter", "name": "635dffbea9e60b31f7e5b84559000487", "fusion_lon": 0.0, "is_reserved": 0, "lon": -77.030526, "fusion_lat": 0.0, "is_disabled": 0, "bike_id": "635dffbea9e60b31f7e5b84559000487", "lat": 38.927770333333335, "rental_uris": {"ios": "https://dc.lft.to/lastmile_qr_scan", "android": "https://dc.lft.to/lastmile_qr_scan"}}, {"type": "electric_scooter", "name": "523bfd84eb6f2d9af5f21f1a3af04797", "fusion_lon": 0.0, "is_reserved": 0, "lon": -77.03262583333333, "fusion_lat": 0.0, "is_disabled": 0, "bike_id": "523bfd84eb6f2d9af5f21f1a3af04797", "lat": 38.937747333333334, "rental_uris": {"ios": "https://dc.lft.to/lastmile_qr_scan", "android": "https://dc.lft.to/lastmile_qr_scan"}}, {"type": "electric_bike", "name": "e561c9c53b4a80866ef590d77768ecdd", "fusion_lon": 0.0, "is_reserved": 0, "lon": -76.9876015, "fusion_lat": 0.0, "is_disabled": 0, "bike_id": "e561c9c53b4a80866ef590d77768ecdd", "lat": 38.857723666666665, "rental_uris": {"ios": "https://dc.lft.to/lastmile_qr_scan", "android": "https://dc.lft.to/lastmile_qr_scan"}}, {"type": "electric_scooter", "name": "571469a59f5d9fda6b972f53324e1344", "fusion_lon": 0.0, "is_reserved": 0, "lon": -77.02728516666667, "fusion_lat": 0.0, "is_disabled": 0, "bike_id": "571469a59f5d9fda6b972f53324e1344", "lat": 38.95179, "rental_uris": {"ios": "https://dc.lft.to/lastmile_qr_scan", "android": "https://dc.lft.to/lastmile_qr_scan"}}, {"type": "electric_scooter", "name": "1bc27581f66aa768b49c002cc190b0cb", "fusion_lon": 0.0, "is_reserved": 0, "lon": -76.97720483333333, "fusion_lat": 0.0, "is_disabled": 0, "bike_id": "1bc27581f66aa768b49c002cc190b0cb", "lat": 38.89900516666667, "rental_uris": {"ios": "https://dc.lft.to/lastmile_qr_scan", "android": "https://dc.lft.to/lastmile_qr_scan"}}, {"type": "electric_scooter", "name": "39cec552b556ecdd222fe3e1a9c4ef72", "fusion_lon": 0.0, "is_reserved": 0, "lon": -77.06903316666667, "fusion_lat": 0.0, "is_disabled": 0, "bike_id": "39cec552b556ecdd222fe3e1a9c4ef72", "lat": 38.9063765, "rental_uris": {"ios": "https://dc.lft.to/lastmile_qr_scan", "android": "https://dc.lft.to/lastmile_qr_scan"}}, {"type": "electric_scooter", "name": "e03e113f50844cefcc7bf8f00e7398bb", "fusion_lon": 0.0, "is_reserved": 0, "lon": -77.0599965, "fusion_lat": 0.0, "is_disabled": 0, "bike_id": "e03e113f50844cefcc7bf8f00e7398bb", "lat": 38.901473833333334, "rental_uris": {"ios": "https://dc.lft.to/lastmile_qr_scan", "android": "https://dc.lft.to/lastmile_qr_scan"}}, {"type": "electric_bike", "name": "6302541a493598d24034c68724c06a29", "fusion_lon": 0.0, "is_reserved": 0, "lon": -77.23329066666666, "fusion_lat": 0.0, "is_disabled": 0, "bike_id": "6302541a493598d24034c68724c06a29", "lat": 38.872798833333334, "rental_uris": {"ios": "https://dc.lft.to/lastmile_qr_scan", "android": "https://dc.lft.to/lastmile_qr_scan"}}, {"type": "electric_scooter", "name": "9ac13c804822b4ada6fb067b793cfc71", "fusion_lon": 0.0, "is_reserved": 0, "lon": -76.99269166666667, "fusion_lat": 0.0, "is_disabled": 0, "bike_id": "9ac13c804822b4ada6fb067b793cfc71", "lat": 38.908318, "rental_uris": {"ios": "https://dc.lft.to/lastmile_qr_scan", "android": "https://dc.lft.to/lastmile_qr_scan"}}, {"type": "electric_scooter", "name": "2988cd58504729dd54979dbd75deb3fa", "fusion_lon": 0.0, "is_reserved": 0, "lon": -77.004833, "fusion_lat": 0.0, "is_disabled": 0, "bike_id": "2988cd58504729dd54979dbd75deb3fa", "lat": 38.911512333333334, "rental_uris": {"ios": "https://dc.lft.to/lastmile_qr_scan", "android": "https://dc.lft.to/lastmile_qr_scan"}}, {"type": "electric_scooter", "name": "497716feb058f8a37e9fc75d5226046a", "fusion_lon": 0.0, "is_reserved": 0, "lon": -77.032546, "fusion_lat": 0.0, "is_disabled": 0, "bike_id": "497716feb058f8a37e9fc75d5226046a", "lat": 38.928793666666664, "rental_uris": {"ios": "https://dc.lft.to/lastmile_qr_scan", "android": "https://dc.lft.to/lastmile_qr_scan"}}, {"type": "electric_scooter", "name": "34ed836e640680d2e75529c4b89eceba", "fusion_lon": 0.0, "is_reserved": 0, "lon": -76.9415705, "fusion_lat": 0.0, "is_disabled": 0, "bike_id": "34ed836e640680d2e75529c4b89eceba", "lat": 38.90829, "rental_uris": {"ios": "https://dc.lft.to/lastmile_qr_scan", "android": "https://dc.lft.to/lastmile_qr_scan"}}, {"type": "electric_scooter", "name": "2ad376b7c5e5d2068cb6174bb4af0e9d", "fusion_lon": 0.0, "is_reserved": 0, "lon": -77.0413945, "fusion_lat": 0.0, "is_disabled": 0, "bike_id": "2ad376b7c5e5d2068cb6174bb4af0e9d", "lat": 38.91382383333333, "rental_uris": {"ios": "https://dc.lft.to/lastmile_qr_scan", "android": "https://dc.lft.to/lastmile_qr_scan"}}, {"type": "electric_scooter", "name": "3d7642da562c65acbdfa3ea3ad44e067", "fusion_lon": 0.0, "is_reserved": 0, "lon": -77.05121116666666, "fusion_lat": 0.0, "is_disabled": 0, "bike_id": "3d7642da562c65acbdfa3ea3ad44e067", "lat": 38.901891666666664, "rental_uris": {"ios": "https://dc.lft.to/lastmile_qr_scan", "android": "https://dc.lft.to/lastmile_qr_scan"}},