{"data": {"bikes": [{"bike_id": "f624c44309047b58f7d1dc4b2cef1a40", "is_reserved": 0, "fusion_lon": 0.0, "lat": 38.89732733333334, "is_disabled": 0, "name": "f624c44309047b58f7d1dc4b2cef1a40", "fusion_lat": 0.0, "rental_uris": {"ios": "https://dc.lft.to/lastmile_qr_scan", "android": "https://dc.lft.to/lastmile_qr_scan"}, "lon": -76.925872, "type": "electric_scooter"}, {"bike_id": "1323261dd3e71c55f4e678f55a5cbd0c", "is_reserved": 0, "fusion_lon": 0.0, "lat": 38.9572935, "is_disabled": 0, "name": "1323261dd3e71c55f4e678f55a5cbd0c", "fusion_lat": 0.0, "rental_uris": {"ios": "https://dc.lft.to/lastmile_qr_scan", "android": "https://dc.lft.to/lastmile_qr_scan"}, "lon": -77.0241035, "type": "electric_scooter"}, {"bike_id": "41dec9637bd8a22e3da252bd164d5651", "is_reserved": 0, "fusion_lon": 0.0, "lat": 38.89197883333333, "is_disabled": 0, "name": "41dec9637bd8a22e3da252bd164d5651", "fusion_lat": 0.0, "rental_uris": {"ios": "https://dc.lft.to/lastmile_qr_scan", "android": "https://dc.lft.to/lastmile_qr_scan"}, "lon": -77.00295383333334, "type": "electric_scooter"}, {"bike_id": "f540e5fd1498673d192e7de94ec0854b", "is_reserved": 0, "fusion_lon": 0.0, "lat": 38.86571416666666, "is_disabled": 0, "name": "f540e5fd1498673d192e7de94ec0854b", "fusion_lat": 0.0, "rental_uris": {"ios": "https://dc.lft.to/lastmile_qr_scan", "android": "https://dc.lft.to/lastmile_qr_scan"}, "lon": -76.989481, "type": "electric_scooter"}, {"bike_id": "e61a04355cfd5efc7ba94af7a89f783b", "is_reserved": 0, "fusion_lon": 0.0, "lat": 38.903261, "is_disabled": 0, "name": "e61a04355cfd5efc7ba94af7a89f783b", "fusion_lat": 0.0, "rental_uris": {"ios": "https://dc.lft.to/lastmile_qr_scan", "android": "https://dc.lft.to/lastmile_qr_scan"}, "lon": -77.03845, "type": "electric_scooter"}, {"bike_id": "d5eaaea190fa3dc1980bb71302d15ea9", "is_reserved": 0, "fusion_lon": 0.0, "lat": 38.90275583333333, "is_disabled": 0, "name": "d5eaaea190fa3dc1980bb71302d15ea9", "fusion_lat": 0.0, "rental_uris": {"ios": "https://dc.lft.to/lastmile_qr_scan", "android": "https://dc.lft.to/lastmile_qr_scan"}, "lon": -77.04598033333333, "type": "electric_scooter"}, {"bike_id": "f59e9b236ea128c0c6b57e347a25ad9b", "is_reserved": 0, "fusion_lon": 0.0, "lat": 38.894770666666666, "is_disabled": 0, "name": "f59e9b236ea128c0c6b57e347a25ad9b", "fusion_lat": 0.0, "rental_uris": {"ios": "https://dc.lft.to/lastmile_qr_scan", "android": "https://dc.lft.to/lastmile_qr_scan"}, "lon": -76.984014, "type": "electric_scooter"}, {"bike_id": "54d4540b1072dde0130ea568bfc23fa5", "is_reserved": 0, "fusion_lon": 0.0, "lat": 38.8791775, "is_disabled": 0, "name": "54d4540b1072dde0130ea568bfc23fa5", "fusion_lat": 0.0, "rental_uris": {"ios": "https://dc.lft.to/lastmile_qr_scan", "android": "https://dc.lft.to/lastmile_qr_scan"}, "lon": -77.00718333333333, "type": "electric_scooter"}, {"bike_id": "195168fe6e19dd94cee363bc5f37e4cf", "is_reserved": 0, "fusion_lon": 0.0, "lat": 38.896237666666664, "is_disabled": 0, "name": "195168fe6e19dd94cee363bc5f37e4cf", "fusion_lat": 0.0, "rental_uris": {"ios": "https://dc.lft.to/lastmile_qr_scan", "android": "https://dc.lft.to/lastmile_qr_scan"}, "lon": -76.98122816666667, "type": "electric_scooter"}, {"bike_id": "d549316d4126e6688b459e8ad20c0ff1", "is_reserved": 0, "fusion_lon": 0.0, "lat": 38.90068516666667, "is_disabled": 0, "name": "d549316d4126e6688b459e8ad20c0ff1", "fusion_lat": 0.0, "rental_uris": {"ios": "https://dc.lft.to/lastmile_qr_scan", "android": "https://dc.lft.to/lastmile_qr_scan"}, "lon": -77.050182, "type": "electric_scooter"}, {"bike_id": "36037c3563386f2c35fb369ceaf22c61", "is_reserved": 0, "fusion_lon": 0.0, "lat": 38.85158533333333, "is_disabled": 0, "name": "36037c3563386f2c35fb369ceaf22c61", "fusion_lat": 0.0, "rental_uris": {"ios": "https://dc.lft.to/lastmile_qr_scan", "android": "https://dc.lft.to/lastmile_qr_scan"}, "lon": -77.12878766666667, "type": "electric_bike"}, {"bike_id": "b3fe6646461ec407f9fa5641b8ca009f", "is_reserved": 0, "fusion_lon": 0.0, "lat": 38.88501883333333, "is_disabled": 0, "name": "b3fe6646461ec407f9fa5641b8ca009f", "fusion_lat": 0.0, "rental_uris": {"ios": "https://dc.lft.to/lastmile_qr_scan", "android": "https://dc.lft.to/lastmile_qr_scan"}, "lon": -77.00566666666667, "type": "electric_scooter"}, {"bike_id": "9d5590236278651b3e8460ad0ff72592", "is_reserved": 0, "fusion_lon": 0.0, "lat": 38.90501416666667, "is_disabled": 0, "name": "9d5590236278651b3e8460ad0ff72592", "fusion_lat": 0.0, "rental_uris": {"ios": "https://dc.lft.to/lastmile_qr_scan", "android": "https://dc.lft.to/lastmile_qr_scan"}, "lon": -76.99014716666667, "type": "electric_scooter"}, {"bike_id": "5d3334607efb27ae65503ac165f8e8f7", "is_reserved": 0, "fusion_lon": 0.0, "lat": 38.90479416666667, "is_disabled": 0, "name": "5d3334607efb27ae65503ac165f8e8f7", "fusion_lat": 0.0, "rental_uris": {"ios": "https://dc.lft.to/lastmile_qr_scan", "android": "https://dc.lft.to/lastmile_qr_scan"}, "lon": -77.04657533333334, "type": "electric_scooter"}, {"bike_id": "f05cef187886164292a42571ae0f79c9", "is_reserved": 0, "fusion_lon": 0.0, "lat": 38.90438283333334, "is_disabled": 0, "name": "f05cef187886164292a42571ae0f79c9", "fusion_lat": 0.0, "rental_uris": {"ios": "https://dc.lft.to/lastmile_qr_scan", "android": "https://dc.lft.to/lastmile_qr_scan"}, "lon": -77.03267433333333, "type": "electric_scooter"}, {"bike_id": "1f757b90b96de30b23cf2f22d08611e7", "is_reserved": 0, "fusion_lon": 0.0, "lat": 38.892246, "is_disabled": 0, "name": "1f757b90b96de30b23cf2f22d08611e7", "fusion_lat": 0.0, "rental_uris": {"ios": "https://dc.lft.to/lastmile_qr_scan", "android": "https://dc.lft.to/lastmile_qr_scan"}, "lon": -77.02623766666666, "type": "electric_scooter"}, {"bike_id": "f6babf7f82a397f22b661f11dae6836a", "is_reserved": 0, "fusion_lon": 0.0, "lat": 38.9046655, "is_disabled": 0, "name": "f6babf7f82a397f22b661f11dae6836a", "fusion_lat": 0.0, "rental_uris": {"ios": "https://dc.lft.to/lastmile_qr_scan", "android": "https://dc.lft.to/lastmile_qr_scan"}, "lon": -77.03470983333334, "type": "electric_scooter"}, {"bike_id": "e24d1cd85bc294bd49ab3c40f07794ec", "is_reserved": 0, "fusion_lon": 0.0, "lat": 38.89223833333333, "is_disabled": 0, "name": "e24d1cd85bc294bd49ab3c40f07794ec", "fusion_lat": 0.0, "rental_uris": {"ios": "https://dc.lft.to/lastmile_qr_scan", "android": "https://dc.lft.to/lastmile_qr_scan"}, "lon": -77.04648983333334, "type": "electric_scooter"}, {"bike_id": "c0d7df03a63c75ca0ee114586f01e29c", "is_reserved": 0, "fusion_lon": 0.0, "lat": 38.917063666666664, "is_disabled": 0, "name": "c0d7df03a63c75ca0ee114586f01e29c", "fusion_lat": 0.0, "rental_uris": {"ios": "https://dc.lft.to/lastmile_qr_scan", "android": "https://dc.lft.to/lastmile_qr_scan"}, "lon": -77.026366, "type": "electric_scooter"}, {"bike_id": "fcc244003e51b271ac14d83b02564b7a", "is_reserved": 0, "fusion_lon": 0.0, "lat": 38.8919805, "is_disabled": 0, "name": "fcc244003e51b271ac14d83b02564b7a", "fusion_lat": 0.0, "rental_uris": {"ios": "https://dc.lft.to/lastmile_qr_scan", "android": "https://dc.lft.to/lastmile_qr_scan"}, "lon": -77.028357, "type": "electric_scooter"}, {"bike_id": "ae061590997bd4659cad16018552b092", "is_reserved": 0, "fusion_lon": 0.0, "lat": 38.896096166666666, "is_disabled": 0, "name": "ae061590997bd4659cad16018552b092", "fusion_lat": 0.0, "rental_uris": {"ios": "https://dc.lft.to/lastmile_qr_scan", "android": "https://dc.lft.to/lastmile_qr_scan"}, "lon": -77.04790466666667, "type": "electric_scooter"}, {"bike_id": "f60c656e06955c9a3461881948bb3f40", "is_reserved": 0, "fusion_lon": 0.0, "lat": 38.959363, "is_disabled": 0, "name": "f60c656e06955c9a3461881948bb3f40", "fusion_lat": 0.0, "rental_uris": {"ios": "https://dc.lft.to/lastmile_qr_scan", "android": "https://dc.lft.to/lastmile_qr_scan"}, "lon": -77.0311835, "type": "electric_scooter"}, {"bike_id": "ed10f556f100a9eab9f5c4d8581fc843", "is_reserved": 0, "fusion_lon": 0.0, "lat": 39.08861016666667, "is_disabled": 0, "name": "ed10f556f100a9eab9f5c4d8581fc843", "fusion_lat": 0.0, "rental_uris": {"ios": "https://dc.lft.to/lastmile_qr_scan", "android": "https://dc.lft.to/lastmile_qr_scan"}, "lon": -77.17840583333333, "type": "electric_bike"}, {"bike_id": "568ace88b1bacddd3d6a06e969b14d90", "is_reserved": 0, "fusion_lon": 0.0, "lat": 38.92860783333333, "is_disabled": 0, "name": "568ace88b1bacddd3d6a06e969b14d90", "fusion_lat": 0.0, "rental_uris": {"ios": "https://dc.lft.to/lastmile_qr_scan", "android": "https://dc.lft.to/lastmile_qr_scan"}, "lon": -77.22209533333333, "type": "electric_bike"}, {"bike_id": "3cb1573c3dacfba88f124c939b2eea39", "is_reserved": 0, "fusion_lon": 0.0, "lat": 38.905704, "is_disabled": 0, "name": "3cb1573c3dacfba88f124c939b2eea39", "fusion_lat": 0.0, "rental_uris": {"ios": "https://dc.lft.to/lastmile_qr_scan", "android": "https://dc.lft.to/lastmile_qr_scan"}, "lon": -77.021726, "type": "electric_scooter"}, {"bike_id": "96c45380a58639f1e8ef92a4c2d9850c", "is_reserved": 0, "fusion_lon": 0.0, "lat": 38.956489, "is_disabled": 0, "name": "96c45380a58639f1e8ef92a4c2d9850c", "fusion_lat": 0.0, "rental_uris": {"ios": "https://dc.lft.to/lastmile_qr_scan", "android": "https://dc.lft.to/lastmile_qr_scan"}, "lon": -77.03289766666667, "type": "electric_scooter"}, {"bike_id": "6130e9b12f562918ded8ad93a424bffa", "is_reserved": 0, "fusion_lon": 0.0, "lat": 38.917044833333335, "is_disabled": 0, "name": "6130e9b12f562918ded8ad93a424bffa", "fusion_lat": 0.0, "rental_uris": {"ios": "https://dc.lft.to/lastmile_qr_scan", "android": "https://dc.lft.to/lastmile_qr_scan"}, "lon": -77.023003, "type": "electric_scooter"}, {"bike_id": "338df690168c47d77d11a2362c0008d4", "is_reserved": 0, "fusion_lon": 0.0, "lat": 38.90939616666667, "is_disabled": 0, "name": "338df690168c47d77d11a2362c0008d4", "fusion_lat": 0.0, "rental_uris": {"ios": "https://dc.lft.to/lastmile_qr_scan", "android": "https://dc.lft.to/lastmile_qr_scan"}, "lon": -77.04875966666667, "type": "electric_scooter"}, {"bike_id": "106d6cf7fc71719050702fd9610841ee", "is_reserved": 0, "fusion_lon": 0.0, "lat": 38.902647333333334, "is_disabled": 0, "name": "106d6cf7fc71719050702fd9610841ee", "fusion_lat": 0.0, "rental_uris": {"ios": "https://dc.lft.to/lastmile_qr_scan", "android": "https://dc.lft.to/lastmile_qr_scan"}, "lon": -77.04593333333334, "type": "electric_scooter"}, {"bike_id": "cdeef84ab6e460e128c019daa86f3ea4", "is_reserved": 0, "fusion_lon": 0.0, "lat": 38.88743016666667, "is_disabled": 0, "name": "cdeef84ab6e460e128c019daa86f3ea4", "fusion_lat": 0.0, "rental_uris": {"ios": "https://dc.lft.to/lastmile_qr_scan", "android": "https://dc.lft.to/lastmile_qr_scan"}, "lon": -77.02264483333333, "type": "electric_bike"}, {"bike_id": "d657d67c525cf114da8f67de8b88e572", "is_reserved": 0, "fusion_lon": 0.0, "lat": 38.923565833333335, "is_disabled": 0, "name": "d657d67c525cf114da8f67de8b88e572", "fusion_lat": 0.0, "rental_uris": {"ios": "https://dc.lft.to/lastmile_qr_scan", "android": "https://dc.lft.to/lastmile_qr_scan"}, "lon": -77.04155933333334, "type": "electric_scooter"}, {"bike_id": "58fdda7f448b1342f5c38b8b2f286e0c", "is_reserved": 0, "fusion_lon": 0.0, "lat": 38.898857666666665, "is_disabled": 0, "name": "58fdda7f448b1342f5c38b8b2f286e0c", "fusion_lat": 0.0, "rental_uris": {"ios": "https://dc.lft.to/lastmile_qr_scan", "android": "https://dc.lft.to/lastmile_qr_scan"}, "lon": -77.00813483333333, "type": "electric_bike"}, {"bike_id": "8752f43d6e3c1816461c9fdb0015879d", "is_reserved": 0, "fusion_lon": 0.0, "lat": 38.898464833333335, "is_disabled": 0, "name": "8752f43d6e3c1816461c9fdb0015879d", "fusion_lat": 0.0, "rental_uris": {"ios": "https://dc.lft.to/lastmile_qr_scan", "android": "https://dc.lft.to/lastmile_qr_scan"}, "lon": -77.01733883333333, "type": "electric_bike"}, {"bike_id": "2b1eb6b009d57cf8382579ef22b995f9", "is_reserved": 0, "fusion_lon": 0.0, "lat": 38.91560916666667, "is_disabled": 0, "name": "2b1eb6b009d57cf8382579ef22b995f9", "fusion_lat": 0.0, "rental_uris": {"ios": "https://dc.lft.to/lastmile_qr_scan", "android": "https://dc.lft.to/lastmile_qr_scan"}, "lon": -77.038661, "type": "electric_scooter"}, {"bike_id": "0819c34ccb0dfdf5851f16e055584ec4", "is_reserved": 0, "fusion_lon": 0.0, "lat": 38.95338433333333, "is_disabled": 0, "name": "0819c34ccb0dfdf5851f16e055584ec4", "fusion_lat": 0.0, "rental_uris": {"ios": "https://dc.lft.to/lastmile_qr_scan", "android": "https://dc.lft.to/lastmile_qr_scan"}, "lon": -77.0096085, "type": "electric_bike"}, {"bike_id": "5bec747efeb11fc217f0020055684b38", "is_reserved": 0, "fusion_lon": 0.0, "lat": 38.95750483333333, "is_disabled": 0, "name": "5bec747efeb11fc217f0020055684b38", "fusion_lat": 0.0, "rental_uris": {"ios": "https://dc.lft.to/lastmile_qr_scan", "android": "https://dc.lft.to/lastmile_qr_scan"}, "lon": -77.02416833333334, "type": "electric_scooter"}, {"bike_id": "e1a978c82d098443cab995e799f749ff", "is_reserved": 0, "fusion_lon": 0.0, "lat": 38.89197516666667, "is_disabled": 0, "name": "e1a978c82d098443cab995e799f749ff", "fusion_lat": 0.0, "rental_uris": {"ios": "https://dc.lft.to/lastmile_qr_scan", "android": "https://dc.lft.to/lastmile_qr_scan"}, "lon": -77.02217316666666, "type": "electric_scooter"}, {"bike_id": "47bb0603a2b973bb758f0df3ca03e2c4", "is_reserved": 0, "fusion_lon": 0.0, "lat": 38.92039716666667, "is_disabled": 0, "name": "47bb0603a2b973bb758f0df3ca03e2c4", "fusion_lat": 0.0, "rental_uris": {"ios": "https://dc.lft.to/lastmile_qr_scan", "android": "https://dc.lft.to/lastmile_qr_scan"}, "lon": -76.99940116666667, "type": "electric_scooter"}, {"bike_id": "059592e0c81768be5848df5f1afd82f3", "is_reserved": 0, "fusion_lon": 0.0, "lat": 38.9028235, "is_disabled": 0, "name": "059592e0c81768be5848df5f1afd82f3", "fusion_lat": 0.0, "rental_uris": {"ios": "https://dc.lft.to/lastmile_qr_scan", "android": "https://dc.lft.to/lastmile_qr_scan"}, "lon": -77.03662616666666, "type": "electric_scooter"}, {"bike_id": "b29f37c13b50c3f879aab1f9dba67df2", "is_reserved": 0, "fusion_lon": 0.0, "lat": 38.92321833333333, "is_disabled": 0, "name": "b29f37c13b50c3f879aab1f9dba67df2", "fusion_lat": 0.0, "rental_uris": {"ios": "https://dc.lft.to/lastmile_qr_scan", "android": "https://dc.lft.to/lastmile_qr_scan"}, "lon": -77.036672, "type": "electric_scooter"}, {"bike_id": "abb552fc24cd75f75eda84da64925ef0", "is_reserved": 0, "fusion_lon": 0.0, "lat": 38.90375, "is_disabled": 0, "name": "abb552fc24cd75f75eda84da64925ef0", "fusion_lat": 0.0, "rental_uris": {"ios": "https://dc.lft.to/lastmile_qr_scan", "android": "https://dc.lft.to/lastmile_qr_scan"}, "lon": -77.045096, "type": "electric_scooter"}, {"bike_id": "229b3ddde2de623643659d1c7ba050e3", "is_reserved": 0, "fusion_lon": 0.0, "lat": 38.9276395, "is_disabled": 0, "name": "229b3ddde2de623643659d1c7ba050e3", "fusion_lat": 0.0, "rental_uris": {"ios": "https://dc.lft.to/lastmile_qr_scan", "android": "https://dc.lft.to/lastmile_qr_scan"}, "lon": -77.032445, "type": "electric_scooter"}, {"bike_id": "53147177facb5f54d323c6c425f22273", "is_reserved": 0, "fusion_lon": 0.0, "lat": 38.88221983333333, "is_disabled": 0, "name": "53147177facb5f54d323c6c425f22273", "fusion_lat": 0.0, "rental_uris": {"ios": "https://dc.lft.to/lastmile_qr_scan", "android": "https://dc.lft.to/lastmile_qr_scan"}, "lon": -76.94176083333333, "type": "electric_scooter"}, {"bike_id": "8703d99cf85a317225d7ce497ef0a5e1", "is_reserved": 0, "fusion_lon": 0.0, "lat": 38.923616, "is_disabled": 0, "name": "8703d99cf85a317225d7ce497ef0a5e1", "fusion_lat": 0.0, "rental_uris": {"ios": "https://dc.lft.to/lastmile_qr_scan", "android": "https://dc.lft.to/lastmile_qr_scan"}, "lon": -77.019194, "type": "electric_scooter"}, {"bike_id": "7d69646604b15386779041bbcb6d250d", "is_reserved": 0, "fusion_lon": 0.0, "lat": 38.907315833333335, "is_disabled": 0, "name": "7d69646604b15386779041bbcb6d250d", "fusion_lat": 0.0, "rental_uris": {"ios": "https://dc.lft.to/lastmile_qr_scan", "android": "https://dc.lft.to/lastmile_qr_scan"}, "lon": -77.04372066666667, "type": "electric_scooter"}, {"bike_id": "7d68e6cff4770f8bf335841a428d67f2", "is_reserved": 0, "fusion_lon": 0.0, "lat": 38.878918666666664, "is_disabled": 0, "name": "7d68e6cff4770f8bf335841a428d67f2", "fusion_lat": 0.0, "rental_uris": {"ios": "https://dc.lft.to/lastmile_qr_scan", "android": "https://dc.lft.to/lastmile_qr_scan"}, "lon": -76.9915675, "type": "electric_scooter"}, {"bike_id": "2cbd252aca223c12871286d1c17e90f6", "is_reserved": 0, "fusion_lon": 0.0, "lat": 38.89970433333333, "is_disabled": 0, "name": "2cbd252aca223c12871286d1c17e90f6", "fusion_lat": 0.0, "rental_uris": {"ios": "https://dc.lft.to/lastmile_qr_scan", "android": "https://dc.lft.to/lastmile_qr_scan"}, "lon": -77.02371433333333, "type": "electric_scooter"}, {"bike_id": "a280e70aa777e28216714e2995fc7057", "is_reserved": 0, "fusion_lon": 0.0, "lat": 38.9024945, "is_disabled": 0, "name": "a280e70aa777e28216714e2995fc7057", "fusion_lat": 0.0, "rental_uris": {"ios": "https://dc.lft.to/lastmile_qr_scan", "android": "https://dc.lft.to/lastmile_qr_scan"}, "lon": -77.03437683333334, "type": "electric_scooter"}, {"bike_id": "e8f0970590a1a9f8ce9376e2d577551e", "is_reserved": 0, "fusion_lon": 0.0, "lat": 38.90307166666667, "is_disabled": 0, "name": "e8f0970590a1a9f8ce9376e2d577551e", "fusion_lat": 0.0, "rental_uris": {"ios": "https://dc.lft.to/lastmile_qr_scan", "android": "https://dc.lft.to/lastmile_qr_scan"}, "lon": -77.03448266666666, "type": "electric_scooter"}, {"bike_id": "8740f5bf0631c075fd1fdb1421ab4be7", "is_reserved": 0, "fusion_lon": 0.0, "lat": 38.92572, "is_disabled": 0, "name": "8740f5bf0631c075fd1fdb1421ab4be7", "fusion_lat": 0.0, "rental_uris": {"ios": "https://dc.lft.to/lastmile_qr_scan", "android": "https://dc.lft.to/lastmile_qr_scan"}, "lon": -77.03100433333333, "type": "electric_scooter"}, {"bike_id": "cacafab2d45f7be0926a103091cdd908", "is_reserved": 0, "fusion_lon": 0.0, "lat": 38.88119783333333, "is_disabled": 0, "name": "cacafab2d45f7be0926a103091cdd908", "fusion_lat": 0.0, "rental_uris": {"ios": "https://dc.lft.to/lastmile_qr_scan", "android": "https://dc.lft.to/lastmile_qr_scan"}, "lon": -77.0166345, "type": "electric_bike"}, {"bike_id": "91c7660e6be7a6117007e01f8d78b412", "is_reserved": 0, "fusion_lon": 0.0, "lat": 38.89959116666667, "is_disabled": 0, "name": "91c7660e6be7a6117007e01f8d78b412", "fusion_lat": 0.0, "rental_uris": {"ios": "https://dc.lft.to/lastmile_qr_scan", "android": "https://dc.lft.to/lastmile_qr_scan"}, "lon": -76.97548316666666, "type": "electric_scooter"}, {"bike_id": "7f7c13dee0bba5de905ebad937b8105e", "is_reserved": 0, "fusion_lon": 0.0, "lat": 38.86205983333333, "is_disabled": 0, "name": "7f7c13dee0bba5de905ebad937b8105e", "fusion_lat": 0.0, "rental_uris": {"ios": "https://dc.lft.to/lastmile_qr_scan", "android": "https://dc.lft.to/lastmile_qr_scan"}, "lon": -76.99462, "type": "electric_scooter"}, {"bike_id": "594fbe4ca808e7ceff9a0dbade9d0c9b", "is_reserved": 0, "fusion_lon": 0.0, "lat": 38.902351, "is_disabled": 0, "name": "594fbe4ca808e7ceff9a0dbade9d0c9b", "fusion_lat": 0.0, "rental_uris": {"ios": "https://dc.lft.to/lastmile_qr_scan", "android": "https://dc.lft.to/lastmile_qr_scan"}, "lon": -77.032739, "type": "electric_scooter"}, {"bike_id": "e6dd80d434551ff58ded192effddef74", "is_reserved": 0, "fusion_lon": 0.0, "lat": 38.9085975, "is_disabled": 0, "name": "e6dd80d434551ff58ded192effddef74", "fusion_lat": 0.0, "rental_uris": {"ios": "https://dc.lft.to/lastmile_qr_scan", "android": "https://dc.lft.to/lastmile_qr_scan"}, "lon": -77.04491233333333, "type": "electric_scooter"}, {"bike_id": "a48b7712d3c756fba09631cf895ea9ab", "is_reserved": 0, "fusion_lon": 0.0, "lat": 38.905048, "is_disabled": 0, "name": "a48b7712d3c756fba09631cf895ea9ab", "fusion_lat": 0.0, "rental_uris": {"ios": "https://dc.lft.to/lastmile_qr_scan", "android": "https://dc.lft.to/lastmile_qr_scan"}, "lon": -76.97929433333333, "type": "electric_scooter"}, {"bike_id": "e469a8c92c77dfec0acaa5692f9d009c", "is_reserved": 0, "fusion_lon": 0.0, "lat": 38.919058166666666, "is_disabled": 0, "name": "e469a8c92c77dfec0acaa5692f9d009c", "fusion_lat": 0.0, "rental_uris": {"ios": "https://dc.lft.to/lastmile_qr_scan", "android": "https://dc.lft.to/lastmile_qr_scan"}, "lon": -77.03217033333334, "type": "electric_scooter"}, {"bike_id": "3a886ffa3e84f108406b1f836e5fd3d6", "is_reserved": 0, "fusion_lon": 0.0, "lat": 38.918436666666665, "is_disabled": 0, "name": "3a886ffa3e84f108406b1f836e5fd3d6", "fusion_lat": 0.0, "rental_uris": {"ios": "https://dc.lft.to/lastmile_qr_scan", "android": "https://dc.lft.to/lastmile_qr_scan"}, "lon": -77.0231045, "type": "electric_scooter"}, {"bike_id": "d96f4bfc5872605c66247fea0a5d6cd6", "is_reserved": 0, "fusion_lon": 0.0, "lat": 38.91035866666667, "is_disabled": 0, "name": "d96f4bfc5872605c66247fea0a5d6cd6", "fusion_lat": 0.0, "rental_uris": {"ios": "https://dc.lft.to/lastmile_qr_scan", "android": "https://dc.lft.to/lastmile_qr_scan"}, "lon": -77.04389333333333, "type": "electric_scooter"}, {"bike_id": "1eb6bf7e77fe8bbf2d0f269966cecfef", "is_reserved": 0, "fusion_lon": 0.0, "lat": 38.958856, "is_disabled": 0, "name": "1eb6bf7e77fe8bbf2d0f269966cecfef", "fusion_lat": 0.0, "rental_uris": {"ios": "https://dc.lft.to/lastmile_qr_scan", "android": "https://dc.lft.to/lastmile_qr_scan"}, "lon": -76.9248645, "type": "electric_bike"}, {"bike_id": "092503b385efeb20d9a735c73cae2199", "is_reserved": 0, "fusion_lon": 0.0, "lat": 38.875514, "is_disabled": 0, "name": "092503b385efeb20d9a735c73cae2199", "fusion_lat": 0.0, "rental_uris": {"ios": "https://dc.lft.to/lastmile_qr_scan", "android": "https://dc.lft.to/lastmile_qr_scan"}, "lon": -76.96491533333334, "type": "electric_scooter"}, {"bike_id": "605f8b3f3800eb51ab0af870fdb026a0", "is_reserved": 0, "fusion_lon": 0.0, "lat": 38.895347666666666, "is_disabled": 0, "name": "605f8b3f3800eb51ab0af870fdb026a0", "fusion_lat": 0.0, "rental_uris": {"ios": "https://dc.lft.to/lastmile_qr_scan", "android": "https://dc.lft.to/lastmile_qr_scan"}, "lon": -77.0484135, "type": "electric_scooter"}, {"bike_id": "000f5863c8ac4ae748cd1e7d9c65a62b", "is_reserved": 0, "fusion_lon": 0.0, "lat": 38.9000565, "is_disabled": 0, "name": "000f5863c8ac4ae748cd1e7d9c65a62b", "fusion_lat": 0.0, "rental_uris": {"ios": "https://dc.lft.to/lastmile_qr_scan", "android": "https://dc.lft.to/lastmile_qr_scan"}, "lon": -77.052539, "type": "electric_scooter"}, {"bike_id": "21e9b2d4155c05b51f9b17efb492916c", "is_reserved": 0, "fusion_lon": 0.0, "lat": 38.91106, "is_disabled": 0, "name": "21e9b2d4155c05b51f9b17efb492916c", "fusion_lat": 0.0, "rental_uris": {"ios": "https://dc.lft.to/lastmile_qr_scan", "android": "https://dc.lft.to/lastmile_qr_scan"}, "lon": -77.0483455, "type": "electric_scooter"}, {"bike_id": "549ee17b1491a3f8138f715b6f7fa4b9", "is_reserved": 0, "fusion_lon": 0.0, "lat": 38.89222566666667, "is_disabled": 0, "name": "549ee17b1491a3f8138f715b6f7fa4b9", "fusion_lat": 0.0, "rental_uris": {"ios": "https://dc.lft.to/lastmile_qr_scan", "android": "https://dc.lft.to/lastmile_qr_scan"}, "lon": -77.02620933333333, "type": "electric_scooter"}, {"bike_id": "3855b1eebb5d076611b29d06c8e2bba0", "is_reserved": 0, "fusion_lon": 0.0, "lat": 38.89224566666667, "is_disabled": 0, "name": "3855b1eebb5d076611b29d06c8e2bba0", "fusion_lat": 0.0, "rental_uris": {"ios": "https://dc.lft.to/lastmile_qr_scan", "android": "https://dc.lft.to/lastmile_qr_scan"}, "lon": -77.043698, "type": "electric_scooter"}, {"bike_id": "a20a4617a415e5cfadfd4a7dab3b8fed", "is_reserved": 0, "fusion_lon": 0.0, "lat": 38.8948385, "is_disabled": 0, "name": "a20a4617a415e5cfadfd4a7dab3b8fed", "fusion_lat": 0.0, "rental_uris": {"ios": "https://dc.lft.to/lastmile_qr_scan", "android": "https://dc.lft.to/lastmile_qr_scan"}, "lon": -76.94872516666666, "type": "electric_scooter"}, {"bike_id": "d9d29626c8796255bc956dab7bb4cc15", "is_reserved": 0, "fusion_lon": 0.0, "lat": 38.90672516666667, "is_disabled": 0, "name": "d9d29626c8796255bc956dab7bb4cc15", "fusion_lat": 0.0, "rental_uris": {"ios": "https://dc.lft.to/lastmile_qr_scan", "android": "https://dc.lft.to/lastmile_qr_scan"}, "lon": -76.9878655, "type": "electric_scooter"}, {"bike_id": "c7c33f26f3fc7d1ce4e9e7306128b031", "is_reserved": 0, "fusion_lon": 0.0, "lat": 38.90131933333333, "is_disabled": 0, "name": "c7c33f26f3fc7d1ce4e9e7306128b031", "fusion_lat": 0.0, "rental_uris": {"ios": "https://dc.lft.to/lastmile_qr_scan", "android": "https://dc.lft.to/lastmile_qr_scan"}, "lon": -77.04359633333333, "type": "electric_scooter"}, {"bike_id": "de89553b7d3af80973f4925edcb1c391", "is_reserved": 0, "fusion_lon": 0.0, "lat": 38.89713316666667, "is_disabled": 0, "name": "de89553b7d3af80973f4925edcb1c391", "fusion_lat": 0.0, "rental_uris": {"ios": "https://dc.lft.to/lastmile_qr_scan", "android": "https://dc.lft.to/lastmile_qr_scan"}, "lon": -76.91769366666666, "type": "electric_scooter"}, {"bike_id": "eb200cdf00770a427d9f453e6e6e0ed8", "is_reserved": 0, "fusion_lon": 0.0, "lat": 38.90583766666666, "is_disabled": 0, "name": "eb200cdf00770a427d9f453e6e6e0ed8", "fusion_lat": 0.0, "rental_uris": {"ios": "https://dc.lft.to/lastmile_qr_scan", "android": "https://dc.lft.to/lastmile_qr_scan"}, "lon": -77.03257416666666, "type": "electric_scooter"}, {"bike_id": "b1a3687a02a85b5854e44625ef78c223", "is_reserved": 0, "fusion_lon": 0.0, "lat": 38.905168, "is_disabled": 0, "name": "b1a3687a02a85b5854e44625ef78c223", "fusion_lat": 0.0, "rental_uris": {"ios": "https://dc.lft.to/lastmile_qr_scan", "android": "https://dc.lft.to/lastmile_qr_scan"}, "lon": -77.04355983333333, "type": "electric_scooter"}, {"bike_id": "82026a93fa5d9c63e2d892b1005ee052", "is_reserved": 0, "fusion_lon": 0.0, "lat": 38.92406533333333, "is_disabled": 0, "name": "82026a93fa5d9c63e2d892b1005ee052", "fusion_lat": 0.0, "rental_uris": {"ios": "https://dc.lft.to/lastmile_qr_scan", "android": "https://dc.lft.to/lastmile_qr_scan"}, "lon": -77.01944566666667, "type": "electric_scooter"}, {"bike_id": "86feaa0a5b61f58f801f4b9d9640738d", "is_reserved": 0, "fusion_lon": 0.0, "lat": 38.895565833333336, "is_disabled": 0, "name": "86feaa0a5b61f58f801f4b9d9640738d", "fusion_lat": 0.0, "rental_uris": {"ios": "https://dc.lft.to/lastmile_qr_scan", "android": "https://dc.lft.to/lastmile_qr_scan"}, "lon": -77.041576, "type": "electric_scooter"}, {"bike_id": "84874d586a8bed4dc61c92adfb59f68b", "is_reserved": 0, "fusion_lon": 0.0, "lat": 38.92365016666667, "is_disabled": 0, "name": "84874d586a8bed4dc61c92adfb59f68b", "fusion_lat": 0.0, "rental_uris": {"ios": "https://dc.lft.to/lastmile_qr_scan", "android": "https://dc.lft.to/lastmile_qr_scan"}, "lon": -77.05027366666667, "type": "electric_scooter"}, {"bike_id": "b4807cee5ce52d3d9a9d8bad734702f8", "is_reserved": 0, "fusion_lon": 0.0, "lat": 38.82729616666667, "is_disabled": 0, "name": "b4807cee5ce52d3d9a9d8bad734702f8", "fusion_lat": 0.0, "rental_uris": {"ios": "https://dc.lft.to/lastmile_qr_scan", "android": "https://dc.lft.to/lastmile_qr_scan"}, "lon": -77.00862683333334, "type": "electric_bike"}, {"bike_id": "83e9b583eaa6a86926bcfdfb430a1bb1", "is_reserved": 0, "fusion_lon": 0.0, "lat": 38.92795916666667, "is_disabled": 0, "name": "83e9b583eaa6a86926bcfdfb430a1bb1", "fusion_lat": 0.0, "rental_uris": {"ios": "https://dc.lft.to/lastmile_qr_scan", "android": "https://dc.lft.to/lastmile_qr_scan"}, "lon": -77.05355366666667, "type": "electric_scooter"}, {"bike_id": "739f58edda1a769f3e5ca82521149241", "is_reserved": 0, "fusion_lon": 0.0, "lat": 38.905645166666666, "is_disabled": 0, "name": "739f58edda1a769f3e5ca82521149241", "fusion_lat": 0.0, "rental_uris": {"ios": "https://dc.lft.to/lastmile_qr_scan", "android": "https://dc.lft.to/lastmile_qr_scan"}, "lon": -77.034471, "type": "electric_scooter"}, {"bike_id": "d05de18c973afedc2d7c10a5f55192d6", "is_reserved": 0, "fusion_lon": 0.0, "lat": 38.8955265, "is_disabled": 0, "name": "d05de18c973afedc2d7c10a5f55192d6", "fusion_lat": 0.0, "rental_uris": {"ios": "https://dc.lft.to/lastmile_qr_scan", "android": "https://dc.lft.to/lastmile_qr_scan"}, "lon": -76.933775, "type": "electric_scooter"}, {"bike_id": "f17596a6c7d8c4002ca138b452f18aaa", "is_reserved": 0, "fusion_lon": 0.0, "lat": 38.88020933333333, "is_disabled": 0, "name": "f17596a6c7d8c4002ca138b452f18aaa", "fusion_lat": 0.0, "rental_uris": {"ios": "https://dc.lft.to/lastmile_qr_scan", "android": "https://dc.lft.to/lastmile_qr_scan"}, "lon": -76.93130733333334, "type": "electric_scooter"}, {"bike_id": "51994f7581a80863387ba35c12a337a5", "is_reserved": 0, "fusion_lon": 0.0, "lat": 38.8922525, "is_disabled": 0, "name": "51994f7581a80863387ba35c12a337a5", "fusion_lat": 0.0, "rental_uris": {"ios": "https://dc.lft.to/lastmile_qr_scan", "android": "https://dc.lft.to/lastmile_qr_scan"}, "lon": -77.0220655, "type": "electric_scooter"}, {"bike_id": "54ba99c9d38d44f23624f5b5eb6a9057", "is_reserved": 0, "fusion_lon": 0.0, "lat": 38.885009333333336, "is_disabled": 0, "name": "54ba99c9d38d44f23624f5b5eb6a9057", "fusion_lat": 0.0, "rental_uris": {"ios": "https://dc.lft.to/lastmile_qr_scan", "android": "https://dc.lft.to/lastmile_qr_scan"}, "lon": -77.00725633333333, "type": "electric_scooter"}, {"bike_id": "1791ceafa1a60c564031820f27e37040", "is_reserved": 0, "fusion_lon": 0.0, "lat": 38.90299366666667, "is_disabled": 0, "name": "1791ceafa1a60c564031820f27e37040", "fusion_lat": 0.0, "rental_uris": {"ios": "https://dc.lft.to/lastmile_qr_scan", "android": "https://dc.lft.to/lastmile_qr_scan"}, "lon": -77.03664116666667, "type": "electric_scooter"}, {"bike_id": "e729a8fc6954f69404fb85aa26920645", "is_reserved": 0, "fusion_lon": 0.0, "lat": 38.92874666666667, "is_disabled": 0, "name": "e729a8fc6954f69404fb85aa26920645", "fusion_lat": 0.0, "rental_uris": {"ios": "https://dc.lft.to/lastmile_qr_scan", "android": "https://dc.lft.to/lastmile_qr_scan"}, "lon": -77.03299016666666, "type": "electric_scooter"}, {"bike_id": "8e6cb9c6de121823f517f937bd80ae5d", "is_reserved": 0, "fusion_lon": 0.0, "lat": 38.926058833333336, "is_disabled": 0, "name": "8e6cb9c6de121823f517f937bd80ae5d", "fusion_lat": 0.0, "rental_uris": {"ios": "https://dc.lft.to/lastmile_qr_scan", "android": "https://dc.lft.to/lastmile_qr_scan"}, "lon": -77.02155933333333, "type": "electric_scooter"}, {"bike_id": "6b317a6470388a26844393ca6dbd54fa", "is_reserved": 0, "fusion_lon": 0.0, "lat": 38.904016, "is_disabled": 0, "name": "6b317a6470388a26844393ca6dbd54fa", "fusion_lat": 0.0, "rental_uris": {"ios": "https://dc.lft.to/lastmile_qr_scan", "android": "https://dc.lft.to/lastmile_qr_scan"}, "lon": -77.02957816666667, "type": "electric_scooter"}, {"bike_id": "120509204f62790906a7d82c8416e759", "is_reserved": 0, "fusion_lon": 0.0, "lat": 38.9126415, "is_disabled": 0, "name": "120509204f62790906a7d82c8416e759", "fusion_lat": 0.0, "rental_uris": {"ios": "https://dc.lft.to/lastmile_qr_scan", "android": "https://dc.lft.to/lastmile_qr_scan"}, "lon": -77.045495, "type": "electric_scooter"}, {"bike_id": "efd57e13c8da1418961e80df376fdb96", "is_reserved": 0, "fusion_lon": 0.0, "lat": 38.824478166666665, "is_disabled": 0, "name": "efd57e13c8da1418961e80df376fdb96", "fusion_lat": 0.0, "rental_uris": {"ios": "https://dc.lft.to/lastmile_qr_scan", "android": "https://dc.lft.to/lastmile_qr_scan"}, "lon": -77.0704345, "type": "electric_bike"}, {"bike_id": "3a734f4254ed182e189c0e0a407f9c50", "is_reserved": 0, "fusion_lon": 0.0, "lat": 38.923551, "is_disabled": 0, "name": "3a734f4254ed182e189c0e0a407f9c50", "fusion_lat": 0.0, "rental_uris": {"ios": "https://dc.lft.to/lastmile_qr_scan", "android": "https://dc.lft.to/lastmile_qr_scan"}, "lon": -77.04149966666667, "type": "electric_scooter"}, {"bike_id": "42869471afde3378fbf588f2c1545127", "is_reserved": 0, "fusion_lon": 0.0, "lat": 38.933406166666664, "is_disabled": 0, "name": "42869471afde3378fbf588f2c1545127", "fusion_lat": 0.0, "rental_uris": {"ios": "https://dc.lft.to/lastmile_qr_scan", "android": "https://dc.lft.to/lastmile_qr_scan"}, "lon": -77.04202883333333, "type": "electric_bike"}, {"bike_id": "9abdd74c13ce6b134013c917543de5e4", "is_reserved": 0, "fusion_lon": 0.0, "lat": 38.90284183333333, "is_disabled": 0, "name": "9abdd74c13ce6b134013c917543de5e4", "fusion_lat": 0.0, "rental_uris": {"ios": "https://dc.lft.to/lastmile_qr_scan", "android": "https://dc.lft.to/lastmile_qr_scan"}, "lon": -77.0366715, "type": "electric_scooter"}, {"bike_id": "ce9d9eef49aed80e2cf61019bea4504f", "is_reserved": 0, "fusion_lon": 0.0, "lat": 38.918534666666666, "is_disabled": 0, "name": "ce9d9eef49aed80e2cf61019bea4504f", "fusion_lat": 0.0, "rental_uris": {"ios": "https://dc.lft.to/lastmile_qr_scan", "android": "https://dc.lft.to/lastmile_qr_scan"}, "lon": -76.96093233333333, "type": "electric_bike"}, {"bike_id": "b37c64e74c3c920c9a5e4632a97f9b74", "is_reserved": 0, "fusion_lon": 0.0, "lat": 38.92080966666666, "is_disabled": 0, "name": "b37c64e74c3c920c9a5e4632a97f9b74", "fusion_lat": 0.0, "rental_uris": {"ios": "https://dc.lft.to/lastmile_qr_scan", "android": "https://dc.lft.to/lastmile_qr_scan"}, "lon": -77.03657066666666, "type": "electric_scooter"}, {"bike_id": "e320057a14893bd941988d8ffe631a0a", "is_reserved": 0, "fusion_lon": 0.0, "lat": 38.883865666666665, "is_disabled": 0, "name": "e320057a14893bd941988d8ffe631a0a", "fusion_lat": 0.0, "rental_uris": {"ios": "https://dc.lft.to/lastmile_qr_scan", "android": "https://dc.lft.to/lastmile_qr_scan"}, "lon": -76.94923683333333, "type": "electric_scooter"}, {"bike_id": "c0c2a116291d1b0702d56c7896753055", "is_reserved": 0, "fusion_lon": 0.0, "lat": 38.90567816666667, "is_disabled": 0, "name": "c0c2a116291d1b0702d56c7896753055", "fusion_lat": 0.0, "rental_uris": {"ios": "https://dc.lft.to/lastmile_qr_scan", "android": "https://dc.lft.to/lastmile_qr_scan"}, "lon": -77.03481583333334, "type": "electric_scooter"}, {"bike_id": "d164474a7d3dd2dac5b06212a798ca20", "is_reserved": 0, "fusion_lon": 0.0, "lat": 38.90899783333333, "is_disabled": 0, "name": "d164474a7d3dd2dac5b06212a798ca20", "fusion_lat": 0.0, "rental_uris": {"ios": "https://dc.lft.to/lastmile_qr_scan", "android": "https://dc.lft.to/lastmile_qr_scan"}, "lon": -77.086226, "type": "electric_scooter"}, {"bike_id": "58e1cb4265ee18c0e6f9fae397024875", "is_reserved": 0, "fusion_lon": 0.0, "lat": 38.897840333333335, "is_disabled": 0, "name": "58e1cb4265ee18c0e6f9fae397024875", "fusion_lat": 0.0, "rental_uris": {"ios": "https://dc.lft.to/lastmile_qr_scan", "android": "https://dc.lft.to/lastmile_qr_scan"}, "lon": -77.00757566666667, "type": "electric_bike"}, {"bike_id": "1b992fa0735677899e0120c36dfd5fc0", "is_reserved": 0, "fusion_lon": 0.0, "lat": 38.89231133333333, "is_disabled": 0, "name": "1b992fa0735677899e0120c36dfd5fc0", "fusion_lat": 0.0, "rental_uris": {"ios": "https://dc.lft.to/lastmile_qr_scan", "android": "https://dc.lft.to/lastmile_qr_scan"}, "lon": -77.03207866666666, "type": "electric_scooter"}, {"bike_id": "3b37a1cdba1d9e4048d2a2e49906fd6e", "is_reserved": 0, "fusion_lon": 0.0, "lat": 38.95555233333333, "is_disabled": 0, "name": "3b37a1cdba1d9e4048d2a2e49906fd6e", "fusion_lat": 0.0, "rental_uris": {"ios": "https://dc.lft.to/lastmile_qr_scan", "android": "https://dc.lft.to/lastmile_qr_scan"}, "lon": -76.94018283333334, "type": "electric_bike"}, {"bike_id": "50860077c12c4fa132f481b8323f4c50", "is_reserved": 0, "fusion_lon": 0.0, "lat": 38.88006, "is_disabled": 0, "name": "50860077c12c4fa132f481b8323f4c50", "fusion_lat": 0.0, "rental_uris": {"ios": "https://dc.lft.to/lastmile_qr_scan", "android": "https://dc.lft.to/lastmile_qr_scan"}, "lon": -76.9159685, "type": "electric_bike"}, {"bike_id": "c9dff321a760676418acede501124896", "is_reserved": 0, "fusion_lon": 0.0, "lat": 38.90027166666667, "is_disabled": 0, "name": "c9dff321a760676418acede501124896", "fusion_lat": 0.0, "rental_uris": {"ios": "https://dc.lft.to/lastmile_qr_scan", "android": "https://dc.lft.to/lastmile_qr_scan"}, "lon": -77.04670833333333, "type": "electric_scooter"}, {"bike_id": "cf91a02e6c49accb2e53fd0ae6fa8cdd", "is_reserved": 0, "fusion_lon": 0.0, "lat": 38.8964075, "is_disabled": 0, "name": "cf91a02e6c49accb2e53fd0ae6fa8cdd", "fusion_lat": 0.0, "rental_uris": {"ios": "https://dc.lft.to/lastmile_qr_scan", "android": "https://dc.lft.to/lastmile_qr_scan"}, "lon": -77.032282, "type": "electric_scooter"}, {"bike_id": "537bc0cc4cce76367b8be3ad51914251", "is_reserved": 0, "fusion_lon": 0.0, "lat": 38.9040875, "is_disabled": 0, "name": "537bc0cc4cce76367b8be3ad51914251", "fusion_lat": 0.0, "rental_uris": {"ios": "https://dc.lft.to/lastmile_qr_scan", "android": "https://dc.lft.to/lastmile_qr_scan"}, "lon": -77.04334033333333, "type": "electric_scooter"}, {"bike_id": "d68ca7ccc76b81daec5ae5cc5aa6e9b8", "is_reserved": 0, "fusion_lon": 0.0, "lat": 38.92368283333333, "is_disabled": 0, "name": "d68ca7ccc76b81daec5ae5cc5aa6e9b8", "fusion_lat": 0.0, "rental_uris": {"ios": "https://dc.lft.to/lastmile_qr_scan", "android": "https://dc.lft.to/lastmile_qr_scan"}, "lon": -77.05029783333333, "type": "electric_scooter"}, {"bike_id": "35bf2b449e99f7339966a1b2864d3e6e", "is_reserved": 0, "fusion_lon": 0.0, "lat": 38.90592733333333, "is_disabled": 0, "name": "35bf2b449e99f7339966a1b2864d3e6e", "fusion_lat": 0.0, "rental_uris": {"ios": "https://dc.lft.to/lastmile_qr_scan", "android": "https://dc.lft.to/lastmile_qr_scan"}, "lon": -77.00272883333334, "type": "electric_scooter"}, {"bike_id": "be798fba512eebf482dfa487fe49c0a9", "is_reserved": 0, "fusion_lon": 0.0, "lat": 38.89475316666667, "is_disabled": 0, "name": "be798fba512eebf482dfa487fe49c0a9", "fusion_lat": 0.0, "rental_uris": {"ios": "https://dc.lft.to/lastmile_qr_scan", "android": "https://dc.lft.to/lastmile_qr_scan"}, "lon": -77.02176666666666, "type": "electric_scooter"}, {"bike_id": "cc906fc6bcd2d3c4fbea8eb250e4c7f3", "is_reserved": 0, "fusion_lon": 0.0, "lat": 38.91419, "is_disabled": 0, "name": "cc906fc6bcd2d3c4fbea8eb250e4c7f3", "fusion_lat": 0.0, "rental_uris": {"ios": "https://dc.lft.to/lastmile_qr_scan", "android": "https://dc.lft.to/lastmile_qr_scan"}, "lon": -77.02828566666666, "type": "electric_scooter"}, {"bike_id": "3dae6c7556451680721f917d233af6f1", "is_reserved": 0, "fusion_lon": 0.0, "lat": 38.866567, "is_disabled": 0, "name": "3dae6c7556451680721f917d233af6f1", "fusion_lat": 0.0, "rental_uris": {"ios": "https://dc.lft.to/lastmile_qr_scan", "android": "https://dc.lft.to/lastmile_qr_scan"}, "lon": -76.988802, "type": "electric_scooter"}, {"bike_id": "e8a5a468f6440d05bda6aaf868f836a9", "is_reserved": 0, "fusion_lon": 0.0, "lat": 38.86536, "is_disabled": 0, "name": "e8a5a468f6440d05bda6aaf868f836a9", "fusion_lat": 0.0, "rental_uris": {"ios": "https://dc.lft.to/lastmile_qr_scan", "android": "https://dc.lft.to/lastmile_qr_scan"}, "lon": -76.987081, "type": "electric_scooter"}, {"bike_id": "b0dd9b70fb78445922c18ff6f6beb8b9", "is_reserved": 0, "fusion_lon": 0.0, "lat": 38.89220666666667, "is_disabled": 0, "name": "b0dd9b70fb78445922c18ff6f6beb8b9", "fusion_lat": 0.0, "rental_uris": {"ios": "https://dc.lft.to/lastmile_qr_scan", "android": "https://dc.lft.to/lastmile_qr_scan"}, "lon": -77.03163633333334, "type": "electric_scooter"}, {"bike_id": "a5a0f500905f040603884d6563dc7e0a", "is_reserved": 0, "fusion_lon": 0.0, "lat": 38.8870535, "is_disabled": 0, "name": "a5a0f500905f040603884d6563dc7e0a", "fusion_lat": 0.0, "rental_uris": {"ios": "https://dc.lft.to/lastmile_qr_scan", "android": "https://dc.lft.to/lastmile_qr_scan"}, "lon": -77.013667, "type": "electric_scooter"}, {"bike_id": "1d24be9ce7a7509040771b05d0d0feb6", "is_reserved": 0, "fusion_lon": 0.0, "lat": 38.90734483333333, "is_disabled": 0, "name": "1d24be9ce7a7509040771b05d0d0feb6", "fusion_lat": 0.0, "rental_uris": {"ios": "https://dc.lft.to/lastmile_qr_scan", "android": "https://dc.lft.to/lastmile_qr_scan"}, "lon": -77.04236116666667, "type": "electric_scooter"}, {"bike_id": "ee0ddea3a0a40dbf3f2c3594ed1860d3", "is_reserved": 0, "fusion_lon": 0.0, "lat": 38.920812, "is_disabled": 0, "name": "ee0ddea3a0a40dbf3f2c3594ed1860d3", "fusion_lat": 0.0, "rental_uris": {"ios": "https://dc.lft.to/lastmile_qr_scan", "android": "https://dc.lft.to/lastmile_qr_scan"}, "lon": -77.031709, "type": "electric_scooter"}, {"bike_id": "6b62a8556057ac815318a27e1d2c98d3", "is_reserved": 0, "fusion_lon": 0.0, "lat": 38.922500166666666, "is_disabled": 0, "name": "6b62a8556057ac815318a27e1d2c98d3", "fusion_lat": 0.0, "rental_uris": {"ios": "https://dc.lft.to/lastmile_qr_scan", "android": "https://dc.lft.to/lastmile_qr_scan"}, "lon": -77.01825883333333, "type": "electric_scooter"}, {"bike_id": "a94bfb5f12a8b5832a8771dcb5202834", "is_reserved": 0, "fusion_lon": 0.0, "lat": 38.930981, "is_disabled": 0, "name": "a94bfb5f12a8b5832a8771dcb5202834", "fusion_lat": 0.0, "rental_uris": {"ios": "https://dc.lft.to/lastmile_qr_scan", "android": "https://dc.lft.to/lastmile_qr_scan"}, "lon": -77.02508466666667, "type": "electric_scooter"}, {"bike_id": "5a51e65d8231175f660b4b7a46a3996f", "is_reserved": 0, "fusion_lon": 0.0, "lat": 38.890086833333335, "is_disabled": 0, "name": "5a51e65d8231175f660b4b7a46a3996f", "fusion_lat": 0.0, "rental_uris": {"ios": "https://dc.lft.to/lastmile_qr_scan", "android": "https://dc.lft.to/lastmile_qr_scan"}, "lon": -76.93745533333333, "type": "electric_scooter"}, {"bike_id": "ab95c72e527454e0b08a67f19926e59a", "is_reserved": 0, "fusion_lon": 0.0, "lat": 38.91896066666666, "is_disabled": 0, "name": "ab95c72e527454e0b08a67f19926e59a", "fusion_lat": 0.0, "rental_uris": {"ios": "https://dc.lft.to/lastmile_qr_scan", "android": "https://dc.lft.to/lastmile_qr_scan"}, "lon": -77.039023, "type": "electric_scooter"}, {"bike_id": "eac4a9041eaffcf60a10a05f54935c17", "is_reserved": 0, "fusion_lon": 0.0, "lat": 38.90403166666667, "is_disabled": 0, "name": "eac4a9041eaffcf60a10a05f54935c17", "fusion_lat": 0.0, "rental_uris": {"ios": "https://dc.lft.to/lastmile_qr_scan", "android": "https://dc.lft.to/lastmile_qr_scan"}, "lon": -77.04467316666667, "type": "electric_scooter"}, {"bike_id": "19b2b0ca545d7a0d6268d72771285586", "is_reserved": 0, "fusion_lon": 0.0, "lat": 38.949763833333336, "is_disabled": 0, "name": "19b2b0ca545d7a0d6268d72771285586", "fusion_lat": 0.0, "rental_uris": {"ios": "https://dc.lft.to/lastmile_qr_scan", "android": "https://dc.lft.to/lastmile_qr_scan"}, "lon": -77.07892566666666, "type": "electric_scooter"}, {"bike_id": "2ba5d055fc5d0e36d214b8ffdeb3d813", "is_reserved": 0, "fusion_lon": 0.0, "lat": 38.8961405, "is_disabled": 0, "name": "2ba5d055fc5d0e36d214b8ffdeb3d813", "fusion_lat": 0.0, "rental_uris": {"ios": "https://dc.lft.to/lastmile_qr_scan", "android": "https://dc.lft.to/lastmile_qr_scan"}, "lon": -76.95576283333334, "type": "electric_scooter"}, {"bike_id": "0082ebe53c3fddc4e34b3e506637723b", "is_reserved": 0, "fusion_lon": 0.0, "lat": 38.89900883333333, "is_disabled": 0, "name": "0082ebe53c3fddc4e34b3e506637723b", "fusion_lat": 0.0, "rental_uris": {"ios": "https://dc.lft.to/lastmile_qr_scan", "android": "https://dc.lft.to/lastmile_qr_scan"}, "lon": -77.03961533333333, "type": "electric_scooter"}, {"bike_id": "52fbf7620a6b65f2ec274875028ff60b", "is_reserved": 0, "fusion_lon": 0.0, "lat": 38.901731833333336, "is_disabled": 0, "name": "52fbf7620a6b65f2ec274875028ff60b", "fusion_lat": 0.0, "rental_uris": {"ios": "https://dc.lft.to/lastmile_qr_scan", "android": "https://dc.lft.to/lastmile_qr_scan"}, "lon": -76.9807205, "type": "electric_scooter"}, {"bike_id": "71b4cd3145584c92fc68558340f35346", "is_reserved": 0, "fusion_lon": 0.0, "lat": 38.923814666666665, "is_disabled": 0, "name": "71b4cd3145584c92fc68558340f35346", "fusion_lat": 0.0, "rental_uris": {"ios": "https://dc.lft.to/lastmile_qr_scan", "android": "https://dc.lft.to/lastmile_qr_scan"}, "lon": -77.03091616666667, "type": "electric_scooter"}, {"bike_id": "db2846228d764e817dac94e1e0c89536", "is_reserved": 0, "fusion_lon": 0.0, "lat": 38.921683333333334, "is_disabled": 0, "name": "db2846228d764e817dac94e1e0c89536", "fusion_lat": 0.0, "rental_uris": {"ios": "https://dc.lft.to/lastmile_qr_scan", "android": "https://dc.lft.to/lastmile_qr_scan"}, "lon": -77.0420575, "type": "electric_scooter"}, {"bike_id": "52c762fd6760f23c2fa3dd102d96aaf1", "is_reserved": 0, "fusion_lon": 0.0, "lat": 38.903961833333334, "is_disabled": 0, "name": "52c762fd6760f23c2fa3dd102d96aaf1", "fusion_lat": 0.0, "rental_uris": {"ios": "https://dc.lft.to/lastmile_qr_scan", "android": "https://dc.lft.to/lastmile_qr_scan"}, "lon": -77.06292766666667, "type": "electric_scooter"}, {"bike_id": "428dcc22a0c225a8c19722e19b36e8a5", "is_reserved": 0, "fusion_lon": 0.0, "lat": 38.9233115, "is_disabled": 0, "name": "428dcc22a0c225a8c19722e19b36e8a5", "fusion_lat": 0.0, "rental_uris": {"ios": "https://dc.lft.to/lastmile_qr_scan", "android": "https://dc.lft.to/lastmile_qr_scan"}, "lon": -77.03777833333334, "type": "electric_scooter"}, {"bike_id": "7d2340f3aeba66ffaa80704977525433", "is_reserved": 0, "fusion_lon": 0.0, "lat": 38.916886833333336, "is_disabled": 0, "name": "7d2340f3aeba66ffaa80704977525433", "fusion_lat": 0.0, "rental_uris": {"ios": "https://dc.lft.to/lastmile_qr_scan", "android": "https://dc.lft.to/lastmile_qr_scan"}, "lon": -77.02957833333333, "type": "electric_scooter"}, {"bike_id": "fcf7267b60918d26e4416c1890c49e6c", "is_reserved": 0, "fusion_lon": 0.0, "lat": 38.904413166666664, "is_disabled": 0, "name": "fcf7267b60918d26e4416c1890c49e6c", "fusion_lat": 0.0, "rental_uris": {"ios": "https://dc.lft.to/lastmile_qr_scan", "android": "https://dc.lft.to/lastmile_qr_scan"}, "lon": -77.040279, "type": "electric_scooter"}, {"bike_id": "8932545f2f25afccba293ba8d65cfb6d", "is_reserved": 0, "fusion_lon": 0.0, "lat": 38.898229666666666, "is_disabled": 0, "name": "8932545f2f25afccba293ba8d65cfb6d", "fusion_lat": 0.0, "rental_uris": {"ios": "https://dc.lft.to/lastmile_qr_scan", "android": "https://dc.lft.to/lastmile_qr_scan"}, "lon": -77.03341833333333, "type": "electric_scooter"}, {"bike_id": "a00fcccd4443a1971a43a6b56ae71c72", "is_reserved": 0, "fusion_lon": 0.0, "lat": 38.920978, "is_disabled": 0, "name": "a00fcccd4443a1971a43a6b56ae71c72", "fusion_lat": 0.0, "rental_uris": {"ios": "https://dc.lft.to/lastmile_qr_scan", "android": "https://dc.lft.to/lastmile_qr_scan"}, "lon": -77.074711, "type": "electric_scooter"}, {"bike_id": "71d352dc98f53b093c2253b473d7b1c6", "is_reserved": 0, "fusion_lon": 0.0, "lat": 38.8877075, "is_disabled": 0, "name": "71d352dc98f53b093c2253b473d7b1c6", "fusion_lat": 0.0, "rental_uris": {"ios": "https://dc.lft.to/lastmile_qr_scan", "android": "https://dc.lft.to/lastmile_qr_scan"}, "lon": -77.03017083333333, "type": "electric_scooter"}, {"bike_id": "3fdad9179e2b486e7da1df222044838e", "is_reserved": 0, "fusion_lon": 0.0, "lat": 38.901273, "is_disabled": 0, "name": "3fdad9179e2b486e7da1df222044838e", "fusion_lat": 0.0, "rental_uris": {"ios": "https://dc.lft.to/lastmile_qr_scan", "android": "https://dc.lft.to/lastmile_qr_scan"}, "lon": -77.04492033333334, "type": "electric_scooter"}, {"bike_id": "0f84427eaa559a74860e2af0b9560260", "is_reserved": 0, "fusion_lon": 0.0, "lat": 38.90515083333333, "is_disabled": 0, "name": "0f84427eaa559a74860e2af0b9560260", "fusion_lat": 0.0, "rental_uris": {"ios": "https://dc.lft.to/lastmile_qr_scan", "android": "https://dc.lft.to/lastmile_qr_scan"}, "lon": -77.04155383333334, "type": "electric_scooter"}, {"bike_id": "8f6416d587311c4fead5945cc1a89fa9", "is_reserved": 0, "fusion_lon": 0.0, "lat": 38.926374833333334, "is_disabled": 0, "name": "8f6416d587311c4fead5945cc1a89fa9", "fusion_lat": 0.0, "rental_uris": {"ios": "https://dc.lft.to/lastmile_qr_scan", "android": "https://dc.lft.to/lastmile_qr_scan"}, "lon": -77.0350235, "type": "electric_scooter"}, {"bike_id": "4dfb1e2834bfcad71df836037ffece84", "is_reserved": 0, "fusion_lon": 0.0, "lat": 38.9335115, "is_disabled": 0, "name": "4dfb1e2834bfcad71df836037ffece84", "fusion_lat": 0.0, "rental_uris": {"ios": "https://dc.lft.to/lastmile_qr_scan", "android": "https://dc.lft.to/lastmile_qr_scan"}, "lon": -77.0586525, "type": "electric_scooter"}, {"bike_id": "1307a9fc2df32d66b9c2f08ba25efc38", "is_reserved": 0, "fusion_lon": 0.0, "lat": 38.9011795, "is_disabled": 0, "name": "1307a9fc2df32d66b9c2f08ba25efc38", "fusion_lat": 0.0, "rental_uris": {"ios": "https://dc.lft.to/lastmile_qr_scan", "android": "https://dc.lft.to/lastmile_qr_scan"}, "lon": -77.0466285, "type": "electric_scooter"}, {"bike_id": "6f0191e7dd4d930dd1b786f837c29f77", "is_reserved": 0, "fusion_lon": 0.0, "lat": 38.8442685, "is_disabled": 0, "name": "6f0191e7dd4d930dd1b786f837c29f77", "fusion_lat": 0.0, "rental_uris": {"ios": "https://dc.lft.to/lastmile_qr_scan", "android": "https://dc.lft.to/lastmile_qr_scan"}, "lon": -76.99779833333334, "type": "electric_scooter"}, {"bike_id": "9e6ae6be76f05b6ce82c2938ee23755f", "is_reserved": 0, "fusion_lon": 0.0, "lat": 38.90101966666667, "is_disabled": 0, "name": "9e6ae6be76f05b6ce82c2938ee23755f", "fusion_lat": 0.0, "rental_uris": {"ios": "https://dc.lft.to/lastmile_qr_scan", "android": "https://dc.lft.to/lastmile_qr_scan"}, "lon": -77.021413, "type": "electric_scooter"}, {"bike_id": "d75b7a352264e6d43f4ad419536815d8", "is_reserved": 0, "fusion_lon": 0.0, "lat": 38.8926205, "is_disabled": 0, "name": "d75b7a352264e6d43f4ad419536815d8", "fusion_lat": 0.0, "rental_uris": {"ios": "https://dc.lft.to/lastmile_qr_scan", "android": "https://dc.lft.to/lastmile_qr_scan"}, "lon": -77.022026, "type": "electric_bike"}, {"bike_id": "8cd51d1e57c8a26bc11da0e363b5de6f", "is_reserved": 0, "fusion_lon": 0.0, "lat": 38.91272516666667, "is_disabled": 0, "name": "8cd51d1e57c8a26bc11da0e363b5de6f", "fusion_lat": 0.0, "rental_uris": {"ios": "https://dc.lft.to/lastmile_qr_scan", "android": "https://dc.lft.to/lastmile_qr_scan"}, "lon": -77.02692433333333, "type": "electric_scooter"}, {"bike_id": "2920eb261160ba232e13bf2596785bcf", "is_reserved": 0, "fusion_lon": 0.0, "lat": 38.906141, "is_disabled": 0, "name": "2920eb261160ba232e13bf2596785bcf", "fusion_lat": 0.0, "rental_uris": {"ios": "https://dc.lft.to/lastmile_qr_scan", "android": "https://dc.lft.to/lastmile_qr_scan"}, "lon": -77.04334216666666, "type": "electric_scooter"}, {"bike_id": "7099b026a23af829aaf8e2dbc86d37bf", "is_reserved": 0, "fusion_lon": 0.0, "lat": 38.90237416666667, "is_disabled": 0, "name": "7099b026a23af829aaf8e2dbc86d37bf", "fusion_lat": 0.0, "rental_uris": {"ios": "https://dc.lft.to/lastmile_qr_scan", "android": "https://dc.lft.to/lastmile_qr_scan"}, "lon": -77.02681866666667, "type": "electric_scooter"}, {"bike_id": "1130f2cab3f2684674eb9a54ce6acb8d", "is_reserved": 0, "fusion_lon": 0.0, "lat": 38.91942516666667, "is_disabled": 0, "name": "1130f2cab3f2684674eb9a54ce6acb8d", "fusion_lat": 0.0, "rental_uris": {"ios": "https://dc.lft.to/lastmile_qr_scan", "android": "https://dc.lft.to/lastmile_qr_scan"}, "lon": -77.04495716666666, "type": "electric_scooter"}, {"bike_id": "c05bf2f6dbfbfe7ac37921b3b7f2a856", "is_reserved": 0, "fusion_lon": 0.0, "lat": 38.91276333333333, "is_disabled": 0, "name": "c05bf2f6dbfbfe7ac37921b3b7f2a856", "fusion_lat": 0.0, "rental_uris": {"ios": "https://dc.lft.to/lastmile_qr_scan", "android": "https://dc.lft.to/lastmile_qr_scan"}, "lon": -77.0135225, "type": "electric_scooter"}, {"bike_id": "3f2920e07e13499041707fe8f9fa8b9d", "is_reserved": 0, "fusion_lon": 0.0, "lat": 38.90619983333333, "is_disabled": 0, "name": "3f2920e07e13499041707fe8f9fa8b9d", "fusion_lat": 0.0, "rental_uris": {"ios": "https://dc.lft.to/lastmile_qr_scan", "android": "https://dc.lft.to/lastmile_qr_scan"}, "lon": -77.041863, "type": "electric_scooter"}, {"bike_id": "9ca7d3ec4718dfbd62315ce4e7b768d9", "is_reserved": 0, "fusion_lon": 0.0, "lat": 38.90006533333333, "is_disabled": 0, "name": "9ca7d3ec4718dfbd62315ce4e7b768d9", "fusion_lat": 0.0, "rental_uris": {"ios": "https://dc.lft.to/lastmile_qr_scan", "android": "https://dc.lft.to/lastmile_qr_scan"}, "lon": -77.040463, "type": "electric_scooter"}, {"bike_id": "dd0c531baf761e2581b79bb384ac998c", "is_reserved": 0, "fusion_lon": 0.0, "lat": 38.90730716666667, "is_disabled": 0, "name": "dd0c531baf761e2581b79bb384ac998c", "fusion_lat": 0.0, "rental_uris": {"ios": "https://dc.lft.to/lastmile_qr_scan", "android": "https://dc.lft.to/lastmile_qr_scan"}, "lon": -77.03210966666667, "type": "electric_scooter"}, {"bike_id": "35a7a91f43ffa6b94ea4b6d76134fa34", "is_reserved": 0, "fusion_lon": 0.0, "lat": 38.8968655, "is_disabled": 0, "name": "35a7a91f43ffa6b94ea4b6d76134fa34", "fusion_lat": 0.0, "rental_uris": {"ios": "https://dc.lft.to/lastmile_qr_scan", "android": "https://dc.lft.to/lastmile_qr_scan"}, "lon": -76.99629733333333, "type": "electric_scooter"}, {"bike_id": "f5ab3d2e042f2645cdd8ca1751e8a59c", "is_reserved": 0, "fusion_lon": 0.0, "lat": 38.905387833333336, "is_disabled": 0, "name": "f5ab3d2e042f2645cdd8ca1751e8a59c", "fusion_lat": 0.0, "rental_uris": {"ios": "https://dc.lft.to/lastmile_qr_scan", "android": "https://dc.lft.to/lastmile_qr_scan"}, "lon": -77.04352866666666, "type": "electric_scooter"}, {"bike_id": "6f3bb14e65fa7655f5af6e85b902bac9", "is_reserved": 0, "fusion_lon": 0.0, "lat": 38.925137, "is_disabled": 0, "name": "6f3bb14e65fa7655f5af6e85b902bac9", "fusion_lat": 0.0, "rental_uris": {"ios": "https://dc.lft.to/lastmile_qr_scan", "android": "https://dc.lft.to/lastmile_qr_scan"}, "lon": -77.02168533333334, "type": "electric_scooter"}, {"bike_id": "03b8aac657609596f30042c6fe650f12", "is_reserved": 0, "fusion_lon": 0.0, "lat": 38.895704333333335, "is_disabled": 0, "name": "03b8aac657609596f30042c6fe650f12", "fusion_lat": 0.0, "rental_uris": {"ios": "https://dc.lft.to/lastmile_qr_scan", "android": "https://dc.lft.to/lastmile_qr_scan"}, "lon": -77.01899566666667, "type": "electric_scooter"}, {"bike_id": "3c7044a1bed4f37c467fedaee291377f", "is_reserved": 0, "fusion_lon": 0.0, "lat": 38.8921985, "is_disabled": 0, "name": "3c7044a1bed4f37c467fedaee291377f", "fusion_lat": 0.0, "rental_uris": {"ios": "https://dc.lft.to/lastmile_qr_scan", "android": "https://dc.lft.to/lastmile_qr_scan"}, "lon": -77.041945, "type": "electric_scooter"}, {"bike_id": "f92efc26f452fca2b58bfd7b93d41a99", "is_reserved": 0, "fusion_lon": 0.0, "lat": 38.87917516666667, "is_disabled": 0, "name": "f92efc26f452fca2b58bfd7b93d41a99", "fusion_lat": 0.0, "rental_uris": {"ios": "https://dc.lft.to/lastmile_qr_scan", "android": "https://dc.lft.to/lastmile_qr_scan"}, "lon": -76.99507383333334, "type": "electric_scooter"}, {"bike_id": "9f3182bfb319e52042b109d4e1f1defb", "is_reserved": 0, "fusion_lon": 0.0, "lat": 38.8910365, "is_disabled": 0, "name": "9f3182bfb319e52042b109d4e1f1defb", "fusion_lat": 0.0, "rental_uris": {"ios": "https://dc.lft.to/lastmile_qr_scan", "android": "https://dc.lft.to/lastmile_qr_scan"}, "lon": -76.98702816666666, "type": "electric_scooter"}, {"bike_id": "797706e58c319ab8c8935095a808d455", "is_reserved": 0, "fusion_lon": 0.0, "lat": 38.902608, "is_disabled": 0, "name": "797706e58c319ab8c8935095a808d455", "fusion_lat": 0.0, "rental_uris": {"ios": "https://dc.lft.to/lastmile_qr_scan", "android": "https://dc.lft.to/lastmile_qr_scan"}, "lon": -77.04364616666666, "type": "electric_scooter"}, {"bike_id": "6383913439d7bf9c62e06fbe2783fcb4", "is_reserved": 0, "fusion_lon": 0.0, "lat": 38.908323, "is_disabled": 0, "name": "6383913439d7bf9c62e06fbe2783fcb4", "fusion_lat": 0.0, "rental_uris": {"ios": "https://dc.lft.to/lastmile_qr_scan", "android": "https://dc.lft.to/lastmile_qr_scan"}, "lon": -77.0394735, "type": "electric_scooter"}, {"bike_id": "cb3a30f7334bdcb63cf52ba09938a8b3", "is_reserved": 0, "fusion_lon": 0.0, "lat": 38.92879, "is_disabled": 0, "name": "cb3a30f7334bdcb63cf52ba09938a8b3", "fusion_lat": 0.0, "rental_uris": {"ios": "https://dc.lft.to/lastmile_qr_scan", "android": "https://dc.lft.to/lastmile_qr_scan"}, "lon": -77.01380783333333, "type": "electric_scooter"}, {"bike_id": "2e968773ac6946ea308059bbdc8c4c5a", "is_reserved": 0, "fusion_lon": 0.0, "lat": 38.9167875, "is_disabled": 0, "name": "2e968773ac6946ea308059bbdc8c4c5a", "fusion_lat": 0.0, "rental_uris": {"ios": "https://dc.lft.to/lastmile_qr_scan", "android": "https://dc.lft.to/lastmile_qr_scan"}, "lon": -77.02953333333333, "type": "electric_scooter"}, {"bike_id": "da33f4c1117adc97da36203ea02aa649", "is_reserved": 0, "fusion_lon": 0.0, "lat": 38.870835166666666, "is_disabled": 0, "name": "da33f4c1117adc97da36203ea02aa649", "fusion_lat": 0.0, "rental_uris": {"ios": "https://dc.lft.to/lastmile_qr_scan", "android": "https://dc.lft.to/lastmile_qr_scan"}, "lon": -77.01207116666667, "type": "electric_bike"}, {"bike_id": "63b2358d16d439348b5db85424c49926", "is_reserved": 0, "fusion_lon": 0.0, "lat": 38.92153116666667, "is_disabled": 0, "name": "63b2358d16d439348b5db85424c49926", "fusion_lat": 0.0, "rental_uris": {"ios": "https://dc.lft.to/lastmile_qr_scan", "android": "https://dc.lft.to/lastmile_qr_scan"}, "lon": -77.03530866666667, "type": "electric_scooter"}, {"bike_id": "2b32eb9689a95aacd75274e9b461bf3d", "is_reserved": 0, "fusion_lon": 0.0, "lat": 38.90008566666667, "is_disabled": 0, "name": "2b32eb9689a95aacd75274e9b461bf3d", "fusion_lat": 0.0, "rental_uris": {"ios": "https://dc.lft.to/lastmile_qr_scan", "android": "https://dc.lft.to/lastmile_qr_scan"}, "lon": -76.99797166666667, "type": "electric_scooter"}, {"bike_id": "ed96e9399fab916f77e89bc1619e008d", "is_reserved": 0, "fusion_lon": 0.0, "lat": 39.09459666666667, "is_disabled": 0, "name": "ed96e9399fab916f77e89bc1619e008d", "fusion_lat": 0.0, "rental_uris": {"ios": "https://dc.lft.to/lastmile_qr_scan", "android": "https://dc.lft.to/lastmile_qr_scan"}, "lon": -77.14991916666666, "type": "electric_bike"}, {"bike_id": "5437d64cce07565f62e9e7c14e677409", "is_reserved": 0, "fusion_lon": 0.0, "lat": 38.8984795, "is_disabled": 0, "name": "5437d64cce07565f62e9e7c14e677409", "fusion_lat": 0.0, "rental_uris": {"ios": "https://dc.lft.to/lastmile_qr_scan", "android": "https://dc.lft.to/lastmile_qr_scan"}, "lon": -76.94473316666667, "type": "electric_scooter"}, {"bike_id": "9dfbfddb5bab41938624eff439872f10", "is_reserved": 0, "fusion_lon": 0.0, "lat": 38.90366983333333, "is_disabled": 0, "name": "9dfbfddb5bab41938624eff439872f10", "fusion_lat": 0.0, "rental_uris": {"ios": "https://dc.lft.to/lastmile_qr_scan", "android": "https://dc.lft.to/lastmile_qr_scan"}, "lon": -77.045258, "type": "electric_scooter"}, {"bike_id": "739cf2c13f1a521f7a89658b8c730db3", "is_reserved": 0, "fusion_lon": 0.0, "lat": 38.827917666666664, "is_disabled": 0, "name": "739cf2c13f1a521f7a89658b8c730db3", "fusion_lat": 0.0, "rental_uris": {"ios": "https://dc.lft.to/lastmile_qr_scan", "android": "https://dc.lft.to/lastmile_qr_scan"}, "lon": -77.009072, "type": "electric_bike"}, {"bike_id": "12bee1e6b148c1b20687065b1add6b04", "is_reserved": 0, "fusion_lon": 0.0, "lat": 38.862863, "is_disabled": 0, "name": "12bee1e6b148c1b20687065b1add6b04", "fusion_lat": 0.0, "rental_uris": {"ios": "https://dc.lft.to/lastmile_qr_scan", "android": "https://dc.lft.to/lastmile_qr_scan"}, "lon": -76.99236566666667, "type": "electric_scooter"}, {"bike_id": "fa2d8b7cd29e9316d7fba8f426df464c", "is_reserved": 0, "fusion_lon": 0.0, "lat": 38.900241, "is_disabled": 0, "name": "fa2d8b7cd29e9316d7fba8f426df464c", "fusion_lat": 0.0, "rental_uris": {"ios": "https://dc.lft.to/lastmile_qr_scan", "android": "https://dc.lft.to/lastmile_qr_scan"}, "lon": -77.02607283333333, "type": "electric_scooter"}, {"bike_id": "10d9a08df3eb69d5b75375b0aa497dc4", "is_reserved": 0, "fusion_lon": 0.0, "lat": 38.892018, "is_disabled": 0, "name": "10d9a08df3eb69d5b75375b0aa497dc4", "fusion_lat": 0.0, "rental_uris": {"ios": "https://dc.lft.to/lastmile_qr_scan", "android": "https://dc.lft.to/lastmile_qr_scan"}, "lon": -77.02381283333334, "type": "electric_scooter"}, {"bike_id": "4ff0b9c3e6ae8eb3e5f3018f9a7da26b", "is_reserved": 0, "fusion_lon": 0.0, "lat": 38.872615, "is_disabled": 0, "name": "4ff0b9c3e6ae8eb3e5f3018f9a7da26b", "fusion_lat": 0.0, "rental_uris": {"ios": "https://dc.lft.to/lastmile_qr_scan", "android": "https://dc.lft.to/lastmile_qr_scan"}, "lon": -76.97911283333333, "type": "electric_bike"}, {"bike_id": "17da1b15aca06d4c0b98f8b9a4ab15c1", "is_reserved": 0, "fusion_lon": 0.0, "lat": 38.902859666666664, "is_disabled": 0, "name": "17da1b15aca06d4c0b98f8b9a4ab15c1", "fusion_lat": 0.0, "rental_uris": {"ios": "https://dc.lft.to/lastmile_qr_scan", "android": "https://dc.lft.to/lastmile_qr_scan"}, "lon": -77.038424, "type": "electric_scooter"}, {"bike_id": "287fcd26a499e2254b3be51d3fb4d2c7", "is_reserved": 0, "fusion_lon": 0.0, "lat": 38.9024625, "is_disabled": 0, "name": "287fcd26a499e2254b3be51d3fb4d2c7", "fusion_lat": 0.0, "rental_uris": {"ios": "https://dc.lft.to/lastmile_qr_scan", "android": "https://dc.lft.to/lastmile_qr_scan"}, "lon": -77.039598, "type": "electric_scooter"}, {"bike_id": "d79c05eb2bd22e6ceaad044593fcaa74", "is_reserved": 0, "fusion_lon": 0.0, "lat": 38.903800333333336, "is_disabled": 0, "name": "d79c05eb2bd22e6ceaad044593fcaa74", "fusion_lat": 0.0, "rental_uris": {"ios": "https://dc.lft.to/lastmile_qr_scan", "android": "https://dc.lft.to/lastmile_qr_scan"}, "lon": -77.0452425, "type": "electric_scooter"}, {"bike_id": "4cb91613dd82772257fbccdb33728f18", "is_reserved": 0, "fusion_lon": 0.0, "lat": 38.890055, "is_disabled": 0, "name": "4cb91613dd82772257fbccdb33728f18", "fusion_lat": 0.0, "rental_uris": {"ios": "https://dc.lft.to/lastmile_qr_scan", "android": "https://dc.lft.to/lastmile_qr_scan"}, "lon": -76.9374245, "type": "electric_scooter"}, {"bike_id": "f6989254c22d5e5f7b2d9c3e5c281b1b", "is_reserved": 0, "fusion_lon": 0.0, "lat": 38.9351605, "is_disabled": 0, "name": "f6989254c22d5e5f7b2d9c3e5c281b1b", "fusion_lat": 0.0, "rental_uris": {"ios": "https://dc.lft.to/lastmile_qr_scan", "android": "https://dc.lft.to/lastmile_qr_scan"}, "lon": -77.03298783333334, "type": "electric_scooter"}, {"bike_id": "51d52e35d4e0cd7623e62d2e1c4f9a20", "is_reserved": 0, "fusion_lon": 0.0, "lat": 38.89229533333334, "is_disabled": 0, "name": "51d52e35d4e0cd7623e62d2e1c4f9a20", "fusion_lat": 0.0, "rental_uris": {"ios": "https://dc.lft.to/lastmile_qr_scan", "android": "https://dc.lft.to/lastmile_qr_scan"}, "lon": -77.032214, "type": "electric_scooter"}, {"bike_id": "88bb374355c73e34302fb7162053dff6", "is_reserved": 0, "fusion_lon": 0.0, "lat": 38.90526066666666, "is_disabled": 0, "name": "88bb374355c73e34302fb7162053dff6", "fusion_lat": 0.0, "rental_uris": {"ios": "https://dc.lft.to/lastmile_qr_scan", "android": "https://dc.lft.to/lastmile_qr_scan"}, "lon": -77.0500865, "type": "electric_scooter"}, {"bike_id": "3473c8d980a4d5b2cb60de8f2bfc283f", "is_reserved": 0, "fusion_lon": 0.0, "lat": 38.916224, "is_disabled": 0, "name": "3473c8d980a4d5b2cb60de8f2bfc283f", "fusion_lat": 0.0, "rental_uris": {"ios": "https://dc.lft.to/lastmile_qr_scan", "android": "https://dc.lft.to/lastmile_qr_scan"}, "lon": -77.02287866666667, "type": "electric_scooter"}, {"bike_id": "63edadeaed980e0859d1a84675a4a7cd", "is_reserved": 0, "fusion_lon": 0.0, "lat": 38.92400383333333, "is_disabled": 0, "name": "63edadeaed980e0859d1a84675a4a7cd", "fusion_lat": 0.0, "rental_uris": {"ios": "https://dc.lft.to/lastmile_qr_scan", "android": "https://dc.lft.to/lastmile_qr_scan"}, "lon": -77.01957583333333, "type": "electric_scooter"}, {"bike_id": "a277d02982dc5c68b64b10a8dedeccf6", "is_reserved": 0, "fusion_lon": 0.0, "lat": 38.88677766666667, "is_disabled": 0, "name": "a277d02982dc5c68b64b10a8dedeccf6", "fusion_lat": 0.0, "rental_uris": {"ios": "https://dc.lft.to/lastmile_qr_scan", "android": "https://dc.lft.to/lastmile_qr_scan"}, "lon": -77.01367016666667, "type": "electric_scooter"}, {"bike_id": "64109eb14face2622107eee018978e1c", "is_reserved": 0, "fusion_lon": 0.0, "lat": 38.91206616666667, "is_disabled": 0, "name": "64109eb14face2622107eee018978e1c", "fusion_lat": 0.0, "rental_uris": {"ios": "https://dc.lft.to/lastmile_qr_scan", "android": "https://dc.lft.to/lastmile_qr_scan"}, "lon": -77.02959833333334, "type": "electric_scooter"}, {"bike_id": "e0d5988e291c12a48b2ed49823d252b9", "is_reserved": 0, "fusion_lon": 0.0, "lat": 38.91569483333333, "is_disabled": 0, "name": "e0d5988e291c12a48b2ed49823d252b9", "fusion_lat": 0.0, "rental_uris": {"ios": "https://dc.lft.to/lastmile_qr_scan", "android": "https://dc.lft.to/lastmile_qr_scan"}, "lon": -77.03369883333333, "type": "electric_scooter"}, {"bike_id": "791af89fd5f936ab1d7519f60a4bb6be", "is_reserved": 0, "fusion_lon": 0.0, "lat": 38.906471833333335, "is_disabled": 0, "name": "791af89fd5f936ab1d7519f60a4bb6be", "fusion_lat": 0.0, "rental_uris": {"ios": "https://dc.lft.to/lastmile_qr_scan", "android": "https://dc.lft.to/lastmile_qr_scan"}, "lon": -77.00992316666667, "type": "electric_scooter"}, {"bike_id": "46be3d31b8e0f1d5d06c3624e7ee165b", "is_reserved": 0, "fusion_lon": 0.0, "lat": 38.906598333333335, "is_disabled": 0, "name": "46be3d31b8e0f1d5d06c3624e7ee165b", "fusion_lat": 0.0, "rental_uris": {"ios": "https://dc.lft.to/lastmile_qr_scan", "android": "https://dc.lft.to/lastmile_qr_scan"}, "lon": -77.038991, "type": "electric_scooter"}, {"bike_id": "e3ba807497a661e8b4bb97f3de759e6c", "is_reserved": 0, "fusion_lon": 0.0, "lat": 38.914123000000004, "is_disabled": 0, "name": "e3ba807497a661e8b4bb97f3de759e6c", "fusion_lat": 0.0, "rental_uris": {"ios": "https://dc.lft.to/lastmile_qr_scan", "android": "https://dc.lft.to/lastmile_qr_scan"}, "lon": -77.02680333333333, "type": "electric_scooter"}, {"bike_id": "f20d93871f583ee82812ac248049ab74", "is_reserved": 0, "fusion_lon": 0.0, "lat": 38.907988833333334, "is_disabled": 0, "name": "f20d93871f583ee82812ac248049ab74", "fusion_lat": 0.0, "rental_uris": {"ios": "https://dc.lft.to/lastmile_qr_scan", "android": "https://dc.lft.to/lastmile_qr_scan"}, "lon": -77.00023616666667, "type": "electric_scooter"}, {"bike_id": "f1fad5b68c082118d821d7d2edc3b01a", "is_reserved": 0, "fusion_lon": 0.0, "lat": 38.917518666666666, "is_disabled": 0, "name": "f1fad5b68c082118d821d7d2edc3b01a", "fusion_lat": 0.0, "rental_uris": {"ios": "https://dc.lft.to/lastmile_qr_scan", "android": "https://dc.lft.to/lastmile_qr_scan"}, "lon": -76.98957716666666, "type": "electric_bike"}, {"bike_id": "25215e77746586c31301e470cd23342f", "is_reserved": 0, "fusion_lon": 0.0, "lat": 38.92653166666667, "is_disabled": 0, "name": "25215e77746586c31301e470cd23342f", "fusion_lat": 0.0, "rental_uris": {"ios": "https://dc.lft.to/lastmile_qr_scan", "android": "https://dc.lft.to/lastmile_qr_scan"}, "lon": -77.0372805, "type": "electric_scooter"}, {"bike_id": "eb6f0430b6a2b17cdf8c0fc27fb3aaba", "is_reserved": 0, "fusion_lon": 0.0, "lat": 38.906525333333335, "is_disabled": 0, "name": "eb6f0430b6a2b17cdf8c0fc27fb3aaba", "fusion_lat": 0.0, "rental_uris": {"ios": "https://dc.lft.to/lastmile_qr_scan", "android": "https://dc.lft.to/lastmile_qr_scan"}, "lon": -77.050138, "type": "electric_scooter"}, {"bike_id": "9efb8bb8ad3ebf92742764ed781fb377", "is_reserved": 0, "fusion_lon": 0.0, "lat": 38.9096575, "is_disabled": 0, "name": "9efb8bb8ad3ebf92742764ed781fb377", "fusion_lat": 0.0, "rental_uris": {"ios": "https://dc.lft.to/lastmile_qr_scan", "android": "https://dc.lft.to/lastmile_qr_scan"}, "lon": -77.03456916666667, "type": "electric_scooter"}, {"bike_id": "67a110cae42ae20a30c182f0707f8cad", "is_reserved": 0, "fusion_lon": 0.0, "lat": 38.90391533333333, "is_disabled": 0, "name": "67a110cae42ae20a30c182f0707f8cad", "fusion_lat": 0.0, "rental_uris": {"ios": "https://dc.lft.to/lastmile_qr_scan", "android": "https://dc.lft.to/lastmile_qr_scan"}, "lon": -77.02994616666666, "type": "electric_scooter"}, {"bike_id": "b79543fbcaeee105b71b78f51bcafff7", "is_reserved": 0, "fusion_lon": 0.0, "lat": 38.938543, "is_disabled": 0, "name": "b79543fbcaeee105b71b78f51bcafff7", "fusion_lat": 0.0, "rental_uris": {"ios": "https://dc.lft.to/lastmile_qr_scan", "android": "https://dc.lft.to/lastmile_qr_scan"}, "lon": -77.0245675, "type": "electric_scooter"}, {"bike_id": "cc13e1b5a09dfd1ef5ff4e670ee91525", "is_reserved": 0, "fusion_lon": 0.0, "lat": 38.901080666666665, "is_disabled": 0, "name": "cc13e1b5a09dfd1ef5ff4e670ee91525", "fusion_lat": 0.0, "rental_uris": {"ios": "https://dc.lft.to/lastmile_qr_scan", "android": "https://dc.lft.to/lastmile_qr_scan"}, "lon": -77.0317765, "type": "electric_scooter"}, {"bike_id": "c3af4ff5ee354c46cf2112968e39766f", "is_reserved": 0, "fusion_lon": 0.0, "lat": 38.91029833333333, "is_disabled": 0, "name": "c3af4ff5ee354c46cf2112968e39766f", "fusion_lat": 0.0, "rental_uris": {"ios": "https://dc.lft.to/lastmile_qr_scan", "android": "https://dc.lft.to/lastmile_qr_scan"}, "lon": -77.03858466666667, "type": "electric_scooter"}, {"bike_id": "f84c04273eb05db77ca743985c0501b3", "is_reserved": 0, "fusion_lon": 0.0, "lat": 38.919885666666666, "is_disabled": 0, "name": "f84c04273eb05db77ca743985c0501b3", "fusion_lat": 0.0, "rental_uris": {"ios": "https://dc.lft.to/lastmile_qr_scan", "android": "https://dc.lft.to/lastmile_qr_scan"}, "lon": -77.02175733333333, "type": "electric_scooter"}, {"bike_id": "d5a881a3259217bdf6e44585c8b995cb", "is_reserved": 0, "fusion_lon": 0.0, "lat": 38.86529, "is_disabled": 0, "name": "d5a881a3259217bdf6e44585c8b995cb", "fusion_lat": 0.0, "rental_uris": {"ios": "https://dc.lft.to/lastmile_qr_scan", "android": "https://dc.lft.to/lastmile_qr_scan"}, "lon": -76.99030166666667, "type": "electric_scooter"}, {"bike_id": "7f7aac6f8aeb2d022569613f0c17a6cf", "is_reserved": 0, "fusion_lon": 0.0, "lat": 38.88718333333333, "is_disabled": 0, "name": "7f7aac6f8aeb2d022569613f0c17a6cf", "fusion_lat": 0.0, "rental_uris": {"ios": "https://dc.lft.to/lastmile_qr_scan", "android": "https://dc.lft.to/lastmile_qr_scan"}, "lon": -77.02582533333333, "type": "electric_scooter"}, {"bike_id": "3b430e92264249a2287d2be663e31e95", "is_reserved": 0, "fusion_lon": 0.0, "lat": 38.898681833333335, "is_disabled": 0, "name": "3b430e92264249a2287d2be663e31e95", "fusion_lat": 0.0, "rental_uris": {"ios": "https://dc.lft.to/lastmile_qr_scan", "android": "https://dc.lft.to/lastmile_qr_scan"}, "lon": -77.032726, "type": "electric_scooter"}, {"bike_id": "5d9ce1477da22c0501208145ee97e0a0", "is_reserved": 0, "fusion_lon": 0.0, "lat": 38.856826833333336, "is_disabled": 0, "name": "5d9ce1477da22c0501208145ee97e0a0", "fusion_lat": 0.0, "rental_uris": {"ios": "https://dc.lft.to/lastmile_qr_scan", "android": "https://dc.lft.to/lastmile_qr_scan"}, "lon": -77.085707, "type": "electric_bike"}, {"bike_id": "92cfae27cc2bdc8d7f5ca44c212cd4d4", "is_reserved": 0, "fusion_lon": 0.0, "lat": 38.871205, "is_disabled": 0, "name": "92cfae27cc2bdc8d7f5ca44c212cd4d4", "fusion_lat": 0.0, "rental_uris": {"ios": "https://dc.lft.to/lastmile_qr_scan", "android": "https://dc.lft.to/lastmile_qr_scan"}, "lon": -76.977462, "type": "electric_scooter"}, {"bike_id": "5205ba37434d9840fffd5217a4a3c938", "is_reserved": 0, "fusion_lon": 0.0, "lat": 38.863726166666666, "is_disabled": 0, "name": "5205ba37434d9840fffd5217a4a3c938", "fusion_lat": 0.0, "rental_uris": {"ios": "https://dc.lft.to/lastmile_qr_scan", "android": "https://dc.lft.to/lastmile_qr_scan"}, "lon": -76.99061833333333, "type": "electric_scooter"}, {"bike_id": "ddcc809f9508a8878304a829eabda207", "is_reserved": 0, "fusion_lon": 0.0, "lat": 38.900284, "is_disabled": 0, "name": "ddcc809f9508a8878304a829eabda207", "fusion_lat": 0.0, "rental_uris": {"ios": "https://dc.lft.to/lastmile_qr_scan", "android": "https://dc.lft.to/lastmile_qr_scan"}, "lon": -77.02963866666667, "type": "electric_bike"}, {"bike_id": "0ac5c9964105545835cd1ac2c6435687", "is_reserved": 0, "fusion_lon": 0.0, "lat": 38.924768666666665, "is_disabled": 0, "name": "0ac5c9964105545835cd1ac2c6435687", "fusion_lat": 0.0, "rental_uris": {"ios": "https://dc.lft.to/lastmile_qr_scan", "android": "https://dc.lft.to/lastmile_qr_scan"}, "lon": -77.052084, "type": "electric_scooter"}, {"bike_id": "47e8ab8c614a53143af682182692d4a8", "is_reserved": 0, "fusion_lon": 0.0, "lat": 38.92054783333333, "is_disabled": 0, "name": "47e8ab8c614a53143af682182692d4a8", "fusion_lat": 0.0, "rental_uris": {"ios": "https://dc.lft.to/lastmile_qr_scan", "android": "https://dc.lft.to/lastmile_qr_scan"}, "lon": -77.02429, "type": "electric_scooter"}, {"bike_id": "4f8e17d4023a92fbec7b709d513ae789", "is_reserved": 0, "fusion_lon": 0.0, "lat": 38.903944333333335, "is_disabled": 0, "name": "4f8e17d4023a92fbec7b709d513ae789", "fusion_lat": 0.0, "rental_uris": {"ios": "https://dc.lft.to/lastmile_qr_scan", "android": "https://dc.lft.to/lastmile_qr_scan"}, "lon": -77.00655466666667, "type": "electric_scooter"}, {"bike_id": "170c015c77963d314449a228ed3dad2c", "is_reserved": 0, "fusion_lon": 0.0, "lat": 38.852915333333335, "is_disabled": 0, "name": "170c015c77963d314449a228ed3dad2c", "fusion_lat": 0.0, "rental_uris": {"ios": "https://dc.lft.to/lastmile_qr_scan", "android": "https://dc.lft.to/lastmile_qr_scan"}, "lon": -77.052776, "type": "electric_bike"}, {"bike_id": "4614fb52f5a4e1b50f4cea909cd168d8", "is_reserved": 0, "fusion_lon": 0.0, "lat": 38.89624083333333, "is_disabled": 0, "name": "4614fb52f5a4e1b50f4cea909cd168d8", "fusion_lat": 0.0, "rental_uris": {"ios": "https://dc.lft.to/lastmile_qr_scan", "android": "https://dc.lft.to/lastmile_qr_scan"}, "lon": -77.04491083333333, "type": "electric_scooter"}, {"bike_id": "e7c8e8d0dc7f0bfee3fbcff25c16c54d", "is_reserved": 0, "fusion_lon": 0.0, "lat": 38.896119, "is_disabled": 0, "name": "e7c8e8d0dc7f0bfee3fbcff25c16c54d", "fusion_lat": 0.0, "rental_uris": {"ios": "https://dc.lft.to/lastmile_qr_scan", "android": "https://dc.lft.to/lastmile_qr_scan"}, "lon": -77.04596166666667, "type": "electric_scooter"}, {"bike_id": "2d36d2071c69e883ad0c039e677e7e40", "is_reserved": 0, "fusion_lon": 0.0, "lat": 38.89859466666667, "is_disabled": 0, "name": "2d36d2071c69e883ad0c039e677e7e40", "fusion_lat": 0.0, "rental_uris": {"ios": "https://dc.lft.to/lastmile_qr_scan", "android": "https://dc.lft.to/lastmile_qr_scan"}, "lon": -77.03277583333333, "type": "electric_scooter"}, {"bike_id": "6f8340d55907ac2c5c3baca4b9fca120", "is_reserved": 0, "fusion_lon": 0.0, "lat": 38.9236545, "is_disabled": 0, "name": "6f8340d55907ac2c5c3baca4b9fca120", "fusion_lat": 0.0, "rental_uris": {"ios": "https://dc.lft.to/lastmile_qr_scan", "android": "https://dc.lft.to/lastmile_qr_scan"}, "lon": -77.01951883333334, "type": "electric_scooter"}, {"bike_id": "20e29b6c3a3b20f960812075217fe0e7", "is_reserved": 0, "fusion_lon": 0.0, "lat": 38.903658666666665, "is_disabled": 0, "name": "20e29b6c3a3b20f960812075217fe0e7", "fusion_lat": 0.0, "rental_uris": {"ios": "https://dc.lft.to/lastmile_qr_scan", "android": "https://dc.lft.to/lastmile_qr_scan"}, "lon": -77.04339966666667, "type": "electric_scooter"}, {"bike_id": "608447410c286eedbca38f4feed2eb46", "is_reserved": 0, "fusion_lon": 0.0, "lat": 38.915817, "is_disabled": 0, "name": "608447410c286eedbca38f4feed2eb46", "fusion_lat": 0.0, "rental_uris": {"ios": "https://dc.lft.to/lastmile_qr_scan", "android": "https://dc.lft.to/lastmile_qr_scan"}, "lon": -77.01236383333334, "type": "electric_scooter"}, {"bike_id": "a0da6f853a2c0176a7f0cc7eaaa283f8", "is_reserved": 0, "fusion_lon": 0.0, "lat": 38.901653333333336, "is_disabled": 0, "name": "a0da6f853a2c0176a7f0cc7eaaa283f8", "fusion_lat": 0.0, "rental_uris": {"ios": "https://dc.lft.to/lastmile_qr_scan", "android": "https://dc.lft.to/lastmile_qr_scan"}, "lon": -76.98072033333334, "type": "electric_scooter"}, {"bike_id": "8d6aa470eaa3bd7264bbd384326d088a", "is_reserved": 0, "fusion_lon": 0.0, "lat": 38.8739125, "is_disabled": 0, "name": "8d6aa470eaa3bd7264bbd384326d088a", "fusion_lat": 0.0, "rental_uris": {"ios": "https://dc.lft.to/lastmile_qr_scan", "android": "https://dc.lft.to/lastmile_qr_scan"}, "lon": -77.000885, "type": "electric_scooter"}, {"bike_id": "a482d135852eb1941f033b1e5a20ac83", "is_reserved": 0, "fusion_lon": 0.0, "lat": 38.91770566666667, "is_disabled": 0, "name": "a482d135852eb1941f033b1e5a20ac83", "fusion_lat": 0.0, "rental_uris": {"ios": "https://dc.lft.to/lastmile_qr_scan", "android": "https://dc.lft.to/lastmile_qr_scan"}, "lon": -77.04752866666666, "type": "electric_scooter"}, {"bike_id": "b88e02782e1ade9fcf1bdb317f78d8f9", "is_reserved": 0, "fusion_lon": 0.0, "lat": 38.92667083333333, "is_disabled": 0, "name": "b88e02782e1ade9fcf1bdb317f78d8f9", "fusion_lat": 0.0, "rental_uris": {"ios": "https://dc.lft.to/lastmile_qr_scan", "android": "https://dc.lft.to/lastmile_qr_scan"}, "lon": -76.99538733333333, "type": "electric_scooter"}, {"bike_id": "4b8df3483ebb97e4c21e3a7e2a1a043c", "is_reserved": 0, "fusion_lon": 0.0, "lat": 38.87630433333333, "is_disabled": 0, "name": "4b8df3483ebb97e4c21e3a7e2a1a043c", "fusion_lat": 0.0, "rental_uris": {"ios": "https://dc.lft.to/lastmile_qr_scan", "android": "https://dc.lft.to/lastmile_qr_scan"}, "lon": -76.9652635, "type": "electric_scooter"}, {"bike_id": "40f63e509801e2a85026361d1319aa2f", "is_reserved": 0, "fusion_lon": 0.0, "lat": 38.90518383333333, "is_disabled": 0, "name": "40f63e509801e2a85026361d1319aa2f", "fusion_lat": 0.0, "rental_uris": {"ios": "https://dc.lft.to/lastmile_qr_scan", "android": "https://dc.lft.to/lastmile_qr_scan"}, "lon": -77.05011433333334, "type": "electric_scooter"}, {"bike_id": "9d6ad92ce332dcfadcae8ea0c2142e3f", "is_reserved": 0, "fusion_lon": 0.0, "lat": 38.8932895, "is_disabled": 0, "name": "9d6ad92ce332dcfadcae8ea0c2142e3f", "fusion_lat": 0.0, "rental_uris": {"ios": "https://dc.lft.to/lastmile_qr_scan", "android": "https://dc.lft.to/lastmile_qr_scan"}, "lon": -76.92991466666666, "type": "electric_scooter"}, {"bike_id": "781cbcfb67ef508145dac167cff33a08", "is_reserved": 0, "fusion_lon": 0.0, "lat": 38.89849483333333, "is_disabled": 0, "name": "781cbcfb67ef508145dac167cff33a08", "fusion_lat": 0.0, "rental_uris": {"ios": "https://dc.lft.to/lastmile_qr_scan", "android": "https://dc.lft.to/lastmile_qr_scan"}, "lon": -77.007494, "type": "electric_scooter"}, {"bike_id": "bfc49eddf26e9423a5e4bf389b782ef4", "is_reserved": 0, "fusion_lon": 0.0, "lat": 38.90122433333333, "is_disabled": 0, "name": "bfc49eddf26e9423a5e4bf389b782ef4", "fusion_lat": 0.0, "rental_uris": {"ios": "https://dc.lft.to/lastmile_qr_scan", "android": "https://dc.lft.to/lastmile_qr_scan"}, "lon": -77.02792883333333, "type": "electric_scooter"}, {"bike_id": "e56d853a9b809576514a3e0fca0bc883", "is_reserved": 0, "fusion_lon": 0.0, "lat": 38.89823, "is_disabled": 0, "name": "e56d853a9b809576514a3e0fca0bc883", "fusion_lat": 0.0, "rental_uris": {"ios": "https://dc.lft.to/lastmile_qr_scan", "android": "https://dc.lft.to/lastmile_qr_scan"}, "lon": -76.9465115, "type": "electric_scooter"}, {"bike_id": "026f4bcbbc5e3500c86589572d61c91f", "is_reserved": 0, "fusion_lon": 0.0, "lat": 38.9006905, "is_disabled": 0, "name": "026f4bcbbc5e3500c86589572d61c91f", "fusion_lat": 0.0, "rental_uris": {"ios": "https://dc.lft.to/lastmile_qr_scan", "android": "https://dc.lft.to/lastmile_qr_scan"}, "lon": -77.0272035, "type": "electric_scooter"}, {"bike_id": "20638b830cd3763844df12a64a411bb4", "is_reserved": 0, "fusion_lon": 0.0, "lat": 38.839891333333334, "is_disabled": 0, "name": "20638b830cd3763844df12a64a411bb4", "fusion_lat": 0.0, "rental_uris": {"ios": "https://dc.lft.to/lastmile_qr_scan", "android": "https://dc.lft.to/lastmile_qr_scan"}, "lon": -77.00567033333333, "type": "electric_bike"}, {"bike_id": "62a9def3b801100174770a8d790668c7", "is_reserved": 0, "fusion_lon": 0.0, "lat": 38.93860083333333, "is_disabled": 0, "name": "62a9def3b801100174770a8d790668c7", "fusion_lat": 0.0, "rental_uris": {"ios": "https://dc.lft.to/lastmile_qr_scan", "android": "https://dc.lft.to/lastmile_qr_scan"}, "lon": -77.0245905, "type": "electric_scooter"}, {"bike_id": "fee8504f03de342bd221746b00bec528", "is_reserved": 0, "fusion_lon": 0.0, "lat": 38.900637833333334, "is_disabled": 0, "name": "fee8504f03de342bd221746b00bec528", "fusion_lat": 0.0, "rental_uris": {"ios": "https://dc.lft.to/lastmile_qr_scan", "android": "https://dc.lft.to/lastmile_qr_scan"}, "lon": -77.05147733333334, "type": "electric_scooter"}, {"bike_id": "9c23887a7e07db52331ab5f88ad00fd9", "is_reserved": 0, "fusion_lon": 0.0, "lat": 38.89491, "is_disabled": 0, "name": "9c23887a7e07db52331ab5f88ad00fd9", "fusion_lat": 0.0, "rental_uris": {"ios": "https://dc.lft.to/lastmile_qr_scan", "android": "https://dc.lft.to/lastmile_qr_scan"}, "lon": -77.0228275, "type": "electric_scooter"}, {"bike_id": "3469d00ded0c9b938ee89cf2f27fa942", "is_reserved": 0, "fusion_lon": 0.0, "lat": 38.90518933333333, "is_disabled": 0, "name": "3469d00ded0c9b938ee89cf2f27fa942", "fusion_lat": 0.0, "rental_uris": {"ios": "https://dc.lft.to/lastmile_qr_scan", "android": "https://dc.lft.to/lastmile_qr_scan"}, "lon": -77.06750966666667, "type": "electric_scooter"}, {"bike_id": "e7167908356aa2a4b69fd1b9cdcbe087", "is_reserved": 0, "fusion_lon": 0.0, "lat": 38.90129916666667, "is_disabled": 0, "name": "e7167908356aa2a4b69fd1b9cdcbe087", "fusion_lat": 0.0, "rental_uris": {"ios": "https://dc.lft.to/lastmile_qr_scan", "android": "https://dc.lft.to/lastmile_qr_scan"}, "lon": -77.0282105, "type": "electric_scooter"}, {"bike_id": "0d405c90df75f5d11a2425440f8b23bb", "is_reserved": 0, "fusion_lon": 0.0, "lat": 38.9012625, "is_disabled": 0, "name": "0d405c90df75f5d11a2425440f8b23bb", "fusion_lat": 0.0, "rental_uris": {"ios": "https://dc.lft.to/lastmile_qr_scan", "android": "https://dc.lft.to/lastmile_qr_scan"}, "lon": -77.05036533333333, "type": "electric_scooter"}, {"bike_id": "dcc9c9e45f420b1906fd9ca93157c0b1", "is_reserved": 0, "fusion_lon": 0.0, "lat": 38.88135116666667, "is_disabled": 0, "name": "dcc9c9e45f420b1906fd9ca93157c0b1", "fusion_lat": 0.0, "rental_uris": {"ios": "https://dc.lft.to/lastmile_qr_scan", "android": "https://dc.lft.to/lastmile_qr_scan"}, "lon": -76.98093016666667, "type": "electric_bike"}, {"bike_id": "4dd4021781eb87ffd2a6a9786fd695c7", "is_reserved": 0, "fusion_lon": 0.0, "lat": 38.866573, "is_disabled": 0, "name": "4dd4021781eb87ffd2a6a9786fd695c7", "fusion_lat": 0.0, "rental_uris": {"ios": "https://dc.lft.to/lastmile_qr_scan", "android": "https://dc.lft.to/lastmile_qr_scan"}, "lon": -76.99015383333334, "type": "electric_scooter"}, {"bike_id": "c1be38d3364778f1f5f154c8e7c84442", "is_reserved": 0, "fusion_lon": 0.0, "lat": 38.89843316666666, "is_disabled": 0, "name": "c1be38d3364778f1f5f154c8e7c84442", "fusion_lat": 0.0, "rental_uris": {"ios": "https://dc.lft.to/lastmile_qr_scan", "android": "https://dc.lft.to/lastmile_qr_scan"}, "lon": -77.02469783333333, "type": "electric_bike"}, {"bike_id": "9e926378191593ab4622bb9fbccac971", "is_reserved": 0, "fusion_lon": 0.0, "lat": 38.930800833333336, "is_disabled": 0, "name": "9e926378191593ab4622bb9fbccac971", "fusion_lat": 0.0, "rental_uris": {"ios": "https://dc.lft.to/lastmile_qr_scan", "android": "https://dc.lft.to/lastmile_qr_scan"}, "lon": -77.0279455, "type": "electric_scooter"}, {"bike_id": "f2c645779a7f2dbbc1d784b6be7da8d4", "is_reserved": 0, "fusion_lon": 0.0, "lat": 38.902725833333335, "is_disabled": 0, "name": "f2c645779a7f2dbbc1d784b6be7da8d4", "fusion_lat": 0.0, "rental_uris": {"ios": "https://dc.lft.to/lastmile_qr_scan", "android": "https://dc.lft.to/lastmile_qr_scan"}, "lon": -77.039364, "type": "electric_scooter"}, {"bike_id": "e813567bbde7961cf0881c1e70135a08", "is_reserved": 0, "fusion_lon": 0.0, "lat": 38.90363766666667, "is_disabled": 0, "name": "e813567bbde7961cf0881c1e70135a08", "fusion_lat": 0.0, "rental_uris": {"ios": "https://dc.lft.to/lastmile_qr_scan", "android": "https://dc.lft.to/lastmile_qr_scan"}, "lon": -77.02942, "type": "electric_scooter"}, {"bike_id": "52004559cf8e93404a60ce918653f2f1", "is_reserved": 0, "fusion_lon": 0.0, "lat": 38.9136295, "is_disabled": 0, "name": "52004559cf8e93404a60ce918653f2f1", "fusion_lat": 0.0, "rental_uris": {"ios": "https://dc.lft.to/lastmile_qr_scan", "android": "https://dc.lft.to/lastmile_qr_scan"}, "lon": -77.046537, "type": "electric_scooter"}, {"bike_id": "84d763ea72dbb8bebe28f15cce798f8d", "is_reserved": 0, "fusion_lon": 0.0, "lat": 38.904673833333334, "is_disabled": 0, "name": "84d763ea72dbb8bebe28f15cce798f8d", "fusion_lat": 0.0, "rental_uris": {"ios": "https://dc.lft.to/lastmile_qr_scan", "android": "https://dc.lft.to/lastmile_qr_scan"}, "lon": -77.0395355, "type": "electric_scooter"}, {"bike_id": "152a040c03d4327d8b0c369d16462437", "is_reserved": 0, "fusion_lon": 0.0, "lat": 38.844273333333334, "is_disabled": 0, "name": "152a040c03d4327d8b0c369d16462437", "fusion_lat": 0.0, "rental_uris": {"ios": "https://dc.lft.to/lastmile_qr_scan", "android": "https://dc.lft.to/lastmile_qr_scan"}, "lon": -76.9978135, "type": "electric_scooter"}, {"bike_id": "7a91cedbbd04d3c845836d21d1366e46", "is_reserved": 0, "fusion_lon": 0.0, "lat": 38.9596035, "is_disabled": 0, "name": "7a91cedbbd04d3c845836d21d1366e46", "fusion_lat": 0.0, "rental_uris": {"ios": "https://dc.lft.to/lastmile_qr_scan", "android": "https://dc.lft.to/lastmile_qr_scan"}, "lon": -77.10092566666667, "type": "electric_bike"}, {"bike_id": "99f6239c91a2165623e72afd49fb497d", "is_reserved": 0, "fusion_lon": 0.0, "lat": 38.902836, "is_disabled": 0, "name": "99f6239c91a2165623e72afd49fb497d", "fusion_lat": 0.0, "rental_uris": {"ios": "https://dc.lft.to/lastmile_qr_scan", "android": "https://dc.lft.to/lastmile_qr_scan"}, "lon": -77.03337, "type": "electric_scooter"}, {"bike_id": "e7e2a5858c7d50e53efe4df5ca545214", "is_reserved": 0, "fusion_lon": 0.0, "lat": 38.903611833333336, "is_disabled": 0, "name": "e7e2a5858c7d50e53efe4df5ca545214", "fusion_lat": 0.0, "rental_uris": {"ios": "https://dc.lft.to/lastmile_qr_scan", "android": "https://dc.lft.to/lastmile_qr_scan"}, "lon": -77.04373533333333, "type": "electric_scooter"}, {"bike_id": "201f41133a37910b985fb62cba9a5900", "is_reserved": 0, "fusion_lon": 0.0, "lat": 38.87662183333333, "is_disabled": 0, "name": "201f41133a37910b985fb62cba9a5900", "fusion_lat": 0.0, "rental_uris": {"ios": "https://dc.lft.to/lastmile_qr_scan", "android": "https://dc.lft.to/lastmile_qr_scan"}, "lon": -77.00067666666666, "type": "electric_scooter"}, {"bike_id": "f4cc9bbd8cdb09c1a154beadbc457270", "is_reserved": 0, "fusion_lon": 0.0, "lat": 38.902407333333336, "is_disabled": 0, "name": "f4cc9bbd8cdb09c1a154beadbc457270", "fusion_lat": 0.0, "rental_uris": {"ios": "https://dc.lft.to/lastmile_qr_scan", "android": "https://dc.lft.to/lastmile_qr_scan"}, "lon": -77.02683666666667, "type": "electric_scooter"}, {"bike_id": "fe07bc011d4e80b8d539a48196022e82", "is_reserved": 0, "fusion_lon": 0.0, "lat": 38.88886766666667, "is_disabled": 0, "name": "fe07bc011d4e80b8d539a48196022e82", "fusion_lat": 0.0, "rental_uris": {"ios": "https://dc.lft.to/lastmile_qr_scan", "android": "https://dc.lft.to/lastmile_qr_scan"}, "lon": -77.033235, "type": "electric_bike"}, {"bike_id": "8868589da1359a5dbf9f49833c94c022", "is_reserved": 0, "fusion_lon": 0.0, "lat": 38.928532, "is_disabled": 0, "name": "8868589da1359a5dbf9f49833c94c022", "fusion_lat": 0.0, "rental_uris": {"ios": "https://dc.lft.to/lastmile_qr_scan", "android": "https://dc.lft.to/lastmile_qr_scan"}, "lon": -77.01383616666666, "type": "electric_scooter"}, {"bike_id": "ca6a44123fccd32d7eda13567be4dbcd", "is_reserved": 0, "fusion_lon": 0.0, "lat": 38.86711, "is_disabled": 0, "name": "ca6a44123fccd32d7eda13567be4dbcd", "fusion_lat": 0.0, "rental_uris": {"ios": "https://dc.lft.to/lastmile_qr_scan", "android": "https://dc.lft.to/lastmile_qr_scan"}, "lon": -76.98944833333333, "type": "electric_bike"}, {"bike_id": "99d921b92e80ab0baedb455dab7c958d", "is_reserved": 0, "fusion_lon": 0.0, "lat": 38.89753866666667, "is_disabled": 0, "name": "99d921b92e80ab0baedb455dab7c958d", "fusion_lat": 0.0, "rental_uris": {"ios": "https://dc.lft.to/lastmile_qr_scan", "android": "https://dc.lft.to/lastmile_qr_scan"}, "lon": -77.02741516666667, "type": "electric_scooter"}, {"bike_id": "9390b1689ef691fa9a8cd2bdb5a8f224", "is_reserved": 0, "fusion_lon": 0.0, "lat": 38.9056565, "is_disabled": 0, "name": "9390b1689ef691fa9a8cd2bdb5a8f224", "fusion_lat": 0.0, "rental_uris": {"ios": "https://dc.lft.to/lastmile_qr_scan", "android": "https://dc.lft.to/lastmile_qr_scan"}, "lon": -77.03633433333333, "type": "electric_scooter"}, {"bike_id": "a31d5acea157887b3a02c378bd1df79e", "is_reserved": 0, "fusion_lon": 0.0, "lat": 38.89545483333333, "is_disabled": 0, "name": "a31d5acea157887b3a02c378bd1df79e", "fusion_lat": 0.0, "rental_uris": {"ios": "https://dc.lft.to/lastmile_qr_scan", "android": "https://dc.lft.to/lastmile_qr_scan"}, "lon": -77.01892316666667, "type": "electric_scooter"}, {"bike_id": "76e58f05a2478e805140baadb4fcb011", "is_reserved": 0, "fusion_lon": 0.0, "lat": 38.8849865, "is_disabled": 0, "name": "76e58f05a2478e805140baadb4fcb011", "fusion_lat": 0.0, "rental_uris": {"ios": "https://dc.lft.to/lastmile_qr_scan", "android": "https://dc.lft.to/lastmile_qr_scan"}, "lon": -77.00726616666667, "type": "electric_scooter"}, {"bike_id": "a3accb44d8ab10c823cafd64fb09270a", "is_reserved": 0, "fusion_lon": 0.0, "lat": 38.96204316666667, "is_disabled": 0, "name": "a3accb44d8ab10c823cafd64fb09270a", "fusion_lat": 0.0, "rental_uris": {"ios": "https://dc.lft.to/lastmile_qr_scan", "android": "https://dc.lft.to/lastmile_qr_scan"}, "lon": -77.0223205, "type": "electric_bike"}, {"bike_id": "e74929945f049d29897bbce57ef99b8d", "is_reserved": 0, "fusion_lon": 0.0, "lat": 38.911993, "is_disabled": 0, "name": "e74929945f049d29897bbce57ef99b8d", "fusion_lat": 0.0, "rental_uris": {"ios": "https://dc.lft.to/lastmile_qr_scan", "android": "https://dc.lft.to/lastmile_qr_scan"}, "lon": -77.073166, "type": "electric_scooter"}, {"bike_id": "b0d79586ad046aa7d08c0b0f8c65ed10", "is_reserved": 0, "fusion_lon": 0.0, "lat": 38.914887666666665, "is_disabled": 0, "name": "b0d79586ad046aa7d08c0b0f8c65ed10", "fusion_lat": 0.0, "rental_uris": {"ios": "https://dc.lft.to/lastmile_qr_scan", "android": "https://dc.lft.to/lastmile_qr_scan"}, "lon": -77.032402, "type": "electric_scooter"}, {"bike_id": "98fe56eeda12223e034c9820658cab69", "is_reserved": 0, "fusion_lon": 0.0, "lat": 38.883723, "is_disabled": 0, "name": "98fe56eeda12223e034c9820658cab69", "fusion_lat": 0.0, "rental_uris": {"ios": "https://dc.lft.to/lastmile_qr_scan", "android": "https://dc.lft.to/lastmile_qr_scan"}, "lon": -76.99530333333334, "type": "electric_scooter"}, {"bike_id": "2253e27a26c3cd41839c625c4a4be0ee", "is_reserved": 0, "fusion_lon": 0.0, "lat": 38.91195666666667, "is_disabled": 0, "name": "2253e27a26c3cd41839c625c4a4be0ee", "fusion_lat": 0.0, "rental_uris": {"ios": "https://dc.lft.to/lastmile_qr_scan", "android": "https://dc.lft.to/lastmile_qr_scan"}, "lon": -77.06092766666667, "type": "electric_scooter"}, {"bike_id": "ceea8400e27dacc1cfe00ab4fe390685", "is_reserved": 0, "fusion_lon": 0.0, "lat": 38.903776, "is_disabled": 0, "name": "ceea8400e27dacc1cfe00ab4fe390685", "fusion_lat": 0.0, "rental_uris": {"ios": "https://dc.lft.to/lastmile_qr_scan", "android": "https://dc.lft.to/lastmile_qr_scan"}, "lon": -77.04191166666666, "type": "electric_scooter"}, {"bike_id": "55930dd06a07fb66d30fb4ca139bebe1", "is_reserved": 0, "fusion_lon": 0.0, "lat": 38.90687666666667, "is_disabled": 0, "name": "55930dd06a07fb66d30fb4ca139bebe1", "fusion_lat": 0.0, "rental_uris": {"ios": "https://dc.lft.to/lastmile_qr_scan", "android": "https://dc.lft.to/lastmile_qr_scan"}, "lon": -77.03811033333334, "type": "electric_scooter"}, {"bike_id": "4c99fd9079b733cd836544868eccb1a2", "is_reserved": 0, "fusion_lon": 0.0, "lat": 38.904698333333336, "is_disabled": 0, "name": "4c99fd9079b733cd836544868eccb1a2", "fusion_lat": 0.0, "rental_uris": {"ios": "https://dc.lft.to/lastmile_qr_scan", "android": "https://dc.lft.to/lastmile_qr_scan"}, "lon": -77.02937883333334, "type": "electric_scooter"}, {"bike_id": "45eaf806a4ac3d36848d5c228a8ea521", "is_reserved": 0, "fusion_lon": 0.0, "lat": 38.94533166666667, "is_disabled": 0, "name": "45eaf806a4ac3d36848d5c228a8ea521", "fusion_lat": 0.0, "rental_uris": {"ios": "https://dc.lft.to/lastmile_qr_scan", "android": "https://dc.lft.to/lastmile_qr_scan"}, "lon": -77.02213866666666, "type": "electric_scooter"}, {"bike_id": "2de2efca382ae93e47bed4553fdec35c", "is_reserved": 0, "fusion_lon": 0.0, "lat": 38.93234116666667, "is_disabled": 0, "name": "2de2efca382ae93e47bed4553fdec35c", "fusion_lat": 0.0, "rental_uris": {"ios": "https://dc.lft.to/lastmile_qr_scan", "android": "https://dc.lft.to/lastmile_qr_scan"}, "lon": -77.028284, "type": "electric_scooter"}, {"bike_id": "25c094b3ec5aacf843f75affd4a800e4", "is_reserved": 0, "fusion_lon": 0.0, "lat": 38.906491333333335, "is_disabled": 0, "name": "25c094b3ec5aacf843f75affd4a800e4", "fusion_lat": 0.0, "rental_uris": {"ios": "https://dc.lft.to/lastmile_qr_scan", "android": "https://dc.lft.to/lastmile_qr_scan"}, "lon": -77.04668533333333, "type": "electric_scooter"}, {"bike_id": "364742b3ae4bffe3dc94b5e8151954dc", "is_reserved": 0, "fusion_lon": 0.0, "lat": 38.868315833333334, "is_disabled": 0, "name": "364742b3ae4bffe3dc94b5e8151954dc", "fusion_lat": 0.0, "rental_uris": {"ios": "https://dc.lft.to/lastmile_qr_scan", "android": "https://dc.lft.to/lastmile_qr_scan"}, "lon": -76.98613983333334, "type": "electric_scooter"}, {"bike_id": "2bb8a95679b4bef3fcf11ecd59f542c6", "is_reserved": 0, "fusion_lon": 0.0, "lat": 38.90705366666667, "is_disabled": 0, "name": "2bb8a95679b4bef3fcf11ecd59f542c6", "fusion_lat": 0.0, "rental_uris": {"ios": "https://dc.lft.to/lastmile_qr_scan", "android": "https://dc.lft.to/lastmile_qr_scan"}, "lon": -76.98697633333333, "type": "electric_scooter"}, {"bike_id": "00d204d48cb13b8faaf3e56e8ea25e82", "is_reserved": 0, "fusion_lon": 0.0, "lat": 38.8802495, "is_disabled": 0, "name": "00d204d48cb13b8faaf3e56e8ea25e82", "fusion_lat": 0.0, "rental_uris": {"ios": "https://dc.lft.to/lastmile_qr_scan", "android": "https://dc.lft.to/lastmile_qr_scan"}, "lon": -77.00244883333333, "type": "electric_scooter"}, {"bike_id": "bac27bcdcb64f1c5d14da76f1779c255", "is_reserved": 0, "fusion_lon": 0.0, "lat": 38.892315833333335, "is_disabled": 0, "name": "bac27bcdcb64f1c5d14da76f1779c255", "fusion_lat": 0.0, "rental_uris": {"ios": "https://dc.lft.to/lastmile_qr_scan", "android": "https://dc.lft.to/lastmile_qr_scan"}, "lon": -77.02174916666667, "type": "electric_scooter"}, {"bike_id": "926c64d5dfd67db76bc7c964075a61a4", "is_reserved": 0, "fusion_lon": 0.0, "lat": 39.05634116666667, "is_disabled": 0, "name": "926c64d5dfd67db76bc7c964075a61a4", "fusion_lat": 0.0, "rental_uris": {"ios": "https://dc.lft.to/lastmile_qr_scan", "android": "https://dc.lft.to/lastmile_qr_scan"}, "lon": -77.12527083333333, "type": "electric_bike"}, {"bike_id": "9f4e51aaeb85488f5d03907c299ce695", "is_reserved": 0, "fusion_lon": 0.0, "lat": 38.9079745, "is_disabled": 0, "name": "9f4e51aaeb85488f5d03907c299ce695", "fusion_lat": 0.0, "rental_uris": {"ios": "https://dc.lft.to/lastmile_qr_scan", "android": "https://dc.lft.to/lastmile_qr_scan"}, "lon": -76.99697266666666, "type": "electric_scooter"}, {"bike_id": "262825e2eb756d3d618d2ebce89ab51a", "is_reserved": 0, "fusion_lon": 0.0, "lat": 38.8973345, "is_disabled": 0, "name": "262825e2eb756d3d618d2ebce89ab51a", "fusion_lat": 0.0, "rental_uris": {"ios": "https://dc.lft.to/lastmile_qr_scan", "android": "https://dc.lft.to/lastmile_qr_scan"}, "lon": -77.05569483333333, "type": "electric_scooter"}, {"bike_id": "6dc46297c19380f497cf477085505701", "is_reserved": 0, "fusion_lon": 0.0, "lat": 38.888489, "is_disabled": 0, "name": "6dc46297c19380f497cf477085505701", "fusion_lat": 0.0, "rental_uris": {"ios": "https://dc.lft.to/lastmile_qr_scan", "android": "https://dc.lft.to/lastmile_qr_scan"}, "lon": -76.92680233333333, "type": "electric_scooter"}, {"bike_id": "5406d3f33edb2f5a085257bd8979bf73", "is_reserved": 0, "fusion_lon": 0.0, "lat": 38.94806483333333, "is_disabled": 0, "name": "5406d3f33edb2f5a085257bd8979bf73", "fusion_lat": 0.0, "rental_uris": {"ios": "https://dc.lft.to/lastmile_qr_scan", "android": "https://dc.lft.to/lastmile_qr_scan"}, "lon": -77.07908683333333, "type": "electric_scooter"}, {"bike_id": "f80604ca5629b3c74c83620c8bb370dc", "is_reserved": 0, "fusion_lon": 0.0, "lat": 38.887516166666664, "is_disabled": 0, "name": "f80604ca5629b3c74c83620c8bb370dc", "fusion_lat": 0.0, "rental_uris": {"ios": "https://dc.lft.to/lastmile_qr_scan", "android": "https://dc.lft.to/lastmile_qr_scan"}, "lon": -77.03150683333334, "type": "electric_scooter"}, {"bike_id": "e2d3824ed9d4b0924129a2eebd64a05a", "is_reserved": 0, "fusion_lon": 0.0, "lat": 38.930916833333335, "is_disabled": 0, "name": "e2d3824ed9d4b0924129a2eebd64a05a", "fusion_lat": 0.0, "rental_uris": {"ios": "https://dc.lft.to/lastmile_qr_scan", "android": "https://dc.lft.to/lastmile_qr_scan"}, "lon": -77.03139, "type": "electric_scooter"}, {"bike_id": "15df337f0aa02886ec03b55577107c7a", "is_reserved": 0, "fusion_lon": 0.0, "lat": 38.94971666666667, "is_disabled": 0, "name": "15df337f0aa02886ec03b55577107c7a", "fusion_lat": 0.0, "rental_uris": {"ios": "https://dc.lft.to/lastmile_qr_scan", "android": "https://dc.lft.to/lastmile_qr_scan"}, "lon": -76.97281316666667, "type": "electric_bike"}, {"bike_id": "7a364154a648b4598e17c1e453e74393", "is_reserved": 0, "fusion_lon": 0.0, "lat": 38.903805, "is_disabled": 0, "name": "7a364154a648b4598e17c1e453e74393", "fusion_lat": 0.0, "rental_uris": {"ios": "https://dc.lft.to/lastmile_qr_scan", "android": "https://dc.lft.to/lastmile_qr_scan"}, "lon": -77.045101, "type": "electric_scooter"}, {"bike_id": "80084c19b9c4914e87c06eedebd4de5c", "is_reserved": 0, "fusion_lon": 0.0, "lat": 38.86618416666666, "is_disabled": 0, "name": "80084c19b9c4914e87c06eedebd4de5c", "fusion_lat": 0.0, "rental_uris": {"ios": "https://dc.lft.to/lastmile_qr_scan", "android": "https://dc.lft.to/lastmile_qr_scan"}, "lon": -76.94570666666667, "type": "electric_bike"}, {"bike_id": "f3ebe57592d55d2a5802a04ef8d48f4c", "is_reserved": 0, "fusion_lon": 0.0, "lat": 38.860005, "is_disabled": 0, "name": "f3ebe57592d55d2a5802a04ef8d48f4c", "fusion_lat": 0.0, "rental_uris": {"ios": "https://dc.lft.to/lastmile_qr_scan", "android": "https://dc.lft.to/lastmile_qr_scan"}, "lon": -77.05779033333333, "type": "electric_bike"}, {"bike_id": "33d22af2989234e4dc495346822dcc25", "is_reserved": 0, "fusion_lon": 0.0, "lat": 38.9008265, "is_disabled": 0, "name": "33d22af2989234e4dc495346822dcc25", "fusion_lat": 0.0, "rental_uris": {"ios": "https://dc.lft.to/lastmile_qr_scan", "android": "https://dc.lft.to/lastmile_qr_scan"}, "lon": -76.93858866666666, "type": "electric_scooter"}, {"bike_id": "e901091f987d0f56d9c088951fc8d525", "is_reserved": 0, "fusion_lon": 0.0, "lat": 38.91118633333333, "is_disabled": 0, "name": "e901091f987d0f56d9c088951fc8d525", "fusion_lat": 0.0, "rental_uris": {"ios": "https://dc.lft.to/lastmile_qr_scan", "android": "https://dc.lft.to/lastmile_qr_scan"}, "lon": -77.00600616666667, "type": "electric_scooter"}, {"bike_id": "6178f767f45b3d805892a2ac4a526266", "is_reserved": 0, "fusion_lon": 0.0, "lat": 38.90371533333333, "is_disabled": 0, "name": "6178f767f45b3d805892a2ac4a526266", "fusion_lat": 0.0, "rental_uris": {"ios": "https://dc.lft.to/lastmile_qr_scan", "android": "https://dc.lft.to/lastmile_qr_scan"}, "lon": -77.04493366666667, "type": "electric_scooter"}, {"bike_id": "36123cf743370d34001ce37342086585", "is_reserved": 0, "fusion_lon": 0.0, "lat": 38.86420233333333, "is_disabled": 0, "name": "36123cf743370d34001ce37342086585", "fusion_lat": 0.0, "rental_uris": {"ios": "https://dc.lft.to/lastmile_qr_scan", "android": "https://dc.lft.to/lastmile_qr_scan"}, "lon": -76.9804265, "type": "electric_scooter"}, {"bike_id": "51e435450cf61ca3dc7265bddc005e57", "is_reserved": 0, "fusion_lon": 0.0, "lat": 38.94503066666667, "is_disabled": 0, "name": "51e435450cf61ca3dc7265bddc005e57", "fusion_lat": 0.0, "rental_uris": {"ios": "https://dc.lft.to/lastmile_qr_scan", "android": "https://dc.lft.to/lastmile_qr_scan"}, "lon": -77.006674, "type": "electric_bike"}, {"bike_id": "c3315726e64f8f3aa488e04dd85f5f8b", "is_reserved": 0, "fusion_lon": 0.0, "lat": 38.895278833333336, "is_disabled": 0, "name": "c3315726e64f8f3aa488e04dd85f5f8b", "fusion_lat": 0.0, "rental_uris": {"ios": "https://dc.lft.to/lastmile_qr_scan", "android": "https://dc.lft.to/lastmile_qr_scan"}, "lon": -77.03347566666666, "type": "electric_scooter"},