{"data": {"bikes": [{"name": "4856bf50b6fcb5554eb2a3696a6bb21e", "fusion_lat": 0.0, "type": "electric_scooter", "lat": 38.924367, "is_reserved": 0, "is_disabled": 0, "fusion_lon": 0.0, "bike_id": "4856bf50b6fcb5554eb2a3696a6bb21e", "lon": -77.029757, "rental_uris": {"ios": "https://dc.lft.to/lastmile_qr_scan", "android": "https://dc.lft.to/lastmile_qr_scan"}}, {"name": "ec45f6a557c9dc87bf043542fe716b8a", "fusion_lat": 0.0, "type": "electric_scooter", "lat": 38.880393833333336, "is_reserved": 0, "is_disabled": 0, "fusion_lon": 0.0, "bike_id": "ec45f6a557c9dc87bf043542fe716b8a", "lon": -76.92728083333333, "rental_uris": {"ios": "https://dc.lft.to/lastmile_qr_scan", "android": "https://dc.lft.to/lastmile_qr_scan"}}, {"name": "00df1f86f5a05b0fbfde35c9b90618d4", "fusion_lat": 0.0, "type": "electric_scooter", "lat": 38.915576, "is_reserved": 0, "is_disabled": 0, "fusion_lon": 0.0, "bike_id": "00df1f86f5a05b0fbfde35c9b90618d4", "lon": -77.03914733333333, "rental_uris": {"ios": "https://dc.lft.to/lastmile_qr_scan", "android": "https://dc.lft.to/lastmile_qr_scan"}}, {"name": "7c3bcd2192124714e65a8917485d3df6", "fusion_lat": 0.0, "type": "electric_scooter", "lat": 38.9292755, "is_reserved": 0, "is_disabled": 0, "fusion_lon": 0.0, "bike_id": "7c3bcd2192124714e65a8917485d3df6", "lon": -77.01967866666666, "rental_uris": {"ios": "https://dc.lft.to/lastmile_qr_scan", "android": "https://dc.lft.to/lastmile_qr_scan"}}, {"name": "385711c094d7319861a3a41396534907", "fusion_lat": 0.0, "type": "electric_scooter", "lat": 38.907606333333334, "is_reserved": 0, "is_disabled": 0, "fusion_lon": 0.0, "bike_id": "385711c094d7319861a3a41396534907", "lon": -77.03096216666667, "rental_uris": {"ios": "https://dc.lft.to/lastmile_qr_scan", "android": "https://dc.lft.to/lastmile_qr_scan"}}, {"name": "b52ccdccd3209d0fecfb1497c631ed7f", "fusion_lat": 0.0, "type": "electric_bike", "lat": 38.892928833333336, "is_reserved": 0, "is_disabled": 0, "fusion_lon": 0.0, "bike_id": "b52ccdccd3209d0fecfb1497c631ed7f", "lon": -76.98564983333333, "rental_uris": {"ios": "https://dc.lft.to/lastmile_qr_scan", "android": "https://dc.lft.to/lastmile_qr_scan"}}, {"name": "8c6c26df11b7155a552dcc9ce2c0584d", "fusion_lat": 0.0, "type": "electric_bike", "lat": 38.85232366666666, "is_reserved": 0, "is_disabled": 0, "fusion_lon": 0.0, "bike_id": "8c6c26df11b7155a552dcc9ce2c0584d", "lon": -77.10336616666666, "rental_uris": {"ios": "https://dc.lft.to/lastmile_qr_scan", "android": "https://dc.lft.to/lastmile_qr_scan"}}, {"name": "913c9bec3ee1b82f2669e8a3c66dc59d", "fusion_lat": 0.0, "type": "electric_scooter", "lat": 38.90724516666667, "is_reserved": 0, "is_disabled": 0, "fusion_lon": 0.0, "bike_id": "913c9bec3ee1b82f2669e8a3c66dc59d", "lon": -77.04066666666667, "rental_uris": {"ios": "https://dc.lft.to/lastmile_qr_scan", "android": "https://dc.lft.to/lastmile_qr_scan"}}, {"name": "d85d19cf8459713ea97056fcf1be51e5", "fusion_lat": 0.0, "type": "electric_bike", "lat": 38.88048233333333, "is_reserved": 0, "is_disabled": 0, "fusion_lon": 0.0, "bike_id": "d85d19cf8459713ea97056fcf1be51e5", "lon": -77.0132185, "rental_uris": {"ios": "https://dc.lft.to/lastmile_qr_scan", "android": "https://dc.lft.to/lastmile_qr_scan"}}, {"name": "5b7862c29844796274db2dec4699c857", "fusion_lat": 0.0, "type": "electric_scooter", "lat": 38.90737933333333, "is_reserved": 0, "is_disabled": 0, "fusion_lon": 0.0, "bike_id": "5b7862c29844796274db2dec4699c857", "lon": -77.029556, "rental_uris": {"ios": "https://dc.lft.to/lastmile_qr_scan", "android": "https://dc.lft.to/lastmile_qr_scan"}}, {"name": "80bdc4c7cf9fe648d0aa5d67f139f3ec", "fusion_lat": 0.0, "type": "electric_scooter", "lat": 38.8621035, "is_reserved": 0, "is_disabled": 0, "fusion_lon": 0.0, "bike_id": "80bdc4c7cf9fe648d0aa5d67f139f3ec", "lon": -76.99471316666667, "rental_uris": {"ios": "https://dc.lft.to/lastmile_qr_scan", "android": "https://dc.lft.to/lastmile_qr_scan"}}, {"name": "3dbe6c3b1bc0013b3b1a658d7fc65adc", "fusion_lat": 0.0, "type": "electric_scooter", "lat": 38.92904133333333, "is_reserved": 0, "is_disabled": 0, "fusion_lon": 0.0, "bike_id": "3dbe6c3b1bc0013b3b1a658d7fc65adc", "lon": -77.02493116666666, "rental_uris": {"ios": "https://dc.lft.to/lastmile_qr_scan", "android": "https://dc.lft.to/lastmile_qr_scan"}}, {"name": "326be0971d9d3dcf18aadca94786fb3d", "fusion_lat": 0.0, "type": "electric_scooter", "lat": 38.9230785, "is_reserved": 0, "is_disabled": 0, "fusion_lon": 0.0, "bike_id": "326be0971d9d3dcf18aadca94786fb3d", "lon": -77.04113516666666, "rental_uris": {"ios": "https://dc.lft.to/lastmile_qr_scan", "android": "https://dc.lft.to/lastmile_qr_scan"}}, {"name": "2c3adc39e97a9dca134ba62c5b84e638", "fusion_lat": 0.0, "type": "electric_scooter", "lat": 38.897141, "is_reserved": 0, "is_disabled": 0, "fusion_lon": 0.0, "bike_id": "2c3adc39e97a9dca134ba62c5b84e638", "lon": -77.021921, "rental_uris": {"ios": "https://dc.lft.to/lastmile_qr_scan", "android": "https://dc.lft.to/lastmile_qr_scan"}}, {"name": "ce7b53b7289984f9ffb7b7627758c927", "fusion_lat": 0.0, "type": "electric_scooter", "lat": 38.948353833333336, "is_reserved": 0, "is_disabled": 0, "fusion_lon": 0.0, "bike_id": "ce7b53b7289984f9ffb7b7627758c927", "lon": -77.02555333333333, "rental_uris": {"ios": "https://dc.lft.to/lastmile_qr_scan", "android": "https://dc.lft.to/lastmile_qr_scan"}}, {"name": "024e015c1ab4d59c525b7d084e633df1", "fusion_lat": 0.0, "type": "electric_scooter", "lat": 38.941834166666666, "is_reserved": 0, "is_disabled": 0, "fusion_lon": 0.0, "bike_id": "024e015c1ab4d59c525b7d084e633df1", "lon": -77.02485433333334, "rental_uris": {"ios": "https://dc.lft.to/lastmile_qr_scan", "android": "https://dc.lft.to/lastmile_qr_scan"}}, {"name": "9eead9aee9114f9b6d9c58ba3720780a", "fusion_lat": 0.0, "type": "electric_scooter", "lat": 38.879852666666665, "is_reserved": 0, "is_disabled": 0, "fusion_lon": 0.0, "bike_id": "9eead9aee9114f9b6d9c58ba3720780a", "lon": -76.98385633333334, "rental_uris": {"ios": "https://dc.lft.to/lastmile_qr_scan", "android": "https://dc.lft.to/lastmile_qr_scan"}}, {"name": "901d7eb69a106c9fee2a40334c985cc5", "fusion_lat": 0.0, "type": "electric_scooter", "lat": 38.923761666666664, "is_reserved": 0, "is_disabled": 0, "fusion_lon": 0.0, "bike_id": "901d7eb69a106c9fee2a40334c985cc5", "lon": -77.01915983333333, "rental_uris": {"ios": "https://dc.lft.to/lastmile_qr_scan", "android": "https://dc.lft.to/lastmile_qr_scan"}}, {"name": "2f32933fe195e5bfc774042e2f996168", "fusion_lat": 0.0, "type": "electric_bike", "lat": 38.948092333333335, "is_reserved": 0, "is_disabled": 0, "fusion_lon": 0.0, "bike_id": "2f32933fe195e5bfc774042e2f996168", "lon": -77.02142066666667, "rental_uris": {"ios": "https://dc.lft.to/lastmile_qr_scan", "android": "https://dc.lft.to/lastmile_qr_scan"}}, {"name": "41c98717caf682e0980787688e27fe2a", "fusion_lat": 0.0, "type": "electric_bike", "lat": 38.870666, "is_reserved": 0, "is_disabled": 0, "fusion_lon": 0.0, "bike_id": "41c98717caf682e0980787688e27fe2a", "lon": -77.11063466666667, "rental_uris": {"ios": "https://dc.lft.to/lastmile_qr_scan", "android": "https://dc.lft.to/lastmile_qr_scan"}}, {"name": "54a24414bbf48a4639c497de83dd8ae6", "fusion_lat": 0.0, "type": "electric_scooter", "lat": 38.877526333333336, "is_reserved": 0, "is_disabled": 0, "fusion_lon": 0.0, "bike_id": "54a24414bbf48a4639c497de83dd8ae6", "lon": -76.97243533333334, "rental_uris": {"ios": "https://dc.lft.to/lastmile_qr_scan", "android": "https://dc.lft.to/lastmile_qr_scan"}}, {"name": "a8ae1b5f3e766bee18cc33098fd0ffc7", "fusion_lat": 0.0, "type": "electric_scooter", "lat": 38.906006, "is_reserved": 0, "is_disabled": 0, "fusion_lon": 0.0, "bike_id": "a8ae1b5f3e766bee18cc33098fd0ffc7", "lon": -77.0417385, "rental_uris": {"ios": "https://dc.lft.to/lastmile_qr_scan", "android": "https://dc.lft.to/lastmile_qr_scan"}}, {"name": "599f176a76f8de131f972c3423ac9e24", "fusion_lat": 0.0, "type": "electric_scooter", "lat": 38.90020166666667, "is_reserved": 0, "is_disabled": 0, "fusion_lon": 0.0, "bike_id": "599f176a76f8de131f972c3423ac9e24", "lon": -76.998516, "rental_uris": {"ios": "https://dc.lft.to/lastmile_qr_scan", "android": "https://dc.lft.to/lastmile_qr_scan"}}, {"name": "c53c44d64a8be3e61bca0634164e6940", "fusion_lat": 0.0, "type": "electric_scooter", "lat": 38.91493916666667, "is_reserved": 0, "is_disabled": 0, "fusion_lon": 0.0, "bike_id": "c53c44d64a8be3e61bca0634164e6940", "lon": -77.040589, "rental_uris": {"ios": "https://dc.lft.to/lastmile_qr_scan", "android": "https://dc.lft.to/lastmile_qr_scan"}}, {"name": "1e0a73a009b0fd07688257bd25ec44cc", "fusion_lat": 0.0, "type": "electric_scooter", "lat": 38.921493166666664, "is_reserved": 0, "is_disabled": 0, "fusion_lon": 0.0, "bike_id": "1e0a73a009b0fd07688257bd25ec44cc", "lon": -77.04019, "rental_uris": {"ios": "https://dc.lft.to/lastmile_qr_scan", "android": "https://dc.lft.to/lastmile_qr_scan"}}, {"name": "01642b2a8a5d43cb3bc819598d558d2f", "fusion_lat": 0.0, "type": "electric_scooter", "lat": 38.904129833333336, "is_reserved": 0, "is_disabled": 0, "fusion_lon": 0.0, "bike_id": "01642b2a8a5d43cb3bc819598d558d2f", "lon": -76.97894883333333, "rental_uris": {"ios": "https://dc.lft.to/lastmile_qr_scan", "android": "https://dc.lft.to/lastmile_qr_scan"}}, {"name": "e8b6b004b871a9ea944bc20e08ee2783", "fusion_lat": 0.0, "type": "electric_scooter", "lat": 38.90877183333333, "is_reserved": 0, "is_disabled": 0, "fusion_lon": 0.0, "bike_id": "e8b6b004b871a9ea944bc20e08ee2783", "lon": -77.0189895, "rental_uris": {"ios": "https://dc.lft.to/lastmile_qr_scan", "android": "https://dc.lft.to/lastmile_qr_scan"}}, {"name": "5f8afcd1136520055931cf3a21c83dab", "fusion_lat": 0.0, "type": "electric_bike", "lat": 38.92994016666667, "is_reserved": 0, "is_disabled": 0, "fusion_lon": 0.0, "bike_id": "5f8afcd1136520055931cf3a21c83dab", "lon": -77.01963416666666, "rental_uris": {"ios": "https://dc.lft.to/lastmile_qr_scan", "android": "https://dc.lft.to/lastmile_qr_scan"}}, {"name": "61d2f3d5ed8704ef1f952c5aabe42754", "fusion_lat": 0.0, "type": "electric_scooter", "lat": 38.911268166666666, "is_reserved": 0, "is_disabled": 0, "fusion_lon": 0.0, "bike_id": "61d2f3d5ed8704ef1f952c5aabe42754", "lon": -77.02383433333334, "rental_uris": {"ios": "https://dc.lft.to/lastmile_qr_scan", "android": "https://dc.lft.to/lastmile_qr_scan"}}, {"name": "98614cedf8387f59b4f9c0f61d7d526e", "fusion_lat": 0.0, "type": "electric_scooter", "lat": 38.9212955, "is_reserved": 0, "is_disabled": 0, "fusion_lon": 0.0, "bike_id": "98614cedf8387f59b4f9c0f61d7d526e", "lon": -77.04209166666666, "rental_uris": {"ios": "https://dc.lft.to/lastmile_qr_scan", "android": "https://dc.lft.to/lastmile_qr_scan"}}, {"name": "58c8830137b7d59aedefa08dfebe3d22", "fusion_lat": 0.0, "type": "electric_bike", "lat": 38.92981983333333, "is_reserved": 0, "is_disabled": 0, "fusion_lon": 0.0, "bike_id": "58c8830137b7d59aedefa08dfebe3d22", "lon": -77.01978383333334, "rental_uris": {"ios": "https://dc.lft.to/lastmile_qr_scan", "android": "https://dc.lft.to/lastmile_qr_scan"}}, {"name": "1f4da7d2c420665344b16e14dfaaa275", "fusion_lat": 0.0, "type": "electric_scooter", "lat": 38.907775, "is_reserved": 0, "is_disabled": 0, "fusion_lon": 0.0, "bike_id": "1f4da7d2c420665344b16e14dfaaa275", "lon": -77.03555066666667, "rental_uris": {"ios": "https://dc.lft.to/lastmile_qr_scan", "android": "https://dc.lft.to/lastmile_qr_scan"}}, {"name": "8aa8c84d63653ed0eb6cc6c772817744", "fusion_lat": 0.0, "type": "electric_scooter", "lat": 38.90716916666667, "is_reserved": 0, "is_disabled": 0, "fusion_lon": 0.0, "bike_id": "8aa8c84d63653ed0eb6cc6c772817744", "lon": -77.00543483333334, "rental_uris": {"ios": "https://dc.lft.to/lastmile_qr_scan", "android": "https://dc.lft.to/lastmile_qr_scan"}}, {"name": "0837cf4f0d4936d4e6181d94841df621", "fusion_lat": 0.0, "type": "electric_bike", "lat": 38.8579485, "is_reserved": 0, "is_disabled": 0, "fusion_lon": 0.0, "bike_id": "0837cf4f0d4936d4e6181d94841df621", "lon": -76.987473, "rental_uris": {"ios": "https://dc.lft.to/lastmile_qr_scan", "android": "https://dc.lft.to/lastmile_qr_scan"}}, {"name": "40b806149c69b921b1372ec4c3b94cd5", "fusion_lat": 0.0, "type": "electric_scooter", "lat": 38.935325, "is_reserved": 0, "is_disabled": 0, "fusion_lon": 0.0, "bike_id": "40b806149c69b921b1372ec4c3b94cd5", "lon": -77.03428683333334, "rental_uris": {"ios": "https://dc.lft.to/lastmile_qr_scan", "android": "https://dc.lft.to/lastmile_qr_scan"}}, {"name": "d076e7d9f9b4a32d659fa2da7bad5f1b", "fusion_lat": 0.0, "type": "electric_scooter", "lat": 38.917063166666665, "is_reserved": 0, "is_disabled": 0, "fusion_lon": 0.0, "bike_id": "d076e7d9f9b4a32d659fa2da7bad5f1b", "lon": -77.031686, "rental_uris": {"ios": "https://dc.lft.to/lastmile_qr_scan", "android": "https://dc.lft.to/lastmile_qr_scan"}}, {"name": "803e7e97c90ef04bcabd7c76117d0336", "fusion_lat": 0.0, "type": "electric_scooter", "lat": 38.90461233333333, "is_reserved": 0, "is_disabled": 0, "fusion_lon": 0.0, "bike_id": "803e7e97c90ef04bcabd7c76117d0336", "lon": -77.01427666666666, "rental_uris": {"ios": "https://dc.lft.to/lastmile_qr_scan", "android": "https://dc.lft.to/lastmile_qr_scan"}}, {"name": "6a1cfed593858093e3a3da8f20187679", "fusion_lat": 0.0, "type": "electric_bike", "lat": 38.9596045, "is_reserved": 0, "is_disabled": 0, "fusion_lon": 0.0, "bike_id": "6a1cfed593858093e3a3da8f20187679", "lon": -77.10088783333333, "rental_uris": {"ios": "https://dc.lft.to/lastmile_qr_scan", "android": "https://dc.lft.to/lastmile_qr_scan"}}, {"name": "d9b59cb15e4fe523ae06f73f295cdbf9", "fusion_lat": 0.0, "type": "electric_scooter", "lat": 38.9185175, "is_reserved": 0, "is_disabled": 0, "fusion_lon": 0.0, "bike_id": "d9b59cb15e4fe523ae06f73f295cdbf9", "lon": -77.02601866666667, "rental_uris": {"ios": "https://dc.lft.to/lastmile_qr_scan", "android": "https://dc.lft.to/lastmile_qr_scan"}}, {"name": "3dd160c9184db20bdfabf4ae84ca5fa5", "fusion_lat": 0.0, "type": "electric_scooter", "lat": 38.91892416666666, "is_reserved": 0, "is_disabled": 0, "fusion_lon": 0.0, "bike_id": "3dd160c9184db20bdfabf4ae84ca5fa5", "lon": -77.03762483333334, "rental_uris": {"ios": "https://dc.lft.to/lastmile_qr_scan", "android": "https://dc.lft.to/lastmile_qr_scan"}}, {"name": "06be2d69b848b85296153e802d1fc1b5", "fusion_lat": 0.0, "type": "electric_scooter", "lat": 38.93287883333333, "is_reserved": 0, "is_disabled": 0, "fusion_lon": 0.0, "bike_id": "06be2d69b848b85296153e802d1fc1b5", "lon": -77.0350025, "rental_uris": {"ios": "https://dc.lft.to/lastmile_qr_scan", "android": "https://dc.lft.to/lastmile_qr_scan"}}, {"name": "35f2845a58a92cf369fce4934677fd70", "fusion_lat": 0.0, "type": "electric_scooter", "lat": 38.90029916666667, "is_reserved": 0, "is_disabled": 0, "fusion_lon": 0.0, "bike_id": "35f2845a58a92cf369fce4934677fd70", "lon": -77.00190433333333, "rental_uris": {"ios": "https://dc.lft.to/lastmile_qr_scan", "android": "https://dc.lft.to/lastmile_qr_scan"}}, {"name": "db2b2a42af2791b57e79e331f91b5109", "fusion_lat": 0.0, "type": "electric_scooter", "lat": 38.87011116666667, "is_reserved": 0, "is_disabled": 0, "fusion_lon": 0.0, "bike_id": "db2b2a42af2791b57e79e331f91b5109", "lon": -77.012279, "rental_uris": {"ios": "https://dc.lft.to/lastmile_qr_scan", "android": "https://dc.lft.to/lastmile_qr_scan"}}, {"name": "ad5af7b7b86becbe51745a8329fac1ee", "fusion_lat": 0.0, "type": "electric_scooter", "lat": 38.890877833333334, "is_reserved": 0, "is_disabled": 0, "fusion_lon": 0.0, "bike_id": "ad5af7b7b86becbe51745a8329fac1ee", "lon": -76.99788216666667, "rental_uris": {"ios": "https://dc.lft.to/lastmile_qr_scan", "android": "https://dc.lft.to/lastmile_qr_scan"}}, {"name": "b7ee867fec678fb4dc1716a9bcda3cc1", "fusion_lat": 0.0, "type": "electric_scooter", "lat": 38.91417766666667, "is_reserved": 0, "is_disabled": 0, "fusion_lon": 0.0, "bike_id": "b7ee867fec678fb4dc1716a9bcda3cc1", "lon": -77.04159033333333, "rental_uris": {"ios": "https://dc.lft.to/lastmile_qr_scan", "android": "https://dc.lft.to/lastmile_qr_scan"}}, {"name": "1f40aaa6c6c24a454902bc29de00a82f", "fusion_lat": 0.0, "type": "electric_bike", "lat": 38.96553566666667, "is_reserved": 0, "is_disabled": 0, "fusion_lon": 0.0, "bike_id": "1f40aaa6c6c24a454902bc29de00a82f", "lon": -77.0351595, "rental_uris": {"ios": "https://dc.lft.to/lastmile_qr_scan", "android": "https://dc.lft.to/lastmile_qr_scan"}}, {"name": "acb1fededb7056e471c0f75d362467c7", "fusion_lat": 0.0, "type": "electric_scooter", "lat": 38.91041933333333, "is_reserved": 0, "is_disabled": 0, "fusion_lon": 0.0, "bike_id": "acb1fededb7056e471c0f75d362467c7", "lon": -77.02810466666666, "rental_uris": {"ios": "https://dc.lft.to/lastmile_qr_scan", "android": "https://dc.lft.to/lastmile_qr_scan"}}, {"name": "38bbd827a43b613e21f04d2ab6fb8cde", "fusion_lat": 0.0, "type": "electric_scooter", "lat": 38.865263, "is_reserved": 0, "is_disabled": 0, "fusion_lon": 0.0, "bike_id": "38bbd827a43b613e21f04d2ab6fb8cde", "lon": -76.98556983333333, "rental_uris": {"ios": "https://dc.lft.to/lastmile_qr_scan", "android": "https://dc.lft.to/lastmile_qr_scan"}}, {"name": "808dda4ef04e66254414b621624a3dec", "fusion_lat": 0.0, "type": "electric_scooter", "lat": 38.90076366666667, "is_reserved": 0, "is_disabled": 0, "fusion_lon": 0.0, "bike_id": "808dda4ef04e66254414b621624a3dec", "lon": -77.04512583333333, "rental_uris": {"ios": "https://dc.lft.to/lastmile_qr_scan", "android": "https://dc.lft.to/lastmile_qr_scan"}}, {"name": "d4b04a6c93cf5516536fc77eba8f2de8", "fusion_lat": 0.0, "type": "electric_scooter", "lat": 38.924375, "is_reserved": 0, "is_disabled": 0, "fusion_lon": 0.0, "bike_id": "d4b04a6c93cf5516536fc77eba8f2de8", "lon": -77.04133483333334, "rental_uris": {"ios": "https://dc.lft.to/lastmile_qr_scan", "android": "https://dc.lft.to/lastmile_qr_scan"}}, {"name": "4443dfef37608498bf79d08c0373e07f", "fusion_lat": 0.0, "type": "electric_scooter", "lat": 38.930662833333336, "is_reserved": 0, "is_disabled": 0, "fusion_lon": 0.0, "bike_id": "4443dfef37608498bf79d08c0373e07f", "lon": -77.034057, "rental_uris": {"ios": "https://dc.lft.to/lastmile_qr_scan", "android": "https://dc.lft.to/lastmile_qr_scan"}}, {"name": "dd9d88184e8fef15a8ff8c1a27b15015", "fusion_lat": 0.0, "type": "electric_bike", "lat": 38.813314166666665, "is_reserved": 0, "is_disabled": 0, "fusion_lon": 0.0, "bike_id": "dd9d88184e8fef15a8ff8c1a27b15015", "lon": -77.05083066666667, "rental_uris": {"ios": "https://dc.lft.to/lastmile_qr_scan", "android": "https://dc.lft.to/lastmile_qr_scan"}}, {"name": "c503676f64380ed0185d5b919a47e2e0", "fusion_lat": 0.0, "type": "electric_scooter", "lat": 38.9156885, "is_reserved": 0, "is_disabled": 0, "fusion_lon": 0.0, "bike_id": "c503676f64380ed0185d5b919a47e2e0", "lon": -77.02236533333334, "rental_uris": {"ios": "https://dc.lft.to/lastmile_qr_scan", "android": "https://dc.lft.to/lastmile_qr_scan"}}, {"name": "46be39ae81c7f9cd4bed4818dd0d6d13", "fusion_lat": 0.0, "type": "electric_scooter", "lat": 38.93212483333333, "is_reserved": 0, "is_disabled": 0, "fusion_lon": 0.0, "bike_id": "46be39ae81c7f9cd4bed4818dd0d6d13", "lon": -77.03672316666666, "rental_uris": {"ios": "https://dc.lft.to/lastmile_qr_scan", "android": "https://dc.lft.to/lastmile_qr_scan"}}, {"name": "459e7b0cc8cf026cf39937d287e479af", "fusion_lat": 0.0, "type": "electric_scooter", "lat": 38.959118333333336, "is_reserved": 0, "is_disabled": 0, "fusion_lon": 0.0, "bike_id": "459e7b0cc8cf026cf39937d287e479af", "lon": -77.08082133333333, "rental_uris": {"ios": "https://dc.lft.to/lastmile_qr_scan", "android": "https://dc.lft.to/lastmile_qr_scan"}}, {"name": "86041aabb6a80e6f99cb2f8f356b86d7", "fusion_lat": 0.0, "type": "electric_bike", "lat": 39.0039025, "is_reserved": 0, "is_disabled": 0, "fusion_lon": 0.0, "bike_id": "86041aabb6a80e6f99cb2f8f356b86d7", "lon": -77.0127955, "rental_uris": {"ios": "https://dc.lft.to/lastmile_qr_scan", "android": "https://dc.lft.to/lastmile_qr_scan"}}, {"name": "4a26e0924d4d3f22acbe5dd87e216d74", "fusion_lat": 0.0, "type": "electric_bike", "lat": 38.807936, "is_reserved": 0, "is_disabled": 0, "fusion_lon": 0.0, "bike_id": "4a26e0924d4d3f22acbe5dd87e216d74", "lon": -77.12958683333333, "rental_uris": {"ios": "https://dc.lft.to/lastmile_qr_scan", "android": "https://dc.lft.to/lastmile_qr_scan"}}, {"name": "253a00d3121ed62b2512ccfb0301d6c4", "fusion_lat": 0.0, "type": "electric_scooter", "lat": 38.9127845, "is_reserved": 0, "is_disabled": 0, "fusion_lon": 0.0, "bike_id": "253a00d3121ed62b2512ccfb0301d6c4", "lon": -77.0319345, "rental_uris": {"ios": "https://dc.lft.to/lastmile_qr_scan", "android": "https://dc.lft.to/lastmile_qr_scan"}}, {"name": "70c2351c9cb64e775d42cc76e74ec09d", "fusion_lat": 0.0, "type": "electric_scooter", "lat": 38.9024765, "is_reserved": 0, "is_disabled": 0, "fusion_lon": 0.0, "bike_id": "70c2351c9cb64e775d42cc76e74ec09d", "lon": -76.97417616666667, "rental_uris": {"ios": "https://dc.lft.to/lastmile_qr_scan", "android": "https://dc.lft.to/lastmile_qr_scan"}}, {"name": "5a04a4244d81177d2cde611b1ef9d700", "fusion_lat": 0.0, "type": "electric_scooter", "lat": 38.857903666666665, "is_reserved": 0, "is_disabled": 0, "fusion_lon": 0.0, "bike_id": "5a04a4244d81177d2cde611b1ef9d700", "lon": -76.990885, "rental_uris": {"ios": "https://dc.lft.to/lastmile_qr_scan", "android": "https://dc.lft.to/lastmile_qr_scan"}}, {"name": "d4d3279f85cec9c2eb04b197298161aa", "fusion_lat": 0.0, "type": "electric_scooter", "lat": 38.92633583333333, "is_reserved": 0, "is_disabled": 0, "fusion_lon": 0.0, "bike_id": "d4d3279f85cec9c2eb04b197298161aa", "lon": -77.03706866666667, "rental_uris": {"ios": "https://dc.lft.to/lastmile_qr_scan", "android": "https://dc.lft.to/lastmile_qr_scan"}}, {"name": "4cb4830d304311392735f6907ae7f023", "fusion_lat": 0.0, "type": "electric_scooter", "lat": 38.90582166666667, "is_reserved": 0, "is_disabled": 0, "fusion_lon": 0.0, "bike_id": "4cb4830d304311392735f6907ae7f023", "lon": -77.03449166666667, "rental_uris": {"ios": "https://dc.lft.to/lastmile_qr_scan", "android": "https://dc.lft.to/lastmile_qr_scan"}}, {"name": "d85a222818e78bcb4a6dc158a3e5f0d4", "fusion_lat": 0.0, "type": "electric_scooter", "lat": 38.9019225, "is_reserved": 0, "is_disabled": 0, "fusion_lon": 0.0, "bike_id": "d85a222818e78bcb4a6dc158a3e5f0d4", "lon": -77.02505416666666, "rental_uris": {"ios": "https://dc.lft.to/lastmile_qr_scan", "android": "https://dc.lft.to/lastmile_qr_scan"}}, {"name": "bd5e55c161ac1f6a97ec175dd671b046", "fusion_lat": 0.0, "type": "electric_scooter", "lat": 38.956534833333336, "is_reserved": 0, "is_disabled": 0, "fusion_lon": 0.0, "bike_id": "bd5e55c161ac1f6a97ec175dd671b046", "lon": -77.03292916666666, "rental_uris": {"ios": "https://dc.lft.to/lastmile_qr_scan", "android": "https://dc.lft.to/lastmile_qr_scan"}}, {"name": "fdd5007ea9c8c684777084069ea40a54", "fusion_lat": 0.0, "type": "electric_scooter", "lat": 38.922154166666665, "is_reserved": 0, "is_disabled": 0, "fusion_lon": 0.0, "bike_id": "fdd5007ea9c8c684777084069ea40a54", "lon": -76.9874855, "rental_uris": {"ios": "https://dc.lft.to/lastmile_qr_scan", "android": "https://dc.lft.to/lastmile_qr_scan"}}, {"name": "a68f469e85d9143e61b3a47bc93f2297", "fusion_lat": 0.0, "type": "electric_scooter", "lat": 38.92488183333333, "is_reserved": 0, "is_disabled": 0, "fusion_lon": 0.0, "bike_id": "a68f469e85d9143e61b3a47bc93f2297", "lon": -77.05216183333333, "rental_uris": {"ios": "https://dc.lft.to/lastmile_qr_scan", "android": "https://dc.lft.to/lastmile_qr_scan"}}, {"name": "105547143d781d96ba730a2743c47ee6", "fusion_lat": 0.0, "type": "electric_scooter", "lat": 38.901611333333335, "is_reserved": 0, "is_disabled": 0, "fusion_lon": 0.0, "bike_id": "105547143d781d96ba730a2743c47ee6", "lon": -76.98067783333333, "rental_uris": {"ios": "https://dc.lft.to/lastmile_qr_scan", "android": "https://dc.lft.to/lastmile_qr_scan"}}, {"name": "80aa005ea19c8d455da089690289b1d0", "fusion_lat": 0.0, "type": "electric_scooter", "lat": 38.934891, "is_reserved": 0, "is_disabled": 0, "fusion_lon": 0.0, "bike_id": "80aa005ea19c8d455da089690289b1d0", "lon": -77.033951, "rental_uris": {"ios": "https://dc.lft.to/lastmile_qr_scan", "android": "https://dc.lft.to/lastmile_qr_scan"}}, {"name": "0d9d0106c1f83f8871a54579f5871fde", "fusion_lat": 0.0, "type": "electric_scooter", "lat": 38.921557, "is_reserved": 0, "is_disabled": 0, "fusion_lon": 0.0, "bike_id": "0d9d0106c1f83f8871a54579f5871fde", "lon": -77.03384433333333, "rental_uris": {"ios": "https://dc.lft.to/lastmile_qr_scan", "android": "https://dc.lft.to/lastmile_qr_scan"}}, {"name": "77c09c2a492d3422465703d3212f4893", "fusion_lat": 0.0, "type": "electric_scooter", "lat": 38.91550083333333, "is_reserved": 0, "is_disabled": 0, "fusion_lon": 0.0, "bike_id": "77c09c2a492d3422465703d3212f4893", "lon": -77.03855616666667, "rental_uris": {"ios": "https://dc.lft.to/lastmile_qr_scan", "android": "https://dc.lft.to/lastmile_qr_scan"}}, {"name": "ca5b921abeb7ba997793b138ba55de1a", "fusion_lat": 0.0, "type": "electric_scooter", "lat": 38.900353833333334, "is_reserved": 0, "is_disabled": 0, "fusion_lon": 0.0, "bike_id": "ca5b921abeb7ba997793b138ba55de1a", "lon": -77.00889016666666, "rental_uris": {"ios": "https://dc.lft.to/lastmile_qr_scan", "android": "https://dc.lft.to/lastmile_qr_scan"}}, {"name": "453cda912c2c101751a574c0202898d7", "fusion_lat": 0.0, "type": "electric_bike", "lat": 38.92839583333333, "is_reserved": 0, "is_disabled": 0, "fusion_lon": 0.0, "bike_id": "453cda912c2c101751a574c0202898d7", "lon": -77.02057283333333, "rental_uris": {"ios": "https://dc.lft.to/lastmile_qr_scan", "android": "https://dc.lft.to/lastmile_qr_scan"}}, {"name": "06f05eb394b80e2294899dcd241e340b", "fusion_lat": 0.0, "type": "electric_scooter", "lat": 38.8620965, "is_reserved": 0, "is_disabled": 0, "fusion_lon": 0.0, "bike_id": "06f05eb394b80e2294899dcd241e340b", "lon": -76.9947045, "rental_uris": {"ios": "https://dc.lft.to/lastmile_qr_scan", "android": "https://dc.lft.to/lastmile_qr_scan"}}, {"name": "8e9f96c60d114654d11bfe4d16727f55", "fusion_lat": 0.0, "type": "electric_scooter", "lat": 38.90019433333333, "is_reserved": 0, "is_disabled": 0, "fusion_lon": 0.0, "bike_id": "8e9f96c60d114654d11bfe4d16727f55", "lon": -77.04030966666667, "rental_uris": {"ios": "https://dc.lft.to/lastmile_qr_scan", "android": "https://dc.lft.to/lastmile_qr_scan"}}, {"name": "0fe8fde3dc4784f197e8c65be22fc757", "fusion_lat": 0.0, "type": "electric_scooter", "lat": 38.921586166666664, "is_reserved": 0, "is_disabled": 0, "fusion_lon": 0.0, "bike_id": "0fe8fde3dc4784f197e8c65be22fc757", "lon": -77.033792, "rental_uris": {"ios": "https://dc.lft.to/lastmile_qr_scan", "android": "https://dc.lft.to/lastmile_qr_scan"}}, {"name": "d3ace299605aefcbe44aca5cfc6c7493", "fusion_lat": 0.0, "type": "electric_scooter", "lat": 38.917611, "is_reserved": 0, "is_disabled": 0, "fusion_lon": 0.0, "bike_id": "d3ace299605aefcbe44aca5cfc6c7493", "lon": -77.041482, "rental_uris": {"ios": "https://dc.lft.to/lastmile_qr_scan", "android": "https://dc.lft.to/lastmile_qr_scan"}}, {"name": "ec6bf0cfacabdfcb9170894f3876a215", "fusion_lat": 0.0, "type": "electric_scooter", "lat": 38.930904, "is_reserved": 0, "is_disabled": 0, "fusion_lon": 0.0, "bike_id": "ec6bf0cfacabdfcb9170894f3876a215", "lon": -77.0248975, "rental_uris": {"ios": "https://dc.lft.to/lastmile_qr_scan", "android": "https://dc.lft.to/lastmile_qr_scan"}}, {"name": "806e6c000d1070603ab0436cdd5d01c1", "fusion_lat": 0.0, "type": "electric_scooter", "lat": 38.93457133333333, "is_reserved": 0, "is_disabled": 0, "fusion_lon": 0.0, "bike_id": "806e6c000d1070603ab0436cdd5d01c1", "lon": -77.08646066666667, "rental_uris": {"ios": "https://dc.lft.to/lastmile_qr_scan", "android": "https://dc.lft.to/lastmile_qr_scan"}}, {"name": "a9b41ece523632528c3c96fc5e41984e", "fusion_lat": 0.0, "type": "electric_scooter", "lat": 38.90358766666667, "is_reserved": 0, "is_disabled": 0, "fusion_lon": 0.0, "bike_id": "a9b41ece523632528c3c96fc5e41984e", "lon": -77.05245066666667, "rental_uris": {"ios": "https://dc.lft.to/lastmile_qr_scan", "android": "https://dc.lft.to/lastmile_qr_scan"}}, {"name": "47c0f96d1d4394f1796266949c1d1e36", "fusion_lat": 0.0, "type": "electric_scooter", "lat": 38.8878175, "is_reserved": 0, "is_disabled": 0, "fusion_lon": 0.0, "bike_id": "47c0f96d1d4394f1796266949c1d1e36", "lon": -76.955301, "rental_uris": {"ios": "https://dc.lft.to/lastmile_qr_scan", "android": "https://dc.lft.to/lastmile_qr_scan"}}, {"name": "25dee942b1d7b4d46962c2217f1c5337", "fusion_lat": 0.0, "type": "electric_scooter", "lat": 38.912734, "is_reserved": 0, "is_disabled": 0, "fusion_lon": 0.0, "bike_id": "25dee942b1d7b4d46962c2217f1c5337", "lon": -77.04503216666667, "rental_uris": {"ios": "https://dc.lft.to/lastmile_qr_scan", "android": "https://dc.lft.to/lastmile_qr_scan"}}, {"name": "3bb5cb2b24c9dd66a2644b8e0908fc43", "fusion_lat": 0.0, "type": "electric_scooter", "lat": 38.905654, "is_reserved": 0, "is_disabled": 0, "fusion_lon": 0.0, "bike_id": "3bb5cb2b24c9dd66a2644b8e0908fc43", "lon": -77.02227316666666, "rental_uris": {"ios": "https://dc.lft.to/lastmile_qr_scan", "android": "https://dc.lft.to/lastmile_qr_scan"}}, {"name": "00e3241db767690de36f34b858f248ed", "fusion_lat": 0.0, "type": "electric_scooter", "lat": 38.90828283333333, "is_reserved": 0, "is_disabled": 0, "fusion_lon": 0.0, "bike_id": "00e3241db767690de36f34b858f248ed", "lon": -77.03204283333334, "rental_uris": {"ios": "https://dc.lft.to/lastmile_qr_scan", "android": "https://dc.lft.to/lastmile_qr_scan"}}, {"name": "e8726e53cae743746059544924d5aaae", "fusion_lat": 0.0, "type": "electric_scooter", "lat": 38.89958333333333, "is_reserved": 0, "is_disabled": 0, "fusion_lon": 0.0, "bike_id": "e8726e53cae743746059544924d5aaae", "lon": -77.05273983333333, "rental_uris": {"ios": "https://dc.lft.to/lastmile_qr_scan", "android": "https://dc.lft.to/lastmile_qr_scan"}}, {"name": "01d69fc39e9169939d8f85c6b109b3e1", "fusion_lat": 0.0, "type": "electric_scooter", "lat": 38.91605883333333, "is_reserved": 0, "is_disabled": 0, "fusion_lon": 0.0, "bike_id": "01d69fc39e9169939d8f85c6b109b3e1", "lon": -77.04158283333334, "rental_uris": {"ios": "https://dc.lft.to/lastmile_qr_scan", "android": "https://dc.lft.to/lastmile_qr_scan"}}, {"name": "d3c7846ea8e53b58e26c631e1d960770", "fusion_lat": 0.0, "type": "electric_scooter", "lat": 38.93610433333333, "is_reserved": 0, "is_disabled": 0, "fusion_lon": 0.0, "bike_id": "d3c7846ea8e53b58e26c631e1d960770", "lon": -77.05864266666667, "rental_uris": {"ios": "https://dc.lft.to/lastmile_qr_scan", "android": "https://dc.lft.to/lastmile_qr_scan"}}, {"name": "0334ee909db01e3536af6b6aff90e145", "fusion_lat": 0.0, "type": "electric_scooter", "lat": 38.911284, "is_reserved": 0, "is_disabled": 0, "fusion_lon": 0.0, "bike_id": "0334ee909db01e3536af6b6aff90e145", "lon": -77.03723383333333, "rental_uris": {"ios": "https://dc.lft.to/lastmile_qr_scan", "android": "https://dc.lft.to/lastmile_qr_scan"}}, {"name": "9fd59c8e1642cd8d627962b07cd2e6a9", "fusion_lat": 0.0, "type": "electric_scooter", "lat": 38.925765166666665, "is_reserved": 0, "is_disabled": 0, "fusion_lon": 0.0, "bike_id": "9fd59c8e1642cd8d627962b07cd2e6a9", "lon": -77.04369183333333, "rental_uris": {"ios": "https://dc.lft.to/lastmile_qr_scan", "android": "https://dc.lft.to/lastmile_qr_scan"}}, {"name": "ed3ca05dbd0c18df6389f13eeb9176f9", "fusion_lat": 0.0, "type": "electric_scooter", "lat": 38.88355033333333, "is_reserved": 0, "is_disabled": 0, "fusion_lon": 0.0, "bike_id": "ed3ca05dbd0c18df6389f13eeb9176f9", "lon": -76.996173, "rental_uris": {"ios": "https://dc.lft.to/lastmile_qr_scan", "android": "https://dc.lft.to/lastmile_qr_scan"}}, {"name": "b7de830ada05d6e4a4e9a5f985c19233", "fusion_lat": 0.0, "type": "electric_scooter", "lat": 38.9233845, "is_reserved": 0, "is_disabled": 0, "fusion_lon": 0.0, "bike_id": "b7de830ada05d6e4a4e9a5f985c19233", "lon": -77.04191583333333, "rental_uris": {"ios": "https://dc.lft.to/lastmile_qr_scan", "android": "https://dc.lft.to/lastmile_qr_scan"}}, {"name": "433f3590aa8cc5c50f3826bcf7164136", "fusion_lat": 0.0, "type": "electric_scooter", "lat": 38.909504166666665, "is_reserved": 0, "is_disabled": 0, "fusion_lon": 0.0, "bike_id": "433f3590aa8cc5c50f3826bcf7164136", "lon": -77.04943083333333, "rental_uris": {"ios": "https://dc.lft.to/lastmile_qr_scan", "android": "https://dc.lft.to/lastmile_qr_scan"}}, {"name": "2b9327914c23f1c9e0d140f902745d16", "fusion_lat": 0.0, "type": "electric_scooter", "lat": 38.91786966666667, "is_reserved": 0, "is_disabled": 0, "fusion_lon": 0.0, "bike_id": "2b9327914c23f1c9e0d140f902745d16", "lon": -77.02289583333334, "rental_uris": {"ios": "https://dc.lft.to/lastmile_qr_scan", "android": "https://dc.lft.to/lastmile_qr_scan"}}, {"name": "ca2a2d8d6f23199490a3b7cccbe16860", "fusion_lat": 0.0, "type": "electric_scooter", "lat": 38.887394, "is_reserved": 0, "is_disabled": 0, "fusion_lon": 0.0, "bike_id": "ca2a2d8d6f23199490a3b7cccbe16860", "lon": -77.03216683333333, "rental_uris": {"ios": "https://dc.lft.to/lastmile_qr_scan", "android": "https://dc.lft.to/lastmile_qr_scan"}}, {"name": "195000de562c32a04272b95bcace1ab9", "fusion_lat": 0.0, "type": "electric_scooter", "lat": 38.92040133333333, "is_reserved": 0, "is_disabled": 0, "fusion_lon": 0.0, "bike_id": "195000de562c32a04272b95bcace1ab9", "lon": -77.07146816666666, "rental_uris": {"ios": "https://dc.lft.to/lastmile_qr_scan", "android": "https://dc.lft.to/lastmile_qr_scan"}}, {"name": "c4b396e98b2464c280fe4cde02f00b96", "fusion_lat": 0.0, "type": "electric_scooter", "lat": 38.929398666666664, "is_reserved": 0, "is_disabled": 0, "fusion_lon": 0.0, "bike_id": "c4b396e98b2464c280fe4cde02f00b96", "lon": -77.03629566666666, "rental_uris": {"ios": "https://dc.lft.to/lastmile_qr_scan", "android": "https://dc.lft.to/lastmile_qr_scan"}}, {"name": "c8b6e32d56dab4e264538523f1d717d0", "fusion_lat": 0.0, "type": "electric_scooter", "lat": 38.9011875, "is_reserved": 0, "is_disabled": 0, "fusion_lon": 0.0, "bike_id": "c8b6e32d56dab4e264538523f1d717d0", "lon": -77.0421955, "rental_uris": {"ios": "https://dc.lft.to/lastmile_qr_scan", "android": "https://dc.lft.to/lastmile_qr_scan"}}, {"name": "19f1764abca0e0d910a078584e44fe70", "fusion_lat": 0.0, "type": "electric_scooter", "lat": 38.94603083333333, "is_reserved": 0, "is_disabled": 0, "fusion_lon": 0.0, "bike_id": "19f1764abca0e0d910a078584e44fe70", "lon": -77.02979216666667, "rental_uris": {"ios": "https://dc.lft.to/lastmile_qr_scan", "android": "https://dc.lft.to/lastmile_qr_scan"}}, {"name": "808c72c4fe94f59be084339a6c3784fc", "fusion_lat": 0.0, "type": "electric_scooter", "lat": 38.919130833333334, "is_reserved": 0, "is_disabled": 0, "fusion_lon": 0.0, "bike_id": "808c72c4fe94f59be084339a6c3784fc", "lon": -77.0322295, "rental_uris": {"ios": "https://dc.lft.to/lastmile_qr_scan", "android": "https://dc.lft.to/lastmile_qr_scan"}}, {"name": "7914f185fce3bc6d4483e3f4b1133b3a", "fusion_lat": 0.0, "type": "electric_bike", "lat": 38.9257815, "is_reserved": 0, "is_disabled": 0, "fusion_lon": 0.0, "bike_id": "7914f185fce3bc6d4483e3f4b1133b3a", "lon": -76.9949375, "rental_uris": {"ios": "https://dc.lft.to/lastmile_qr_scan", "android": "https://dc.lft.to/lastmile_qr_scan"}}, {"name": "3dc79094739940d49522fd2930b00996", "fusion_lat": 0.0, "type": "electric_scooter", "lat": 38.900523666666665, "is_reserved": 0, "is_disabled": 0, "fusion_lon": 0.0, "bike_id": "3dc79094739940d49522fd2930b00996", "lon": -77.00074866666667, "rental_uris": {"ios": "https://dc.lft.to/lastmile_qr_scan", "android": "https://dc.lft.to/lastmile_qr_scan"}}, {"name": "ffa7b38610f52bf73ed2d47fb214b553", "fusion_lat": 0.0, "type": "electric_scooter", "lat": 38.90334466666667, "is_reserved": 0, "is_disabled": 0, "fusion_lon": 0.0, "bike_id": "ffa7b38610f52bf73ed2d47fb214b553", "lon": -77.03656333333333, "rental_uris": {"ios": "https://dc.lft.to/lastmile_qr_scan", "android": "https://dc.lft.to/lastmile_qr_scan"}}, {"name": "6706a4954272150e62c8974518f08a4c", "fusion_lat": 0.0, "type": "electric_scooter", "lat": 38.9377505, "is_reserved": 0, "is_disabled": 0, "fusion_lon": 0.0, "bike_id": "6706a4954272150e62c8974518f08a4c", "lon": -77.032632, "rental_uris": {"ios": "https://dc.lft.to/lastmile_qr_scan", "android": "https://dc.lft.to/lastmile_qr_scan"}}, {"name": "f948c6544f7a4cac0d412a8026d304ec", "fusion_lat": 0.0, "type": "electric_bike", "lat": 38.8506105, "is_reserved": 0, "is_disabled": 0, "fusion_lon": 0.0, "bike_id": "f948c6544f7a4cac0d412a8026d304ec", "lon": -76.97330616666666, "rental_uris": {"ios": "https://dc.lft.to/lastmile_qr_scan", "android": "https://dc.lft.to/lastmile_qr_scan"}}, {"name": "f51c4d9b31dca20a8489dfaf63bfad47", "fusion_lat": 0.0, "type": "electric_scooter", "lat": 38.92007233333333, "is_reserved": 0, "is_disabled": 0, "fusion_lon": 0.0, "bike_id": "f51c4d9b31dca20a8489dfaf63bfad47", "lon": -76.98494116666667, "rental_uris": {"ios": "https://dc.lft.to/lastmile_qr_scan", "android": "https://dc.lft.to/lastmile_qr_scan"}}, {"name": "555a3f5df4cec3f67280dfb7a88cf0bd", "fusion_lat": 0.0, "type": "electric_scooter", "lat": 38.94226183333333, "is_reserved": 0, "is_disabled": 0, "fusion_lon": 0.0, "bike_id": "555a3f5df4cec3f67280dfb7a88cf0bd", "lon": -77.07680333333333, "rental_uris": {"ios": "https://dc.lft.to/lastmile_qr_scan", "android": "https://dc.lft.to/lastmile_qr_scan"}}, {"name": "206b24e1548bb711b884e740c420cdf9", "fusion_lat": 0.0, "type": "electric_scooter", "lat": 38.90250416666667, "is_reserved": 0, "is_disabled": 0, "fusion_lon": 0.0, "bike_id": "206b24e1548bb711b884e740c420cdf9", "lon": -77.002028, "rental_uris": {"ios": "https://dc.lft.to/lastmile_qr_scan", "android": "https://dc.lft.to/lastmile_qr_scan"}}, {"name": "964d35d6e6434f903d0c135a73b57baf", "fusion_lat": 0.0, "type": "electric_scooter", "lat": 38.90702566666667, "is_reserved": 0, "is_disabled": 0, "fusion_lon": 0.0, "bike_id": "964d35d6e6434f903d0c135a73b57baf", "lon": -77.03202666666667, "rental_uris": {"ios": "https://dc.lft.to/lastmile_qr_scan", "android": "https://dc.lft.to/lastmile_qr_scan"}}, {"name": "f774adddef194117eaf5ec2f3de467cd", "fusion_lat": 0.0, "type": "electric_scooter", "lat": 38.92533566666667, "is_reserved": 0, "is_disabled": 0, "fusion_lon": 0.0, "bike_id": "f774adddef194117eaf5ec2f3de467cd", "lon": -77.0264065, "rental_uris": {"ios": "https://dc.lft.to/lastmile_qr_scan", "android": "https://dc.lft.to/lastmile_qr_scan"}}, {"name": "d95ef852473d407a66b6ab64fe4346f4", "fusion_lat": 0.0, "type": "electric_scooter", "lat": 38.905773333333336, "is_reserved": 0, "is_disabled": 0, "fusion_lon": 0.0, "bike_id": "d95ef852473d407a66b6ab64fe4346f4", "lon": -77.032627, "rental_uris": {"ios": "https://dc.lft.to/lastmile_qr_scan", "android": "https://dc.lft.to/lastmile_qr_scan"}}, {"name": "92f72192cc5b68c7dc50cc8982f8ad68", "fusion_lat": 0.0, "type": "electric_scooter", "lat": 38.91623633333333, "is_reserved": 0, "is_disabled": 0, "fusion_lon": 0.0, "bike_id": "92f72192cc5b68c7dc50cc8982f8ad68", "lon": -77.0230975, "rental_uris": {"ios": "https://dc.lft.to/lastmile_qr_scan", "android": "https://dc.lft.to/lastmile_qr_scan"}}, {"name": "9d01ca90ae86714ba58a90f2342ea423", "fusion_lat": 0.0, "type": "electric_scooter", "lat": 38.9225105, "is_reserved": 0, "is_disabled": 0, "fusion_lon": 0.0, "bike_id": "9d01ca90ae86714ba58a90f2342ea423", "lon": -77.0391065, "rental_uris": {"ios": "https://dc.lft.to/lastmile_qr_scan", "android": "https://dc.lft.to/lastmile_qr_scan"}}, {"name": "23532953145b86c10d18adce9853d174", "fusion_lat": 0.0, "type": "electric_scooter", "lat": 38.923451, "is_reserved": 0, "is_disabled": 0, "fusion_lon": 0.0, "bike_id": "23532953145b86c10d18adce9853d174", "lon": -77.05096433333334, "rental_uris": {"ios": "https://dc.lft.to/lastmile_qr_scan", "android": "https://dc.lft.to/lastmile_qr_scan"}}, {"name": "bdc8b897054504ea79f18782e159cbf7", "fusion_lat": 0.0, "type": "electric_scooter", "lat": 38.91359716666667, "is_reserved": 0, "is_disabled": 0, "fusion_lon": 0.0, "bike_id": "bdc8b897054504ea79f18782e159cbf7", "lon": -77.04573733333334, "rental_uris": {"ios": "https://dc.lft.to/lastmile_qr_scan", "android": "https://dc.lft.to/lastmile_qr_scan"}}, {"name": "611412634f736d9acd258730033c92e1", "fusion_lat": 0.0, "type": "electric_scooter", "lat": 38.89125683333333, "is_reserved": 0, "is_disabled": 0, "fusion_lon": 0.0, "bike_id": "611412634f736d9acd258730033c92e1", "lon": -76.9916475, "rental_uris": {"ios": "https://dc.lft.to/lastmile_qr_scan", "android": "https://dc.lft.to/lastmile_qr_scan"}}, {"name": "3a493569f42865b942234612e4981546", "fusion_lat": 0.0, "type": "electric_scooter", "lat": 38.944419833333335, "is_reserved": 0, "is_disabled": 0, "fusion_lon": 0.0, "bike_id": "3a493569f42865b942234612e4981546", "lon": -77.03287583333334, "rental_uris": {"ios": "https://dc.lft.to/lastmile_qr_scan", "android": "https://dc.lft.to/lastmile_qr_scan"}}, {"name": "073c2343238173a7bd145d209942fede", "fusion_lat": 0.0, "type": "electric_scooter", "lat": 38.937271, "is_reserved": 0, "is_disabled": 0, "fusion_lon": 0.0, "bike_id": "073c2343238173a7bd145d209942fede", "lon": -77.03276533333333, "rental_uris": {"ios": "https://dc.lft.to/lastmile_qr_scan", "android": "https://dc.lft.to/lastmile_qr_scan"}}, {"name": "bdf7f3ad89b26473af65f109c3c5f27a", "fusion_lat": 0.0, "type": "electric_scooter", "lat": 38.915640833333335, "is_reserved": 0, "is_disabled": 0, "fusion_lon": 0.0, "bike_id": "bdf7f3ad89b26473af65f109c3c5f27a", "lon": -77.01411, "rental_uris": {"ios": "https://dc.lft.to/lastmile_qr_scan", "android": "https://dc.lft.to/lastmile_qr_scan"}}, {"name": "2fb5231c3fac4ec634a70ca7978abebc", "fusion_lat": 0.0, "type": "electric_scooter", "lat": 38.92287683333333, "is_reserved": 0, "is_disabled": 0, "fusion_lon": 0.0, "bike_id": "2fb5231c3fac4ec634a70ca7978abebc", "lon": -77.03660016666667, "rental_uris": {"ios": "https://dc.lft.to/lastmile_qr_scan", "android": "https://dc.lft.to/lastmile_qr_scan"}}, {"name": "c085be83be3ae5ac35a8055d4eb62398", "fusion_lat": 0.0, "type": "electric_scooter", "lat": 38.92682583333333, "is_reserved": 0, "is_disabled": 0, "fusion_lon": 0.0, "bike_id": "c085be83be3ae5ac35a8055d4eb62398", "lon": -77.06644116666666, "rental_uris": {"ios": "https://dc.lft.to/lastmile_qr_scan", "android": "https://dc.lft.to/lastmile_qr_scan"}}, {"name": "fbc9f4b5ccb740b9082946fc24761e08", "fusion_lat": 0.0, "type": "electric_scooter", "lat": 38.916712, "is_reserved": 0, "is_disabled": 0, "fusion_lon": 0.0, "bike_id": "fbc9f4b5ccb740b9082946fc24761e08", "lon": -77.02297333333334, "rental_uris": {"ios": "https://dc.lft.to/lastmile_qr_scan", "android": "https://dc.lft.to/lastmile_qr_scan"}}, {"name": "63de9664de717b8740de2897a7086028", "fusion_lat": 0.0, "type": "electric_bike", "lat": 38.9460455, "is_reserved": 0, "is_disabled": 0, "fusion_lon": 0.0, "bike_id": "63de9664de717b8740de2897a7086028", "lon": -77.02981916666667, "rental_uris": {"ios": "https://dc.lft.to/lastmile_qr_scan", "android": "https://dc.lft.to/lastmile_qr_scan"}}, {"name": "503ce6e18c7c3d485997174c2e488ffe", "fusion_lat": 0.0, "type": "electric_scooter", "lat": 38.909609333333336, "is_reserved": 0, "is_disabled": 0, "fusion_lon": 0.0, "bike_id": "503ce6e18c7c3d485997174c2e488ffe", "lon": -77.01138, "rental_uris": {"ios": "https://dc.lft.to/lastmile_qr_scan", "android": "https://dc.lft.to/lastmile_qr_scan"}}, {"name": "eae245fb8491ce976ee59a70f3b44b94", "fusion_lat": 0.0, "type": "electric_bike", "lat": 38.854057833333336, "is_reserved": 0, "is_disabled": 0, "fusion_lon": 0.0, "bike_id": "eae245fb8491ce976ee59a70f3b44b94", "lon": -77.1181735, "rental_uris": {"ios": "https://dc.lft.to/lastmile_qr_scan", "android": "https://dc.lft.to/lastmile_qr_scan"}}, {"name": "f8c9c34a0fa9ef723af43b98d2f32290", "fusion_lat": 0.0, "type": "electric_scooter", "lat": 38.91041533333333, "is_reserved": 0, "is_disabled": 0, "fusion_lon": 0.0, "bike_id": "f8c9c34a0fa9ef723af43b98d2f32290", "lon": -77.02387816666666, "rental_uris": {"ios": "https://dc.lft.to/lastmile_qr_scan", "android": "https://dc.lft.to/lastmile_qr_scan"}}, {"name": "fcba274fff907f5af18d51d5cf40ca85", "fusion_lat": 0.0, "type": "electric_scooter", "lat": 38.914827333333335, "is_reserved": 0, "is_disabled": 0, "fusion_lon": 0.0, "bike_id": "fcba274fff907f5af18d51d5cf40ca85", "lon": -77.02182466666666, "rental_uris": {"ios": "https://dc.lft.to/lastmile_qr_scan", "android": "https://dc.lft.to/lastmile_qr_scan"}}, {"name": "8f0b361dc35f935c11d94d116efbef2d", "fusion_lat": 0.0, "type": "electric_scooter", "lat": 38.8976625, "is_reserved": 0, "is_disabled": 0, "fusion_lon": 0.0, "bike_id": "8f0b361dc35f935c11d94d116efbef2d", "lon": -76.9772235, "rental_uris": {"ios": "https://dc.lft.to/lastmile_qr_scan", "android": "https://dc.lft.to/lastmile_qr_scan"}}, {"name": "0a4b9eae485de039be2fd68e951fd3d1", "fusion_lat": 0.0, "type": "electric_bike", "lat": 38.9176395, "is_reserved": 0, "is_disabled": 0, "fusion_lon": 0.0, "bike_id": "0a4b9eae485de039be2fd68e951fd3d1", "lon": -77.016097, "rental_uris": {"ios": "https://dc.lft.to/lastmile_qr_scan", "android": "https://dc.lft.to/lastmile_qr_scan"}}, {"name": "fc6d1fa26705d6c7dec2950db2570225", "fusion_lat": 0.0, "type": "electric_scooter", "lat": 38.91497316666667, "is_reserved": 0, "is_disabled": 0, "fusion_lon": 0.0, "bike_id": "fc6d1fa26705d6c7dec2950db2570225", "lon": -77.032698, "rental_uris": {"ios": "https://dc.lft.to/lastmile_qr_scan", "android": "https://dc.lft.to/lastmile_qr_scan"}}, {"name": "a91e790053836521d5756471c05d1ce3", "fusion_lat": 0.0, "type": "electric_bike", "lat": 38.949014166666664, "is_reserved": 0, "is_disabled": 0, "fusion_lon": 0.0, "bike_id": "a91e790053836521d5756471c05d1ce3", "lon": -76.96378266666666, "rental_uris": {"ios": "https://dc.lft.to/lastmile_qr_scan", "android": "https://dc.lft.to/lastmile_qr_scan"}}, {"name": "a936b3f6f935d977fe51ed0cff68ff62", "fusion_lat": 0.0, "type": "electric_bike", "lat": 38.99830516666667, "is_reserved": 0, "is_disabled": 0, "fusion_lon": 0.0, "bike_id": "a936b3f6f935d977fe51ed0cff68ff62", "lon": -76.883511, "rental_uris": {"ios": "https://dc.lft.to/lastmile_qr_scan", "android": "https://dc.lft.to/lastmile_qr_scan"}}, {"name": "156fad84f96c0993d1fe4db9361c7f67", "fusion_lat": 0.0, "type": "electric_bike", "lat": 38.863877, "is_reserved": 0, "is_disabled": 0, "fusion_lon": 0.0, "bike_id": "156fad84f96c0993d1fe4db9361c7f67", "lon": -76.9899435, "rental_uris": {"ios": "https://dc.lft.to/lastmile_qr_scan", "android": "https://dc.lft.to/lastmile_qr_scan"}}, {"name": "6d073f0bf416b57a05f28e047a98b608", "fusion_lat": 0.0, "type": "electric_scooter", "lat": 38.836026333333336, "is_reserved": 0, "is_disabled": 0, "fusion_lon": 0.0, "bike_id": "6d073f0bf416b57a05f28e047a98b608", "lon": -76.99351283333333, "rental_uris": {"ios": "https://dc.lft.to/lastmile_qr_scan", "android": "https://dc.lft.to/lastmile_qr_scan"}}, {"name": "971897d5765c8ae6505d403d721878ff", "fusion_lat": 0.0, "type": "electric_scooter", "lat": 38.87422083333333, "is_reserved": 0, "is_disabled": 0, "fusion_lon": 0.0, "bike_id": "971897d5765c8ae6505d403d721878ff", "lon": -76.97177983333333, "rental_uris": {"ios": "https://dc.lft.to/lastmile_qr_scan", "android": "https://dc.lft.to/lastmile_qr_scan"}}, {"name": "af77305ba7a988412c848c631e42d648", "fusion_lat": 0.0, "type": "electric_scooter", "lat": 38.918438, "is_reserved": 0, "is_disabled": 0, "fusion_lon": 0.0, "bike_id": "af77305ba7a988412c848c631e42d648", "lon": -77.0260795, "rental_uris": {"ios": "https://dc.lft.to/lastmile_qr_scan", "android": "https://dc.lft.to/lastmile_qr_scan"}}, {"name": "6b61ce11adb535e68b72de6c14e7327a", "fusion_lat": 0.0, "type": "electric_scooter", "lat": 38.898801, "is_reserved": 0, "is_disabled": 0, "fusion_lon": 0.0, "bike_id": "6b61ce11adb535e68b72de6c14e7327a", "lon": -76.93159033333333, "rental_uris": {"ios": "https://dc.lft.to/lastmile_qr_scan", "android": "https://dc.lft.to/lastmile_qr_scan"}}, {"name": "ae96b021e7ba41ff0727b8a6f8d0ba83", "fusion_lat": 0.0, "type": "electric_scooter", "lat": 38.903720666666665, "is_reserved": 0, "is_disabled": 0, "fusion_lon": 0.0, "bike_id": "ae96b021e7ba41ff0727b8a6f8d0ba83", "lon": -77.01105583333333, "rental_uris": {"ios": "https://dc.lft.to/lastmile_qr_scan", "android": "https://dc.lft.to/lastmile_qr_scan"}}, {"name": "5ca4bc918fcf4254fc4f368b4694e585", "fusion_lat": 0.0, "type": "electric_scooter", "lat": 38.90344433333333, "is_reserved": 0, "is_disabled": 0, "fusion_lon": 0.0, "bike_id": "5ca4bc918fcf4254fc4f368b4694e585", "lon": -77.06641416666666, "rental_uris": {"ios": "https://dc.lft.to/lastmile_qr_scan", "android": "https://dc.lft.to/lastmile_qr_scan"}}, {"name": "e7c04c204978764fd1aa988de2b672ed", "fusion_lat": 0.0, "type": "electric_scooter", "lat": 38.91198033333333, "is_reserved": 0, "is_disabled": 0, "fusion_lon": 0.0, "bike_id": "e7c04c204978764fd1aa988de2b672ed", "lon": -77.03644933333334, "rental_uris": {"ios": "https://dc.lft.to/lastmile_qr_scan", "android": "https://dc.lft.to/lastmile_qr_scan"}}, {"name": "c974b996c224072de3ec365689839173", "fusion_lat": 0.0, "type": "electric_scooter", "lat": 38.9065445, "is_reserved": 0, "is_disabled": 0, "fusion_lon": 0.0, "bike_id": "c974b996c224072de3ec365689839173", "lon": -77.04167266666667, "rental_uris": {"ios": "https://dc.lft.to/lastmile_qr_scan", "android": "https://dc.lft.to/lastmile_qr_scan"}}, {"name": "2f1fd14fd7e1889d3a7433a4a5ce3dc4", "fusion_lat": 0.0, "type": "electric_scooter", "lat": 38.91612516666667, "is_reserved": 0, "is_disabled": 0, "fusion_lon": 0.0, "bike_id": "2f1fd14fd7e1889d3a7433a4a5ce3dc4", "lon": -77.02168783333333, "rental_uris": {"ios": "https://dc.lft.to/lastmile_qr_scan", "android": "https://dc.lft.to/lastmile_qr_scan"}}, {"name": "fa5ed4535c6e0239afb17c1d18b2e584", "fusion_lat": 0.0, "type": "electric_scooter", "lat": 38.941775, "is_reserved": 0, "is_disabled": 0, "fusion_lon": 0.0, "bike_id": "fa5ed4535c6e0239afb17c1d18b2e584", "lon": -77.04139116666667, "rental_uris": {"ios": "https://dc.lft.to/lastmile_qr_scan", "android": "https://dc.lft.to/lastmile_qr_scan"}}, {"name": "1f499b35b863aa0f279360916b2cd1db", "fusion_lat": 0.0, "type": "electric_scooter", "lat": 38.91616033333333, "is_reserved": 0, "is_disabled": 0, "fusion_lon": 0.0, "bike_id": "1f499b35b863aa0f279360916b2cd1db", "lon": -77.02299666666667, "rental_uris": {"ios": "https://dc.lft.to/lastmile_qr_scan", "android": "https://dc.lft.to/lastmile_qr_scan"}}, {"name": "793d772c80afd21577d93d076bcdbb34", "fusion_lat": 0.0, "type": "electric_scooter", "lat": 38.91704883333333, "is_reserved": 0, "is_disabled": 0, "fusion_lon": 0.0, "bike_id": "793d772c80afd21577d93d076bcdbb34", "lon": -77.04272166666667, "rental_uris": {"ios": "https://dc.lft.to/lastmile_qr_scan", "android": "https://dc.lft.to/lastmile_qr_scan"}}, {"name": "ce4e50d73013ecd3cb4f411d992825f7", "fusion_lat": 0.0, "type": "electric_scooter", "lat": 38.92071, "is_reserved": 0, "is_disabled": 0, "fusion_lon": 0.0, "bike_id": "ce4e50d73013ecd3cb4f411d992825f7", "lon": -77.04378033333333, "rental_uris": {"ios": "https://dc.lft.to/lastmile_qr_scan", "android": "https://dc.lft.to/lastmile_qr_scan"}}, {"name": "d20efe01d053cd3b0a84e40b6bd5706f", "fusion_lat": 0.0, "type": "electric_scooter", "lat": 38.961135666666664, "is_reserved": 0, "is_disabled": 0, "fusion_lon": 0.0, "bike_id": "d20efe01d053cd3b0a84e40b6bd5706f", "lon": -77.02818516666666, "rental_uris": {"ios": "https://dc.lft.to/lastmile_qr_scan", "android": "https://dc.lft.to/lastmile_qr_scan"}}, {"name": "1a9cd9e164eb35f9bcafd7018d80cdc5", "fusion_lat": 0.0, "type": "electric_scooter", "lat": 38.917087333333335, "is_reserved": 0, "is_disabled": 0, "fusion_lon": 0.0, "bike_id": "1a9cd9e164eb35f9bcafd7018d80cdc5", "lon": -77.02850916666667, "rental_uris": {"ios": "https://dc.lft.to/lastmile_qr_scan", "android": "https://dc.lft.to/lastmile_qr_scan"}}, {"name": "5b9e3cc8da2501ca7e50843877d5718b", "fusion_lat": 0.0, "type": "electric_scooter", "lat": 38.923156666666664, "is_reserved": 0, "is_disabled": 0, "fusion_lon": 0.0, "bike_id": "5b9e3cc8da2501ca7e50843877d5718b", "lon": -77.04521383333334, "rental_uris": {"ios": "https://dc.lft.to/lastmile_qr_scan", "android": "https://dc.lft.to/lastmile_qr_scan"}}, {"name": "8419b3882eca026d576b4d200c459851", "fusion_lat": 0.0, "type": "electric_scooter", "lat": 38.902605333333334, "is_reserved": 0, "is_disabled": 0, "fusion_lon": 0.0, "bike_id": "8419b3882eca026d576b4d200c459851", "lon": -77.0176155, "rental_uris": {"ios": "https://dc.lft.to/lastmile_qr_scan", "android": "https://dc.lft.to/lastmile_qr_scan"}}, {"name": "4c43b807d9410dbca009d0819c59c53b", "fusion_lat": 0.0, "type": "electric_scooter", "lat": 38.9119255, "is_reserved": 0, "is_disabled": 0, "fusion_lon": 0.0, "bike_id": "4c43b807d9410dbca009d0819c59c53b", "lon": -76.9962105, "rental_uris": {"ios": "https://dc.lft.to/lastmile_qr_scan", "android": "https://dc.lft.to/lastmile_qr_scan"}}, {"name": "e7ea2e1a50091fe4d2306516f839b9a8", "fusion_lat": 0.0, "type": "electric_scooter", "lat": 38.898344333333334, "is_reserved": 0, "is_disabled": 0, "fusion_lon": 0.0, "bike_id": "e7ea2e1a50091fe4d2306516f839b9a8", "lon": -76.946436, "rental_uris": {"ios": "https://dc.lft.to/lastmile_qr_scan", "android": "https://dc.lft.to/lastmile_qr_scan"}}, {"name": "c484554571881493ab704049cf57756c", "fusion_lat": 0.0, "type": "electric_scooter", "lat": 38.920742, "is_reserved": 0, "is_disabled": 0, "fusion_lon": 0.0, "bike_id": "c484554571881493ab704049cf57756c", "lon": -77.0239385, "rental_uris": {"ios": "https://dc.lft.to/lastmile_qr_scan", "android": "https://dc.lft.to/lastmile_qr_scan"}}, {"name": "fb2a427432473591f57355484ca344dc", "fusion_lat": 0.0, "type": "electric_scooter", "lat": 38.912629, "is_reserved": 0, "is_disabled": 0, "fusion_lon": 0.0, "bike_id": "fb2a427432473591f57355484ca344dc", "lon": -77.04213733333333, "rental_uris": {"ios": "https://dc.lft.to/lastmile_qr_scan", "android": "https://dc.lft.to/lastmile_qr_scan"}}, {"name": "26a68cb2df6eea087bd47d93d19e1e36", "fusion_lat": 0.0, "type": "electric_bike", "lat": 38.8616385, "is_reserved": 0, "is_disabled": 0, "fusion_lon": 0.0, "bike_id": "26a68cb2df6eea087bd47d93d19e1e36", "lon": -77.1309625, "rental_uris": {"ios": "https://dc.lft.to/lastmile_qr_scan", "android": "https://dc.lft.to/lastmile_qr_scan"}}, {"name": "41a66bb95852ba2eeab9d167ff584da0", "fusion_lat": 0.0, "type": "electric_scooter", "lat": 38.902385, "is_reserved": 0, "is_disabled": 0, "fusion_lon": 0.0, "bike_id": "41a66bb95852ba2eeab9d167ff584da0", "lon": -76.97409866666666, "rental_uris": {"ios": "https://dc.lft.to/lastmile_qr_scan", "android": "https://dc.lft.to/lastmile_qr_scan"}}, {"name": "8e2d50dcf888cfc7bd5b8d4cb5ade6bf", "fusion_lat": 0.0, "type": "electric_scooter", "lat": 38.923554833333334, "is_reserved": 0, "is_disabled": 0, "fusion_lon": 0.0, "bike_id": "8e2d50dcf888cfc7bd5b8d4cb5ade6bf", "lon": -77.03364733333333, "rental_uris": {"ios": "https://dc.lft.to/lastmile_qr_scan", "android": "https://dc.lft.to/lastmile_qr_scan"}}, {"name": "071499e567b2b313021bb89c4b19bd0e", "fusion_lat": 0.0, "type": "electric_scooter", "lat": 38.88374683333333, "is_reserved": 0, "is_disabled": 0, "fusion_lon": 0.0, "bike_id": "071499e567b2b313021bb89c4b19bd0e", "lon": -77.02303083333334, "rental_uris": {"ios": "https://dc.lft.to/lastmile_qr_scan", "android": "https://dc.lft.to/lastmile_qr_scan"}}, {"name": "55bbb8f8937265e8ba4c258751842ffd", "fusion_lat": 0.0, "type": "electric_scooter", "lat": 38.92178666666667, "is_reserved": 0, "is_disabled": 0, "fusion_lon": 0.0, "bike_id": "55bbb8f8937265e8ba4c258751842ffd", "lon": -77.02659216666666, "rental_uris": {"ios": "https://dc.lft.to/lastmile_qr_scan", "android": "https://dc.lft.to/lastmile_qr_scan"}}, {"name": "63cfc92440c7bbf8f98eaed92a245713", "fusion_lat": 0.0, "type": "electric_scooter", "lat": 38.89241633333334, "is_reserved": 0, "is_disabled": 0, "fusion_lon": 0.0, "bike_id": "63cfc92440c7bbf8f98eaed92a245713", "lon": -77.0178925, "rental_uris": {"ios": "https://dc.lft.to/lastmile_qr_scan", "android": "https://dc.lft.to/lastmile_qr_scan"}}, {"name": "73d6fd3d1a19fa4e35e858d702110da1", "fusion_lat": 0.0, "type": "electric_scooter", "lat": 38.9348575, "is_reserved": 0, "is_disabled": 0, "fusion_lon": 0.0, "bike_id": "73d6fd3d1a19fa4e35e858d702110da1", "lon": -77.03384516666667, "rental_uris": {"ios": "https://dc.lft.to/lastmile_qr_scan", "android": "https://dc.lft.to/lastmile_qr_scan"}}, {"name": "5150363bc88d9cf4a3c65d4036d5886d", "fusion_lat": 0.0, "type": "electric_scooter", "lat": 38.90008, "is_reserved": 0, "is_disabled": 0, "fusion_lon": 0.0, "bike_id": "5150363bc88d9cf4a3c65d4036d5886d", "lon": -77.01193533333333, "rental_uris": {"ios": "https://dc.lft.to/lastmile_qr_scan", "android": "https://dc.lft.to/lastmile_qr_scan"}}, {"name": "6698559e8a72cb159e5aa58c01c684eb", "fusion_lat": 0.0, "type": "electric_scooter", "lat": 38.91406516666667, "is_reserved": 0, "is_disabled": 0, "fusion_lon": 0.0, "bike_id": "6698559e8a72cb159e5aa58c01c684eb", "lon": -77.008059, "rental_uris": {"ios": "https://dc.lft.to/lastmile_qr_scan", "android": "https://dc.lft.to/lastmile_qr_scan"}}, {"name": "f0acbf9b62afa1bfd600300b933b0e95", "fusion_lat": 0.0, "type": "electric_scooter", "lat": 38.9057115, "is_reserved": 0, "is_disabled": 0, "fusion_lon": 0.0, "bike_id": "f0acbf9b62afa1bfd600300b933b0e95", "lon": -77.03627183333333, "rental_uris": {"ios": "https://dc.lft.to/lastmile_qr_scan", "android": "https://dc.lft.to/lastmile_qr_scan"}}, {"name": "52fae07f5fe47575dd472cd98e1873f2", "fusion_lat": 0.0, "type": "electric_bike", "lat": 38.967654833333334, "is_reserved": 0, "is_disabled": 0, "fusion_lon": 0.0, "bike_id": "52fae07f5fe47575dd472cd98e1873f2", "lon": -77.09164666666666, "rental_uris": {"ios": "https://dc.lft.to/lastmile_qr_scan", "android": "https://dc.lft.to/lastmile_qr_scan"}}, {"name": "b354bd3797251b8a25a8ca031f3634dd", "fusion_lat": 0.0, "type": "electric_scooter", "lat": 38.90665083333333, "is_reserved": 0, "is_disabled": 0, "fusion_lon": 0.0, "bike_id": "b354bd3797251b8a25a8ca031f3634dd", "lon": -77.0271805, "rental_uris": {"ios": "https://dc.lft.to/lastmile_qr_scan", "android": "https://dc.lft.to/lastmile_qr_scan"}}, {"name": "8f9e39d314d42f8b60cb5794a0e49268", "fusion_lat": 0.0, "type": "electric_bike", "lat": 38.931171166666665, "is_reserved": 0, "is_disabled": 0, "fusion_lon": 0.0, "bike_id": "8f9e39d314d42f8b60cb5794a0e49268", "lon": -77.02733283333333, "rental_uris": {"ios": "https://dc.lft.to/lastmile_qr_scan", "android": "https://dc.lft.to/lastmile_qr_scan"}}, {"name": "899ada4e02ba48514ed86228eb230068", "fusion_lat": 0.0, "type": "electric_scooter", "lat": 38.919449166666666, "is_reserved": 0, "is_disabled": 0, "fusion_lon": 0.0, "bike_id": "899ada4e02ba48514ed86228eb230068", "lon": -77.0454135, "rental_uris": {"ios": "https://dc.lft.to/lastmile_qr_scan", "android": "https://dc.lft.to/lastmile_qr_scan"}}, {"name": "01bc9220a5c7e1d3e586e3082bd1f3f3", "fusion_lat": 0.0, "type": "electric_scooter", "lat": 38.900039, "is_reserved": 0, "is_disabled": 0, "fusion_lon": 0.0, "bike_id": "01bc9220a5c7e1d3e586e3082bd1f3f3", "lon": -77.02944066666667, "rental_uris": {"ios": "https://dc.lft.to/lastmile_qr_scan", "android": "https://dc.lft.to/lastmile_qr_scan"}}, {"name": "51e7a9be8a9e306486dfc6a248c97c75", "fusion_lat": 0.0, "type": "electric_scooter", "lat": 38.948047333333335, "is_reserved": 0, "is_disabled": 0, "fusion_lon": 0.0, "bike_id": "51e7a9be8a9e306486dfc6a248c97c75", "lon": -77.07909766666667, "rental_uris": {"ios": "https://dc.lft.to/lastmile_qr_scan", "android": "https://dc.lft.to/lastmile_qr_scan"}}, {"name": "e72b64ae979a7d47c3fcf66ff7870e24", "fusion_lat": 0.0, "type": "electric_scooter", "lat": 38.927276, "is_reserved": 0, "is_disabled": 0, "fusion_lon": 0.0, "bike_id": "e72b64ae979a7d47c3fcf66ff7870e24", "lon": -77.0230865, "rental_uris": {"ios": "https://dc.lft.to/lastmile_qr_scan", "android": "https://dc.lft.to/lastmile_qr_scan"}}, {"name": "e2cdcecd9b1aed0a85a60daf474b10dd", "fusion_lat": 0.0, "type": "electric_scooter", "lat": 38.88840116666667, "is_reserved": 0, "is_disabled": 0, "fusion_lon": 0.0, "bike_id": "e2cdcecd9b1aed0a85a60daf474b10dd", "lon": -77.04904416666666, "rental_uris": {"ios": "https://dc.lft.to/lastmile_qr_scan", "android": "https://dc.lft.to/lastmile_qr_scan"}}, {"name": "7659beae0bedec5c2c260a167210cd92", "fusion_lat": 0.0, "type": "electric_scooter", "lat": 38.93375616666667, "is_reserved": 0, "is_disabled": 0, "fusion_lon": 0.0, "bike_id": "7659beae0bedec5c2c260a167210cd92", "lon": -77.03454316666667, "rental_uris": {"ios": "https://dc.lft.to/lastmile_qr_scan", "android": "https://dc.lft.to/lastmile_qr_scan"}}, {"name": "b2a7bc5afb590cd5c2cff9b156cc9c9e", "fusion_lat": 0.0, "type": "electric_scooter", "lat": 38.9041785, "is_reserved": 0, "is_disabled": 0, "fusion_lon": 0.0, "bike_id": "b2a7bc5afb590cd5c2cff9b156cc9c9e", "lon": -77.0532105, "rental_uris": {"ios": "https://dc.lft.to/lastmile_qr_scan", "android": "https://dc.lft.to/lastmile_qr_scan"}}, {"name": "8b217487595c655a19f367a916adad68", "fusion_lat": 0.0, "type": "electric_scooter", "lat": 38.91698366666667, "is_reserved": 0, "is_disabled": 0, "fusion_lon": 0.0, "bike_id": "8b217487595c655a19f367a916adad68", "lon": -77.04338616666666, "rental_uris": {"ios": "https://dc.lft.to/lastmile_qr_scan", "android": "https://dc.lft.to/lastmile_qr_scan"}}, {"name": "0b31fdbcfe36852a911038a00f1e857e", "fusion_lat": 0.0, "type": "electric_bike", "lat": 38.93478233333333, "is_reserved": 0, "is_disabled": 0, "fusion_lon": 0.0, "bike_id": "0b31fdbcfe36852a911038a00f1e857e", "lon": -77.07293283333334, "rental_uris": {"ios": "https://dc.lft.to/lastmile_qr_scan", "android": "https://dc.lft.to/lastmile_qr_scan"}}, {"name": "795425534206400d379a55f8d292aee6", "fusion_lat": 0.0, "type": "electric_scooter", "lat": 38.860778, "is_reserved": 0, "is_disabled": 0, "fusion_lon": 0.0, "bike_id": "795425534206400d379a55f8d292aee6", "lon": -76.9674075, "rental_uris": {"ios": "https://dc.lft.to/lastmile_qr_scan", "android": "https://dc.lft.to/lastmile_qr_scan"}}, {"name": "f2075b31af76c31315720a88d2d42562", "fusion_lat": 0.0, "type": "electric_scooter", "lat": 38.90958666666667, "is_reserved": 0, "is_disabled": 0, "fusion_lon": 0.0, "bike_id": "f2075b31af76c31315720a88d2d42562", "lon": -77.02384016666667, "rental_uris": {"ios": "https://dc.lft.to/lastmile_qr_scan", "android": "https://dc.lft.to/lastmile_qr_scan"}}, {"name": "802d6c62de058e3f7dc085cbf334f1c9", "fusion_lat": 0.0, "type": "electric_scooter", "lat": 38.87649183333333, "is_reserved": 0, "is_disabled": 0, "fusion_lon": 0.0, "bike_id": "802d6c62de058e3f7dc085cbf334f1c9", "lon": -76.96508333333334, "rental_uris": {"ios": "https://dc.lft.to/lastmile_qr_scan", "android": "https://dc.lft.to/lastmile_qr_scan"}}, {"name": "b3a6f0f625a80dda56e67d15696ae6e5", "fusion_lat": 0.0, "type": "electric_scooter", "lat": 38.85798583333333, "is_reserved": 0, "is_disabled": 0, "fusion_lon": 0.0, "bike_id": "b3a6f0f625a80dda56e67d15696ae6e5", "lon": -76.98654816666667, "rental_uris": {"ios": "https://dc.lft.to/lastmile_qr_scan", "android": "https://dc.lft.to/lastmile_qr_scan"}}, {"name": "9ec5c13fed3ecb0a185068fc72035641", "fusion_lat": 0.0, "type": "electric_scooter", "lat": 38.92128816666666, "is_reserved": 0, "is_disabled": 0, "fusion_lon": 0.0, "bike_id": "9ec5c13fed3ecb0a185068fc72035641", "lon": -77.03659183333333, "rental_uris": {"ios": "https://dc.lft.to/lastmile_qr_scan", "android": "https://dc.lft.to/lastmile_qr_scan"}}, {"name": "438309a6ce57757db8694e31c5c7ab53", "fusion_lat": 0.0, "type": "electric_scooter", "lat": 38.900074000000004, "is_reserved": 0, "is_disabled": 0, "fusion_lon": 0.0, "bike_id": "438309a6ce57757db8694e31c5c7ab53", "lon": -77.02696683333333, "rental_uris": {"ios": "https://dc.lft.to/lastmile_qr_scan", "android": "https://dc.lft.to/lastmile_qr_scan"}}, {"name": "d6a8b0dd05880bb7bba1bf0fdc272602", "fusion_lat": 0.0, "type": "electric_scooter", "lat": 38.902308833333336, "is_reserved": 0, "is_disabled": 0, "fusion_lon": 0.0, "bike_id": "d6a8b0dd05880bb7bba1bf0fdc272602", "lon": -77.0436125, "rental_uris": {"ios": "https://dc.lft.to/lastmile_qr_scan", "android": "https://dc.lft.to/lastmile_qr_scan"}}, {"name": "500e6b12d57191a8f1800ba0f2f67c25", "fusion_lat": 0.0, "type": "electric_scooter", "lat": 38.9294455, "is_reserved": 0, "is_disabled": 0, "fusion_lon": 0.0, "bike_id": "500e6b12d57191a8f1800ba0f2f67c25", "lon": -77.03483933333334, "rental_uris": {"ios": "https://dc.lft.to/lastmile_qr_scan", "android": "https://dc.lft.to/lastmile_qr_scan"}}, {"name": "3d8b0be7f286a219f3ce6daea3631f81", "fusion_lat": 0.0, "type": "electric_scooter", "lat": 38.91357133333333, "is_reserved": 0, "is_disabled": 0, "fusion_lon": 0.0, "bike_id": "3d8b0be7f286a219f3ce6daea3631f81", "lon": -77.04351833333334, "rental_uris": {"ios": "https://dc.lft.to/lastmile_qr_scan", "android": "https://dc.lft.to/lastmile_qr_scan"}}, {"name": "eed7ece02baca661774c9cd797eb99c5", "fusion_lat": 0.0, "type": "electric_scooter", "lat": 38.85204016666667, "is_reserved": 0, "is_disabled": 0, "fusion_lon": 0.0, "bike_id": "eed7ece02baca661774c9cd797eb99c5", "lon": -76.98561566666666, "rental_uris": {"ios": "https://dc.lft.to/lastmile_qr_scan", "android": "https://dc.lft.to/lastmile_qr_scan"}}, {"name": "90b2010a295c3cf0ddbd1c6b8742d536", "fusion_lat": 0.0, "type": "electric_scooter", "lat": 38.91115216666667, "is_reserved": 0, "is_disabled": 0, "fusion_lon": 0.0, "bike_id": "90b2010a295c3cf0ddbd1c6b8742d536", "lon": -77.0370935, "rental_uris": {"ios": "https://dc.lft.to/lastmile_qr_scan", "android": "https://dc.lft.to/lastmile_qr_scan"}}, {"name": "5b3822ec2e74403c7256dbe7278ceb01", "fusion_lat": 0.0, "type": "electric_scooter", "lat": 38.9059065, "is_reserved": 0, "is_disabled": 0, "fusion_lon": 0.0, "bike_id": "5b3822ec2e74403c7256dbe7278ceb01", "lon": -77.070081, "rental_uris": {"ios": "https://dc.lft.to/lastmile_qr_scan", "android": "https://dc.lft.to/lastmile_qr_scan"}}, {"name": "7237234fbde3fac1883e9136bf0862f0", "fusion_lat": 0.0, "type": "electric_scooter", "lat": 38.92217733333333, "is_reserved": 0, "is_disabled": 0, "fusion_lon": 0.0, "bike_id": "7237234fbde3fac1883e9136bf0862f0", "lon": -77.04239116666666, "rental_uris": {"ios": "https://dc.lft.to/lastmile_qr_scan", "android": "https://dc.lft.to/lastmile_qr_scan"}}, {"name": "735f7a93a6dc17a10c1851280100bfc2", "fusion_lat": 0.0, "type": "electric_scooter", "lat": 38.93786516666667, "is_reserved": 0, "is_disabled": 0, "fusion_lon": 0.0, "bike_id": "735f7a93a6dc17a10c1851280100bfc2", "lon": -77.05994233333334, "rental_uris": {"ios": "https://dc.lft.to/lastmile_qr_scan", "android": "https://dc.lft.to/lastmile_qr_scan"}}, {"name": "29805f4f73e297388589aa7bd883ae82", "fusion_lat": 0.0, "type": "electric_scooter", "lat": 38.903621666666666, "is_reserved": 0, "is_disabled": 0, "fusion_lon": 0.0, "bike_id": "29805f4f73e297388589aa7bd883ae82", "lon": -77.04007683333333, "rental_uris": {"ios": "https://dc.lft.to/lastmile_qr_scan", "android": "https://dc.lft.to/lastmile_qr_scan"}}, {"name": "f89e94de9a1d68bcd1460bb4c1587e8c", "fusion_lat": 0.0, "type": "electric_bike", "lat": 38.99068033333333, "is_reserved": 0, "is_disabled": 0, "fusion_lon": 0.0, "bike_id": "f89e94de9a1d68bcd1460bb4c1587e8c", "lon": -77.10033983333334, "rental_uris": {"ios": "https://dc.lft.to/lastmile_qr_scan", "android": "https://dc.lft.to/lastmile_qr_scan"}}, {"name": "5fdc20fb175173a4e62d616a93f3c023", "fusion_lat": 0.0, "type": "electric_scooter", "lat": 38.938417666666666, "is_reserved": 0, "is_disabled": 0, "fusion_lon": 0.0, "bike_id": "5fdc20fb175173a4e62d616a93f3c023", "lon": -77.02491316666666, "rental_uris": {"ios": "https://dc.lft.to/lastmile_qr_scan", "android": "https://dc.lft.to/lastmile_qr_scan"}}, {"name": "06fc18418935e04275d8d6298e66dec2", "fusion_lat": 0.0, "type": "electric_scooter", "lat": 38.88467833333333, "is_reserved": 0, "is_disabled": 0, "fusion_lon": 0.0, "bike_id": "06fc18418935e04275d8d6298e66dec2", "lon": -77.021058, "rental_uris": {"ios": "https://dc.lft.to/lastmile_qr_scan", "android": "https://dc.lft.to/lastmile_qr_scan"}}, {"name": "1dd43fdccba0374b8e3db8693b8d429b", "fusion_lat": 0.0, "type": "electric_scooter", "lat": 38.92430133333333, "is_reserved": 0, "is_disabled": 0, "fusion_lon": 0.0, "bike_id": "1dd43fdccba0374b8e3db8693b8d429b", "lon": -77.04244666666666, "rental_uris": {"ios": "https://dc.lft.to/lastmile_qr_scan", "android": "https://dc.lft.to/lastmile_qr_scan"}}, {"name": "a3ab342768d4c9b273026cea819cdab5", "fusion_lat": 0.0, "type": "electric_scooter", "lat": 38.86660216666667, "is_reserved": 0, "is_disabled": 0, "fusion_lon": 0.0, "bike_id": "a3ab342768d4c9b273026cea819cdab5", "lon": -76.98887233333333, "rental_uris": {"ios": "https://dc.lft.to/lastmile_qr_scan", "android": "https://dc.lft.to/lastmile_qr_scan"}}, {"name": "5159268f154f3fa6984e4512c3754cca", "fusion_lat": 0.0, "type": "electric_scooter", "lat": 38.92011566666667, "is_reserved": 0, "is_disabled": 0, "fusion_lon": 0.0, "bike_id": "5159268f154f3fa6984e4512c3754cca", "lon": -77.03205016666666, "rental_uris": {"ios": "https://dc.lft.to/lastmile_qr_scan", "android": "https://dc.lft.to/lastmile_qr_scan"}}, {"name": "05f7732253b755277824bda9ac37a0d3", "fusion_lat": 0.0, "type": "electric_scooter", "lat": 38.92433333333334, "is_reserved": 0, "is_disabled": 0, "fusion_lon": 0.0, "bike_id": "05f7732253b755277824bda9ac37a0d3", "lon": -77.04224716666667, "rental_uris": {"ios": "https://dc.lft.to/lastmile_qr_scan", "android": "https://dc.lft.to/lastmile_qr_scan"}}, {"name": "e4e226db9c1d44225b10484ba6c09799", "fusion_lat": 0.0, "type": "electric_scooter", "lat": 38.9076815, "is_reserved": 0, "is_disabled": 0, "fusion_lon": 0.0, "bike_id": "e4e226db9c1d44225b10484ba6c09799", "lon": -77.03575666666667, "rental_uris": {"ios": "https://dc.lft.to/lastmile_qr_scan", "android": "https://dc.lft.to/lastmile_qr_scan"}}, {"name": "1390146db7b543ca4c3453ae48ea9574", "fusion_lat": 0.0, "type": "electric_scooter", "lat": 38.903377166666665, "is_reserved": 0, "is_disabled": 0, "fusion_lon": 0.0, "bike_id": "1390146db7b543ca4c3453ae48ea9574", "lon": -76.99850116666667, "rental_uris": {"ios": "https://dc.lft.to/lastmile_qr_scan", "android": "https://dc.lft.to/lastmile_qr_scan"}}, {"name": "a4c46b94a7f906ed4f9ea8e1cea26cac", "fusion_lat": 0.0, "type": "electric_scooter", "lat": 38.90049233333333, "is_reserved": 0, "is_disabled": 0, "fusion_lon": 0.0, "bike_id": "a4c46b94a7f906ed4f9ea8e1cea26cac", "lon": -77.01685, "rental_uris": {"ios": "https://dc.lft.to/lastmile_qr_scan", "android": "https://dc.lft.to/lastmile_qr_scan"}}, {"name": "bcdf9e6f9728fa766d25fc88d91a33a4", "fusion_lat": 0.0, "type": "electric_scooter", "lat": 38.9005895, "is_reserved": 0, "is_disabled": 0, "fusion_lon": 0.0, "bike_id": "bcdf9e6f9728fa766d25fc88d91a33a4", "lon": -77.0501165, "rental_uris": {"ios": "https://dc.lft.to/lastmile_qr_scan", "android": "https://dc.lft.to/lastmile_qr_scan"}}, {"name": "7d4512f5d539c13e9f56177b8b3537b0", "fusion_lat": 0.0, "type": "electric_bike", "lat": 38.9068555, "is_reserved": 0, "is_disabled": 0, "fusion_lon": 0.0, "bike_id": "7d4512f5d539c13e9f56177b8b3537b0", "lon": -76.95187316666667, "rental_uris": {"ios": "https://dc.lft.to/lastmile_qr_scan", "android": "https://dc.lft.to/lastmile_qr_scan"}}, {"name": "f234bd0adc883fb51fcca20565da8192", "fusion_lat": 0.0, "type": "electric_scooter", "lat": 38.938968833333334, "is_reserved": 0, "is_disabled": 0, "fusion_lon": 0.0, "bike_id": "f234bd0adc883fb51fcca20565da8192", "lon": -77.0246125, "rental_uris": {"ios": "https://dc.lft.to/lastmile_qr_scan", "android": "https://dc.lft.to/lastmile_qr_scan"}}, {"name": "81e9f3e5a5eb7cf0f1556f2ea2b135b4", "fusion_lat": 0.0, "type": "electric_bike", "lat": 38.80230133333333, "is_reserved": 0, "is_disabled": 0, "fusion_lon": 0.0, "bike_id": "81e9f3e5a5eb7cf0f1556f2ea2b135b4", "lon": -77.07911866666667, "rental_uris": {"ios": "https://dc.lft.to/lastmile_qr_scan", "android": "https://dc.lft.to/lastmile_qr_scan"}}, {"name": "0b9a219a28ad2a317fbd07d1328d87ff", "fusion_lat": 0.0, "type": "electric_scooter", "lat": 38.90754783333333, "is_reserved": 0, "is_disabled": 0, "fusion_lon": 0.0, "bike_id": "0b9a219a28ad2a317fbd07d1328d87ff", "lon": -77.0322125, "rental_uris": {"ios": "https://dc.lft.to/lastmile_qr_scan", "android": "https://dc.lft.to/lastmile_qr_scan"}}, {"name": "0ab0e4195227c0b5ebc3dee0b4c91020", "fusion_lat": 0.0, "type": "electric_scooter", "lat": 38.89545, "is_reserved": 0, "is_disabled": 0, "fusion_lon": 0.0, "bike_id": "0ab0e4195227c0b5ebc3dee0b4c91020", "lon": -77.04295366666666, "rental_uris": {"ios": "https://dc.lft.to/lastmile_qr_scan", "android": "https://dc.lft.to/lastmile_qr_scan"}}, {"name": "f2881178f567b57a883173db627fe8c9", "fusion_lat": 0.0, "type": "electric_scooter", "lat": 38.897286666666666, "is_reserved": 0, "is_disabled": 0, "fusion_lon": 0.0, "bike_id": "f2881178f567b57a883173db627fe8c9", "lon": -77.03103183333333, "rental_uris": {"ios": "https://dc.lft.to/lastmile_qr_scan", "android": "https://dc.lft.to/lastmile_qr_scan"}}, {"name": "483f452a9e7c92c4203b41df56556b6c", "fusion_lat": 0.0, "type": "electric_scooter", "lat": 38.903866, "is_reserved": 0, "is_disabled": 0, "fusion_lon": 0.0, "bike_id": "483f452a9e7c92c4203b41df56556b6c", "lon": -77.0110365, "rental_uris": {"ios": "https://dc.lft.to/lastmile_qr_scan", "android": "https://dc.lft.to/lastmile_qr_scan"}}, {"name": "19c03cabcc7124f87b2f38ab20eda3f8", "fusion_lat": 0.0, "type": "electric_scooter", "lat": 38.9068235, "is_reserved": 0, "is_disabled": 0, "fusion_lon": 0.0, "bike_id": "19c03cabcc7124f87b2f38ab20eda3f8", "lon": -77.01094816666667, "rental_uris": {"ios": "https://dc.lft.to/lastmile_qr_scan", "android": "https://dc.lft.to/lastmile_qr_scan"}}, {"name": "fa1dfe2994779b8851183d751d6d20f5", "fusion_lat": 0.0, "type": "electric_scooter", "lat": 38.91249533333333, "is_reserved": 0, "is_disabled": 0, "fusion_lon": 0.0, "bike_id": "fa1dfe2994779b8851183d751d6d20f5", "lon": -77.03839116666667, "rental_uris": {"ios": "https://dc.lft.to/lastmile_qr_scan", "android": "https://dc.lft.to/lastmile_qr_scan"}}, {"name": "4d8d180fc2020962034087ad427bf9ea", "fusion_lat": 0.0, "type": "electric_scooter", "lat": 38.898603666666666, "is_reserved": 0, "is_disabled": 0, "fusion_lon": 0.0, "bike_id": "4d8d180fc2020962034087ad427bf9ea", "lon": -76.99031133333334, "rental_uris": {"ios": "https://dc.lft.to/lastmile_qr_scan", "android": "https://dc.lft.to/lastmile_qr_scan"}}, {"name": "8fbbc6cc0f38b075716ea62834703db0", "fusion_lat": 0.0, "type": "electric_scooter", "lat": 38.911519, "is_reserved": 0, "is_disabled": 0, "fusion_lon": 0.0, "bike_id": "8fbbc6cc0f38b075716ea62834703db0", "lon": -77.02201416666666, "rental_uris": {"ios": "https://dc.lft.to/lastmile_qr_scan", "android": "https://dc.lft.to/lastmile_qr_scan"}}, {"name": "bdf3233d99ce5f2899a7a4db3c0002d9", "fusion_lat": 0.0, "type": "electric_scooter", "lat": 38.90371483333333, "is_reserved": 0, "is_disabled": 0, "fusion_lon": 0.0, "bike_id": "bdf3233d99ce5f2899a7a4db3c0002d9", "lon": -77.01763116666666, "rental_uris": {"ios": "https://dc.lft.to/lastmile_qr_scan", "android": "https://dc.lft.to/lastmile_qr_scan"}}, {"name": "f6219e622bd92c24f2ddd61e9a1b59aa", "fusion_lat": 0.0, "type": "electric_scooter", "lat": 38.956506833333336, "is_reserved": 0, "is_disabled": 0, "fusion_lon": 0.0, "bike_id": "f6219e622bd92c24f2ddd61e9a1b59aa", "lon": -77.03291833333333, "rental_uris": {"ios": "https://dc.lft.to/lastmile_qr_scan", "android": "https://dc.lft.to/lastmile_qr_scan"}}, {"name": "ce8f1cde84e5ce5e4c2415ad434e135a", "fusion_lat": 0.0, "type": "electric_scooter", "lat": 38.912536, "is_reserved": 0, "is_disabled": 0, "fusion_lon": 0.0, "bike_id": "ce8f1cde84e5ce5e4c2415ad434e135a", "lon": -77.03256933333333, "rental_uris": {"ios": "https://dc.lft.to/lastmile_qr_scan", "android": "https://dc.lft.to/lastmile_qr_scan"}}, {"name": "3988162a784dff5265aecabbb2ea5fc1", "fusion_lat": 0.0, "type": "electric_scooter", "lat": 38.90714766666667, "is_reserved": 0, "is_disabled": 0, "fusion_lon": 0.0, "bike_id": "3988162a784dff5265aecabbb2ea5fc1", "lon": -77.032606, "rental_uris": {"ios": "https://dc.lft.to/lastmile_qr_scan", "android": "https://dc.lft.to/lastmile_qr_scan"}}, {"name": "f16c24e9bb9c3f00691258ddb7b2f468", "fusion_lat": 0.0, "type": "electric_bike", "lat": 39.05352216666667, "is_reserved": 0, "is_disabled": 0, "fusion_lon": 0.0, "bike_id": "f16c24e9bb9c3f00691258ddb7b2f468", "lon": -77.04740683333333, "rental_uris": {"ios": "https://dc.lft.to/lastmile_qr_scan", "android": "https://dc.lft.to/lastmile_qr_scan"}}, {"name": "a7b8f933316c015dd6f529af9ef2f238", "fusion_lat": 0.0, "type": "electric_scooter", "lat": 38.92252716666667, "is_reserved": 0, "is_disabled": 0, "fusion_lon": 0.0, "bike_id": "a7b8f933316c015dd6f529af9ef2f238", "lon": -76.99383733333333, "rental_uris": {"ios": "https://dc.lft.to/lastmile_qr_scan", "android": "https://dc.lft.to/lastmile_qr_scan"}}, {"name": "553d17cc9e692af4b5e99f7900485a45", "fusion_lat": 0.0, "type": "electric_bike", "lat": 39.08857783333333, "is_reserved": 0, "is_disabled": 0, "fusion_lon": 0.0, "bike_id": "553d17cc9e692af4b5e99f7900485a45", "lon": -77.17843266666667, "rental_uris": {"ios": "https://dc.lft.to/lastmile_qr_scan", "android": "https://dc.lft.to/lastmile_qr_scan"}}, {"name": "c24a4b993448b76605c2feb5f57b37f7", "fusion_lat": 0.0, "type": "electric_scooter", "lat": 38.902854, "is_reserved": 0, "is_disabled": 0, "fusion_lon": 0.0, "bike_id": "c24a4b993448b76605c2feb5f57b37f7", "lon": -77.03675216666667, "rental_uris": {"ios": "https://dc.lft.to/lastmile_qr_scan", "android": "https://dc.lft.to/lastmile_qr_scan"}}, {"name": "b2be52ac0236ae102d470866daa3756b", "fusion_lat": 0.0, "type": "electric_bike", "lat": 38.93523416666667, "is_reserved": 0, "is_disabled": 0, "fusion_lon": 0.0, "bike_id": "b2be52ac0236ae102d470866daa3756b", "lon": -76.95062416666667, "rental_uris": {"ios": "https://dc.lft.to/lastmile_qr_scan", "android": "https://dc.lft.to/lastmile_qr_scan"}}, {"name": "3c0ee1202343955a9f0a7d1638d09462", "fusion_lat": 0.0, "type": "electric_scooter", "lat": 38.8653725, "is_reserved": 0, "is_disabled": 0, "fusion_lon": 0.0, "bike_id": "3c0ee1202343955a9f0a7d1638d09462", "lon": -76.98708916666666, "rental_uris": {"ios": "https://dc.lft.to/lastmile_qr_scan", "android": "https://dc.lft.to/lastmile_qr_scan"}}, {"name": "ce2fa3195238746cac98efa595e32386", "fusion_lat": 0.0, "type": "electric_scooter", "lat": 38.905769, "is_reserved": 0, "is_disabled": 0, "fusion_lon": 0.0, "bike_id": "ce2fa3195238746cac98efa595e32386", "lon": -77.022309, "rental_uris": {"ios": "https://dc.lft.to/lastmile_qr_scan", "android": "https://dc.lft.to/lastmile_qr_scan"}}, {"name": "c27675b88668b345d0409a7b6a51ebea", "fusion_lat": 0.0, "type": "electric_scooter", "lat": 38.90125, "is_reserved": 0, "is_disabled": 0, "fusion_lon": 0.0, "bike_id": "c27675b88668b345d0409a7b6a51ebea", "lon": -77.04216566666666, "rental_uris": {"ios": "https://dc.lft.to/lastmile_qr_scan", "android": "https://dc.lft.to/lastmile_qr_scan"}}, {"name": "08ac7911f200c2387199989770d039b0", "fusion_lat": 0.0, "type": "electric_bike", "lat": 38.9285555, "is_reserved": 0, "is_disabled": 0, "fusion_lon": 0.0, "bike_id": "08ac7911f200c2387199989770d039b0", "lon": -77.2222665, "rental_uris": {"ios": "https://dc.lft.to/lastmile_qr_scan", "android": "https://dc.lft.to/lastmile_qr_scan"}}, {"name": "38c2b6a4f5336693e79abe8e7f279fc9", "fusion_lat": 0.0, "type": "electric_scooter", "lat": 38.90978833333333, "is_reserved": 0, "is_disabled": 0, "fusion_lon": 0.0, "bike_id": "38c2b6a4f5336693e79abe8e7f279fc9", "lon": -77.03384033333333, "rental_uris": {"ios": "https://dc.lft.to/lastmile_qr_scan", "android": "https://dc.lft.to/lastmile_qr_scan"}}, {"name": "10d99379f6c592a7b7ce7699c8a01187", "fusion_lat": 0.0, "type": "electric_scooter", "lat": 38.889177, "is_reserved": 0, "is_disabled": 0, "fusion_lon": 0.0, "bike_id": "10d99379f6c592a7b7ce7699c8a01187", "lon": -76.95375416666667, "rental_uris": {"ios": "https://dc.lft.to/lastmile_qr_scan", "android": "https://dc.lft.to/lastmile_qr_scan"}}, {"name": "1a739e61929f9729022f07207649ac02", "fusion_lat": 0.0, "type": "electric_scooter", "lat": 38.92886083333333, "is_reserved": 0, "is_disabled": 0, "fusion_lon": 0.0, "bike_id": "1a739e61929f9729022f07207649ac02", "lon": -77.023111, "rental_uris": {"ios": "https://dc.lft.to/lastmile_qr_scan", "android": "https://dc.lft.to/lastmile_qr_scan"}}, {"name": "eb18d6a748756981f9e7c72cba1b7edf", "fusion_lat": 0.0, "type": "electric_scooter", "lat": 38.91199316666667, "is_reserved": 0, "is_disabled": 0, "fusion_lon": 0.0, "bike_id": "eb18d6a748756981f9e7c72cba1b7edf", "lon": -77.04466966666666, "rental_uris": {"ios": "https://dc.lft.to/lastmile_qr_scan", "android": "https://dc.lft.to/lastmile_qr_scan"}}, {"name": "f753cee7d7e09059078a91d8e6a34af8", "fusion_lat": 0.0, "type": "electric_scooter", "lat": 38.9057055, "is_reserved": 0, "is_disabled": 0, "fusion_lon": 0.0, "bike_id": "f753cee7d7e09059078a91d8e6a34af8", "lon": -77.0275005, "rental_uris": {"ios": "https://dc.lft.to/lastmile_qr_scan", "android": "https://dc.lft.to/lastmile_qr_scan"}}, {"name": "978e8af256b5f92c4c06a7de8e522b2d", "fusion_lat": 0.0, "type": "electric_scooter", "lat": 38.8920815, "is_reserved": 0, "is_disabled": 0, "fusion_lon": 0.0, "bike_id": "978e8af256b5f92c4c06a7de8e522b2d", "lon": -77.00245783333334, "rental_uris": {"ios": "https://dc.lft.to/lastmile_qr_scan", "android": "https://dc.lft.to/lastmile_qr_scan"}}, {"name": "5983ef1e1ca0841db83288321ca40d7a", "fusion_lat": 0.0, "type": "electric_scooter", "lat": 38.934707, "is_reserved": 0, "is_disabled": 0, "fusion_lon": 0.0, "bike_id": "5983ef1e1ca0841db83288321ca40d7a", "lon": -77.02846066666666, "rental_uris": {"ios": "https://dc.lft.to/lastmile_qr_scan", "android": "https://dc.lft.to/lastmile_qr_scan"}}, {"name": "d8dd67420425ff821ebdc7a72af118ef", "fusion_lat": 0.0, "type": "electric_scooter", "lat": 38.903641666666665, "is_reserved": 0, "is_disabled": 0, "fusion_lon": 0.0, "bike_id": "d8dd67420425ff821ebdc7a72af118ef", "lon": -77.0451525, "rental_uris": {"ios": "https://dc.lft.to/lastmile_qr_scan", "android": "https://dc.lft.to/lastmile_qr_scan"}}, {"name": "3f311bd6c491cf7f86d9c2d83ead7934", "fusion_lat": 0.0, "type": "electric_scooter", "lat": 38.902649, "is_reserved": 0, "is_disabled": 0, "fusion_lon": 0.0, "bike_id": "3f311bd6c491cf7f86d9c2d83ead7934", "lon": -76.99604166666667, "rental_uris": {"ios": "https://dc.lft.to/lastmile_qr_scan", "android": "https://dc.lft.to/lastmile_qr_scan"}}, {"name": "e1ce477ca5c6f88b8280e018412e2706", "fusion_lat": 0.0, "type": "electric_scooter", "lat": 38.93769866666667, "is_reserved": 0, "is_disabled": 0, "fusion_lon": 0.0, "bike_id": "e1ce477ca5c6f88b8280e018412e2706", "lon": -77.03283833333333, "rental_uris": {"ios": "https://dc.lft.to/lastmile_qr_scan", "android": "https://dc.lft.to/lastmile_qr_scan"}}, {"name": "cb9987fc341e383816862131a9105ff1", "fusion_lat": 0.0, "type": "electric_scooter", "lat": 38.9264355, "is_reserved": 0, "is_disabled": 0, "fusion_lon": 0.0, "bike_id": "cb9987fc341e383816862131a9105ff1", "lon": -77.036968, "rental_uris": {"ios": "https://dc.lft.to/lastmile_qr_scan", "android": "https://dc.lft.to/lastmile_qr_scan"}}, {"name": "f5db23a71318248e73d67b9a52eb58b8", "fusion_lat": 0.0, "type": "electric_scooter", "lat": 38.924796, "is_reserved": 0, "is_disabled": 0, "fusion_lon": 0.0, "bike_id": "f5db23a71318248e73d67b9a52eb58b8", "lon": -77.03132866666667, "rental_uris": {"ios": "https://dc.lft.to/lastmile_qr_scan", "android": "https://dc.lft.to/lastmile_qr_scan"}}, {"name": "4048aea9f4fb4a39ceee14825ffcb5cc", "fusion_lat": 0.0, "type": "electric_scooter", "lat": 38.862623, "is_reserved": 0, "is_disabled": 0, "fusion_lon": 0.0, "bike_id": "4048aea9f4fb4a39ceee14825ffcb5cc", "lon": -76.98722433333333, "rental_uris": {"ios": "https://dc.lft.to/lastmile_qr_scan", "android": "https://dc.lft.to/lastmile_qr_scan"}}, {"name": "6e999861c35ecce48ef7c89adffa80e1", "fusion_lat": 0.0, "type": "electric_scooter", "lat": 38.90312633333333, "is_reserved": 0, "is_disabled": 0, "fusion_lon": 0.0, "bike_id": "6e999861c35ecce48ef7c89adffa80e1", "lon": -77.049806, "rental_uris": {"ios": "https://dc.lft.to/lastmile_qr_scan", "android": "https://dc.lft.to/lastmile_qr_scan"}}, {"name": "1a7fa3a49ebc25e117511c1b4cb0e420", "fusion_lat": 0.0, "type": "electric_scooter", "lat": 38.93382483333333, "is_reserved": 0, "is_disabled": 0, "fusion_lon": 0.0, "bike_id": "1a7fa3a49ebc25e117511c1b4cb0e420", "lon": -77.073839, "rental_uris": {"ios": "https://dc.lft.to/lastmile_qr_scan", "android": "https://dc.lft.to/lastmile_qr_scan"}}, {"name": "9bee4ae83a1936e97cb1c1fda6a636ab", "fusion_lat": 0.0, "type": "electric_scooter", "lat": 38.902964833333336, "is_reserved": 0, "is_disabled": 0, "fusion_lon": 0.0, "bike_id": "9bee4ae83a1936e97cb1c1fda6a636ab", "lon": -77.03832816666667, "rental_uris": {"ios": "https://dc.lft.to/lastmile_qr_scan", "android": "https://dc.lft.to/lastmile_qr_scan"}}, {"name": "570bfd805b13af9e7dbc991c04025eac", "fusion_lat": 0.0, "type": "electric_scooter", "lat": 38.8949165, "is_reserved": 0, "is_disabled": 0, "fusion_lon": 0.0, "bike_id": "570bfd805b13af9e7dbc991c04025eac", "lon": -77.010171, "rental_uris": {"ios": "https://dc.lft.to/lastmile_qr_scan", "android": "https://dc.lft.to/lastmile_qr_scan"}}, {"name": "49ba5cf3490db1c0b566896dae345bec", "fusion_lat": 0.0, "type": "electric_scooter", "lat": 38.91725116666667, "is_reserved": 0, "is_disabled": 0, "fusion_lon": 0.0, "bike_id": "49ba5cf3490db1c0b566896dae345bec", "lon": -77.0289635, "rental_uris": {"ios": "https://dc.lft.to/lastmile_qr_scan", "android": "https://dc.lft.to/lastmile_qr_scan"}}, {"name": "07b6603276699662ef1c713089bf90ab", "fusion_lat": 0.0, "type": "electric_scooter", "lat": 38.902706333333334, "is_reserved": 0, "is_disabled": 0, "fusion_lon": 0.0, "bike_id": "07b6603276699662ef1c713089bf90ab", "lon": -77.03849716666667, "rental_uris": {"ios": "https://dc.lft.to/lastmile_qr_scan", "android": "https://dc.lft.to/lastmile_qr_scan"}}, {"name": "4b3f7f9bcad237aace1677a68ab8153c", "fusion_lat": 0.0, "type": "electric_scooter", "lat": 38.92154283333333, "is_reserved": 0, "is_disabled": 0, "fusion_lon": 0.0, "bike_id": "4b3f7f9bcad237aace1677a68ab8153c", "lon": -77.03325783333334, "rental_uris": {"ios": "https://dc.lft.to/lastmile_qr_scan", "android": "https://dc.lft.to/lastmile_qr_scan"}}, {"name": "7f1d4ce85b877ad6a792d7e4e5fd0e44", "fusion_lat": 0.0, "type": "electric_scooter", "lat": 38.884030833333334, "is_reserved": 0, "is_disabled": 0, "fusion_lon": 0.0, "bike_id": "7f1d4ce85b877ad6a792d7e4e5fd0e44", "lon": -76.93040733333333, "rental_uris": {"ios": "https://dc.lft.to/lastmile_qr_scan", "android": "https://dc.lft.to/lastmile_qr_scan"}}, {"name": "272fb8e82388a6f8d2b92ec8be6f6d70", "fusion_lat": 0.0, "type": "electric_bike", "lat": 38.88615733333334, "is_reserved": 0, "is_disabled": 0, "fusion_lon": 0.0, "bike_id": "272fb8e82388a6f8d2b92ec8be6f6d70", "lon": -77.10753833333334, "rental_uris": {"ios": "https://dc.lft.to/lastmile_qr_scan", "android": "https://dc.lft.to/lastmile_qr_scan"}}, {"name": "c667829489a23f58d8ea115c364d7e31", "fusion_lat": 0.0, "type": "electric_scooter", "lat": 38.938904, "is_reserved": 0, "is_disabled": 0, "fusion_lon": 0.0, "bike_id": "c667829489a23f58d8ea115c364d7e31", "lon": -77.024644, "rental_uris": {"ios": "https://dc.lft.to/lastmile_qr_scan", "android": "https://dc.lft.to/lastmile_qr_scan"}}, {"name": "c2d91440242e04e635ddc3635e21ddec", "fusion_lat": 0.0, "type": "electric_scooter", "lat": 38.887531833333334, "is_reserved": 0, "is_disabled": 0, "fusion_lon": 0.0, "bike_id": "c2d91440242e04e635ddc3635e21ddec", "lon": -76.97983666666667, "rental_uris": {"ios": "https://dc.lft.to/lastmile_qr_scan", "android": "https://dc.lft.to/lastmile_qr_scan"}}, {"name": "47f60b40a0f320ab2b38c012394dae60", "fusion_lat": 0.0, "type": "electric_bike", "lat": 38.9221745, "is_reserved": 0, "is_disabled": 0, "fusion_lon": 0.0, "bike_id": "47f60b40a0f320ab2b38c012394dae60", "lon": -76.9878995, "rental_uris": {"ios": "https://dc.lft.to/lastmile_qr_scan", "android": "https://dc.lft.to/lastmile_qr_scan"}}, {"name": "a2c6269f5d192eee1549fd8662de6317", "fusion_lat": 0.0, "type": "electric_scooter", "lat": 38.900516, "is_reserved": 0, "is_disabled": 0, "fusion_lon": 0.0, "bike_id": "a2c6269f5d192eee1549fd8662de6317", "lon": -77.00187316666667, "rental_uris": {"ios": "https://dc.lft.to/lastmile_qr_scan", "android": "https://dc.lft.to/lastmile_qr_scan"}}, {"name": "080932393da004bb9da6739168584b17", "fusion_lat": 0.0, "type": "electric_scooter", "lat": 38.97492883333334, "is_reserved": 0, "is_disabled": 0, "fusion_lon": 0.0, "bike_id": "080932393da004bb9da6739168584b17", "lon": -77.0168795, "rental_uris": {"ios": "https://dc.lft.to/lastmile_qr_scan", "android": "https://dc.lft.to/lastmile_qr_scan"}}, {"name": "8a48d216a0f7f74a89dfce59e3532652", "fusion_lat": 0.0, "type": "electric_scooter", "lat": 38.90640833333333, "is_reserved": 0, "is_disabled": 0, "fusion_lon": 0.0, "bike_id": "8a48d216a0f7f74a89dfce59e3532652", "lon": -77.0513665, "rental_uris": {"ios": "https://dc.lft.to/lastmile_qr_scan", "android": "https://dc.lft.to/lastmile_qr_scan"}}, {"name": "5e65ceac820a59315d117b7d544e4668", "fusion_lat": 0.0, "type": "electric_scooter", "lat": 38.91573283333334, "is_reserved": 0, "is_disabled": 0, "fusion_lon": 0.0, "bike_id": "5e65ceac820a59315d117b7d544e4668", "lon": -77.046728, "rental_uris": {"ios": "https://dc.lft.to/lastmile_qr_scan", "android": "https://dc.lft.to/lastmile_qr_scan"}}, {"name": "ed701550490ec274d0bbfde4ca4557fe", "fusion_lat": 0.0, "type": "electric_scooter", "lat": 38.943577166666664, "is_reserved": 0, "is_disabled": 0, "fusion_lon": 0.0, "bike_id": "ed701550490ec274d0bbfde4ca4557fe", "lon": -77.061236, "rental_uris": {"ios": "https://dc.lft.to/lastmile_qr_scan", "android": "https://dc.lft.to/lastmile_qr_scan"}}, {"name": "5e5a13bde72da147f074c4aca9db0e3c", "fusion_lat": 0.0, "type": "electric_scooter", "lat": 38.9237295, "is_reserved": 0, "is_disabled": 0, "fusion_lon": 0.0, "bike_id": "5e5a13bde72da147f074c4aca9db0e3c", "lon": -77.01915016666666, "rental_uris": {"ios": "https://dc.lft.to/lastmile_qr_scan", "android": "https://dc.lft.to/lastmile_qr_scan"}}, {"name": "aad1e62a439012809c2231eaa0a30016", "fusion_lat": 0.0, "type": "electric_scooter", "lat": 38.93302333333333, "is_reserved": 0, "is_disabled": 0, "fusion_lon": 0.0, "bike_id": "aad1e62a439012809c2231eaa0a30016", "lon": -77.03775766666666, "rental_uris": {"ios": "https://dc.lft.to/lastmile_qr_scan", "android": "https://dc.lft.to/lastmile_qr_scan"}}, {"name": "c3bc9e74fd9f09696caf67be46bfdbe6", "fusion_lat": 0.0, "type": "electric_scooter", "lat": 38.936045666666665, "is_reserved": 0, "is_disabled": 0, "fusion_lon": 0.0, "bike_id": "c3bc9e74fd9f09696caf67be46bfdbe6", "lon": -77.0586145, "rental_uris": {"ios": "https://dc.lft.to/lastmile_qr_scan", "android": "https://dc.lft.to/lastmile_qr_scan"}}, {"name": "d3ec3eb1e8f4bb6f704c3b4158fcd49e", "fusion_lat": 0.0, "type": "electric_scooter", "lat": 38.9100965, "is_reserved": 0, "is_disabled": 0, "fusion_lon": 0.0, "bike_id": "d3ec3eb1e8f4bb6f704c3b4158fcd49e", "lon": -77.04421033333334, "rental_uris": {"ios": "https://dc.lft.to/lastmile_qr_scan", "android": "https://dc.lft.to/lastmile_qr_scan"}}, {"name": "6eedd023f98275d328dfcce62ae95740", "fusion_lat": 0.0, "type": "electric_bike", "lat": 39.033444833333334, "is_reserved": 0, "is_disabled": 0, "fusion_lon": 0.0, "bike_id": "6eedd023f98275d328dfcce62ae95740", "lon": -77.049114, "rental_uris": {"ios": "https://dc.lft.to/lastmile_qr_scan", "android": "https://dc.lft.to/lastmile_qr_scan"}}, {"name": "008a93fdf599bf7d0d1881600d67d81f", "fusion_lat": 0.0, "type": "electric_scooter", "lat": 38.899164166666665, "is_reserved": 0, "is_disabled": 0, "fusion_lon": 0.0, "bike_id": "008a93fdf599bf7d0d1881600d67d81f", "lon": -77.03289433333333, "rental_uris": {"ios": "https://dc.lft.to/lastmile_qr_scan", "android": "https://dc.lft.to/lastmile_qr_scan"}}, {"name": "3493dfe814cafd27dc7f1216c6293d64", "fusion_lat": 0.0, "type": "electric_scooter", "lat": 38.92982533333333, "is_reserved": 0, "is_disabled": 0, "fusion_lon": 0.0, "bike_id": "3493dfe814cafd27dc7f1216c6293d64", "lon": -77.02614166666666, "rental_uris": {"ios": "https://dc.lft.to/lastmile_qr_scan", "android": "https://dc.lft.to/lastmile_qr_scan"}}, {"name": "db1d17d55cd6fea54f012ca557594019", "fusion_lat": 0.0, "type": "electric_scooter", "lat": 38.942018833333336, "is_reserved": 0, "is_disabled": 0, "fusion_lon": 0.0, "bike_id": "db1d17d55cd6fea54f012ca557594019", "lon": -77.02515616666666, "rental_uris": {"ios": "https://dc.lft.to/lastmile_qr_scan", "android": "https://dc.lft.to/lastmile_qr_scan"}}, {"name": "ad233d256f856f8b98ab018373da5b2a", "fusion_lat": 0.0, "type": "electric_scooter", "lat": 38.905462166666666, "is_reserved": 0, "is_disabled": 0, "fusion_lon": 0.0, "bike_id": "ad233d256f856f8b98ab018373da5b2a", "lon": -76.99125383333333, "rental_uris": {"ios": "https://dc.lft.to/lastmile_qr_scan", "android": "https://dc.lft.to/lastmile_qr_scan"}}, {"name": "5d573192c7da7482ddcd7069994df72e", "fusion_lat": 0.0, "type": "electric_scooter", "lat": 38.865081833333335, "is_reserved": 0, "is_disabled": 0, "fusion_lon": 0.0, "bike_id": "5d573192c7da7482ddcd7069994df72e", "lon": -76.99010833333334, "rental_uris": {"ios": "https://dc.lft.to/lastmile_qr_scan", "android": "https://dc.lft.to/lastmile_qr_scan"}}, {"name": "182806a95950fb26d98aed704277ff4e", "fusion_lat": 0.0, "type": "electric_scooter", "lat": 38.9284085, "is_reserved": 0, "is_disabled": 0, "fusion_lon": 0.0, "bike_id": "182806a95950fb26d98aed704277ff4e", "lon": -77.05420033333333, "rental_uris": {"ios": "https://dc.lft.to/lastmile_qr_scan", "android": "https://dc.lft.to/lastmile_qr_scan"}}, {"name": "070ec18745687c6574ae18520fd59e6a", "fusion_lat": 0.0, "type": "electric_scooter", "lat": 38.900127499999996, "is_reserved": 0, "is_disabled": 0, "fusion_lon": 0.0, "bike_id": "070ec18745687c6574ae18520fd59e6a", "lon": -76.99746033333334, "rental_uris": {"ios": "https://dc.lft.to/lastmile_qr_scan", "android": "https://dc.lft.to/lastmile_qr_scan"}}, {"name": "446d119e870bf3e0c869d05f8a0d0d0f", "fusion_lat": 0.0, "type": "electric_scooter", "lat": 38.90116033333334, "is_reserved": 0, "is_disabled": 0, "fusion_lon": 0.0, "bike_id": "446d119e870bf3e0c869d05f8a0d0d0f", "lon": -77.03183833333334, "rental_uris": {"ios": "https://dc.lft.to/lastmile_qr_scan", "android": "https://dc.lft.to/lastmile_qr_scan"}}, {"name": "1685702f5cb444e996bf1ecaaad168ff", "fusion_lat": 0.0, "type": "electric_scooter", "lat": 38.918924833333335, "is_reserved": 0, "is_disabled": 0, "fusion_lon": 0.0, "bike_id": "1685702f5cb444e996bf1ecaaad168ff", "lon": -77.05288683333333, "rental_uris": {"ios": "https://dc.lft.to/lastmile_qr_scan", "android": "https://dc.lft.to/lastmile_qr_scan"}}, {"name": "13ab78ee1f966c49ff63cf126c83a50b", "fusion_lat": 0.0, "type": "electric_scooter", "lat": 38.932350666666665, "is_reserved": 0, "is_disabled": 0, "fusion_lon": 0.0, "bike_id": "13ab78ee1f966c49ff63cf126c83a50b", "lon": -77.03096916666667, "rental_uris": {"ios": "https://dc.lft.to/lastmile_qr_scan", "android": "https://dc.lft.to/lastmile_qr_scan"}}, {"name": "f0e782dc48cf543f0b2f36c54e6185bc", "fusion_lat": 0.0, "type": "electric_scooter", "lat": 38.89832166666667, "is_reserved": 0, "is_disabled": 0, "fusion_lon": 0.0, "bike_id": "f0e782dc48cf543f0b2f36c54e6185bc", "lon": -76.94641166666666, "rental_uris": {"ios": "https://dc.lft.to/lastmile_qr_scan", "android": "https://dc.lft.to/lastmile_qr_scan"}}, {"name": "821baddbac7d062bd8cbd893ffc11e73", "fusion_lat": 0.0, "type": "electric_scooter", "lat": 38.8951245, "is_reserved": 0, "is_disabled": 0, "fusion_lon": 0.0, "bike_id": "821baddbac7d062bd8cbd893ffc11e73", "lon": -76.94887716666666, "rental_uris": {"ios": "https://dc.lft.to/lastmile_qr_scan", "android": "https://dc.lft.to/lastmile_qr_scan"}}, {"name": "90f754b741db82a16b6cf9f832f843e3", "fusion_lat": 0.0, "type": "electric_scooter", "lat": 38.9207705, "is_reserved": 0, "is_disabled": 0, "fusion_lon": 0.0, "bike_id": "90f754b741db82a16b6cf9f832f843e3", "lon": -77.02391083333333, "rental_uris": {"ios": "https://dc.lft.to/lastmile_qr_scan", "android": "https://dc.lft.to/lastmile_qr_scan"}}, {"name": "eb759cbb4963cfb77093cd7f2ba7ec35", "fusion_lat": 0.0, "type": "electric_scooter", "lat": 38.9014095, "is_reserved": 0, "is_disabled": 0, "fusion_lon": 0.0, "bike_id": "eb759cbb4963cfb77093cd7f2ba7ec35", "lon": -77.0006985, "rental_uris": {"ios": "https://dc.lft.to/lastmile_qr_scan", "android": "https://dc.lft.to/lastmile_qr_scan"}}, {"name": "47ecf4a7a47b2d0a50cf2ee9acfd554f", "fusion_lat": 0.0, "type": "electric_scooter", "lat": 38.8948195, "is_reserved": 0, "is_disabled": 0, "fusion_lon": 0.0, "bike_id": "47ecf4a7a47b2d0a50cf2ee9acfd554f", "lon": -77.02402116666667, "rental_uris": {"ios": "https://dc.lft.to/lastmile_qr_scan", "android": "https://dc.lft.to/lastmile_qr_scan"}}, {"name": "bcb2413ca77ff06ede08200f3e600d54", "fusion_lat": 0.0, "type": "electric_scooter", "lat": 38.88022933333333, "is_reserved": 0, "is_disabled": 0, "fusion_lon": 0.0, "bike_id": "bcb2413ca77ff06ede08200f3e600d54", "lon": -76.93139233333333, "rental_uris": {"ios": "https://dc.lft.to/lastmile_qr_scan", "android": "https://dc.lft.to/lastmile_qr_scan"}}, {"name": "fad5ddbc8b7a1cb90eeaf46066a157b9", "fusion_lat": 0.0, "type": "electric_bike", "lat": 38.866336, "is_reserved": 0, "is_disabled": 0, "fusion_lon": 0.0, "bike_id": "fad5ddbc8b7a1cb90eeaf46066a157b9", "lon": -77.010542, "rental_uris": {"ios": "https://dc.lft.to/lastmile_qr_scan", "android": "https://dc.lft.to/lastmile_qr_scan"}}, {"name": "b9334107e6fd411b213692a74aa74c87", "fusion_lat": 0.0, "type": "electric_bike", "lat": 38.82731616666667, "is_reserved": 0, "is_disabled": 0, "fusion_lon": 0.0, "bike_id": "b9334107e6fd411b213692a74aa74c87", "lon": -77.00862433333333, "rental_uris": {"ios": "https://dc.lft.to/lastmile_qr_scan", "android": "https://dc.lft.to/lastmile_qr_scan"}}, {"name": "e542a3e4afe4c70851c1d0c6bc0e7197", "fusion_lat": 0.0, "type": "electric_scooter", "lat": 38.89283666666667, "is_reserved": 0, "is_disabled": 0, "fusion_lon": 0.0, "bike_id": "e542a3e4afe4c70851c1d0c6bc0e7197", "lon": -77.05039833333333, "rental_uris": {"ios": "https://dc.lft.to/lastmile_qr_scan", "android": "https://dc.lft.to/lastmile_qr_scan"}}, {"name": "73051d4a0661e9d507b8c344edb03d75", "fusion_lat": 0.0, "type": "electric_scooter", "lat": 38.910546, "is_reserved": 0, "is_disabled": 0, "fusion_lon": 0.0, "bike_id": "73051d4a0661e9d507b8c344edb03d75", "lon": -77.0457815, "rental_uris": {"ios": "https://dc.lft.to/lastmile_qr_scan", "android": "https://dc.lft.to/lastmile_qr_scan"}}, {"name": "0bc1736cd17c69cd12596a64e2876a02", "fusion_lat": 0.0, "type": "electric_scooter", "lat": 38.905576333333336, "is_reserved": 0, "is_disabled": 0, "fusion_lon": 0.0, "bike_id": "0bc1736cd17c69cd12596a64e2876a02", "lon": -77.00589166666667, "rental_uris": {"ios": "https://dc.lft.to/lastmile_qr_scan", "android": "https://dc.lft.to/lastmile_qr_scan"}}, {"name": "7c7af89cc13f82ce58b8ff114edf0d09", "fusion_lat": 0.0, "type": "electric_scooter", "lat": 38.902352, "is_reserved": 0, "is_disabled": 0, "fusion_lon": 0.0, "bike_id": "7c7af89cc13f82ce58b8ff114edf0d09", "lon": -77.03987633333334, "rental_uris": {"ios": "https://dc.lft.to/lastmile_qr_scan", "android": "https://dc.lft.to/lastmile_qr_scan"}}, {"name": "5330eaff09b10ba1cd2457a5b2a17f32", "fusion_lat": 0.0, "type": "electric_scooter", "lat": 38.899653666666666, "is_reserved": 0, "is_disabled": 0, "fusion_lon": 0.0, "bike_id": "5330eaff09b10ba1cd2457a5b2a17f32", "lon": -77.05301033333333, "rental_uris": {"ios": "https://dc.lft.to/lastmile_qr_scan", "android": "https://dc.lft.to/lastmile_qr_scan"}},