{"data": {"bikes": [{"name": "34b79a9ea3bbdac96117190f01433836", "type": "electric_scooter", "lat": 38.913286166666666, "is_reserved": 0, "lon": -77.04356, "fusion_lon": 0.0, "is_disabled": 0, "fusion_lat": 0.0, "bike_id": "34b79a9ea3bbdac96117190f01433836", "rental_uris": {"ios": "https://dc.lft.to/lastmile_qr_scan", "android": "https://dc.lft.to/lastmile_qr_scan"}}, {"name": "978a4d039a9ae697ca353b10c6b22240", "type": "electric_scooter", "lat": 38.911936, "is_reserved": 0, "lon": -77.0608905, "fusion_lon": 0.0, "is_disabled": 0, "fusion_lat": 0.0, "bike_id": "978a4d039a9ae697ca353b10c6b22240", "rental_uris": {"ios": "https://dc.lft.to/lastmile_qr_scan", "android": "https://dc.lft.to/lastmile_qr_scan"}}, {"name": "a9536e37a692eb365bbf7237165fac69", "type": "electric_scooter", "lat": 38.88496766666667, "is_reserved": 0, "lon": -77.00729466666667, "fusion_lon": 0.0, "is_disabled": 0, "fusion_lat": 0.0, "bike_id": "a9536e37a692eb365bbf7237165fac69", "rental_uris": {"ios": "https://dc.lft.to/lastmile_qr_scan", "android": "https://dc.lft.to/lastmile_qr_scan"}}, {"name": "57f2a0d83c24226cde80cfad8fb8229f", "type": "electric_bike", "lat": 38.9595505, "is_reserved": 0, "lon": -77.1008895, "fusion_lon": 0.0, "is_disabled": 0, "fusion_lat": 0.0, "bike_id": "57f2a0d83c24226cde80cfad8fb8229f", "rental_uris": {"ios": "https://dc.lft.to/lastmile_qr_scan", "android": "https://dc.lft.to/lastmile_qr_scan"}}, {"name": "6a7672eee4bb7397a0cce407d13970f2", "type": "electric_scooter", "lat": 38.9026975, "is_reserved": 0, "lon": -77.0298445, "fusion_lon": 0.0, "is_disabled": 0, "fusion_lat": 0.0, "bike_id": "6a7672eee4bb7397a0cce407d13970f2", "rental_uris": {"ios": "https://dc.lft.to/lastmile_qr_scan", "android": "https://dc.lft.to/lastmile_qr_scan"}}, {"name": "deca214bff209612772be4189a819a7c", "type": "electric_bike", "lat": 38.935810333333336, "is_reserved": 0, "lon": -77.05842966666667, "fusion_lon": 0.0, "is_disabled": 0, "fusion_lat": 0.0, "bike_id": "deca214bff209612772be4189a819a7c", "rental_uris": {"ios": "https://dc.lft.to/lastmile_qr_scan", "android": "https://dc.lft.to/lastmile_qr_scan"}}, {"name": "b3e26eb8a2864ff2288a5b2c14ba1304", "type": "electric_scooter", "lat": 38.911636333333334, "is_reserved": 0, "lon": -77.04436066666666, "fusion_lon": 0.0, "is_disabled": 0, "fusion_lat": 0.0, "bike_id": "b3e26eb8a2864ff2288a5b2c14ba1304", "rental_uris": {"ios": "https://dc.lft.to/lastmile_qr_scan", "android": "https://dc.lft.to/lastmile_qr_scan"}}, {"name": "ba3c5f2247e30b2a0aea4e50b1418603", "type": "electric_scooter", "lat": 38.9065425, "is_reserved": 0, "lon": -77.00893783333333, "fusion_lon": 0.0, "is_disabled": 0, "fusion_lat": 0.0, "bike_id": "ba3c5f2247e30b2a0aea4e50b1418603", "rental_uris": {"ios": "https://dc.lft.to/lastmile_qr_scan", "android": "https://dc.lft.to/lastmile_qr_scan"}}, {"name": "1194e16a3c331a46ea9184b8f9b99184", "type": "electric_scooter", "lat": 38.932048333333334, "is_reserved": 0, "lon": -77.02739883333334, "fusion_lon": 0.0, "is_disabled": 0, "fusion_lat": 0.0, "bike_id": "1194e16a3c331a46ea9184b8f9b99184", "rental_uris": {"ios": "https://dc.lft.to/lastmile_qr_scan", "android": "https://dc.lft.to/lastmile_qr_scan"}}, {"name": "8452c547e5d02bfcda68404ac62604ed", "type": "electric_scooter", "lat": 38.908732666666666, "is_reserved": 0, "lon": -77.02302516666667, "fusion_lon": 0.0, "is_disabled": 0, "fusion_lat": 0.0, "bike_id": "8452c547e5d02bfcda68404ac62604ed", "rental_uris": {"ios": "https://dc.lft.to/lastmile_qr_scan", "android": "https://dc.lft.to/lastmile_qr_scan"}}, {"name": "23967e48be46972e5346e5bf92c20323", "type": "electric_scooter", "lat": 38.9025835, "is_reserved": 0, "lon": -77.05946616666667, "fusion_lon": 0.0, "is_disabled": 0, "fusion_lat": 0.0, "bike_id": "23967e48be46972e5346e5bf92c20323", "rental_uris": {"ios": "https://dc.lft.to/lastmile_qr_scan", "android": "https://dc.lft.to/lastmile_qr_scan"}}, {"name": "e8fc8c69f8ae22bd8a5365a1770b8030", "type": "electric_scooter", "lat": 38.9120125, "is_reserved": 0, "lon": -77.07309483333333, "fusion_lon": 0.0, "is_disabled": 0, "fusion_lat": 0.0, "bike_id": "e8fc8c69f8ae22bd8a5365a1770b8030", "rental_uris": {"ios": "https://dc.lft.to/lastmile_qr_scan", "android": "https://dc.lft.to/lastmile_qr_scan"}}, {"name": "bf81cea05bb4e0b0936759c805f672b8", "type": "electric_scooter", "lat": 38.897169, "is_reserved": 0, "lon": -77.02716783333334, "fusion_lon": 0.0, "is_disabled": 0, "fusion_lat": 0.0, "bike_id": "bf81cea05bb4e0b0936759c805f672b8", "rental_uris": {"ios": "https://dc.lft.to/lastmile_qr_scan", "android": "https://dc.lft.to/lastmile_qr_scan"}}, {"name": "254cd1dc65777b063ee7647b84adac9c", "type": "electric_scooter", "lat": 38.90362666666667, "is_reserved": 0, "lon": -77.04349566666667, "fusion_lon": 0.0, "is_disabled": 0, "fusion_lat": 0.0, "bike_id": "254cd1dc65777b063ee7647b84adac9c", "rental_uris": {"ios": "https://dc.lft.to/lastmile_qr_scan", "android": "https://dc.lft.to/lastmile_qr_scan"}}, {"name": "7eb4ba4a36500f3dfbeba684bec9342e", "type": "electric_bike", "lat": 38.86742266666667, "is_reserved": 0, "lon": -76.989672, "fusion_lon": 0.0, "is_disabled": 0, "fusion_lat": 0.0, "bike_id": "7eb4ba4a36500f3dfbeba684bec9342e", "rental_uris": {"ios": "https://dc.lft.to/lastmile_qr_scan", "android": "https://dc.lft.to/lastmile_qr_scan"}}, {"name": "3314bac34ba4f6f0b3cf8358acd1214e", "type": "electric_scooter", "lat": 38.90378283333333, "is_reserved": 0, "lon": -77.0420195, "fusion_lon": 0.0, "is_disabled": 0, "fusion_lat": 0.0, "bike_id": "3314bac34ba4f6f0b3cf8358acd1214e", "rental_uris": {"ios": "https://dc.lft.to/lastmile_qr_scan", "android": "https://dc.lft.to/lastmile_qr_scan"}}, {"name": "74e04e895aa57f971ec35b44fe54bc01", "type": "electric_scooter", "lat": 38.8950815, "is_reserved": 0, "lon": -77.00338833333333, "fusion_lon": 0.0, "is_disabled": 0, "fusion_lat": 0.0, "bike_id": "74e04e895aa57f971ec35b44fe54bc01", "rental_uris": {"ios": "https://dc.lft.to/lastmile_qr_scan", "android": "https://dc.lft.to/lastmile_qr_scan"}}, {"name": "3f9955384efd5e4e06e9a8328e8f8c19", "type": "electric_scooter", "lat": 38.929908833333336, "is_reserved": 0, "lon": -77.02487333333333, "fusion_lon": 0.0, "is_disabled": 0, "fusion_lat": 0.0, "bike_id": "3f9955384efd5e4e06e9a8328e8f8c19", "rental_uris": {"ios": "https://dc.lft.to/lastmile_qr_scan", "android": "https://dc.lft.to/lastmile_qr_scan"}}, {"name": "e7146e94512b739dc35f7fbb2b4a999f", "type": "electric_scooter", "lat": 38.92153916666667, "is_reserved": 0, "lon": -77.03527016666666, "fusion_lon": 0.0, "is_disabled": 0, "fusion_lat": 0.0, "bike_id": "e7146e94512b739dc35f7fbb2b4a999f", "rental_uris": {"ios": "https://dc.lft.to/lastmile_qr_scan", "android": "https://dc.lft.to/lastmile_qr_scan"}}, {"name": "2f739009ab4f9432c1fdf1dffb86a235", "type": "electric_scooter", "lat": 38.9210105, "is_reserved": 0, "lon": -76.99384783333333, "fusion_lon": 0.0, "is_disabled": 0, "fusion_lat": 0.0, "bike_id": "2f739009ab4f9432c1fdf1dffb86a235", "rental_uris": {"ios": "https://dc.lft.to/lastmile_qr_scan", "android": "https://dc.lft.to/lastmile_qr_scan"}}, {"name": "df1caac0720e2ff49d74db2c4dcf729d", "type": "electric_scooter", "lat": 38.905244833333334, "is_reserved": 0, "lon": -77.04893833333334, "fusion_lon": 0.0, "is_disabled": 0, "fusion_lat": 0.0, "bike_id": "df1caac0720e2ff49d74db2c4dcf729d", "rental_uris": {"ios": "https://dc.lft.to/lastmile_qr_scan", "android": "https://dc.lft.to/lastmile_qr_scan"}}, {"name": "75e044b8fa9be5bd8a57c07096e9516f", "type": "electric_bike", "lat": 38.854344166666664, "is_reserved": 0, "lon": -77.11703666666666, "fusion_lon": 0.0, "is_disabled": 0, "fusion_lat": 0.0, "bike_id": "75e044b8fa9be5bd8a57c07096e9516f", "rental_uris": {"ios": "https://dc.lft.to/lastmile_qr_scan", "android": "https://dc.lft.to/lastmile_qr_scan"}}, {"name": "f9c7fda42bbc95f12b98b333ed66a21b", "type": "electric_scooter", "lat": 38.9079875, "is_reserved": 0, "lon": -76.997027, "fusion_lon": 0.0, "is_disabled": 0, "fusion_lat": 0.0, "bike_id": "f9c7fda42bbc95f12b98b333ed66a21b", "rental_uris": {"ios": "https://dc.lft.to/lastmile_qr_scan", "android": "https://dc.lft.to/lastmile_qr_scan"}}, {"name": "3528adea075d50d41a85783718812dcf", "type": "electric_scooter", "lat": 38.8952485, "is_reserved": 0, "lon": -77.016125, "fusion_lon": 0.0, "is_disabled": 0, "fusion_lat": 0.0, "bike_id": "3528adea075d50d41a85783718812dcf", "rental_uris": {"ios": "https://dc.lft.to/lastmile_qr_scan", "android": "https://dc.lft.to/lastmile_qr_scan"}}, {"name": "8dd637b761a5a940cdffe190c064d176", "type": "electric_scooter", "lat": 38.899593333333335, "is_reserved": 0, "lon": -77.05048883333333, "fusion_lon": 0.0, "is_disabled": 0, "fusion_lat": 0.0, "bike_id": "8dd637b761a5a940cdffe190c064d176", "rental_uris": {"ios": "https://dc.lft.to/lastmile_qr_scan", "android": "https://dc.lft.to/lastmile_qr_scan"}}, {"name": "434b8c13ba77951e4c1378e6478114ba", "type": "electric_scooter", "lat": 38.935, "is_reserved": 0, "lon": -77.02850516666666, "fusion_lon": 0.0, "is_disabled": 0, "fusion_lat": 0.0, "bike_id": "434b8c13ba77951e4c1378e6478114ba", "rental_uris": {"ios": "https://dc.lft.to/lastmile_qr_scan", "android": "https://dc.lft.to/lastmile_qr_scan"}}, {"name": "de3137fc2064b8f90ce3bbae0b032f88", "type": "electric_scooter", "lat": 38.90971066666667, "is_reserved": 0, "lon": -77.01712583333334, "fusion_lon": 0.0, "is_disabled": 0, "fusion_lat": 0.0, "bike_id": "de3137fc2064b8f90ce3bbae0b032f88", "rental_uris": {"ios": "https://dc.lft.to/lastmile_qr_scan", "android": "https://dc.lft.to/lastmile_qr_scan"}}, {"name": "d1f29bf72677dc327a3b94cb03d5b303", "type": "electric_scooter", "lat": 38.88507233333333, "is_reserved": 0, "lon": -77.0209, "fusion_lon": 0.0, "is_disabled": 0, "fusion_lat": 0.0, "bike_id": "d1f29bf72677dc327a3b94cb03d5b303", "rental_uris": {"ios": "https://dc.lft.to/lastmile_qr_scan", "android": "https://dc.lft.to/lastmile_qr_scan"}}, {"name": "d1ae51b5dccba3d36ec6bbcc76396e54", "type": "electric_scooter", "lat": 38.921218833333334, "is_reserved": 0, "lon": -77.01025266666667, "fusion_lon": 0.0, "is_disabled": 0, "fusion_lat": 0.0, "bike_id": "d1ae51b5dccba3d36ec6bbcc76396e54", "rental_uris": {"ios": "https://dc.lft.to/lastmile_qr_scan", "android": "https://dc.lft.to/lastmile_qr_scan"}}, {"name": "75c1574a3508897fa39556b8cfc40878", "type": "electric_bike", "lat": 38.92846733333333, "is_reserved": 0, "lon": -77.0205435, "fusion_lon": 0.0, "is_disabled": 0, "fusion_lat": 0.0, "bike_id": "75c1574a3508897fa39556b8cfc40878", "rental_uris": {"ios": "https://dc.lft.to/lastmile_qr_scan", "android": "https://dc.lft.to/lastmile_qr_scan"}}, {"name": "6909aafcacdf7bb36611f9f0536b86f0", "type": "electric_scooter", "lat": 38.941820166666666, "is_reserved": 0, "lon": -77.0309725, "fusion_lon": 0.0, "is_disabled": 0, "fusion_lat": 0.0, "bike_id": "6909aafcacdf7bb36611f9f0536b86f0", "rental_uris": {"ios": "https://dc.lft.to/lastmile_qr_scan", "android": "https://dc.lft.to/lastmile_qr_scan"}}, {"name": "94647d040762e4968f0a6be84876b4b3", "type": "electric_scooter", "lat": 38.902753833333335, "is_reserved": 0, "lon": -77.02910066666666, "fusion_lon": 0.0, "is_disabled": 0, "fusion_lat": 0.0, "bike_id": "94647d040762e4968f0a6be84876b4b3", "rental_uris": {"ios": "https://dc.lft.to/lastmile_qr_scan", "android": "https://dc.lft.to/lastmile_qr_scan"}}, {"name": "0ee17f03f815e4e34330ddcfe82c65f9", "type": "electric_scooter", "lat": 38.923174333333336, "is_reserved": 0, "lon": -77.04025566666667, "fusion_lon": 0.0, "is_disabled": 0, "fusion_lat": 0.0, "bike_id": "0ee17f03f815e4e34330ddcfe82c65f9", "rental_uris": {"ios": "https://dc.lft.to/lastmile_qr_scan", "android": "https://dc.lft.to/lastmile_qr_scan"}}, {"name": "a642fa62a97e7891965c127cd18b592a", "type": "electric_scooter", "lat": 38.915487166666665, "is_reserved": 0, "lon": -77.03173866666667, "fusion_lon": 0.0, "is_disabled": 0, "fusion_lat": 0.0, "bike_id": "a642fa62a97e7891965c127cd18b592a", "rental_uris": {"ios": "https://dc.lft.to/lastmile_qr_scan", "android": "https://dc.lft.to/lastmile_qr_scan"}}, {"name": "9783f9642582ddf8ac7c3886e4ff2486", "type": "electric_scooter", "lat": 38.904122666666666, "is_reserved": 0, "lon": -77.03628683333334, "fusion_lon": 0.0, "is_disabled": 0, "fusion_lat": 0.0, "bike_id": "9783f9642582ddf8ac7c3886e4ff2486", "rental_uris": {"ios": "https://dc.lft.to/lastmile_qr_scan", "android": "https://dc.lft.to/lastmile_qr_scan"}}, {"name": "a8fb0edbd00f566e8b0df29486d6ce8a", "type": "electric_scooter", "lat": 38.8988505, "is_reserved": 0, "lon": -76.93174433333333, "fusion_lon": 0.0, "is_disabled": 0, "fusion_lat": 0.0, "bike_id": "a8fb0edbd00f566e8b0df29486d6ce8a", "rental_uris": {"ios": "https://dc.lft.to/lastmile_qr_scan", "android": "https://dc.lft.to/lastmile_qr_scan"}}, {"name": "5ecd03e941bc2562a83d71de2f018ce6", "type": "electric_scooter", "lat": 38.89354616666667, "is_reserved": 0, "lon": -77.00334133333334, "fusion_lon": 0.0, "is_disabled": 0, "fusion_lat": 0.0, "bike_id": "5ecd03e941bc2562a83d71de2f018ce6", "rental_uris": {"ios": "https://dc.lft.to/lastmile_qr_scan", "android": "https://dc.lft.to/lastmile_qr_scan"}}, {"name": "0cc9345e398d8aa5f98984b46b13578c", "type": "electric_scooter", "lat": 38.844274666666664, "is_reserved": 0, "lon": -76.99779333333333, "fusion_lon": 0.0, "is_disabled": 0, "fusion_lat": 0.0, "bike_id": "0cc9345e398d8aa5f98984b46b13578c", "rental_uris": {"ios": "https://dc.lft.to/lastmile_qr_scan", "android": "https://dc.lft.to/lastmile_qr_scan"}}, {"name": "24dd5d022894bea5adf16d60501a0108", "type": "electric_scooter", "lat": 38.869297833333334, "is_reserved": 0, "lon": -76.98311916666667, "fusion_lon": 0.0, "is_disabled": 0, "fusion_lat": 0.0, "bike_id": "24dd5d022894bea5adf16d60501a0108", "rental_uris": {"ios": "https://dc.lft.to/lastmile_qr_scan", "android": "https://dc.lft.to/lastmile_qr_scan"}}, {"name": "672e897f2162c0c3a3ea8d803adc4511", "type": "electric_scooter", "lat": 38.895058166666665, "is_reserved": 0, "lon": -77.00336933333334, "fusion_lon": 0.0, "is_disabled": 0, "fusion_lat": 0.0, "bike_id": "672e897f2162c0c3a3ea8d803adc4511", "rental_uris": {"ios": "https://dc.lft.to/lastmile_qr_scan", "android": "https://dc.lft.to/lastmile_qr_scan"}}, {"name": "d11262e7966f530fe71386c8764fc98d", "type": "electric_scooter", "lat": 38.9158145, "is_reserved": 0, "lon": -76.983854, "fusion_lon": 0.0, "is_disabled": 0, "fusion_lat": 0.0, "bike_id": "d11262e7966f530fe71386c8764fc98d", "rental_uris": {"ios": "https://dc.lft.to/lastmile_qr_scan", "android": "https://dc.lft.to/lastmile_qr_scan"}}, {"name": "43f38dbf1bb4768b561745f2367241c1", "type": "electric_scooter", "lat": 38.87214816666667, "is_reserved": 0, "lon": -77.00571616666667, "fusion_lon": 0.0, "is_disabled": 0, "fusion_lat": 0.0, "bike_id": "43f38dbf1bb4768b561745f2367241c1", "rental_uris": {"ios": "https://dc.lft.to/lastmile_qr_scan", "android": "https://dc.lft.to/lastmile_qr_scan"}}, {"name": "fed44cd8d440a77d153e43d1a5d9d169", "type": "electric_scooter", "lat": 38.92613516666667, "is_reserved": 0, "lon": -77.021625, "fusion_lon": 0.0, "is_disabled": 0, "fusion_lat": 0.0, "bike_id": "fed44cd8d440a77d153e43d1a5d9d169", "rental_uris": {"ios": "https://dc.lft.to/lastmile_qr_scan", "android": "https://dc.lft.to/lastmile_qr_scan"}}, {"name": "5ac40ba29c45ad2007f2e549b5428377", "type": "electric_bike", "lat": 38.9555135, "is_reserved": 0, "lon": -76.93547566666666, "fusion_lon": 0.0, "is_disabled": 0, "fusion_lat": 0.0, "bike_id": "5ac40ba29c45ad2007f2e549b5428377", "rental_uris": {"ios": "https://dc.lft.to/lastmile_qr_scan", "android": "https://dc.lft.to/lastmile_qr_scan"}}, {"name": "eed1205bee933127d5161347b1872db7", "type": "electric_scooter", "lat": 38.8982225, "is_reserved": 0, "lon": -77.03338666666667, "fusion_lon": 0.0, "is_disabled": 0, "fusion_lat": 0.0, "bike_id": "eed1205bee933127d5161347b1872db7", "rental_uris": {"ios": "https://dc.lft.to/lastmile_qr_scan", "android": "https://dc.lft.to/lastmile_qr_scan"}}, {"name": "2aae8bc078bd764a0d21368dbff56911", "type": "electric_scooter", "lat": 38.924355, "is_reserved": 0, "lon": -77.03403766666666, "fusion_lon": 0.0, "is_disabled": 0, "fusion_lat": 0.0, "bike_id": "2aae8bc078bd764a0d21368dbff56911", "rental_uris": {"ios": "https://dc.lft.to/lastmile_qr_scan", "android": "https://dc.lft.to/lastmile_qr_scan"}}, {"name": "c16d90ef6b85bc7274330fa349740bb5", "type": "electric_scooter", "lat": 38.942733833333335, "is_reserved": 0, "lon": -77.025052, "fusion_lon": 0.0, "is_disabled": 0, "fusion_lat": 0.0, "bike_id": "c16d90ef6b85bc7274330fa349740bb5", "rental_uris": {"ios": "https://dc.lft.to/lastmile_qr_scan", "android": "https://dc.lft.to/lastmile_qr_scan"}}, {"name": "abcd3175a060b42f182a1d2e79934580", "type": "electric_scooter", "lat": 38.9157155, "is_reserved": 0, "lon": -77.03184883333333, "fusion_lon": 0.0, "is_disabled": 0, "fusion_lat": 0.0, "bike_id": "abcd3175a060b42f182a1d2e79934580", "rental_uris": {"ios": "https://dc.lft.to/lastmile_qr_scan", "android": "https://dc.lft.to/lastmile_qr_scan"}}, {"name": "ad5e6f2a6373362b3a149247f34d5b66", "type": "electric_scooter", "lat": 38.90982433333333, "is_reserved": 0, "lon": -77.04263966666667, "fusion_lon": 0.0, "is_disabled": 0, "fusion_lat": 0.0, "bike_id": "ad5e6f2a6373362b3a149247f34d5b66", "rental_uris": {"ios": "https://dc.lft.to/lastmile_qr_scan", "android": "https://dc.lft.to/lastmile_qr_scan"}}, {"name": "08c777020011c8edfc77d57dfcd945bd", "type": "electric_scooter", "lat": 38.8803825, "is_reserved": 0, "lon": -76.92722883333333, "fusion_lon": 0.0, "is_disabled": 0, "fusion_lat": 0.0, "bike_id": "08c777020011c8edfc77d57dfcd945bd", "rental_uris": {"ios": "https://dc.lft.to/lastmile_qr_scan", "android": "https://dc.lft.to/lastmile_qr_scan"}}, {"name": "b7f94ab85c41c0eecd9aaa54ef4cf1c2", "type": "electric_scooter", "lat": 38.906756333333334, "is_reserved": 0, "lon": -76.97803366666666, "fusion_lon": 0.0, "is_disabled": 0, "fusion_lat": 0.0, "bike_id": "b7f94ab85c41c0eecd9aaa54ef4cf1c2", "rental_uris": {"ios": "https://dc.lft.to/lastmile_qr_scan", "android": "https://dc.lft.to/lastmile_qr_scan"}}, {"name": "b0744bf8521b50446e9ce5b6b9a33a4f", "type": "electric_scooter", "lat": 38.90613833333333, "is_reserved": 0, "lon": -77.06517166666667, "fusion_lon": 0.0, "is_disabled": 0, "fusion_lat": 0.0, "bike_id": "b0744bf8521b50446e9ce5b6b9a33a4f", "rental_uris": {"ios": "https://dc.lft.to/lastmile_qr_scan", "android": "https://dc.lft.to/lastmile_qr_scan"}}, {"name": "3f42b65a5572531adacb4d4dde54d896", "type": "electric_scooter", "lat": 38.911116, "is_reserved": 0, "lon": -77.04924766666667, "fusion_lon": 0.0, "is_disabled": 0, "fusion_lat": 0.0, "bike_id": "3f42b65a5572531adacb4d4dde54d896", "rental_uris": {"ios": "https://dc.lft.to/lastmile_qr_scan", "android": "https://dc.lft.to/lastmile_qr_scan"}}, {"name": "5778bef781822f0092da0f6a6d65b9e2", "type": "electric_bike", "lat": 38.92463516666667, "is_reserved": 0, "lon": -77.20844916666667, "fusion_lon": 0.0, "is_disabled": 0, "fusion_lat": 0.0, "bike_id": "5778bef781822f0092da0f6a6d65b9e2", "rental_uris": {"ios": "https://dc.lft.to/lastmile_qr_scan", "android": "https://dc.lft.to/lastmile_qr_scan"}}, {"name": "3b9afcc2728f20485b7ea148a58f6caf", "type": "electric_scooter", "lat": 38.9109835, "is_reserved": 0, "lon": -77.04679033333333, "fusion_lon": 0.0, "is_disabled": 0, "fusion_lat": 0.0, "bike_id": "3b9afcc2728f20485b7ea148a58f6caf", "rental_uris": {"ios": "https://dc.lft.to/lastmile_qr_scan", "android": "https://dc.lft.to/lastmile_qr_scan"}}, {"name": "8cb5623aa8c46b588698dd3a9fed6a66", "type": "electric_scooter", "lat": 38.93423416666667, "is_reserved": 0, "lon": -77.03409783333333, "fusion_lon": 0.0, "is_disabled": 0, "fusion_lat": 0.0, "bike_id": "8cb5623aa8c46b588698dd3a9fed6a66", "rental_uris": {"ios": "https://dc.lft.to/lastmile_qr_scan", "android": "https://dc.lft.to/lastmile_qr_scan"}}, {"name": "64cdcf1908f58ef938c2388a90895eeb", "type": "electric_bike", "lat": 38.89191566666667, "is_reserved": 0, "lon": -77.12261866666667, "fusion_lon": 0.0, "is_disabled": 0, "fusion_lat": 0.0, "bike_id": "64cdcf1908f58ef938c2388a90895eeb", "rental_uris": {"ios": "https://dc.lft.to/lastmile_qr_scan", "android": "https://dc.lft.to/lastmile_qr_scan"}}, {"name": "4dd0d192303a2038a7b0e0f44b795902", "type": "electric_scooter", "lat": 38.90830883333334, "is_reserved": 0, "lon": -76.997008, "fusion_lon": 0.0, "is_disabled": 0, "fusion_lat": 0.0, "bike_id": "4dd0d192303a2038a7b0e0f44b795902", "rental_uris": {"ios": "https://dc.lft.to/lastmile_qr_scan", "android": "https://dc.lft.to/lastmile_qr_scan"}}, {"name": "2034c869fad817f99d93bbc2ed9c9164", "type": "electric_scooter", "lat": 38.89759866666667, "is_reserved": 0, "lon": -76.94184466666667, "fusion_lon": 0.0, "is_disabled": 0, "fusion_lat": 0.0, "bike_id": "2034c869fad817f99d93bbc2ed9c9164", "rental_uris": {"ios": "https://dc.lft.to/lastmile_qr_scan", "android": "https://dc.lft.to/lastmile_qr_scan"}}, {"name": "b0a137a040d2cbdb79166e023d38f4bc", "type": "electric_scooter", "lat": 38.9225205, "is_reserved": 0, "lon": -77.035245, "fusion_lon": 0.0, "is_disabled": 0, "fusion_lat": 0.0, "bike_id": "b0a137a040d2cbdb79166e023d38f4bc", "rental_uris": {"ios": "https://dc.lft.to/lastmile_qr_scan", "android": "https://dc.lft.to/lastmile_qr_scan"}}, {"name": "056e9a07ce6e52e1e44469da828f15f8", "type": "electric_scooter", "lat": 38.8635525, "is_reserved": 0, "lon": -76.99067283333333, "fusion_lon": 0.0, "is_disabled": 0, "fusion_lat": 0.0, "bike_id": "056e9a07ce6e52e1e44469da828f15f8", "rental_uris": {"ios": "https://dc.lft.to/lastmile_qr_scan", "android": "https://dc.lft.to/lastmile_qr_scan"}}, {"name": "572092992a55eb8c5d30a58becf66f42", "type": "electric_scooter", "lat": 38.8950255, "is_reserved": 0, "lon": -77.0108825, "fusion_lon": 0.0, "is_disabled": 0, "fusion_lat": 0.0, "bike_id": "572092992a55eb8c5d30a58becf66f42", "rental_uris": {"ios": "https://dc.lft.to/lastmile_qr_scan", "android": "https://dc.lft.to/lastmile_qr_scan"}}, {"name": "cfa58fa471266891ddaab4eed14f753e", "type": "electric_scooter", "lat": 38.924694333333335, "is_reserved": 0, "lon": -77.0354715, "fusion_lon": 0.0, "is_disabled": 0, "fusion_lat": 0.0, "bike_id": "cfa58fa471266891ddaab4eed14f753e", "rental_uris": {"ios": "https://dc.lft.to/lastmile_qr_scan", "android": "https://dc.lft.to/lastmile_qr_scan"}}, {"name": "171dc2e297ccb3ca2fb89854685e33fe", "type": "electric_scooter", "lat": 38.904565166666664, "is_reserved": 0, "lon": -77.04883283333334, "fusion_lon": 0.0, "is_disabled": 0, "fusion_lat": 0.0, "bike_id": "171dc2e297ccb3ca2fb89854685e33fe", "rental_uris": {"ios": "https://dc.lft.to/lastmile_qr_scan", "android": "https://dc.lft.to/lastmile_qr_scan"}}, {"name": "ac0240e1923065df0658ad3a7b962c31", "type": "electric_scooter", "lat": 38.91112483333333, "is_reserved": 0, "lon": -77.03612166666667, "fusion_lon": 0.0, "is_disabled": 0, "fusion_lat": 0.0, "bike_id": "ac0240e1923065df0658ad3a7b962c31", "rental_uris": {"ios": "https://dc.lft.to/lastmile_qr_scan", "android": "https://dc.lft.to/lastmile_qr_scan"}}, {"name": "004930bda55c8358976b58bcf4b5a4d6", "type": "electric_scooter", "lat": 38.92093666666667, "is_reserved": 0, "lon": -77.02590533333333, "fusion_lon": 0.0, "is_disabled": 0, "fusion_lat": 0.0, "bike_id": "004930bda55c8358976b58bcf4b5a4d6", "rental_uris": {"ios": "https://dc.lft.to/lastmile_qr_scan", "android": "https://dc.lft.to/lastmile_qr_scan"}}, {"name": "a83add1f3fb4aa21b717873a31d40896", "type": "electric_scooter", "lat": 38.9260025, "is_reserved": 0, "lon": -77.0048305, "fusion_lon": 0.0, "is_disabled": 0, "fusion_lat": 0.0, "bike_id": "a83add1f3fb4aa21b717873a31d40896", "rental_uris": {"ios": "https://dc.lft.to/lastmile_qr_scan", "android": "https://dc.lft.to/lastmile_qr_scan"}}, {"name": "3fe9a2add9c526debf694be3e8146c45", "type": "electric_scooter", "lat": 38.91327966666667, "is_reserved": 0, "lon": -77.00224466666667, "fusion_lon": 0.0, "is_disabled": 0, "fusion_lat": 0.0, "bike_id": "3fe9a2add9c526debf694be3e8146c45", "rental_uris": {"ios": "https://dc.lft.to/lastmile_qr_scan", "android": "https://dc.lft.to/lastmile_qr_scan"}}, {"name": "306a09b7685cee6c64de9c96aa91cf06", "type": "electric_scooter", "lat": 38.884299666666664, "is_reserved": 0, "lon": -76.95755433333333, "fusion_lon": 0.0, "is_disabled": 0, "fusion_lat": 0.0, "bike_id": "306a09b7685cee6c64de9c96aa91cf06", "rental_uris": {"ios": "https://dc.lft.to/lastmile_qr_scan", "android": "https://dc.lft.to/lastmile_qr_scan"}}, {"name": "db3e6cf0ff8a3b1a72d1e258bf9021ee", "type": "electric_scooter", "lat": 38.9242165, "is_reserved": 0, "lon": -77.019501, "fusion_lon": 0.0, "is_disabled": 0, "fusion_lat": 0.0, "bike_id": "db3e6cf0ff8a3b1a72d1e258bf9021ee", "rental_uris": {"ios": "https://dc.lft.to/lastmile_qr_scan", "android": "https://dc.lft.to/lastmile_qr_scan"}}, {"name": "05825fb6b6ba465baaa7457a9fa142f1", "type": "electric_scooter", "lat": 38.9167345, "is_reserved": 0, "lon": -77.0271625, "fusion_lon": 0.0, "is_disabled": 0, "fusion_lat": 0.0, "bike_id": "05825fb6b6ba465baaa7457a9fa142f1", "rental_uris": {"ios": "https://dc.lft.to/lastmile_qr_scan", "android": "https://dc.lft.to/lastmile_qr_scan"}}, {"name": "99ce4eb54d3c7914ae104e889a15e05b", "type": "electric_scooter", "lat": 38.92062716666667, "is_reserved": 0, "lon": -77.04254783333333, "fusion_lon": 0.0, "is_disabled": 0, "fusion_lat": 0.0, "bike_id": "99ce4eb54d3c7914ae104e889a15e05b", "rental_uris": {"ios": "https://dc.lft.to/lastmile_qr_scan", "android": "https://dc.lft.to/lastmile_qr_scan"}}, {"name": "948ec151529e5011df67aecaa34710c6", "type": "electric_bike", "lat": 38.954814166666665, "is_reserved": 0, "lon": -77.0824085, "fusion_lon": 0.0, "is_disabled": 0, "fusion_lat": 0.0, "bike_id": "948ec151529e5011df67aecaa34710c6", "rental_uris": {"ios": "https://dc.lft.to/lastmile_qr_scan", "android": "https://dc.lft.to/lastmile_qr_scan"}}, {"name": "283691db31e27723de60afa5a282b5c7", "type": "electric_scooter", "lat": 38.9166805, "is_reserved": 0, "lon": -77.00515633333333, "fusion_lon": 0.0, "is_disabled": 0, "fusion_lat": 0.0, "bike_id": "283691db31e27723de60afa5a282b5c7", "rental_uris": {"ios": "https://dc.lft.to/lastmile_qr_scan", "android": "https://dc.lft.to/lastmile_qr_scan"}}, {"name": "621f02efd688b1f9fb5f542392d0e26e", "type": "electric_scooter", "lat": 38.903737666666665, "is_reserved": 0, "lon": -77.02984433333333, "fusion_lon": 0.0, "is_disabled": 0, "fusion_lat": 0.0, "bike_id": "621f02efd688b1f9fb5f542392d0e26e", "rental_uris": {"ios": "https://dc.lft.to/lastmile_qr_scan", "android": "https://dc.lft.to/lastmile_qr_scan"}}, {"name": "eb4c20dc49826ea98df9f1b3d72553a3", "type": "electric_scooter", "lat": 38.91961233333333, "is_reserved": 0, "lon": -77.031838, "fusion_lon": 0.0, "is_disabled": 0, "fusion_lat": 0.0, "bike_id": "eb4c20dc49826ea98df9f1b3d72553a3", "rental_uris": {"ios": "https://dc.lft.to/lastmile_qr_scan", "android": "https://dc.lft.to/lastmile_qr_scan"}}, {"name": "2dce0984dc6b707a207e34036dfeb39c", "type": "electric_scooter", "lat": 38.896784333333336, "is_reserved": 0, "lon": -76.94729233333334, "fusion_lon": 0.0, "is_disabled": 0, "fusion_lat": 0.0, "bike_id": "2dce0984dc6b707a207e34036dfeb39c", "rental_uris": {"ios": "https://dc.lft.to/lastmile_qr_scan", "android": "https://dc.lft.to/lastmile_qr_scan"}}, {"name": "9674b373957339e387982b8b4b7ef606", "type": "electric_scooter", "lat": 38.902405, "is_reserved": 0, "lon": -77.0435115, "fusion_lon": 0.0, "is_disabled": 0, "fusion_lat": 0.0, "bike_id": "9674b373957339e387982b8b4b7ef606", "rental_uris": {"ios": "https://dc.lft.to/lastmile_qr_scan", "android": "https://dc.lft.to/lastmile_qr_scan"}}, {"name": "d26bacfb453652070e3d716daeb3515b", "type": "electric_scooter", "lat": 38.916430166666665, "is_reserved": 0, "lon": -77.03216266666666, "fusion_lon": 0.0, "is_disabled": 0, "fusion_lat": 0.0, "bike_id": "d26bacfb453652070e3d716daeb3515b", "rental_uris": {"ios": "https://dc.lft.to/lastmile_qr_scan", "android": "https://dc.lft.to/lastmile_qr_scan"}}, {"name": "90f2a041e88a53946439a2ce2c6da970", "type": "electric_scooter", "lat": 38.91709683333333, "is_reserved": 0, "lon": -77.03354533333334, "fusion_lon": 0.0, "is_disabled": 0, "fusion_lat": 0.0, "bike_id": "90f2a041e88a53946439a2ce2c6da970", "rental_uris": {"ios": "https://dc.lft.to/lastmile_qr_scan", "android": "https://dc.lft.to/lastmile_qr_scan"}}, {"name": "ad41e13516581349ea6218551e838994", "type": "electric_scooter", "lat": 38.91548216666666, "is_reserved": 0, "lon": -77.038046, "fusion_lon": 0.0, "is_disabled": 0, "fusion_lat": 0.0, "bike_id": "ad41e13516581349ea6218551e838994", "rental_uris": {"ios": "https://dc.lft.to/lastmile_qr_scan", "android": "https://dc.lft.to/lastmile_qr_scan"}}, {"name": "4984bece2a9196427fadda516409fc20", "type": "electric_scooter", "lat": 38.90136316666667, "is_reserved": 0, "lon": -77.026378, "fusion_lon": 0.0, "is_disabled": 0, "fusion_lat": 0.0, "bike_id": "4984bece2a9196427fadda516409fc20", "rental_uris": {"ios": "https://dc.lft.to/lastmile_qr_scan", "android": "https://dc.lft.to/lastmile_qr_scan"}}, {"name": "b56aa1bec0a9d058c727b126b9d8f077", "type": "electric_scooter", "lat": 38.897971166666665, "is_reserved": 0, "lon": -77.02725316666667, "fusion_lon": 0.0, "is_disabled": 0, "fusion_lat": 0.0, "bike_id": "b56aa1bec0a9d058c727b126b9d8f077", "rental_uris": {"ios": "https://dc.lft.to/lastmile_qr_scan", "android": "https://dc.lft.to/lastmile_qr_scan"}}, {"name": "e4ca39caf7527ec34d851e68aaa81c51", "type": "electric_scooter", "lat": 38.92684233333333, "is_reserved": 0, "lon": -77.01579066666666, "fusion_lon": 0.0, "is_disabled": 0, "fusion_lat": 0.0, "bike_id": "e4ca39caf7527ec34d851e68aaa81c51", "rental_uris": {"ios": "https://dc.lft.to/lastmile_qr_scan", "android": "https://dc.lft.to/lastmile_qr_scan"}}, {"name": "c4a3a2a20b1f79d4047f389a7d8ac00d", "type": "electric_scooter", "lat": 38.912268166666664, "is_reserved": 0, "lon": -77.02269466666667, "fusion_lon": 0.0, "is_disabled": 0, "fusion_lat": 0.0, "bike_id": "c4a3a2a20b1f79d4047f389a7d8ac00d", "rental_uris": {"ios": "https://dc.lft.to/lastmile_qr_scan", "android": "https://dc.lft.to/lastmile_qr_scan"}}, {"name": "3e8f3e2fb719066f73bc76b6f707dedd", "type": "electric_scooter", "lat": 38.9283825, "is_reserved": 0, "lon": -77.015953, "fusion_lon": 0.0, "is_disabled": 0, "fusion_lat": 0.0, "bike_id": "3e8f3e2fb719066f73bc76b6f707dedd", "rental_uris": {"ios": "https://dc.lft.to/lastmile_qr_scan", "android": "https://dc.lft.to/lastmile_qr_scan"}}, {"name": "9ebb865c402bc1596dafcebc2aa13475", "type": "electric_scooter", "lat": 38.905634666666664, "is_reserved": 0, "lon": -77.04180633333333, "fusion_lon": 0.0, "is_disabled": 0, "fusion_lat": 0.0, "bike_id": "9ebb865c402bc1596dafcebc2aa13475", "rental_uris": {"ios": "https://dc.lft.to/lastmile_qr_scan", "android": "https://dc.lft.to/lastmile_qr_scan"}}, {"name": "5210afe0f49d002e1ade3119b2d0a614", "type": "electric_bike", "lat": 38.87481666666667, "is_reserved": 0, "lon": -76.96531083333333, "fusion_lon": 0.0, "is_disabled": 0, "fusion_lat": 0.0, "bike_id": "5210afe0f49d002e1ade3119b2d0a614", "rental_uris": {"ios": "https://dc.lft.to/lastmile_qr_scan", "android": "https://dc.lft.to/lastmile_qr_scan"}}, {"name": "adfaaf3f17a671aeb0b4f29439728d91", "type": "electric_scooter", "lat": 38.91852433333333, "is_reserved": 0, "lon": -77.03203016666667, "fusion_lon": 0.0, "is_disabled": 0, "fusion_lat": 0.0, "bike_id": "adfaaf3f17a671aeb0b4f29439728d91", "rental_uris": {"ios": "https://dc.lft.to/lastmile_qr_scan", "android": "https://dc.lft.to/lastmile_qr_scan"}}, {"name": "c4646f74014a663b2b1700dbdc9ac99c", "type": "electric_scooter", "lat": 38.9253695, "is_reserved": 0, "lon": -77.03533616666667, "fusion_lon": 0.0, "is_disabled": 0, "fusion_lat": 0.0, "bike_id": "c4646f74014a663b2b1700dbdc9ac99c", "rental_uris": {"ios": "https://dc.lft.to/lastmile_qr_scan", "android": "https://dc.lft.to/lastmile_qr_scan"}}, {"name": "3d9a4c385b59ce60ead46317a01582e9", "type": "electric_scooter", "lat": 38.893763666666665, "is_reserved": 0, "lon": -76.94984266666667, "fusion_lon": 0.0, "is_disabled": 0, "fusion_lat": 0.0, "bike_id": "3d9a4c385b59ce60ead46317a01582e9", "rental_uris": {"ios": "https://dc.lft.to/lastmile_qr_scan", "android": "https://dc.lft.to/lastmile_qr_scan"}}, {"name": "4814fb39d5ac49b83fd95234d9196707", "type": "electric_bike", "lat": 38.83828, "is_reserved": 0, "lon": -76.99685066666666, "fusion_lon": 0.0, "is_disabled": 0, "fusion_lat": 0.0, "bike_id": "4814fb39d5ac49b83fd95234d9196707", "rental_uris": {"ios": "https://dc.lft.to/lastmile_qr_scan", "android": "https://dc.lft.to/lastmile_qr_scan"}}, {"name": "bb194ad869caa099ce7413cc8ed7f06e", "type": "electric_scooter", "lat": 38.895983333333334, "is_reserved": 0, "lon": -77.04468166666666, "fusion_lon": 0.0, "is_disabled": 0, "fusion_lat": 0.0, "bike_id": "bb194ad869caa099ce7413cc8ed7f06e", "rental_uris": {"ios": "https://dc.lft.to/lastmile_qr_scan", "android": "https://dc.lft.to/lastmile_qr_scan"}}, {"name": "180dc5764a51fa1ad56960dd7b920ef3", "type": "electric_scooter", "lat": 38.886883, "is_reserved": 0, "lon": -76.95762166666667, "fusion_lon": 0.0, "is_disabled": 0, "fusion_lat": 0.0, "bike_id": "180dc5764a51fa1ad56960dd7b920ef3", "rental_uris": {"ios": "https://dc.lft.to/lastmile_qr_scan", "android": "https://dc.lft.to/lastmile_qr_scan"}}, {"name": "2b016f7225990233d6615d166c87edd6", "type": "electric_scooter", "lat": 38.92855816666667, "is_reserved": 0, "lon": -77.01367366666666, "fusion_lon": 0.0, "is_disabled": 0, "fusion_lat": 0.0, "bike_id": "2b016f7225990233d6615d166c87edd6", "rental_uris": {"ios": "https://dc.lft.to/lastmile_qr_scan", "android": "https://dc.lft.to/lastmile_qr_scan"}}, {"name": "1646f335fee8cfee0d81766d7735f804", "type": "electric_bike", "lat": 38.838104, "is_reserved": 0, "lon": -77.09523616666667, "fusion_lon": 0.0, "is_disabled": 0, "fusion_lat": 0.0, "bike_id": "1646f335fee8cfee0d81766d7735f804", "rental_uris": {"ios": "https://dc.lft.to/lastmile_qr_scan", "android": "https://dc.lft.to/lastmile_qr_scan"}}, {"name": "917f6163c50e73b66fadcce8f4995f86", "type": "electric_scooter", "lat": 38.905054, "is_reserved": 0, "lon": -77.02826283333333, "fusion_lon": 0.0, "is_disabled": 0, "fusion_lat": 0.0, "bike_id": "917f6163c50e73b66fadcce8f4995f86", "rental_uris": {"ios": "https://dc.lft.to/lastmile_qr_scan", "android": "https://dc.lft.to/lastmile_qr_scan"}}, {"name": "e01894e54768dc3e2d9697c8c05403ce", "type": "electric_scooter", "lat": 38.9333675, "is_reserved": 0, "lon": -77.032872, "fusion_lon": 0.0, "is_disabled": 0, "fusion_lat": 0.0, "bike_id": "e01894e54768dc3e2d9697c8c05403ce", "rental_uris": {"ios": "https://dc.lft.to/lastmile_qr_scan", "android": "https://dc.lft.to/lastmile_qr_scan"}}, {"name": "3bb58d58ebf8dae6522e1c75c2598885", "type": "electric_scooter", "lat": 38.86525433333333, "is_reserved": 0, "lon": -76.990297, "fusion_lon": 0.0, "is_disabled": 0, "fusion_lat": 0.0, "bike_id": "3bb58d58ebf8dae6522e1c75c2598885", "rental_uris": {"ios": "https://dc.lft.to/lastmile_qr_scan", "android": "https://dc.lft.to/lastmile_qr_scan"}}, {"name": "be0cc897d9c26cc978b51344089f68a3", "type": "electric_scooter", "lat": 38.93289733333334, "is_reserved": 0, "lon": -77.03982083333334, "fusion_lon": 0.0, "is_disabled": 0, "fusion_lat": 0.0, "bike_id": "be0cc897d9c26cc978b51344089f68a3", "rental_uris": {"ios": "https://dc.lft.to/lastmile_qr_scan", "android": "https://dc.lft.to/lastmile_qr_scan"}}, {"name": "9815a74c39e4f55cae2174844b5f03c3", "type": "electric_scooter", "lat": 38.876291333333334, "is_reserved": 0, "lon": -76.9652785, "fusion_lon": 0.0, "is_disabled": 0, "fusion_lat": 0.0, "bike_id": "9815a74c39e4f55cae2174844b5f03c3", "rental_uris": {"ios": "https://dc.lft.to/lastmile_qr_scan", "android": "https://dc.lft.to/lastmile_qr_scan"}}, {"name": "cdd91dd7529ddea70fcafe1b4c4053e9", "type": "electric_scooter", "lat": 38.892296, "is_reserved": 0, "lon": -77.01522666666666, "fusion_lon": 0.0, "is_disabled": 0, "fusion_lat": 0.0, "bike_id": "cdd91dd7529ddea70fcafe1b4c4053e9", "rental_uris": {"ios": "https://dc.lft.to/lastmile_qr_scan", "android": "https://dc.lft.to/lastmile_qr_scan"}}, {"name": "5100dd1818c995e4ad3247bc0e75bc8b", "type": "electric_scooter", "lat": 38.89739466666666, "is_reserved": 0, "lon": -76.938464, "fusion_lon": 0.0, "is_disabled": 0, "fusion_lat": 0.0, "bike_id": "5100dd1818c995e4ad3247bc0e75bc8b", "rental_uris": {"ios": "https://dc.lft.to/lastmile_qr_scan", "android": "https://dc.lft.to/lastmile_qr_scan"}}, {"name": "8fbf64c8551375cd7e2bba308b0cb9d4", "type": "electric_scooter", "lat": 38.9276685, "is_reserved": 0, "lon": -77.07310316666667, "fusion_lon": 0.0, "is_disabled": 0, "fusion_lat": 0.0, "bike_id": "8fbf64c8551375cd7e2bba308b0cb9d4", "rental_uris": {"ios": "https://dc.lft.to/lastmile_qr_scan", "android": "https://dc.lft.to/lastmile_qr_scan"}}, {"name": "4cf13aaacf94890117b8f915b78e1902", "type": "electric_scooter", "lat": 38.8952545, "is_reserved": 0, "lon": -77.00343466666666, "fusion_lon": 0.0, "is_disabled": 0, "fusion_lat": 0.0, "bike_id": "4cf13aaacf94890117b8f915b78e1902", "rental_uris": {"ios": "https://dc.lft.to/lastmile_qr_scan", "android": "https://dc.lft.to/lastmile_qr_scan"}}, {"name": "b2f59ba547676d1ae6b3208ea29d025b", "type": "electric_bike", "lat": 38.87492133333333, "is_reserved": 0, "lon": -77.0025015, "fusion_lon": 0.0, "is_disabled": 0, "fusion_lat": 0.0, "bike_id": "b2f59ba547676d1ae6b3208ea29d025b", "rental_uris": {"ios": "https://dc.lft.to/lastmile_qr_scan", "android": "https://dc.lft.to/lastmile_qr_scan"}}, {"name": "1244baf3ec57c8a6184c6063037cef2a", "type": "electric_scooter", "lat": 38.920105, "is_reserved": 0, "lon": -77.03210433333334, "fusion_lon": 0.0, "is_disabled": 0, "fusion_lat": 0.0, "bike_id": "1244baf3ec57c8a6184c6063037cef2a", "rental_uris": {"ios": "https://dc.lft.to/lastmile_qr_scan", "android": "https://dc.lft.to/lastmile_qr_scan"}}, {"name": "643045cb2acadb5b7af068ba4a9ef827", "type": "electric_bike", "lat": 38.91959133333334, "is_reserved": 0, "lon": -76.9726925, "fusion_lon": 0.0, "is_disabled": 0, "fusion_lat": 0.0, "bike_id": "643045cb2acadb5b7af068ba4a9ef827", "rental_uris": {"ios": "https://dc.lft.to/lastmile_qr_scan", "android": "https://dc.lft.to/lastmile_qr_scan"}}, {"name": "88141059307e848284053bdb99a2b87b", "type": "electric_scooter", "lat": 38.90071433333333, "is_reserved": 0, "lon": -77.02610883333334, "fusion_lon": 0.0, "is_disabled": 0, "fusion_lat": 0.0, "bike_id": "88141059307e848284053bdb99a2b87b", "rental_uris": {"ios": "https://dc.lft.to/lastmile_qr_scan", "android": "https://dc.lft.to/lastmile_qr_scan"}}, {"name": "18aa174b48c1bcc42ddc860d1767055a", "type": "electric_scooter", "lat": 38.8987555, "is_reserved": 0, "lon": -76.93161133333334, "fusion_lon": 0.0, "is_disabled": 0, "fusion_lat": 0.0, "bike_id": "18aa174b48c1bcc42ddc860d1767055a", "rental_uris": {"ios": "https://dc.lft.to/lastmile_qr_scan", "android": "https://dc.lft.to/lastmile_qr_scan"}}, {"name": "8666d69852e567faf1633e8a348b63c9", "type": "electric_scooter", "lat": 38.906721833333336, "is_reserved": 0, "lon": -77.03858133333334, "fusion_lon": 0.0, "is_disabled": 0, "fusion_lat": 0.0, "bike_id": "8666d69852e567faf1633e8a348b63c9", "rental_uris": {"ios": "https://dc.lft.to/lastmile_qr_scan", "android": "https://dc.lft.to/lastmile_qr_scan"}}, {"name": "8e1e6ab8628224438d556923d4849ac8", "type": "electric_scooter", "lat": 38.903160166666666, "is_reserved": 0, "lon": -77.03827566666666, "fusion_lon": 0.0, "is_disabled": 0, "fusion_lat": 0.0, "bike_id": "8e1e6ab8628224438d556923d4849ac8", "rental_uris": {"ios": "https://dc.lft.to/lastmile_qr_scan", "android": "https://dc.lft.to/lastmile_qr_scan"}}, {"name": "d746b25e298661db67bb2b1b84a77faa", "type": "electric_scooter", "lat": 38.915737166666666, "is_reserved": 0, "lon": -77.04678333333334, "fusion_lon": 0.0, "is_disabled": 0, "fusion_lat": 0.0, "bike_id": "d746b25e298661db67bb2b1b84a77faa", "rental_uris": {"ios": "https://dc.lft.to/lastmile_qr_scan", "android": "https://dc.lft.to/lastmile_qr_scan"}}, {"name": "35061bd0133fe2ecaf15dc1a1782196c", "type": "electric_scooter", "lat": 38.8840395, "is_reserved": 0, "lon": -77.017476, "fusion_lon": 0.0, "is_disabled": 0, "fusion_lat": 0.0, "bike_id": "35061bd0133fe2ecaf15dc1a1782196c", "rental_uris": {"ios": "https://dc.lft.to/lastmile_qr_scan", "android": "https://dc.lft.to/lastmile_qr_scan"}}, {"name": "ae3764d3b8329d5de69b5d31a1afd6d9", "type": "electric_scooter", "lat": 38.90475716666667, "is_reserved": 0, "lon": -77.00214533333333, "fusion_lon": 0.0, "is_disabled": 0, "fusion_lat": 0.0, "bike_id": "ae3764d3b8329d5de69b5d31a1afd6d9", "rental_uris": {"ios": "https://dc.lft.to/lastmile_qr_scan", "android": "https://dc.lft.to/lastmile_qr_scan"}}, {"name": "e9998ae6c4308d7c78a4940e6f1ff431", "type": "electric_scooter", "lat": 38.88614066666667, "is_reserved": 0, "lon": -77.015207, "fusion_lon": 0.0, "is_disabled": 0, "fusion_lat": 0.0, "bike_id": "e9998ae6c4308d7c78a4940e6f1ff431", "rental_uris": {"ios": "https://dc.lft.to/lastmile_qr_scan", "android": "https://dc.lft.to/lastmile_qr_scan"}}, {"name": "a473f6e93af214ef0e9190b250206dc3", "type": "electric_scooter", "lat": 38.894832666666666, "is_reserved": 0, "lon": -76.99538133333333, "fusion_lon": 0.0, "is_disabled": 0, "fusion_lat": 0.0, "bike_id": "a473f6e93af214ef0e9190b250206dc3", "rental_uris": {"ios": "https://dc.lft.to/lastmile_qr_scan", "android": "https://dc.lft.to/lastmile_qr_scan"}}, {"name": "96b529b1abe55837b4f53ffbb4d5cca9", "type": "electric_scooter", "lat": 38.9036985, "is_reserved": 0, "lon": -77.03846516666667, "fusion_lon": 0.0, "is_disabled": 0, "fusion_lat": 0.0, "bike_id": "96b529b1abe55837b4f53ffbb4d5cca9", "rental_uris": {"ios": "https://dc.lft.to/lastmile_qr_scan", "android": "https://dc.lft.to/lastmile_qr_scan"}}, {"name": "ea5842ea36d8627bd2ee59d1bd388810", "type": "electric_scooter", "lat": 38.93081016666667, "is_reserved": 0, "lon": -77.02798516666667, "fusion_lon": 0.0, "is_disabled": 0, "fusion_lat": 0.0, "bike_id": "ea5842ea36d8627bd2ee59d1bd388810", "rental_uris": {"ios": "https://dc.lft.to/lastmile_qr_scan", "android": "https://dc.lft.to/lastmile_qr_scan"}}, {"name": "dfa735c511e1dba4783f75d4a95be4b3", "type": "electric_scooter", "lat": 38.900007, "is_reserved": 0, "lon": -77.030318, "fusion_lon": 0.0, "is_disabled": 0, "fusion_lat": 0.0, "bike_id": "dfa735c511e1dba4783f75d4a95be4b3", "rental_uris": {"ios": "https://dc.lft.to/lastmile_qr_scan", "android": "https://dc.lft.to/lastmile_qr_scan"}}, {"name": "88a7853e0fc16373b19e7b36a7ecb24d", "type": "electric_scooter", "lat": 38.923581166666665, "is_reserved": 0, "lon": -77.0524475, "fusion_lon": 0.0, "is_disabled": 0, "fusion_lat": 0.0, "bike_id": "88a7853e0fc16373b19e7b36a7ecb24d", "rental_uris": {"ios": "https://dc.lft.to/lastmile_qr_scan", "android": "https://dc.lft.to/lastmile_qr_scan"}}, {"name": "9d5e9255f4e8a77373b2d959bcbe2bf7", "type": "electric_scooter", "lat": 38.930558, "is_reserved": 0, "lon": -77.03182066666666, "fusion_lon": 0.0, "is_disabled": 0, "fusion_lat": 0.0, "bike_id": "9d5e9255f4e8a77373b2d959bcbe2bf7", "rental_uris": {"ios": "https://dc.lft.to/lastmile_qr_scan", "android": "https://dc.lft.to/lastmile_qr_scan"}}, {"name": "36e1942e7a5f4595a8a6f27536ca3dcb", "type": "electric_scooter", "lat": 38.9319945, "is_reserved": 0, "lon": -77.03855583333333, "fusion_lon": 0.0, "is_disabled": 0, "fusion_lat": 0.0, "bike_id": "36e1942e7a5f4595a8a6f27536ca3dcb", "rental_uris": {"ios": "https://dc.lft.to/lastmile_qr_scan", "android": "https://dc.lft.to/lastmile_qr_scan"}}, {"name": "115374e433bcaa1ef38731b9cebc74b3", "type": "electric_scooter", "lat": 38.92877566666667, "is_reserved": 0, "lon": -77.03475116666667, "fusion_lon": 0.0, "is_disabled": 0, "fusion_lat": 0.0, "bike_id": "115374e433bcaa1ef38731b9cebc74b3", "rental_uris": {"ios": "https://dc.lft.to/lastmile_qr_scan", "android": "https://dc.lft.to/lastmile_qr_scan"}}, {"name": "60f8ff366c7de1fc567f393c89fa013a", "type": "electric_scooter", "lat": 38.924726666666665, "is_reserved": 0, "lon": -77.02832716666667, "fusion_lon": 0.0, "is_disabled": 0, "fusion_lat": 0.0, "bike_id": "60f8ff366c7de1fc567f393c89fa013a", "rental_uris": {"ios": "https://dc.lft.to/lastmile_qr_scan", "android": "https://dc.lft.to/lastmile_qr_scan"}}, {"name": "6c23c80dabd4954b46d241d21fa7324b", "type": "electric_scooter", "lat": 38.9248945, "is_reserved": 0, "lon": -77.02143966666667, "fusion_lon": 0.0, "is_disabled": 0, "fusion_lat": 0.0, "bike_id": "6c23c80dabd4954b46d241d21fa7324b", "rental_uris": {"ios": "https://dc.lft.to/lastmile_qr_scan", "android": "https://dc.lft.to/lastmile_qr_scan"}}, {"name": "69f5a1c7c0e16298ab8431cf856b8c37", "type": "electric_scooter", "lat": 38.896264333333335, "is_reserved": 0, "lon": -77.03232216666666, "fusion_lon": 0.0, "is_disabled": 0, "fusion_lat": 0.0, "bike_id": "69f5a1c7c0e16298ab8431cf856b8c37", "rental_uris": {"ios": "https://dc.lft.to/lastmile_qr_scan", "android": "https://dc.lft.to/lastmile_qr_scan"}}, {"name": "bc3f6e1cc9294848a9065cc43e8ede1a", "type": "electric_scooter", "lat": 38.9045865, "is_reserved": 0, "lon": -76.99503116666666, "fusion_lon": 0.0, "is_disabled": 0, "fusion_lat": 0.0, "bike_id": "bc3f6e1cc9294848a9065cc43e8ede1a", "rental_uris": {"ios": "https://dc.lft.to/lastmile_qr_scan", "android": "https://dc.lft.to/lastmile_qr_scan"}}, {"name": "c1f2b9234b4b3ee76cc195717a5aaeef", "type": "electric_scooter", "lat": 38.887255, "is_reserved": 0, "lon": -77.02838383333334, "fusion_lon": 0.0, "is_disabled": 0, "fusion_lat": 0.0, "bike_id": "c1f2b9234b4b3ee76cc195717a5aaeef", "rental_uris": {"ios": "https://dc.lft.to/lastmile_qr_scan", "android": "https://dc.lft.to/lastmile_qr_scan"}}, {"name": "987bb92b5734840a059c4da014f7ddc2", "type": "electric_scooter", "lat": 38.896047, "is_reserved": 0, "lon": -77.0450665, "fusion_lon": 0.0, "is_disabled": 0, "fusion_lat": 0.0, "bike_id": "987bb92b5734840a059c4da014f7ddc2", "rental_uris": {"ios": "https://dc.lft.to/lastmile_qr_scan", "android": "https://dc.lft.to/lastmile_qr_scan"}}, {"name": "1821a4f54c6b51dc5c86f9ce8a011800", "type": "electric_scooter", "lat": 38.96821683333334, "is_reserved": 0, "lon": -77.01789283333333, "fusion_lon": 0.0, "is_disabled": 0, "fusion_lat": 0.0, "bike_id": "1821a4f54c6b51dc5c86f9ce8a011800", "rental_uris": {"ios": "https://dc.lft.to/lastmile_qr_scan", "android": "https://dc.lft.to/lastmile_qr_scan"}}, {"name": "35d96e4833cd3d7878ed589aa855757c", "type": "electric_scooter", "lat": 38.92580366666667, "is_reserved": 0, "lon": -77.05261316666666, "fusion_lon": 0.0, "is_disabled": 0, "fusion_lat": 0.0, "bike_id": "35d96e4833cd3d7878ed589aa855757c", "rental_uris": {"ios": "https://dc.lft.to/lastmile_qr_scan", "android": "https://dc.lft.to/lastmile_qr_scan"}}, {"name": "a55eac47067d06948e4a625bfedef3eb", "type": "electric_scooter", "lat": 38.89221966666667, "is_reserved": 0, "lon": -77.0333755, "fusion_lon": 0.0, "is_disabled": 0, "fusion_lat": 0.0, "bike_id": "a55eac47067d06948e4a625bfedef3eb", "rental_uris": {"ios": "https://dc.lft.to/lastmile_qr_scan", "android": "https://dc.lft.to/lastmile_qr_scan"}}, {"name": "797b8a90920495d3078d441d2202a295", "type": "electric_scooter", "lat": 38.9230055, "is_reserved": 0, "lon": -77.041484, "fusion_lon": 0.0, "is_disabled": 0, "fusion_lat": 0.0, "bike_id": "797b8a90920495d3078d441d2202a295", "rental_uris": {"ios": "https://dc.lft.to/lastmile_qr_scan", "android": "https://dc.lft.to/lastmile_qr_scan"}}, {"name": "22f462c42d7c4da77fb9bc9c79238102", "type": "electric_scooter", "lat": 38.918439666666664, "is_reserved": 0, "lon": -77.03890233333334, "fusion_lon": 0.0, "is_disabled": 0, "fusion_lat": 0.0, "bike_id": "22f462c42d7c4da77fb9bc9c79238102", "rental_uris": {"ios": "https://dc.lft.to/lastmile_qr_scan", "android": "https://dc.lft.to/lastmile_qr_scan"}}, {"name": "47062cb294d2b02224933d6c71d4efff", "type": "electric_scooter", "lat": 38.9189735, "is_reserved": 0, "lon": -77.01969283333334, "fusion_lon": 0.0, "is_disabled": 0, "fusion_lat": 0.0, "bike_id": "47062cb294d2b02224933d6c71d4efff", "rental_uris": {"ios": "https://dc.lft.to/lastmile_qr_scan", "android": "https://dc.lft.to/lastmile_qr_scan"}}, {"name": "05eca0c681218857e05373bc6c0c98c7", "type": "electric_scooter", "lat": 38.8764145, "is_reserved": 0, "lon": -76.99590216666667, "fusion_lon": 0.0, "is_disabled": 0, "fusion_lat": 0.0, "bike_id": "05eca0c681218857e05373bc6c0c98c7", "rental_uris": {"ios": "https://dc.lft.to/lastmile_qr_scan", "android": "https://dc.lft.to/lastmile_qr_scan"}}, {"name": "e24f0acdc0ec85eec2e25cf6bff46a95", "type": "electric_scooter", "lat": 38.900035333333335, "is_reserved": 0, "lon": -77.01146016666667, "fusion_lon": 0.0, "is_disabled": 0, "fusion_lat": 0.0, "bike_id": "e24f0acdc0ec85eec2e25cf6bff46a95", "rental_uris": {"ios": "https://dc.lft.to/lastmile_qr_scan", "android": "https://dc.lft.to/lastmile_qr_scan"}}, {"name": "cd72dcddb8694480886db671a0f9cbc6", "type": "electric_scooter", "lat": 38.90286916666667, "is_reserved": 0, "lon": -77.03848216666667, "fusion_lon": 0.0, "is_disabled": 0, "fusion_lat": 0.0, "bike_id": "cd72dcddb8694480886db671a0f9cbc6", "rental_uris": {"ios": "https://dc.lft.to/lastmile_qr_scan", "android": "https://dc.lft.to/lastmile_qr_scan"}}, {"name": "6df8eae2e90c922c0edc2b3e757d4ed0", "type": "electric_scooter", "lat": 38.884240166666665, "is_reserved": 0, "lon": -76.99698966666666, "fusion_lon": 0.0, "is_disabled": 0, "fusion_lat": 0.0, "bike_id": "6df8eae2e90c922c0edc2b3e757d4ed0", "rental_uris": {"ios": "https://dc.lft.to/lastmile_qr_scan", "android": "https://dc.lft.to/lastmile_qr_scan"}}, {"name": "1b765e9b1b3969fcaae55ec57e8a9e64", "type": "electric_scooter", "lat": 38.927401833333334, "is_reserved": 0, "lon": -77.03360266666667, "fusion_lon": 0.0, "is_disabled": 0, "fusion_lat": 0.0, "bike_id": "1b765e9b1b3969fcaae55ec57e8a9e64", "rental_uris": {"ios": "https://dc.lft.to/lastmile_qr_scan", "android": "https://dc.lft.to/lastmile_qr_scan"}}, {"name": "f9fff1f5e8ed4785be99698ad5f154e0", "type": "electric_scooter", "lat": 38.91428033333333, "is_reserved": 0, "lon": -77.02812483333334, "fusion_lon": 0.0, "is_disabled": 0, "fusion_lat": 0.0, "bike_id": "f9fff1f5e8ed4785be99698ad5f154e0", "rental_uris": {"ios": "https://dc.lft.to/lastmile_qr_scan", "android": "https://dc.lft.to/lastmile_qr_scan"}}, {"name": "2e1aea9ccba68ada15b7594f69148a49", "type": "electric_scooter", "lat": 38.898290833333334, "is_reserved": 0, "lon": -77.033395, "fusion_lon": 0.0, "is_disabled": 0, "fusion_lat": 0.0, "bike_id": "2e1aea9ccba68ada15b7594f69148a49", "rental_uris": {"ios": "https://dc.lft.to/lastmile_qr_scan", "android": "https://dc.lft.to/lastmile_qr_scan"}}, {"name": "12a88fc91f62663ea01df0a6b82387dc", "type": "electric_scooter", "lat": 38.891683, "is_reserved": 0, "lon": -77.01547266666667, "fusion_lon": 0.0, "is_disabled": 0, "fusion_lat": 0.0, "bike_id": "12a88fc91f62663ea01df0a6b82387dc", "rental_uris": {"ios": "https://dc.lft.to/lastmile_qr_scan", "android": "https://dc.lft.to/lastmile_qr_scan"}}, {"name": "21e076786d00ba7d2f928a1dd371a5df", "type": "electric_scooter", "lat": 38.905308166666664, "is_reserved": 0, "lon": -77.05768583333334, "fusion_lon": 0.0, "is_disabled": 0, "fusion_lat": 0.0, "bike_id": "21e076786d00ba7d2f928a1dd371a5df", "rental_uris": {"ios": "https://dc.lft.to/lastmile_qr_scan", "android": "https://dc.lft.to/lastmile_qr_scan"}}, {"name": "400185620027569eb090363ecefd9a44", "type": "electric_scooter", "lat": 38.9180415, "is_reserved": 0, "lon": -77.034425, "fusion_lon": 0.0, "is_disabled": 0, "fusion_lat": 0.0, "bike_id": "400185620027569eb090363ecefd9a44", "rental_uris": {"ios": "https://dc.lft.to/lastmile_qr_scan", "android": "https://dc.lft.to/lastmile_qr_scan"}}, {"name": "b09a9737b736e10f35bb097e00d306c9", "type": "electric_scooter", "lat": 38.92962833333333, "is_reserved": 0, "lon": -77.011485, "fusion_lon": 0.0, "is_disabled": 0, "fusion_lat": 0.0, "bike_id": "b09a9737b736e10f35bb097e00d306c9", "rental_uris": {"ios": "https://dc.lft.to/lastmile_qr_scan", "android": "https://dc.lft.to/lastmile_qr_scan"}}, {"name": "0f7988daca03590da632759e02beb7f8", "type": "electric_scooter", "lat": 38.863712166666666, "is_reserved": 0, "lon": -77.0135885, "fusion_lon": 0.0, "is_disabled": 0, "fusion_lat": 0.0, "bike_id": "0f7988daca03590da632759e02beb7f8", "rental_uris": {"ios": "https://dc.lft.to/lastmile_qr_scan", "android": "https://dc.lft.to/lastmile_qr_scan"}}, {"name": "8eb9be611a5df79730936742381e01e4", "type": "electric_scooter", "lat": 38.92159216666667, "is_reserved": 0, "lon": -77.0469325, "fusion_lon": 0.0, "is_disabled": 0, "fusion_lat": 0.0, "bike_id": "8eb9be611a5df79730936742381e01e4", "rental_uris": {"ios": "https://dc.lft.to/lastmile_qr_scan", "android": "https://dc.lft.to/lastmile_qr_scan"}}, {"name": "d1356e242a73f6be234ceeb55f303481", "type": "electric_scooter", "lat": 38.95633766666667, "is_reserved": 0, "lon": -77.02783583333333, "fusion_lon": 0.0, "is_disabled": 0, "fusion_lat": 0.0, "bike_id": "d1356e242a73f6be234ceeb55f303481", "rental_uris": {"ios": "https://dc.lft.to/lastmile_qr_scan", "android": "https://dc.lft.to/lastmile_qr_scan"}}, {"name": "f06e360f7e7799cbcce6dd3bed504933", "type": "electric_bike", "lat": 38.845732, "is_reserved": 0, "lon": -77.09623633333334, "fusion_lon": 0.0, "is_disabled": 0, "fusion_lat": 0.0, "bike_id": "f06e360f7e7799cbcce6dd3bed504933", "rental_uris": {"ios": "https://dc.lft.to/lastmile_qr_scan", "android": "https://dc.lft.to/lastmile_qr_scan"}}, {"name": "685261b0314e54f350e49f41caa31c7a", "type": "electric_scooter", "lat": 38.9027205, "is_reserved": 0, "lon": -77.04500266666666, "fusion_lon": 0.0, "is_disabled": 0, "fusion_lat": 0.0, "bike_id": "685261b0314e54f350e49f41caa31c7a", "rental_uris": {"ios": "https://dc.lft.to/lastmile_qr_scan", "android": "https://dc.lft.to/lastmile_qr_scan"}}, {"name": "15e018b15f611fb3ce90b029662a5171", "type": "electric_scooter", "lat": 38.92366083333334, "is_reserved": 0, "lon": -77.019533, "fusion_lon": 0.0, "is_disabled": 0, "fusion_lat": 0.0, "bike_id": "15e018b15f611fb3ce90b029662a5171", "rental_uris": {"ios": "https://dc.lft.to/lastmile_qr_scan", "android": "https://dc.lft.to/lastmile_qr_scan"}}, {"name": "4afbd9aaf98725d354b7ad26a8a01e0d", "type": "electric_scooter", "lat": 38.929881333333334, "is_reserved": 0, "lon": -77.07943133333333, "fusion_lon": 0.0, "is_disabled": 0, "fusion_lat": 0.0, "bike_id": "4afbd9aaf98725d354b7ad26a8a01e0d", "rental_uris": {"ios": "https://dc.lft.to/lastmile_qr_scan", "android": "https://dc.lft.to/lastmile_qr_scan"}}, {"name": "5f53531aaf1677279c74175b889b152c", "type": "electric_bike", "lat": 38.8324065, "is_reserved": 0, "lon": -76.94625866666667, "fusion_lon": 0.0, "is_disabled": 0, "fusion_lat": 0.0, "bike_id": "5f53531aaf1677279c74175b889b152c", "rental_uris": {"ios": "https://dc.lft.to/lastmile_qr_scan", "android": "https://dc.lft.to/lastmile_qr_scan"}}, {"name": "834246f5d01e271fac43ffd241868adf", "type": "electric_scooter", "lat": 38.92489366666667, "is_reserved": 0, "lon": -77.02715933333333, "fusion_lon": 0.0, "is_disabled": 0, "fusion_lat": 0.0, "bike_id": "834246f5d01e271fac43ffd241868adf", "rental_uris": {"ios": "https://dc.lft.to/lastmile_qr_scan", "android": "https://dc.lft.to/lastmile_qr_scan"}}, {"name": "b79cd104a7c612502a4e274de8a71084", "type": "electric_scooter", "lat": 38.94134533333333, "is_reserved": 0, "lon": -77.01545016666667, "fusion_lon": 0.0, "is_disabled": 0, "fusion_lat": 0.0, "bike_id": "b79cd104a7c612502a4e274de8a71084", "rental_uris": {"ios": "https://dc.lft.to/lastmile_qr_scan", "android": "https://dc.lft.to/lastmile_qr_scan"}}, {"name": "05fe60dd8b946c918f1d55994be3078d", "type": "electric_bike", "lat": 38.87133766666667, "is_reserved": 0, "lon": -76.93729783333333, "fusion_lon": 0.0, "is_disabled": 0, "fusion_lat": 0.0, "bike_id": "05fe60dd8b946c918f1d55994be3078d", "rental_uris": {"ios": "https://dc.lft.to/lastmile_qr_scan", "android": "https://dc.lft.to/lastmile_qr_scan"}}, {"name": "e11a589bbdfa2ac50ecf1c46e0a2a3ea", "type": "electric_scooter", "lat": 38.89804316666667, "is_reserved": 0, "lon": -77.03294683333333, "fusion_lon": 0.0, "is_disabled": 0, "fusion_lat": 0.0, "bike_id": "e11a589bbdfa2ac50ecf1c46e0a2a3ea", "rental_uris": {"ios": "https://dc.lft.to/lastmile_qr_scan", "android": "https://dc.lft.to/lastmile_qr_scan"}}, {"name": "1fda892c83deaa3e829c542a962910ea", "type": "electric_scooter", "lat": 38.9159265, "is_reserved": 0, "lon": -76.98380483333334, "fusion_lon": 0.0, "is_disabled": 0, "fusion_lat": 0.0, "bike_id": "1fda892c83deaa3e829c542a962910ea", "rental_uris": {"ios": "https://dc.lft.to/lastmile_qr_scan", "android": "https://dc.lft.to/lastmile_qr_scan"}}, {"name": "167dc5079f78d2cbbede34320b1c4ce7", "type": "electric_scooter", "lat": 38.90495083333333, "is_reserved": 0, "lon": -77.02591666666666, "fusion_lon": 0.0, "is_disabled": 0, "fusion_lat": 0.0, "bike_id": "167dc5079f78d2cbbede34320b1c4ce7", "rental_uris": {"ios": "https://dc.lft.to/lastmile_qr_scan", "android": "https://dc.lft.to/lastmile_qr_scan"}}, {"name": "afba736de00a8696c55fbf2ce975026b", "type": "electric_scooter", "lat": 38.884922, "is_reserved": 0, "lon": -77.02093583333334, "fusion_lon": 0.0, "is_disabled": 0, "fusion_lat": 0.0, "bike_id": "afba736de00a8696c55fbf2ce975026b", "rental_uris": {"ios": "https://dc.lft.to/lastmile_qr_scan", "android": "https://dc.lft.to/lastmile_qr_scan"}}, {"name": "027c6e351fd24cc7f3ecc054c11066f5", "type": "electric_bike", "lat": 38.936746666666664, "is_reserved": 0, "lon": -76.951984, "fusion_lon": 0.0, "is_disabled": 0, "fusion_lat": 0.0, "bike_id": "027c6e351fd24cc7f3ecc054c11066f5", "rental_uris": {"ios": "https://dc.lft.to/lastmile_qr_scan", "android": "https://dc.lft.to/lastmile_qr_scan"}}, {"name": "a40401d06ab7aaf4213417962819c4bb", "type": "electric_scooter", "lat": 38.92878483333333, "is_reserved": 0, "lon": -77.04057333333333, "fusion_lon": 0.0, "is_disabled": 0, "fusion_lat": 0.0, "bike_id": "a40401d06ab7aaf4213417962819c4bb", "rental_uris": {"ios": "https://dc.lft.to/lastmile_qr_scan", "android": "https://dc.lft.to/lastmile_qr_scan"}}, {"name": "6f56dea77b916049d897234eb3307800", "type": "electric_bike", "lat": 38.88403183333333, "is_reserved": 0, "lon": -76.96066116666667, "fusion_lon": 0.0, "is_disabled": 0, "fusion_lat": 0.0, "bike_id": "6f56dea77b916049d897234eb3307800", "rental_uris": {"ios": "https://dc.lft.to/lastmile_qr_scan", "android": "https://dc.lft.to/lastmile_qr_scan"}}, {"name": "f139b76f1520db9ce56b9b9d302ec0d4", "type": "electric_scooter", "lat": 38.8849775, "is_reserved": 0, "lon": -77.01719216666666, "fusion_lon": 0.0, "is_disabled": 0, "fusion_lat": 0.0, "bike_id": "f139b76f1520db9ce56b9b9d302ec0d4", "rental_uris": {"ios": "https://dc.lft.to/lastmile_qr_scan", "android": "https://dc.lft.to/lastmile_qr_scan"}}, {"name": "2357d353fc4f3e1e490dee9c0b4e8954", "type": "electric_scooter", "lat": 38.94283183333334, "is_reserved": 0, "lon": -77.02508066666667, "fusion_lon": 0.0, "is_disabled": 0, "fusion_lat": 0.0, "bike_id": "2357d353fc4f3e1e490dee9c0b4e8954", "rental_uris": {"ios": "https://dc.lft.to/lastmile_qr_scan", "android": "https://dc.lft.to/lastmile_qr_scan"}}, {"name": "2e0e71ed42bf9e7221992016742b8304", "type": "electric_scooter", "lat": 38.928857, "is_reserved": 0, "lon": -77.054573, "fusion_lon": 0.0, "is_disabled": 0, "fusion_lat": 0.0, "bike_id": "2e0e71ed42bf9e7221992016742b8304", "rental_uris": {"ios": "https://dc.lft.to/lastmile_qr_scan", "android": "https://dc.lft.to/lastmile_qr_scan"}}, {"name": "3b97291e379f54aa00bbbe327deab723", "type": "electric_scooter", "lat": 38.917037, "is_reserved": 0, "lon": -77.04174433333333, "fusion_lon": 0.0, "is_disabled": 0, "fusion_lat": 0.0, "bike_id": "3b97291e379f54aa00bbbe327deab723", "rental_uris": {"ios": "https://dc.lft.to/lastmile_qr_scan", "android": "https://dc.lft.to/lastmile_qr_scan"}}, {"name": "fcd803128858b7d1d05532de4dd9dc45", "type": "electric_scooter", "lat": 38.87661833333333, "is_reserved": 0, "lon": -76.99942966666667, "fusion_lon": 0.0, "is_disabled": 0, "fusion_lat": 0.0, "bike_id": "fcd803128858b7d1d05532de4dd9dc45", "rental_uris": {"ios": "https://dc.lft.to/lastmile_qr_scan", "android": "https://dc.lft.to/lastmile_qr_scan"}}, {"name": "e3d59a75721b5f8629a18ebc55f6e100", "type": "electric_scooter", "lat": 38.903901, "is_reserved": 0, "lon": -77.04347533333333, "fusion_lon": 0.0, "is_disabled": 0, "fusion_lat": 0.0, "bike_id": "e3d59a75721b5f8629a18ebc55f6e100", "rental_uris": {"ios": "https://dc.lft.to/lastmile_qr_scan", "android": "https://dc.lft.to/lastmile_qr_scan"}}, {"name": "e19bf56d0d36b3c105e7918771b283a7", "type": "electric_scooter", "lat": 38.90042033333334, "is_reserved": 0, "lon": -77.00229283333333, "fusion_lon": 0.0, "is_disabled": 0, "fusion_lat": 0.0, "bike_id": "e19bf56d0d36b3c105e7918771b283a7", "rental_uris": {"ios": "https://dc.lft.to/lastmile_qr_scan", "android": "https://dc.lft.to/lastmile_qr_scan"}}, {"name": "7111a8ccce348791ad67bed51a0d8eb6", "type": "electric_scooter", "lat": 38.914349, "is_reserved": 0, "lon": -77.00345933333334, "fusion_lon": 0.0, "is_disabled": 0, "fusion_lat": 0.0, "bike_id": "7111a8ccce348791ad67bed51a0d8eb6", "rental_uris": {"ios": "https://dc.lft.to/lastmile_qr_scan", "android": "https://dc.lft.to/lastmile_qr_scan"}}, {"name": "97fe7e2d4a9dbb52ce6b4f7877a6159a", "type": "electric_scooter", "lat": 38.89960116666666, "is_reserved": 0, "lon": -77.00350333333333, "fusion_lon": 0.0, "is_disabled": 0, "fusion_lat": 0.0, "bike_id": "97fe7e2d4a9dbb52ce6b4f7877a6159a", "rental_uris": {"ios": "https://dc.lft.to/lastmile_qr_scan", "android": "https://dc.lft.to/lastmile_qr_scan"}}, {"name": "292870752df39f8e1f2ae6e4bfc7de4a", "type": "electric_scooter", "lat": 38.908469333333336, "is_reserved": 0, "lon": -77.08530466666667, "fusion_lon": 0.0, "is_disabled": 0, "fusion_lat": 0.0, "bike_id": "292870752df39f8e1f2ae6e4bfc7de4a", "rental_uris": {"ios": "https://dc.lft.to/lastmile_qr_scan", "android": "https://dc.lft.to/lastmile_qr_scan"}}, {"name": "368eb46253a0bf739e2eb4d7b88695da", "type": "electric_scooter", "lat": 38.95251483333333, "is_reserved": 0, "lon": -77.0019355, "fusion_lon": 0.0, "is_disabled": 0, "fusion_lat": 0.0, "bike_id": "368eb46253a0bf739e2eb4d7b88695da", "rental_uris": {"ios": "https://dc.lft.to/lastmile_qr_scan", "android": "https://dc.lft.to/lastmile_qr_scan"}}, {"name": "d085ac6670c6aa4252e6a03650bfd341", "type": "electric_scooter", "lat": 38.930847, "is_reserved": 0, "lon": -77.02796533333333, "fusion_lon": 0.0, "is_disabled": 0, "fusion_lat": 0.0, "bike_id": "d085ac6670c6aa4252e6a03650bfd341", "rental_uris": {"ios": "https://dc.lft.to/lastmile_qr_scan", "android": "https://dc.lft.to/lastmile_qr_scan"}}, {"name": "6ce433cb17a536e0f08dbeeed7542863", "type": "electric_scooter", "lat": 38.92406916666667, "is_reserved": 0, "lon": -77.019619, "fusion_lon": 0.0, "is_disabled": 0, "fusion_lat": 0.0, "bike_id": "6ce433cb17a536e0f08dbeeed7542863", "rental_uris": {"ios": "https://dc.lft.to/lastmile_qr_scan", "android": "https://dc.lft.to/lastmile_qr_scan"}}, {"name": "0499d15e9ad6537ab13ff0657a46f431", "type": "electric_scooter", "lat": 38.898349333333336, "is_reserved": 0, "lon": -77.02679583333334, "fusion_lon": 0.0, "is_disabled": 0, "fusion_lat": 0.0, "bike_id": "0499d15e9ad6537ab13ff0657a46f431", "rental_uris": {"ios": "https://dc.lft.to/lastmile_qr_scan", "android": "https://dc.lft.to/lastmile_qr_scan"}}, {"name": "61d792870000835c99113b16bf9bec69", "type": "electric_scooter", "lat": 38.930021833333335, "is_reserved": 0, "lon": -77.05540966666666, "fusion_lon": 0.0, "is_disabled": 0, "fusion_lat": 0.0, "bike_id": "61d792870000835c99113b16bf9bec69", "rental_uris": {"ios": "https://dc.lft.to/lastmile_qr_scan", "android": "https://dc.lft.to/lastmile_qr_scan"}}, {"name": "0e22e42fc6b6e115bb62775e2369173a", "type": "electric_scooter", "lat": 38.91707733333333, "is_reserved": 0, "lon": -77.025504, "fusion_lon": 0.0, "is_disabled": 0, "fusion_lat": 0.0, "bike_id": "0e22e42fc6b6e115bb62775e2369173a", "rental_uris": {"ios": "https://dc.lft.to/lastmile_qr_scan", "android": "https://dc.lft.to/lastmile_qr_scan"}}, {"name": "10c242ee6f9cafb2622007e31a1eaf3d", "type": "electric_scooter", "lat": 38.887559, "is_reserved": 0, "lon": -77.03135166666667, "fusion_lon": 0.0, "is_disabled": 0, "fusion_lat": 0.0, "bike_id": "10c242ee6f9cafb2622007e31a1eaf3d", "rental_uris": {"ios": "https://dc.lft.to/lastmile_qr_scan", "android": "https://dc.lft.to/lastmile_qr_scan"}}, {"name": "2b3034802151f198668b15de0a290953", "type": "electric_scooter", "lat": 38.88336683333333, "is_reserved": 0, "lon": -76.99353383333333, "fusion_lon": 0.0, "is_disabled": 0, "fusion_lat": 0.0, "bike_id": "2b3034802151f198668b15de0a290953", "rental_uris": {"ios": "https://dc.lft.to/lastmile_qr_scan", "android": "https://dc.lft.to/lastmile_qr_scan"}}, {"name": "99dfff7ad2f8e40c73cad6c61731415e", "type": "electric_scooter", "lat": 38.887446, "is_reserved": 0, "lon": -77.020316, "fusion_lon": 0.0, "is_disabled": 0, "fusion_lat": 0.0, "bike_id": "99dfff7ad2f8e40c73cad6c61731415e", "rental_uris": {"ios": "https://dc.lft.to/lastmile_qr_scan", "android": "https://dc.lft.to/lastmile_qr_scan"}}, {"name": "d2468daad5f03380f1eebbbdadca74d2", "type": "electric_scooter", "lat": 38.935702, "is_reserved": 0, "lon": -77.0373295, "fusion_lon": 0.0, "is_disabled": 0, "fusion_lat": 0.0, "bike_id": "d2468daad5f03380f1eebbbdadca74d2", "rental_uris": {"ios": "https://dc.lft.to/lastmile_qr_scan", "android": "https://dc.lft.to/lastmile_qr_scan"}}, {"name": "0336207b5deb80d003d60c1efb5a7681", "type": "electric_scooter", "lat": 38.884960666666665, "is_reserved": 0, "lon": -77.00727683333334, "fusion_lon": 0.0, "is_disabled": 0, "fusion_lat": 0.0, "bike_id": "0336207b5deb80d003d60c1efb5a7681", "rental_uris": {"ios": "https://dc.lft.to/lastmile_qr_scan", "android": "https://dc.lft.to/lastmile_qr_scan"}}, {"name": "47d27d8012094800298c9f37812d3c06", "type": "electric_scooter", "lat": 38.902468166666665, "is_reserved": 0, "lon": -77.04613566666667, "fusion_lon": 0.0, "is_disabled": 0, "fusion_lat": 0.0, "bike_id": "47d27d8012094800298c9f37812d3c06", "rental_uris": {"ios": "https://dc.lft.to/lastmile_qr_scan", "android": "https://dc.lft.to/lastmile_qr_scan"}}, {"name": "3923105fb030be992cb68d010d9f7a40", "type": "electric_scooter", "lat": 38.93572366666667, "is_reserved": 0, "lon": -77.02765933333333, "fusion_lon": 0.0, "is_disabled": 0, "fusion_lat": 0.0, "bike_id": "3923105fb030be992cb68d010d9f7a40", "rental_uris": {"ios": "https://dc.lft.to/lastmile_qr_scan", "android": "https://dc.lft.to/lastmile_qr_scan"}}, {"name": "2e1807e87e8c4fa3d31ab8dfdc785182", "type": "electric_scooter", "lat": 38.918827, "is_reserved": 0, "lon": -77.0162885, "fusion_lon": 0.0, "is_disabled": 0, "fusion_lat": 0.0, "bike_id": "2e1807e87e8c4fa3d31ab8dfdc785182", "rental_uris": {"ios": "https://dc.lft.to/lastmile_qr_scan", "android": "https://dc.lft.to/lastmile_qr_scan"}}, {"name": "bc9ce14a8b13ad6fab049ba10ef76bd4", "type": "electric_bike", "lat": 38.923696166666666, "is_reserved": 0, "lon": -77.22343266666667, "fusion_lon": 0.0, "is_disabled": 0, "fusion_lat": 0.0, "bike_id": "bc9ce14a8b13ad6fab049ba10ef76bd4", "rental_uris": {"ios": "https://dc.lft.to/lastmile_qr_scan", "android": "https://dc.lft.to/lastmile_qr_scan"}}, {"name": "b50e065eadc36302afc2ce51482f1b47", "type": "electric_scooter", "lat": 38.87662266666667, "is_reserved": 0, "lon": -77.00444116666667, "fusion_lon": 0.0, "is_disabled": 0, "fusion_lat": 0.0, "bike_id": "b50e065eadc36302afc2ce51482f1b47", "rental_uris": {"ios": "https://dc.lft.to/lastmile_qr_scan", "android": "https://dc.lft.to/lastmile_qr_scan"}}, {"name": "6a44df77ed22eedb6f9c1d0148f11f4a", "type": "electric_bike", "lat": 38.8531515, "is_reserved": 0, "lon": -76.98033083333334, "fusion_lon": 0.0, "is_disabled": 0, "fusion_lat": 0.0, "bike_id": "6a44df77ed22eedb6f9c1d0148f11f4a", "rental_uris": {"ios": "https://dc.lft.to/lastmile_qr_scan", "android": "https://dc.lft.to/lastmile_qr_scan"}}, {"name": "c47cced6ff7185722e126fd850992ec0", "type": "electric_scooter", "lat": 38.90419766666667, "is_reserved": 0, "lon": -77.0484985, "fusion_lon": 0.0, "is_disabled": 0, "fusion_lat": 0.0, "bike_id": "c47cced6ff7185722e126fd850992ec0", "rental_uris": {"ios": "https://dc.lft.to/lastmile_qr_scan", "android": "https://dc.lft.to/lastmile_qr_scan"}}, {"name": "dff9b409314a9f0b639cf36cac3f5596", "type": "electric_scooter", "lat": 38.89878133333333, "is_reserved": 0, "lon": -77.032688, "fusion_lon": 0.0, "is_disabled": 0, "fusion_lat": 0.0, "bike_id": "dff9b409314a9f0b639cf36cac3f5596", "rental_uris": {"ios": "https://dc.lft.to/lastmile_qr_scan", "android": "https://dc.lft.to/lastmile_qr_scan"}}, {"name": "cee440789ab63386a70254b5ab9f1667", "type": "electric_scooter", "lat": 38.885079833333336, "is_reserved": 0, "lon": -77.01553133333333, "fusion_lon": 0.0, "is_disabled": 0, "fusion_lat": 0.0, "bike_id": "cee440789ab63386a70254b5ab9f1667", "rental_uris": {"ios": "https://dc.lft.to/lastmile_qr_scan", "android": "https://dc.lft.to/lastmile_qr_scan"}}, {"name": "c9bbbf14f812b25c3d7b398c19b988eb", "type": "electric_scooter", "lat": 38.890380666666665, "is_reserved": 0, "lon": -76.93630483333334, "fusion_lon": 0.0, "is_disabled": 0, "fusion_lat": 0.0, "bike_id": "c9bbbf14f812b25c3d7b398c19b988eb", "rental_uris": {"ios": "https://dc.lft.to/lastmile_qr_scan", "android": "https://dc.lft.to/lastmile_qr_scan"}}, {"name": "4228569db4930bc0584edc6ae0323b36", "type": "electric_scooter", "lat": 38.9286105, "is_reserved": 0, "lon": -77.03285483333333, "fusion_lon": 0.0, "is_disabled": 0, "fusion_lat": 0.0, "bike_id": "4228569db4930bc0584edc6ae0323b36", "rental_uris": {"ios": "https://dc.lft.to/lastmile_qr_scan", "android": "https://dc.lft.to/lastmile_qr_scan"}}, {"name": "34fba5066af0f14cb6e739c533df0bc1", "type": "electric_scooter", "lat": 38.92627, "is_reserved": 0, "lon": -77.03789433333333, "fusion_lon": 0.0, "is_disabled": 0, "fusion_lat": 0.0, "bike_id": "34fba5066af0f14cb6e739c533df0bc1", "rental_uris": {"ios": "https://dc.lft.to/lastmile_qr_scan", "android": "https://dc.lft.to/lastmile_qr_scan"}}, {"name": "6f2c5b55248ac68fcffe54d91cf78ff3", "type": "electric_scooter", "lat": 38.893352666666665, "is_reserved": 0, "lon": -76.984546, "fusion_lon": 0.0, "is_disabled": 0, "fusion_lat": 0.0, "bike_id": "6f2c5b55248ac68fcffe54d91cf78ff3", "rental_uris": {"ios": "https://dc.lft.to/lastmile_qr_scan", "android": "https://dc.lft.to/lastmile_qr_scan"}}, {"name": "6202779ba8729b188b204e35048ca583", "type": "electric_scooter", "lat": 38.90013966666667, "is_reserved": 0, "lon": -76.9912205, "fusion_lon": 0.0, "is_disabled": 0, "fusion_lat": 0.0, "bike_id": "6202779ba8729b188b204e35048ca583", "rental_uris": {"ios": "https://dc.lft.to/lastmile_qr_scan", "android": "https://dc.lft.to/lastmile_qr_scan"}}, {"name": "f1d81c71c697c9e65ab20450a26081da", "type": "electric_scooter", "lat": 38.913354166666664, "is_reserved": 0, "lon": -77.04877833333333, "fusion_lon": 0.0, "is_disabled": 0, "fusion_lat": 0.0, "bike_id": "f1d81c71c697c9e65ab20450a26081da", "rental_uris": {"ios": "https://dc.lft.to/lastmile_qr_scan", "android": "https://dc.lft.to/lastmile_qr_scan"}}, {"name": "e065a95ee39625f1fd7266a6d4503083", "type": "electric_scooter", "lat": 38.92585916666667, "is_reserved": 0, "lon": -77.00471066666667, "fusion_lon": 0.0, "is_disabled": 0, "fusion_lat": 0.0, "bike_id": "e065a95ee39625f1fd7266a6d4503083", "rental_uris": {"ios": "https://dc.lft.to/lastmile_qr_scan", "android": "https://dc.lft.to/lastmile_qr_scan"}}, {"name": "0daa658407d3559cb97c3039cc22b11b", "type": "electric_scooter", "lat": 38.9070225, "is_reserved": 0, "lon": -77.044129, "fusion_lon": 0.0, "is_disabled": 0, "fusion_lat": 0.0, "bike_id": "0daa658407d3559cb97c3039cc22b11b", "rental_uris": {"ios": "https://dc.lft.to/lastmile_qr_scan", "android": "https://dc.lft.to/lastmile_qr_scan"}}, {"name": "4b4aaa74d8deaac547d38afe453859bf", "type": "electric_scooter", "lat": 38.90280833333333, "is_reserved": 0, "lon": -77.03842683333333, "fusion_lon": 0.0, "is_disabled": 0, "fusion_lat": 0.0, "bike_id": "4b4aaa74d8deaac547d38afe453859bf", "rental_uris": {"ios": "https://dc.lft.to/lastmile_qr_scan", "android": "https://dc.lft.to/lastmile_qr_scan"}}, {"name": "b17240eeca27c78174dc23edf6c46a0f", "type": "electric_scooter", "lat": 38.86963683333333, "is_reserved": 0, "lon": -77.01374483333333, "fusion_lon": 0.0, "is_disabled": 0, "fusion_lat": 0.0, "bike_id": "b17240eeca27c78174dc23edf6c46a0f", "rental_uris": {"ios": "https://dc.lft.to/lastmile_qr_scan", "android": "https://dc.lft.to/lastmile_qr_scan"}}, {"name": "da2168ffb0ecf3b06055efce3db2430a", "type": "electric_scooter", "lat": 38.89721383333333, "is_reserved": 0, "lon": -77.02715983333333, "fusion_lon": 0.0, "is_disabled": 0, "fusion_lat": 0.0, "bike_id": "da2168ffb0ecf3b06055efce3db2430a", "rental_uris": {"ios": "https://dc.lft.to/lastmile_qr_scan", "android": "https://dc.lft.to/lastmile_qr_scan"}}, {"name": "fe8c101e44b538e1df10ccff9f5f551b", "type": "electric_bike", "lat": 38.95929133333333, "is_reserved": 0, "lon": -76.925338, "fusion_lon": 0.0, "is_disabled": 0, "fusion_lat": 0.0, "bike_id": "fe8c101e44b538e1df10ccff9f5f551b", "rental_uris": {"ios": "https://dc.lft.to/lastmile_qr_scan", "android": "https://dc.lft.to/lastmile_qr_scan"}}, {"name": "69a8a8b02ce118c161342c37bf48c60b", "type": "electric_scooter", "lat": 38.9750125, "is_reserved": 0, "lon": -77.01689216666666, "fusion_lon": 0.0, "is_disabled": 0, "fusion_lat": 0.0, "bike_id": "69a8a8b02ce118c161342c37bf48c60b", "rental_uris": {"ios": "https://dc.lft.to/lastmile_qr_scan", "android": "https://dc.lft.to/lastmile_qr_scan"}}, {"name": "e3cd9288bb5ba16e0fc57e2898f5213a", "type": "electric_scooter", "lat": 38.896797, "is_reserved": 0, "lon": -77.0295235, "fusion_lon": 0.0, "is_disabled": 0, "fusion_lat": 0.0, "bike_id": "e3cd9288bb5ba16e0fc57e2898f5213a", "rental_uris": {"ios": "https://dc.lft.to/lastmile_qr_scan", "android": "https://dc.lft.to/lastmile_qr_scan"}}, {"name": "0572bd29271e39c3a57923a9c882ce85", "type": "electric_scooter", "lat": 38.92435866666667, "is_reserved": 0, "lon": -77.04253666666666, "fusion_lon": 0.0, "is_disabled": 0, "fusion_lat": 0.0, "bike_id": "0572bd29271e39c3a57923a9c882ce85", "rental_uris": {"ios": "https://dc.lft.to/lastmile_qr_scan", "android": "https://dc.lft.to/lastmile_qr_scan"}}, {"name": "6b0789ea958453714f31357f65e9b4fe", "type": "electric_scooter", "lat": 38.92010916666667, "is_reserved": 0, "lon": -77.03774383333334, "fusion_lon": 0.0, "is_disabled": 0, "fusion_lat": 0.0, "bike_id": "6b0789ea958453714f31357f65e9b4fe", "rental_uris": {"ios": "https://dc.lft.to/lastmile_qr_scan", "android": "https://dc.lft.to/lastmile_qr_scan"}}, {"name": "fe07c047a6fefab71a1d360e6d3bd4b8", "type": "electric_scooter", "lat": 38.89624633333333, "is_reserved": 0, "lon": -76.99851483333333, "fusion_lon": 0.0, "is_disabled": 0, "fusion_lat": 0.0, "bike_id": "fe07c047a6fefab71a1d360e6d3bd4b8", "rental_uris": {"ios": "https://dc.lft.to/lastmile_qr_scan", "android": "https://dc.lft.to/lastmile_qr_scan"}}, {"name": "c92260311b26e98514cb8eab40745e55", "type": "electric_scooter", "lat": 38.9048185, "is_reserved": 0, "lon": -77.043489, "fusion_lon": 0.0, "is_disabled": 0, "fusion_lat": 0.0, "bike_id": "c92260311b26e98514cb8eab40745e55", "rental_uris": {"ios": "https://dc.lft.to/lastmile_qr_scan", "android": "https://dc.lft.to/lastmile_qr_scan"}}, {"name": "50fcea38dc7642bef3abe1fcf3c9b4a1", "type": "electric_scooter", "lat": 38.9224615, "is_reserved": 0, "lon": -77.03072166666666, "fusion_lon": 0.0, "is_disabled": 0, "fusion_lat": 0.0, "bike_id": "50fcea38dc7642bef3abe1fcf3c9b4a1", "rental_uris": {"ios": "https://dc.lft.to/lastmile_qr_scan", "android": "https://dc.lft.to/lastmile_qr_scan"}}, {"name": "b8da4c3a025f982609f8fef66ac8a1f8", "type": "electric_scooter", "lat": 38.906599, "is_reserved": 0, "lon": -77.03852683333334, "fusion_lon": 0.0, "is_disabled": 0, "fusion_lat": 0.0, "bike_id": "b8da4c3a025f982609f8fef66ac8a1f8", "rental_uris": {"ios": "https://dc.lft.to/lastmile_qr_scan", "android": "https://dc.lft.to/lastmile_qr_scan"}}, {"name": "e2967c546b52597b56b1fdfb14404f5a", "type": "electric_scooter", "lat": 38.926511833333336, "is_reserved": 0, "lon": -77.03842216666666, "fusion_lon": 0.0, "is_disabled": 0, "fusion_lat": 0.0, "bike_id": "e2967c546b52597b56b1fdfb14404f5a", "rental_uris": {"ios": "https://dc.lft.to/lastmile_qr_scan", "android": "https://dc.lft.to/lastmile_qr_scan"}}, {"name": "b7c4ec782dc42be61091725b9c879474", "type": "electric_scooter", "lat": 38.89222933333333, "is_reserved": 0, "lon": -77.04265766666667, "fusion_lon": 0.0, "is_disabled": 0, "fusion_lat": 0.0, "bike_id": "b7c4ec782dc42be61091725b9c879474", "rental_uris": {"ios": "https://dc.lft.to/lastmile_qr_scan", "android": "https://dc.lft.to/lastmile_qr_scan"}}, {"name": "565b5affdd72913fdf4b4ef2dd94b37c", "type": "electric_scooter", "lat": 38.90725483333333, "is_reserved": 0, "lon": -77.043454, "fusion_lon": 0.0, "is_disabled": 0, "fusion_lat": 0.0, "bike_id": "565b5affdd72913fdf4b4ef2dd94b37c", "rental_uris": {"ios": "https://dc.lft.to/lastmile_qr_scan", "android": "https://dc.lft.to/lastmile_qr_scan"}}, {"name": "df381695812113fd683689a373d7d308", "type": "electric_scooter", "lat": 38.906452333333334, "is_reserved": 0, "lon": -77.0114585, "fusion_lon": 0.0, "is_disabled": 0, "fusion_lat": 0.0, "bike_id": "df381695812113fd683689a373d7d308", "rental_uris": {"ios": "https://dc.lft.to/lastmile_qr_scan", "android": "https://dc.lft.to/lastmile_qr_scan"}}, {"name": "2d976a9babc8291df299bb2fd5edce1c", "type": "electric_scooter", "lat": 38.93253216666667, "is_reserved": 0, "lon": -77.03276066666666, "fusion_lon": 0.0, "is_disabled": 0, "fusion_lat": 0.0, "bike_id": "2d976a9babc8291df299bb2fd5edce1c", "rental_uris": {"ios": "https://dc.lft.to/lastmile_qr_scan", "android": "https://dc.lft.to/lastmile_qr_scan"}}, {"name": "a0ac2409c671eae1c457d572e3826bda", "type": "electric_scooter", "lat": 38.91806483333333, "is_reserved": 0, "lon": -77.03187433333333, "fusion_lon": 0.0, "is_disabled": 0, "fusion_lat": 0.0, "bike_id": "a0ac2409c671eae1c457d572e3826bda", "rental_uris": {"ios": "https://dc.lft.to/lastmile_qr_scan", "android": "https://dc.lft.to/lastmile_qr_scan"}}, {"name": "7d468c62ab3cd5149e0af0ce24fca519", "type": "electric_scooter", "lat": 38.922428333333336, "is_reserved": 0, "lon": -77.01012933333334, "fusion_lon": 0.0, "is_disabled": 0, "fusion_lat": 0.0, "bike_id": "7d468c62ab3cd5149e0af0ce24fca519", "rental_uris": {"ios": "https://dc.lft.to/lastmile_qr_scan", "android": "https://dc.lft.to/lastmile_qr_scan"}}, {"name": "5e80f71f038077f1cc7ea388555e86b9", "type": "electric_scooter", "lat": 38.906827666666665, "is_reserved": 0, "lon": -77.01346883333333, "fusion_lon": 0.0, "is_disabled": 0, "fusion_lat": 0.0, "bike_id": "5e80f71f038077f1cc7ea388555e86b9", "rental_uris": {"ios": "https://dc.lft.to/lastmile_qr_scan", "android": "https://dc.lft.to/lastmile_qr_scan"}}, {"name": "2af0185a3c49da0706c7f7a18bd939ee", "type": "electric_scooter", "lat": 38.8959625, "is_reserved": 0, "lon": -77.02828733333334, "fusion_lon": 0.0, "is_disabled": 0, "fusion_lat": 0.0, "bike_id": "2af0185a3c49da0706c7f7a18bd939ee", "rental_uris": {"ios": "https://dc.lft.to/lastmile_qr_scan", "android": "https://dc.lft.to/lastmile_qr_scan"}}, {"name": "28a585db07c3d7ff2bc0a8ac873255fa", "type": "electric_scooter", "lat": 38.89829866666667, "is_reserved": 0, "lon": -77.03333733333334, "fusion_lon": 0.0, "is_disabled": 0, "fusion_lat": 0.0, "bike_id": "28a585db07c3d7ff2bc0a8ac873255fa", "rental_uris": {"ios": "https://dc.lft.to/lastmile_qr_scan", "android": "https://dc.lft.to/lastmile_qr_scan"}}, {"name": "b98879894307f483574e005b425bd6e8", "type": "electric_scooter", "lat": 38.908448666666665, "is_reserved": 0, "lon": -77.04413566666666, "fusion_lon": 0.0, "is_disabled": 0, "fusion_lat": 0.0, "bike_id": "b98879894307f483574e005b425bd6e8", "rental_uris": {"ios": "https://dc.lft.to/lastmile_qr_scan", "android": "https://dc.lft.to/lastmile_qr_scan"}}, {"name": "f7659c9e72e0705bd0699e2f9cc2c190", "type": "electric_scooter", "lat": 38.91710066666667, "is_reserved": 0, "lon": -77.0386285, "fusion_lon": 0.0, "is_disabled": 0, "fusion_lat": 0.0, "bike_id": "f7659c9e72e0705bd0699e2f9cc2c190", "rental_uris": {"ios": "https://dc.lft.to/lastmile_qr_scan", "android": "https://dc.lft.to/lastmile_qr_scan"}}, {"name": "9c51fd445a4bac7765bc63302122e089", "type": "electric_bike", "lat": 38.8691005, "is_reserved": 0, "lon": -77.13188466666666, "fusion_lon": 0.0, "is_disabled": 0, "fusion_lat": 0.0, "bike_id": "9c51fd445a4bac7765bc63302122e089", "rental_uris": {"ios": "https://dc.lft.to/lastmile_qr_scan", "android": "https://dc.lft.to/lastmile_qr_scan"}}, {"name": "85cadbac6cc422d4f200d475d5d84094", "type": "electric_scooter", "lat": 38.9027735, "is_reserved": 0, "lon": -77.05923983333334, "fusion_lon": 0.0, "is_disabled": 0, "fusion_lat": 0.0, "bike_id": "85cadbac6cc422d4f200d475d5d84094", "rental_uris": {"ios": "https://dc.lft.to/lastmile_qr_scan", "android": "https://dc.lft.to/lastmile_qr_scan"}}, {"name": "0d3904e39f19820fddaf415096ce78ec", "type": "electric_scooter", "lat": 38.933307666666664, "is_reserved": 0, "lon": -77.0326645, "fusion_lon": 0.0, "is_disabled": 0, "fusion_lat": 0.0, "bike_id": "0d3904e39f19820fddaf415096ce78ec", "rental_uris": {"ios": "https://dc.lft.to/lastmile_qr_scan", "android": "https://dc.lft.to/lastmile_qr_scan"}}, {"name": "ad84fe7d4f4190edd9333bd2096d3679", "type": "electric_scooter", "lat": 38.915555833333336, "is_reserved": 0, "lon": -77.0393225, "fusion_lon": 0.0, "is_disabled": 0, "fusion_lat": 0.0, "bike_id": "ad84fe7d4f4190edd9333bd2096d3679", "rental_uris": {"ios": "https://dc.lft.to/lastmile_qr_scan", "android": "https://dc.lft.to/lastmile_qr_scan"}}, {"name": "becfed6975f0a63b65d14323c7077f05", "type": "electric_scooter", "lat": 38.92021183333333, "is_reserved": 0, "lon": -77.0386085, "fusion_lon": 0.0, "is_disabled": 0, "fusion_lat": 0.0, "bike_id": "becfed6975f0a63b65d14323c7077f05", "rental_uris": {"ios": "https://dc.lft.to/lastmile_qr_scan", "android": "https://dc.lft.to/lastmile_qr_scan"}}, {"name": "edabfd57347e231673d508d1414b4e17", "type": "electric_scooter", "lat": 38.9012895, "is_reserved": 0, "lon": -77.0423245, "fusion_lon": 0.0, "is_disabled": 0, "fusion_lat": 0.0, "bike_id": "edabfd57347e231673d508d1414b4e17", "rental_uris": {"ios": "https://dc.lft.to/lastmile_qr_scan", "android": "https://dc.lft.to/lastmile_qr_scan"}}, {"name": "47f9b869c766bda4d0bb3ecb70d488e2", "type": "electric_scooter", "lat": 38.925194833333336, "is_reserved": 0, "lon": -77.03331483333334, "fusion_lon": 0.0, "is_disabled": 0, "fusion_lat": 0.0, "bike_id": "47f9b869c766bda4d0bb3ecb70d488e2", "rental_uris": {"ios": "https://dc.lft.to/lastmile_qr_scan", "android": "https://dc.lft.to/lastmile_qr_scan"}}, {"name": "d6b5fc5e228ec55abba4fce039d17120", "type": "electric_scooter", "lat": 38.89224, "is_reserved": 0, "lon": -77.04334183333333, "fusion_lon": 0.0, "is_disabled": 0, "fusion_lat": 0.0, "bike_id": "d6b5fc5e228ec55abba4fce039d17120", "rental_uris": {"ios": "https://dc.lft.to/lastmile_qr_scan", "android": "https://dc.lft.to/lastmile_qr_scan"}}, {"name": "e9c60a66dee6d5d24d44806bbf4c86c5", "type": "electric_scooter", "lat": 38.9252055, "is_reserved": 0, "lon": -77.00172983333333, "fusion_lon": 0.0, "is_disabled": 0, "fusion_lat": 0.0, "bike_id": "e9c60a66dee6d5d24d44806bbf4c86c5", "rental_uris": {"ios": "https://dc.lft.to/lastmile_qr_scan", "android": "https://dc.lft.to/lastmile_qr_scan"}}, {"name": "c52901c623780150aefbe5f27aa5d8b3", "type": "electric_scooter", "lat": 38.90615416666667, "is_reserved": 0, "lon": -77.074898, "fusion_lon": 0.0, "is_disabled": 0, "fusion_lat": 0.0, "bike_id": "c52901c623780150aefbe5f27aa5d8b3", "rental_uris": {"ios": "https://dc.lft.to/lastmile_qr_scan", "android": "https://dc.lft.to/lastmile_qr_scan"}}, {"name": "edbf6ecd0b0b3248a6ff8bd33c099bb8", "type": "electric_bike", "lat": 39.0520215, "is_reserved": 0, "lon": -77.10915416666667, "fusion_lon": 0.0, "is_disabled": 0, "fusion_lat": 0.0, "bike_id": "edbf6ecd0b0b3248a6ff8bd33c099bb8", "rental_uris": {"ios": "https://dc.lft.to/lastmile_qr_scan", "android": "https://dc.lft.to/lastmile_qr_scan"}}, {"name": "29874e7dbfe24484a3fe738a9aaa8b94", "type": "electric_scooter", "lat": 38.89606633333333, "is_reserved": 0, "lon": -77.00928566666667, "fusion_lon": 0.0, "is_disabled": 0, "fusion_lat": 0.0, "bike_id": "29874e7dbfe24484a3fe738a9aaa8b94", "rental_uris": {"ios": "https://dc.lft.to/lastmile_qr_scan", "android": "https://dc.lft.to/lastmile_qr_scan"}}, {"name": "502292cd2431956782911d40c84a5049", "type": "electric_scooter", "lat": 38.890344, "is_reserved": 0, "lon": -76.93745016666666, "fusion_lon": 0.0, "is_disabled": 0, "fusion_lat": 0.0, "bike_id": "502292cd2431956782911d40c84a5049", "rental_uris": {"ios": "https://dc.lft.to/lastmile_qr_scan", "android": "https://dc.lft.to/lastmile_qr_scan"}}, {"name": "3085d45034872e3a389290d2e0de6ac3", "type": "electric_scooter", "lat": 38.923645, "is_reserved": 0, "lon": -77.05838033333333, "fusion_lon": 0.0, "is_disabled": 0, "fusion_lat": 0.0, "bike_id": "3085d45034872e3a389290d2e0de6ac3", "rental_uris": {"ios": "https://dc.lft.to/lastmile_qr_scan", "android": "https://dc.lft.to/lastmile_qr_scan"}}, {"name": "e5911c427a9a60afd78590e6ac5fe975", "type": "electric_scooter", "lat": 38.86655583333334, "is_reserved": 0, "lon": -76.98881, "fusion_lon": 0.0, "is_disabled": 0, "fusion_lat": 0.0, "bike_id": "e5911c427a9a60afd78590e6ac5fe975", "rental_uris": {"ios": "https://dc.lft.to/lastmile_qr_scan", "android": "https://dc.lft.to/lastmile_qr_scan"}}, {"name": "193a14bebe0bc704cbc9278e561211bb", "type": "electric_scooter", "lat": 38.918659166666664, "is_reserved": 0, "lon": -77.03176566666667, "fusion_lon": 0.0, "is_disabled": 0, "fusion_lat": 0.0, "bike_id": "193a14bebe0bc704cbc9278e561211bb", "rental_uris": {"ios": "https://dc.lft.to/lastmile_qr_scan", "android": "https://dc.lft.to/lastmile_qr_scan"}}, {"name": "32aaf83a1b6fd476d1926dbbb6acb00c", "type": "electric_bike", "lat": 38.838664333333334, "is_reserved": 0, "lon": -77.08870866666666, "fusion_lon": 0.0, "is_disabled": 0, "fusion_lat": 0.0, "bike_id": "32aaf83a1b6fd476d1926dbbb6acb00c", "rental_uris": {"ios": "https://dc.lft.to/lastmile_qr_scan", "android": "https://dc.lft.to/lastmile_qr_scan"}}, {"name": "984257aac256bbef5495c466c51e43f9", "type": "electric_scooter", "lat": 38.903155166666664, "is_reserved": 0, "lon": -77.0383415, "fusion_lon": 0.0, "is_disabled": 0, "fusion_lat": 0.0, "bike_id": "984257aac256bbef5495c466c51e43f9", "rental_uris": {"ios": "https://dc.lft.to/lastmile_qr_scan", "android": "https://dc.lft.to/lastmile_qr_scan"}}, {"name": "da176b6b0fdd14862f89f974261a191e", "type": "electric_scooter", "lat": 38.90029716666667, "is_reserved": 0, "lon": -76.994506, "fusion_lon": 0.0, "is_disabled": 0, "fusion_lat": 0.0, "bike_id": "da176b6b0fdd14862f89f974261a191e", "rental_uris": {"ios": "https://dc.lft.to/lastmile_qr_scan", "android": "https://dc.lft.to/lastmile_qr_scan"}}, {"name": "875f1b910631b726565f5c458d3e1f70", "type": "electric_scooter", "lat": 38.922963333333335, "is_reserved": 0, "lon": -77.04142583333334, "fusion_lon": 0.0, "is_disabled": 0, "fusion_lat": 0.0, "bike_id": "875f1b910631b726565f5c458d3e1f70", "rental_uris": {"ios": "https://dc.lft.to/lastmile_qr_scan", "android": "https://dc.lft.to/lastmile_qr_scan"}}, {"name": "d3a7f630ea558db7e20d090f51ddd0f6", "type": "electric_scooter", "lat": 38.92555016666667, "is_reserved": 0, "lon": -77.03262666666667, "fusion_lon": 0.0, "is_disabled": 0, "fusion_lat": 0.0, "bike_id": "d3a7f630ea558db7e20d090f51ddd0f6", "rental_uris": {"ios": "https://dc.lft.to/lastmile_qr_scan", "android": "https://dc.lft.to/lastmile_qr_scan"}}, {"name": "7639bd611032eb59fccc662bf9022822", "type": "electric_scooter", "lat": 38.9171275, "is_reserved": 0, "lon": -77.0323445, "fusion_lon": 0.0, "is_disabled": 0, "fusion_lat": 0.0, "bike_id": "7639bd611032eb59fccc662bf9022822", "rental_uris": {"ios": "https://dc.lft.to/lastmile_qr_scan", "android": "https://dc.lft.to/lastmile_qr_scan"}}, {"name": "6bd88fe8d9f197590b3af4c30e7d62cd", "type": "electric_scooter", "lat": 38.904212, "is_reserved": 0, "lon": -77.02948583333334, "fusion_lon": 0.0, "is_disabled": 0, "fusion_lat": 0.0, "bike_id": "6bd88fe8d9f197590b3af4c30e7d62cd", "rental_uris": {"ios": "https://dc.lft.to/lastmile_qr_scan", "android": "https://dc.lft.to/lastmile_qr_scan"}}, {"name": "5fcdf43d304f78c35b1d3e4fef415f10", "type": "electric_bike", "lat": 38.973247, "is_reserved": 0, "lon": -77.02146266666666, "fusion_lon": 0.0, "is_disabled": 0, "fusion_lat": 0.0, "bike_id": "5fcdf43d304f78c35b1d3e4fef415f10", "rental_uris": {"ios": "https://dc.lft.to/lastmile_qr_scan", "android": "https://dc.lft.to/lastmile_qr_scan"}}, {"name": "424e7f59609d7d39c354254617ea0f8b", "type": "electric_scooter", "lat": 38.9110315, "is_reserved": 0, "lon": -77.00215666666666, "fusion_lon": 0.0, "is_disabled": 0, "fusion_lat": 0.0, "bike_id": "424e7f59609d7d39c354254617ea0f8b", "rental_uris": {"ios": "https://dc.lft.to/lastmile_qr_scan", "android": "https://dc.lft.to/lastmile_qr_scan"}}, {"name": "2aad67b3232e2817afc261d7f15bebbb", "type": "electric_scooter", "lat": 38.91994316666667, "is_reserved": 0, "lon": -77.03481183333334, "fusion_lon": 0.0, "is_disabled": 0, "fusion_lat": 0.0, "bike_id": "2aad67b3232e2817afc261d7f15bebbb", "rental_uris": {"ios": "https://dc.lft.to/lastmile_qr_scan", "android": "https://dc.lft.to/lastmile_qr_scan"}}, {"name": "cbbd73a35ca21b9c01963d8a016f9258", "type": "electric_scooter", "lat": 38.89738166666667, "is_reserved": 0, "lon": -77.04319416666667, "fusion_lon": 0.0, "is_disabled": 0, "fusion_lat": 0.0, "bike_id": "cbbd73a35ca21b9c01963d8a016f9258", "rental_uris": {"ios": "https://dc.lft.to/lastmile_qr_scan", "android": "https://dc.lft.to/lastmile_qr_scan"}}, {"name": "b761c710b6472319af5e458dd0635118", "type": "electric_scooter", "lat": 38.902859666666664, "is_reserved": 0, "lon": -77.0385495, "fusion_lon": 0.0, "is_disabled": 0, "fusion_lat": 0.0, "bike_id": "b761c710b6472319af5e458dd0635118", "rental_uris": {"ios": "https://dc.lft.to/lastmile_qr_scan", "android": "https://dc.lft.to/lastmile_qr_scan"}}, {"name": "c4a80d22ebc5c3100aa9053e7d3ececb", "type": "electric_scooter", "lat": 38.885298166666665, "is_reserved": 0, "lon": -77.00581383333333, "fusion_lon": 0.0, "is_disabled": 0, "fusion_lat": 0.0, "bike_id": "c4a80d22ebc5c3100aa9053e7d3ececb", "rental_uris": {"ios": "https://dc.lft.to/lastmile_qr_scan", "android": "https://dc.lft.to/lastmile_qr_scan"}}, {"name": "d8f296ace59999ad3d89c25666d9cec4", "type": "electric_scooter", "lat": 38.899046, "is_reserved": 0, "lon": -77.03921866666667, "fusion_lon": 0.0, "is_disabled": 0, "fusion_lat": 0.0, "bike_id": "d8f296ace59999ad3d89c25666d9cec4", "rental_uris": {"ios": "https://dc.lft.to/lastmile_qr_scan", "android": "https://dc.lft.to/lastmile_qr_scan"}}, {"name": "eb9d4a963d326fa6d72aa1ce0a849bd7", "type": "electric_scooter", "lat": 38.933571, "is_reserved": 0, "lon": -77.06944683333333, "fusion_lon": 0.0, "is_disabled": 0, "fusion_lat": 0.0, "bike_id": "eb9d4a963d326fa6d72aa1ce0a849bd7", "rental_uris": {"ios": "https://dc.lft.to/lastmile_qr_scan", "android": "https://dc.lft.to/lastmile_qr_scan"}}, {"name": "e589aa0a8f4330461fe478d7c96dd007", "type": "electric_scooter", "lat": 38.89206816666667, "is_reserved": 0, "lon": -77.00243466666667, "fusion_lon": 0.0, "is_disabled": 0, "fusion_lat": 0.0, "bike_id": "e589aa0a8f4330461fe478d7c96dd007", "rental_uris": {"ios": "https://dc.lft.to/lastmile_qr_scan", "android": "https://dc.lft.to/lastmile_qr_scan"}}, {"name": "f38fee923299947ad4544b16cf709a52", "type": "electric_scooter", "lat": 38.91672483333333, "is_reserved": 0, "lon": -77.03630833333334, "fusion_lon": 0.0, "is_disabled": 0, "fusion_lat": 0.0, "bike_id": "f38fee923299947ad4544b16cf709a52", "rental_uris": {"ios": "https://dc.lft.to/lastmile_qr_scan", "android": "https://dc.lft.to/lastmile_qr_scan"}}, {"name": "491996eee2008dbfd141d4603c416e84", "type": "electric_scooter", "lat": 38.910122, "is_reserved": 0, "lon": -77.01890083333333, "fusion_lon": 0.0, "is_disabled": 0, "fusion_lat": 0.0, "bike_id": "491996eee2008dbfd141d4603c416e84", "rental_uris": {"ios": "https://dc.lft.to/lastmile_qr_scan", "android": "https://dc.lft.to/lastmile_qr_scan"}}, {"name": "c9d228eaea5969795c0d37bf8c4125d4", "type": "electric_scooter", "lat": 38.90410216666667, "is_reserved": 0, "lon": -76.98103883333333, "fusion_lon": 0.0, "is_disabled": 0, "fusion_lat": 0.0, "bike_id": "c9d228eaea5969795c0d37bf8c4125d4", "rental_uris": {"ios": "https://dc.lft.to/lastmile_qr_scan", "android": "https://dc.lft.to/lastmile_qr_scan"}}, {"name": "b96d52ac075d8b8adf4bcf6b31577d29", "type": "electric_scooter", "lat": 38.9096255, "is_reserved": 0, "lon": -77.03419783333334, "fusion_lon": 0.0, "is_disabled": 0, "fusion_lat": 0.0, "bike_id": "b96d52ac075d8b8adf4bcf6b31577d29", "rental_uris": {"ios": "https://dc.lft.to/lastmile_qr_scan", "android": "https://dc.lft.to/lastmile_qr_scan"}}, {"name": "132e438019600553cf3c212eb62ebb9b", "type": "electric_bike", "lat": 38.958122333333336, "is_reserved": 0, "lon": -77.01381666666667, "fusion_lon": 0.0, "is_disabled": 0, "fusion_lat": 0.0, "bike_id": "132e438019600553cf3c212eb62ebb9b", "rental_uris": {"ios": "https://dc.lft.to/lastmile_qr_scan", "android": "https://dc.lft.to/lastmile_qr_scan"}}, {"name": "6e0a88f9a3a75f4b2ab950e067265e37", "type": "electric_scooter", "lat": 38.90172916666667, "is_reserved": 0, "lon": -77.00007583333333, "fusion_lon": 0.0, "is_disabled": 0, "fusion_lat": 0.0, "bike_id": "6e0a88f9a3a75f4b2ab950e067265e37", "rental_uris": {"ios": "https://dc.lft.to/lastmile_qr_scan", "android": "https://dc.lft.to/lastmile_qr_scan"}}, {"name": "6d583024f8794f5ddba1ed9ab727730d", "type": "electric_scooter", "lat": 38.863568, "is_reserved": 0, "lon": -76.99066966666666, "fusion_lon": 0.0, "is_disabled": 0, "fusion_lat": 0.0, "bike_id": "6d583024f8794f5ddba1ed9ab727730d", "rental_uris": {"ios": "https://dc.lft.to/lastmile_qr_scan", "android": "https://dc.lft.to/lastmile_qr_scan"}}, {"name": "8a1c5fa03614ad9373cc2cfb31f2ed36", "type": "electric_scooter", "lat": 38.890419333333334, "is_reserved": 0, "lon": -77.02569833333334, "fusion_lon": 0.0, "is_disabled": 0, "fusion_lat": 0.0, "bike_id": "8a1c5fa03614ad9373cc2cfb31f2ed36", "rental_uris": {"ios": "https://dc.lft.to/lastmile_qr_scan", "android": "https://dc.lft.to/lastmile_qr_scan"}}, {"name": "87be676b5716295a8fe91ad765a80d9b", "type": "electric_scooter", "lat": 38.905181, "is_reserved": 0, "lon": -77.06586916666667, "fusion_lon": 0.0, "is_disabled": 0, "fusion_lat": 0.0, "bike_id": "87be676b5716295a8fe91ad765a80d9b", "rental_uris": {"ios": "https://dc.lft.to/lastmile_qr_scan", "android": "https://dc.lft.to/lastmile_qr_scan"}}, {"name": "5b8869112cb6c97869426b6460f6473a", "type": "electric_scooter", "lat": 38.90450533333333, "is_reserved": 0, "lon": -77.059213, "fusion_lon": 0.0, "is_disabled": 0, "fusion_lat": 0.0, "bike_id": "5b8869112cb6c97869426b6460f6473a", "rental_uris": {"ios": "https://dc.lft.to/lastmile_qr_scan", "android": "https://dc.lft.to/lastmile_qr_scan"}}, {"name": "9c1eb4e3145ce7e95fb84e74815b47c5", "type": "electric_bike", "lat": 38.88715883333333, "is_reserved": 0, "lon": -77.13305466666667, "fusion_lon": 0.0, "is_disabled": 0, "fusion_lat": 0.0, "bike_id": "9c1eb4e3145ce7e95fb84e74815b47c5", "rental_uris": {"ios": "https://dc.lft.to/lastmile_qr_scan", "android": "https://dc.lft.to/lastmile_qr_scan"}}, {"name": "044b0ae6a7f8d405ce05bbee7036c67a", "type": "electric_scooter", "lat": 38.906050666666665, "is_reserved": 0, "lon": -77.039814, "fusion_lon": 0.0, "is_disabled": 0, "fusion_lat": 0.0, "bike_id": "044b0ae6a7f8d405ce05bbee7036c67a", "rental_uris": {"ios": "https://dc.lft.to/lastmile_qr_scan", "android": "https://dc.lft.to/lastmile_qr_scan"}}, {"name": "4bf47a244899827a0e67c79c05ec452b", "type": "electric_scooter", "lat": 38.89727516666667, "is_reserved": 0, "lon": -77.021608, "fusion_lon": 0.0, "is_disabled": 0, "fusion_lat": 0.0, "bike_id": "4bf47a244899827a0e67c79c05ec452b", "rental_uris": {"ios": "https://dc.lft.to/lastmile_qr_scan", "android": "https://dc.lft.to/lastmile_qr_scan"}}, {"name": "eff3c37229c4e8217e5169e220f7d4f3", "type": "electric_scooter", "lat": 38.90573916666666, "is_reserved": 0, "lon": -77.03440866666666, "fusion_lon": 0.0, "is_disabled": 0, "fusion_lat": 0.0, "bike_id": "eff3c37229c4e8217e5169e220f7d4f3", "rental_uris": {"ios": "https://dc.lft.to/lastmile_qr_scan", "android": "https://dc.lft.to/lastmile_qr_scan"}}, {"name": "c9ed15126b40abb62e5a7cf946a6ee5f", "type": "electric_scooter", "lat": 38.897308, "is_reserved": 0, "lon": -77.043378, "fusion_lon": 0.0, "is_disabled": 0, "fusion_lat": 0.0, "bike_id": "c9ed15126b40abb62e5a7cf946a6ee5f", "rental_uris": {"ios": "https://dc.lft.to/lastmile_qr_scan", "android": "https://dc.lft.to/lastmile_qr_scan"}}, {"name": "0348cdf0e4f12a848a5495df999674ce", "type": "electric_scooter", "lat": 38.90662116666667, "is_reserved": 0, "lon": -77.05140866666666, "fusion_lon": 0.0, "is_disabled": 0, "fusion_lat": 0.0, "bike_id": "0348cdf0e4f12a848a5495df999674ce", "rental_uris": {"ios": "https://dc.lft.to/lastmile_qr_scan", "android": "https://dc.lft.to/lastmile_qr_scan"}}, {"name": "da3ad8b09e4ebca9554a8bf61d516e5d", "type": "electric_scooter", "lat": 38.900149, "is_reserved": 0, "lon": -77.04047733333333, "fusion_lon": 0.0, "is_disabled": 0, "fusion_lat": 0.0, "bike_id": "da3ad8b09e4ebca9554a8bf61d516e5d", "rental_uris": {"ios": "https://dc.lft.to/lastmile_qr_scan", "android": "https://dc.lft.to/lastmile_qr_scan"}}, {"name": "8b4f658c53d48bf7d5cca81096b070a4", "type": "electric_scooter", "lat": 38.912773333333334, "is_reserved": 0, "lon": -77.01350683333334, "fusion_lon": 0.0, "is_disabled": 0, "fusion_lat": 0.0, "bike_id": "8b4f658c53d48bf7d5cca81096b070a4", "rental_uris": {"ios": "https://dc.lft.to/lastmile_qr_scan", "android": "https://dc.lft.to/lastmile_qr_scan"}}, {"name": "d0f6047fc783225425ca1cef5ce88f84", "type": "electric_scooter", "lat": 38.91903516666667, "is_reserved": 0, "lon": -77.0315675, "fusion_lon": 0.0, "is_disabled": 0, "fusion_lat": 0.0, "bike_id": "d0f6047fc783225425ca1cef5ce88f84", "rental_uris": {"ios": "https://dc.lft.to/lastmile_qr_scan", "android": "https://dc.lft.to/lastmile_qr_scan"}}, {"name": "495993a08f8f0b86dcf3c7368fd292dd", "type": "electric_scooter", "lat": 38.890156166666664, "is_reserved": 0, "lon": -76.9373265, "fusion_lon": 0.0, "is_disabled": 0, "fusion_lat": 0.0, "bike_id": "495993a08f8f0b86dcf3c7368fd292dd", "rental_uris": {"ios": "https://dc.lft.to/lastmile_qr_scan", "android": "https://dc.lft.to/lastmile_qr_scan"}}, {"name": "d44f880c5fcefa22ef835341198e7878", "type": "electric_scooter", "lat": 38.89683183333333, "is_reserved": 0, "lon": -76.99623283333334, "fusion_lon": 0.0, "is_disabled": 0, "fusion_lat": 0.0, "bike_id": "d44f880c5fcefa22ef835341198e7878", "rental_uris": {"ios": "https://dc.lft.to/lastmile_qr_scan", "android": "https://dc.lft.to/lastmile_qr_scan"}}, {"name": "c6dd5c72d5b39ef62be90c6320f684e1", "type": "electric_scooter", "lat": 38.900806333333335, "is_reserved": 0, "lon": -76.93871666666666, "fusion_lon": 0.0, "is_disabled": 0, "fusion_lat": 0.0, "bike_id": "c6dd5c72d5b39ef62be90c6320f684e1", "rental_uris": {"ios": "https://dc.lft.to/lastmile_qr_scan", "android": "https://dc.lft.to/lastmile_qr_scan"}}, {"name": "ccc6814ecaef16bbd4c958116f618198", "type": "electric_scooter", "lat": 38.90112766666667, "is_reserved": 0, "lon": -77.0498775, "fusion_lon": 0.0, "is_disabled": 0, "fusion_lat": 0.0, "bike_id": "ccc6814ecaef16bbd4c958116f618198", "rental_uris": {"ios": "https://dc.lft.to/lastmile_qr_scan", "android": "https://dc.lft.to/lastmile_qr_scan"}},